"lineid","car","time","location","longitude","latitude","cityid","cityname"
"234046","148-BY","2018/06/07 19:29:28","新北市永和區秀朗路二段230號","121.526256666667","24.9995616666667","6500400","永和區"
"234007","207-UY","2018/06/07 19:29:30","新北市永和區永和路二段8號","121.514551666667","25.010245","6500400","永和區"
"234081","298-R6","2018/06/07 19:29:29","新北市永和區環河東路三段50號","121.526593333333","25.0061816666667","6500400","永和區"
"234038","336-UY","2018/06/07 19:29:13","新北市永和區成功路二段65號","121.527395","25.0001416666667","6500400","永和區"
"234064","337-UY","2018/06/07 19:29:21","新北市永和區得和路243巷28弄3號","121.52094","25.0013766666667","6500400","永和區"
"234086","338-UY","2018/06/07 19:29:15","新北市永和區成功路一段18巷20號","121.526186666667","25.0051266666667","6500400","永和區"
"234070","552-UM","2018/06/07 19:29:26","新北市永和區警光街5-1號","121.519728333333","25.0095316666667","6500400","永和區"
"234017","745-BX","2018/06/07 19:29:22","新北市永和區環河西路一段63號","121.513366666667","25.0181416666667","6500400","永和區"
"234030","746-BX","2018/06/07 19:29:25","新北市永和區民生路55號","121.522701666667","24.9976266666667","6500400","永和區"
"234054","KEA-2590","2018/06/07 19:29:24","新北市永和區復興街19巷6號","121.516196666667","25.0131866666667","6500400","永和區"
"234013","KEA-2591","2018/06/07 19:29:15","新北市永和區中山路一段138-1號","121.510251666667","25.00976","6500400","永和區"
"234061","AAD-866","2018/06/07 19:29:27","新北市永和區中正路566號","121.517161666667","25.0061433333333","6500400","永和區"
"234042","862-TW","2018/06/07 19:29:21","新北市永和區水源街39巷15號","121.510606666667","25.0037383333333","6500400","永和區"
"234050","863-TW","2018/06/07 19:29:27","新北市永和區信義路122號","121.512525","25.01481","6500400","永和區"
"234026","9371-KE","2018/06/07 19:29:23","新北市中和區安樂路161-1號","121.51473","24.99735","6500400","永和區"
"234011","9373-KE","2018/06/07 19:29:31","新北市永和區保福路二段9巷9號","121.510595","25.01089","6500400","永和區"
"249003","593-UM","2018/06/07 19:29:23","新北市八里區商港六路21號","121.396591666667","25.1484866666667","6502300","八里區"
"248008","095-VK","2018/06/07 19:29:28","新北市五股區中興路一段97號","121.466685","25.073015","6501500","五股區"
"248020","225-UY","2018/06/07 19:29:11","新北市五股區凌雲路三段45-2號","121.427791666667","25.1206416666667","6501500","五股區"
"248012","247-BX","2018/06/07 19:29:16","新北市五股區成泰路二段97號","121.437935","25.08429","6501500","五股區"
"248014","261-SL","2018/06/07 19:29:14","新北市五股區民義路一段183巷8-2號","121.429931666667","25.0868683333333","6501500","五股區"
"248010","272-BY","2018/06/07 19:29:26","新北市五股區水碓一路23號","121.430648333333","25.0712666666667","6501500","五股區"
"248004","677-BX","2018/06/07 19:29:23","新北市五股區五福路60號","121.4333","25.08975","6501500","五股區"
"248002","678-BX","2018/06/07 19:29:12","新北市五股區凌雲路一段158巷14-1號","121.44782","25.1034533333333","6501500","五股區"
"234023","9380-KE","2018/06/07 19:29:15","新北市永和區竹林路91巷21弄11號","121.520863333333","25.0124216666667","6500400","永和區"
"234077","969-R7","2018/06/07 19:29:11","新北市永和區民權路56號","121.519975","24.998275","6500400","永和區"
"234074","AAC-211","2018/06/07 19:29:25","新北市永和區永和路二段254號","121.516218333333","25.0148866666667","6500400","永和區"
"234067","AAC-212","2018/06/07 19:29:20","新北市永和區永貞路354號","121.510283333333","25.006435","6500400","永和區"
"234003","AAC-295","2018/06/07 19:29:24","新北市永和區永和路一段125號","121.51403","25.008275","6500400","永和區"
"244019","403-UM","2018/06/07 19:29:23","新北市林口區頂福里6鄰32號","121.363495","25.0954733333333","6501700","林口區"
"244013","742-UY","2018/06/07 19:29:27","新北市林口區文化一路一段126號","121.375668333333","25.072415","6501700","林口區"
"244023","483-VK","2018/06/07 19:29:19","新北市林口區文化三路二段20號","121.373181666667","25.0789083333333","6501700","林口區"
"244017","485-VK","2018/06/07 19:29:15","新北市林口區湖南里70-9號","121.375933333333","25.0897283333333","6501700","林口區"
"243013","AAD-798","2018/06/07 19:29:26","新北市泰山區貴子路36巷3弄1號","121.425941666667","25.0414283333333","6501600","泰山區"
"243009","297-R6","2018/06/07 19:29:16","新北市五股區成泰路一段7巷17號","121.432456666667","25.0671216666667","6501600","泰山區"
"243016","380-SR","2018/06/07 19:29:21","新北市泰山區明志路三段166號","121.424186666667","25.0394566666667","6501600","泰山區"
"243015","421-VK","2018/06/07 19:29:17","新北市泰山區民權街26號","121.428578333333","25.0507166666667","6501600","泰山區"
"243011","KEA-2215","2018/06/07 19:29:14","新北市泰山區貴子路72號","121.426993333333","25.0413466666667","6501600","泰山區"
"243010","KEA-2216","2018/06/07 19:29:27","新北市泰山區民生路17巷39號","121.429516666667","25.0515483333333","6501600","泰山區"
"243012","646-TV","2018/06/07 19:29:30","新北市泰山區仁愛路6巷5弄5號","121.430921666667","25.0541566666667","6501600","泰山區"
"243014","680-BX","2018/06/07 19:29:25","新北市泰山區全興路157號","121.43427","25.0559883333333","6501600","泰山區"
"222003","436-BY","2018/06/07 19:29:19","新北市深坑區深南路88巷1號","121.620983333333","25.0117066666667","6501800","深坑區"
"222002","659-BX","2018/06/07 19:29:22","新北市深坑區北深路一段177號","121.632498333333","25.0109333333333","6501800","深坑區"
"231041","002-UM","2018/06/07 19:29:26","新北市新店區中正路602號","121.534061666667","24.988125","6500600","新店區"
"231059","046-UY","2018/06/07 19:29:16","新北市新店區安和路三段7號","121.51806","24.9805416666667","6500600","新店區"
"231040","047-UY","2018/06/07 19:29:30","新北市新店區北新路一段273號","121.54113","24.9666716666667","6500600","新店區"
"231052","108-UY","2018/06/07 19:29:15","新北市新店區新烏路二段300號","121.548218333333","24.9139883333333","6500600","新店區"
"231047","187-VK","2018/06/07 19:29:13","新北市新店區五峰路140號","121.544925","24.965695","6500600","新店區"
"231046","188-VK","2018/06/07 19:29:16","新北市新店區北新路一段91號","121.538776666667","24.9617633333333","6500600","新店區"
"231054","KEA-2219","2018/06/07 19:29:17","新北市新店區文中路45號","121.539658333333","24.9566583333333","6500600","新店區"
"231057","256-BX","2018/06/07 19:29:26","新北市新店區花園一路三段28號","121.550686666667","24.9327966666667","6500600","新店區"
"231042","268-BY","2018/06/07 19:29:15","新北市新店區中興路一段24-2號","121.538508333333","24.9582333333333","6500600","新店區"
"231051","278-BY","2018/06/07 19:29:22","新北市新店區中央五街60號","121.527706666667","24.97539","6500600","新店區"
"231050","AAD-862","2018/06/07 19:29:20","新北市新店區竹林路94號","121.553911666667","24.9502266666667","6500600","新店區"
"231044","355-BY","2018/06/07 19:29:10","新北市新店區中興路三段199號","121.543816666667","24.9815616666667","6500600","新店區"
"231058","3713-VJ","2018/06/07 19:29:29","新北市新店區寶橋路85巷50號","121.545553333333","24.9762433333333","6500600","新店區"
"231066","4716-K9","2018/06/07 19:29:26","新北市新店區安康路三段165巷2弄4號","121.48943","24.9513383333333","6500600","新店區"
"231067","4772-VM","2018/06/07 19:29:28","新北市新店區太平路44號","121.532961666667","24.959375","6500600","新店區"
"231065","512-UM","2018/06/07 19:29:16","新北市新店區安祥路109巷3弄10號","121.475525","24.959765","6500600","新店區"
"231049","513-UM","2018/06/07 19:29:16","新北市新店區北新路三段65巷34弄27號","121.540008333333","24.98183","6500600","新店區"
"231061","619-UM","2018/06/07 19:29:19","新北市新店區安康路一段277號","121.52385","24.9634533333333","6500600","新店區"
"231063","641-BX","2018/06/07 19:29:22","新北市新店區達觀路16號","121.503178333333","24.9406033333333","6500600","新店區"
"231064","719-UM","2018/06/07 19:29:17","新北市新店區安康路二段87號","121.513461666667","24.9628816666667","6500600","新店區"
"231062","720-UM","2018/06/07 19:29:20","新北市新店區安康路一段92號","121.527941666667","24.961935","6500600","新店區"
"231060","897-TW","2018/06/07 19:29:18","新北市新店區安康路二段2號","121.51646","24.96381","6500600","新店區"
"231045","898-TW","2018/06/07 19:29:12","新北市新店區北宜路二段209號","121.553195","24.9532566666667","6500600","新店區"
"231043","899-TW","2018/06/07 19:29:24","新北市新店區北新路二段193號","121.54263","24.9781166666667","6500600","新店區"
"231055","AKT-0513","2018/06/07 19:29:16","新北市新店區力行路100號","121.538098333333","24.96818","6500600","新店區"
"241028","022-UY","2018/06/07 19:29:29","新北市三重區中寮街60號","121.492968333333","25.05848","6500200","三重區"
"241008","059-VK","2018/06/07 19:29:20","新北市三重區永福街135巷36號","121.477363333333","25.0772066666667","6500200","三重區"
"241031","061-VK","2018/06/07 19:29:29","新北市三重區集美街100號","121.488531666667","25.0541383333333","6500200","三重區"
"241017","063-VK","2018/06/07 19:29:24","新北市三重區大智街100號","121.493221666667","25.0665116666667","6500200","三重區"
"241026","066-VK","2018/06/07 19:29:11","新北市三重區文化南路47巷45號","121.498965","25.0610733333333","6500200","三重區"
"241009","265-UM","2018/06/07 19:29:17","新北市三重區溪尾街242巷69號","121.486071666667","25.0814516666667","6500200","三重區"
"241022","267-UM","2018/06/07 19:29:22","新北市三重區三民街141-2號","121.484478333333","25.0640683333333","6500200","三重區"
"241025","271-UM","2018/06/07 19:29:17","新北市三重區頂崁街210巷28弄1號","121.475781666667","25.067685","6500200","三重區"
"241007","398-BY","2018/06/07 19:29:25","新北市三重區溪尾街160號","121.488833333333","25.0800683333333","6500200","三重區"
"241035","462-BY","2018/06/07 19:29:26","新北市三重區信義西街1巷3號","121.497995","25.06504","6500200","三重區"
"241013","475-VK","2018/06/07 19:29:26","新北市三重區仁愛街125巷9號","121.496258333333","25.0752733333333","6500200","三重區"
"241020","478-VK","2018/06/07 19:29:28","新北市三重區三和路四段44巷10號","121.489846666667","25.0744016666667","6500200","三重區"
"241030","480-VK","2018/06/07 19:29:13","新北市三重區成功路41巷16號","121.490343333333","25.0517016666667","6500200","三重區"
"241006","AAD-863","2018/06/07 19:29:17","新北市三重區自強路三段78號","121.487008333333","25.0742233333333","6500200","三重區"
"241032","887-TS","2018/06/07 19:29:22","新北市三重區三陽路28號","121.48549","25.0587733333333","6500200","三重區"
"241029","942-UM","2018/06/07 19:29:17","新北市三重區中正南路216號","121.493778333333","25.055055","6500200","三重區"
"235064","005-UY","2018/06/07 19:29:31","新北市中和區南山路75號","121.502036666667","24.9981383333333","6500300","中和區"
"235063","006-UY","2018/06/07 19:29:31","新北市中和區板南路335號","121.494201666667","24.9977183333333","6500300","中和區"
"235056","096-UM","2018/06/07 19:29:21","新北市中和區民富街1號","121.476671666667","25.0069433333333","6500300","中和區"
"235039","097-UM","2018/06/07 19:29:20","新北市中和區秀峰街119巷8弄14號","121.519011666667","24.9899466666667","6500300","中和區"
"235065","098-UM","2018/06/07 19:29:24","新北市中和區中山路二段2巷45弄42號","121.501915","25.0065633333333","6500300","中和區"
"235040","150-BY","2018/06/07 19:29:12","新北市中和區保健路44巷11號","121.509071666667","24.9966433333333","6500300","中和區"
"235058","151-BY","2018/06/07 19:29:29","新北市中和區連城路525-4號","121.481283333333","24.995065","6500300","中和區"
"235055","183-VK","2018/06/07 19:29:27","新北市中和區莒光路120巷17弄2號","121.471723333333","25.0009066666667","6500300","中和區"
"235038","185-VK","2018/06/07 19:29:16","新北市中和區自立路15巷4號","121.522676666667","24.99588","6500300","中和區"
"235049","186-VK","2018/06/07 19:29:16","新北市中和區景新街283號","121.509675","24.9933766666667","6500300","中和區"
"235067","255-BX","2018/06/07 19:29:20","新北市中和區新生街264號","121.483596666667","24.9972233333333","6500300","中和區"
"235044","293-VK","2018/06/07 19:29:25","新北市中和區捷運路185號","121.505468333333","24.991395","6500300","中和區"
"235072","301-VK","2018/06/07 19:29:24","新北市中和區連城路265巷12弄2號","121.491693333333","24.9951766666667","6500300","中和區"
"235043","352-BY","2018/06/07 19:29:11","新北市中和區南山路179號","121.502733333333","24.9951683333333","6500300","中和區"
"235042","551-UM","2018/06/07 19:29:22","新北市中和區安平路161號","121.512506666667","24.9985516666667","6500300","中和區"
"235070","558-UM","2018/06/07 19:29:26","新北市中和區中和路86號","121.501165","25.00054","6500300","中和區"
"235045","565-BX","2018/06/07 19:29:14","新北市中和區景新街399巷6號","121.51291","24.9898666666667","6500300","中和區"
"235054","640-BX","2018/06/07 19:29:29","新北市中和區國光街112巷23弄1號","121.469668333333","25.002205","6500300","中和區"
"235060","647-TV","2018/06/07 19:29:24","新北市中和區民樂路15號","121.481866666667","25.0017166666667","6500300","中和區"
"235047","732-UM","2018/06/07 19:29:26","新北市中和區景平路259巷20號","121.50762","24.992715","6500300","中和區"
"235046","733-UM","2018/06/07 19:29:12","新北市中和區華新街137號","121.506656666667","24.98164","6500300","中和區"
"235071","783-BX","2018/06/07 19:29:28","新北市中和區連城路469巷21弄22號","121.484218333333","24.9950666666667","6500300","中和區"
"235057","801-TS","2018/06/07 19:29:12","新北市中和區中山路三段37巷35號","121.479595","25.004745","6500300","中和區"
"235041","802-TS","2018/06/07 19:29:24","新北市中和區中安街74號","121.512341666667","25.0019516666667","6500300","中和區"
"235052","805-TS","2018/06/07 19:29:22","新北市中和區華新街143巷71弄31號","121.507856666667","24.979145","6500300","中和區"
"235048","896-TW","2018/06/07 19:29:21","新北市中和區忠孝街137號","121.512795","24.988245","6500300","中和區"
"235053","900-TW","2018/06/07 19:29:22","新北市中和區華順街2巷2號","121.467595","24.998815","6500300","中和區"
"235066","911-UM","2018/06/07 19:29:12","新北市中和區景新街44號","121.503625","24.99916","6500300","中和區"
"235051","157-BY","2018/06/07 19:29:31","新北市中和區景新街232號","121.508633333333","24.994035","6500300","中和區"
"235037","AAC-213","2018/06/07 19:29:27","新北市中和區秀朗路三段10巷14弄1號","121.525193333333","24.9965","6500300","中和區"
"235059","AAC-215","2018/06/07 19:29:30","新北市中和區圓通路252巷25號","121.49294","24.9917233333333","6500300","中和區"
"220065","072-UY","2018/06/07 19:29:19","新北市板橋區國泰街111巷15號","121.466146666667","25.0059683333333","6500100","板橋區"
"220106","075-UY","2018/06/07 19:29:25","新北市板橋區長江路三段62號","121.473698333333","25.0338133333333","6500100","板橋區"
"220069","AAD-861","2018/06/07 19:29:20","新北市板橋區貴興路35號","121.457643333333","25.003855","6500100","板橋區"
"220090","120-SR","2018/06/07 19:29:23","新北市板橋區長江路一段106巷12弄1號","121.459978333333","25.0290183333333","6500100","板橋區"
"226004","312-R5","2018/06/07 19:29:15","新北市平溪區靜安路三段386號","121.780888333333","25.0473033333333","6502400","平溪區"
"228003","097-TW","2018/06/07 19:29:29","新北市貢寮區和美里和美街22-1號","121.912815","25.0826266666667","6502600","貢寮區"
"228001","212-TW","2018/06/07 19:29:14","新北市貢寮區真理里大澳街60號","121.925451666667","25.0569566666667","6502600","貢寮區"
"228002","585-TW","2018/06/07 19:29:29","新北市貢寮區龍門里龍門街62-5號","121.93162","25.0271383333333","6502600","貢寮區"
"224010","AGQ-8101","2018/06/07 19:25:44","新北市瑞芳區基山街110號","121.843983333333","25.108535","6501200","瑞芳區"
"224002","639-TC","2018/06/07 19:29:18","新北市瑞芳區三爪子坑路113號","121.810653333333","25.1071233333333","6501200","瑞芳區"
"224008","285-BY","2018/06/07 19:29:17","新北市瑞芳區一坑路97-1號","121.802025","25.1079216666667","6501200","瑞芳區"
"227004","642-TC","2018/06/07 19:29:26","新北市雙溪區雙溪里光復街14號","121.865126666667","25.0352816666667","6502500","雙溪區"
"227010","400-TW","2018/06/07 19:29:20","新北市雙溪區新基里新基北街43號","121.868196666667","25.0396966666667","6502500","雙溪區"
"253005","032-BX","2018/06/07 19:29:27","新北市石門區小坑9號","121.594326666667","25.2886333333333","6502200","石門區"
"253006","295-VK","2018/06/07 19:29:19","新北市石門區中央路56號","121.568188333333","25.2933083333333","6502200","石門區"
"222001","KEA-2212","2018/06/07 19:29:11","新北市深坑區北深路二段123巷17號","121.616638333333","25.0028666666667","6501800","深坑區"
"208002","KEA-2872","2018/06/07 19:29:14","新北市金山區中華路111號","121.633778333333","25.2201516666667","6502700","金山區"
"208003","665-BX","2018/06/07 19:29:21","新北市金山區忠孝一路74號","121.637216666667","25.2206583333333","6502700","金山區"
"208001","761-BX","2018/06/07 19:29:18","新北市金山區中正路149號","121.631628333333","25.2213733333333","6502700","金山區"
"251009","008-UM","2018/06/07 19:29:25","新北市淡水區大忠街5巷8號","121.443318333333","25.1765233333333","6501000","淡水區"
"251005","010-UM","2018/06/07 19:29:21","新北市淡水區水源街一段71巷18號","121.444405","25.1729516666667","6501000","淡水區"
"251001","011-UM","2018/06/07 19:29:31","新北市淡水區民權路155號","121.459841666667","25.1362616666667","6501000","淡水區"
"251013","KEA-2871","2018/06/07 19:29:26","新北市淡水區安子內12號","121.480375","25.2196516666667","6501000","淡水區"
"251016","179-VK","2018/06/07 19:29:24","新北市淡水區下圭柔山119-51號","121.450703333333","25.208465","6501000","淡水區"
"251014","180-VK","2018/06/07 19:29:31","新北市淡水區小中寮15-1號","121.485656666667","25.2303433333333","6501000","淡水區"
"251015","182-VK","2018/06/07 19:29:18","新北市淡水區山子頂22-1號","121.492516666667","25.189785","6501000","淡水區"
"251010","413-VK","2018/06/07 19:29:16","新北市淡水區淡海路245-1號","121.420195","25.1860666666667","6501000","淡水區"
"251012","441-VK","2018/06/07 19:29:24","新北市淡水區崁頂75-2號","121.43526","25.20381","6501000","淡水區"
"251007","442-VK","2018/06/07 19:29:31","新北市淡水區八勢路6號","121.462393333333","25.1501516666667","6501000","淡水區"
"251008","443-VK","2018/06/07 19:29:29","新北市淡水區中正路一段102號","121.423975","25.1778","6501000","淡水區"
"251011","650-BX","2018/06/07 19:29:15","新北市淡水區中正東路二段143巷2弄1號","121.460573333333","25.147355","6501000","淡水區"
"251003","766-UM","2018/06/07 19:29:25","新北市淡水區中山北路三段79號","121.44438","25.1925983333333","6501000","淡水區"
"207003","550-UM","2018/06/07 19:29:14","新北市萬里區大鵬里萬里加投193號","121.644493333333","25.2145433333333","6502800","萬里區"
"207004","225-TW","2018/06/07 19:29:31","新北市萬里區萬里里瑪鋉路135號","121.688941666667","25.1777533333333","6502800","萬里區"
"252002","178-VK","2018/06/07 19:29:15","新北市三芝區淡金路二段18-1號","121.50271","25.2595366666667","6502100","三芝區"
"252001","292-VK","2018/06/07 19:29:18","新北市三芝區長勤街63-5號","121.500105","25.2560433333333","6502100","三芝區"
"237007","153-BY","2018/06/07 19:29:29","新北市三峽區二鬮路136巷18弄4號","121.358815","24.9083416666667","6500900","三峽區"
"237009","210-TH","2018/06/07 19:29:27","新北市三峽區中山路13巷11號","121.369011666667","24.933905","6500900","三峽區"
"237013","252-BX","2018/06/07 19:29:33","新北市三峽區介壽路一段316號","121.380651666667","24.930185","6500900","三峽區"
"237012","275-BY","2018/06/07 19:29:18","新北市三峽區三樹路17號","121.377511666667","24.9375266666667","6500900","三峽區"
"237008","302-VK","2018/06/07 19:29:31","新北市三峽區大同路154號","121.373111666667","24.9267716666667","6500900","三峽區"
"237014","433-BY","2018/06/07 19:29:22","新北市三峽區中山路67巷5號","121.366716666667","24.9342466666667","6500900","三峽區"
"237006","5529-G3","2018/06/07 19:29:20","新北市三峽區中正路一段336巷15弄2號","121.36997","24.92495","6500900","三峽區"
"237011","KEA-2596","2018/06/07 19:29:27","新北市三峽區中正路一段328-1號","121.371335","24.9248966666667","6500900","三峽區"
"237016","649-BX","2018/06/07 19:29:20","新北市三峽區安坑13-3號","121.44455","24.92663","6500900","三峽區"
"237010","706-TV","2018/06/07 19:29:14","新北市三峽區復興路29號","121.373798333333","24.9364933333333","6500900","三峽區"
"237005","AKY-6261","2018/06/07 19:29:12","新北市三峽區復興路367巷1弄15號","121.364075","24.93805","6500900","三峽區"
"236070","105-UM","2018/06/07 19:29:31","新北市土城區裕民路185巷36弄10號","121.454365","24.9845516666667","6501300","土城區"
"236078","166-UM","2018/06/07 19:29:22","新北市土城區中州路3巷43號","121.413411666667","24.956315","6501300","土城區"
"236026","269-VK","2018/06/07 19:29:24","新北市土城區中央路二段61巷22號","121.443213333333","24.97866","6501300","土城區"
"236021","401-BY","2018/06/07 19:29:11","新北市土城區峰廷街5號","121.469138333333","24.98719","6501300","土城區"
"236049","913-UM","2018/06/07 19:29:13","新北市土城區清水路201號","121.46","24.9816716666667","6501300","土城區"
"242023","362-BY","2018/06/07 19:29:24","新北市新莊區新泰路488號","121.442485","25.0458116666667","6500500","新莊區"
"242031","135-UY","2018/06/07 19:29:25","新北市新莊區新泰路225巷16號","121.445493333333","25.0392233333333","6500500","新莊區"
"242048","172-VK","2018/06/07 19:29:25","新北市新莊區後港一路19號","121.424221666667","25.0261166666667","6500500","新莊區"
"242004","176-VK","2018/06/07 19:29:22","新北市新莊區化成路11巷68號","121.462225","25.0435566666667","6500500","新莊區"
"242021","348-TH","2018/06/07 19:29:23","新北市新莊區新泰路255巷83號","121.442308333333","25.03901","6500500","新莊區"
"238015","755-BX","2018/06/07 19:29:17","新北市樹林區復興路253號","121.419465","24.9902616666667","6500700","樹林區"
"238023","601-UM","2018/06/07 19:29:13","桃園市龜山區萬壽路一段145號","121.407795","25.018505","6500700","樹林區"
"238019","599-UM","2018/06/07 19:29:14","新北市樹林區大同街12號","121.418468333333","24.9827166666667","6500700","樹林區"
"238018","571-TV","2018/06/07 19:29:30","新北市樹林區中華路31號","121.423958333333","24.9835683333333","6500700","樹林區"
"238024","5061-A6","2018/06/07 19:29:23","新北市樹林區福德街3號","121.401693333333","24.9757066666667","6500700","樹林區"
"238022","KEA-2213","2018/06/07 19:29:21","新北市樹林區太元街55號","121.418798333333","24.97908","6500700","樹林區"
"238021","KEA-2539","2018/06/07 19:29:26","新北市樹林區大成路155-1號","121.381683333333","24.94855","6500700","樹林區"
"238025","303-VK","2018/06/07 19:29:15","新北市樹林區中山路一段85號","121.42354","24.9913766666667","6500700","樹林區"
"238017","283-BY","2018/06/07 19:29:22","新北市樹林區光興街40號","121.410821666667","25.00266","6500700","樹林區"
"238014","282-BY","2018/06/07 19:29:28","新北市樹林區千歲街6巷13號","121.425568333333","24.9952333333333","6500700","樹林區"
"238020","268-VK","2018/06/07 19:29:13","新北市樹林區俊英街111巷1-5號","121.424278333333","25.0096216666667","6500700","樹林區"
"238026","172-UY","2018/06/07 19:29:21","新北市樹林區佳園路三段95號","121.38758","24.9523483333333","6500700","樹林區"
"238016","169-UY","2018/06/07 19:29:29","新北市樹林區大安路593號","121.411766666667","24.9831333333333","6500700","樹林區"
"239007","AAC-297","2018/06/07 19:21:07","新北市鶯歌區西湖街6-2號","121.341178333333","24.9574","6500800","鶯歌區"
"239006","891-R6","2018/06/07 19:29:25","新北市鶯歌區鶯桃路91巷33號","121.338","24.9523183333333","6500800","鶯歌區"
"239005","526-UM","2018/06/07 19:29:17","新北市鶯歌區東湖路15-1號","121.354741666667","24.9719816666667","6500800","鶯歌區"
"239001","417-VK","2018/06/07 19:29:17","新北市鶯歌區建國路461號","121.339258333333","24.9519883333333","6500800","鶯歌區"
"239003","360-BY","2018/06/07 19:29:13","新北市鶯歌區國華路56號","121.342278333333","24.95494","6500800","鶯歌區"
"239004","193-VK","2018/06/07 19:29:20","新北市鶯歌區中正三路256-1號","121.32962","24.9363916666667","6500800","鶯歌區"
"221008","489-VK","2018/06/07 19:29:23","新北市汐止區康寧街227號","121.622965","25.06672","6501100","汐止區"
"221036","130-UY","2018/06/07 19:29:12","新北市汐止區康寧街901號","121.650786666667","25.0752633333333","6501100","汐止區"
"221015","131-UY","2018/06/07 19:29:10","新北市汐止區康寧街901號","121.651388333333","25.0749983333333","6501100","汐止區"
"221010","269-BY","2018/06/07 19:29:29","新北市汐止區連峰街1巷2號","121.64645","25.076235","6501100","汐止區"
"221012","278-VK","2018/06/07 19:29:28","新北市汐止區大同路三段271號","121.674296666667","25.0757133333333","6501100","汐止區"
"221023","279-VK","2018/06/07 19:29:19","新北市汐止區康寧街604號","121.635936666667","25.07073","6501100","汐止區"
"221027","281-BY","2018/06/07 19:29:11","新北市汐止區忠孝東路9號","121.65831","25.0659366666667","6501100","汐止區"
"221029","298-VK","2018/06/07 19:29:15","新北市汐止區康寧街901號","121.651433333333","25.0749866666667","6501100","汐止區"
"221021","299-VK","2018/06/07 19:29:26","新北市汐止區康寧街901號","121.651301666667","25.0748833333333","6501100","汐止區"
"221031","353-TW","2018/06/07 19:29:22","新北市汐止區康寧街901號","121.650848333333","25.0752683333333","6501100","汐止區"
"221025","623-UM","2018/06/07 19:29:15","新北市汐止區大同路二段430號","121.659101666667","25.06709","6501100","汐止區"
"221038","646-BX","2018/06/07 19:29:29","新北市汐止區汐萬路一段8號","121.656121666667","25.0673133333333","6501100","汐止區"
"221033","647-BX","2018/06/07 19:29:21","新北市汐止區南勢街1巷1號","121.627015","25.03744","6501100","汐止區"
"221002","707-TV","2018/06/07 19:29:15","新北市汐止區中興路2號","121.637613333333","25.0590366666667","6501100","汐止區"
"220079","145-BY","2018/06/07 19:29:25","新北市板橋區國光路8-1號","121.456985","25.0169366666667","6500100","板橋區"
"220080","200-UY","2018/06/07 19:29:31","新北市板橋區大觀路二段37巷180號","121.44958","25.0022","6500100","板橋區"
"220082","610-BX","2018/06/07 19:29:17","新北市板橋區金門街241號","121.432123333333","24.9893383333333","6500100","板橋區"
"220101","245-BX","2018/06/07 19:29:25","新北市板橋區縣民大道三段133巷7號","121.477448333333","25.023465","6500100","板橋區"
"220093","267-BY","2018/06/07 19:29:15","新北市板橋區英士路54號","121.460998333333","25.0247083333333","6500100","板橋區"
"220056","276-BY","2018/06/07 19:29:28","新北市板橋區國慶路49巷19弄13號","121.458951666667","24.9961666666667","6500100","板橋區"
"220072","277-BY","2018/06/07 19:29:22","新北市板橋區金門街253巷10弄5號","121.43305","24.9882833333333","6500100","板橋區"
"220071","283-VK","2018/06/07 19:29:27","新北市板橋區忠孝路48巷4弄6號","121.460683333333","25.0007833333333","6500100","板橋區"
"220094","285-UM","2018/06/07 19:29:12","新北市板橋區吳鳳路50巷21弄1號","121.468263333333","25.0304666666667","6500100","板橋區"
"220053","285-VK","2018/06/07 19:29:28","新北市板橋區富山街102號","121.47632","25.0219166666667","6500100","板橋區"
"220083","286-VK","2018/06/07 19:29:21","新北市板橋區大觀路二段174巷194號","121.44224","25.00394","6500100","板橋區"
"220081","287-VK","2018/06/07 19:29:13","新北市板橋區南雅西路一段53巷10號","121.452681666667","25.00506","6500100","板橋區"
"220061","293-UM","2018/06/07 19:29:12","新北市板橋區中山路二段283號","121.477941666667","25.01791","6500100","板橋區"
"220062","295-UM","2018/06/07 19:29:29","新北市板橋區三民路二段153巷6號","121.479763333333","25.0148983333333","6500100","板橋區"
"220084","296-UM","2018/06/07 19:29:26","新北市板橋區篤行路三段玉平巷95號","121.428061666667","24.9855116666667","6500100","板橋區"
"220075","303-R5","2018/06/07 19:29:15","新北市板橋區中正路253巷43號","121.453723333333","25.0175433333333","6500100","板橋區"
"220092","307-R5","2018/06/07 19:29:24","新北市板橋區文化路二段125巷70號","121.470025","25.02781","6500100","板橋區"
"220098","317-R6","2018/06/07 19:29:07","新北市板橋區民有街126號","121.464171666667","25.02884","6500100","板橋區"
"220088","491-VK","2018/06/07 19:29:28","新北市板橋區文化路二段410巷2號","121.473831666667","25.0315433333333","6500100","板橋區"
"220035","560-BX","2018/06/07 19:29:26","新北市板橋區中正路399巷10號","121.453588333333","25.0224","6500100","板橋區"
"220103","561-BX","2018/06/07 19:29:20","新北市板橋區文化路一段268號","121.466916666667","25.0208616666667","6500100","板橋區"
"220063","609-BX","2018/06/07 19:29:20","新北市板橋區三民路一段31巷25號","121.480446666667","25.0231783333333","6500100","板橋區"
"220086","630-UY","2018/06/07 19:29:23","新北市板橋區中正路236巷53號","121.458065","25.0194816666667","6500100","板橋區"
"220091","637-BX","2018/06/07 19:29:25","新北市板橋區文聖街135巷19號","121.478848333333","25.0289033333333","6500100","板橋區"
"220057","686-BX","2018/06/07 19:29:18","新北市中和區華福街2-2號","121.464946666667","24.9970116666667","6500100","板橋區"
"220077","687-BX","2018/06/07 19:29:31","新北市板橋區僑中二街116巷1號","121.445705","25.0062716666667","6500100","板橋區"
"220054","741-BX","2018/06/07 19:29:15","新北市板橋區光明街4號","121.459961666667","25.0024366666667","6500100","板橋區"
"220102","KEA-2699","2018/06/07 19:29:17","新北市板橋區松柏街3號","121.473885","25.029435","6500100","板橋區"
"220064","806-UM","2018/06/07 19:29:28","新北市板橋區中山路一段24號","121.460408333333","25.0081033333333","6500100","板橋區"
"220055","827-TW","2018/06/07 19:29:27","新北市板橋區重慶路278巷7號","121.462595","24.9996366666667","6500100","板橋區"
"220067","830-TW","2018/06/07 19:29:21","新北市板橋區漢生東路313巷2弄11號","121.472463333333","25.00805","6500100","板橋區"
"220096","831-TW","2018/06/07 19:29:26","新北市板橋區大同街35巷21號","121.476885","25.02777","6500100","板橋區"
"220089","833-TW","2018/06/07 19:29:04","新北市板橋區光正街45巷6弄19號","121.460838333333","25.0169833333333","6500100","板橋區"
"220074","895-R6","2018/06/07 19:29:15","新北市板橋區北門街8號","121.457726666667","25.01054","6500100","板橋區"
"220073","985-R7","2018/06/07 19:29:24","新北市板橋區國光路16號","121.457001666667","25.0174333333333","6500100","板橋區"
"220097","AAC-210","2018/06/07 19:29:28","新北市板橋區陽明街243號","121.463008333333","25.0246483333333","6500100","板橋區"
"220070","AAC-253","2018/06/07 19:29:27","新北市板橋區四川路一段22號","121.459466666667","25.006385","6500100","板橋區"
"235068","KEA-2873","2018/06/07 19:29:20","新北市中和區連勝街57巷20號","121.498085","24.9964683333333","6500300","中和區"
"235061","KEA-2875","2018/06/07 19:29:27","新北市中和區中山路三段63巷13弄41號","121.476585","25.003585","6500300","中和區"
