"lineid","car","time","location","longitude","latitude","cityid","cityname"
"234046","148-BY","2018/06/07 19:49:28","新北市永和區永利路248號","121.524175","25.00286","6500400","永和區"
"234007","207-UY","2018/06/07 19:49:30","新北市中和區南工路60號","121.506186666667","25.0018183333333","6500400","永和區"
"234081","298-R6","2018/06/07 19:49:23","新北市永和區永亨路127號","121.52448","25.00418","6500400","永和區"
"234038","336-UY","2018/06/07 19:49:13","新北市永和區民樂街55巷5號","121.527898333333","24.9986866666667","6500400","永和區"
"234064","337-UY","2018/06/07 19:49:12","新北市永和區中正路368巷20弄2號","121.518456666667","25.000645","6500400","永和區"
"234086","338-UY","2018/06/07 19:49:27","新北市永和區中正路469號","121.517025","25.0061216666667","6500400","永和區"
"234070","552-UM","2018/06/07 19:49:26","新北市永和區竹林路81號","121.519506666667","25.0125483333333","6500400","永和區"
"234017","745-BX","2018/06/07 19:49:22","新北市永和區永和路二段299號","121.516018333333","25.0161116666667","6500400","永和區"
"234030","746-BX","2018/06/07 19:49:25","新北市永和區民生路67巷43號","121.524971666667","24.9975183333333","6500400","永和區"
"234054","KEA-2590","2018/06/07 19:49:26","新北市永和區竹林路39巷28弄15號","121.51984","25.0145","6500400","永和區"
"234013","KEA-2591","2018/06/07 19:49:24","新北市永和區永平路296號","121.507463333333","25.0122316666667","6500400","永和區"
"234061","AAD-866","2018/06/07 19:49:29","新北市永和區中正路142號","121.514716666667","24.9962333333333","6500400","永和區"
"234042","862-TW","2018/06/07 19:49:30","新北市永和區中和路389巷24號","121.508193333333","25.0013516666667","6500400","永和區"
"234050","863-TW","2018/06/07 19:49:27","新北市永和區保安路67號","121.509145","25.0154616666667","6500400","永和區"
"234026","9371-KE","2018/06/07 19:49:23","新北市永和區雙和街18號","121.509243333333","25.0022","6500400","永和區"
"234011","9373-KE","2018/06/07 19:49:31","新北市永和區保生路55-1號","121.504493333333","25.01091","6500400","永和區"
"249001","173-UM","2018/06/07 19:49:20","新北市八里區中華路二段252號","121.405383333333","25.1497","6502300","八里區"
"249004","303-UY","2018/06/07 19:49:18","新北市八里區仁愛路53號","121.412661666667","25.16053","6502300","八里區"
"249002","305-UY","2018/06/07 19:49:26","新北市八里區頂寮五街17號","121.451485","25.1260083333333","6502300","八里區"
"249003","593-UM","2018/06/07 19:49:23","新北市八里區中華路二段560巷3號","121.39864","25.1450966666667","6502300","八里區"
"248016","026-BX","2018/06/07 19:49:17","新北市五股區成泰路三段601巷17-1號","121.451746666667","25.1033166666667","6501500","五股區"
"248008","095-VK","2018/06/07 19:49:28","新北市五股區四維路140號","121.468268333333","25.0753116666667","6501500","五股區"
"248020","225-UY","2018/06/07 19:49:31","新北市五股區中直路53-2號","121.419236666667","25.1174016666667","6501500","五股區"
"248012","247-BX","2018/06/07 19:49:16","新北市五股區蓬萊路1-3號","121.434555","25.0796433333333","6501500","五股區"
"248014","261-SL","2018/06/07 19:49:14","新北市五股區五福路32巷9號","121.43448","25.0894283333333","6501500","五股區"
"248010","272-BY","2018/06/07 19:49:26","新北市五股區登林路貿商巷1弄2號","121.429661666667","25.0698883333333","6501500","五股區"
"248004","677-BX","2018/06/07 19:49:23","新北市五股區成泰路一段197號","121.435125","25.0766133333333","6501500","五股區"
"248002","678-BX","2018/06/07 19:44:12","新北市五股區成泰路三段577巷13號","121.451755","25.1027533333333","6501500","五股區"
"234077","969-R7","2018/06/07 19:49:30","新北市永和區民治街97巷8號","121.516803333333","24.998135","6500400","永和區"
"234074","AAC-211","2018/06/07 19:49:25","新北市永和區竹林路211號","121.520888333333","25.0088416666667","6500400","永和區"
"234067","AAC-212","2018/06/07 19:49:21","新北市永和區永貞路353號","121.509068333333","25.0075033333333","6500400","永和區"
"234003","AAC-295","2018/06/07 19:49:24","新北市永和區福和路345號","121.515383333333","25.0071533333333","6500400","永和區"
"243013","AAD-798","2018/06/07 19:49:26","新北市泰山區應化街7號","121.423868333333","25.0437216666667","6501600","泰山區"
"243009","297-R6","2018/06/07 19:49:16","新北市泰山區美寧街69號","121.430956666667","25.064725","6501600","泰山區"
"243016","380-SR","2018/06/07 19:49:21","新北市泰山區新北大道七段103號","121.417661666667","25.0319433333333","6501600","泰山區"
"243015","421-VK","2018/06/07 19:49:17","新北市泰山區明志路二段214巷7號","121.426903333333","25.0488283333333","6501600","泰山區"
"243011","KEA-2215","2018/06/07 19:49:27","新北市泰山區明志路三段196巷21弄7號","121.423015","25.03836","6501600","泰山區"
"243010","KEA-2216","2018/06/07 19:49:27","新北市泰山區民生路33號","121.430775","25.0521883333333","6501600","泰山區"
"243012","646-TV","2018/06/07 19:49:17","新北市泰山區全興路13號","121.432326666667","25.05895","6501600","泰山區"
"243014","680-BX","2018/06/07 19:49:26","新北市泰山區泰林路二段33-8號","121.435188333333","25.0564916666667","6501600","泰山區"
"222003","436-BY","2018/06/07 19:49:19","新北市深坑區深南路51-1號","121.62124","25.009775","6501800","深坑區"
"222002","659-BX","2018/06/07 19:49:22","新北市深坑區北深路一段300號","121.623535","25.0054833333333","6501800","深坑區"
"231041","002-UM","2018/06/07 19:49:20","新北市新店區中央路155號","121.52981","24.972765","6500600","新店區"
"231059","046-UY","2018/06/07 19:49:16","新北市新店區安和路二段189號","121.518158333333","24.9748783333333","6500600","新店區"
"231040","047-UY","2018/06/07 19:49:30","新北市新店區中正路75巷71號","121.543303333333","24.96882","6500600","新店區"
"231052","108-UY","2018/06/07 19:49:15","新北市新店區新烏路三段190號","121.551428333333","24.902165","6500600","新店區"
"231047","187-VK","2018/06/07 19:49:14","新北市新店區寶興路64巷1號","121.55069","24.971575","6500600","新店區"
"231046","188-VK","2018/06/07 19:49:16","新北市新店區三民路159巷19弄46號","121.532196666667","24.973195","6500600","新店區"
"231054","KEA-2219","2018/06/07 19:49:17","新北市新店區光明街73號","121.538943333333","24.9605833333333","6500600","新店區"
"231057","256-BX","2018/06/07 19:49:26","新北市新店區花園二路三段21-3號","121.557186666667","24.9312916666667","6500600","新店區"
"231042","268-BY","2018/06/07 19:49:27","新北市新店區中興路一段267-4號","121.54505","24.9679166666667","6500600","新店區"
"231051","278-BY","2018/06/07 19:49:22","新北市新店區中央三街42號","121.527791666667","24.9744316666667","6500600","新店區"
"231050","AAD-862","2018/06/07 19:49:20","新北市新店區北宜路二段150-1號","121.55767","24.9538766666667","6500600","新店區"
"231044","355-BY","2018/06/07 19:49:30","新北市新店區復興路44-1號","121.538623333333","24.98683","6500600","新店區"
"231066","4716-K9","2018/06/07 19:49:25","新北市新店區薏仁坑路自強巷6號","121.496825","24.9584716666667","6500600","新店區"
"231056","4715-K9","2018/06/07 19:49:16","新北市新店區民權路72號","121.538068333333","24.9831366666667","6500600","新店區"
"231067","4772-VM","2018/06/07 19:49:28","新北市新店區精忠路10-1號","121.532648333333","24.9590716666667","6500600","新店區"
"231065","512-UM","2018/06/07 19:49:16","新北市新店區安祥路109巷90弄2號","121.477928333333","24.9597666666667","6500600","新店區"
"231049","513-UM","2018/06/07 19:49:16","新北市新店區民權路88號","121.536828333333","24.98299","6500600","新店區"
"231061","619-UM","2018/06/07 19:49:19","新北市新店區安民街141號","121.51649","24.9694566666667","6500600","新店區"
"231063","641-BX","2018/06/07 19:49:22","新北市新店區車子路11號","121.503011666667","24.9520233333333","6500600","新店區"
"231068","718-UY","2018/06/07 19:49:12","新北市新店區安一路一段1-1號","121.519353333333","24.961","6500600","新店區"
"231064","719-UM","2018/06/07 19:49:17","新北市新店區安和路一段52巷2-1號","121.517666666667","24.9662566666667","6500600","新店區"
"231062","720-UM","2018/06/07 19:49:20","新北市新店區永業路117號","121.528451666667","24.9481366666667","6500600","新店區"
"231060","897-TW","2018/06/07 19:49:18","新北市新店區安康路二段294號","121.507896666667","24.9585016666667","6500600","新店區"
"231045","898-TW","2018/06/07 19:49:12","新北市新店區中生路60號","121.564558333333","24.9527483333333","6500600","新店區"
"231043","899-TW","2018/06/07 19:49:24","新北市新店區中正路215號","121.539798333333","24.9728983333333","6500600","新店區"
"231055","AKT-0513","2018/06/07 19:49:19","新北市新店區力行路30號","121.53918","24.96468","6500600","新店區"
"241011","013-R5","2018/06/07 19:49:15","新北市三重區三和路三段5號","121.497121666667","25.0705","6500200","三重區"
"241028","022-UY","2018/06/07 19:49:29","新北市三重區中正南路157號","121.493741666667","25.0562616666667","6500200","三重區"
"241008","059-VK","2018/06/07 19:49:20","新北市三重區永福街68號","121.479098333333","25.0769083333333","6500200","三重區"
"241031","061-VK","2018/06/07 19:49:29","新北市三重區重新路四段250-1號","121.485993333333","25.0533933333333","6500200","三重區"
"241017","063-VK","2018/06/07 19:49:23","新北市三重區重陽路三段27巷1號","121.489651666667","25.0666116666667","6500200","三重區"
"241026","066-VK","2018/06/07 19:49:31","新北市三重區文化南路42號","121.500425","25.0602516666667","6500200","三重區"
"241003","091-VK","2018/06/07 19:49:25","新北市三重區五華街93巷12號","121.492338333333","25.0840166666667","6500200","三重區"
"241013","742-BX","2018/06/07 19:49:21","新北市三重區仁愛街112巷12號","121.494771666667","25.0740816666667","6500200","三重區"
"241009","265-UM","2018/06/07 19:49:17","新北市三重區三和路四段398-1號","121.48142","25.0792566666667","6500200","三重區"
"241016","266-UM","2018/06/07 19:49:16","新北市三重區正德街53號","121.495683333333","25.063","6500200","三重區"
"241022","267-UM","2018/06/07 19:49:22","新北市三重區新北大道一段7號","121.489865","25.061615","6500200","三重區"
"241018","268-UM","2018/06/07 19:49:16","新北市三重區雙園街57巷34弄3號","121.494273333333","25.068425","6500200","三重區"
"241025","271-UM","2018/06/07 19:49:17","新北市三重區忠孝路三段56-1號","121.480518333333","25.0651916666667","6500200","三重區"
"241007","398-BY","2018/06/07 19:49:24","新北市三重區三和路四段133號","121.484566666667","25.0779616666667","6500200","三重區"
"241015","413-TH","2018/06/07 19:49:15","新北市三重區重新路一段1號","121.503795","25.0642616666667","6500200","三重區"
"241035","462-BY","2018/06/07 19:49:26","新北市三重區大榮街53號","121.49921","25.06352","6500200","三重區"
"241004","475-VK","2018/06/07 19:49:26","新北市三重區仁愛街377巷132號","121.49354","25.0819183333333","6500200","三重區"
"241020","478-VK","2018/06/07 19:49:28","新北市三重區三和路四段2號","121.491733333333","25.073685","6500200","三重區"
"241030","480-VK","2018/06/07 19:48:36","新北市三重區環河南路253號","121.491295","25.0505616666667","6500200","三重區"
"241014","543-UM","2018/06/07 19:49:18","新北市三重區長安街77號","121.501621666667","25.0674083333333","6500200","三重區"
"241023","545-UM","2018/06/07 19:49:21","新北市三重區頂崁街166號","121.477635","25.0658366666667","6500200","三重區"
"241001","547-UM","2018/06/07 19:49:22","新北市三重區仁愛街327巷10號","121.492591666667","25.0797716666667","6500200","三重區"
"241019","KEA-2593","2018/06/07 19:49:21","新北市三重區自強路二段74巷5號","121.488241666667","25.070115","6500200","三重區"
"241006","AAD-863","2018/06/07 19:49:17","新北市三重區力行路二段51號","121.48213","25.0743616666667","6500200","三重區"
"241032","887-TS","2018/06/07 19:49:22","新北市三重區重陽路一段44巷10-1號","121.485893333333","25.0575933333333","6500200","三重區"
"241012","941-UM","2018/06/07 19:49:30","新北市三重區仁興街56巷46號","121.498085","25.0754183333333","6500200","三重區"
"241029","942-UM","2018/06/07 19:49:17","新北市三重區光明路55號","121.49163","25.0579783333333","6500200","三重區"
"241033","AAC-255","2018/06/07 19:49:23","新北市三重區中興南街80巷3號","121.471363333333","25.043485","6500200","三重區"
"235064","005-UY","2018/06/07 19:49:31","新北市中和區南山路34號","121.501985","24.997835","6500300","中和區"
"235063","006-UY","2018/06/07 19:49:31","新北市中和區連城路263巷23號","121.49265","24.9947716666667","6500300","中和區"
"235056","096-UM","2018/06/07 19:49:21","新北市中和區中山路三段114巷11號","121.475676666667","25.0075433333333","6500300","中和區"
"235039","097-UM","2018/06/07 19:49:20","新北市中和區大勇街27巷23號","121.516423333333","24.9936716666667","6500300","中和區"
"235065","098-UM","2018/06/07 19:49:23","新北市中和區福祥路90巷5號","121.499643333333","25.00574","6500300","中和區"
"235040","150-BY","2018/06/07 19:49:32","新北市中和區安平路30號","121.509581666667","24.9948083333333","6500300","中和區"
"235058","151-BY","2018/06/07 19:49:29","新北市中和區員山路223號","121.48116","24.9980433333333","6500300","中和區"
"235055","183-VK","2018/06/07 19:49:27","新北市中和區德光路12號","121.471556666667","25.00463","6500300","中和區"
"235038","185-VK","2018/06/07 19:49:16","新北市中和區立人街24-5號","121.518841666667","24.99419","6500300","中和區"
"235049","186-VK","2018/06/07 19:49:20","新北市中和區中興街37號","121.500796666667","24.9944066666667","6500300","中和區"
"235067","255-BX","2018/06/07 19:49:20","新北市中和區新生街184號","121.48362","24.9997016666667","6500300","中和區"
"235044","293-VK","2018/06/07 19:49:25","新北市中和區南山路323號","121.505046666667","24.9913083333333","6500300","中和區"
"235043","352-BY","2018/06/07 19:49:11","新北市中和區華新街228號","121.506096666667","24.981795","6500300","中和區"
"235050","4979-A6","2018/06/07 19:49:31","新北市中和區中正路165號","121.498221666667","24.99366","6500300","中和區"
"235042","551-UM","2018/06/07 19:49:22","新北市中和區保健路2巷30號","121.507076666667","24.9974533333333","6500300","中和區"
"235070","558-UM","2018/06/07 19:49:26","新北市中和區連勝街22號","121.49862","24.9981933333333","6500300","中和區"
"235045","565-BX","2018/06/07 19:49:14","新北市中和區景平路290號","121.513128333333","24.99275","6500300","中和區"
"235054","640-BX","2018/06/07 19:49:29","新北市中和區莒光路105號","121.472465","25.0028083333333","6500300","中和區"
"235060","647-TV","2018/06/07 19:49:24","新北市中和區員山路396號","121.48055","25.0046083333333","6500300","中和區"
"235047","732-UM","2018/06/07 19:49:26","新北市中和區和平街16號","121.509883333333","24.99002","6500300","中和區"
"235046","733-UM","2018/06/07 19:49:32","新北市中和區華新街137號","121.506648333333","24.98169","6500300","中和區"
"235071","783-BX","2018/06/07 19:49:28","新北市中和區中板路7-1號","121.484853333333","25.01148","6500300","中和區"
"235026","800-TS","2018/06/07 19:27:13","新北市中和區中正路571巷2弄5號","121.486313333333","24.993765","6500300","中和區"
"235057","801-TS","2018/06/07 19:49:12","新北市中和區員山路261號","121.481231666667","24.9990866666667","6500300","中和區"
"235041","802-TS","2018/06/07 19:49:24","新北市中和區永貞路239巷22號","121.51253","25.0030916666667","6500300","中和區"
"235052","805-TS","2018/06/07 19:49:22","新北市中和區興南路二段79巷7號","121.50678","24.9846083333333","6500300","中和區"
"235048","896-TW","2018/06/07 19:49:21","新北市中和區興南路二段2號","121.5079","24.986235","6500300","中和區"
"235053","900-TW","2018/06/07 19:49:22","新北市中和區國光街189巷1號","121.467801666667","25.0010483333333","6500300","中和區"
"235066","911-UM","2018/06/07 19:49:31","新北市中和區南工路60號","121.506141666667","25.0017666666667","6500300","中和區"
"235051","157-BY","2018/06/07 19:49:10","新北市中和區中興街132巷11號","121.498806666667","24.9916333333333","6500300","中和區"
"235037","AAC-213","2018/06/07 19:49:27","新北市中和區自立路66號","121.523868333333","24.9912816666667","6500300","中和區"
"235059","AAC-215","2018/06/07 19:49:30","新北市中和區圓通路335巷71號","121.494288333333","24.9893666666667","6500300","中和區"
"220065","072-UY","2018/06/07 19:49:19","新北市板橋區民族路243號","121.470053333333","25.00706","6500100","板橋區"
"220106","075-UY","2018/06/07 19:49:25","新北市板橋區文化路608巷50-1號","121.479473333333","25.0344933333333","6500100","板橋區"
"220069","AAD-861","2018/06/07 19:49:22","新北市板橋區南雅南路二段11-23號","121.453898333333","25.002025","6500100","板橋區"
"220090","120-SR","2018/06/07 19:49:23","新北市板橋區新海路431巷16號","121.45784","25.0269166666667","6500100","板橋區"
"247014","546-UM","2018/06/07 19:49:27","新北市蘆洲區復興路30-3號","121.472433333333","25.0849333333333","6501400","蘆洲區"
"247004","337-TH","2018/06/07 19:49:20","新北市蘆洲區中原路23號","121.460403333333","25.0828483333333","6501400","蘆洲區"
"247006","336-TH","2018/06/07 19:49:23","新北市蘆洲區永安南路二段26號","121.467316666667","25.0770683333333","6501400","蘆洲區"
"247008","056-VK","2018/06/07 19:49:19","新北市蘆洲區中山一路1號","121.478758333333","25.079675","6501400","蘆洲區"
"247002","002-UY","2018/06/07 19:49:28","新北市蘆洲區永平街1號","121.459116666667","25.0902666666667","6501400","蘆洲區"
"226004","312-R5","2018/06/07 19:49:15","新北市平溪區靜安路二段561號","121.749801666667","25.0239766666667","6502400","平溪區"
"228003","097-TW","2018/06/07 19:49:29","新北市貢寮區真理里美艷山街5-1號","121.926626666667","25.0596766666667","6502600","貢寮區"
"228001","212-TW","2018/06/07 19:49:14","新北市貢寮區真理里大澳街10巷48號","121.925528333333","25.0563433333333","6502600","貢寮區"
"224010","AGQ-8101","2018/06/07 19:48:59","新北市瑞芳區基山街2號","121.845086666667","25.109775","6501200","瑞芳區"
"224002","639-TC","2018/06/07 19:49:18","新北市瑞芳區民享新村37號","121.817198333333","25.1058866666667","6501200","瑞芳區"
"227004","642-TC","2018/06/07 19:49:26","新北市雙溪區雙溪里內挖路47號","121.863248333333","25.0367183333333","6502500","雙溪區"
"227010","400-TW","2018/06/07 19:49:20","新北市雙溪區新基里朝陽街18號","121.865903333333","25.0387416666667","6502500","雙溪區"
"222001","KEA-2212","2018/06/07 19:49:11","新北市深坑區北深路三段110號","121.606798333333","25.0015683333333","6501800","深坑區"
"208002","KEA-2872","2018/06/07 19:49:14","新北市金山區三民街3號","121.634771666667","25.2224333333333","6502700","金山區"
"208003","665-BX","2018/06/07 19:49:16","新北市金山區中山路174-1號","121.63828","25.22109","6502700","金山區"
"208001","761-BX","2018/06/07 19:49:18","新北市金山區重和里林口28-3號","121.596706666667","25.2092483333333","6502700","金山區"
"251009","008-UM","2018/06/07 19:49:25","新北市淡水區中正路38-1號","121.443728333333","25.1692666666667","6501000","淡水區"
"251005","010-UM","2018/06/07 19:49:20","新北市淡水區中山路108巷3號","121.442058333333","25.1711216666667","6501000","淡水區"
"251001","011-UM","2018/06/07 19:49:31","新北市淡水區淡金路50號","121.456478333333","25.1613683333333","6501000","淡水區"
"251013","KEA-2871","2018/06/07 19:49:26","新北市淡水區頂田寮18號","121.461491666667","25.2142216666667","6501000","淡水區"
"251016","179-VK","2018/06/07 19:49:23","新北市淡水區三塊厝3-2號","121.456123333333","25.209065","6501000","淡水區"
"251014","180-VK","2018/06/07 19:49:31","新北市淡水區石頭厝14-59號","121.466185","25.23689","6501000","淡水區"
"251015","182-VK","2018/06/07 19:49:18","新北市淡水區水頭43-1號","121.476833333333","25.1857533333333","6501000","淡水區"
"251010","413-VK","2018/06/07 19:49:33","新北市淡水區下圭柔山91-4號","121.428971666667","25.2079083333333","6501000","淡水區"
"251012","441-VK","2018/06/07 19:49:24","新北市淡水區淡金路三段70巷1號","121.4483","25.2003683333333","6501000","淡水區"
"251007","442-VK","2018/06/07 19:49:31","新北市淡水區中正東路一段3巷21號","121.451848333333","25.16627","6501000","淡水區"
"251008","443-VK","2018/06/07 19:49:29","新北市淡水區中正路一段33號","121.425918333333","25.1766616666667","6501000","淡水區"
"251006","561-UM","2018/06/07 19:49:24","新北市淡水區水碓街15號","121.443471666667","25.1769616666667","6501000","淡水區"
"251011","650-BX","2018/06/07 19:49:15","新北市淡水區淡金路二段365號","121.447238333333","25.1853066666667","6501000","淡水區"
"251003","766-UM","2018/06/07 19:49:25","新北市淡水區崁頂140號","121.431056666667","25.2058933333333","6501000","淡水區"
"207003","550-UM","2018/06/07 19:49:28","新北市萬里區磺潭里公館崙5號","121.642001666667","25.21439","6502800","萬里區"
"207004","225-TW","2018/06/07 19:49:31","新北市萬里區萬里里瑪鋉路261號","121.689831666667","25.179785","6502800","萬里區"
"252002","178-VK","2018/06/07 19:49:15","新北市三芝區三民街33-1號","121.504631666667","25.258525","6502100","三芝區"
"252001","292-VK","2018/06/07 19:49:18","新北市三芝區長安街89號","121.499728333333","25.2574366666667","6502100","三芝區"
"237007","153-BY","2018/06/07 19:49:29","新北市三峽區二鬮路136巷22弄31號","121.35718","24.910235","6500900","三峽區"
"237009","210-TH","2018/06/07 19:49:27","新北市三峽區中園街13-1號","121.368651666667","24.9270983333333","6500900","三峽區"
"237013","252-BX","2018/06/07 19:49:20","新北市三峽區溪北街99號","121.398053333333","24.93549","6500900","三峽區"
"237012","275-BY","2018/06/07 19:49:18","新北市三峽區中華路40號","121.372713333333","24.9314733333333","6500900","三峽區"
"237008","302-VK","2018/06/07 19:49:26","新北市三峽區永安街210號","121.373136666667","24.9272","6500900","三峽區"
"237014","433-BY","2018/06/07 19:49:21","新北市三峽區添福14-39號","121.371983333333","24.9003416666667","6500900","三峽區"
"237006","5529-G3","2018/06/07 19:49:20","新北市三峽區中正路一段336巷15弄2號","121.36997","24.92495","6500900","三峽區"
"237016","649-BX","2018/06/07 19:49:20","新北市三峽區溪東路222號","121.407723333333","24.932045","6500900","三峽區"
"237005","AKY-6261","2018/06/07 19:49:12","新北市三峽區民生街92號","121.374118333333","24.935625","6500900","三峽區"
"236070","105-UM","2018/06/07 19:49:31","新北市土城區水源街32巷8號","121.441071666667","24.9757933333333","6501300","土城區"
"236042","107-UM","2018/06/07 19:49:29","新北市土城區金城路二段245巷15號","121.455296666667","24.9832466666667","6501300","土城區"
"236078","166-UM","2018/06/07 19:49:26","新北市土城區溪頭路119號","121.409878333333","24.95151","6501300","土城區"
"236030","253-BX","2018/06/07 19:49:29","新北市土城區中央路一段290號","121.443256666667","24.98243","6501300","土城區"
"236026","269-VK","2018/06/07 19:49:24","新北市土城區中央路二段61巷28號","121.443426666667","24.97886","6501300","土城區"
"236038","271-VK","2018/06/07 19:49:16","新北市土城區國際路158巷51號","121.468201666667","24.9753033333333","6501300","土城區"
"236021","401-BY","2018/06/07 19:49:31","新北市土城區延吉街137巷15號","121.470998333333","24.985685","6501300","土城區"
"236059","912-UM","2018/06/07 19:49:11","新北市土城區中央路一段245-1號","121.445221666667","24.9859166666667","6501300","土城區"
"236049","913-UM","2018/06/07 19:49:19","新北市土城區青雲路315號","121.459028333333","24.9788033333333","6501300","土城區"
"236063","915-UM","2018/06/07 19:49:23","新北市土城區延和路105巷6弄1號","121.467361666667","24.9910866666667","6501300","土城區"
"236055","AAC-216","2018/06/07 19:49:16","新北市土城區延平街1號","121.468205","24.990445","6501300","土城區"
"242034","AAC-296","2018/06/07 19:49:30","新北市新莊區仁愛街54巷1號","121.444945","25.0371433333333","6500500","新莊區"
"242058","986-R7","2018/06/07 19:49:21","新北市新莊區新泰路357巷3弄49號","121.442286666667","25.040055","6500500","新莊區"
"242029","612-BX","2018/06/07 19:49:31","新北市新莊區中平路297號","121.444705","25.0510466666667","6500500","新莊區"
"242046","497-BY","2018/06/07 19:49:28","新北市新莊區後港一路160號","121.430788333333","25.02742","6500500","新莊區"
"242056","440-UM","2018/06/07 19:49:16","新北市新莊區新莊路362號","121.449606666667","25.0335666666667","6500500","新莊區"
"242036","415-TV","2018/06/07 19:49:28","新北市新莊區建安街64號","121.42713","25.0245933333333","6500500","新莊區"
"242023","362-BY","2018/06/07 19:49:32","新北市新莊區化成路202號","121.465625","25.04629","6500500","新莊區"
"242031","135-UY","2018/06/07 19:49:32","新北市新莊區忠孝街46號","121.443935","25.03568","6500500","新莊區"
"242048","172-VK","2018/06/07 19:49:25","新北市新莊區建安街76巷1弄15號","121.425921666667","25.0242566666667","6500500","新莊區"
"242004","176-VK","2018/06/07 19:49:22","新北市新莊區化成路63巷24弄45號","121.462008333333","25.04597","6500500","新莊區"
"242021","348-TH","2018/06/07 19:49:31","新北市新莊區建中街42號","121.448733333333","25.0373716666667","6500500","新莊區"
"242019","350-TH","2018/06/07 19:49:19","新北市新莊區明智街6號","121.454691666667","25.041435","6500500","新莊區"
"242013","351-TH","2018/06/07 19:49:29","新北市新莊區中誠街67號","121.450666666667","25.0478233333333","6500500","新莊區"
"238015","755-BX","2018/06/07 19:49:17","新北市樹林區中山路一段149-1號","121.42217","24.98927","6500700","樹林區"
"238023","601-UM","2018/06/07 19:49:26","新北市樹林區三寶街12號","121.406555","25.0154883333333","6500700","樹林區"
"238024","5061-A6","2018/06/07 19:49:03","新北市樹林區中山路三段210-2號","121.381771666667","24.965675","6500700","樹林區"
"238021","KEA-2539","2018/06/07 19:49:26","新北市樹林區佳園路三段101巷38弄6號","121.391236666667","24.95042","6500700","樹林區"
"238025","303-VK","2018/06/07 19:49:15","新北市樹林區育德街121巷7號","121.389241666667","24.9682266666667","6500700","樹林區"
"238017","283-BY","2018/06/07 19:49:24","新北市樹林區保安街二段45巷21弄7號","121.414798333333","24.9998716666667","6500700","樹林區"
"238014","282-BY","2018/06/07 19:49:28","新北市樹林區千歲街68號","121.42622","24.9974433333333","6500700","樹林區"
"239006","891-R6","2018/06/07 19:49:25","新北市鶯歌區永昌街84號","121.341718333333","24.9496833333333","6500800","鶯歌區"
"239005","526-UM","2018/06/07 19:49:17","新北市鶯歌區中正一路423號","121.361173333333","24.957055","6500800","鶯歌區"
"221008","489-VK","2018/06/07 19:49:03","新北市汐止區康寧街77號","121.619586666667","25.0664266666667","6501100","汐止區"
"221036","130-UY","2018/06/07 19:49:12","新北市汐止區康寧街901號","121.650705","25.0753116666667","6501100","汐止區"
"221015","131-UY","2018/06/07 19:49:30","新北市汐止區大同路二段533號","121.66178","25.0691316666667","6501100","汐止區"
"221010","269-BY","2018/06/07 19:49:29","新北市汐止區連峰街128號","121.646173333333","25.0791083333333","6501100","汐止區"
"221012","278-VK","2018/06/07 19:49:28","新北市汐止區大同路三段442號","121.683406666667","25.0728816666667","6501100","汐止區"
"221023","279-VK","2018/06/07 19:49:20","新北市汐止區民族六街5巷1號","121.629813333333","25.0698466666667","6501100","汐止區"
"221032","280-BY","2018/06/07 19:49:30","新北市汐止區新台五路一段131號","121.652191666667","25.06224","6501100","汐止區"
"221027","281-BY","2018/06/07 19:49:11","新北市汐止區南昌街3號","121.663651666667","25.0697266666667","6501100","汐止區"
"221029","298-VK","2018/06/07 19:49:15","新北市汐止區康寧街901號","121.651541666667","25.07503","6501100","汐止區"
"221021","299-VK","2018/06/07 19:49:26","新北市汐止區莊敬街29巷7號","121.657193333333","25.061005","6501100","汐止區"
"221031","353-TW","2018/06/07 19:49:22","新北市汐止區福德二路54巷2弄7號","121.63403","25.067785","6501100","汐止區"
"221035","622-UM","2018/06/07 19:49:14","新北市汐止區長江街13巷6弄1號","121.654715","25.0716883333333","6501100","汐止區"
"221025","623-UM","2018/06/07 19:49:15","新北市汐止區秀峰路81巷39號","121.661476666667","25.0649766666667","6501100","汐止區"
"221038","646-BX","2018/06/07 19:49:29","新北市汐止區忠孝東路357號","121.665633333333","25.0706616666667","6501100","汐止區"
"221033","647-BX","2018/06/07 19:49:21","新北市汐止區東勢街76巷32號","121.632811666667","25.0391983333333","6501100","汐止區"
"221018","753-BX","2018/06/07 19:49:33","新北市汐止區大同路二段527號","121.661758333333","25.0690433333333","6501100","汐止區"
"220079","145-BY","2018/06/07 19:49:17","新北市板橋區大仁街35號","121.45528","25.016635","6500100","板橋區"
"220080","200-UY","2018/06/07 19:49:30","新北市板橋區大觀路二段37巷12號","121.44728","25.0027966666667","6500100","板橋區"
"220082","610-BX","2018/06/07 19:49:15","新北市板橋區溪崑一街14號","121.430296666667","24.9913033333333","6500100","板橋區"
"220101","245-BX","2018/06/07 19:49:25","新北市板橋區縣民大道三段97巷2號","121.47598","25.0220633333333","6500100","板橋區"
"220093","267-BY","2018/06/07 19:49:20","新北市板橋區長江路二段229號","121.468401666667","25.0326466666667","6500100","板橋區"
"220056","276-BY","2018/06/07 19:49:28","新北市板橋區四川路二段99巷1號","121.452743333333","24.9945433333333","6500100","板橋區"
"220072","277-BY","2018/06/07 19:49:22","新北市板橋區金門街127巷1號","121.43316","24.99148","6500100","板橋區"
"220071","283-VK","2018/06/07 19:49:27","新北市板橋區五權街32巷26號","121.463905","24.9928233333333","6500100","板橋區"
"220094","285-UM","2018/06/07 19:49:11","新北市板橋區民生路三段315號","121.46208","25.0308433333333","6500100","板橋區"
"220053","285-VK","2018/06/07 19:49:28","新北市板橋區民享街49號","121.47574","25.0149766666667","6500100","板橋區"
"220083","286-VK","2018/06/07 19:49:21","新北市板橋區僑中二街8巷9號","121.446638333333","25.01121","6500100","板橋區"
"220081","287-VK","2018/06/07 19:49:13","新北市板橋區大觀路一段29巷59號","121.450428333333","25.006905","6500100","板橋區"
"220061","293-UM","2018/06/07 19:49:12","新北市板橋區漢生東路113巷25號","121.468301666667","25.0156333333333","6500100","板橋區"
"220062","295-UM","2018/06/07 19:49:29","新北市板橋區三民路二段29巷31弄1號","121.481343333333","25.0177083333333","6500100","板橋區"
"220084","296-UM","2018/06/07 19:49:26","新北市板橋區滿平街46號","121.426858333333","24.9896883333333","6500100","板橋區"
"242039","281-VK","2018/06/07 19:49:25","新北市新莊區民安路299巷51號","121.429673333333","25.0236666666667","6500500","新莊區"
"220075","303-R5","2018/06/07 19:49:15","新北市板橋區金華街10巷48弄17號","121.457636666667","25.0199616666667","6500100","板橋區"
"220092","307-R5","2018/06/07 19:49:23","新北市板橋區陽明街114號","121.46421","25.0238116666667","6500100","板橋區"
"220098","317-R6","2018/06/07 19:49:27","新北市板橋區四維路269巷80號","121.460065","25.0269","6500100","板橋區"
"220088","491-VK","2018/06/07 19:49:21","新北市板橋區文聖街138號","121.478465","25.02802","6500100","板橋區"
"220035","560-BX","2018/06/07 19:49:14","新北市板橋區金華街100號","121.458435","25.0207683333333","6500100","板橋區"
"220103","561-BX","2018/06/07 19:49:28","新北市板橋區陽明街29巷3號","121.465298333333","25.0216766666667","6500100","板橋區"
"220063","609-BX","2018/06/07 19:49:30","新北市板橋區三民路一段89號","121.479608333333","25.0219383333333","6500100","板橋區"
"220091","637-BX","2018/06/07 19:49:15","新北市板橋區懷德街191巷23號","121.480473333333","25.030005","6500100","板橋區"
"220057","686-BX","2018/06/07 19:49:18","新北市板橋區廣權路25號","121.46223","24.9915066666667","6500100","板橋區"
"220077","687-BX","2018/06/07 19:49:31","新北市板橋區僑中一街124巷3弄1號","121.44593","25.0123016666667","6500100","板橋區"
"220054","741-BX","2018/06/07 19:49:27","新北市板橋區忠孝路忠義巷21弄1號","121.466821666667","25.00397","6500100","板橋區"
"220102","KEA-2699","2018/06/07 19:49:17","新北市板橋區松柏街35號","121.475223333333","25.0303266666667","6500100","板橋區"
"220064","806-UM","2018/06/07 19:49:28","新北市板橋區實踐路147號","121.464211666667","25.0045466666667","6500100","板橋區"
"220055","827-TW","2018/06/07 19:49:18","新北市板橋區國慶路49巷15號","121.45961","24.9962066666667","6500100","板橋區"
"220067","830-TW","2018/06/07 19:49:21","新北市板橋區長安街138巷1弄286號","121.474781666667","25.0110016666667","6500100","板橋區"
"220096","831-TW","2018/06/07 19:49:06","新北市板橋區民生路二段240巷50號","121.469613333333","25.022845","6500100","板橋區"
"220089","833-TW","2018/06/07 19:49:24","新北市板橋區英士路192-1號","121.458333333333","25.0236416666667","6500100","板橋區"
"220074","895-R6","2018/06/07 19:49:21","新北市板橋區府中路29-1號","121.458691666667","25.0082133333333","6500100","板橋區"
"220073","985-R7","2018/06/07 19:49:25","新北市板橋區大仁街107號","121.452583333333","25.0157183333333","6500100","板橋區"
"220097","AAC-210","2018/06/07 19:49:28","新北市板橋區文化路一段285巷59號","121.463163333333","25.0198183333333","6500100","板橋區"
"220070","AAC-253","2018/06/07 19:49:25","新北市板橋區館前東路124號","121.463843333333","25.0077883333333","6500100","板橋區"
"235068","KEA-2873","2018/06/07 19:49:20","新北市中和區永和路1-2號","121.499866666667","25.003055","6500300","中和區"
"235061","KEA-2875","2018/06/07 19:49:27","新北市中和區員山路143巷40弄1號","121.479033333333","24.9956166666667","6500300","中和區"
