"lineid","car","time","location","longitude","latitude","cityid","cityname"
"241028","022-UY","2018/06/07 21:39:49","新北市八里區商港路82號","121.395306666667","25.14636","6500200","三重區"
"241005","262-UM","2018/06/07 21:39:45","新北市三重區仁華街6號","121.48341","25.0812683333333","6500200","三重區"
"247010","341-TH","2018/06/07 21:38:54","新北市五股區新城八路26號","121.448075","25.0900516666667","6501400","蘆洲區"
"251009","008-UM","2018/06/07 21:39:45","新北市淡水區民族路29巷2弄1號","121.462575","25.1373516666667","6501000","淡水區"
"251004","009-UM","2018/06/07 21:39:53","新北市淡水區民生路47-4號","121.462038333333","25.137985","6501000","淡水區"
"251005","010-UM","2018/06/07 21:39:40","新北市淡水區鄧公路19-1號","121.450278333333","25.16993","6501000","淡水區"
"251001","011-UM","2018/06/07 21:39:10","新北市淡水區新市二路三段152號","121.435353333333","25.194225","6501000","淡水區"
"251016","179-VK","2018/06/07 21:39:43","新北市淡水區中山北路三段165-1號","121.444433333333","25.1970183333333","6501000","淡水區"
"251014","180-VK","2018/06/07 21:39:51","新北市淡水區牛埔子10-1號","121.450025","25.2186166666667","6501000","淡水區"
"251010","413-VK","2018/06/07 21:39:53","新北市淡水區沙崙路216巷21號","121.42598","25.1843266666667","6501000","淡水區"
"251012","441-VK","2018/06/07 21:39:43","新北市淡水區淡金路四段211號","121.451706666667","25.222135","6501000","淡水區"
"251008","443-VK","2018/06/07 21:39:49","新北市淡水區水源街二段88號","121.451685","25.17431","6501000","淡水區"
"251006","561-UM","2018/06/07 21:39:43","新北市淡水區中正路11巷3號","121.437838333333","25.1707716666667","6501000","淡水區"
"251011","650-BX","2018/06/07 21:39:55","新北市淡水區新民街226巷2號","121.4361","25.1805366666667","6501000","淡水區"
"251002","672-BX","2018/06/07 21:39:36","新北市淡水區學府路152號","121.446386666667","25.1743016666667","6501000","淡水區"
"251003","766-UM","2018/06/07 21:39:46","新北市淡水區新春街36號","121.437093333333","25.1815383333333","6501000","淡水區"
