"lineid","car","time","location","longitude","latitude","cityid","cityname"
"234066","AAC-212","2018/06/07 22:02:36","新北市永和區福和路1號","121.526448333333","25.00965","6500400","永和區"
"241028","022-UY","2018/06/07 22:09:09","新北市五股區中興路三段2巷10號","121.448875","25.0813033333333","6500200","三重區"
"235010","733-UM","2018/06/07 22:01:23","新北市中和區員山路36巷13號","121.484176666667","24.9907933333333","6500300","中和區"
"247010","341-TH","2018/06/07 22:09:14","新北市八里區荖阡坑路24-2號","121.399196666667","25.133575","6501400","蘆洲區"
"251004","009-UM","2018/06/07 22:09:13","新北市淡水區民族路33號","121.46231","25.1358783333333","6501000","淡水區"
"251005","010-UM","2018/06/07 22:09:20","新北市淡水區淡金路一段69號","121.458556666667","25.1733533333333","6501000","淡水區"
"251010","413-VK","2018/06/07 22:09:13","新北市淡水區沙崙路200號","121.424663333333","25.1839216666667","6501000","淡水區"
"251008","443-VK","2018/06/07 22:09:09","新北市淡水區學府路104號","121.449836666667","25.1717666666667","6501000","淡水區"
"251011","650-BX","2018/06/07 22:09:15","新北市淡水區水碓街7號","121.443166666667","25.17712","6501000","淡水區"
