"lineid","car","time","location","longitude","latitude","cityid","cityname"
"248005","653-BX","2018/05/04 07:44:43","新北市五股區明德路12巷3號","121.433261666667","25.07178","6501500","五股區"
"244004","248-BX","2018/05/04 07:58:56","新北市林口區下福里147-20號","121.300046666667","25.11651","6501700","林口區"
"222005","289-BY","2018/05/04 07:59:00","新北市深坑區文化街45號","121.616946666667","25.0017633333333","6501800","深坑區"
"231007","188-VK","2018/05/04 07:59:11","新北市新店區安康路一段355-10號","121.520368333333","24.9638233333333","6500600","新店區"
"231009","192-VK","2018/05/04 07:59:09","新北市新店區安華路28-1號","121.519185","24.961295","6500600","新店區"
"235001","611-BX","2018/05/04 07:59:04","新北市中和區圓通路367巷4號","121.491485","24.9893483333333","6500300","中和區"
"226005","5620-A6","2018/05/04 07:59:05","新北市平溪區石底里公園街18-3號","121.733456666667","25.0257083333333","6502400","平溪區"
"226001","7418-A5","2018/05/04 07:59:04","新北市平溪區南山里南山坪136號","121.782968333333","25.0464633333333","6502400","平溪區"
"226006","AGD-0702","2018/05/04 07:59:02","新北市平溪區十分里十分街45號","121.774476666667","25.0407566666667","6502400","平溪區"
"223006","022-BY","2018/05/04 07:58:53","新北市坪林區北宜路八段553號","121.716903333333","24.909605","6501900","石碇區"
"223001","205-TH","2018/05/04 07:55:53","新北市石碇區崩山36-1號","121.672226666667","24.9580916666667","6501900","石碇區"
"223008","406-TH","2018/05/04 07:59:10","新北市石碇區玉桂嶺3號","121.701386666667","25.0113083333333","6501900","石碇區"
"223001","592-UM","2018/05/04 07:59:09","新北市石碇區橫坪1-4號","121.669325","24.966355","6501900","石碇區"
"223004","660-BX","2018/05/04 07:58:50","新北市石碇區雙溪33-6號","121.650073333333","25.0082","6501900","石碇區"
"223005","677-TV","2018/05/04 07:59:06","新北市石碇區碇坪路一段18號","121.65172","25.00556","6501900","石碇區"
"227005","282-VK","2018/05/04 07:58:59","新北市雙溪區平林里梅竹蹊16號","121.862031666667","25.035955","6502500","雙溪區"
"237001","159-UY","2018/05/04 07:58:53","新北市三峽區大學路45-1號","121.376916666667","24.9406233333333","6500900","三峽區"
"236010","165-UM","2018/05/04 07:59:06","新北市土城區石門路23號","121.459713333333","24.9663466666667","6501300","土城區"
"236004","339-SR","2018/05/04 07:59:00","新北市土城區龍泉路52號","121.413118333333","24.9443283333333","6501300","土城區"
"220070","282-UM","2018/05/04 07:58:59","新北市新莊區中原路662號","121.44239","25.054045","6500100","板橋區"
"220011","609-BX","2018/05/04 07:59:00","新北市板橋區大觀路二段19巷113-7號","121.452091666667","25.002475","6500100","板橋區"
