"lineid","car","time","location","longitude","latitude","cityid","cityname"
"248005","653-BX","2018/05/04 08:11:43","新北市五股區明德路12巷3號","121.433251666667","25.0717933333333","6501500","五股區"
"244004","248-BX","2018/05/04 08:18:56","新北市林口區嘉溪雅坑3-4號","121.342605","25.1026","6501700","林口區"
"222005","289-BY","2018/05/04 08:18:53","新北市深坑區北深路三段158巷23號","121.600046666667","25.0065416666667","6501800","深坑區"
"231007","188-VK","2018/05/04 08:19:11","新北市新店區新潭路一段100-3號","121.527268333333","24.9378333333333","6500600","新店區"
"231009","192-VK","2018/05/04 08:19:10","新北市新店區新烏路一段9-1號","121.547151666667","24.9515616666667","6500600","新店區"
"235001","611-BX","2018/05/04 08:19:04","新北市中和區錦和路350號","121.490781666667","24.992235","6500300","中和區"
"226005","5620-A6","2018/05/04 08:19:05","新北市平溪區南山里南山坪105號","121.781995","25.0429566666667","6502400","平溪區"
"226001","7418-A5","2018/05/04 08:19:04","新北市平溪區靜安路三段86號","121.76952","25.034445","6502400","平溪區"
"226006","AGD-0702","2018/05/04 08:19:06","新北市平溪區新寮里新寮路12號","121.792983333333","25.0595033333333","6502400","平溪區"
"223006","022-BY","2018/05/04 08:18:53","新北市石碇區靜安路一段46號","121.642718333333","25.0118416666667","6501900","石碇區"
"223001","205-TH","2018/05/04 08:18:53","新北市石碇區北宜路六段十三股巷1號","121.649098333333","24.9469133333333","6501900","石碇區"
"223008","406-TH","2018/05/04 08:19:11","新北市石碇區串空湖7-1號","121.670718333333","25.0014583333333","6501900","石碇區"
"223001","592-UM","2018/05/04 08:18:49","新北市石碇區北宜路六段十三股巷1號","121.649115","24.9467966666667","6501900","石碇區"
"223004","660-BX","2018/05/04 08:18:50","新北市石碇區碇坪路一段46號","121.655271666667","24.99302","6501900","石碇區"
"223005","677-TV","2018/05/04 08:19:08","新北市石碇區石崁14號","121.65511","24.9954633333333","6501900","石碇區"
"227005","282-VK","2018/05/04 08:18:59","新北市雙溪區上林里大瀨10號","121.822281666667","25.022205","6502500","雙溪區"
"237001","159-UY","2018/05/04 08:18:53","新北市三峽區學勤路178號","121.375843333333","24.946575","6500900","三峽區"
"236010","165-UM","2018/05/04 08:10:06","新北市土城區石門路100-3號","121.458595","24.951585","6501300","土城區"
"236004","339-SR","2018/05/04 08:19:00","新北市土城區中央路四段45-1號","121.422458333333","24.96184","6501300","土城區"
"236006","498-BY","2018/05/04 08:18:56","新北市土城區永平街2巷5號","121.427213333333","24.963435","6501300","土城區"
"220070","282-UM","2018/05/04 08:18:59","新北市五股區凌雲路三段24巷10號","121.435833333333","25.1071","6500100","板橋區"
"220011","609-BX","2018/05/04 08:19:00","新北市樹林區中山路三段208號","121.382715","24.9663716666667","6500100","板橋區"
