"lineid","car","time","location","longitude","latitude","cityid","cityname"
"248005","653-BX","2018/05/04 09:49:11","新北市五股區成泰路一段237-11號","121.436658333333","25.0803133333333","6501500","五股區"
"222005","289-BY","2018/05/04 09:48:55","新北市深坑區昇高坑路15號","121.624116666667","25.00072","6501800","深坑區"
"231007","188-VK","2018/05/04 09:48:50","新北市新店區新潭路三段215巷25號","121.508138333333","24.9040866666667","6500600","新店區"
"231009","192-VK","2018/05/04 09:32:09","新北市新店區平廣路一段256號","121.507306666667","24.8878716666667","6500600","新店區"
"235001","611-BX","2018/05/04 09:49:03","新北市中和區連城路569巷9弄7號","121.479541666667","24.9942916666667","6500300","中和區"
"227005","282-VK","2018/05/04 09:48:59","新北市雙溪區泰平里灣潭路36號","121.811435","24.9288","6502500","雙溪區"
"236010","165-UM","2018/05/04 09:49:06","新北市土城區城林路6巷80號","121.43851","24.9795716666667","6501300","土城區"
"236006","498-BY","2018/05/04 09:48:53","新北市土城區中央路二段390巷45號","121.438033333333","24.9722683333333","6501300","土城區"
"220011","609-BX","2018/05/04 09:23:30","新北市板橋區民生路二段161巷1號","121.470106666667","25.0201733333333","6500100","板橋區"
