"lineid","car","time","location","longitude","latitude","cityid","cityname"
"234044","148-BY","2018/05/04 13:18:32","新北市永和區得和路361號","121.524656666667","24.9993916666667","6500400","永和區"
"234048","149-BY","2018/05/04 13:18:27","新北市永和區仁愛路104巷2號","121.512093333333","25.0133316666667","6500400","永和區"
"234005","207-UY","2018/05/04 13:18:44","新北市永和區中山路一段331號","121.506101666667","25.0063283333333","6500400","永和區"
"234078","298-R6","2018/05/04 13:18:43","新北市永和區福和路7巷3號","121.525248333333","25.008165","6500400","永和區"
"234036","336-UY","2018/05/04 13:18:41","新北市永和區成功路二段121巷11號","121.527375","24.9985116666667","6500400","永和區"
"234062","337-UY","2018/05/04 13:18:34","新北市永和區永元路17巷15號","121.521316666667","25.0007383333333","6500400","永和區"
"234084","338-UY","2018/05/04 13:18:42","新北市永和區永利路37號","121.51869","25.0056233333333","6500400","永和區"
"234068","552-UM","2018/05/04 13:18:30","新北市永和區豫溪街61號","121.51739","25.0099383333333","6500400","永和區"
"234015","745-BX","2018/05/04 13:18:37","新北市永和區環河西路一段95巷19弄1號","121.511705","25.0171666666667","6500400","永和區"
"234028","746-BX","2018/05/04 13:18:37","新北市永和區厚德街96號","121.523523333333","24.9990533333333","6500400","永和區"
"234052","KEA-2590","2018/05/04 13:18:37","新北市永和區中興街35號","121.516225","25.0118316666667","6500400","永和區"
"234012","KEA-2591","2018/05/04 13:18:37","新北市永和區信義路50號","121.513151666667","25.0124416666667","6500400","永和區"
"234060","AAD-866","2018/05/04 13:18:28","新北市永和區秀朗路一段175號","121.516956666667","25.0037383333333","6500400","永和區"
"234040","862-TW","2018/05/04 13:18:44","新北市永和區保平路151巷2弄6-3號","121.509603333333","25.00533","6500400","永和區"
"234025","9371-KE","2018/05/04 13:18:41","新北市永和區豫溪街42巷17號","121.515386666667","25.0089783333333","6500400","永和區"
"234010","9373-KE","2018/05/04 13:18:45","新北市永和區永和路二段425巷57弄1號","121.513696666667","25.0172483333333","6500400","永和區"
"248019","225-UY","2018/05/04 13:18:29","新北市五股區孝義路19-1號","121.452321666667","25.1095333333333","6501500","五股區"
"234022","9380-KE","2018/05/04 13:18:33","新北市永和區竹林路100-1號","121.51962","25.0120766666667","6500400","永和區"
"234076","969-R7","2018/05/04 13:18:44","新北市永和區民有街69號","121.517898333333","24.9956966666667","6500400","永和區"
"234072","AAC-211","2018/05/04 13:18:31","新北市永和區竹林路87號","121.519668333333","25.0122916666667","6500400","永和區"
"234066","AAC-212","2018/05/04 13:18:35","新北市永和區保平路30巷3號","121.511756666667","25.007475","6500400","永和區"
"234001","AAC-295","2018/05/04 13:18:34","新北市永和區中山路一段101號","121.511063333333","25.0103566666667","6500400","永和區"
"244004","248-BX","2018/05/04 13:18:40","新北市林口區頂福里16-16號","121.356951666667","25.0909316666667","6501700","林口區"
"231027","0293-UT","2018/05/04 13:18:48","新北市新店區環河路17號","121.537651666667","24.961345","6500600","新店區"
"231028","046-UY","2018/05/04 13:18:35","新北市新店區安華路28-1號","121.519565","24.96104","6500600","新店區"
"231001","047-UY","2018/05/04 13:18:45","新北市新店區安華路28-1號","121.519323333333","24.9608933333333","6500600","新店區"
"231005","106-UY","2018/05/04 13:18:30","新北市新店區安華路28-1號","121.519741666667","24.9608416666667","6500600","新店區"
"231010","107-UY","2018/05/04 13:18:45","新北市新店區安康路一段230巷13-6號","121.522678333333","24.9647966666667","6500600","新店區"
"231022","108-UY","2018/05/04 13:18:36","新北市新店區安康路一段244-1號","121.521346666667","24.96388","6500600","新店區"
"231012","187-VK","2018/05/04 13:18:31","新北市新店區安康路一段228號","121.523228333333","24.9636433333333","6500600","新店區"
"231023","KEA-2219","2018/05/04 13:18:33","新北市新店區安康路一段323-3號","121.521148333333","24.963835","6500600","新店區"
"231026","256-BX","2018/05/04 13:18:31","新北市新店區安華路28-1號","121.519708333333","24.9611066666667","6500600","新店區"
"231003","268-BY","2018/05/04 13:18:41","新北市新店區安華路28-1號","121.519421666667","24.9607283333333","6500600","新店區"
"231018","278-BY","2018/05/04 13:18:44","新北市新店區環河路78號","121.536965","24.96327","6500600","新店區"
"231016","AAD-862","2018/05/04 13:18:33","新北市新店區安康路一段96號","121.527575","24.9622616666667","6500600","新店區"
"231038","3712-VJ","2018/05/04 13:18:29","新北市新店區安華路28-1號","121.519173333333","24.9606633333333","6500600","新店區"
"231037","4716-K9","2018/05/04 13:18:34","新北市新店區安華路28-1號","121.519881666667","24.960895","6500600","新店區"
"231025","4715-K9","2018/05/04 13:18:40","新北市新店區環河路18號","121.537143333333","24.961645","6500600","新店區"
"231036","512-UM","2018/05/04 13:18:41","新北市新店區安豐路48號","121.500645","24.9542533333333","6500600","新店區"
"231013","513-UM","2018/05/04 13:18:30","新北市新店區安華路28-1號","121.51971","24.9612966666667","6500600","新店區"
"231034","616-UM","2018/05/04 13:18:34","新北市新店區安華路28-1號","121.51944","24.9605433333333","6500600","新店區"
"231006","617-UM","2018/05/04 13:18:50","新北市新店區安華路28-1號","121.519466666667","24.96107","6500600","新店區"
"231030","619-UM","2018/05/04 13:18:35","新北市新店區安華路28-1號","121.519645","24.9609216666667","6500600","新店區"
"231035","719-UM","2018/05/04 13:18:44","新北市新店區安華路28-1號","121.519495","24.96133","6500600","新店區"
"231032","720-UM","2018/05/04 13:18:32","新北市新店區安華路28-1號","121.519231666667","24.96123","6500600","新店區"
"231029","897-TW","2018/05/04 13:18:39","新北市新店區安華路28-1號","121.519525","24.96085","6500600","新店區"
"231004","899-TW","2018/05/04 13:18:28","新北市新店區安華路28-1號","121.519341666667","24.96089","6500600","新店區"
"231024","AKT-0513","2018/05/04 13:18:35","新北市新店區安康路一段52巷2號","121.530126666667","24.9611633333333","6500600","新店區"
"235028","005-UY","2018/05/04 13:18:33","新北市中和區中正路148號","121.498991666667","24.9938466666667","6500300","中和區"
"235027","006-UY","2018/05/04 13:18:41","新北市中和區和城路一段271巷1號","121.485431666667","24.99213","6500300","中和區"
"235003","097-UM","2018/05/04 13:18:37","新北市中和區景平路502號","121.504301666667","24.9935733333333","6500300","中和區"
"235029","098-UM","2018/05/04 13:18:35","新北市中和區莊敬路49巷20弄18號","121.502623333333","25.005895","6500300","中和區"
"235004","150-BY","2018/05/04 12:58:14","新北市中和區中正路756號","121.48563","24.9991066666667","6500300","中和區"
"235022","151-BY","2018/05/04 13:18:27","新北市中和區圓通路367巷17號","121.492373333333","24.98694","6500300","中和區"
"235019","183-VK","2018/05/04 13:18:30","新北市中和區員山路36巷16-3號","121.485046666667","24.9914083333333","6500300","中和區"
"235002","185-VK","2018/05/04 13:18:34","新北市中和區秀朗路三段128巷12弄3號","121.524691666667","24.992845","6500300","中和區"
"235013","186-VK","2018/05/04 13:18:42","新北市中和區員山路36巷16-2號","121.485325","24.9917533333333","6500300","中和區"
"235031","255-BX","2018/05/04 13:18:33","新北市中和區員山路148巷46號","121.482555","24.997085","6500300","中和區"
"235036","301-VK","2018/05/04 13:18:26","新北市中和區中正路484號","121.489278333333","24.994225","6500300","中和區"
"235007","352-BY","2018/05/04 13:18:37","新北市中和區中正路25號","121.502343333333","24.99349","6500300","中和區"
"235025","378-QA","2018/05/04 13:18:45","新北市中和區民德路262號","121.468096666667","24.9967","6500300","中和區"
"235014","4979-A6","2018/05/04 13:18:28","新北市中和區捷運路61巷9號","121.509106666667","24.9894166666667","6500300","中和區"
"235033","4980-A6","2018/05/04 13:18:39","新北市中和區圓通路299號","121.495541666667","24.9912066666667","6500300","中和區"
"235006","551-UM","2018/05/04 13:18:40","新北市中和區景平路159巷29弄8號","121.51314","24.9911316666667","6500300","中和區"
"235034","558-UM","2018/05/04 13:18:30","新北市中和區圓通路132號","121.498488333333","24.9958066666667","6500300","中和區"
"235009","565-BX","2018/05/04 13:18:33","新北市中和區中興街107號","121.499935","24.9923683333333","6500300","中和區"
"235018","640-BX","2018/05/04 13:18:27","新北市中和區民享街86巷24號","121.47344","25.0006483333333","6500300","中和區"
"235024","647-TV","2018/05/04 13:18:42","新北市中和區員山路36巷16-3號","121.485011666667","24.9916766666667","6500300","中和區"
"235011","732-UM","2018/05/04 13:18:47","新北市中和區建八路1號","121.485498333333","24.99868","6500300","中和區"
"235035","783-BX","2018/05/04 13:18:40","新北市中和區永和路337巷15號","121.484666666667","25.0111116666667","6500300","中和區"
"235026","800-TS","2018/05/04 13:18:39","新北市中和區永和路103巷2號","121.495115","25.0065466666667","6500300","中和區"
"235021","801-TS","2018/05/04 13:18:39","新北市中和區員山路112號","121.481103333333","24.99568","6500300","中和區"
"235005","802-TS","2018/05/04 13:18:29","新北市中和區景安路9號","121.508008333333","24.9989866666667","6500300","中和區"
"235016","805-TS","2018/05/04 13:18:30","新北市中和區興南路二段94號","121.505403333333","24.9843266666667","6500300","中和區"
"235017","900-TW","2018/05/04 13:18:36","新北市中和區員山路36巷16-3號","121.484888333333","24.9917133333333","6500300","中和區"
"235030","911-UM","2018/05/04 13:18:31","新北市中和區中山路二段120號","121.50274","25.0036783333333","6500300","中和區"
"235015","157-BY","2018/05/04 13:18:38","新北市中和區忠孝街136號","121.51207","24.986685","6500300","中和區"
"235001","AAC-213","2018/05/04 13:18:40","新北市中和區景德街72號","121.516768333333","24.9916","6500300","中和區"
"235023","AAC-215","2018/05/04 13:18:44","新北市中和區員山路36巷16-3號","121.484963333333","24.9913583333333","6500300","中和區"
"247007","056-VK","2018/05/04 13:18:35","新北市五股區中興路三段163號","121.44921","25.0809966666667","6501400","蘆洲區"
"207002","749-BX","2018/05/04 13:18:38","新北市萬里區崁腳里崁腳路166號","121.64502","25.1558916666667","6502800","萬里區"
"207001","662-BX","2018/05/04 13:18:41","新北市萬里區龜吼里光宇大道2號","121.679471666667","25.1908583333333","6502800","萬里區"
"236006","498-BY","2018/05/04 13:18:13","新北市土城區亞洲路108巷1弄21號","121.433328333333","24.972045","6501300","土城區"
"242048","172-VK","2018/05/04 13:18:44","新北市新莊區福營路371號","121.42357","25.0276233333333","6500500","新莊區"
"221032","280-BY","2018/05/04 13:18:27","新北市汐止區龍安路204號","121.652743333333","25.0629883333333","6501100","汐止區"
"220028","200-UY","2018/05/04 13:18:36","新北市板橋區華東街1-9號","121.448145","24.9948383333333","6500100","板橋區"
"220030","610-BX","2018/05/04 13:18:30","新北市板橋區華東街1-10號","121.448273333333","24.9950033333333","6500100","板橋區"
"220029","287-VK","2018/05/04 13:18:35","新北市板橋區華東街1-10號","121.448426666667","24.99493","6500100","板橋區"
"220022","895-R6","2018/05/04 13:18:37","新北市板橋區華東街1-9號","121.448211666667","24.9949783333333","6500100","板橋區"
