"lineid","car","time","location","longitude","latitude","cityid","cityname"
"234044","148-BY","2018/05/04 13:28:32","新北市永和區秀朗路二段243號","121.526441666667","24.9996933333333","6500400","永和區"
"234048","149-BY","2018/05/04 13:28:46","新北市永和區保福路二段95號","121.510505","25.013055","6500400","永和區"
"234005","207-UY","2018/05/04 13:28:44","新北市永和區中山路一段212號","121.508516666667","25.0085933333333","6500400","永和區"
"234078","298-R6","2018/05/04 13:28:48","新北市永和區福和路5-9號","121.52549","25.008385","6500400","永和區"
"234036","336-UY","2018/05/04 13:28:46","新北市永和區民樂街31巷10弄1號","121.528118333333","25.00085","6500400","永和區"
"234062","337-UY","2018/05/04 13:28:34","新北市永和區中正路368巷1弄88號","121.52048","25.0007333333333","6500400","永和區"
"234084","338-UY","2018/05/04 13:28:42","新北市永和區林森路65號","121.524063333333","25.004135","6500400","永和區"
"234068","552-UM","2018/05/04 13:28:29","新北市永和區警光街12號","121.519758333333","25.0095766666667","6500400","永和區"
"234015","745-BX","2018/05/04 13:28:37","新北市永和區環河西路一段1號","121.51525","25.018005","6500400","永和區"
"234028","746-BX","2018/05/04 13:28:37","新北市永和區民生路61號","121.5227","24.9974133333333","6500400","永和區"
"234052","KEA-2590","2018/05/04 13:28:38","新北市永和區復興街26號","121.516078333333","25.0129266666667","6500400","永和區"
"234012","KEA-2591","2018/05/04 13:28:41","新北市永和區中山路一段184巷9弄1號","121.508591666667","25.0092216666667","6500400","永和區"
"234060","AAD-866","2018/05/04 13:28:48","新北市永和區中正路560號","121.517266666667","25.0058533333333","6500400","永和區"
"234040","862-TW","2018/05/04 13:28:44","新北市永和區中和路519巷3號","121.5108","25.00291","6500400","永和區"
"234025","9371-KE","2018/05/04 13:28:41","新北市永和區永和路一段206號","121.514446666667","25.0093166666667","6500400","永和區"
"234010","9373-KE","2018/05/04 13:28:45","新北市永和區仁愛路141巷5弄10號","121.512133333333","25.012125","6500400","永和區"
"248019","225-UY","2018/05/04 13:28:39","新北市五股區孝義路59號","121.450211666667","25.1145316666667","6501500","五股區"
"234022","9380-KE","2018/05/04 13:28:33","新北市永和區竹林路91巷54號","121.52138","25.0127366666667","6500400","永和區"
"234076","969-R7","2018/05/04 13:28:44","新北市永和區智光街35號","121.517906666667","24.9988333333333","6500400","永和區"
"234072","AAC-211","2018/05/04 13:28:31","新北市永和區永和路二段82號","121.515016666667","25.0114083333333","6500400","永和區"
"234066","AAC-212","2018/05/04 13:28:36","新北市永和區保平路176號","121.510781666667","25.0066816666667","6500400","永和區"
"234001","AAC-295","2018/05/04 13:28:34","新北市永和區永和路一段107號","121.513926666667","25.0079833333333","6500400","永和區"
"244004","248-BX","2018/05/04 13:28:40","新北市林口區頂福23-2號","121.351521666667","25.0841266666667","6501700","林口區"
"231027","0293-UT","2018/05/04 13:28:41","新北市新店區國校路32-3號","121.537781666667","24.954195","6500600","新店區"
"231028","046-UY","2018/05/04 13:28:35","新北市新店區安華路28-1號","121.519611666667","24.9610216666667","6500600","新店區"
"231001","047-UY","2018/05/04 13:28:45","新北市新店區環河路42-2號","121.537088333333","24.9623766666667","6500600","新店區"
"231005","106-UY","2018/05/04 13:28:30","新北市新店區安康路一段52巷2號","121.530121666667","24.961205","6500600","新店區"
"231010","107-UY","2018/05/04 13:28:45","新北市新店區中央路98-1號","121.531585","24.9756833333333","6500600","新店區"
"231022","108-UY","2018/05/04 13:28:37","新北市新店區新烏路一段60號","121.546058333333","24.9482933333333","6500600","新店區"
"231012","187-VK","2018/05/04 13:28:31","新北市新店區北新路二段2號","121.54252","24.97039","6500600","新店區"
"231023","KEA-2219","2018/05/04 13:28:33","新北市新店區新店路13號","121.540308333333","24.952905","6500600","新店區"
"231026","256-BX","2018/05/04 13:28:31","新北市新店區安康路一段355號","121.519758333333","24.9628266666667","6500600","新店區"
"231003","268-BY","2018/05/04 13:28:41","新北市新店區安康路一段94-3號","121.527635","24.9622516666667","6500600","新店區"
"231018","278-BY","2018/05/04 13:28:44","新北市新店區中央路98-1號","121.531656666667","24.9757066666667","6500600","新店區"
"231016","AAD-862","2018/05/04 13:28:33","新北市新店區北宜路二段30巷5弄1號","121.548278333333","24.9508633333333","6500600","新店區"
"231038","3712-VJ","2018/05/04 13:28:49","新北市新店區安華路28-1號","121.519241666667","24.96063","6500600","新店區"
"231037","4716-K9","2018/05/04 13:28:34","新北市新店區安豐路30-1號","121.500723333333","24.9568616666667","6500600","新店區"
"231025","4715-K9","2018/05/04 13:28:40","新北市新店區中央六街58號","121.527838333333","24.97576","6500600","新店區"
"231036","512-UM","2018/05/04 13:28:41","新北市新店區建業路90-1號","121.479631666667","24.956305","6500600","新店區"
"231013","513-UM","2018/05/04 13:28:45","新北市新店區安康路一段222-1號","121.52288","24.9637133333333","6500600","新店區"
"231034","616-UM","2018/05/04 13:28:34","新北市新店區安華路28-1號","121.519453333333","24.9605983333333","6500600","新店區"
"231006","617-UM","2018/05/04 13:28:30","新北市新店區安康路一段164號","121.526088333333","24.96299","6500600","新店區"
"231002","618-UM","2018/05/04 13:28:45","新北市新店區環河路62號","121.53708","24.9626416666667","6500600","新店區"
"231030","619-UM","2018/05/04 13:28:35","新北市新店區安華路28-1號","121.51943","24.960975","6500600","新店區"
"231035","719-UM","2018/05/04 13:28:44","新北市新店區安華路28-1號","121.519566666667","24.9612433333333","6500600","新店區"
"231032","720-UM","2018/05/04 13:28:32","新北市新店區車子路20號","121.505351666667","24.9546166666667","6500600","新店區"
"231029","897-TW","2018/05/04 13:28:39","新北市新店區安華路30巷1號","121.519125","24.9592816666667","6500600","新店區"
"231004","899-TW","2018/05/04 13:28:28","新北市新店區安康路一段299-3號","121.520965","24.9638666666667","6500600","新店區"
"231024","AKT-0513","2018/05/04 13:28:35","新北市新店區北新路二段59巷5號","121.542233333333","24.9730916666667","6500600","新店區"
"235028","005-UY","2018/05/04 13:28:33","新北市中和區圓通路141巷41-7號","121.498825","24.9943533333333","6500300","中和區"
"235027","006-UY","2018/05/04 13:28:41","新北市中和區連城路347巷29-1號","121.488465","24.9951666666667","6500300","中和區"
"235020","096-UM","2018/05/04 13:28:37","新北市中和區新生街167號","121.483658333333","25.0009366666667","6500300","中和區"
"235003","097-UM","2018/05/04 13:28:37","新北市中和區安和路39號","121.509646666667","24.9948116666667","6500300","中和區"
"235029","098-UM","2018/05/04 13:28:35","新北市中和區莊敬路49巷20弄32號","121.503198333333","25.0050616666667","6500300","中和區"
"235004","150-BY","2018/05/04 13:28:34","新北市中和區和平街172號","121.50545","24.9923533333333","6500300","中和區"
"235022","151-BY","2018/05/04 13:28:47","新北市中和區圓通路369巷96號","121.48946","24.981615","6500300","中和區"
"235019","183-VK","2018/05/04 13:28:30","新北市中和區莒光路207號","121.469993333333","24.9955666666667","6500300","中和區"
"235002","185-VK","2018/05/04 13:28:34","新北市中和區立人街14巷40弄1號","121.519006666667","24.9956","6500300","中和區"
"235013","186-VK","2018/05/04 13:28:42","新北市中和區景安路149號","121.505556666667","24.9952983333333","6500300","中和區"
"235031","255-BX","2018/05/04 13:28:33","新北市中和區新生街220巷4號","121.482908333333","24.9986533333333","6500300","中和區"
"235036","301-VK","2018/05/04 13:28:46","新北市中和區連城路265號","121.491268333333","24.9964466666667","6500300","中和區"
"235007","352-BY","2018/05/04 13:28:37","新北市中和區景平路379號","121.504033333333","24.993525","6500300","中和區"
"235032","377-QA","2018/05/04 13:28:46","新北市中和區圓通路218號","121.495193333333","24.99319","6500300","中和區"
"235025","378-QA","2018/05/04 13:28:45","新北市中和區民享街97巷17號","121.475538333333","24.9996833333333","6500300","中和區"
"235014","4979-A6","2018/05/04 13:28:28","新北市中和區景新街410巷18弄18號","121.511921666667","24.989775","6500300","中和區"
"235033","4980-A6","2018/05/04 13:28:39","新北市中和區連城路123號","121.496251666667","24.99915","6500300","中和區"
"235006","551-UM","2018/05/04 13:28:28","新北市中和區景平路64巷13弄21號","121.521711666667","24.9913516666667","6500300","中和區"
"235034","558-UM","2018/05/04 13:28:30","新北市中和區景平路580號","121.501371666667","24.995655","6500300","中和區"
"235009","565-BX","2018/05/04 13:28:33","新北市中和區復興路12號","121.505866666667","24.989755","6500300","中和區"
"235018","640-BX","2018/05/04 13:28:33","新北市中和區民享街82號","121.474353333333","25.0012666666667","6500300","中和區"
"235024","647-TV","2018/05/04 13:28:46","新北市中和區員山路238號","121.481288333333","25.0013","6500300","中和區"
"235011","732-UM","2018/05/04 13:28:47","新北市中和區復興路46號","121.50444","24.990175","6500300","中和區"
"235035","783-BX","2018/05/04 13:28:40","新北市中和區環中路122號","121.481878333333","25.01257","6500300","中和區"
"235026","800-TS","2018/05/04 13:28:39","新北市中和區景平路989巷4號","121.495413333333","25.0053366666667","6500300","中和區"
"235021","801-TS","2018/05/04 13:28:39","新北市中和區民享街97巷19號","121.47541","24.9995666666667","6500300","中和區"
"235005","802-TS","2018/05/04 13:28:29","新北市中和區中和路324巷5號","121.510161666667","25.0007616666667","6500300","中和區"
"235016","805-TS","2018/05/04 13:28:30","新北市中和區興南路二段133號","121.505246666667","24.9841883333333","6500300","中和區"
"235012","896-TW","2018/05/04 13:28:43","新北市中和區員山路36巷16-3號","121.485","24.9918016666667","6500300","中和區"
"235017","900-TW","2018/05/04 13:28:36","新北市中和區民享街465號","121.470223333333","24.9920083333333","6500300","中和區"
"235030","911-UM","2018/05/04 13:28:31","新北市中和區中山路二段120號","121.502741666667","25.0036766666667","6500300","中和區"
"235015","157-BY","2018/05/04 13:28:38","新北市中和區興南路二段142巷35弄2號","121.502291666667","24.9846566666667","6500300","中和區"
"235001","AAC-213","2018/05/04 13:28:40","新北市中和區景德街95-3號","121.515401666667","24.9912216666667","6500300","中和區"
"235023","AAC-215","2018/05/04 13:28:44","新北市中和區員山路36巷16-3號","121.48496","24.9913683333333","6500300","中和區"
"220013","072-UY","2018/05/04 13:28:30","新北市板橋區南雅南路二段146號","121.451546666667","24.9960783333333","6500100","板橋區"
"220034","073-UY","2018/05/04 13:28:38","新北市板橋區華東街11號","121.451271666667","24.9982983333333","6500100","板橋區"
"220017","AAD-861","2018/05/04 13:28:48","新北市板橋區華東街1-10號","121.448533333333","24.995185","6500100","板橋區"
"247007","056-VK","2018/05/04 13:28:35","新北市五股區中興路三段198號","121.441328333333","25.0820466666667","6501400","蘆洲區"
"207002","749-BX","2018/05/04 13:28:38","新北市萬里區崁腳里崁腳路166號","121.645051666667","25.155935","6502800","萬里區"
"207001","662-BX","2018/05/04 13:28:41","新北市萬里區大鵬里頂社67號","121.655735","25.209545","6502800","萬里區"
"236006","498-BY","2018/05/04 13:28:36","新北市土城區亞洲路11巷1弄2號","121.435076666667","24.9714966666667","6501300","土城區"
"242048","172-VK","2018/05/04 13:28:44","新北市新莊區民安路318號","121.428706666667","25.0220133333333","6500500","新莊區"
"221032","280-BY","2018/05/04 13:28:47","新北市汐止區復興路23號","121.656151666667","25.0652316666667","6501100","汐止區"
"220027","145-BY","2018/05/04 13:28:49","新北市板橋區板城路407號","121.44748","24.9952816666667","6500100","板橋區"
"220028","200-UY","2018/05/04 13:28:36","新北市板橋區華東街1-9號","121.448128333333","24.994865","6500100","板橋區"
"220030","610-BX","2018/05/04 13:28:49","新北市板橋區華東街1-10號","121.448258333333","24.9949633333333","6500100","板橋區"
"220019","283-VK","2018/05/04 13:28:45","新北市板橋區華東街1-9號","121.448098333333","24.99488","6500100","板橋區"
"220031","286-VK","2018/05/04 13:28:46","新北市板橋區華東街1-10號","121.448385","24.99509","6500100","板橋區"
"220029","287-VK","2018/05/04 13:28:35","新北市板橋區華東街1-10號","121.44829","24.9949883333333","6500100","板橋區"
"220032","296-UM","2018/05/04 13:28:40","新北市板橋區華東街1-9號","121.448188333333","24.9949566666667","6500100","板橋區"
"220023","303-R5","2018/05/04 13:28:32","新北市板橋區華東街1-10號","121.44831","24.9948766666667","6500100","板橋區"
"220012","486-VK","2018/05/04 13:28:34","新北市板橋區華東街1-9號","121.447966666667","24.9948933333333","6500100","板橋區"
"220104","560-BX","2018/05/04 13:28:36","新北市板橋區南雅南路二段124號","121.452238333333","24.9971483333333","6500100","板橋區"
"220005","686-BX","2018/05/04 13:28:34","新北市板橋區華東街1-9號","121.448226666667","24.99496","6500100","板橋區"
"220025","687-BX","2018/05/04 13:28:39","新北市板橋區大觀路二段265巷7-6號","121.443031666667","24.9947083333333","6500100","板橋區"
"220002","741-BX","2018/05/04 13:28:31","新北市板橋區華東街1-9號","121.448098333333","24.99491","6500100","板橋區"
"220022","895-R6","2018/05/04 13:28:37","新北市板橋區華東街1-9號","121.448198333333","24.9949583333333","6500100","板橋區"
