"lineid","car","time","location","longitude","latitude","cityid","cityname"
"234026","9371-KE","2018/05/04 17:58:43","新北市永和區永和路一段25號","121.512988333333","25.005905","6500400","永和區"
"249005","172-UM","2018/05/04 17:58:41","新北市八里區荖阡坑路16號","121.398441666667","25.138505","6502300","八里區"
"249001","173-UM","2018/05/04 17:58:47","新北市八里區龍米路二段36號","121.448511666667","25.1401266666667","6502300","八里區"
"249004","303-UY","2018/05/04 17:58:51","新北市八里區龍米路二段159號","121.439016666667","25.153825","6502300","八里區"
"249002","305-UY","2018/05/04 17:58:47","新北市八里區龍形五街13號","121.450276666667","25.1337216666667","6502300","八里區"
"249003","593-UM","2018/05/04 17:58:45","新北市八里區中山路二段306號","121.404633333333","25.1501283333333","6502300","八里區"
"248006","077-UY","2018/05/04 17:58:52","新北市五股區中興路二段37巷28號","121.460048333333","25.0748166666667","6501500","五股區"
"248008","095-VK","2018/05/04 17:58:53","新北市五股區更洲路6號","121.45859","25.0786","6501500","五股區"
"248018","225-UY","2018/05/04 17:58:50","新北市五股區中興路二段83巷26-6號","121.460076666667","25.0751866666667","6501500","五股區"
"248002","678-BX","2018/05/04 17:58:42","新北市五股區中興路二段37巷28號","121.460151666667","25.0748083333333","6501500","五股區"
"232011","375-UM","2018/05/04 17:58:52","新北市坪林區北宜路八段175號","121.707761666667","24.9346383333333","6502000","坪林區"
"244013","069-UM","2018/05/04 17:58:40","新北市林口區中山路71-3號","121.391735","25.07855","6501700","林口區"
"244007","080-UY","2018/05/04 17:58:52","新北市林口區竹林路271號","121.389571666667","25.081035","6501700","林口區"
"244019","403-UM","2018/05/04 17:58:51","新北市林口區忠孝路542巷10弄3號","121.372326666667","25.0669033333333","6501700","林口區"
"244023","483-VK","2018/05/04 17:58:33","新北市林口區東湖路93巷102號","121.385548333333","25.0704183333333","6501700","林口區"
"244017","485-VK","2018/05/04 17:58:47","新北市林口區文化二路一段232號","121.369743333333","25.0726583333333","6501700","林口區"
"244009","656-BX","2018/05/04 17:58:36","新北市林口區佳林路56巷13號","121.385478333333","25.081435","6501700","林口區"
"244011","657-BX","2018/05/04 17:58:44","新北市林口區中正路263號","121.390356666667","25.0775216666667","6501700","林口區"
"244025","837-TS","2018/05/04 17:58:48","新北市林口區文化三路一段39巷179號","121.359181666667","25.067655","6501700","林口區"
"244021","838-TS","2018/05/04 17:58:46","新北市林口區新寮27號","121.39699","25.0674216666667","6501700","林口區"
"222003","436-BY","2018/05/04 17:58:51","新北市深坑區炮子崙23號","121.607156666667","24.9908866666667","6501800","深坑區"
"222002","659-BX","2018/05/04 17:58:50","新北市深坑區深坑街35號","121.615998333333","25.00186","6501800","深坑區"
"231046","107-UY","2018/05/04 17:58:35","新北市新店區直潭七街60號","121.532258333333","24.93991","6500600","新店區"
"241024","065-VK","2018/05/04 17:58:46","新北市三重區大勇街82巷24號","121.479548333333","25.0722016666667","6500200","三重區"
"241005","262-UM","2018/05/04 17:58:43","新北市三重區碧華街268號","121.48829","25.0829","6500200","三重區"
"241016","266-UM","2018/05/04 17:58:43","新北市三重區新北大道一段7號","121.489793333333","25.061395","6500200","三重區"
"241033","557-UM","2018/05/04 17:43:10","新北市三重區中興北街193巷7號","121.469548333333","25.0563983333333","6500200","三重區"
"235063","006-UY","2018/05/04 17:58:33","新北市中和區員山路36巷16-3號","121.484925","24.9913066666667","6500300","中和區"
"235065","098-UM","2018/05/04 17:58:38","新北市中和區連城路469巷79弄30號","121.484483333333","24.9937033333333","6500300","中和區"
"235058","151-BY","2018/05/04 17:58:44","新北市中和區錦和路350-1號","121.490513333333","24.993555","6500300","中和區"
"235038","185-VK","2018/05/04 17:58:53","新北市中和區中正路271號","121.495845","24.9937866666667","6500300","中和區"
"235042","551-UM","2018/05/04 17:58:49","新北市中和區中正路637巷52弄1號","121.485475","24.9933633333333","6500300","中和區"
"235046","733-UM","2018/05/04 17:58:54","新北市中和區員山路36巷13號","121.484145","24.9908816666667","6500300","中和區"
"235037","AAC-213","2018/05/04 17:58:41","新北市中和區錦和路350-1號","121.490563333333","24.9936166666667","6500300","中和區"
"247024","893-R6","2018/05/04 17:58:50","新北市蘆洲區光復路30巷18號","121.463803333333","25.084225","6501400","蘆洲區"
"247014","546-UM","2018/05/04 17:58:49","新北市蘆洲區忠孝路37號","121.471355","25.08582","6501400","蘆洲區"
"247022","500-BY","2018/05/04 17:58:40","新北市蘆洲區中正路516巷38-5號","121.461961666667","25.0978216666667","6501400","蘆洲區"
"247010","341-TH","2018/05/04 17:58:43","新北市蘆洲區信義路154號","121.479331666667","25.08339","6501400","蘆洲區"
"247012","339-TH","2018/05/04 17:58:41","新北市蘆洲區民族路228號","121.479588333333","25.088175","6501400","蘆洲區"
"247006","336-TH","2018/05/04 17:58:35","新北市蘆洲區中華街14號","121.463105","25.08146","6501400","蘆洲區"
"247018","057-VK","2018/05/04 17:58:24","新北市蘆洲區復興路234號","121.479421666667","25.089365","6501400","蘆洲區"
"247016","007-UY","2018/05/04 17:58:35","新北市蘆洲區長興路50巷41號","121.465025","25.0848266666667","6501400","蘆洲區"
"247002","002-UY","2018/05/04 17:58:42","新北市蘆洲區永平街32巷45弄32號","121.458423333333","25.0930066666667","6501400","蘆洲區"
"247020","001-UY","2018/05/04 17:58:51","新北市蘆洲區水湳街36-12號","121.471361666667","25.08946","6501400","蘆洲區"
"226004","312-R5","2018/05/04 17:58:53","新北市平溪區石底里公園街18-3號","121.733368333333","25.02579","6502400","平溪區"
"228002","663-BX","2018/05/04 17:58:49","新北市貢寮區福連里香蘭街2-1號","121.970695","25.0241","6502600","貢寮區"
"228001","670-TC","2018/05/04 17:58:35","新北市貢寮區真理里新港街26巷31號","121.929138333333","25.05473","6502600","貢寮區"
"228003","828-UM","2018/05/04 17:58:43","新北市貢寮區真理里美艷山街6-2號","121.92884","25.06073","6502600","貢寮區"
"224006","676-BX","2018/05/04 17:58:51","新北市瑞芳區傑魚坑路191號","121.788115","25.1075533333333","6501200","瑞芳區"
"224008","285-BY","2018/05/04 17:58:54","新北市瑞芳區三爪子坑路335號","121.819331666667","25.1056066666667","6501200","瑞芳區"
"224009","273-VK","2018/05/04 17:58:51","新北市瑞芳區金光路255號","121.850143333333","25.1077416666667","6501200","瑞芳區"
"224005","271-BY","2018/05/04 17:58:39","新北市瑞芳區深澳路133-2號","121.820186666667","25.1331233333333","6501200","瑞芳區"
"227011","030-BX","2018/05/04 17:58:44","新北市雙溪區三貂里定福路1-2號","121.850606666667","25.063495","6502500","雙溪區"
"253005","032-BX","2018/05/04 17:58:41","新北市石門區中山路64-1號","121.567426666667","25.2903333333333","6502200","石門區"
"253006","295-VK","2018/05/04 17:58:45","新北市石門區大丘田45-2號","121.549838333333","25.2749366666667","6502200","石門區"
"222001","KEA-2212","2018/05/04 17:58:48","新北市深坑區文山路三段110號","121.60865","24.9993716666667","6501800","深坑區"
"208002","KEA-2872","2018/05/04 17:58:55","新北市金山區三界壇路35號","121.627516666667","25.22795","6502700","金山區"
"208003","665-BX","2018/05/04 17:58:45","新北市金山區磺港里磺港路203號","121.644925","25.2276033333333","6502700","金山區"
"208001","761-BX","2018/05/04 17:58:48","新北市金山區磺港里磺港路251號","121.644425","25.225505","6502700","金山區"
"251009","008-UM","2018/05/04 17:58:49","新北市淡水區大仁街8號","121.442335","25.174615","6501000","淡水區"
"251004","009-UM","2018/05/04 17:58:46","新北市淡水區民權路84號","121.459163333333","25.1334716666667","6501000","淡水區"
"251005","010-UM","2018/05/04 17:58:37","新北市淡水區水源街一段101號","121.446018333333","25.172205","6501000","淡水區"
"251001","011-UM","2018/05/04 17:58:41","新北市淡水區民權路94巷1號","121.463088333333","25.1248033333333","6501000","淡水區"
"251002","012-UM","2018/05/04 17:58:42","新北市淡水區中正東路34-2號","121.448428333333","25.1660266666667","6501000","淡水區"
"251008","181-VK","2018/05/04 17:58:40","新北市淡水區八勢一街32巷3號","121.461828333333","25.1558533333333","6501000","淡水區"
"251010","413-VK","2018/05/04 17:58:37","新北市淡水區中正路一段87巷1號","121.421746666667","25.1791316666667","6501000","淡水區"
"251012","441-VK","2018/05/04 17:58:45","新北市淡水區北新路三段38巷7號","121.484535","25.1870416666667","6501000","淡水區"
"251007","442-VK","2018/05/04 17:58:34","新北市淡水區中正東路二段153號","121.459905","25.1465333333333","6501000","淡水區"
"251006","561-UM","2018/05/04 17:58:39","新北市淡水區文化路57號","121.43882","25.17286","6501000","淡水區"
"251011","650-BX","2018/05/04 17:58:46","新北市淡水區三空泉8-1號","121.475736666667","25.1608983333333","6501000","淡水區"
"251003","766-UM","2018/05/04 17:58:40","新北市淡水區大忠街71-1號","121.445453333333","25.1771016666667","6501000","淡水區"
"207003","550-UM","2018/05/04 17:58:39","新北市萬里區港東路野柳風景區攤販66號","121.69134","25.2058716666667","6502800","萬里區"
"207004","225-TW","2018/05/04 17:58:42","新北市萬里區中幅里中福路48號","121.68341","25.1740566666667","6502800","萬里區"
"252002","178-VK","2018/05/04 17:58:36","新北市三芝區中山路二段35號","121.502876666667","25.2551816666667","6502100","三芝區"
"252001","292-VK","2018/05/04 17:58:36","新北市三芝區中興街二段2號","121.498336666667","25.2566533333333","6502100","三芝區"
"237007","153-BY","2018/05/04 17:58:48","新北市三峽區中園街156-7號","121.366678333333","24.9194233333333","6500900","三峽區"
"237011","572-TV","2018/05/04 17:58:38","新北市三峽區大同路2-1號","121.37842","24.9300766666667","6500900","三峽區"
"237009","210-TH","2018/05/04 17:58:41","新北市三峽區大勇路36巷28號","121.365953333333","24.93717","6500900","三峽區"
"237013","252-BX","2018/05/04 17:58:48","新北市三峽區長泰街70-2號","121.376606666667","24.9334633333333","6500900","三峽區"
"237012","275-BY","2018/05/04 17:58:49","新北市三峽區民生街19巷3-1號","121.376113333333","24.9361316666667","6500900","三峽區"
"237008","302-VK","2018/05/04 17:58:37","新北市三峽區正義街133號","121.368518333333","24.9165866666667","6500900","三峽區"
"237014","433-BY","2018/05/04 17:58:48","新北市三峽區和平街36巷7弄7號","121.370856666667","24.93743","6500900","三峽區"
"237006","5529-G3","2018/05/04 17:58:34","新北市三峽區介壽路二段136巷83-2號","121.393105","24.931355","6500900","三峽區"
"237010","706-TV","2018/05/04 17:58:42","新北市三峽區民權街207號","121.367643333333","24.9286483333333","6500900","三峽區"
"237005","AKY-6261","2018/05/04 17:58:50","新北市三峽區復興路237巷38號","121.369045","24.9378566666667","6500900","三峽區"
"236069","105-UM","2018/05/04 17:58:51","新北市土城區城林路6巷80號","121.438506666667","24.9797316666667","6501300","土城區"
"236042","107-UM","2018/05/04 17:58:33","新北市土城區城林路6巷80號","121.438441666667","24.9797233333333","6501300","土城區"
"236079","166-UM","2018/05/04 17:58:50","新北市土城區永寧路25號","121.430418333333","24.9637633333333","6501300","土城區"
"236030","253-BX","2018/05/04 17:58:37","新北市土城區城林路6巷80號","121.438555","24.9795916666667","6501300","土城區"
"236026","269-VK","2018/05/04 17:58:48","新北市土城區承天路18號","121.43946","24.9633783333333","6501300","土城區"
"236014","270-VK","2018/05/04 17:58:42","新北市土城區城林路6巷80號","121.438481666667","24.97958","6501300","土城區"
"236039","271-VK","2018/05/04 17:58:35","新北市土城區城林路6巷80號","121.438476666667","24.9796183333333","6501300","土城區"
"236020","401-BY","2018/05/04 17:58:46","新北市土城區城林路6巷80號","121.438783333333","24.979635","6501300","土城區"
"236059","912-UM","2018/05/04 17:58:51","新北市土城區中央路三段232號","121.42865","24.9643733333333","6501300","土城區"
"236048","913-UM","2018/05/04 17:58:46","新北市土城區城林路6巷80號","121.438668333333","24.9797083333333","6501300","土城區"
"236063","915-UM","2018/05/04 17:58:53","新北市土城區城林路6巷80號","121.438616666667","24.9796966666667","6501300","土城區"
"236055","AAC-216","2018/05/04 17:58:41","新北市土城區城林路6巷80號","121.438496666667","24.979615","6501300","土城區"
"242034","AAC-296","2018/05/04 17:58:50","新北市新莊區景德路461號","121.443715","25.03312","6500500","新莊區"
"242058","986-R7","2018/05/04 17:58:38","新北市新莊區新北大道七段239號","121.412995","25.0296833333333","6500500","新莊區"
"242054","751-BX","2018/05/04 17:58:51","新北市新莊區民安西路411號","121.430563333333","25.0088133333333","6500500","新莊區"
"242060","705-TV","2018/05/04 17:58:37","新北市新莊區新樹路254-1號","121.432821666667","25.0161783333333","6500500","新莊區"
"242027","615-BX","2018/05/04 17:58:53","新北市新莊區思源路368號","121.460043333333","25.051575","6500500","新莊區"
"242025","613-BX","2018/05/04 17:58:36","新北市新莊區五工路58號","121.458813333333","25.0628266666667","6500500","新莊區"
"242029","612-BX","2018/05/04 17:58:36","新北市新莊區中平路57號","121.44462","25.0444483333333","6500500","新莊區"
"242041","566-BX","2018/05/04 17:58:49","新北市新莊區壽山路31號","121.420046666667","25.028685","6500500","新莊區"
"242046","497-BY","2018/05/04 17:58:52","新北市新莊區福營路195巷15號","121.431738333333","25.03012","6500500","新莊區"
"242039","442-UM","2018/05/04 17:58:52","新北市新莊區民安西路38巷38號","121.426198333333","25.0204783333333","6500500","新莊區"
"242050","441-UM","2018/05/04 17:58:46","新北市新莊區西盛街153巷6號","121.428621666667","25.0178966666667","6500500","新莊區"
"242056","440-UM","2018/05/04 17:58:41","新北市新莊區豐年街124巷18號","121.445508333333","25.02984","6500500","新莊區"
"242007","413-TV","2018/05/04 17:58:41","新北市新莊區自信街42號","121.454636666667","25.0482466666667","6500500","新莊區"
"242044","400-BY","2018/05/04 17:58:43","新北市新莊區新北大道七段339號","121.41289","25.027615","6500500","新莊區"
"242023","362-BY","2018/05/04 17:58:37","新北市新莊區福壽街74號","121.458253333333","25.0493333333333","6500500","新莊區"
"242009","132-UY","2018/05/04 17:58:45","新北市新莊區中原路240號","121.452758333333","25.0545016666667","6500500","新莊區"
"242032","135-UY","2018/05/04 17:58:45","新北市新莊區新泰路306號","121.445421666667","25.041035","6500500","新莊區"
"242048","172-VK","2018/05/04 17:58:44","新北市新莊區萬安街53號","121.42154","25.024455","6500500","新莊區"
"242011","173-VK","2018/05/04 17:58:47","新北市新莊區中港路中慶巷27弄1號","121.450091666667","25.0534933333333","6500500","新莊區"
"242017","175-VK","2018/05/04 17:58:42","新北市新莊區中和街60巷31號","121.449266666667","25.0449083333333","6500500","新莊區"
"242005","176-VK","2018/05/04 17:58:40","新北市新莊區自由街4號","121.455813333333","25.0479833333333","6500500","新莊區"
"242015","346-TH","2018/05/04 17:58:51","新北市新莊區中平路128號","121.444846666667","25.046615","6500500","新莊區"
"242021","347-TH","2018/05/04 17:58:54","新北市新莊區中華路一段3號","121.451916666667","25.0369066666667","6500500","新莊區"
"242037","349-TH","2018/05/04 17:58:51","新北市新莊區中正路695-1號","121.425908333333","25.0295716666667","6500500","新莊區"
"242019","350-TH","2018/05/04 17:58:55","新北市新莊區明中街49巷15號","121.456756666667","25.0390066666667","6500500","新莊區"
"242013","351-TH","2018/05/04 17:58:37","新北市新莊區幸福路825號","121.445115","25.0488983333333","6500500","新莊區"
"238015","755-BX","2018/05/04 17:58:46","新北市樹林區文德街2巷17號","121.419731666667","24.9917466666667","6500700","樹林區"
"238019","599-UM","2018/05/04 17:58:45","新北市樹林區國凱街156號","121.42422","24.9807666666667","6500700","樹林區"
"238018","571-TV","2018/05/04 17:58:48","新北市新莊區新崑路59號","121.430963333333","25.0000183333333","6500700","樹林區"
"238022","KEA-2213","2018/05/04 17:58:50","新北市樹林區太順街47-1號","121.417978333333","24.9791983333333","6500700","樹林區"
"238021","KEA-2539","2018/05/04 17:58:51","新北市樹林區柑園街一段33巷2號","121.40378","24.95987","6500700","樹林區"
"238025","303-VK","2018/05/04 17:58:39","新北市樹林區俊興街208號","121.417713333333","25.0145866666667","6500700","樹林區"
"238017","283-BY","2018/05/04 17:58:37","新北市樹林區中正路745號","121.41103","25.01473","6500700","樹林區"
"238014","282-BY","2018/05/04 17:58:33","新北市樹林區中正路45巷5號","121.426793333333","24.9993083333333","6500700","樹林區"
"238020","268-VK","2018/05/04 17:58:34","新北市樹林區三俊街199巷35-3號","121.420923333333","25.0181566666667","6500700","樹林區"
"238026","172-UY","2018/05/04 17:58:53","新北市樹林區中洲街20巷1弄27號","121.398031666667","24.97176","6500700","樹林區"
"238016","169-UY","2018/05/04 17:58:47","新北市樹林區啟智街151巷2號","121.416731666667","24.9880383333333","6500700","樹林區"
"239007","AAC-297","2018/05/04 17:33:07","新北市鶯歌區中山路170號","121.3489","24.9570416666667","6500800","鶯歌區"
"239006","891-R6","2018/05/04 17:58:48","新北市鶯歌區鶯桃路455巷6弄5號","121.331643333333","24.9644833333333","6500800","鶯歌區"
"239008","527-UM","2018/05/04 17:58:40","新北市鶯歌區朝陽街26巷2號","121.336876666667","24.977195","6500800","鶯歌區"
"239005","526-UM","2018/05/04 17:58:43","新北市鶯歌區鶯桃路658巷105號","121.331033333333","24.972575","6500800","鶯歌區"
"239001","417-VK","2018/05/04 17:58:39","新北市鶯歌區中正三路149號","121.336838333333","24.9401316666667","6500800","鶯歌區"
"239003","360-BY","2018/05/04 17:58:32","新北市鶯歌區鶯桃路285巷2-5號","121.334325","24.9591183333333","6500800","鶯歌區"
"239002","359-BY","2018/05/04 17:58:48","新北市鶯歌區育才街27巷1號","121.349115","24.9549683333333","6500800","鶯歌區"
"239004","193-VK","2018/05/04 17:58:33","新北市鶯歌區尖山路137巷25弄1號","121.347665","24.94762","6500800","鶯歌區"
"221008","489-VK","2018/05/04 17:58:45","新北市汐止區明峰街11號","121.63518","25.0713483333333","6501100","汐止區"
"221036","130-UY","2018/05/04 17:58:52","新北市汐止區大同路三段62巷1號","121.667588333333","25.07704","6501100","汐止區"
"221015","131-UY","2018/05/04 17:58:46","新北市汐止區長江街333號","121.666755","25.08177","6501100","汐止區"
"221010","269-BY","2018/05/04 17:58:43","新北市汐止區汐萬路二段245巷9號","121.645556666667","25.087545","6501100","汐止區"
"221012","278-VK","2018/05/04 17:58:37","新北市汐止區長興街二段50巷1號","121.674133333333","25.0816833333333","6501100","汐止區"
"221032","280-BY","2018/05/04 17:58:46","新北市汐止區民權街一段16號","121.621256666667","25.0535766666667","6501100","汐止區"
"221027","281-BY","2018/05/04 17:58:45","新北市汐止區大同路二段374號","121.657805","25.0671316666667","6501100","汐止區"
"221029","298-VK","2018/05/04 17:58:38","新北市汐止區樟樹二路329號","121.641421666667","25.0704316666667","6501100","汐止區"
"221021","299-VK","2018/05/04 17:58:46","新北市汐止區新興路18號","121.656328333333","25.0645933333333","6501100","汐止區"
"221031","353-TW","2018/05/04 17:58:44","新北市汐止區中興路168-1號","121.631885","25.0654783333333","6501100","汐止區"
"221035","622-UM","2018/05/04 17:58:51","新北市汐止區汐萬路一段115巷50號","121.652943333333","25.07034","6501100","汐止區"
"221025","623-UM","2018/05/04 17:58:51","新北市汐止區仁愛路13號","121.659146666667","25.0639733333333","6501100","汐止區"
"221038","646-BX","2018/05/04 17:58:38","新北市汐止區連興街122號","121.653706666667","25.0621","6501100","汐止區"
"221033","647-BX","2018/05/04 17:58:37","新北市汐止區合順街37號","121.620658333333","25.0431933333333","6501100","汐止區"
"221002","707-TV","2018/05/04 17:58:44","新北市汐止區工建路161-5號","121.637268333333","25.0630416666667","6501100","汐止區"
"221018","753-BX","2018/05/04 17:58:36","新北市汐止區大同路二段382號","121.658111666667","25.0671933333333","6501100","汐止區"
"242002","KEA-2550","2018/05/04 17:58:50","新北市新莊區大觀街42巷16號","121.454525","25.0361783333333","6500500","新莊區"
