"lineid","car","time","location","longitude","latitude","cityid","cityname"
"234007","207-UY","2018/05/04 18:18:41","新北市永和區環河西路一段13號","121.514603333333","25.0181616666667","6500400","永和區"
"234026","9371-KE","2018/05/04 18:18:43","新北市永和區豫溪街28巷18號","121.51513","25.0092716666667","6500400","永和區"
"249005","172-UM","2018/05/04 18:18:41","新北市八里區荖阡坑路15號","121.401271666667","25.140055","6502300","八里區"
"249001","173-UM","2018/05/04 18:18:47","新北市八里區龍米路一段129號","121.452065","25.126645","6502300","八里區"
"249004","303-UY","2018/05/04 18:18:51","新北市八里區忠孝路120號","121.425576666667","25.1604683333333","6502300","八里區"
"249002","305-UY","2018/05/04 18:17:28","新北市八里區龍形五街7號","121.450493333333","25.133715","6502300","八里區"
"249003","593-UM","2018/05/04 18:18:45","新北市八里區挖子尾街16號","121.415393333333","25.1644033333333","6502300","八里區"
"248016","026-BX","2018/05/04 18:18:53","新北市五股區成泰路三段477巷18號","121.449888333333","25.0988866666667","6501500","五股區"
"248006","077-UY","2018/05/04 18:18:32","新北市五股區中興路一段181號","121.464313333333","25.07387","6501500","五股區"
"248008","095-VK","2018/05/04 18:18:53","新北市五股區更洲路32巷8弄14號","121.459226666667","25.07966","6501500","五股區"
"248018","225-UY","2018/05/04 18:18:50","新北市五股區御史路205-1號","121.431425","25.1004","6501500","五股區"
"248012","247-BX","2018/05/04 18:18:38","新北市五股區御史路1巷101弄1號","121.441055","25.09081","6501500","五股區"
"248014","261-SL","2018/05/04 18:18:53","新北市五股區自強路19巷5-1號","121.434601666667","25.0737866666667","6501500","五股區"
"248010","272-BY","2018/05/04 18:18:42","新北市五股區成泰路一段187號","121.434958333333","25.0764766666667","6501500","五股區"
"248004","677-BX","2018/05/04 18:18:54","新北市五股區成泰路二段101號","121.438235","25.084255","6501500","五股區"
"248002","678-BX","2018/05/04 18:18:46","新北市五股區西雲路50號","121.443588333333","25.0913183333333","6501500","五股區"
"244013","069-UM","2018/05/04 18:18:40","新北市林口區中山路144號","121.391536666667","25.07881","6501700","林口區"
"244007","080-UY","2018/05/04 18:18:52","新北市林口區竹林路548號","121.38737","25.0843383333333","6501700","林口區"
"244019","403-UM","2018/05/04 18:18:51","新北市林口區麗園路62-1號","121.373055","25.0693316666667","6501700","林口區"
"244023","483-VK","2018/05/04 18:18:33","新北市林口區仁愛路二段50號","121.384881666667","25.0758333333333","6501700","林口區"
"244017","485-VK","2018/05/04 18:18:47","新北市林口區八德路48巷76號","121.367245","25.0674083333333","6501700","林口區"
"244009","656-BX","2018/05/04 18:18:36","新北市林口區文林二街12號","121.376953333333","25.0890883333333","6501700","林口區"
"244011","657-BX","2018/05/04 18:18:44","新北市林口區中正路99號","121.394215","25.0772","6501700","林口區"
"244025","837-TS","2018/05/04 18:18:48","新北市林口區南勢四街191號","121.355508333333","25.0712333333333","6501700","林口區"
"244021","838-TS","2018/05/04 18:18:46","新北市林口區自強一街11號","121.397953333333","25.0785833333333","6501700","林口區"
"243013","AAD-798","2018/05/04 18:18:37","新北市泰山區南林路103號","121.415126666667","25.0432333333333","6501600","泰山區"
"222003","436-BY","2018/05/04 18:18:51","新北市深坑區旺耽路67號","121.626196666667","25.0029083333333","6501800","深坑區"
"222002","659-BX","2018/05/04 18:18:50","新北市深坑區雲鄉路59號","121.621371666667","24.9990816666667","6501800","深坑區"
"231059","046-UY","2018/05/04 18:18:45","新北市新店區安華路28-1號","121.519773333333","24.961105","6500600","新店區"
"231040","047-UY","2018/05/04 18:18:39","新北市新店區安華路28-1號","121.51925","24.960885","6500600","新店區"
"231044","106-UY","2018/05/04 18:18:47","新北市新店區安華路28-1號","121.519875","24.960885","6500600","新店區"
"231046","107-UY","2018/05/04 18:18:35","新北市新店區直潭七街60號","121.532235","24.9398883333333","6500600","新店區"
"231053","108-UY","2018/05/04 18:18:36","新北市新店區安康路一段102號","121.527406666667","24.96239","6500600","新店區"
"231048","187-VK","2018/05/04 18:18:52","新北市新店區安華路28-1號","121.51963","24.9611733333333","6500600","新店區"
"231054","KEA-2219","2018/05/04 18:18:48","新北市新店區安華路28-1號","121.52011","24.961125","6500600","新店區"
"231057","256-BX","2018/05/04 18:18:48","新北市新店區安華路28-1號","121.519805","24.9611266666667","6500600","新店區"
"231042","268-BY","2018/05/04 18:18:46","新北市新店區安華路28-1號","121.519358333333","24.9605533333333","6500600","新店區"
"231051","278-BY","2018/05/04 18:18:51","新北市新店區安華路28-1號","121.519823333333","24.9613733333333","6500600","新店區"
"231050","AAD-862","2018/05/04 18:18:42","新北市新店區安華路15-2號","121.520335","24.9613933333333","6500600","新店區"
"231058","3713-VJ","2018/05/04 18:18:39","新北市新店區安康路一段323-3號","121.521046666667","24.9638433333333","6500600","新店區"
"231066","4716-K9","2018/05/04 18:18:36","新北市新店區安華路28-1號","121.519416666667","24.961205","6500600","新店區"
"231056","4715-K9","2018/05/04 18:18:48","新北市新店區環河路106號","121.536986666667","24.9641183333333","6500600","新店區"
"231067","4772-VM","2018/05/04 18:18:45","新北市新店區安華路28-1號","121.519286666667","24.9606683333333","6500600","新店區"
"231065","512-UM","2018/05/04 18:18:43","新北市新店區安華路28-1號","121.519288333333","24.96123","6500600","新店區"
"231049","513-UM","2018/05/04 18:18:32","新北市新店區安華路28-1號","121.519753333333","24.9611583333333","6500600","新店區"
"231063","616-UM","2018/05/04 18:18:47","新北市新店區安華路28-1號","121.519535","24.9605583333333","6500600","新店區"
"231045","617-UM","2018/05/04 18:11:23","新北市新店區安華路28-1號","121.519476666667","24.9609783333333","6500600","新店區"
"231061","619-UM","2018/05/04 18:18:47","新北市新店區安華路28-1號","121.519438333333","24.9607616666667","6500600","新店區"
"231064","719-UM","2018/05/04 18:18:56","新北市新店區安華路28-1號","121.519555","24.9612416666667","6500600","新店區"
"231062","720-UM","2018/05/04 18:18:44","新北市新店區安華路28-1號","121.519381666667","24.9612166666667","6500600","新店區"
"231060","897-TW","2018/05/04 18:18:34","新北市新店區安華路28-1號","121.519531666667","24.9609316666667","6500600","新店區"
"231043","899-TW","2018/05/04 18:18:30","新北市新店區安華路28-1號","121.519213333333","24.9608883333333","6500600","新店區"
"231055","AKT-0513","2018/05/04 18:18:49","新北市新店區秀山路20號","121.532518333333","24.9604316666667","6500600","新店區"
"235064","005-UY","2018/05/04 18:18:36","新北市中和區中興街118巷8號","121.5","24.993405","6500300","中和區"
"235063","006-UY","2018/05/04 18:18:33","新北市中和區中正路561號","121.487011666667","24.99437","6500300","中和區"
"235056","096-UM","2018/05/04 18:18:52","新北市中和區員山路540號","121.478658333333","25.0101","6500300","中和區"
"235039","097-UM","2018/05/04 18:18:48","新北市中和區中正路209號","121.497308333333","24.993655","6500300","中和區"
"235065","098-UM","2018/05/04 18:18:38","新北市中和區中山路二段2巷87號","121.500838333333","25.0076883333333","6500300","中和區"
"235040","150-BY","2018/05/04 18:14:04","新北市中和區員山路36巷16-2號","121.485173333333","24.9918133333333","6500300","中和區"
"235058","151-BY","2018/05/04 18:18:44","新北市中和區圓通路367巷21-1號","121.492571666667","24.98644","6500300","中和區"
"235055","183-VK","2018/05/04 18:18:42","新北市中和區中正路637巷60弄61號","121.485391666667","24.99255","6500300","中和區"
"235038","185-VK","2018/05/04 18:18:53","新北市中和區大智街106巷2號","121.523976666667","24.9925616666667","6500300","中和區"
"235049","186-VK","2018/05/04 18:18:37","新北市中和區中正路571巷2弄7號","121.486326666667","24.9934966666667","6500300","中和區"
"235067","255-BX","2018/05/04 18:18:47","新北市中和區和城路一段271巷1號","121.485771666667","24.991795","6500300","中和區"
"235043","352-BY","2018/05/04 18:18:40","新北市中和區中正路192號","121.497686666667","24.993745","6500300","中和區"
"235061","378-QA","2018/05/04 18:18:39","新北市中和區國光街215巷24弄21號","121.466978333333","25.0000266666667","6500300","中和區"
"235050","4979-A6","2018/05/04 18:18:36","新北市中和區捷運路57號","121.509243333333","24.9895866666667","6500300","中和區"
"235069","4980-A6","2018/05/04 18:18:44","新北市中和區圓通路128號","121.498613333333","24.9958316666667","6500300","中和區"
"235042","551-UM","2018/05/04 18:18:49","新北市中和區景平路159巷31號","121.513","24.9911833333333","6500300","中和區"
"235070","558-UM","2018/05/04 18:08:41","新北市中和區中正路408號","121.49227","24.99394","6500300","中和區"
"235045","565-BX","2018/05/04 18:18:47","新北市中和區景安路200巷4弄1號","121.503531666667","24.9916016666667","6500300","中和區"
"235054","640-BX","2018/05/04 18:18:44","新北市土城區延壽路46號","121.470481666667","24.9918533333333","6500300","中和區"
"235047","732-UM","2018/05/04 18:18:53","新北市中和區南山路234號","121.506601666667","24.9899216666667","6500300","中和區"
"235046","733-UM","2018/05/04 18:18:54","新北市中和區員山路36巷13號","121.484008333333","24.99096","6500300","中和區"
"235062","800-TS","2018/05/04 18:12:52","新北市中和區中正路748號","121.486066666667","24.9986433333333","6500300","中和區"
"235057","801-TS","2018/05/04 18:18:37","新北市中和區員山路209-2號","121.481196666667","24.9977333333333","6500300","中和區"
"235041","802-TS","2018/05/04 18:18:42","新北市中和區錦和路350-1號","121.490411666667","24.9935933333333","6500300","中和區"
"235052","805-TS","2018/05/04 18:18:48","新北市中和區捷運路58-2號","121.507531666667","24.9906316666667","6500300","中和區"
"235048","896-TW","2018/05/04 18:18:56","新北市中和區中正路637巷52弄1號","121.485393333333","24.9934883333333","6500300","中和區"
"235053","900-TW","2018/05/04 18:18:51","新北市中和區員山路36巷16-3號","121.484933333333","24.9919183333333","6500300","中和區"
"235066","911-UM","2018/05/04 18:18:50","新北市中和區南山路75號","121.502103333333","24.9981733333333","6500300","中和區"
"235051","157-BY","2018/05/04 18:18:53","新北市中和區捷運路8-2號","121.509616666667","24.989535","6500300","中和區"
"235037","AAC-213","2018/05/04 18:18:41","新北市中和區景德街61號","121.517213333333","24.9913866666667","6500300","中和區"
"220065","072-UY","2018/05/04 18:18:44","新北市板橋區華東街1-9號","121.448146666667","24.9949566666667","6500100","板橋區"
"226004","312-R5","2018/05/04 18:18:53","新北市平溪區薯榔里一坑路67號","121.712965","25.02252","6502400","平溪區"
"228002","663-BX","2018/05/04 18:18:49","新北市貢寮區福連里福興街39-3號","121.993778333333","25.0133466666667","6502600","貢寮區"
"228001","670-TC","2018/05/04 18:18:35","新北市貢寮區真理里新港街26巷55弄2-1號","121.927386666667","25.0528866666667","6502600","貢寮區"
"228003","828-UM","2018/05/04 18:18:43","新北市貢寮區真理里美艷山街63號","121.920731666667","25.0720833333333","6502600","貢寮區"
"224006","676-BX","2018/05/04 18:18:47","新北市瑞芳區民權街3-2號","121.808175","25.1075216666667","6501200","瑞芳區"
"224002","639-TC","2018/05/04 18:18:37","新北市瑞芳區三爪子坑路149巷4號","121.81085","25.1064116666667","6501200","瑞芳區"
"224008","285-BY","2018/05/04 18:18:41","新北市瑞芳區逢甲路87號","121.807525","25.1096866666667","6501200","瑞芳區"
"224007","275-VK","2018/05/04 18:18:52","新北市瑞芳區大埔路61號","121.76431","25.1018966666667","6501200","瑞芳區"
"224009","273-VK","2018/05/04 18:18:50","新北市瑞芳區祈堂路217號","121.854486666667","25.1090833333333","6501200","瑞芳區"
"224005","271-BY","2018/05/04 18:18:39","新北市瑞芳區建基新村21號","121.811778333333","25.1308866666667","6501200","瑞芳區"
"227003","400-TW","2018/05/04 18:18:37","新北市雙溪區共和里中山路2號","121.863776666667","25.0338","6502500","雙溪區"
"227011","030-BX","2018/05/04 18:18:44","新北市雙溪區牡丹里牡丹73號","121.851678333333","25.0594116666667","6502500","雙溪區"
"253005","032-BX","2018/05/04 18:18:42","新北市石門區中央路3-1號","121.565961666667","25.29148","6502200","石門區"
"253006","295-VK","2018/05/04 18:18:45","新北市石門區老梅路78號","121.547005","25.28928","6502200","石門區"
"222001","KEA-2212","2018/05/04 18:18:48","新北市深坑區北深路二段51號","121.618996666667","25.0038816666667","6501800","深坑區"
"208002","KEA-2872","2018/05/04 18:18:55","新北市金山區清泉里清水路60巷20號","121.635181666667","25.2335183333333","6502700","金山區"
"208003","665-BX","2018/05/04 18:18:37","新北市金山區中山路16號","121.641633333333","25.2178633333333","6502700","金山區"
"208001","761-BX","2018/05/04 18:18:39","新北市金山區環金路19號","121.640833333333","25.2174683333333","6502700","金山區"
"251004","009-UM","2018/05/04 18:18:46","新北市淡水區民族路33號","121.462238333333","25.1358316666667","6501000","淡水區"
"251005","010-UM","2018/05/04 18:18:37","新北市淡水區水源街一段122巷37號","121.447096666667","25.17041","6501000","淡水區"
"251001","011-UM","2018/05/04 18:18:41","新北市淡水區自強路110-8號","121.461566666667","25.1313466666667","6501000","淡水區"
"251002","012-UM","2018/05/04 18:18:41","新北市淡水區中正東路一段57號","121.452538333333","25.1625116666667","6501000","淡水區"
"251008","181-VK","2018/05/04 18:18:40","新北市淡水區水源街二段240號","121.461191666667","25.176325","6501000","淡水區"
"251010","413-VK","2018/05/04 18:18:37","新北市淡水區淡海路184巷1-2號","121.420491666667","25.1852266666667","6501000","淡水區"
"251012","441-VK","2018/05/04 18:18:45","新北市淡水區北新路二段77-5號","121.48049","25.1855","6501000","淡水區"
"251006","561-UM","2018/05/04 18:18:43","新北市淡水區新民街21號","121.439391666667","25.1755183333333","6501000","淡水區"
"251011","650-BX","2018/05/04 18:18:46","新北市淡水區坪頂路55號","121.458565","25.16256","6501000","淡水區"
"251003","766-UM","2018/05/04 18:18:40","新北市淡水區北新路180號","121.449365","25.1787783333333","6501000","淡水區"
"207003","550-UM","2018/05/04 18:18:40","新北市萬里區野柳里港東路23號","121.687301666667","25.2036516666667","6502800","萬里區"
"207004","225-TW","2018/05/04 18:18:42","新北市萬里區中幅里中福路125號","121.675691666667","25.1659033333333","6502800","萬里區"
"252002","178-VK","2018/05/04 18:18:36","新北市三芝區中山路二段35號","121.502815","25.2551883333333","6502100","三芝區"
"252003","249-BX","2018/05/04 18:18:43","新北市三芝區錫板里南勢崗2號","121.48139","25.2636116666667","6502100","三芝區"
"252001","292-VK","2018/05/04 18:18:36","新北市三芝區中興街二段2號","121.498346666667","25.2567016666667","6502100","三芝區"
"237007","153-BY","2018/05/04 18:18:48","新北市三峽區中正路三段70巷20號","121.355848333333","24.90467","6500900","三峽區"
"237011","572-TV","2018/05/04 18:18:38","新北市三峽區溪東路352號","121.411921666667","24.92906","6500900","三峽區"
"237009","210-TH","2018/05/04 18:18:41","新北市三峽區中山路61號","121.367565","24.9347616666667","6500900","三峽區"
"237013","252-BX","2018/05/04 18:18:54","新北市三峽區永安街73號","121.375686666667","24.9293716666667","6500900","三峽區"
"237012","275-BY","2018/05/04 18:18:49","新北市三峽區民生街1巷3-3號","121.377045","24.936515","6500900","三峽區"
"237008","302-VK","2018/05/04 18:18:37","新北市三峽區白雞68-331號","121.391605","24.9096733333333","6500900","三峽區"
"237014","433-BY","2018/05/04 18:18:48","新北市三峽區復興路82號","121.373231666667","24.93747","6500900","三峽區"
"237006","5529-G3","2018/05/04 18:18:34","新北市三峽區溪東路238巷3號","121.408315","24.9315433333333","6500900","三峽區"
"237010","706-TV","2018/05/04 18:18:42","新北市三峽區復興路449號","121.362615","24.9385116666667","6500900","三峽區"
"237005","AKY-6261","2018/05/04 18:18:50","新北市三峽區忠孝街23號","121.370981666667","24.9341283333333","6500900","三峽區"
"236069","105-UM","2018/05/04 18:18:51","新北市土城區明德路一段101號","121.46558","24.9828216666667","6501300","土城區"
"236042","107-UM","2018/05/04 18:18:45","新北市土城區樂利街3巷18號","121.448618333333","24.98638","6501300","土城區"
"236079","166-UM","2018/05/04 18:18:49","新北市土城區永平街5號","121.427803333333","24.963095","6501300","土城區"
"236030","253-BX","2018/05/04 18:18:37","新北市土城區順風路45號","121.440293333333","24.9770916666667","6501300","土城區"
"236026","269-VK","2018/05/04 18:18:48","新北市土城區承天路18號","121.4395","24.9634","6501300","土城區"
"236014","270-VK","2018/05/04 18:18:42","新北市土城區青雲路39巷7號","121.460345","24.9873866666667","6501300","土城區"
"236039","271-VK","2018/05/04 18:18:55","新北市土城區青雲路451巷8弄1號","121.459661666667","24.9746183333333","6501300","土城區"
"236020","401-BY","2018/05/04 18:18:46","新北市土城區金城路二段28-6號","121.45068","24.9783533333333","6501300","土城區"
"236059","912-UM","2018/05/04 18:18:51","新北市土城區中央路四段307-3號","121.410851666667","24.95143","6501300","土城區"
"236048","913-UM","2018/05/04 18:18:46","新北市土城區明德路一段365-1號","121.453521666667","24.9790683333333","6501300","土城區"
"236063","915-UM","2018/05/04 18:18:33","新北市土城區金城路二段26號","121.450351666667","24.9781016666667","6501300","土城區"
"236055","AAC-216","2018/05/04 18:18:41","新北市土城區中華路二段92號","121.43815","24.9747583333333","6501300","土城區"
"242034","AAC-296","2018/05/04 18:18:50","新北市新莊區景德路207號","121.449391666667","25.0337416666667","6500500","新莊區"
"242058","986-R7","2018/05/04 18:18:40","桃園市龜山區萬壽路一段8號","121.409726666667","25.0205916666667","6500500","新莊區"
"242054","751-BX","2018/05/04 18:18:51","新北市新莊區民安西路366號","121.427558333333","25.0110183333333","6500500","新莊區"
"242060","705-TV","2018/05/04 18:18:37","新北市新莊區建國二路88號","121.43112","25.0266233333333","6500500","新莊區"
"242027","615-BX","2018/05/04 18:18:33","新北市新莊區幸福路823號","121.445241666667","25.0489366666667","6500500","新莊區"
"242025","613-BX","2018/05/04 18:18:36","新北市新莊區五工三路94巷1號","121.458213333333","25.065575","6500500","新莊區"
"242029","612-BX","2018/05/04 18:18:36","新北市新莊區幸福路914號","121.442153333333","25.048805","6500500","新莊區"
"242041","566-BX","2018/05/04 18:18:49","新北市新莊區天祥街71巷11號","121.415775","25.028965","6500500","新莊區"
"242046","497-BY","2018/05/04 18:18:45","新北市新莊區中正路829巷5號","121.420978333333","25.0277083333333","6500500","新莊區"
"242050","441-UM","2018/05/04 18:18:46","新北市新莊區新樹路206巷3號","121.433513333333","25.0203766666667","6500500","新莊區"
"242056","440-UM","2018/05/04 18:18:41","新北市新莊區豐年街53巷48號","121.447901666667","25.03179","6500500","新莊區"
"242007","413-TV","2018/05/04 18:18:41","新北市新莊區中華路二段13號","121.453763333333","25.045615","6500500","新莊區"
"242044","400-BY","2018/05/04 18:18:55","新北市新莊區新北大道七段301號","121.412143333333","25.0278233333333","6500500","新莊區"
"242009","132-UY","2018/05/04 18:18:45","新北市新莊區自重街2號","121.453373333333","25.0472883333333","6500500","新莊區"
"242032","135-UY","2018/05/04 18:18:45","新北市新莊區新泰路255巷69號","121.443396666667","25.0392966666667","6500500","新莊區"
"242048","172-VK","2018/05/04 18:18:44","新北市樹林區俊興街279號","121.418663333333","25.0182516666667","6500500","新莊區"
"242011","173-VK","2018/05/04 18:17:07","新北市新莊區中港路589號","121.45098","25.052145","6500500","新莊區"
"242021","347-TH","2018/05/04 18:18:31","新北市新莊區新興街29號","121.450566666667","25.0375566666667","6500500","新莊區"
"242019","350-TH","2018/05/04 18:18:35","新北市新莊區新泰路289巷49號","121.443408333333","25.04035","6500500","新莊區"
"238015","755-BX","2018/05/04 18:18:46","新北市樹林區文化街112巷55號","121.417815","24.9910866666667","6500700","樹林區"
"238019","599-UM","2018/05/04 18:18:42","新北市樹林區八德街119號","121.421548333333","24.97995","6500700","樹林區"
"238018","571-TV","2018/05/04 18:18:45","新北市樹林區保安街一段20巷7弄3號","121.427301666667","24.9936816666667","6500700","樹林區"
"238024","5061-A6","2018/05/04 18:18:50","新北市樹林區立仁街6號","121.422676666667","24.9887033333333","6500700","樹林區"
"238025","303-VK","2018/05/04 18:18:39","新北市樹林區保安街一段73號","121.422865","24.9950783333333","6500700","樹林區"
"238017","283-BY","2018/05/04 18:18:37","新北市樹林區保安街二段333巷3號","121.411521666667","25.0073516666667","6500700","樹林區"
"238014","282-BY","2018/05/04 18:18:53","新北市樹林區大安路111巷25號","121.423146666667","24.9975116666667","6500700","樹林區"
"238020","268-VK","2018/05/04 18:18:34","新北市樹林區三龍街43號","121.414425","25.018735","6500700","樹林區"
"238026","172-UY","2018/05/04 18:18:33","新北市樹林區佳園路一段43號","121.393148333333","24.9706116666667","6500700","樹林區"
"238016","169-UY","2018/05/04 18:18:47","新北市樹林區文化街27號","121.419201666667","24.98768","6500700","樹林區"
"239006","891-R6","2018/05/04 18:18:48","新北市鶯歌區德昌街140巷36號","121.332365","24.9619016666667","6500800","鶯歌區"
"239008","527-UM","2018/05/04 18:18:20","新北市鶯歌區國際一路14號","121.33618","24.9765433333333","6500800","鶯歌區"
"239005","526-UM","2018/05/04 18:18:43","新北市鶯歌區鶯桃路二段48號","121.325428333333","24.9727116666667","6500800","鶯歌區"
"239001","417-VK","2018/05/04 18:18:39","新北市鶯歌區國中街178號","121.338306666667","24.9391983333333","6500800","鶯歌區"
"239003","360-BY","2018/05/04 18:18:52","新北市鶯歌區福安街30號","121.33473","24.963945","6500800","鶯歌區"
"239002","359-BY","2018/05/04 18:18:48","新北市鶯歌區文化路124號","121.351836666667","24.9520166666667","6500800","鶯歌區"
"239004","193-VK","2018/05/04 18:18:53","新北市鶯歌區尖山路174巷1號","121.344873333333","24.9476833333333","6500800","鶯歌區"
"221008","489-VK","2018/05/04 18:18:55","新北市汐止區連峰街1巷2號","121.647128333333","25.07612","6501100","汐止區"
"221036","130-UY","2018/05/04 18:18:52","新北市汐止區長興街一段50號","121.670606666667","25.0792566666667","6501100","汐止區"
"221015","131-UY","2018/05/04 18:18:46","新北市汐止區鄉長路二段23巷8號","121.667328333333","25.0829183333333","6501100","汐止區"
"221010","269-BY","2018/05/04 18:18:56","新北市汐止區汐萬路二段321號","121.645113333333","25.0901366666667","6501100","汐止區"
"221012","278-VK","2018/05/04 18:18:37","新北市汐止區保長路35巷10號","121.672813333333","25.0796333333333","6501100","汐止區"
"221032","280-BY","2018/05/04 18:18:46","新北市汐止區橫科路2巷11號","121.616331666667","25.0506783333333","6501100","汐止區"
"221027","281-BY","2018/05/04 18:18:45","新北市汐止區和平街21號","121.662761666667","25.0707816666667","6501100","汐止區"
"221029","298-VK","2018/05/04 18:17:58","新北市汐止區樟樹一路276號","121.643106666667","25.06944","6501100","汐止區"
"221021","299-VK","2018/05/04 18:18:48","新北市汐止區連興街114號","121.653831666667","25.0629266666667","6501100","汐止區"
"221031","353-TW","2018/05/04 18:18:43","新北市汐止區大同路一段207號","121.633655","25.0572733333333","6501100","汐止區"
"221035","622-UM","2018/05/04 18:18:51","新北市汐止區大同路二段185號","121.652175","25.06443","6501100","汐止區"
"221025","623-UM","2018/05/04 18:18:51","新北市汐止區勤進路12巷37號","121.659125","25.06257","6501100","汐止區"
"221038","646-BX","2018/05/04 18:18:38","新北市汐止區仁愛路309號","121.664653333333","25.0673716666667","6501100","汐止區"
"221033","647-BX","2018/05/04 18:18:37","新北市汐止區宜興街59巷11號","121.621843333333","25.0426033333333","6501100","汐止區"
"221002","707-TV","2018/05/04 18:18:44","新北市汐止區福德一路201巷27號","121.63583","25.0647283333333","6501100","汐止區"
"221018","753-BX","2018/05/04 18:18:36","新北市汐止區茄苳路72巷2號","121.666863333333","25.0704833333333","6501100","汐止區"
"242002","KEA-2550","2018/05/04 18:18:50","新北市新莊區碧江街27-7號","121.452691666667","25.0333483333333","6500500","新莊區"
