"lineid","car","time","location","longitude","latitude","cityid","cityname"
"234046","148-BY","2018/05/04 18:38:49","新北市永和區永利路156號","121.522678333333","25.0026116666667","6500400","永和區"
"234007","207-UY","2018/05/04 18:38:41","新北市永和區保安路60號","121.51002","25.016665","6500400","永和區"
"234081","298-R6","2018/05/04 18:38:53","新北市永和區林森路71號","121.524156666667","25.0038366666667","6500400","永和區"
"234038","336-UY","2018/05/04 18:38:50","新北市永和區福和路1號","121.526496666667","25.0101383333333","6500400","永和區"
"234086","338-UY","2018/05/04 18:38:42","新北市永和區永貞路62號","121.520631666667","25.0055483333333","6500400","永和區"
"234017","745-BX","2018/05/04 18:38:51","新北市永和區福和路1號","121.526316666667","25.009605","6500400","永和區"
"234030","746-BX","2018/05/04 18:38:52","新北市永和區成功路一段20號","121.527011666667","25.0051083333333","6500400","永和區"
"234013","KEA-2591","2018/05/04 18:38:54","新北市永和區環河西路一段51巷2號","121.51391","25.0183916666667","6500400","永和區"
"234061","AAD-866","2018/05/04 18:38:39","新北市永和區環河東路二段92號","121.524543333333","25.0105566666667","6500400","永和區"
"234042","862-TW","2018/05/04 18:38:49","新北市永和區永和路一段118號","121.514101666667","25.007795","6500400","永和區"
"234026","9371-KE","2018/05/04 18:38:43","新北市永和區永貞路387號","121.50807","25.008795","6500400","永和區"
"234011","9373-KE","2018/05/04 18:38:52","新北市永和區文化路9巷22弄26號","121.514653333333","25.0146333333333","6500400","永和區"
"249005","172-UM","2018/05/04 18:38:41","新北市八里區中華路三段232號","121.388435","25.12448","6502300","八里區"
"249001","173-UM","2018/05/04 18:38:47","新北市八里區龍米路一段372號","121.451523333333","25.1315733333333","6502300","八里區"
"249002","305-UY","2018/05/04 18:38:47","新北市八里區龍形一街23號","121.44977","25.130125","6502300","八里區"
"249003","593-UM","2018/05/04 18:20:18","新北市八里區博物館路10-1號","121.415026666667","25.164035","6502300","八里區"
"248016","026-BX","2018/05/04 18:38:53","新北市五股區凌雲路一段149巷42號","121.448615","25.1009316666667","6501500","五股區"
"248008","095-VK","2018/05/04 18:38:33","新北市五股區中興路一段150巷21號","121.464738333333","25.0747033333333","6501500","五股區"
"248018","225-UY","2018/05/04 18:38:50","新北市五股區民義路二段66-3號","121.406158333333","25.1084716666667","6501500","五股區"
"248012","247-BX","2018/05/04 18:38:38","新北市五股區御史路55號","121.441878333333","25.09357","6501500","五股區"
"248014","261-SL","2018/05/04 18:38:53","新北市五股區蓬萊路1-3號","121.434523333333","25.0796633333333","6501500","五股區"
"248010","272-BY","2018/05/04 18:38:49","新北市五股區自強路91號","121.432541666667","25.0716933333333","6501500","五股區"
"248004","677-BX","2018/05/04 18:38:54","新北市五股區民義路一段206號","121.430351666667","25.0890666666667","6501500","五股區"
"248002","678-BX","2018/05/04 18:38:41","新北市五股區西雲路203巷2號","121.448451666667","25.0966066666667","6501500","五股區"
"234023","9380-KE","2018/05/04 18:38:38","新北市永和區福和路1號","121.525583333333","25.009425","6500400","永和區"
"234077","969-R7","2018/05/04 18:38:37","新北市永和區中正路393號","121.517293333333","25.00406","6500400","永和區"
"234074","AAC-211","2018/05/04 18:38:41","新北市永和區福和路1號","121.526618333333","25.0098616666667","6500400","永和區"
"234067","AAC-212","2018/05/04 18:38:43","新北市永和區福和路91號","121.522186666667","25.0077733333333","6500400","永和區"
"234003","AAC-295","2018/05/04 18:38:52","新北市永和區福和路1號","121.52636","25.01022","6500400","永和區"
"244013","069-UM","2018/05/04 18:38:40","新北市林口區中正路494號","121.382331666667","25.0772833333333","6501700","林口區"
"244007","080-UY","2018/05/04 18:38:33","新北市林口區瑞樹坑22號","121.381221666667","25.10923","6501700","林口區"
"244019","403-UM","2018/05/04 18:38:51","新北市林口區忠孝路604巷18號","121.37653","25.0675666666667","6501700","林口區"
"244023","483-VK","2018/05/04 18:38:33","新北市林口區文化二路二段72號","121.378145","25.08041","6501700","林口區"
"244017","485-VK","2018/05/04 18:38:47","新北市林口區文化二路一段166號","121.36869","25.0719283333333","6501700","林口區"
"244009","656-BX","2018/05/04 18:38:36","新北市林口區竹林路320巷6-1號","121.391161666667","25.0822616666667","6501700","林口區"
"244011","657-BX","2018/05/04 18:38:44","新北市林口區仁愛路一段272巷21號","121.392071666667","25.0767316666667","6501700","林口區"
"244025","837-TS","2018/05/04 18:38:48","新北市林口區南勢六街248號","121.355936666667","25.0748816666667","6501700","林口區"
"244021","838-TS","2018/05/04 18:38:46","新北市林口區工六路78號","121.400388333333","25.0772466666667","6501700","林口區"
"243013","AAD-798","2018/05/04 18:28:11","新北市泰山區明志路三段206巷3號","121.423288333333","25.0379533333333","6501600","泰山區"
"243012","646-TV","2018/05/04 18:38:39","新北市泰山區泰林路二段286號","121.431253333333","25.0625433333333","6501600","泰山區"
"222003","436-BY","2018/05/04 18:38:31","新北市深坑區翠谷街37巷1號","121.626456666667","25.00946","6501800","深坑區"
"222002","659-BX","2018/05/04 18:38:50","新北市深坑區文山路一段62巷10號","121.621823333333","25.000915","6501800","深坑區"
"231059","046-UY","2018/05/04 18:38:45","新北市新店區安華路28-1號","121.519551666667","24.96087","6500600","新店區"
"231040","047-UY","2018/05/04 18:38:39","新北市新店區安華路28-1號","121.519315","24.96086","6500600","新店區"
"231044","106-UY","2018/05/04 18:38:47","新北市新店區環河路29巷1號","121.53693","24.9613316666667","6500600","新店區"
"231046","107-UY","2018/05/04 18:38:54","新北市新店區直潭二街1號","121.535521666667","24.9431983333333","6500600","新店區"
"231053","108-UY","2018/05/04 18:38:37","新北市新店區永興路19號","121.544045","24.9392183333333","6500600","新店區"
"231048","187-VK","2018/05/04 18:38:52","新北市新店區安華路28-1號","121.519556666667","24.9611266666667","6500600","新店區"
"231054","KEA-2219","2018/05/04 18:38:48","新北市新店區安華路28-1號","121.51999","24.9612483333333","6500600","新店區"
"231057","256-BX","2018/05/04 18:38:48","新北市新店區新烏路一段58-2號","121.546025","24.9466733333333","6500600","新店區"
"231042","268-BY","2018/05/04 18:38:46","新北市新店區安康路一段50-1號","121.529768333333","24.961285","6500600","新店區"
"231051","278-BY","2018/05/04 18:38:50","新北市新店區環河路29巷1號","121.537088333333","24.9614016666667","6500600","新店區"
"231050","AAD-862","2018/05/04 18:38:42","新北市新店區安華路28-1號","121.519631666667","24.9612683333333","6500600","新店區"
"231058","3713-VJ","2018/05/04 18:38:39","新北市新店區新店路21號","121.540235","24.952775","6500600","新店區"
"231066","4716-K9","2018/05/04 18:38:56","新北市新店區安華路28-1號","121.519433333333","24.9612033333333","6500600","新店區"
"231056","4715-K9","2018/05/04 18:38:48","新北市新店區大豐路86號","121.53807","24.979035","6500600","新店區"
"231067","4772-VM","2018/05/04 18:38:45","新北市新店區安康路一段355-10號","121.520863333333","24.963865","6500600","新店區"
"231065","512-UM","2018/05/04 18:38:43","新北市新店區安華路28-1號","121.519305","24.961205","6500600","新店區"
"231049","513-UM","2018/05/04 18:38:52","新北市新店區安華路28-1號","121.519683333333","24.9611283333333","6500600","新店區"
"231063","616-UM","2018/05/04 18:38:47","新北市新店區安華路28-1號","121.519488333333","24.9605633333333","6500600","新店區"
"231045","617-UM","2018/05/04 18:38:36","新北市新店區安華路28-1號","121.519466666667","24.96094","6500600","新店區"
"231061","619-UM","2018/05/04 18:38:47","新北市新店區安華路28-1號","121.51951","24.960855","6500600","新店區"
"231064","719-UM","2018/05/04 18:38:56","新北市新店區安華路28-1號","121.519461666667","24.9612883333333","6500600","新店區"
"231062","720-UM","2018/05/04 18:38:44","新北市新店區安華路28-1號","121.519243333333","24.9613333333333","6500600","新店區"
"231060","897-TW","2018/05/04 18:38:34","新北市新店區安華路28-1號","121.519665","24.9609316666667","6500600","新店區"
"231043","899-TW","2018/05/04 18:38:50","新北市新店區安華路28-1號","121.519336666667","24.9608533333333","6500600","新店區"
"231055","AKT-0513","2018/05/04 18:38:49","新北市新店區中華路44號","121.539836666667","24.9682583333333","6500600","新店區"
"235064","005-UY","2018/05/04 18:38:56","新北市中和區連城路126號","121.496026666667","24.9992533333333","6500300","中和區"
"235063","006-UY","2018/05/04 18:38:53","新北市中和區連城路347巷4弄25號","121.487226666667","24.9954966666667","6500300","中和區"
"235056","096-UM","2018/05/04 18:38:52","新北市板橋區三民路二段220巷19號","121.477981666667","25.011585","6500300","中和區"
"235039","097-UM","2018/05/04 18:38:48","新北市中和區安樂路243巷2號","121.513866666667","24.9996716666667","6500300","中和區"
"235065","098-UM","2018/05/04 18:38:38","新北市中和區莊敬路49巷27號","121.501495","25.006095","6500300","中和區"
"235040","150-BY","2018/05/04 18:14:04","新北市中和區員山路36巷16-2號","121.485173333333","24.9918133333333","6500300","中和區"
"235058","151-BY","2018/05/04 18:38:44","新北市中和區圓通路435巷1號","121.486213333333","24.9875633333333","6500300","中和區"
"235055","183-VK","2018/05/04 18:38:43","新北市中和區民生街43號","121.47002","25.0053216666667","6500300","中和區"
"235038","185-VK","2018/05/04 18:38:33","新北市中和區自強路60號","121.519848333333","24.99448","6500300","中和區"
"235049","186-VK","2018/05/04 18:38:37","新北市中和區景平路480號","121.505221666667","24.9937066666667","6500300","中和區"
"235067","255-BX","2018/05/04 18:38:46","新北市中和區新生街10號","121.483153333333","25.004515","6500300","中和區"
"235044","293-VK","2018/05/04 18:38:29","新北市中和區復興路276號","121.502716666667","24.99066","6500300","中和區"
"235043","352-BY","2018/05/04 18:38:40","新北市中和區景平路125巷2弄1號","121.514955","24.991785","6500300","中和區"
"235068","377-QA","2018/05/04 18:38:51","新北市中和區圓通路271巷1號","121.495805","24.992985","6500300","中和區"
"235061","378-QA","2018/05/04 18:38:39","新北市中和區民享街90巷19號","121.474036666667","25.0001483333333","6500300","中和區"
"235050","4979-A6","2018/05/04 18:38:36","新北市中和區四維街40號","121.512341666667","24.9870533333333","6500300","中和區"
"235069","4980-A6","2018/05/04 18:38:43","新北市中和區連城路99巷13號","121.497078333333","24.99908","6500300","中和區"
"235042","551-UM","2018/05/04 18:38:49","新北市中和區成功路97巷18弄13號","121.526965","24.9912566666667","6500300","中和區"
"235045","565-BX","2018/05/04 18:38:47","新北市中和區南山路236巷51號","121.50498","24.98828","6500300","中和區"
"235054","640-BX","2018/05/04 18:38:44","新北市中和區民享街86巷2號","121.474413333333","25.0010083333333","6500300","中和區"
"235060","647-TV","2018/05/04 18:38:48","新北市中和區員山路361號","121.481243333333","25.0020266666667","6500300","中和區"
"235047","732-UM","2018/05/04 18:38:52","新北市中和區南山路320巷10弄2號","121.507013333333","24.9864766666667","6500300","中和區"
"235046","733-UM","2018/05/04 18:38:54","新北市中和區興南路一段86號","121.509768333333","24.98937","6500300","中和區"
"235062","800-TS","2018/05/04 18:37:32","新北市中和區景平路989巷6號","121.495093333333","25.00518","6500300","中和區"
"235057","801-TS","2018/05/04 18:38:37","新北市中和區員山路327巷58號","121.480091666667","25.00191","6500300","中和區"
"235041","802-TS","2018/05/04 18:38:52","新北市中和區宜安路170號","121.508881666667","24.99908","6500300","中和區"
"235052","805-TS","2018/05/04 18:38:48","新北市中和區興南路三段52巷2-5號","121.494568333333","24.9758733333333","6500300","中和區"
"235048","896-TW","2018/05/04 18:38:36","新北市中和區南山路231號","121.503473333333","24.9932883333333","6500300","中和區"
"235053","900-TW","2018/05/04 18:38:51","新北市中和區民享街462號","121.469813333333","24.9925116666667","6500300","中和區"
"235066","911-UM","2018/05/04 18:38:50","新北市中和區水源路20號","121.504226666667","25.003525","6500300","中和區"
"235051","157-BY","2018/05/04 18:38:53","新北市中和區華新街143巷106弄5號","121.506101666667","24.9789566666667","6500300","中和區"
"235037","AAC-213","2018/05/04 18:38:41","新北市中和區景德街88號","121.516248333333","24.9914466666667","6500300","中和區"
"235059","AAC-215","2018/05/04 18:38:35","新北市中和區錦和路354巷15號","121.489658333333","24.9915533333333","6500300","中和區"
"220065","072-UY","2018/05/04 18:38:44","新北市板橋區館前西路4-1號","121.459233333333","25.00705","6500100","板橋區"
"220086","073-UY","2018/05/04 18:38:47","新北市板橋區大智街71巷42弄15號","121.452216666667","25.0146216666667","6500100","板橋區"
"220017","AAD-861","2018/05/04 18:38:35","新北市板橋區華東街1-10號","121.448345","24.995135","6500100","板橋區"
"226004","312-R5","2018/05/04 18:38:53","新北市平溪區平溪里三坑路30號","121.736541666667","25.0292016666667","6502400","平溪區"
"228002","663-BX","2018/05/04 18:38:49","新北市貢寮區福隆里東興街6-11號","121.950736666667","25.021045","6502600","貢寮區"
"228001","670-TC","2018/05/04 18:38:35","新北市貢寮區仁理村保健街73號","121.923673333333","25.051695","6502600","貢寮區"
"228003","828-UM","2018/05/04 18:38:43","新北市貢寮區和美里龍洞街35號","121.916071666667","25.1116266666667","6502600","貢寮區"
"224010","AGQ-8101","2018/05/04 18:37:49","新北市瑞芳區崙頂路43號","121.844733333333","25.107205","6501200","瑞芳區"
"224006","676-BX","2018/05/04 18:38:47","新北市瑞芳區一坑路46號","121.803696666667","25.1088266666667","6501200","瑞芳區"
"224002","639-TC","2018/05/04 18:38:37","新北市瑞芳區中山路44號","121.803565","25.1063083333333","6501200","瑞芳區"
"224008","285-BY","2018/05/04 18:38:56","新北市瑞芳區逢甲路274-1號","121.804711666667","25.1109233333333","6501200","瑞芳區"
"224007","275-VK","2018/05/04 18:38:52","新北市瑞芳區大埔路67巷3-1號","121.76443","25.101545","6501200","瑞芳區"
"224009","273-VK","2018/05/04 18:38:50","新北市瑞芳區祈堂路2號","121.859716666667","25.1116433333333","6501200","瑞芳區"
"224005","271-BY","2018/05/04 18:38:39","新北市瑞芳區瑞濱路87號","121.820635","25.1209133333333","6501200","瑞芳區"
"227003","400-TW","2018/05/04 18:38:37","新北市雙溪區魚行里坤溪3-5號","121.8762","25.0207216666667","6502500","雙溪區"
"227011","030-BX","2018/05/04 18:38:44","新北市雙溪區牡丹里下坑11號","121.851006666667","25.056175","6502500","雙溪區"
"253005","032-BX","2018/05/04 18:38:42","新北市石門區中山路62號","121.566948333333","25.2906983333333","6502200","石門區"
"253006","295-VK","2018/05/04 18:38:45","新北市石門區楓林28-1號","121.542216666667","25.2893816666667","6502200","石門區"
"222001","KEA-2212","2018/05/04 18:38:48","新北市深坑區北深路一段84號","121.63627","25.010735","6501800","深坑區"
"208002","KEA-2872","2018/05/04 18:38:55","新北市金山區忠孝一路15巷11號","121.638451666667","25.2184366666667","6502700","金山區"
"208003","665-BX","2018/05/04 18:38:37","新北市金山區中山路340號","121.633496666667","25.2252683333333","6502700","金山區"
"208001","761-BX","2018/05/04 18:38:39","新北市金山區文化三路9號","121.635403333333","25.22477","6502700","金山區"
"251004","009-UM","2018/05/04 18:38:47","新北市淡水區大同路105巷12號","121.462763333333","25.1408783333333","6501000","淡水區"
"251005","010-UM","2018/05/04 18:38:37","新北市淡水區中正路18巷6-1號","121.437546666667","25.1729316666667","6501000","淡水區"
"251001","011-UM","2018/05/04 18:38:41","新北市淡水區自強路415巷2號","121.465521666667","25.1342716666667","6501000","淡水區"
"251002","012-UM","2018/05/04 18:38:41","新北市淡水區中正東路一段3巷14弄1號","121.450941666667","25.16418","6501000","淡水區"
"251008","181-VK","2018/05/04 18:38:40","新北市淡水區北投子17-1號","121.453926666667","25.1835233333333","6501000","淡水區"
"251010","413-VK","2018/05/04 18:38:37","新北市淡水區沙崙路126號","121.423505","25.18273","6501000","淡水區"
"251012","441-VK","2018/05/04 18:38:45","新北市淡水區北新路121號","121.448916666667","25.17876","6501000","淡水區"
"251006","561-UM","2018/05/04 18:38:39","新北市淡水區崁頂39號","121.439618333333","25.1952316666667","6501000","淡水區"
"251011","650-BX","2018/05/04 18:38:46","新北市淡水區鄧公路20號","121.45116","25.1694216666667","6501000","淡水區"
"251003","766-UM","2018/05/04 18:38:40","新北市淡水區北新路69巷26號","121.446775","25.1801083333333","6501000","淡水區"
"207003","550-UM","2018/05/04 18:38:40","新北市萬里區大鵬里頂社2-1號","121.660365","25.20714","6502800","萬里區"
"207004","225-TW","2018/05/04 18:38:42","新北市萬里區萬里里獅頭路10-1號","121.692101666667","25.178755","6502800","萬里區"
"252002","178-VK","2018/05/04 18:38:39","新北市三芝區民生街64巷14號","121.503746666667","25.2550083333333","6502100","三芝區"
"252003","249-BX","2018/05/04 18:38:43","新北市三芝區後厝里土地公坑999號","121.46454","25.2490983333333","6502100","三芝區"
"252001","292-VK","2018/05/04 18:38:38","新北市三芝區長勤街102號","121.500093333333","25.25446","6502100","三芝區"
"237007","153-BY","2018/05/04 18:38:48","新北市三峽區中正路二段451號","121.362448333333","24.9066933333333","6500900","三峽區"
"237011","572-TV","2018/05/04 18:38:38","新北市三峽區介壽路三段163-1號","121.401055","24.943325","6500900","三峽區"
"237009","210-TH","2018/05/04 18:38:41","新北市三峽區民權街164號","121.367968333333","24.9304233333333","6500900","三峽區"
"237013","252-BX","2018/05/04 18:38:47","新北市三峽區光明路69巷37號","121.377156666667","24.9291","6500900","三峽區"
"237012","275-BY","2018/05/04 18:38:49","新北市三峽區三樹路340號","121.383938333333","24.94335","6500900","三峽區"
"237008","302-VK","2018/05/04 18:38:37","新北市三峽區白雞64號","121.385821666667","24.9124183333333","6500900","三峽區"
"237014","433-BY","2018/05/04 18:38:48","新北市三峽區復興路480巷7-2號","121.358021666667","24.9399583333333","6500900","三峽區"
"237006","5529-G3","2018/05/04 18:38:55","新北市三峽區溪東路211巷31弄10號","121.405408333333","24.93446","6500900","三峽區"
"237010","706-TV","2018/05/04 18:38:42","新北市三峽區國光街175號","121.370986666667","24.9396316666667","6500900","三峽區"
"237005","AKY-6261","2018/05/04 18:38:49","新北市三峽區復興路19號","121.374061666667","24.9362733333333","6500900","三峽區"
"236069","105-UM","2018/05/04 18:38:51","新北市土城區永豐路157巷29弄1號","121.468721666667","24.9815733333333","6501300","土城區"
"236042","107-UM","2018/05/04 18:38:53","新北市土城區裕民路55巷9號","121.44928","24.9883916666667","6501300","土城區"
"236079","166-UM","2018/05/04 18:38:49","新北市土城區頂埔街67號","121.417533333333","24.9594483333333","6501300","土城區"
"236030","253-BX","2018/05/04 18:38:37","新北市土城區中華路二段187號","121.438591666667","24.9745616666667","6501300","土城區"
"236026","269-VK","2018/05/04 18:38:49","新北市土城區忠義路53-1號","121.440471666667","24.9687566666667","6501300","土城區"
"236014","270-VK","2018/05/04 18:38:42","新北市土城區青雲路185號","121.459371666667","24.9826466666667","6501300","土城區"
"236039","271-VK","2018/05/04 18:38:39","新北市土城區明德路一段313巷3弄9號","121.459945","24.9765733333333","6501300","土城區"
"236020","401-BY","2018/05/04 18:38:46","新北市土城區明德路一段36號","121.4652","24.9845516666667","6501300","土城區"
"236059","912-UM","2018/05/04 18:38:51","新北市土城區中央路三段185-1號","121.43118","24.964995","6501300","土城區"
"236048","913-UM","2018/05/04 18:38:46","新北市土城區明德路一段24號","121.465093333333","24.9848516666667","6501300","土城區"
"236063","915-UM","2018/05/04 18:38:53","新北市土城區延壽路35號","121.470965","24.991225","6501300","土城區"
"236055","AAC-216","2018/05/04 18:38:41","新北市土城區中華路一段25號","121.446505","24.9891083333333","6501300","土城區"
"242058","986-R7","2018/05/04 18:38:38","新北市泰山區貴鳳街2號","121.421141666667","25.03128","6500500","新莊區"
"242054","751-BX","2018/05/04 18:38:55","新北市新莊區新樹路442-1號","121.431556666667","25.001345","6500500","新莊區"
"242025","613-BX","2018/05/04 18:38:36","新北市新莊區立信一街45號","121.44213","25.049765","6500500","新莊區"
"242041","566-BX","2018/05/04 18:38:49","新北市泰山區新北大道五段115號","121.436006666667","25.048385","6500500","新莊區"
"238019","599-UM","2018/05/04 18:38:46","新北市樹林區中華路383號","121.411855","24.9803633333333","6500700","樹林區"
"238018","571-TV","2018/05/04 18:38:45","新北市樹林區樹新路73號","121.427403333333","24.99522","6500700","樹林區"
"238024","5061-A6","2018/05/04 18:38:50","新北市樹林區太順街49巷20弄18號","121.417765","24.9783233333333","6500700","樹林區"
"238025","303-VK","2018/05/04 18:38:39","新北市樹林區中山路三段22號","121.39559","24.97299","6500700","樹林區"
"238017","283-BY","2018/05/04 18:38:37","新北市樹林區光興街50號","121.409801666667","25.0026983333333","6500700","樹林區"
"238014","282-BY","2018/05/04 18:38:53","新北市樹林區大安路111巷6號","121.42311","24.99747","6500700","樹林區"
"238020","268-VK","2018/05/04 18:38:54","新北市樹林區俊興街244號","121.418023333333","25.0161416666667","6500700","樹林區"
"238026","172-UY","2018/05/04 18:38:53","新北市樹林區八德街828-16號","121.39255","24.969075","6500700","樹林區"
"238016","169-UY","2018/05/04 18:34:47","新北市樹林區文化街27號","121.419166666667","24.9876516666667","6500700","樹林區"
"239006","891-R6","2018/05/04 18:38:48","新北市鶯歌區鶯桃路296巷53號","121.33586","24.9613283333333","6500800","鶯歌區"
"239008","527-UM","2018/05/04 18:38:40","新北市鶯歌區朝陽街2號","121.33617","24.97661","6500800","鶯歌區"
"239005","526-UM","2018/05/04 18:38:43","新北市鶯歌區鳳吉一街53號","121.326333333333","24.9738283333333","6500800","鶯歌區"
"239001","417-VK","2018/05/04 18:38:39","新北市鶯歌區中正三路191號","121.335641666667","24.9395033333333","6500800","鶯歌區"
"239003","360-BY","2018/05/04 18:38:52","新北市鶯歌區永和街239-1號","121.337025","24.97149","6500800","鶯歌區"
"239002","359-BY","2018/05/04 18:38:48","新北市鶯歌區中山路315號","121.344078333333","24.9569116666667","6500800","鶯歌區"
"239004","193-VK","2018/05/04 18:38:33","新北市鶯歌區中正三路156巷12號","121.332293333333","24.9412566666667","6500800","鶯歌區"
"221008","489-VK","2018/05/04 18:38:55","新北市汐止區康寧街901號","121.651288333333","25.0748683333333","6501100","汐止區"
"221036","130-UY","2018/05/04 18:38:52","新北市汐止區水碓街59號","121.665143333333","25.0689566666667","6501100","汐止區"
"221015","131-UY","2018/05/04 18:38:49","新北市汐止區吉祥街12巷2號","121.668283333333","25.0801316666667","6501100","汐止區"
"221010","269-BY","2018/05/04 18:38:43","新北市汐止區汐萬路二段308號","121.643385","25.090795","6501100","汐止區"
"221012","278-VK","2018/05/04 18:38:36","新北市汐止區長江街21號","121.655036666667","25.07118","6501100","汐止區"
"221032","280-BY","2018/05/04 18:38:46","新北市汐止區福山街58巷14號","121.617861666667","25.0460833333333","6501100","汐止區"
"221027","281-BY","2018/05/04 18:38:45","新北市汐止區汐萬路一段256巷3號","121.65233","25.0746516666667","6501100","汐止區"
"221029","298-VK","2018/05/04 18:38:38","新北市汐止區樟樹一路146號","121.642296666667","25.0650633333333","6501100","汐止區"
"221031","353-TW","2018/05/04 18:38:43","新北市汐止區中興路130-1號","121.632916666667","25.064135","6501100","汐止區"
"221035","622-UM","2018/05/04 18:38:51","新北市汐止區大同路二段298號","121.655278333333","25.0666","6501100","汐止區"
"221025","623-UM","2018/05/04 18:38:51","新北市汐止區仁愛路119巷8號","121.662421666667","25.0639733333333","6501100","汐止區"
"221038","646-BX","2018/05/04 18:38:38","新北市汐止區汐萬路一段256巷3號","121.652455","25.0747333333333","6501100","汐止區"
"221033","647-BX","2018/05/04 18:38:37","新北市汐止區南勢街1巷1號","121.6271","25.03746","6501100","汐止區"
"221002","707-TV","2018/05/04 18:38:44","新北市汐止區中興路3號","121.637243333333","25.0591233333333","6501100","汐止區"
"221018","753-BX","2018/05/04 18:38:36","新北市汐止區茄苳路250巷32號","121.671873333333","25.0675733333333","6501100","汐止區"
"220079","145-BY","2018/05/04 18:38:50","新北市板橋區館前西路166-1號","121.452446666667","25.0085816666667","6500100","板橋區"
"220080","200-UY","2018/05/04 18:38:37","新北市板橋區大觀路二段265巷130弄32號","121.441085","24.9964216666667","6500100","板橋區"
"242002","KEA-2550","2018/05/04 18:38:50","新北市新莊區環河路636-7號","121.437388333333","25.0117366666667","6500500","新莊區"
"220082","610-BX","2018/05/04 18:38:37","新北市板橋區大觀路三段36巷5號","121.433686666667","24.99576","6500100","板橋區"
"220056","276-BY","2018/05/04 18:38:43","新北市板橋區四川路二段橋頭6號","121.448356666667","24.994065","6500100","板橋區"
"220072","277-BY","2018/05/04 18:38:50","新北市板橋區大觀路三段36巷5-2號","121.43324","24.99583","6500100","板橋區"
"220094","283-UM","2018/05/04 18:38:57","新北市板橋區民生路二段161巷1號","121.470111666667","25.0199183333333","6500100","板橋區"
"220071","283-VK","2018/05/04 18:38:52","新北市板橋區四川路二段140巷2號","121.449953333333","24.9931133333333","6500100","板橋區"
"220083","286-VK","2018/05/04 18:38:35","新北市板橋區大觀路二段109巷1號","121.447291666667","25.001105","6500100","板橋區"
"220081","287-VK","2018/05/04 18:38:47","新北市板橋區大觀路二段11-12號","121.44785","24.9966166666667","6500100","板橋區"
"220061","293-UM","2018/05/04 18:38:42","新北市板橋區民生路二段120號","121.470375","25.0197983333333","6500100","板橋區"
"220084","296-UM","2018/05/04 18:38:48","新北市板橋區大觀路二段力行3巷51號","121.447416666667","24.9990283333333","6500100","板橋區"
"220075","303-R5","2018/05/04 18:38:45","新北市板橋區南雅南路二段116號","121.452446666667","25.0004483333333","6500100","板橋區"
"220062","305-R5","2018/05/04 18:38:52","新北市板橋區民生路二段120號","121.470415","25.0196366666667","6500100","板橋區"
"220064","486-VK","2018/05/04 18:38:52","新北市板橋區縣民大道二段92號","121.466668333333","25.01481","6500100","板橋區"
"220035","560-BX","2018/05/04 18:38:51","新北市板橋區南雅西路二段145巷10號","121.451526666667","25.0119933333333","6500100","板橋區"
"220063","609-BX","2018/05/04 18:38:52","新北市板橋區民生路二段171號","121.469806666667","25.0201516666667","6500100","板橋區"
"220057","686-BX","2018/05/04 18:38:37","新北市板橋區華東街1-9號","121.448231666667","24.9949066666667","6500100","板橋區"
"220077","687-BX","2018/05/04 18:38:43","新北市板橋區大觀路二段166巷3號","121.440985","24.998965","6500100","板橋區"
"220054","741-BX","2018/05/04 18:38:54","新北市板橋區華東街1-9號","121.44807","24.9949766666667","6500100","板橋區"
"220074","895-R6","2018/05/04 18:38:40","新北市板橋區南雅南路二段11-4號","121.454078333333","25.0024333333333","6500100","板橋區"
"220073","985-R7","2018/05/04 18:38:48","新北市板橋區南雅南路二段11-17號","121.454901666667","25.001715","6500100","板橋區"
"220018","AAC-253","2018/05/04 18:38:49","新北市板橋區華東街1-9號","121.448258333333","24.99488","6500100","板橋區"
