"lineid","car","time","location","longitude","latitude","cityid","cityname"
"234046","148-BY","2018/05/04 19:08:49","新北市永和區永元路18巷16號","121.523116666667","25.0002133333333","6500400","永和區"
"234050","149-BY","2018/05/04 19:08:51","新北市永和區文化路135巷26弄2號","121.510603333333","25.0145333333333","6500400","永和區"
"234007","207-UY","2018/05/04 19:08:41","新北市永和區中山路一段213號","121.50848","25.0080883333333","6500400","永和區"
"234081","298-R6","2018/05/04 19:08:53","新北市永和區永貞路52號","121.520771666667","25.0062","6500400","永和區"
"234038","336-UY","2018/05/04 19:08:50","新北市永和區民樂街73巷1號","121.527421666667","24.9973133333333","6500400","永和區"
"234064","337-UY","2018/05/04 19:08:49","新北市永和區秀朗路二段33號","121.521251666667","25.0024233333333","6500400","永和區"
"234086","338-UY","2018/05/04 19:08:52","新北市永和區永寧街68-1號","121.517835","25.005255","6500400","永和區"
"234070","552-UM","2018/05/04 19:08:45","新北市永和區豫溪街137巷1弄24號","121.518316666667","25.0104833333333","6500400","永和區"
"234017","745-BX","2018/05/04 19:08:51","新北市永和區文化路90巷3弄2號","121.513858333333","25.0156783333333","6500400","永和區"
"234030","746-BX","2018/05/04 19:08:57","新北市永和區四維街109號","121.523746666667","24.9982616666667","6500400","永和區"
"234054","KEA-2590","2018/05/04 19:08:51","新北市永和區中興街133巷10號","121.518735","25.012815","6500400","永和區"
"234013","KEA-2591","2018/05/04 19:08:54","新北市永和區中山路一段44號","121.513298333333","25.0106933333333","6500400","永和區"
"234061","AAD-866","2018/05/04 19:08:44","新北市永和區安樂路306-8號","121.514726666667","25.0053716666667","6500400","永和區"
"234042","862-TW","2018/05/04 19:08:49","新北市永和區保平路111巷16號","121.511585","25.0058283333333","6500400","永和區"
"234026","9371-KE","2018/05/04 19:08:43","新北市永和區安樂路272巷7弄3號","121.514791666667","25.004365","6500400","永和區"
"234011","9373-KE","2018/05/04 19:08:52","新北市永和區仁愛路141巷30弄24號","121.512211666667","25.0114566666667","6500400","永和區"
"249005","172-UM","2018/05/04 19:08:41","新北市八里區中華路三段101號","121.393281666667","25.1388133333333","6502300","八里區"
"249001","173-UM","2018/05/04 19:08:47","新北市八里區龍米路二段228-2號","121.432485","25.1584133333333","6502300","八里區"
"248016","026-BX","2018/05/04 19:08:53","新北市五股區成泰路三段543巷32號","121.450603333333","25.1026383333333","6501500","五股區"
"248008","095-VK","2018/05/04 19:08:53","新北市五股區中興路一段118巷22號","121.466015","25.0744333333333","6501500","五股區"
"248018","225-UY","2018/05/04 19:08:50","新北市五股區民義路一段220巷23號","121.429113333333","25.0945716666667","6501500","五股區"
"248012","247-BX","2018/05/04 19:08:38","新北市五股區中興路四段48巷16號","121.438706666667","25.0834933333333","6501500","五股區"
"248010","272-BY","2018/05/04 19:08:42","新北市五股區自強路90巷72號","121.430748333333","25.0713383333333","6501500","五股區"
"248004","677-BX","2018/05/04 19:08:54","新北市五股區六合街3號","121.431843333333","25.0884633333333","6501500","五股區"
"248002","678-BX","2018/05/04 19:08:41","新北市五股區凌雲路一段158巷14-1號","121.447895","25.10354","6501500","五股區"
"234023","9380-KE","2018/05/04 19:08:38","新北市永和區勵行街84巷14號","121.516405","25.0125416666667","6500400","永和區"
"234077","969-R7","2018/05/04 19:08:37","新北市永和區民權路34號","121.520136666667","24.9988616666667","6500400","永和區"
"234074","AAC-211","2018/05/04 19:08:41","新北市永和區竹林路222號","121.52072","25.0080983333333","6500400","永和區"
"234067","AAC-212","2018/05/04 19:08:43","新北市永和區保平路23號","121.512623333333","25.0074","6500400","永和區"
"234003","AAC-295","2018/05/04 19:08:52","新北市永和區保福路一段43號","121.512628333333","25.0093916666667","6500400","永和區"
"244013","069-UM","2018/05/04 19:08:40","新北市林口區麗園一街9巷1號","121.37661","25.0712633333333","6501700","林口區"
"244019","403-UM","2018/05/04 19:08:51","新北市林口區麗園二街42巷22號","121.381463333333","25.0669866666667","6501700","林口區"
"244023","483-VK","2018/05/04 19:08:53","新北市林口區文化三路一段555巷50號","121.369748333333","25.0769083333333","6501700","林口區"
"244017","485-VK","2018/05/04 19:08:47","新北市林口區民族路286號","121.370246666667","25.0790016666667","6501700","林口區"
"244011","657-BX","2018/05/04 19:08:44","新北市林口區中正路264巷39號","121.388186666667","25.078695","6501700","林口區"
"243013","AAD-798","2018/05/04 19:08:44","新北市泰山區漢口街3號","121.42332","25.0366233333333","6501600","泰山區"
"243009","297-R6","2018/05/04 19:08:43","新北市泰山區明志路一段117巷5號","121.433866666667","25.0634416666667","6501600","泰山區"
"243016","380-SR","2018/05/04 19:08:39","新北市泰山區明志路二段353號","121.425466666667","25.0444633333333","6501600","泰山區"
"243015","421-VK","2018/05/04 19:08:45","新北市泰山區明志路一段440號","121.430753333333","25.0560566666667","6501600","泰山區"
"243011","KEA-2215","2018/05/04 19:08:50","新北市泰山區明志路二段341號","121.425563333333","25.04475","6501600","泰山區"
"243010","KEA-2216","2018/05/04 19:08:45","新北市泰山區明志路一段352巷3號","121.430311666667","25.0585083333333","6501600","泰山區"
"243012","646-TV","2018/05/04 19:08:39","新北市泰山區吳厝窠1號","121.427911666667","25.0585433333333","6501600","泰山區"
"243014","680-BX","2018/05/04 19:08:50","新北市泰山區泰林路二段480-1號","121.424963333333","25.0641766666667","6501600","泰山區"
"222003","436-BY","2018/05/04 19:08:51","新北市深坑區深南路138號","121.623106666667","25.0143533333333","6501800","深坑區"
"222002","659-BX","2018/05/04 19:08:50","新北市深坑區北深路一段225號","121.628708333333","25.008135","6501800","深坑區"
"231059","046-UY","2018/05/04 19:08:45","新北市新店區安和路一段43號","121.517253333333","24.96545","6500600","新店區"
"231040","047-UY","2018/05/04 19:08:39","新北市新店區三民路98-2號","121.533935","24.9734666666667","6500600","新店區"
"231044","106-UY","2018/05/04 19:08:47","新北市新店區中興路三段168號","121.544275","24.98084","6500600","新店區"
"231046","107-UY","2018/05/04 19:08:54","新北市新店區永業路113號","121.528543333333","24.948165","6500600","新店區"
"231053","108-UY","2018/05/04 19:08:51","新北市新店區屈尺路75號","121.545816666667","24.922635","6500600","新店區"
"231048","187-VK","2018/05/04 19:08:52","新北市新店區德正街27巷29弄123號","121.545686666667","24.972965","6500600","新店區"
"231054","KEA-2219","2018/05/04 19:08:48","新北市新店區新店路166號","121.537178333333","24.9556983333333","6500600","新店區"
"231042","268-BY","2018/05/04 19:08:46","新北市新店區中興路一段166號","121.542751666667","24.964345","6500600","新店區"
"231051","278-BY","2018/05/04 19:08:50","新北市新店區中正路400巷10號","121.535033333333","24.9778116666667","6500600","新店區"
"231050","AAD-862","2018/05/04 19:08:42","新北市新店區竹林路2巷31號","121.550363333333","24.9502283333333","6500600","新店區"
"231058","3713-VJ","2018/05/04 19:08:39","新北市新店區光明街104號","121.539148333333","24.9604666666667","6500600","新店區"
"231066","4716-K9","2018/05/04 19:08:36","新北市新店區安康路三段355巷12號","121.48456","24.950165","6500600","新店區"
"231056","4715-K9","2018/05/04 19:08:48","新北市新店區中正路480號","121.533931666667","24.9816066666667","6500600","新店區"
"231067","4772-VM","2018/05/04 19:08:45","新北市新店區安康路一段258號","121.520503333333","24.9639566666667","6500600","新店區"
"231065","512-UM","2018/05/04 19:08:43","新北市新店區安祥路111號","121.475616666667","24.956935","6500600","新店區"
"231049","513-UM","2018/05/04 19:08:52","新北市新店區二十張路25巷18弄16號","121.539191666667","24.9816733333333","6500600","新店區"
"231063","616-UM","2018/05/04 19:08:47","新北市新店區車子路110號","121.505236666667","24.9520683333333","6500600","新店區"
"231045","617-UM","2018/05/04 19:08:36","新北市新店區北宜路一段127巷4號","121.541535","24.9528433333333","6500600","新店區"
"231041","618-UM","2018/05/04 19:08:54","新北市新店區環河路121號","121.529555","24.9718483333333","6500600","新店區"
"231061","619-UM","2018/05/04 19:08:47","新北市新店區安康路一段351-1號","121.519623333333","24.9639083333333","6500600","新店區"
"231064","719-UM","2018/05/04 19:08:56","新北市新店區安忠路57巷1-2號","121.513678333333","24.9602183333333","6500600","新店區"
"231062","720-UM","2018/05/04 19:08:44","新北市新店區安平路23-1號","121.521378333333","24.9668466666667","6500600","新店區"
"231060","897-TW","2018/05/04 19:08:48","新北市新店區車子路1-1號","121.504648333333","24.957925","6500600","新店區"
"231043","899-TW","2018/05/04 19:08:50","新北市新店區寶橋路132號","121.547395","24.9759633333333","6500600","新店區"
"231055","AKT-0513","2018/05/04 19:08:49","新北市新店區中華路83巷67號","121.538348333333","24.9672633333333","6500600","新店區"
"241026","066-VK","2018/05/04 19:08:47","新北市三重區泉州街61巷1號","121.49465","25.0546516666667","6500200","三重區"
"241035","KEA-2210","2018/05/04 19:08:47","新北市三重區重新路四段146號","121.48639","25.056365","6500200","三重區"
"241029","942-UM","2018/05/04 19:08:40","新北市三重區重安街75巷20號","121.491633333333","25.055655","6500200","三重區"
"235064","005-UY","2018/05/04 19:08:36","新北市中和區泰和街38巷15號","121.49891","25.000625","6500300","中和區"
"235063","006-UY","2018/05/04 19:08:53","新北市中和區中正路584號","121.485985","24.9947866666667","6500300","中和區"
"235056","096-UM","2018/05/04 19:08:52","新北市中和區中正路1224號","121.47953","25.0107433333333","6500300","中和區"
"235039","097-UM","2018/05/04 19:08:48","新北市永和區民有街5號","121.516083333333","24.9970916666667","6500300","中和區"
"235065","098-UM","2018/05/04 19:08:38","新北市中和區中山路二段136巷40號","121.501216666667","25.0044833333333","6500300","中和區"
"235040","150-BY","2018/05/04 19:07:44","新北市中和區安平路116號","121.511901666667","24.997435","6500300","中和區"
"235058","151-BY","2018/05/04 19:08:44","新北市中和區員山路151巷1號","121.480805","24.996295","6500300","中和區"
"235055","183-VK","2018/05/04 19:08:42","新北市中和區德光路79號","121.469415","25.00362","6500300","中和區"
"235038","185-VK","2018/05/04 19:08:33","新北市中和區大仁街10巷27弄4號","121.519221666667","24.9927366666667","6500300","中和區"
"235049","186-VK","2018/05/04 19:08:37","新北市中和區南華路46號","121.50398","24.99663","6500300","中和區"
"235067","255-BX","2018/05/04 19:08:48","新北市中和區新生街176巷3號","121.483401666667","24.9998683333333","6500300","中和區"
"235044","293-VK","2018/05/04 19:08:49","新北市中和區中興街222-6號","121.500645","24.9896933333333","6500300","中和區"
"235072","301-VK","2018/05/04 19:08:50","新北市中和區福祥路7號","121.499426666667","25.0030266666667","6500300","中和區"
"235043","352-BY","2018/05/04 19:08:51","新北市中和區景平路132號","121.518815","24.9918333333333","6500300","中和區"
"235068","377-QA","2018/05/04 19:07:51","新北市中和區圓通路267號","121.495938333333","24.9931","6500300","中和區"
"235061","378-QA","2018/05/04 19:08:39","新北市中和區民有街71號","121.4764","25.003135","6500300","中和區"
"235050","4979-A6","2018/05/04 19:08:56","新北市中和區復興路43號","121.504921666667","24.9899516666667","6500300","中和區"
"235069","4980-A6","2018/05/04 19:08:43","新北市中和區中和路217巷18弄1號","121.504741666667","25.0003383333333","6500300","中和區"
"235042","551-UM","2018/05/04 19:08:49","新北市中和區自立路113號","121.522205","24.9944766666667","6500300","中和區"
"235045","565-BX","2018/05/04 19:08:47","新北市中和區景新街467巷35弄13號","121.51414","24.9889116666667","6500300","中和區"
"235054","640-BX","2018/05/04 19:08:24","新北市中和區國光街87號","121.470476666667","25.00022","6500300","中和區"
"235060","647-TV","2018/05/04 19:08:48","新北市中和區民治街8巷1號","121.474928333333","25.0049716666667","6500300","中和區"
"235047","732-UM","2018/05/04 19:08:52","新北市中和區興南路一段115號","121.509178333333","24.9878933333333","6500300","中和區"
"235046","733-UM","2018/05/04 19:08:54","新北市中和區忠孝街1巷48號","121.508418333333","24.9842583333333","6500300","中和區"
"235071","783-BX","2018/05/04 19:08:39","新北市中和區連城路344-1號","121.482658333333","24.9956116666667","6500300","中和區"
"235062","800-TS","2018/05/04 19:08:52","新北市中和區建一路1號","121.488273333333","25.0043666666667","6500300","中和區"
"235057","801-TS","2018/05/04 19:08:37","新北市中和區民利街87號","121.478186666667","24.99813","6500300","中和區"
"235041","802-TS","2018/05/04 19:08:42","新北市永和區中和路321號","121.507133333333","24.999675","6500300","中和區"
"235052","805-TS","2018/05/04 19:08:48","新北市中和區興南路二段142巷19弄13號","121.502753333333","24.983525","6500300","中和區"
"235048","896-TW","2018/05/04 19:08:36","新北市中和區忠孝街2-8號","121.509196666667","24.9829066666667","6500300","中和區"
"235053","900-TW","2018/05/04 19:08:51","新北市中和區華福街73號","121.46719","24.9965366666667","6500300","中和區"
"235066","911-UM","2018/05/04 19:08:50","新北市中和區廣福路32號","121.504675","25.00239","6500300","中和區"
"235051","157-BY","2018/05/04 19:08:53","新北市中和區興南路一段71號","121.510093333333","24.98931","6500300","中和區"
"235037","AAC-213","2018/05/04 19:08:41","新北市中和區秀朗路三段60巷36號","121.52512","24.994975","6500300","中和區"
"235059","AAC-215","2018/05/04 19:08:35","新北市中和區圓通路296巷31弄1號","121.488576666667","24.9904483333333","6500300","中和區"
"220068","013-TV","2018/05/04 19:08:39","新北市板橋區中山路二段443巷32號","121.480988333333","25.0210983333333","6500100","板橋區"
"220065","072-UY","2018/05/04 19:08:44","新北市板橋區民族路223號","121.469706666667","25.0073816666667","6500100","板橋區"
"220086","073-UY","2018/05/04 19:08:46","新北市板橋區國光路67巷39號","121.460301666667","25.0191933333333","6500100","板橋區"
"220106","075-UY","2018/05/04 19:08:41","新北市板橋區雙十路三段9號","121.471581666667","25.0302066666667","6500100","板橋區"
"220017","AAD-861","2018/05/04 19:08:55","新北市板橋區四川路一段102號","121.459533333333","25.0047066666667","6500100","板橋區"
"226004","312-R5","2018/05/04 19:08:53","新北市平溪區十分里十分街102號","121.77683","25.04277","6502400","平溪區"
"228002","663-BX","2018/05/04 19:08:49","新北市貢寮區福隆里福隆街32-1號","121.945081666667","25.0173983333333","6502600","貢寮區"
"228001","670-TC","2018/05/04 19:08:35","新北市貢寮區真理里新港街10號","121.925536666667","25.0543733333333","6502600","貢寮區"
"228003","828-UM","2018/05/04 19:08:43","新北市貢寮區和美里和美街37號","121.912281666667","25.0869066666667","6502600","貢寮區"
"224010","AGQ-8101","2018/05/04 19:06:09","新北市瑞芳區基山街8號","121.845321666667","25.10909","6501200","瑞芳區"
"224006","676-BX","2018/05/04 19:08:47","新北市瑞芳區中山路143-3號","121.802798333333","25.1063566666667","6501200","瑞芳區"
"224008","285-BY","2018/05/04 19:08:54","新北市瑞芳區明燈路三段227號","121.800095","25.111365","6501200","瑞芳區"
"224007","275-VK","2018/05/04 19:08:51","新北市瑞芳區瑞竹路76-4號","121.763365","25.1033766666667","6501200","瑞芳區"
"224005","271-BY","2018/05/04 19:08:39","新北市瑞芳區三爪子坑路77號","121.81228","25.1073133333333","6501200","瑞芳區"
"227003","400-TW","2018/05/04 19:08:37","新北市雙溪區平林里外平林9-5號","121.859165","25.0379083333333","6502500","雙溪區"
"227011","030-BX","2018/05/04 19:08:44","新北市雙溪區牡丹里中正路48號","121.8651","25.0390916666667","6502500","雙溪區"
"253005","032-BX","2018/05/04 19:08:41","新北市石門區阿里荖42號","121.605326666667","25.2802733333333","6502200","石門區"
"253006","295-VK","2018/05/04 19:08:45","新北市石門區崁子腳58-4號","121.530041666667","25.2861933333333","6502200","石門區"
"222001","KEA-2212","2018/05/04 19:08:48","新北市深坑區北深路一段300號","121.624095","25.0056416666667","6501800","深坑區"
"208002","KEA-2872","2018/05/04 19:08:35","新北市金山區中華路112巷13號","121.633916666667","25.2208216666667","6502700","金山區"
"208003","665-BX","2018/05/04 19:08:52","新北市金山區中正路6號","121.636525","25.2223833333333","6502700","金山區"
"208001","761-BX","2018/05/04 19:08:39","新北市金山區福德街2號","121.6395","25.221945","6502700","金山區"
"251009","008-UM","2018/05/04 19:08:49","新北市淡水區清水街99-1號","121.440795","25.1706916666667","6501000","淡水區"
"251005","010-UM","2018/05/04 19:08:37","新北市淡水區中山路151-7號","121.44027","25.1723716666667","6501000","淡水區"
"251001","011-UM","2018/05/04 19:08:41","新北市淡水區自強路201巷47號","121.46201","25.1268616666667","6501000","淡水區"
"251002","012-UM","2018/05/04 19:08:41","新北市淡水區中山路97號","121.441911666667","25.1705733333333","6501000","淡水區"
"251008","181-VK","2018/05/04 19:08:40","新北市淡水區中正路二段53號","121.418146666667","25.184835","6501000","淡水區"
"251010","413-VK","2018/05/04 19:08:37","新北市淡水區中正路一段156巷3號","121.421225","25.1802066666667","6501000","淡水區"
"251007","442-VK","2018/05/04 19:08:34","新北市淡水區民生路145巷58號","121.468165","25.1389066666667","6501000","淡水區"
"251003","766-UM","2018/05/04 19:08:40","新北市淡水區大義街5號","121.443473333333","25.178205","6501000","淡水區"
"207003","550-UM","2018/05/04 19:08:39","新北市萬里區大鵬里萬里加投79-3號","121.647416666667","25.2124166666667","6502800","萬里區"
"207004","225-TW","2018/05/04 19:08:42","新北市萬里區萬里里瑪鋉下街50-1號","121.691546666667","25.1794133333333","6502800","萬里區"
"252002","178-VK","2018/05/04 19:08:56","新北市三芝區埔坪里埔頭坑86-1號","121.507376666667","25.2545866666667","6502100","三芝區"
"252003","249-BX","2018/05/04 19:08:43","新北市三芝區錫板里海尾11-7號","121.478941666667","25.261085","6502100","三芝區"
"252001","292-VK","2018/05/04 19:08:56","新北市三芝區長勤街82號","121.500256666667","25.2550966666667","6502100","三芝區"
"237007","153-BY","2018/05/04 19:08:48","新北市三峽區中正路二段42巷12-1號","121.364195","24.920635","6500900","三峽區"
"237011","572-TV","2018/05/04 19:08:58","新北市三峽區中園街114號","121.367248333333","24.922695","6500900","三峽區"
"237013","252-BX","2018/05/04 19:08:47","新北市三峽區光明路69巷25號","121.376766666667","24.929275","6500900","三峽區"
"237012","275-BY","2018/05/04 19:08:49","新北市三峽區三樹路222巷236弄23號","121.39143","24.9430416666667","6500900","三峽區"
"237008","302-VK","2018/05/04 19:08:37","新北市三峽區光明路106巷18號","121.376118333333","24.9272966666667","6500900","三峽區"
"237014","433-BY","2018/05/04 19:08:48","新北市三峽區大仁路1號","121.36696","24.9376416666667","6500900","三峽區"
"237006","5529-G3","2018/05/04 19:08:54","新北市三峽區介壽路一段498號","121.385765","24.93249","6500900","三峽區"
"237010","706-TV","2018/05/04 19:08:42","新北市三峽區復興路36-8號","121.373885","24.93665","6500900","三峽區"
"237005","AKY-6261","2018/05/04 19:08:49","新北市三峽區中山路459巷163-3號","121.348601666667","24.9329416666667","6500900","三峽區"
"236069","105-UM","2018/05/04 19:08:50","新北市土城區裕生路84巷13號","121.446486666667","24.9855916666667","6501300","土城區"
"236079","166-UM","2018/05/04 19:08:49","新北市土城區龍泉路10-1號","121.40952","24.94929","6501300","土城區"
"236030","253-BX","2018/05/04 19:08:37","新北市土城區城林路6巷80號","121.438501666667","24.9796","6501300","土城區"
"236026","269-VK","2018/05/04 19:08:48","新北市土城區中央路二段191-3號","121.442296666667","24.9753233333333","6501300","土城區"
"236014","270-VK","2018/05/04 19:08:42","新北市土城區學府路一段83號","121.456541666667","24.9881233333333","6501300","土城區"
"236039","271-VK","2018/05/04 19:08:35","新北市土城區清水路100號","121.457476666667","24.98137","6501300","土城區"
"236020","401-BY","2018/05/04 19:08:46","新北市土城區延峰街36巷2號","121.469568333333","24.98473","6501300","土城區"
"236059","912-UM","2018/05/04 19:08:51","新北市土城區學士路123號","121.44714","24.9759133333333","6501300","土城區"
"236048","913-UM","2018/05/04 19:08:46","新北市土城區明德路一段398-1號","121.453646666667","24.979095","6501300","土城區"
"236063","915-UM","2018/05/04 19:08:53","新北市土城區金城路三段202-3號","121.469425","24.98859","6501300","土城區"
"236055","AAC-216","2018/05/04 19:08:41","新北市土城區學府路一段197號","121.45195","24.984775","6501300","土城區"
"238015","755-BX","2018/05/04 19:08:49","新北市樹林區備內街103號","121.407208333333","24.9894583333333","6500700","樹林區"
"238023","601-UM","2018/05/04 19:08:44","新北市樹林區大慶街88號","121.396073333333","25.0139383333333","6500700","樹林區"
"238019","599-UM","2018/05/04 19:08:46","新北市樹林區東榮街81號","121.416826666667","24.9829866666667","6500700","樹林區"
"238024","5061-A6","2018/05/04 19:08:50","新北市樹林區中山路二段249巷24號","121.402976666667","24.9756083333333","6500700","樹林區"
"238021","KEA-2539","2018/05/04 19:08:49","新北市樹林區柑園街二段363巷8號","121.368826666667","24.94843","6500700","樹林區"
"238025","303-VK","2018/05/04 19:08:39","新北市樹林區中山路三段161-6號","121.395185","24.9725716666667","6500700","樹林區"
"238017","283-BY","2018/05/04 19:08:37","新北市樹林區光興街68號","121.409386666667","25.0027533333333","6500700","樹林區"
"238014","282-BY","2018/05/04 19:08:53","新北市樹林區中正路22-1號","121.427821666667","24.9994916666667","6500700","樹林區"
"238020","268-VK","2018/05/04 19:08:34","新北市樹林區俊英街133巷23號","121.42313","25.0107583333333","6500700","樹林區"
"238026","172-UY","2018/05/04 19:08:53","新北市樹林區中山路三段160-1號","121.389405","24.970345","6500700","樹林區"
"238016","169-UY","2018/05/04 18:46:06","新北市樹林區中山路一段306巷20弄8號","121.41958","24.9869133333333","6500700","樹林區"
"239006","891-R6","2018/05/04 19:08:48","新北市鶯歌區鶯桃路91巷4號","121.339026666667","24.953385","6500800","鶯歌區"
"239008","527-UM","2018/05/04 19:08:40","新北市鶯歌區國際二路4巷8號","121.338885","24.9733516666667","6500800","鶯歌區"
"239005","526-UM","2018/05/04 19:08:43","新北市鶯歌區東湖路15-4號","121.354396666667","24.972235","6500800","鶯歌區"
"239001","417-VK","2018/05/04 19:08:39","新北市鶯歌區永智街43巷29號","121.33752","24.95381","6500800","鶯歌區"
"239003","360-BY","2018/05/04 19:08:52","新北市鶯歌區德昌二街71號","121.333366666667","24.95821","6500800","鶯歌區"
"239002","359-BY","2018/05/04 19:08:48","新北市鶯歌區湖山路64巷2號","121.339705","24.9765966666667","6500800","鶯歌區"
"239004","193-VK","2018/05/04 19:08:53","新北市鶯歌區中正三路291巷11號","121.329861666667","24.9358166666667","6500800","鶯歌區"
"221008","489-VK","2018/05/04 19:08:35","新北市汐止區康寧街466號","121.631841666667","25.0682166666667","6501100","汐止區"
"221036","130-UY","2018/05/04 19:08:52","新北市汐止區康寧街901號","121.651478333333","25.074975","6501100","汐止區"
"221015","131-UY","2018/05/04 19:08:46","新北市汐止區康寧街901號","121.651583333333","25.074935","6501100","汐止區"
"221010","269-BY","2018/05/04 19:08:43","新北市汐止區康寧街901號","121.651466666667","25.0750033333333","6501100","汐止區"
"221012","278-VK","2018/05/04 19:08:56","新北市汐止區康寧街901號","121.6508","25.0752483333333","6501100","汐止區"
"221032","280-BY","2018/05/04 19:08:46","新北市汐止區橫科路385巷11號","121.624633333333","25.0476966666667","6501100","汐止區"
"221027","281-BY","2018/05/04 19:08:45","新北市汐止區康寧街901號","121.651428333333","25.07495","6501100","汐止區"
"221029","298-VK","2018/05/04 19:08:18","新北市汐止區汐萬路一段256巷3號","121.652525","25.074565","6501100","汐止區"
"221031","353-TW","2018/05/04 19:08:43","新北市汐止區福德三路127號","121.63362","25.067615","6501100","汐止區"
"221025","623-UM","2018/05/04 19:08:51","新北市汐止區康寧街901號","121.651563333333","25.074995","6501100","汐止區"
"221038","646-BX","2018/05/04 19:08:38","新北市汐止區康寧街901號","121.650721666667","25.0753016666667","6501100","汐止區"
"221033","647-BX","2018/05/04 19:08:37","新北市汐止區南勢街1巷1號","121.627035","25.0374016666667","6501100","汐止區"
"221002","707-TV","2018/05/04 19:08:44","新北市汐止區大同路一段50號","121.62239","25.054855","6501100","汐止區"
"221018","753-BX","2018/05/04 19:08:36","新北市汐止區汐萬路一段256巷3號","121.653378333333","25.0745666666667","6501100","汐止區"
"220079","145-BY","2018/05/04 19:08:50","新北市板橋區民權路302巷1弄1號","121.457346666667","25.0163083333333","6500100","板橋區"
"220080","200-UY","2018/05/04 19:08:40","新北市板橋區大觀路二段1巷4號","121.448551666667","25.0039133333333","6500100","板橋區"
"220082","610-BX","2018/05/04 19:08:37","新北市板橋區溪崑二街41號","121.428348333333","24.9908333333333","6500100","板橋區"
"220101","245-BX","2018/05/04 19:08:50","新北市板橋區萬板路51號","121.471325","25.021555","6500100","板橋區"
"220103","257-TC","2018/05/04 19:08:43","新北市板橋區文化路一段188巷9弄21號","121.468553333333","25.019445","6500100","板橋區"
"220056","276-BY","2018/05/04 19:08:44","新北市板橋區信義路74巷3弄1號","121.457078333333","24.9930166666667","6500100","板橋區"
"220072","277-BY","2018/05/04 19:08:50","新北市板橋區金門街297號","121.430178333333","24.9866083333333","6500100","板橋區"
"220094","283-UM","2018/05/04 19:08:37","新北市板橋區光武街127巷2號","121.465923333333","25.028795","6500100","板橋區"
"220071","283-VK","2018/05/04 19:08:52","新北市中和區華安街2號","121.465461666667","24.9986883333333","6500100","板橋區"
"220053","285-VK","2018/05/04 19:08:50","新北市板橋區懷仁街8號","121.476","25.0200366666667","6500100","板橋區"
"220083","286-VK","2018/05/04 19:08:35","新北市板橋區大觀路二段174巷173弄12號","121.441278333333","25.00388","6500100","板橋區"
"220081","287-VK","2018/05/04 19:08:47","新北市板橋區南雅西路二段110巷18號","121.452578333333","25.01262","6500100","板橋區"
"220090","288-VK","2018/05/04 19:08:45","新北市板橋區四維路279巷23號","121.462093333333","25.0282333333333","6500100","板橋區"
"220061","293-UM","2018/05/04 19:08:42","新北市板橋區中山路二段295巷17號","121.4778","25.0187583333333","6500100","板橋區"
"220084","296-UM","2018/05/04 19:08:52","新北市板橋區溪崑二街22巷15號","121.428133333333","24.9916916666667","6500100","板橋區"
"220075","303-R5","2018/05/04 19:08:45","新北市板橋區南雅南路一段3巷25號","121.456753333333","25.00604","6500100","板橋區"
"220062","305-R5","2018/05/04 19:08:52","新北市板橋區三民路二段居仁巷1弄34號","121.480393333333","25.013615","6500100","板橋區"
"220092","307-R5","2018/05/04 19:08:43","新北市板橋區文化路一段180號","121.46576","25.0196033333333","6500100","板橋區"
"220098","317-R6","2018/05/04 19:08:42","新北市板橋區四維路103巷9號","121.465063333333","25.0242733333333","6500100","板橋區"
"220064","486-VK","2018/05/04 19:08:52","新北市板橋區民生路一段57號","121.475498333333","25.0131166666667","6500100","板橋區"
"220088","491-VK","2018/05/04 19:08:50","新北市板橋區文化路二段182巷1弄16號","121.471556666667","25.02794","6500100","板橋區"
"220035","560-BX","2018/05/04 19:08:54","新北市板橋區瑞安街31巷3號","121.455801666667","25.0228016666667","6500100","板橋區"
"220063","609-BX","2018/05/04 19:08:52","新北市板橋區三民路二段203-5號","121.479216666667","25.0135116666667","6500100","板橋區"
"220055","630-UY","2018/05/04 19:08:54","新北市板橋區新民街4巷8號","121.464535","25.0100283333333","6500100","板橋區"
"220091","637-BX","2018/05/04 19:08:38","新北市板橋區萬板路562號","121.481073333333","25.0265983333333","6500100","板橋區"
"220057","686-BX","2018/05/04 19:08:37","新北市板橋區重慶路293號","121.463323333333","24.99934","6500100","板橋區"
"220077","687-BX","2018/05/04 19:08:47","新北市板橋區大觀路一段37巷2號","121.44892","25.008315","6500100","板橋區"
"220093","689-BX","2018/05/04 19:08:49","新北市板橋區民生路三段275號","121.464235","25.0299516666667","6500100","板橋區"
"220054","741-BX","2018/05/04 19:08:54","新北市板橋區實踐路55-1號","121.463735","25.0066933333333","6500100","板橋區"
"220102","KEA-2699","2018/05/04 19:08:55","新北市板橋區田單街2巷32-3號","121.482175","25.0278133333333","6500100","板橋區"
"220067","829-TW","2018/05/04 19:08:48","新北市板橋區民享街116巷2弄9號","121.477546666667","25.01548","6500100","板橋區"
"220096","830-TW","2018/05/04 19:08:48","新北市板橋區雙十路二段4-1號","121.47714","25.0255033333333","6500100","板橋區"
"220089","833-TW","2018/05/04 19:08:48","新北市板橋區文化路二段446號","121.47452","25.0323583333333","6500100","板橋區"
"220074","895-R6","2018/05/04 19:08:39","新北市板橋區中正路自強新村45-2號","121.45475","25.0138566666667","6500100","板橋區"
"220073","985-R7","2018/05/04 19:08:48","新北市板橋區中正路307號","121.455148333333","25.0197","6500100","板橋區"
"220097","AAC-210","2018/05/04 19:07:59","新北市板橋區新海路135巷4號","121.459876666667","25.0229566666667","6500100","板橋區"
"220070","AAC-253","2018/05/04 19:08:49","新北市板橋區四川路一段353號","121.458376666667","24.9999183333333","6500100","板橋區"
