"lineid","car","time","location","longitude","latitude","cityid","cityname"
"234046","148-BY","2018/05/04 20:08:50","新北市永和區秀朗路二段259號","121.526275","24.9991366666667","6500400","永和區"
"234050","149-BY","2018/05/04 20:08:51","新北市永和區環河西路二段151號","121.505618333333","25.0140316666667","6500400","永和區"
"234007","207-UY","2018/05/04 20:08:41","新北市永和區保生路22巷19弄24號","121.50707","25.008705","6500400","永和區"
"234081","298-R6","2018/05/04 20:08:57","新北市永和區永亨路107號","121.523381666667","25.0048766666667","6500400","永和區"
"234038","336-UY","2018/05/04 20:08:50","新北市永和區成功路一段47巷8號","121.527505","25.0039216666667","6500400","永和區"
"234064","337-UY","2018/05/04 20:08:49","新北市永和區永利路156號","121.522621666667","25.0027833333333","6500400","永和區"
"234086","338-UY","2018/05/04 20:08:42","新北市永和區福和路137號","121.521235","25.00779","6500400","永和區"
"234070","552-UM","2018/05/04 20:08:45","新北市永和區中正路513號","121.51695","25.0072866666667","6500400","永和區"
"234017","745-BX","2018/05/04 20:08:50","新北市永和區文化路123號","121.512253333333","25.015255","6500400","永和區"
"234030","746-BX","2018/05/04 20:08:52","新北市永和區民權路49巷23號","121.521306666667","24.997525","6500400","永和區"
"234054","KEA-2590","2018/05/04 20:08:41","新北市永和區博愛街10號","121.516783333333","25.01582","6500400","永和區"
"234013","KEA-2591","2018/05/04 20:08:54","新北市永和區永貞路415號","121.507433333333","25.0093133333333","6500400","永和區"
"234061","AAD-866","2018/05/04 20:08:39","新北市永和區中正路151巷1-1號","121.516351666667","24.998265","6500400","永和區"
"234042","862-TW","2018/05/04 20:08:49","新北市永和區雙和街43號","121.508885","25.002765","6500400","永和區"
"234011","9373-KE","2018/05/04 20:08:52","新北市永和區仁愛路352巷122弄8號","121.500641666667","25.0087366666667","6500400","永和區"
"249005","172-UM","2018/05/04 20:08:41","新北市八里區下罟子60-8號","121.38756","25.1368966666667","6502300","八里區"
"249001","173-UM","2018/05/04 20:08:49","新北市八里區中華路二段310號","121.403835","25.1483433333333","6502300","八里區"
"249004","303-UY","2018/05/04 20:08:54","新北市八里區中山路一段398巷51弄22號","121.410648333333","25.1586016666667","6502300","八里區"
"249002","305-UY","2018/05/04 20:08:47","新北市五股區成泰路四段22巷46-3號","121.458238333333","25.1130466666667","6502300","八里區"
"249003","593-UM","2018/05/04 20:08:46","新北市八里區中山路二段540巷9弄18號","121.396565","25.1467683333333","6502300","八里區"
"248016","026-BX","2018/05/04 20:08:53","新北市五股區成泰路三段577巷130號","121.448248333333","25.1041483333333","6501500","五股區"
"248008","095-VK","2018/05/04 20:08:53","新北市五股區中興路一段1巷20號","121.46977","25.07085","6501500","五股區"
"248012","247-BX","2018/05/04 20:08:38","新北市五股區民義路一段216號","121.430393333333","25.08951","6501500","五股區"
"248014","261-SL","2018/05/04 20:08:40","新北市五股區新城五路7號","121.446635","25.0922583333333","6501500","五股區"
"248010","272-BY","2018/05/04 20:08:42","新北市五股區成泰路一段7巷17號","121.432455","25.067045","6501500","五股區"
"248004","677-BX","2018/05/04 20:08:54","新北市五股區成泰路一段106-1號","121.435715","25.07185","6501500","五股區"
"248002","678-BX","2018/05/04 20:08:56","新北市五股區成泰路三段323-1號","121.44808","25.09506","6501500","五股區"
"234023","9380-KE","2018/05/04 20:08:49","新北市永和區復興街2巷2號","121.515688333333","25.0126716666667","6500400","永和區"
"234077","969-R7","2018/05/04 20:08:49","新北市永和區民光街2號","121.515235","24.9963916666667","6500400","永和區"
"234074","AAC-211","2018/05/04 20:08:41","新北市永和區豫溪街185號","121.522495","25.0103716666667","6500400","永和區"
"234067","AAC-212","2018/05/04 20:08:43","新北市永和區保平路212號","121.509745","25.0059766666667","6500400","永和區"
"234003","AAC-295","2018/05/04 20:08:52","新北市永和區中正路660-1號","121.516806666667","25.00869","6500400","永和區"
"243013","AAD-798","2018/05/04 20:08:52","新北市泰山區明志路三段74巷21號","121.42414","25.0416733333333","6501600","泰山區"
"243009","297-R6","2018/05/04 20:08:43","新北市泰山區泰林路二段116巷3弄2號","121.435186666667","25.0595916666667","6501600","泰山區"
"243016","380-SR","2018/05/04 20:08:39","新北市泰山區中山路二段776號","121.423833333333","25.0340783333333","6501600","泰山區"
"243015","421-VK","2018/05/04 20:08:45","新北市泰山區明志路一段418號","121.430618333333","25.0566833333333","6501600","泰山區"
"243011","KEA-2215","2018/05/04 20:08:50","新北市泰山區明志路三段529號","121.42066","25.0299666666667","6501600","泰山區"
"243010","KEA-2216","2018/05/04 20:08:44","新北市泰山區明志路二段214巷16弄49號","121.426863333333","25.0505666666667","6501600","泰山區"
"243012","646-TV","2018/05/04 20:08:39","新北市泰山區楓江路81號","121.436726666667","25.0634416666667","6501600","泰山區"
"243014","680-BX","2018/05/04 20:08:54","新北市泰山區明志路一段16號","121.43349","25.0658133333333","6501600","泰山區"
"222003","436-BY","2018/05/04 20:08:44","新北市深坑區埔新街60號","121.620166666667","25.00253","6501800","深坑區"
"222002","659-BX","2018/05/04 20:08:51","新北市深坑區北深路三段160號","121.602663333333","25.0034566666667","6501800","深坑區"
"231059","046-UY","2018/05/04 20:08:45","新北市新店區安成街25號","121.51012","24.960905","6500600","新店區"
"231040","047-UY","2018/05/04 20:08:39","新北市新店區中正路106號","121.54308","24.9705733333333","6500600","新店區"
"231044","106-UY","2018/05/04 20:08:46","新北市新店區寶慶街58巷6號","121.542096666667","24.9870366666667","6500600","新店區"
"231053","108-UY","2018/05/04 20:08:36","新北市新店區新烏路三段寶島巷2弄3號","121.552008333333","24.898645","6500600","新店區"
"231048","187-VK","2018/05/04 20:08:52","新北市新店區寶橋路99號","121.547703333333","24.9765633333333","6500600","新店區"
"231054","KEA-2219","2018/05/04 20:08:48","新北市新店區檳榔路36巷2號","121.541418333333","24.96376","6500600","新店區"
"231057","256-BX","2018/05/04 20:08:52","新北市新店區花園一路一段2號","121.553106666667","24.932455","6500600","新店區"
"231042","268-BY","2018/05/04 20:08:46","新北市新店區中興路一段304號","121.546398333333","24.9696783333333","6500600","新店區"
"231051","278-BY","2018/05/04 20:08:50","新北市新店區中央五街3-1號","121.5303","24.9742216666667","6500600","新店區"
"231050","AAD-862","2018/05/04 20:08:42","新北市新店區北新路一段96巷29號","121.543023333333","24.9690616666667","6500600","新店區"
"231066","4716-K9","2018/05/04 20:08:56","新北市新店區安德街60巷21號","121.510363333333","24.9633583333333","6500600","新店區"
"231056","4715-K9","2018/05/04 20:08:48","新北市新店區北新路二段29巷3弄1號","121.542238333333","24.97296","6500600","新店區"
"231067","4772-VM","2018/05/04 20:08:45","新北市新店區安康路一段3-1號","121.534083333333","24.9604433333333","6500600","新店區"
"231065","512-UM","2018/05/04 20:08:43","新北市新店區安祥路106巷264號","121.473125","24.9588333333333","6500600","新店區"
"231049","513-UM","2018/05/04 20:08:52","新北市新店區北新路二段139巷9-1號","121.542088333333","24.9755866666667","6500600","新店區"
"231063","616-UM","2018/05/04 20:08:47","新北市新店區黎明路54巷2號","121.502263333333","24.9482233333333","6500600","新店區"
"231045","617-UM","2018/05/04 20:08:36","新北市新店區北宜路一段129號","121.54061","24.9532783333333","6500600","新店區"
"231041","618-UM","2018/05/04 20:08:54","新北市新店區中正路438號","121.5342","24.9783283333333","6500600","新店區"
"231061","619-UM","2018/05/04 20:08:47","新北市新店區安興路81號","121.515526666667","24.975395","6500600","新店區"
"231068","718-UY","2018/05/04 20:08:48","新北市新店區中興路三段1-5號","121.546485","24.9770466666667","6500600","新店區"
"231064","719-UM","2018/05/04 20:08:36","新北市新店區安光路13號","121.513488333333","24.96387","6500600","新店區"
"231062","720-UM","2018/05/04 20:08:44","新北市新店區安康路二段98號","121.513576666667","24.9630683333333","6500600","新店區"
"231060","897-TW","2018/05/04 20:08:48","新北市新店區安康路三段421-1號","121.483055","24.9497066666667","6500600","新店區"
"231043","899-TW","2018/05/04 20:08:50","新北市新店區民族路184號","121.536918333333","24.97612","6500600","新店區"
"231055","AKT-0513","2018/05/04 20:08:49","新北市新店區中華路42巷10號","121.540365","24.9685683333333","6500600","新店區"
"241011","013-R5","2018/05/04 20:08:55","新北市三重區仁愛街32號","121.496333333333","25.0717666666667","6500200","三重區"
"241028","022-UY","2018/05/04 20:08:39","新北市三重區仁化街157號","121.494726666667","25.0570533333333","6500200","三重區"
"241008","059-VK","2018/05/04 20:08:47","新北市三重區永福街197巷19號","121.478753333333","25.0742933333333","6500200","三重區"
"241009","060-VK","2018/05/04 20:08:50","新北市三重區力行路二段202號","121.483525","25.0778583333333","6500200","三重區"
"241031","061-VK","2018/05/04 20:08:43","新北市三重區過圳街9-1號","121.48877","25.0602183333333","6500200","三重區"
"241015","062-VK","2018/05/04 20:08:42","新北市三重區福德北路43號","121.502308333333","25.0649433333333","6500200","三重區"
"241017","063-VK","2018/05/04 20:08:50","新北市三重區大同北路221巷36號","121.492275","25.0665266666667","6500200","三重區"
"241024","065-VK","2018/05/04 20:08:46","新北市三重區中正北路284號","121.480516666667","25.0686483333333","6500200","三重區"
"241026","066-VK","2018/05/04 20:08:47","新北市三重區中央南路123號","121.501543333333","25.05982","6500200","三重區"
"241002","090-VK","2018/05/04 20:08:45","新北市三重區五華街35巷64號","121.495855","25.0819566666667","6500200","三重區"
"241003","091-VK","2018/05/04 20:08:59","新北市三重區富華街18號","121.48959","25.0824883333333","6500200","三重區"
"241005","262-UM","2018/05/04 20:08:43","新北市三重區溪尾街327號","121.488501666667","25.0848333333333","6500200","三重區"
"241016","266-UM","2018/05/04 20:08:50","新北市三重區中正北路25巷2號","121.493201666667","25.0627","6500200","三重區"
"241022","267-UM","2018/05/04 20:08:44","新北市三重區新北大道一段17號","121.487971666667","25.06117","6500200","三重區"
"241018","268-UM","2018/05/04 20:08:39","新北市三重區正義北路256巷131號","121.493181666667","25.0678133333333","6500200","三重區"
"241032","269-UM","2018/05/04 20:08:37","新北市三重區捷運路55號","121.483653333333","25.0554016666667","6500200","三重區"
"241013","270-UM","2018/05/04 20:08:56","新北市三重區三和路三段139巷36號","121.49394","25.07411","6500200","三重區"
"241007","398-BY","2018/05/04 20:08:36","新北市三重區仁美街48號","121.487188333333","25.07778","6500200","三重區"
"241035","KEA-2210","2018/05/04 20:08:47","新北市三重區正義北路51號","121.497665","25.06418","6500200","三重區"
"241004","475-VK","2018/05/04 20:08:42","新北市三重區自強路四段107號","121.491576666667","25.0799383333333","6500200","三重區"
"241020","478-VK","2018/05/04 20:08:52","新北市三重區三和路三段186-2號","121.491991666667","25.07343","6500200","三重區"
"241030","480-VK","2018/05/04 20:08:42","新北市三重區集美街75巷25號","121.488026666667","25.0530583333333","6500200","三重區"
"241014","543-UM","2018/05/04 20:08:57","新北市三重區長樂街118號","121.501798333333","25.0696316666667","6500200","三重區"
"241023","545-UM","2018/05/04 20:08:41","新北市三重區頂崁街223號","121.477086666667","25.0678566666667","6500200","三重區"
"241001","547-UM","2018/05/04 20:08:48","新北市三重區溪尾街26號","121.490825","25.07631","6500200","三重區"
"241019","KEA-2593","2018/05/04 20:08:42","新北市三重區自強路二段33巷40號","121.490418333333","25.0698566666667","6500200","三重區"
"241006","AAD-863","2018/05/04 20:08:54","新北市三重區車路頭街135-1號","121.484191666667","25.0761666666667","6500200","三重區"
"241025","887-TS","2018/05/04 20:08:41","新北市三重區中正北路430號","121.4745","25.0710216666667","6500200","三重區"
"241012","941-UM","2018/05/04 20:08:51","新北市三重區仁愛街125巷40號","121.498055","25.0760466666667","6500200","三重區"
"241029","942-UM","2018/05/04 20:08:40","新北市三重區光明路32巷24號","121.491871666667","25.0587233333333","6500200","三重區"
"235039","097-UM","2018/05/04 20:08:48","新北市中和區大勇街29巷23弄1號","121.515466666667","24.9946616666667","6500300","中和區"
"235065","098-UM","2018/05/04 20:08:38","新北市中和區永和路69-4號","121.496416666667","25.0059666666667","6500300","中和區"
"235040","150-BY","2018/05/04 20:08:49","新北市中和區保健路33巷3號","121.508711666667","24.9978583333333","6500300","中和區"
"235072","301-VK","2018/05/04 20:08:50","新北市新店區薏仁坑路自強巷1號","121.497738333333","24.9576","6500300","中和區"
"235068","377-QA","2018/05/04 20:08:51","新北市中和區永和路39巷14號","121.497566666667","25.0049783333333","6500300","中和區"
"235050","4979-A6","2018/05/04 20:08:56","新北市中和區安樂路49號","121.512075","24.9933116666667","6500300","中和區"
"235069","4980-A6","2018/05/04 20:08:43","新北市中和區南山路81巷65號","121.504453333333","24.9979483333333","6500300","中和區"
"235066","911-UM","2018/05/04 20:08:50","新北市中和區水源路127巷2弄4號","121.508195","25.0042066666667","6500300","中和區"
"235051","157-BY","2018/05/04 20:08:53","新北市中和區復興路280巷15號","121.502136666667","24.991335","6500300","中和區"
"235037","AAC-213","2018/05/04 20:08:41","新北市中和區自強路56號","121.520015","24.9946533333333","6500300","中和區"
"235059","AAC-215","2018/05/04 20:08:55","新北市中和區圓通路367巷13弄31號","121.49337","24.98812","6500300","中和區"
"220068","013-TV","2018/05/04 20:08:39","新北市板橋區中山路二段318巷4號","121.480081666667","25.0191816666667","6500100","板橋區"
"220017","AAD-861","2018/05/04 20:08:35","新北市板橋區貴興路107號","121.45597","25.0026116666667","6500100","板橋區"
"247024","893-R6","2018/05/04 20:08:42","新北市蘆洲區光明路130號","121.463755","25.0883216666667","6501400","蘆洲區"
"247014","546-UM","2018/05/04 20:08:48","新北市蘆洲區中山二路265巷13號","121.47053","25.0795816666667","6501400","蘆洲區"
"247022","500-BY","2018/05/04 20:08:41","新北市蘆洲區三民路134號","121.470828333333","25.08768","6501400","蘆洲區"
"247010","341-TH","2018/05/04 20:08:48","新北市蘆洲區中山一路74巷55號","121.47995","25.0816283333333","6501400","蘆洲區"
"247012","339-TH","2018/05/04 20:08:47","新北市蘆洲區民族路266號","121.478828333333","25.0890483333333","6501400","蘆洲區"
"247004","337-TH","2018/05/04 20:08:37","新北市蘆洲區長安街285巷30號","121.456735","25.08406","6501400","蘆洲區"
"247006","336-TH","2018/05/04 20:08:46","新北市蘆洲區中山二路300巷1號","121.468456666667","25.0766683333333","6501400","蘆洲區"
"247018","057-VK","2018/05/04 20:08:50","新北市蘆洲區民族路314巷11-2號","121.478046666667","25.09058","6501400","蘆洲區"
"247016","007-UY","2018/05/04 20:08:44","新北市蘆洲區光華路174號","121.465145","25.082105","6501400","蘆洲區"
"247002","002-UY","2018/05/04 20:08:46","新北市蘆洲區永康街2巷8號","121.459333333333","25.0861866666667","6501400","蘆洲區"
"247020","001-UY","2018/05/04 20:08:34","新北市蘆洲區民權路106巷5弄22號","121.474288333333","25.0891366666667","6501400","蘆洲區"
"224010","AGQ-8101","2018/05/04 20:08:49","新北市瑞芳區輕便路278號","121.844305","25.1091266666667","6501200","瑞芳區"
"222001","KEA-2212","2018/05/04 20:08:48","新北市深坑區北深路三段189巷6弄2號","121.601063333333","25.00345","6501800","深坑區"
"251009","008-UM","2018/05/04 20:08:49","新北市淡水區英專路32號","121.44566","25.1700916666667","6501000","淡水區"
"251004","009-UM","2018/05/04 20:07:21","新北市淡水區民族路31-20號","121.461765","25.1364316666667","6501000","淡水區"
"251005","010-UM","2018/05/04 20:08:57","新北市淡水區中正東路36-1號","121.448846666667","25.1657466666667","6501000","淡水區"
"251001","011-UM","2018/05/04 20:08:23","新北市淡水區淡金路二段599號","121.446318333333","25.1919066666667","6501000","淡水區"
"251002","012-UM","2018/05/04 20:08:41","新北市淡水區中正路292號","121.437666666667","25.17207","6501000","淡水區"
"251008","181-VK","2018/05/04 20:08:51","新北市淡水區沙崙路156巷7號","121.423681666667","25.182665","6501000","淡水區"
"251010","413-VK","2018/05/04 20:08:37","新北市淡水區崁頂五路303號","121.424708333333","25.1991316666667","6501000","淡水區"
"251012","441-VK","2018/05/04 20:08:45","新北市淡水區淡金路三段345號","121.44887","25.2066483333333","6501000","淡水區"
"251006","561-UM","2018/05/04 20:08:39","新北市淡水區北新路141巷29號","121.448213333333","25.179615","6501000","淡水區"
"207003","550-UM","2018/05/04 20:08:39","新北市萬里區大鵬里萬里加投186號","121.642825","25.2156733333333","6502800","萬里區"
"207004","225-TW","2018/05/04 20:08:43","新北市萬里區北基里仁一街29號","121.682338333333","25.1766533333333","6502800","萬里區"
"252002","178-VK","2018/05/04 20:08:56","新北市三芝區中正路一段68號","121.503756666667","25.25762","6502100","三芝區"
"252001","292-VK","2018/05/04 20:08:36","新北市三芝區公正街9號","121.499746666667","25.2574633333333","6502100","三芝區"
"237012","275-BY","2018/05/04 20:08:49","新北市三峽區中華路45號","121.37253","24.930935","6500900","三峽區"
"237006","5529-G3","2018/05/04 20:08:54","新北市三峽區嘉添227-33號","121.370571666667","24.91151","6500900","三峽區"
"237005","AKY-6261","2018/05/04 20:08:50","新北市三峽區民生街1巷1-6號","121.37704","24.9369","6500900","三峽區"
"236069","105-UM","2018/05/04 20:08:50","新北市土城區中央路三段130-2號","121.434685","24.9658933333333","6501300","土城區"
"236042","107-UM","2018/05/04 20:08:55","新北市土城區學府路一段198號","121.452956666667","24.986055","6501300","土城區"
"236079","166-UM","2018/05/04 20:08:54","新北市土城區福安街2-1號","121.42028","24.9652066666667","6501300","土城區"
"236030","253-BX","2018/05/04 20:08:37","新北市土城區中央路一段126號","121.446226666667","24.9879683333333","6501300","土城區"
"236026","269-VK","2018/05/04 20:08:48","新北市土城區明德路二段102巷25號","121.445681666667","24.9849366666667","6501300","土城區"
"236014","270-VK","2018/05/04 20:08:42","新北市土城區廣興街35號","121.455185","24.99158","6501300","土城區"
"236039","271-VK","2018/05/04 20:08:55","新北市土城區延吉街353巷6號","121.464615","24.9836216666667","6501300","土城區"
"236020","401-BY","2018/05/04 20:08:46","新北市土城區延吉街54號","121.47161","24.986915","6501300","土城區"
"236059","912-UM","2018/05/04 20:08:51","新北市土城區中央路二段198號","121.44195","24.975915","6501300","土城區"
"236048","913-UM","2018/05/04 20:08:51","新北市土城區金城路三段133號","121.468078333333","24.9879833333333","6501300","土城區"
"236055","AAC-216","2018/05/04 20:08:41","新北市土城區中華路一段94號","121.444546666667","24.9873083333333","6501300","土城區"
"242034","AAC-296","2018/05/04 20:08:42","新北市新莊區中正路318巷2號","121.446203333333","25.0350183333333","6500500","新莊區"
"242058","986-R7","2018/05/04 20:08:45","新北市新莊區八德街137號","121.42381","25.0201966666667","6500500","新莊區"
"242054","751-BX","2018/05/04 20:08:51","新北市新莊區西盛街395巷9號","121.428238333333","25.01273","6500500","新莊區"
"242060","705-TV","2018/05/04 20:08:49","新北市新莊區瓊林路104-17號","121.443406666667","25.02636","6500500","新莊區"
"242027","615-BX","2018/05/04 20:08:55","新北市新莊區幸福路829號","121.444898333333","25.04891","6500500","新莊區"
"242025","613-BX","2018/05/04 20:08:57","新北市新莊區五工路68巷11號","121.458578333333","25.06391","6500500","新莊區"
"242029","612-BX","2018/05/04 20:08:47","新北市新莊區中原路261號","121.448548333333","25.05472","6500500","新莊區"
"242041","566-BX","2018/05/04 20:08:49","新北市新莊區新北大道七段245號","121.412711666667","25.0294333333333","6500500","新莊區"
"242046","497-BY","2018/05/04 20:08:44","新北市新莊區裕民街103巷19號","121.419415","25.02278","6500500","新莊區"
"242039","442-UM","2018/05/04 20:08:52","新北市新莊區龍安路495號","121.425925","25.0180516666667","6500500","新莊區"
"242050","441-UM","2018/05/04 20:08:48","新北市新莊區民安西路172巷4弄2號","121.425571666667","25.01606","6500500","新莊區"
"242056","440-UM","2018/05/04 20:08:43","新北市新莊區新莊路649巷15弄18-1號","121.445333333333","25.0315333333333","6500500","新莊區"
"242007","413-TV","2018/05/04 20:08:47","新北市新莊區思源路419巷1弄2號","121.45918","25.052375","6500500","新莊區"
"242044","400-BY","2018/05/04 20:08:44","新北市新莊區中正路895-49號","121.412125","25.02161","6500500","新莊區"
"242023","362-BY","2018/05/04 20:08:54","新北市新莊區化成路303號","121.465973333333","25.0551233333333","6500500","新莊區"
"242009","132-UY","2018/05/04 20:08:54","新北市新莊區昌盛街27號","121.453788333333","25.0499966666667","6500500","新莊區"
"242032","135-UY","2018/05/04 20:08:50","新北市新莊區中正路360號","121.443665","25.034285","6500500","新莊區"
"242048","172-VK","2018/05/04 20:08:41","新北市新莊區四維路182巷6號","121.421991666667","25.021905","6500500","新莊區"
"242011","173-VK","2018/05/04 20:08:07","新北市新莊區中和街204巷7弄5號","121.448003333333","25.05059","6500500","新莊區"
"242017","175-VK","2018/05/04 20:08:47","新北市新莊區中港路353號","121.452016666667","25.045885","6500500","新莊區"
"242005","176-VK","2018/05/04 20:08:55","新北市新莊區頭興街24號","121.464758333333","25.0535583333333","6500500","新莊區"
"242015","346-TH","2018/05/04 20:08:54","新北市新莊區中平路26巷43號","121.446901666667","25.0434383333333","6500500","新莊區"
"242021","347-TH","2018/05/04 20:08:51","新北市新莊區建中街34號","121.448991666667","25.037525","6500500","新莊區"
"242037","349-TH","2018/05/04 20:08:51","新北市新莊區建安街9巷7號","121.429241666667","25.02682","6500500","新莊區"
"242019","350-TH","2018/05/04 20:08:39","新北市新莊區博愛路1巷2號","121.456478333333","25.04277","6500500","新莊區"
"242013","351-TH","2018/05/04 20:08:43","新北市新莊區幸福路710巷8號","121.449833333333","25.0496283333333","6500500","新莊區"
"221008","489-VK","2018/05/04 20:08:34","台北市內湖區康樂街204-8號","121.621696666667","25.0762866666667","6501100","汐止區"
"221036","130-UY","2018/05/04 20:08:52","新北市汐止區新台五路二段29號","121.662875","25.0662466666667","6501100","汐止區"
"221015","131-UY","2018/05/04 20:08:46","新北市汐止區建成路23巷5號","121.664405","25.0724066666667","6501100","汐止區"
"221010","269-BY","2018/05/04 20:08:43","新北市汐止區八連路一段327號","121.639793333333","25.0870933333333","6501100","汐止區"
"221012","278-VK","2018/05/04 20:08:56","新北市汐止區汐平路二段49-2號","121.696773333333","25.0630016666667","6501100","汐止區"
"221032","280-BY","2018/05/04 20:08:46","新北市汐止區橫科路18巷33弄1號","121.617463333333","25.0497916666667","6501100","汐止區"
"221027","281-BY","2018/05/04 20:08:45","新北市汐止區中正路133號","121.659985","25.0692066666667","6501100","汐止區"
"221029","298-VK","2018/05/04 20:08:37","新北市汐止區樟樹一路123巷17號","121.641303333333","25.0645766666667","6501100","汐止區"
"221021","299-VK","2018/05/04 20:08:46","新北市汐止區莊敬街115號","121.655333333333","25.0610266666667","6501100","汐止區"
"221031","353-TW","2018/05/04 20:08:42","新北市汐止區原興路76巷2號","121.632008333333","25.0664533333333","6501100","汐止區"
"221035","622-UM","2018/05/04 20:08:36","新北市汐止區長江街79巷16號","121.657925","25.07292","6501100","汐止區"
"221025","623-UM","2018/05/04 20:08:51","新北市汐止區連興街121號","121.6538","25.062305","6501100","汐止區"
"221038","646-BX","2018/05/04 20:08:58","新北市汐止區大同路三段66-3號","121.668185","25.07725","6501100","汐止區"
"221033","647-BX","2018/05/04 20:08:37","新北市汐止區東勢街201巷104號","121.633525","25.0429316666667","6501100","汐止區"
"221002","707-TV","2018/05/04 20:08:44","新北市汐止區大同路一段219巷26號","121.63316","25.0587766666667","6501100","汐止區"
"221018","753-BX","2018/05/04 20:04:36","新北市汐止區茄福街27號","121.67257","25.0670183333333","6501100","汐止區"
"220079","145-BY","2018/05/04 20:08:50","新北市五股區成洲一路23號","121.449953333333","25.095365","6500100","板橋區"
"242002","KEA-2550","2018/05/04 20:08:50","新北市新莊區中正路55-4號","121.461843333333","25.039755","6500500","新莊區"
"220101","245-BX","2018/05/04 20:08:50","新北市板橋區莒光路171巷3弄15號","121.474658333333","25.0246383333333","6500100","板橋區"
"220103","257-TC","2018/05/04 20:08:42","新北市板橋區陽明街29巷37號","121.463551666667","25.0225733333333","6500100","板橋區"
"220071","283-VK","2018/05/04 20:08:52","新北市板橋區信義路28-6號","121.45714","24.9950866666667","6500100","板橋區"
"220053","285-VK","2018/05/04 20:08:47","新北市板橋區中山路二段303號","121.47872","25.0183566666667","6500100","板橋區"
"220083","286-VK","2018/05/04 20:08:55","新北市板橋區僑中二街102巷14號","121.445538333333","25.0084833333333","6500100","板橋區"
"220081","287-VK","2018/05/04 20:08:47","新北市板橋區僑中一街124巷18弄18號","121.446846666667","25.0136266666667","6500100","板橋區"
"220090","288-VK","2018/05/04 20:08:43","新北市板橋區幸福路32巷59號","121.460336666667","25.0221433333333","6500100","板橋區"
"220061","293-UM","2018/05/04 20:08:42","新北市板橋區觀光街79巷1號","121.469561666667","25.016835","6500100","板橋區"
"220092","307-R5","2018/05/04 20:08:57","新北市板橋區文化路一段45巷1弄4號","121.460466666667","25.0137233333333","6500100","板橋區"
"220098","317-R6","2018/05/04 20:08:54","新北市板橋區新海路96號","121.461648333333","25.02226","6500100","板橋區"
"220064","486-VK","2018/05/04 20:08:52","新北市板橋區長安街331巷21號","121.473761666667","25.012455","6500100","板橋區"
"220088","491-VK","2018/05/04 20:08:49","新北市板橋區民治街55號","121.479411666667","25.0335116666667","6500100","板橋區"
"220055","630-UY","2018/05/04 20:08:54","新北市板橋區仁愛路84號","121.460905","24.9996066666667","6500100","板橋區"
"220093","689-BX","2018/05/04 20:08:51","新北市板橋區長江路一段371號","121.461638333333","25.0306033333333","6500100","板橋區"
"220102","KEA-2699","2018/05/04 20:08:50","新北市板橋區懷德街78巷21號","121.477846666667","25.03115","6500100","板橋區"
"220067","829-TW","2018/05/04 20:08:48","新北市板橋區中山路一段214號","121.470205","25.0139716666667","6500100","板橋區"
"220089","833-TW","2018/05/04 20:08:53","新北市板橋區新海路396號","121.458806666667","25.0265833333333","6500100","板橋區"
"220074","895-R6","2018/05/04 20:08:48","新北市板橋區館前西路120號","121.456783333333","25.0077183333333","6500100","板橋區"
"220073","985-R7","2018/05/04 20:08:48","新北市新莊區瓊泰路63巷19號","121.442465","25.0285366666667","6500100","板橋區"
"220097","AAC-210","2018/05/04 20:08:38","新北市板橋區光正街23巷8號","121.462135","25.0169683333333","6500100","板橋區"
"220070","AAC-253","2018/05/04 20:08:49","新北市板橋區四川路二段245巷3號","121.450566666667","24.99343","6500100","板橋區"
