"lineid","car","time","location","longitude","latitude","cityid","cityname"
"234050","149-BY","2018/05/04 20:28:51","新北市永和區新生路118巷1弄9號","121.506766666667","25.0145283333333","6500400","永和區"
"234081","298-R6","2018/05/04 20:28:53","新北市永和區永貞路70巷2號","121.520496666667","25.00525","6500400","永和區"
"234064","337-UY","2018/05/04 20:28:49","新北市永和區秀朗路一段139巷14號","121.516938333333","25.00494","6500400","永和區"
"234086","338-UY","2018/05/04 20:28:58","新北市永和區永和路二段332號","121.516238333333","25.0165516666667","6500400","永和區"
"234070","552-UM","2018/05/04 20:28:49","新北市永和區永貞路70巷24號","121.519626666667","25.0058866666667","6500400","永和區"
"234017","745-BX","2018/05/04 20:28:51","新北市永和區仁愛路68號","121.513201666667","25.0132583333333","6500400","永和區"
"234030","746-BX","2018/05/04 20:28:52","新北市中和區立人街69巷7弄2號","121.520108333333","24.9935566666667","6500400","永和區"
"234054","KEA-2590","2018/05/04 20:28:41","新北市永和區環河東路一段42號","121.51878","25.0170083333333","6500400","永和區"
"234061","AAD-866","2018/05/04 20:28:39","新北市永和區安樂路194巷17弄12號","121.51637","25.0013716666667","6500400","永和區"
"234042","862-TW","2018/05/04 20:28:49","新北市永和區安樂路270號","121.514595","25.0040766666667","6500400","永和區"
"249001","173-UM","2018/05/04 20:28:49","新北市八里區下罟子5-11號","121.386868333333","25.1423383333333","6502300","八里區"
"249004","303-UY","2018/05/04 20:28:54","新北市八里區中山路一段147號","121.412871666667","25.15904","6502300","八里區"
"249002","305-UY","2018/05/04 20:28:47","新北市八里區龍米路二段125巷2號","121.446113333333","25.145125","6502300","八里區"
"249003","593-UM","2018/05/04 20:28:46","新北市八里區舊城路21號","121.399683333333","25.146955","6502300","八里區"
"248002","678-BX","2018/05/04 20:28:42","新北市五股區成泰路三段83號","121.444048333333","25.0898616666667","6501500","五股區"
"234023","9380-KE","2018/05/04 20:28:58","新北市永和區博愛街32巷13號","121.518851666667","25.0153483333333","6500400","永和區"
"234077","969-R7","2018/05/04 20:28:57","新北市中和區景德街1號","121.519203333333","24.9915883333333","6500400","永和區"
"234074","AAC-211","2018/05/04 20:28:41","新北市永和區福和路8巷3號","121.524993333333","25.0090883333333","6500400","永和區"
"234067","AAC-212","2018/05/04 20:28:43","新北市永和區保平路292巷4號","121.507863333333","25.0047883333333","6500400","永和區"
"243009","297-R6","2018/05/04 20:28:43","新北市泰山區忠孝街16巷8號","121.428321666667","25.0650433333333","6501600","泰山區"
"243016","380-SR","2018/05/04 20:28:39","新北市泰山區新生路33號","121.427571666667","25.0451966666667","6501600","泰山區"
"243015","421-VK","2018/05/04 20:28:45","新北市泰山區泰林路二段65號","121.43499","25.05798","6501600","泰山區"
"243011","KEA-2215","2018/05/04 20:28:50","新北市泰山區明志路三段114號","121.424953333333","25.04062","6501600","泰山區"
"243010","KEA-2216","2018/05/04 20:28:43","新北市泰山區明志路二段255巷3弄3號","121.427935","25.047635","6501600","泰山區"
"243012","646-TV","2018/05/04 20:28:39","新北市泰山區忠孝街14號","121.427665","25.064895","6501600","泰山區"
"243014","680-BX","2018/05/04 20:28:50","新北市泰山區泰林路二段2-10號","121.419933333333","25.0649633333333","6501600","泰山區"
"222003","436-BY","2018/05/04 20:28:44","新北市深坑區深坑街27號","121.615955","25.0023183333333","6501800","深坑區"
"222002","659-BX","2018/05/04 20:28:50","新北市深坑區萬福路49號","121.59967","25.0068866666667","6501800","深坑區"
"231059","046-UY","2018/05/04 20:28:45","新北市新店區安康路二段338號","121.503656666667","24.95782","6500600","新店區"
"231040","047-UY","2018/05/04 20:28:39","新北市新店區中正路322號","121.537063333333","24.974745","6500600","新店區"
"231044","106-UY","2018/05/04 20:28:46","新北市新店區建國路148號","121.53878","24.9790716666667","6500600","新店區"
"231053","108-UY","2018/05/04 20:28:36","新北市新店區松林路38號","121.546308333333","24.9102566666667","6500600","新店區"
"231048","187-VK","2018/05/04 20:28:52","新北市新店區寶元路一段15巷11號","121.542006666667","24.9872066666667","6500600","新店區"
"231054","KEA-2219","2018/05/04 20:28:48","新北市新店區檳榔路109號","121.54444","24.9615416666667","6500600","新店區"
"231057","256-BX","2018/05/04 20:28:52","新北市新店區花園五路二段1號","121.55355","24.93422","6500600","新店區"
"231042","268-BY","2018/05/04 20:28:46","新北市新店區寶橋路207號","121.548558333333","24.9770533333333","6500600","新店區"
"231051","278-BY","2018/05/04 20:28:50","新北市新店區中央六街19號","121.529703333333","24.97484","6500600","新店區"
"231050","AAD-862","2018/05/04 20:28:42","新北市新店區建興街9巷1號","121.539946666667","24.97628","6500600","新店區"
"231058","3713-VJ","2018/05/04 20:28:39","新北市新店區自由街27號","121.535015","24.9743716666667","6500600","新店區"
"231066","4716-K9","2018/05/04 20:28:36","新北市新店區安民街339號","121.516906666667","24.9748816666667","6500600","新店區"
"231056","4715-K9","2018/05/04 20:28:48","新北市新店區中正路338號","121.536751666667","24.9752183333333","6500600","新店區"
"231065","512-UM","2018/05/04 20:28:43","新北市新店區安祥路102巷30弄13號","121.484633333333","24.963555","6500600","新店區"
"231049","513-UM","2018/05/04 20:28:52","新北市新店區華潭街52號","121.529093333333","24.9551633333333","6500600","新店區"
"231063","616-UM","2018/05/04 20:28:47","新北市新店區安康路三段2-1號","121.493423333333","24.9534766666667","6500600","新店區"
"231045","617-UM","2018/05/04 20:28:56","新北市新店區長春路21巷1號","121.54935","24.9581633333333","6500600","新店區"
"231041","618-UM","2018/05/04 20:28:53","新北市新店區民權路182號","121.534405","24.982955","6500600","新店區"
"231061","619-UM","2018/05/04 20:28:47","新北市新店區安興路137號","121.516456666667","24.979315","6500600","新店區"
"231068","718-UY","2018/05/04 20:28:48","新北市新店區中興路三段223號","121.542988333333","24.9828966666667","6500600","新店區"
"231064","719-UM","2018/05/04 20:28:56","新北市新店區永安街74巷17號","121.519191666667","24.985905","6500600","新店區"
"231062","720-UM","2018/05/04 20:28:44","新北市新店區安泰路7巷16號","121.485658333333","24.95098","6500600","新店區"
"231060","897-TW","2018/05/04 20:28:48","新北市新店區錦秀路26號","121.479276666667","24.94418","6500600","新店區"
"231043","899-TW","2018/05/04 20:28:50","新北市新店區民族路65號","121.539708333333","24.97831","6500600","新店區"
"231055","AKT-0513","2018/05/04 20:28:49","新北市新店區安忠路205巷8號","121.510005","24.95537","6500600","新店區"
"241011","013-R5","2018/05/04 20:28:55","新北市三重區龍門路34號","121.495813333333","25.0722366666667","6500200","三重區"
"241028","022-UY","2018/05/04 20:28:39","新北市三重區光興街89號","121.49742","25.05998","6500200","三重區"
"241008","059-VK","2018/05/04 20:28:47","新北市三重區永福街249號","121.481135","25.0743183333333","6500200","三重區"
"241009","060-VK","2018/05/04 20:28:50","新北市三重區永福街58巷1弄4號","121.481198333333","25.0779516666667","6500200","三重區"
"241031","061-VK","2018/05/04 20:28:44","新北市三重區三寧街18號","121.489415","25.0598733333333","6500200","三重區"
"241015","062-VK","2018/05/04 20:28:42","新北市三重區長元街2-2號","121.498736666667","25.0658366666667","6500200","三重區"
"241017","063-VK","2018/05/04 20:28:50","新北市三重區自強路一段199號","121.491718333333","25.0683966666667","6500200","三重區"
"241024","065-VK","2018/05/04 20:28:45","新北市三重區忠孝路三段15巷43號","121.480145","25.0682166666667","6500200","三重區"
"241026","066-VK","2018/05/04 20:28:47","新北市三重區和平街32號","121.501651666667","25.062685","6500200","三重區"
"241002","090-VK","2018/05/04 20:28:45","新北市三重區仁義街211巷13號","121.497391666667","25.0821266666667","6500200","三重區"
"241003","091-VK","2018/05/04 20:28:59","新北市三重區富華街155號","121.493183333333","25.084905","6500200","三重區"
"241005","262-UM","2018/05/04 20:28:43","新北市三重區碧華街354號","121.490566666667","25.0840616666667","6500200","三重區"
"241016","266-UM","2018/05/04 20:28:50","新北市三重區信義西街104號","121.496215","25.06444","6500200","三重區"
"241022","267-UM","2018/05/04 20:28:44","新北市三重區重陽路二段19巷3號","121.487331666667","25.06238","6500200","三重區"
"241018","268-UM","2018/05/04 20:28:59","新北市三重區正義北路222號","121.496155","25.0679166666667","6500200","三重區"
"241032","269-UM","2018/05/04 20:28:57","新北市三重區重陽路一段120巷35號","121.485176666667","25.060255","6500200","三重區"
"241013","270-UM","2018/05/04 20:28:56","新北市三重區溪尾街5巷26號","121.492531666667","25.074655","6500200","三重區"
"241007","398-BY","2018/05/04 20:28:36","新北市三重區自強路四段46號","121.489495","25.0776066666667","6500200","三重區"
"241035","KEA-2210","2018/05/04 20:28:47","新北市三重區重新路二段42號","121.498663333333","25.0624816666667","6500200","三重區"
"241004","475-VK","2018/05/04 20:28:42","新北市三重區溪尾街223號","121.488308333333","25.08112","6500200","三重區"
"241020","478-VK","2018/05/04 20:28:52","新北市三重區三和路三段140號","121.493483333333","25.0723683333333","6500200","三重區"
"241030","480-VK","2018/05/04 20:28:42","新北市三重區成功路75號","121.488775","25.0510166666667","6500200","三重區"
"241014","543-UM","2018/05/04 20:28:57","新北市三重區長壽街120巷23號","121.502321666667","25.069255","6500200","三重區"
"241023","545-UM","2018/05/04 20:28:41","新北市三重區自由街17巷16號","121.479851666667","25.066755","6500200","三重區"
"241001","547-UM","2018/05/04 20:28:48","新北市三重區福隆路8號","121.489881666667","25.0773166666667","6500200","三重區"
"241019","KEA-2593","2018/05/04 20:28:42","新北市三重區重陽路四段83號","121.492598333333","25.0710533333333","6500200","三重區"
"241025","887-TS","2018/05/04 20:28:41","新北市三重區頂崁街210巷31號","121.47569","25.068115","6500200","三重區"
"241012","941-UM","2018/05/04 20:28:51","新北市三重區龍濱路287號","121.501091666667","25.07375","6500200","三重區"
"241029","942-UM","2018/05/04 20:28:40","新北市三重區集美街235號","121.492123333333","25.0552083333333","6500200","三重區"
"235039","097-UM","2018/05/04 20:28:48","新北市中和區大勇街27巷18號","121.516593333333","24.9939216666667","6500300","中和區"
"235072","301-VK","2018/05/04 20:28:50","新北市中和區中正路571巷2弄1號","121.486585","24.9936883333333","6500300","中和區"
"235050","4979-A6","2018/05/04 20:28:56","新北市中和區景安路80號","121.505735","24.99628","6500300","中和區"
"235069","4980-A6","2018/05/04 20:28:52","新北市中和區中正路432巷1號","121.490905","24.9953833333333","6500300","中和區"
"235059","AAC-215","2018/05/04 20:28:55","新北市中和區員山路66-3號","121.482163333333","24.9914116666667","6500300","中和區"
"247024","893-R6","2018/05/04 20:28:41","新北市蘆洲區長興路50巷41號","121.464861666667","25.0848683333333","6501400","蘆洲區"
"247014","546-UM","2018/05/04 20:28:48","新北市蘆洲區中山二路141號","121.471738333333","25.08155","6501400","蘆洲區"
"247022","500-BY","2018/05/04 20:28:41","新北市蘆洲區中正路216號","121.466453333333","25.088625","6501400","蘆洲區"
"247010","341-TH","2018/05/04 20:28:48","新北市蘆洲區民族路61號","121.479036666667","25.0857083333333","6501400","蘆洲區"
"247012","339-TH","2018/05/04 20:28:47","新北市蘆洲區復興路195號","121.479353333333","25.0894633333333","6501400","蘆洲區"
"247004","337-TH","2018/05/04 20:28:37","新北市蘆洲區長安街297號","121.458068333333","25.0848733333333","6501400","蘆洲區"
"247006","336-TH","2018/05/04 20:28:46","新北市蘆洲區光華路175巷56號","121.465665","25.0808683333333","6501400","蘆洲區"
"247018","057-VK","2018/05/04 20:28:54","新北市蘆洲區民族路406號","121.474711666667","25.0914533333333","6501400","蘆洲區"
"247008","056-VK","2018/05/04 20:28:40","新北市蘆洲區重陽二街20號","121.482381666667","25.0851566666667","6501400","蘆洲區"
"247016","007-UY","2018/05/04 20:28:42","新北市蘆洲區光華路28號","121.469455","25.083345","6501400","蘆洲區"
"247002","002-UY","2018/05/04 20:28:46","新北市蘆洲區環堤大道128-1號","121.455631666667","25.087685","6501400","蘆洲區"
"247020","001-UY","2018/05/04 20:28:54","新北市蘆洲區仁愛街92號","121.470431666667","25.094595","6501400","蘆洲區"
"222001","KEA-2212","2018/05/04 20:28:48","新北市深坑區北深路三段329號","121.597238333333","25.005","6501800","深坑區"
"251009","008-UM","2018/05/04 20:28:38","新北市淡水區中正東路二段48巷20號","121.457465","25.1583933333333","6501000","淡水區"
"251001","011-UM","2018/05/04 20:28:52","新北市淡水區新市一路三段180號","121.448113333333","25.182945","6501000","淡水區"
"251002","012-UM","2018/05/04 20:28:41","新北市淡水區中正路25號","121.442556666667","25.169625","6501000","淡水區"
"251008","181-VK","2018/05/04 20:28:51","新北市淡水區淡海路189巷10號","121.4196","25.1844766666667","6501000","淡水區"
"251010","413-VK","2018/05/04 20:28:37","新北市淡水區沙崙路181巷2號","121.424408333333","25.1839966666667","6501000","淡水區"
"251012","441-VK","2018/05/04 20:28:45","新北市淡水區興仁路92號","121.452036666667","25.2178366666667","6501000","淡水區"
"251006","561-UM","2018/05/04 20:28:39","新北市淡水區北投子25號","121.461156666667","25.1844766666667","6501000","淡水區"
"251003","766-UM","2018/05/04 20:28:40","新北市淡水區新生街108巷1-2號","121.440253333333","25.174775","6501000","淡水區"
"252002","178-VK","2018/05/04 20:28:56","新北市三芝區淡金路二段47-1號","121.503646666667","25.2604883333333","6502100","三芝區"
"252001","292-VK","2018/05/04 20:28:56","新北市三芝區中山路一段14號","121.500825","25.2582366666667","6502100","三芝區"
"242034","AAC-296","2018/05/04 20:28:42","新北市新莊區中正路222號","121.448706666667","25.0356116666667","6500500","新莊區"
"242058","986-R7","2018/05/04 20:28:45","新北市新莊區四維路177號","121.422168333333","25.02131","6500500","新莊區"
"242054","751-BX","2018/05/04 20:28:51","新北市新莊區西盛街362巷14號","121.427261666667","25.0137283333333","6500500","新莊區"
"242060","705-TV","2018/05/04 20:28:49","新北市新莊區民安路343號","121.430756666667","25.0229483333333","6500500","新莊區"
"242027","615-BX","2018/05/04 20:28:35","新北市新莊區幸福路6號","121.459318333333","25.049545","6500500","新莊區"
"242025","613-BX","2018/05/04 20:28:57","新北市新莊區五工二路50巷2號","121.461673333333","25.0659983333333","6500500","新莊區"
"242029","612-BX","2018/05/04 20:28:47","新北市新莊區昌隆街15號","121.454213333333","25.0509266666667","6500500","新莊區"
"242041","566-BX","2018/05/04 20:28:49","新北市新莊區中正路694巷12號","121.418225","25.0285083333333","6500500","新莊區"
"242046","497-BY","2018/05/04 20:28:55","新北市新莊區中正路新雅巷11號","121.418158333333","25.0254383333333","6500500","新莊區"
"242039","442-UM","2018/05/04 20:28:52","新北市新莊區民安路312號","121.42847","25.0218883333333","6500500","新莊區"
"242050","441-UM","2018/05/04 20:28:45","新北市新莊區民安西路189巷5號","121.426433333333","25.015455","6500500","新莊區"
"242056","440-UM","2018/05/04 20:28:54","新北市新莊區新莊路751巷72號","121.442671666667","25.031025","6500500","新莊區"
"242007","413-TV","2018/05/04 20:28:47","新北市新莊區思源路263號","121.45973","25.0475566666667","6500500","新莊區"
"242044","400-BY","2018/05/04 20:28:52","新北市新莊區龍安路9-1號","121.414556666667","25.02263","6500500","新莊區"
"242023","362-BY","2018/05/04 20:28:53","新北市新莊區化成路317號","121.465966666667","25.0557033333333","6500500","新莊區"
"242009","132-UY","2018/05/04 20:28:43","新北市新莊區昌盛街65巷2弄12號","121.455483333333","25.0502766666667","6500500","新莊區"
"242032","135-UY","2018/05/04 20:28:50","新北市新莊區三和路5-1號","121.440565","25.0351966666667","6500500","新莊區"
"242048","172-VK","2018/05/04 20:28:41","新北市新莊區中正路867-4號","121.41841","25.02738","6500500","新莊區"
"242011","173-VK","2018/05/04 20:28:47","新北市新莊區中義街18號","121.450936666667","25.05125","6500500","新莊區"
"242017","175-VK","2018/05/04 20:28:47","新北市新莊區中港三街35號","121.450006666667","25.0463183333333","6500500","新莊區"
"242005","176-VK","2018/05/04 20:28:54","新北市新莊區化成路371巷3號","121.464605","25.0570733333333","6500500","新莊區"
"242015","346-TH","2018/05/04 20:28:54","新北市新莊區中平路82巷9號","121.445505","25.0449833333333","6500500","新莊區"
"242021","347-TH","2018/05/04 20:28:51","新北市新莊區公園路38號","121.44889","25.03923","6500500","新莊區"
"242037","349-TH","2018/05/04 20:28:56","新北市新莊區後港一路53號","121.426138333333","25.02646","6500500","新莊區"
"242019","350-TH","2018/05/04 20:28:56","新北市新莊區銘德街91號","121.456058333333","25.0434033333333","6500500","新莊區"
"242013","351-TH","2018/05/04 20:28:43","新北市新莊區中和街191巷35號","121.447638333333","25.05121","6500500","新莊區"
"221008","489-VK","2018/05/04 20:28:54","新北市汐止區康寧街543號","121.63437","25.0691133333333","6501100","汐止區"
"221036","130-UY","2018/05/04 20:28:52","新北市汐止區忠孝東路212號","121.662026666667","25.0665433333333","6501100","汐止區"
"221015","131-UY","2018/05/04 20:28:46","新北市汐止區建成路160巷14號","121.6618","25.07376","6501100","汐止區"
"221010","269-BY","2018/05/04 20:28:43","新北市汐止區八連路一段317號","121.639636666667","25.085935","6501100","汐止區"
"221012","278-VK","2018/05/04 20:28:56","新北市汐止區大同路三段241號","121.672691666667","25.076705","6501100","汐止區"
"221032","280-BY","2018/05/04 20:28:46","新北市汐止區民權街二段40號","121.619391666667","25.0495083333333","6501100","汐止區"
"221027","281-BY","2018/05/04 20:28:45","新北市汐止區中正路226號","121.658103333333","25.0688883333333","6501100","汐止區"
"221029","298-VK","2018/05/04 20:28:37","新北市汐止區樟樹一路129巷34弄2號","121.640561666667","25.0652916666667","6501100","汐止區"
"221021","299-VK","2018/05/04 20:28:46","新北市汐止區水源路一段280號","121.654203333333","25.0584","6501100","汐止區"
"221031","353-TW","2018/05/04 20:28:42","新北市汐止區福德一路237號","121.634131666667","25.0646516666667","6501100","汐止區"
"221035","622-UM","2018/05/04 20:28:56","新北市汐止區長江街101-5號","121.658695","25.0731433333333","6501100","汐止區"
"221025","623-UM","2018/05/04 20:28:51","新北市汐止區水源路二段88巷1弄1號","121.656375","25.0557983333333","6501100","汐止區"
"221038","646-BX","2018/05/04 20:28:58","新北市汐止區忠孝東路200-5號","121.661541666667","25.0660616666667","6501100","汐止區"
"221033","647-BX","2018/05/04 20:28:37","新北市汐止區林森街72號","121.623288333333","25.040805","6501100","汐止區"
"221002","707-TV","2018/05/04 20:28:44","新北市汐止區福德三路61號","121.637273333333","25.0693016666667","6501100","汐止區"
"221018","753-BX","2018/05/04 20:28:36","新北市汐止區茄苳路225巷3號","121.671231666667","25.0690533333333","6501100","汐止區"
"242002","KEA-2550","2018/05/04 20:28:50","新北市新莊區中正路69號","121.4614","25.03954","6500500","新莊區"
"220103","257-TC","2018/05/04 20:28:42","新北市板橋區陽明街279巷2-1號","121.461891666667","25.026135","6500100","板橋區"
"220083","286-VK","2018/05/04 20:28:55","新北市板橋區僑中二街116巷40號","121.444088333333","25.0068116666667","6500100","板橋區"
"220061","293-UM","2018/05/04 20:28:42","新北市板橋區四川路一段327號","121.45858","25.0003916666667","6500100","板橋區"
"220102","KEA-2699","2018/05/04 20:28:50","新北市板橋區文化路一段322號","121.467613333333","25.0222233333333","6500100","板橋區"
"220089","833-TW","2018/05/04 20:28:48","新北市板橋區四維路270號","121.463323333333","25.0286166666667","6500100","板橋區"
"220070","AAC-253","2018/05/04 20:28:29","新北市五股區中直路21號","121.421836666667","25.1117083333333","6500100","板橋區"
