"lineid","car","time","location","longitude","latitude","cityid","cityname"
"234030","746-BX","2018/05/04 20:38:52","新北市新店區柴埕路52巷1-2號","121.512368333333","24.9645783333333","6500400","永和區"
"249001","173-UM","2018/05/04 20:38:49","新北市八里區中山路三段363號","121.375255","25.1384216666667","6502300","八里區"
"249004","303-UY","2018/05/04 20:38:54","新北市八里區中山路一段63號","121.41837","25.1593833333333","6502300","八里區"
"249002","305-UY","2018/05/04 20:38:47","新北市八里區中華路二段31-1號","121.412303333333","25.15351","6502300","八里區"
"234023","9380-KE","2018/05/04 20:38:58","新北市永和區竹林路25巷9弄2號","121.51761","25.0148416666667","6500400","永和區"
"234077","969-R7","2018/05/04 20:38:37","新北市新店區柴埕路59號","121.513555","24.9649466666667","6500400","永和區"
"234074","AAC-211","2018/05/04 20:38:41","新北市永和區竹林路119巷22弄2號","121.521213333333","25.0115416666667","6500400","永和區"
"243016","380-SR","2018/05/04 20:38:39","新北市泰山區民權街101號","121.42839","25.049395","6501600","泰山區"
"243011","KEA-2215","2018/05/04 20:38:50","新北市泰山區明志路二段100號","121.428178333333","25.0519066666667","6501600","泰山區"
"243010","KEA-2216","2018/05/04 20:38:43","新北市泰山區泰林路三段92號","121.41758","25.0655366666667","6501600","泰山區"
"243012","646-TV","2018/05/04 20:38:39","新北市泰山區泰林路三段630號","121.406593333333","25.0726266666667","6501600","泰山區"
"222003","436-BY","2018/05/04 20:38:25","新北市深坑區阿柔洋3號","121.612851666667","25.00021","6501800","深坑區"
"222002","659-BX","2018/05/04 20:38:50","新北市深坑區萬福路47號","121.599543333333","25.00686","6501800","深坑區"
"231059","046-UY","2018/05/04 20:38:45","新北市新店區僑信路104號","121.500038333333","24.9472766666667","6500600","新店區"
"231040","047-UY","2018/05/04 20:38:39","新北市新店區中正路272號","121.538975","24.9736633333333","6500600","新店區"
"231044","106-UY","2018/05/04 20:38:46","新北市新店區建國路293巷1號","121.536701666667","24.9862066666667","6500600","新店區"
"231053","108-UY","2018/05/04 20:38:57","新北市新店區廣興路7-10號","121.545841666667","24.9117916666667","6500600","新店區"
"231048","187-VK","2018/05/04 20:38:52","新北市新店區寶慶街35巷1弄5號","121.543348333333","24.9865733333333","6500600","新店區"
"231054","KEA-2219","2018/05/04 20:38:48","新北市新店區行政街30號","121.542863333333","24.9655566666667","6500600","新店區"
"231057","256-BX","2018/05/04 20:38:52","新北市新店區花園二路一段9-6號","121.556246666667","24.9329016666667","6500600","新店區"
"231042","268-BY","2018/05/04 20:38:46","新北市新店區寶橋路238號","121.551581666667","24.9790166666667","6500600","新店區"
"231051","278-BY","2018/05/04 20:38:50","新北市新店區中央五街31號","121.528825","24.9748183333333","6500600","新店區"
"231050","AAD-862","2018/05/04 20:38:42","新北市新店區中正路263巷2號","121.538468333333","24.9734766666667","6500600","新店區"
"231058","3713-VJ","2018/05/04 20:38:40","新北市新店區平等街1號","121.5371","24.9743083333333","6500600","新店區"
"231066","4716-K9","2018/05/04 20:38:56","新北市新店區安民街341號","121.51702","24.975","6500600","新店區"
"231056","4715-K9","2018/05/04 20:38:48","新北市新店區中央路192號","121.530931666667","24.9747683333333","6500600","新店區"
"231065","512-UM","2018/05/04 20:38:43","新北市新店區安祥路102巷137號","121.486888333333","24.9646083333333","6500600","新店區"
"231049","513-UM","2018/05/04 20:38:52","新北市新店區永業路81巷1弄1-1號","121.5296","24.9493883333333","6500600","新店區"
"231063","616-UM","2018/05/04 20:38:47","新北市新店區玫瑰路4-1號","121.49357","24.95138","6500600","新店區"
"231045","617-UM","2018/05/04 20:38:56","新北市新店區長春路22號","121.549878333333","24.9574466666667","6500600","新店區"
"231041","618-UM","2018/05/04 20:38:53","新北市新店區中正路543-4號","121.533725","24.9874633333333","6500600","新店區"
"231061","619-UM","2018/05/04 20:38:47","新北市新店區新和街35號","121.519218333333","24.9849033333333","6500600","新店區"
"231068","718-UY","2018/05/04 20:38:48","新北市新店區寶慶街35巷1弄1號","121.543246666667","24.9863916666667","6500600","新店區"
"231064","719-UM","2018/05/04 20:38:56","新北市新店區安和路三段120巷20號","121.517931666667","24.9858483333333","6500600","新店區"
"231062","720-UM","2018/05/04 20:38:44","新北市新店區安泰路60巷55弄39號","121.48451","24.9455866666667","6500600","新店區"
"231060","897-TW","2018/05/04 20:38:48","新北市新店區安康路三段740號","121.473796666667","24.9420016666667","6500600","新店區"
"231043","899-TW","2018/05/04 20:38:50","新北市新店區博愛街13巷23號","121.540296666667","24.9741083333333","6500600","新店區"
"241011","013-R5","2018/05/04 20:38:55","新北市三重區龍濱路221號","121.501905","25.0720266666667","6500200","三重區"
"241028","022-UY","2018/05/04 20:38:39","新北市三重區光興街91號","121.497403333333","25.0598816666667","6500200","三重區"
"241008","059-VK","2018/05/04 20:38:47","新北市三重區下竹圍街87號","121.481138333333","25.0749766666667","6500200","三重區"
"241009","060-VK","2018/05/04 20:38:50","新北市三重區碧華街57號","121.48476","25.0813433333333","6500200","三重區"
"241031","061-VK","2018/05/04 20:38:43","新北市三重區重陽路一段113巷1弄42號","121.488161666667","25.058755","6500200","三重區"
"241015","062-VK","2018/05/04 20:38:43","新北市三重區文化北路103號","121.497875","25.06844","6500200","三重區"
"241017","063-VK","2018/05/04 20:38:50","新北市三重區大同北路271巷1號","121.490935","25.067305","6500200","三重區"
"241024","065-VK","2018/05/04 20:38:46","新北市三重區中正北路253號","121.47557","25.07083","6500200","三重區"
"241026","066-VK","2018/05/04 20:38:47","新北市三重區文化南路8號","121.500086666667","25.0624366666667","6500200","三重區"
"241002","090-VK","2018/05/04 20:38:45","新北市三重區仁義街167巷15號","121.497641666667","25.0817366666667","6500200","三重區"
"241003","091-VK","2018/05/04 20:38:38","新北市三重區五華街141巷58號","121.49356","25.0867833333333","6500200","三重區"
"241005","262-UM","2018/05/04 20:38:43","新北市三重區碧華街401號","121.493173333333","25.0857533333333","6500200","三重區"
"241016","266-UM","2018/05/04 20:38:50","新北市三重區自強路一段147號","121.494221666667","25.0666916666667","6500200","三重區"
"241022","267-UM","2018/05/04 20:38:44","新北市三重區新北大道一段46巷18弄3號","121.488138333333","25.0620383333333","6500200","三重區"
"241018","268-UM","2018/05/04 20:38:39","新北市三重區重陽路四段1號","121.491035","25.0688066666667","6500200","三重區"
"241032","269-UM","2018/05/04 20:38:37","新北市三重區重陽路一段120巷35號","121.485098333333","25.060195","6500200","三重區"
"241013","270-UM","2018/05/04 20:38:55","新北市三重區三和路四段83號","121.489251666667","25.0754466666667","6500200","三重區"
"241007","398-BY","2018/05/04 20:38:56","新北市三重區自強路四段28號","121.488873333333","25.0767383333333","6500200","三重區"
"241035","KEA-2210","2018/05/04 20:38:53","新北市三重區正義北路275-1號","121.49516","25.0701466666667","6500200","三重區"
"241004","475-VK","2018/05/04 20:38:44","新北市三重區仁愛街409號","121.490911666667","25.0811533333333","6500200","三重區"
"241020","478-VK","2018/05/04 20:38:52","新北市三重區忠孝路一段101號","121.489565","25.0720716666667","6500200","三重區"
"241030","480-VK","2018/05/04 20:38:42","新北市三重區成功路73巷12號","121.489403333333","25.05186","6500200","三重區"
"241014","543-UM","2018/05/04 20:38:36","新北市三重區長興街37號","121.500538333333","25.0686516666667","6500200","三重區"
"241023","545-UM","2018/05/04 20:38:46","新北市三重區自由街32號","121.479301666667","25.0667166666667","6500200","三重區"
"241001","547-UM","2018/05/04 20:38:48","新北市三重區自強路三段110巷37號","121.485966666667","25.07461","6500200","三重區"
"241019","KEA-2593","2018/05/04 20:38:42","新北市三重區安慶街四段66-2號","121.491678333333","25.0705466666667","6500200","三重區"
"241025","887-TS","2018/05/04 20:38:41","新北市三重區頂崁街210巷28弄12號","121.475621666667","25.0673","6500200","三重區"
"241012","941-UM","2018/05/04 20:38:51","新北市三重區秀江街5號","121.50257","25.0730966666667","6500200","三重區"
"241029","942-UM","2018/05/04 20:38:40","新北市三重區集美街126巷27號","121.490096666667","25.0537483333333","6500200","三重區"
"235050","4979-A6","2018/05/04 20:38:56","新北市中和區景平路385巷9弄20號","121.501886666667","24.99409","6500300","中和區"
"235069","4980-A6","2018/05/04 20:38:43","新北市中和區中正路649號","121.485215","24.9958816666667","6500300","中和區"
"247024","893-R6","2018/05/04 20:38:41","新北市蘆洲區長樂路81號","121.46259","25.086965","6501400","蘆洲區"
"247014","546-UM","2018/05/04 20:38:48","新北市蘆洲區中山一路214號","121.473061666667","25.080655","6501400","蘆洲區"
"247022","500-BY","2018/05/04 20:38:42","新北市蘆洲區中正路263巷2號","121.4674","25.0873966666667","6501400","蘆洲區"
"247010","341-TH","2018/05/04 20:38:48","新北市蘆洲區中山一路138號","121.476365","25.0817866666667","6501400","蘆洲區"
"247012","339-TH","2018/05/04 20:38:47","新北市蘆洲區集賢路224巷46弄30-1號","121.481483333333","25.0875633333333","6501400","蘆洲區"
"247004","337-TH","2018/05/04 20:38:57","新北市蘆洲區長安街297號","121.458033333333","25.0848433333333","6501400","蘆洲區"
"247006","336-TH","2018/05/04 20:38:46","新北市蘆洲區和平路134號","121.467136666667","25.0804616666667","6501400","蘆洲區"
"247008","056-VK","2018/05/04 20:38:40","新北市蘆洲區重陽一街23號","121.480716666667","25.081805","6501400","蘆洲區"
"247016","007-UY","2018/05/04 20:38:42","新北市蘆洲區中山二路288號","121.46887","25.077635","6501400","蘆洲區"
"247002","002-UY","2018/05/04 20:38:46","新北市蘆洲區長安街375巷29號","121.45592","25.087835","6501400","蘆洲區"
"247020","001-UY","2018/05/04 20:38:54","新北市蘆洲區民族路331-1號","121.473863333333","25.091645","6501400","蘆洲區"
"222001","KEA-2212","2018/05/04 20:38:48","新北市深坑區北深路三段236巷8號","121.600943333333","25.0043416666667","6501800","深坑區"
"251009","008-UM","2018/05/04 20:38:38","新北市淡水區民族路112巷68號","121.461851666667","25.1339216666667","6501000","淡水區"
"251001","011-UM","2018/05/04 20:38:52","新北市淡水區淡金路145號","121.458131666667","25.1650016666667","6501000","淡水區"
"251002","012-UM","2018/05/04 20:38:41","新北市淡水區中正路32號","121.443866666667","25.16927","6501000","淡水區"
"251010","413-VK","2018/05/04 20:38:57","新北市淡水區沙崙路181巷15號","121.423821666667","25.18443","6501000","淡水區"
"251012","441-VK","2018/05/04 20:38:45","新北市淡水區興仁路105號","121.451486666667","25.2181433333333","6501000","淡水區"
"251003","766-UM","2018/05/04 20:38:40","新北市淡水區新民街120巷1號","121.43799","25.1778","6501000","淡水區"
"252002","178-VK","2018/05/04 20:38:56","新北市三芝區淡金路二段47-2號","121.503688333333","25.2604933333333","6502100","三芝區"
"252001","292-VK","2018/05/04 20:38:56","新北市三芝區長安街40號","121.501471666667","25.2562983333333","6502100","三芝區"
"242034","AAC-296","2018/05/04 20:38:42","新北市新莊區中正路328號","121.44598","25.03478","6500500","新莊區"
"242058","986-R7","2018/05/04 20:38:45","新北市新莊區四維路132號","121.423268333333","25.0237433333333","6500500","新莊區"
"242054","751-BX","2018/05/04 20:38:51","新北市新莊區西盛街323巷3號","121.428298333333","25.0148666666667","6500500","新莊區"
"242060","705-TV","2018/05/04 20:38:49","新北市新莊區新樹路258巷3號","121.432166666667","25.0156316666667","6500500","新莊區"
"242027","615-BX","2018/05/04 20:38:55","新北市新莊區思源路63號","121.459936666667","25.0403916666667","6500500","新莊區"
"242025","613-BX","2018/05/04 20:38:57","新北市三重區重光街107-2號","121.466385","25.06499","6500500","新莊區"
"242029","612-BX","2018/05/04 20:38:47","新北市新莊區中港路335號","121.452358333333","25.04529","6500500","新莊區"
"242041","566-BX","2018/05/04 20:38:49","新北市新莊區天祥街47巷5號","121.416553333333","25.0286016666667","6500500","新莊區"
"242046","497-BY","2018/05/04 20:38:44","新北市新莊區裕民街85巷20號","121.419648333333","25.02319","6500500","新莊區"
"242039","442-UM","2018/05/04 20:38:55","新北市新莊區瓊林路204-16號","121.436988333333","25.02155","6500500","新莊區"
"242050","441-UM","2018/05/04 20:38:45","新北市新莊區民安西路175號","121.426088333333","25.01597","6500500","新莊區"
"242056","440-UM","2018/05/04 20:38:44","新北市新莊區瓊泰路94巷38號","121.444551666667","25.0294266666667","6500500","新莊區"
"242007","413-TV","2018/05/04 20:38:47","新北市新莊區思源路287巷1弄1號","121.459378333333","25.0482716666667","6500500","新莊區"
"242044","400-BY","2018/05/04 20:38:43","新北市新莊區龍安路108號","121.418383333333","25.0205","6500500","新莊區"
"242023","362-BY","2018/05/04 20:38:53","新北市新莊區化成路29巷68號","121.462715","25.0443883333333","6500500","新莊區"
"242009","132-UY","2018/05/04 20:38:49","新北市新莊區昌隆街108號","121.456788333333","25.0509266666667","6500500","新莊區"
"242032","135-UY","2018/05/04 20:38:50","新北市新莊區中正路508巷5弄2號","121.435111666667","25.0338716666667","6500500","新莊區"
"242048","172-VK","2018/05/04 20:38:41","新北市新莊區中正路599號","121.432833333333","25.0320266666667","6500500","新莊區"
"242011","173-VK","2018/05/04 20:37:07","新北市新莊區中信街89巷2號","121.44769","25.0531983333333","6500500","新莊區"
"242017","175-VK","2018/05/04 20:38:47","新北市新莊區中平路120號","121.444885","25.0464033333333","6500500","新莊區"
"242015","346-TH","2018/05/04 20:38:54","新北市新莊區泰順街88號","121.448698333333","25.04307","6500500","新莊區"
"242021","347-TH","2018/05/04 20:38:54","新北市新莊區中華路一段162號","121.452686666667","25.0415833333333","6500500","新莊區"
"242037","349-TH","2018/05/04 20:38:51","新北市新莊區建國一路75號","121.434918333333","25.0292933333333","6500500","新莊區"
"242013","351-TH","2018/05/04 20:38:43","新北市新莊區中信街101號","121.447813333333","25.0535483333333","6500500","新莊區"
"221008","489-VK","2018/05/04 20:38:54","新北市汐止區康寧街861巷3號","121.645331666667","25.076125","6501100","汐止區"
"221036","130-UY","2018/05/04 20:38:53","新北市汐止區新昌路82號","121.66374","25.0689683333333","6501100","汐止區"
"221015","131-UY","2018/05/04 20:38:54","新北市汐止區建成路35號","121.663863333333","25.072735","6501100","汐止區"
"221012","278-VK","2018/05/04 20:38:56","新北市汐止區大同路三段241號","121.672721666667","25.0766783333333","6501100","汐止區"
"221032","280-BY","2018/05/04 20:38:46","新北市汐止區橫科路52巷14弄2號","121.618781666667","25.0500733333333","6501100","汐止區"
"221027","281-BY","2018/05/04 20:38:45","新北市汐止區中正路7號","121.663213333333","25.0700233333333","6501100","汐止區"
"221029","298-VK","2018/05/04 20:29:38","新北市汐止區樟樹二路136巷12號","121.640593333333","25.0654283333333","6501100","汐止區"
"221021","299-VK","2018/05/04 20:38:26","新北市汐止區水源路一段284號","121.654198333333","25.0582933333333","6501100","汐止區"
"221031","353-TW","2018/05/04 20:38:42","新北市汐止區中興路27巷21號","121.634065","25.06086","6501100","汐止區"
"221035","622-UM","2018/05/04 20:38:56","新北市汐止區長江街101-5號","121.65877","25.0731633333333","6501100","汐止區"
"221025","623-UM","2018/05/04 20:38:31","新北市汐止區水源路二段189號","121.6578","25.0531766666667","6501100","汐止區"
"221038","646-BX","2018/05/04 20:38:37","新北市汐止區龍安路202巷51號","121.652888333333","25.0642166666667","6501100","汐止區"
"221033","647-BX","2018/05/04 20:38:37","新北市汐止區合順街18巷8弄5號","121.620361666667","25.041875","6501100","汐止區"
"221002","707-TV","2018/05/04 20:38:44","新北市汐止區福德二路125巷6弄2號","121.6311","25.0650033333333","6501100","汐止區"
"221018","753-BX","2018/05/04 20:38:56","新北市汐止區茄苳路109號","121.667841666667","25.0713083333333","6501100","汐止區"
"242002","KEA-2550","2018/05/04 20:38:50","新北市新莊區中正路145-20號","121.458145","25.0374783333333","6500500","新莊區"
"220070","AAC-253","2018/05/04 20:38:49","新北市八里區下罟子30-35號","121.3674","25.1352416666667","6500100","板橋區"
