"lineid","car","time","location","longitude","latitude","cityid","cityname"
"249002","305-UY","2018/05/04 20:48:47","新北市林口區太平里180號","121.367521666667","25.13503","6502300","八里區"
"234077","969-R7","2018/05/04 20:48:37","新北市新店區安德街116巷46號","121.50769","24.961425","6500400","永和區"
"234074","AAC-211","2018/05/04 20:48:56","新北市永和區環河東路二段20號","121.522285","25.01316","6500400","永和區"
"243012","646-TV","2018/05/04 20:48:39","新北市泰山區泰林路三段745巷145號","121.406028333333","25.0684533333333","6501600","泰山區"
"222003","436-BY","2018/05/04 20:48:44","新北市深坑區文山路三段48-1號","121.609873333333","24.998505","6501800","深坑區"
"222002","659-BX","2018/05/04 20:48:50","新北市深坑區北深路三段93巷73號","121.603218333333","25.0012316666667","6501800","深坑區"
"231059","046-UY","2018/05/04 20:48:45","新北市新店區僑愛三路5號","121.499885","24.9446533333333","6500600","新店區"
"231040","047-UY","2018/05/04 20:48:39","新北市新店區中正路274號","121.538948333333","24.9736966666667","6500600","新店區"
"231044","106-UY","2018/05/04 20:48:46","新北市新店區民族路108號","121.538261666667","24.9772066666667","6500600","新店區"
"231053","108-UY","2018/05/04 20:48:36","新北市新店區新烏路一段245-3號","121.548286666667","24.9304883333333","6500600","新店區"
"231048","187-VK","2018/05/04 20:48:52","新北市新店區寶元路一段109號","121.54565","24.9831066666667","6500600","新店區"
"231054","KEA-2219","2018/05/04 20:48:48","新北市新店區中正路75巷71號","121.543245","24.96895","6500600","新店區"
"231057","256-BX","2018/05/04 20:48:52","新北市新店區新烏路一段51號","121.546235","24.9494533333333","6500600","新店區"
"231042","268-BY","2018/05/04 20:48:46","新北市新店區寶高路120巷1號","121.554571666667","24.97607","6500600","新店區"
"231051","278-BY","2018/05/04 20:48:50","新北市新店區溪園路205號","121.528066666667","24.9855833333333","6500600","新店區"
"231050","AAD-862","2018/05/04 20:48:42","新北市新店區三民路117巷6弄1號","121.534173333333","24.9712316666667","6500600","新店區"
"231058","3713-VJ","2018/05/04 20:48:39","新北市新店區中央路133巷15弄31號","121.531923333333","24.9747883333333","6500600","新店區"
"231066","4716-K9","2018/05/04 20:48:36","新北市新店區安民街192號","121.517178333333","24.9714866666667","6500600","新店區"
"231056","4715-K9","2018/05/04 20:48:48","新北市新店區中央三街127號","121.524038333333","24.9768866666667","6500600","新店區"
"231065","512-UM","2018/05/04 20:48:43","新北市新店區安祥路104巷6弄46號","121.48337","24.9637366666667","6500600","新店區"
"231049","513-UM","2018/05/04 20:48:52","新北市新店區華潭街52號","121.528958333333","24.9551383333333","6500600","新店區"
"231063","616-UM","2018/05/04 20:48:47","新北市新店區如意街8號","121.494923333333","24.948245","6500600","新店區"
"231045","617-UM","2018/05/04 20:48:56","新北市新店區光明街133號","121.539201666667","24.9620283333333","6500600","新店區"
"231061","619-UM","2018/05/04 20:48:47","新北市新店區永安街99號","121.520575","24.9859933333333","6500600","新店區"
"231068","718-UY","2018/05/04 20:48:52","新北市新店區寶元路二段8號","121.545845","24.98261","6500600","新店區"
"231064","719-UM","2018/05/04 20:48:56","新北市新店區安業街1號","121.516615","24.978865","6500600","新店區"
"231062","720-UM","2018/05/04 20:48:44","新北市新店區和成街16巷32號","121.488676666667","24.9467116666667","6500600","新店區"
"231060","897-TW","2018/05/04 20:48:48","新北市新店區安康路三段635號","121.47113","24.9400066666667","6500600","新店區"
"231043","899-TW","2018/05/04 20:48:50","新北市新店區建國路62號","121.540585","24.9758033333333","6500600","新店區"
"241011","013-R5","2018/05/04 20:48:55","新北市三重區龍濱路251號","121.501431666667","25.0727233333333","6500200","三重區"
"241028","022-UY","2018/05/04 20:48:39","新北市三重區中正南路48號","121.493893333333","25.0599216666667","6500200","三重區"
"241008","059-VK","2018/05/04 20:48:47","新北市三重區永福街72巷11號","121.479443333333","25.0767966666667","6500200","三重區"
"241009","060-VK","2018/05/04 20:48:50","新北市三重區三和路四段197號","121.482116666667","25.0791783333333","6500200","三重區"
"241031","061-VK","2018/05/04 20:48:43","新北市三重區重陽路一段113巷2弄2號","121.48753","25.05991","6500200","三重區"
"241015","062-VK","2018/05/04 20:48:42","新北市三重區自強路一段10-2號","121.498951666667","25.0681433333333","6500200","三重區"
"241017","063-VK","2018/05/04 20:48:56","新北市三重區民生街22號","121.491925","25.0673533333333","6500200","三重區"
"241024","065-VK","2018/05/04 20:48:46","新北市三重區國道路一段58巷15號","121.481356666667","25.072045","6500200","三重區"
"241026","066-VK","2018/05/04 20:48:47","新北市三重區文化南路8號","121.500111666667","25.0624116666667","6500200","三重區"
"241002","090-VK","2018/05/04 20:48:45","新北市三重區仁義街157巷71號","121.498685","25.081765","6500200","三重區"
"241003","091-VK","2018/05/04 20:48:38","新北市三重區五華街141巷58號","121.493416666667","25.086655","6500200","三重區"
"241005","262-UM","2018/05/04 20:48:43","新北市三重區五華街141巷17號","121.491668333333","25.0851116666667","6500200","三重區"
"241016","266-UM","2018/05/04 20:48:50","新北市三重區自強路一段79號","121.4962","25.0663333333333","6500200","三重區"
"241022","267-UM","2018/05/04 20:48:44","新北市三重區中正北路20巷12號","121.488065","25.0625266666667","6500200","三重區"
"241018","268-UM","2018/05/04 20:48:39","新北市三重區正義北路251號","121.49573","25.0695483333333","6500200","三重區"
"241032","269-UM","2018/05/04 20:48:57","新北市三重區重陽路一段120巷48號","121.485045","25.0601783333333","6500200","三重區"
"241013","270-UM","2018/05/04 20:48:36","新北市三重區三和路三段85號","121.494348333333","25.0721316666667","6500200","三重區"
"241007","398-BY","2018/05/04 20:48:56","新北市三重區三和路四段145巷9號","121.484558333333","25.0783466666667","6500200","三重區"
"241035","KEA-2210","2018/05/04 20:48:47","新北市三重區三和路三段8號","121.49714","25.07005","6500200","三重區"
"241004","475-VK","2018/05/04 20:48:42","新北市三重區分子尾街23號","121.489545","25.0811016666667","6500200","三重區"
"241020","478-VK","2018/05/04 20:48:52","新北市三重區忠孝路一段101號","121.489498333333","25.0720716666667","6500200","三重區"
"241030","480-VK","2018/05/04 20:48:42","新北市三重區昌隆街26號","121.492018333333","25.0523066666667","6500200","三重區"
"241014","543-UM","2018/05/04 20:48:56","新北市三重區萬壽街45號","121.50038","25.0695583333333","6500200","三重區"
"241023","545-UM","2018/05/04 20:48:41","新北市三重區忠孝路三段75巷5號","121.480341666667","25.06605","6500200","三重區"
"241001","547-UM","2018/05/04 20:48:48","新北市三重區三和路四段120號","121.489151666667","25.07486","6500200","三重區"
"241033","557-UM","2018/05/04 20:48:56","新北市三重區中興北街193巷7號","121.469548333333","25.0563983333333","6500200","三重區"
"241019","KEA-2593","2018/05/04 20:48:42","新北市三重區三張街41號","121.4915","25.071175","6500200","三重區"
"241006","AAD-863","2018/05/04 20:48:54","新北市三重區車路頭街139巷12號","121.484246666667","25.0761933333333","6500200","三重區"
"241025","887-TS","2018/05/04 20:48:41","新北市三重區貴陽街14號","121.48413","25.0617483333333","6500200","三重區"
"241012","941-UM","2018/05/04 20:48:51","新北市三重區仁信街27號","121.501285","25.07563","6500200","三重區"
"241029","942-UM","2018/05/04 20:48:40","新北市三重區光明路114號","121.492736666667","25.05615","6500200","三重區"
"235069","4980-A6","2018/05/04 20:48:43","新北市中和區新生街122號","121.483565","25.001445","6500300","中和區"
"247024","893-R6","2018/05/04 20:48:41","新北市蘆洲區長樂路140號","121.462153333333","25.0903833333333","6501400","蘆洲區"
"247014","546-UM","2018/05/04 20:48:48","新北市蘆洲區三民路91號","121.474103333333","25.0846966666667","6501400","蘆洲區"
"247022","500-BY","2018/05/04 20:48:45","新北市蘆洲區水湳街36-6號","121.471028333333","25.0896816666667","6501400","蘆洲區"
"247010","341-TH","2018/05/04 20:48:48","新北市蘆洲區鷺江街76號","121.476946666667","25.0839033333333","6501400","蘆洲區"
"247012","339-TH","2018/05/04 20:48:47","新北市蘆洲區集賢路224巷17號","121.48182","25.0869216666667","6501400","蘆洲區"
"247004","337-TH","2018/05/04 20:48:57","新北市蘆洲區長安街101號","121.461636666667","25.080815","6501400","蘆洲區"
"247006","336-TH","2018/05/04 20:48:46","新北市蘆洲區永安南路二段16巷8號","121.467748333333","25.07719","6501400","蘆洲區"
"247016","007-UY","2018/05/04 20:48:42","新北市蘆洲區中山二路144號","121.471266666667","25.0813116666667","6501400","蘆洲區"
"247002","002-UY","2018/05/04 20:48:46","新北市蘆洲區長榮路269巷26號","121.459603333333","25.0860016666667","6501400","蘆洲區"
"247020","001-UY","2018/05/04 20:48:54","新北市蘆洲區仁愛街70巷2號","121.471465","25.0941266666667","6501400","蘆洲區"
"222001","KEA-2212","2018/05/04 20:48:48","新北市深坑區北深路三段162號","121.602516666667","25.0034616666667","6501800","深坑區"
"251009","008-UM","2018/05/04 20:48:38","新北市淡水區民族路112巷68號","121.461843333333","25.1338583333333","6501000","淡水區"
"251001","011-UM","2018/05/04 20:48:52","新北市淡水區淡金路一段69號","121.458785","25.1731466666667","6501000","淡水區"
"251002","012-UM","2018/05/04 20:48:41","新北市淡水區英專路56-1號","121.445685","25.170805","6501000","淡水區"
"251010","413-VK","2018/05/04 20:48:57","新北市淡水區沙崙路126號","121.423628333333","25.1828683333333","6501000","淡水區"
"251012","441-VK","2018/05/04 20:48:45","新北市淡水區淡金路四段478號","121.452006666667","25.2240083333333","6501000","淡水區"
"251007","442-VK","2018/05/04 20:48:40","新北市淡水區學府路102巷62號","121.453461666667","25.1711566666667","6501000","淡水區"
"251011","650-BX","2018/05/04 20:48:52","新北市淡水區新民街一段23號","121.432773333333","25.184795","6501000","淡水區"
"251003","766-UM","2018/05/04 20:48:40","新北市淡水區中山北路一段207巷68號","121.441701666667","25.17946","6501000","淡水區"
"242054","751-BX","2018/05/04 20:48:51","新北市新莊區民安西路189巷10弄30號","121.426551666667","25.01525","6500500","新莊區"
"242060","705-TV","2018/05/04 20:48:53","新北市新莊區新樹路209號","121.435733333333","25.02368","6500500","新莊區"
"242027","615-BX","2018/05/04 20:48:55","新北市三重區光復路一段138-2號","121.47125","25.0528683333333","6500500","新莊區"
"242029","612-BX","2018/05/04 20:48:47","新北市三重區光復路一段68巷46號","121.470336666667","25.0492616666667","6500500","新莊區"
"242050","441-UM","2018/05/04 20:48:45","新北市新莊區民安東路18號","121.428171666667","25.02089","6500500","新莊區"
"242044","400-BY","2018/05/04 20:48:43","新北市新莊區中正路831-15號","121.420936666667","25.0276783333333","6500500","新莊區"
"242023","362-BY","2018/05/04 20:48:53","新北市新莊區化成路585-15號","121.462495","25.0673283333333","6500500","新莊區"
"242009","132-UY","2018/05/04 20:48:43","新北市新莊區幸福路41號","121.457968333333","25.0494116666667","6500500","新莊區"
"242048","172-VK","2018/05/04 20:48:41","新北市五股區成泰路一段90號","121.437265","25.0704483333333","6500500","新莊區"
"242017","175-VK","2018/05/04 20:48:47","新北市五股區新五路二段119-10號","121.43868","25.0787266666667","6500500","新莊區"
"242021","347-TH","2018/05/04 20:48:51","新北市新莊區新北大道四段181號","121.445138333333","25.0584383333333","6500500","新莊區"
"221027","281-BY","2018/05/04 20:48:45","新北市汐止區大同路二段364號","121.657491666667","25.0670133333333","6501100","汐止區"
"221029","298-VK","2018/05/04 20:45:58","新北市汐止區樟樹二路345號","121.641965","25.0732033333333","6501100","汐止區"
"221035","622-UM","2018/05/04 20:48:56","新北市汐止區汐萬路一段312號","121.650596666667","25.0753283333333","6501100","汐止區"
"221038","646-BX","2018/05/04 20:48:58","新北市汐止區汐萬路一段256巷3號","121.652075","25.0747716666667","6501100","汐止區"
"221033","647-BX","2018/05/04 20:48:57","台北市南港區合順街8巷7弄38號","121.620148333333","25.04195","6501100","汐止區"
"221002","707-TV","2018/05/04 20:48:44","新北市汐止區福德二路167號","121.63094","25.0650816666667","6501100","汐止區"
"221018","753-BX","2018/05/04 20:48:56","新北市汐止區汐萬路一段39號","121.655351666667","25.0686683333333","6501100","汐止區"
"242002","KEA-2550","2018/05/04 20:48:50","新北市新莊區中港路50號","121.455421666667","25.0382883333333","6500500","新莊區"
"220103","257-TC","2018/05/04 20:48:38","新北市板橋區漢生東路31號","121.465391666667","25.0169583333333","6500100","板橋區"
"220070","AAC-253","2018/05/04 20:48:49","新北市八里區中山路三段409號","121.368515","25.1349233333333","6500100","板橋區"
