"lineid","car","time","location","longitude","latitude","cityid","cityname"
"241002","090-VK","2018/05/04 22:18:45","新北市林口區太平里180號","121.366538333333","25.1343766666667","6500200","三重區"
"247010","341-TH","2018/05/04 22:18:48","新北市五股區凌雲路二段66號","121.438626666667","25.1062033333333","6501400","蘆洲區"
"251004","009-UM","2018/05/04 22:18:40","新北市淡水區民族路31巷10號","121.462496666667","25.136085","6501000","淡水區"
"251001","011-UM","2018/05/04 22:18:52","新北市淡水區下圭柔山90-8號","121.431538333333","25.210445","6501000","淡水區"
"251008","181-VK","2018/05/04 22:18:51","新北市淡水區學府路104號","121.449855","25.1718","6501000","淡水區"
"251010","413-VK","2018/05/04 22:18:57","新北市淡水區沙崙路200號","121.424736666667","25.1839333333333","6501000","淡水區"
"251007","442-VK","2018/05/04 22:18:40","新北市淡水區北新路180號","121.449441666667","25.1787566666667","6501000","淡水區"
"251011","650-BX","2018/05/04 22:18:52","新北市淡水區水碓街7號","121.44324","25.1771083333333","6501000","淡水區"
"220070","AAC-253","2018/05/04 21:53:42","新北市板橋區華東街1-9號","121.448265","24.9948566666667","6500100","板橋區"
