"lineid","car","time","location","longitude","latitude","cityid","cityname"
"232001","290-BY","2018/01/22 08:08:49","新北市坪林區下坑子口12號","121.719671666667","24.9407883333333","6502000","坪林區"
"232012","291-BY","2018/01/22 08:09:13","新北市坪林區九芎根1號","121.672883333333","24.893645","6502000","坪林區"
"232017","705-BZ","2018/01/22 08:09:20","新北市坪林區坪雙路二段128號","121.75584","24.961485","6502000","坪林區"
"232005","758-BX","2018/01/22 08:09:10","新北市坪林區九芎林32號","121.702531666667","24.9215683333333","6502000","坪林區"
"244012","069-UM","2018/01/22 08:09:17","新北市林口區粉寮路二段27號","121.400703333333","25.0844083333333","6501700","林口區"
"244001","248-BX","2018/01/22 08:09:18","新北市林口區嘉溪雅坑26號","121.339025","25.10795","6501700","林口區"
"244018","402-UM","2018/01/22 08:09:09","新北市林口區四維路150-2號","121.380388333333","25.07566","6501700","林口區"
"244008","410-SL","2018/01/22 08:09:20","新北市林口區中北一街13號","121.385548333333","25.0869166666667","6501700","林口區"
"244022","483-VK","2018/01/22 08:09:27","新北市林口區仁愛路一段330號","121.391708333333","25.0763633333333","6501700","林口區"
"244016","485-VK","2018/01/22 08:09:16","新北市林口區中山路8號","121.396391666667","25.0782183333333","6501700","林口區"
"244010","656-BX","2018/01/22 08:09:20","新北市林口區中正路435號","121.385046666667","25.0776883333333","6501700","林口區"
"244020","657-BX","2018/01/22 08:09:17","新北市林口區粉寮一街124號","121.404995","25.085985","6501700","林口區"
"244024","837-TS","2018/01/22 08:09:15","新北市林口區中山路260號","121.384945","25.079775","6501700","林口區"
"231007","189-VK","2018/01/22 08:09:20","新北市新店區新潭路一段12號","121.523026666667","24.9432766666667","6500600","新店區"
"231008","192-VK","2018/01/22 08:09:25","新北市新店區安康路一段35-1號","121.53205","24.9606333333333","6500600","新店區"
"231049","719-UM","2018/01/22 08:09:16","新北市新店區北宜路一段201號","121.547328333333","24.952205","6500600","新店區"
"235001","611-BX","2018/01/22 08:09:17","新北市中和區圓通路367巷33弄106號","121.494716666667","24.9837233333333","6500300","中和區"
"226005","5620-A6","2018/01/22 08:04:12","新北市平溪區嶺腳里嶺腳寮83-2號","121.751196666667","25.0354516666667","6502400","平溪區"
"226001","7418-A5","2018/01/22 08:09:20","新北市平溪區望古里石灼坑6號","121.7676","25.0357816666667","6502400","平溪區"
"226003","AGD-0702","2018/01/22 08:09:24","新北市平溪區嶺腳里嶺腳寮83-2號","121.750805","25.0352","6502400","平溪區"
"223006","022-BY","2018/01/22 08:09:24","新北市石碇區靜安路一段242號","121.672766666667","25.0083233333333","6501900","石碇區"
"223002","198-BX","2018/01/22 08:09:11","新北市石碇區北宜路五段80號","121.646563333333","24.9517583333333","6501900","石碇區"
"223008","406-TH","2018/01/22 08:09:21","新北市石碇區靜安路一段282號","121.687816666667","25.0093416666667","6501900","石碇區"
"223001","592-UM","2018/01/22 08:09:12","新北市石碇區北宜路五段80號","121.646401666667","24.9516916666667","6501900","石碇區"
"223004","660-BX","2018/01/22 08:09:09","新北市石碇區石崁1號","121.65175","25.0017266666667","6501900","石碇區"
"223007","661-BX","2018/01/22 08:09:11","新北市石碇區靜安路一段282號","121.687808333333","25.009465","6501900","石碇區"
"223005","677-TV","2018/01/22 08:09:09","新北市石碇區石崁1號","121.65153","25.002325","6501900","石碇區"
"227005","282-VK","2018/01/22 08:09:11","新北市雙溪區上林里內平林120-2號","121.824406666667","25.0261866666667","6502500","雙溪區"
"252006","073-UM","2018/01/22 08:08:30","新北市三芝區海景四街2號","121.474945","25.2474616666667","6502100","三芝區"
"252004","249-BX","2018/01/22 08:09:18","新北市三芝區興華里車埕16-2號","121.505883333333","25.19999","6502100","三芝區"
"237001","159-UY","2018/01/22 08:09:21","新北市三峽區三樹路128-1號","121.378151666667","24.9395133333333","6500900","三峽區"
"236007","165-UM","2018/01/22 08:09:13","新北市土城區青雲路322巷12號","121.45748","24.976635","6501300","土城區"
"236001","339-SR","2018/01/22 08:09:05","新北市土城區龍泉路83-1號","121.439576666667","24.9425016666667","6501300","土城區"
"236005","498-BY","2018/01/22 08:09:27","新北市土城區永平街51號","121.427551666667","24.9591733333333","6501300","土城區"
"242030","AAC-296","2018/01/22 08:09:15","新北市新莊區新泰路382號","121.444098333333","25.04328","6500500","新莊區"
"242028","986-R7","2018/01/22 08:09:18","新北市新莊區復興路一段171號","121.451235","25.0434016666667","6500500","新莊區"
"242024","615-BX","2018/01/22 08:09:08","新北市新莊區頭前路179號","121.460043333333","25.0521683333333","6500500","新莊區"
"242022","613-BX","2018/01/22 08:09:25","新北市新莊區民樂街67號","121.457936666667","25.04188","6500500","新莊區"
"242026","612-BX","2018/01/22 08:09:23","新北市新莊區福壽街108號","121.458043333333","25.050525","6500500","新莊區"
"242038","566-BX","2018/01/22 08:09:17","新北市新莊區民全街8號","121.429076666667","25.0216016666667","6500500","新莊區"
"242043","442-UM","2018/01/22 08:09:13","新北市新莊區富國路26號","121.418615","25.0263133333333","6500500","新莊區"
"242047","441-UM","2018/01/22 08:09:11","新北市新莊區萬安街100號","121.420633333333","25.0224033333333","6500500","新莊區"
"242052","440-UM","2018/01/22 08:09:07","新北市樹林區中正路4號","121.429746666667","24.9975","6500500","新莊區"
"242033","415-TV","2018/01/22 08:09:26","新北市新莊區新莊路550-1號","121.445086666667","25.033025","6500500","新莊區"
"242003","413-TV","2018/01/22 08:09:17","新北市新莊區自立街198號","121.456605","25.04553","6500500","新莊區"
"242040","400-BY","2018/01/22 08:09:20","新北市泰山區中山路二段841號","121.425755","25.035495","6500500","新莊區"
"242059","362-BY","2018/01/22 08:09:25","新北市新莊區瓊林南路118-21號","121.433828333333","25.0109633333333","6500500","新莊區"
"242057","353-BY","2018/01/22 08:09:23","新北市新莊區中正路702-3號","121.4176","25.0262016666667","6500500","新莊區"
"242006","132-UY","2018/01/22 08:09:23","新北市新莊區福樂街122號","121.457005","25.0478266666667","6500500","新莊區"
"242035","133-UY","2018/01/22 08:09:17","新北市新莊區後港一路119號","121.428908333333","25.027175","6500500","新莊區"
"242020","135-UY","2018/01/22 08:09:16","新北市新莊區中華路一段230號","121.452641666667","25.0432116666667","6500500","新莊區"
"242045","172-VK","2018/01/22 08:09:16","新北市新莊區福營路103號","121.433811666667","25.0322333333333","6500500","新莊區"
"242008","173-VK","2018/01/22 08:09:19","新北市新莊區福壽街169巷1弄12號","121.457648333333","25.053335","6500500","新莊區"
"242014","175-VK","2018/01/22 08:09:27","新北市新莊區中平路39號","121.444566666667","25.0440166666667","6500500","新莊區"
"242001","176-VK","2018/01/22 08:09:13","新北市新莊區新泰路47號","121.449528333333","25.0336766666667","6500500","新莊區"
"242012","346-TH","2018/01/22 08:09:19","新北市新莊區中誠街127號","121.449228333333","25.0475766666667","6500500","新莊區"
"242049","347-TH","2018/01/22 08:09:08","新北市新莊區西盛街311巷21號","121.428875","25.0153","6500500","新莊區"
"242018","348-TH","2018/01/22 08:09:27","新北市新莊區中港路201號","121.454898333333","25.0418766666667","6500500","新莊區"
"242055","349-TH","2018/01/22 08:09:23","新北市新莊區新莊路543巷9弄28號","121.44831","25.0318866666667","6500500","新莊區"
"242016","350-TH","2018/01/22 08:09:13","新北市新莊區永安街190號","121.448406666667","25.044375","6500500","新莊區"
"242010","351-TH","2018/01/22 08:09:09","新北市新莊區中港路622號","121.451068333333","25.0549466666667","6500500","新莊區"
"220064","282-UM","2018/01/22 08:09:23","新北市新莊區立信三街35巷19號","121.442398333333","25.0510633333333","6500100","板橋區"
