"lineid","car","time","location","longitude","latitude","cityid","cityname"
"232001","290-BY","2018/01/22 08:29:09","新北市坪林區九芎坑13號","121.735498333333","24.9508716666667","6502000","坪林區"
"232012","291-BY","2018/01/22 08:29:13","新北市坪林區九芎根1號","121.669945","24.8904066666667","6502000","坪林區"
"232017","705-BZ","2018/01/22 08:25:59","新北市坪林區柑腳坑14號","121.773426666667","24.94762","6502000","坪林區"
"232005","758-BX","2018/01/22 08:29:10","新北市坪林區鶯子瀨3-8號","121.707156666667","24.913975","6502000","坪林區"
"244012","069-UM","2018/01/22 08:29:17","新北市林口區中正路438號","121.383805","25.07774","6501700","林口區"
"244006","080-UY","2018/01/22 08:29:17","新北市林口區湖子22-1號","121.385936666667","25.092725","6501700","林口區"
"244001","248-BX","2018/01/22 08:29:18","新北市林口區下福里20號","121.309908333333","25.1115983333333","6501700","林口區"
"244018","402-UM","2018/01/22 08:29:08","新北市林口區公園路165號","121.371023333333","25.07149","6501700","林口區"
"244008","410-SL","2018/01/22 08:29:20","新北市林口區中山路270號","121.38341","25.0812716666667","6501700","林口區"
"244022","483-VK","2018/01/22 08:29:07","新北市林口區興林一街109巷16號","121.39219","25.0727833333333","6501700","林口區"
"244016","485-VK","2018/01/22 08:29:16","新北市林口區文化二路一段260巷1-1號","121.371405","25.0733233333333","6501700","林口區"
"244010","656-BX","2018/01/22 08:29:20","新北市林口區中正路161號","121.392668333333","25.07732","6501700","林口區"
"244020","657-BX","2018/01/22 08:29:17","新北市林口區東林街16號","121.396101666667","25.0790116666667","6501700","林口區"
"244024","837-TS","2018/01/22 08:29:15","新北市林口區八德路400-1號","121.359171666667","25.066425","6501700","林口區"
"231007","189-VK","2018/01/22 08:29:19","新北市新店區環湖路5-1號","121.528538333333","24.9261366666667","6500600","新店區"
"231008","192-VK","2018/01/22 08:29:25","新北市新店區新烏路三段1號","121.551791666667","24.9066366666667","6500600","新店區"
"231049","719-UM","2018/01/22 08:29:16","新北市新店區北宜路三段322號","121.60736","24.9569933333333","6500600","新店區"
"235001","611-BX","2018/01/22 08:29:17","新北市中和區新生街118巷2號","121.4835","25.0016816666667","6500300","中和區"
"226005","5620-A6","2018/01/22 08:29:12","新北市平溪區南山里六分3號","121.79499","25.0491716666667","6502400","平溪區"
"226001","7418-A5","2018/01/22 08:29:20","新北市平溪區東勢里芊蓁林44號","121.750945","25.0140133333333","6502400","平溪區"
"226003","AGD-0702","2018/01/22 08:29:24","新北市平溪區新寮里頂寮子62-1號","121.775716666667","25.04993","6502400","平溪區"
"223006","022-BY","2018/01/22 08:28:44","新北市深坑區昇高坑路51-1號","121.630241666667","24.9941416666667","6501900","石碇區"
"223002","198-BX","2018/01/22 08:29:11","新北市石碇區半路店3號","121.648608333333","24.9645166666667","6501900","石碇區"
"223008","406-TH","2018/01/22 08:29:21","新北市石碇區串空湖8-2號","121.669333333333","25.0023683333333","6501900","石碇區"
"223001","592-UM","2018/01/22 08:29:12","新北市石碇區北宜路六段塗潭巷50號","121.652033333333","24.93484","6501900","石碇區"
"223004","660-BX","2018/01/22 08:29:09","新北市石碇區碇坪路一段39號","121.658183333333","24.99152","6501900","石碇區"
"223007","661-BX","2018/01/22 08:29:11","新北市石碇區靜安路一段184號","121.66915","25.0052","6501900","石碇區"
"223005","677-TV","2018/01/22 08:29:21","新北市石碇區石崁14-1號","121.655048333333","24.9952083333333","6501900","石碇區"
"227005","282-VK","2018/01/22 08:29:11","新北市雙溪區外柑里三叉坑8號","121.827691666667","25.0083683333333","6502500","雙溪區"
"252006","073-UM","2018/01/22 08:29:09","新北市三芝區蘭陽街13-1號","121.473521666667","25.242455","6502100","三芝區"
"252004","249-BX","2018/01/22 08:29:18","新北市三芝區興華里車埕62號","121.498721666667","25.19689","6502100","三芝區"
"237001","159-UY","2018/01/22 08:29:21","新北市三峽區大義路189號","121.378095","24.9452216666667","6500900","三峽區"
"236007","165-UM","2018/01/22 08:29:13","新北市土城區石門路81號","121.463856666667","24.9601816666667","6501300","土城區"
"236001","339-SR","2018/01/22 08:29:26","新北市土城區中州路76號","121.412051666667","24.958385","6501300","土城區"
"236005","498-BY","2018/01/22 08:29:26","新北市土城區大暖路39-7號","121.423385","24.9605866666667","6501300","土城區"
"242030","AAC-296","2018/01/22 08:29:15","新北市新莊區新泰路309號","121.445293333333","25.0411483333333","6500500","新莊區"
"242028","986-R7","2018/01/22 08:29:09","新北市新莊區中平路110巷9號","121.445538333333","25.0460933333333","6500500","新莊區"
"242024","615-BX","2018/01/22 08:29:28","新北市新莊區五權一路7-4號","121.458526666667","25.06672","6500500","新莊區"
"242022","613-BX","2018/01/22 08:29:25","新北市新莊區思源路49號","121.459985","25.04004","6500500","新莊區"
"242026","612-BX","2018/01/22 08:29:23","新北市新莊區思源路451號","121.459773333333","25.0533883333333","6500500","新莊區"
"242038","566-BX","2018/01/22 08:29:17","新北市新莊區民安西路26號","121.426696666667","25.02127","6500500","新莊區"
"242043","442-UM","2018/01/22 08:29:13","新北市新莊區中正路887-4號","121.416726666667","25.02468","6500500","新莊區"
"242047","441-UM","2018/01/22 08:29:11","新北市新莊區萬安街7號","121.42172","25.0248416666667","6500500","新莊區"
"242052","440-UM","2018/01/22 08:29:26","新北市新莊區民安西路468-1號","121.431728333333","25.0078916666667","6500500","新莊區"
"242033","415-TV","2018/01/22 08:29:26","新北市新莊區中正路377巷8號","121.446133333333","25.0341566666667","6500500","新莊區"
"242003","413-TV","2018/01/22 08:29:17","新北市新莊區自由街1號","121.455901666667","25.047825","6500500","新莊區"
"242040","400-BY","2018/01/22 08:29:20","新北市新莊區天祥街123號","121.414421666667","25.02971","6500500","新莊區"
"242059","362-BY","2018/01/22 08:29:25","新北市新莊區新樹路172-13號","121.434573333333","25.0216516666667","6500500","新莊區"
"242057","353-BY","2018/01/22 08:29:23","新北市新莊區新北大道七段235號","121.413101666667","25.0298766666667","6500500","新莊區"
"242006","132-UY","2018/01/22 08:29:23","新北市新莊區中華路二段52號","121.4541","25.0458816666667","6500500","新莊區"
"242035","133-UY","2018/01/22 08:29:18","新北市新莊區中正路685號","121.425931666667","25.0297083333333","6500500","新莊區"
"242020","135-UY","2018/01/22 08:29:16","新北市新莊區建興街58號","121.449945","25.0388016666667","6500500","新莊區"
"242045","172-VK","2018/01/22 08:29:16","新北市新莊區福營路184號","121.431298333333","25.0307883333333","6500500","新莊區"
"242008","173-VK","2018/01/22 08:29:19","新北市新莊區中華路二段260號","121.452596666667","25.0532933333333","6500500","新莊區"
"242014","175-VK","2018/01/22 08:29:11","新北市新莊區中和街59巷26號","121.446301666667","25.0466816666667","6500500","新莊區"
"242001","176-VK","2018/01/22 08:29:13","新北市新莊區碧江街18-7號","121.455416666667","25.0346383333333","6500500","新莊區"
"242012","346-TH","2018/01/22 08:29:27","新北市新莊區中誠街132號","121.44899","25.04766","6500500","新莊區"
"242049","347-TH","2018/01/22 08:29:28","新北市新莊區民本街25巷17號","121.42911","25.0195166666667","6500500","新莊區"
"242018","348-TH","2018/01/22 08:29:25","新北市新莊區民樂街13號","121.457561666667","25.039915","6500500","新莊區"
"242055","349-TH","2018/01/22 08:29:23","新北市新莊區豐年街96號","121.44643","25.0308483333333","6500500","新莊區"
"242016","350-TH","2018/01/22 08:29:19","新北市新莊區中華路二段3巷16號","121.45331","25.046135","6500500","新莊區"
"242010","351-TH","2018/01/22 08:29:09","新北市新莊區中信街84巷10號","121.448553333333","25.0531866666667","6500500","新莊區"
"220064","282-UM","2018/01/22 08:29:23","新北市八里區中山路三段112號","121.387748333333","25.1465266666667","6500100","板橋區"
"220089","487-VK","2018/01/22 08:29:24","新北市板橋區民生路二段215號","121.469076666667","25.0209566666667","6500100","板橋區"
"220093","689-BX","2018/01/22 08:29:27","新北市板橋區莒光路229巷2號","121.474243333333","25.022215","6500100","板橋區"
