"lineid","car","time","location","longitude","latitude","cityid","cityname"
"232005","758-BX","2018/01/22 09:39:10","新北市坪林區北宜路八段558號","121.716823333333","24.90872","6502000","坪林區"
"244012","069-UM","2018/01/22 09:39:17","新北市林口區麗園一街11巷1號","121.37692","25.0704183333333","6501700","林口區"
"244006","080-UY","2018/01/22 09:39:17","新北市林口區中華路283號","121.383531666667","25.0909216666667","6501700","林口區"
"244018","402-UM","2018/01/22 09:39:09","新北市林口區忠孝路627號","121.379715","25.0694","6501700","林口區"
"244008","410-SL","2018/01/22 09:39:20","新北市林口區台電新村4-2號","121.388206666667","25.08663","6501700","林口區"
"244022","483-VK","2018/01/22 09:39:07","新北市林口區民權路203號","121.375433333333","25.08562","6501700","林口區"
"231007","189-VK","2018/01/22 09:39:19","新北市新店區新潭路三段215巷25號","121.508151666667","24.9040816666667","6500600","新店區"
"231008","192-VK","2018/01/22 09:39:28","新北市新店區平廣路一段95號","121.529548333333","24.89818","6500600","新店區"
"231049","719-UM","2018/01/22 09:35:36","新北市新店區翠峰路100-1號","121.579411666667","24.9334166666667","6500600","新店區"
"223008","406-TH","2018/01/22 09:39:21","新北市石碇區大湖格4號","121.704181666667","25.0169133333333","6501900","石碇區"
"223004","660-BX","2018/01/22 09:39:09","新北市石碇區碇坪路二段35號","121.684851666667","24.97672","6501900","石碇區"
"223007","661-BX","2018/01/22 09:39:25","新北市石碇區玉桂嶺3號","121.70168","25.0108916666667","6501900","石碇區"
"223005","677-TV","2018/01/22 09:39:25","新北市石碇區大崙7號","121.683651666667","24.9787083333333","6501900","石碇區"
"227005","282-VK","2018/01/22 09:36:51","新北市雙溪區泰平里溪尾寮2-2號","121.819528333333","24.96387","6502500","雙溪區"
"252004","249-BX","2018/01/22 09:39:18","新北市三芝區福德里大水堀31號","121.51047","25.215775","6502100","三芝區"
"252006","AAC-283","2018/01/22 09:39:16","新北市三芝區新庄里新庄子92-1號","121.511008333333","25.2693066666667","6502100","三芝區"
"237001","159-UY","2018/01/22 09:39:21","新北市三峽區大觀路111號","121.374725","24.9452083333333","6500900","三峽區"
"236005","498-BY","2018/01/22 09:39:27","新北市土城區忠承路22號","121.441045","24.967345","6501300","土城區"
"242030","AAC-296","2018/01/22 09:39:24","新北市新莊區三和路17-3號","121.438253333333","25.0380316666667","6500500","新莊區"
"242028","986-R7","2018/01/22 09:39:09","新北市新莊區中華路一段103號","121.452695","25.0438616666667","6500500","新莊區"
"242022","613-BX","2018/01/22 09:39:25","新北市新莊區中正路210號","121.449165","25.03549","6500500","新莊區"
"242038","566-BX","2018/01/22 09:39:17","新北市新莊區瓊林路59-38號","121.441226666667","25.02358","6500500","新莊區"
"242043","442-UM","2018/01/22 09:39:13","新北市新莊區龍安路90號","121.417638333333","25.0207566666667","6500500","新莊區"
"242047","441-UM","2018/01/22 09:39:10","新北市新莊區中正路516-2號","121.433353333333","25.0323766666667","6500500","新莊區"
"242033","415-TV","2018/01/22 09:39:26","新北市新莊區中正路222號","121.448631666667","25.0353916666667","6500500","新莊區"
"242003","413-TV","2018/01/22 09:39:17","新北市新莊區化成路746巷10弄3號","121.466163333333","25.0577","6500500","新莊區"
"242059","362-BY","2018/01/22 09:39:25","新北市新莊區新樹路501號","121.432708333333","25.0114616666667","6500500","新莊區"
"242057","353-BY","2018/01/22 09:39:23","新北市新莊區四維路149號","121.422673333333","25.022115","6500500","新莊區"
"242035","133-UY","2018/01/22 09:39:17","新北市新莊區建安街11號","121.428788333333","25.0265183333333","6500500","新莊區"
"242055","349-TH","2018/01/22 09:39:23","新北市新莊區瓊泰路64號","121.443285","25.0287033333333","6500500","新莊區"
"220089","487-VK","2018/01/22 09:39:24","新北市板橋區光環路二段8-3號","121.48234","25.014865","6500100","板橋區"
"220093","689-BX","2018/01/22 09:39:27","新北市板橋區文化路二段608巷35號","121.478645","25.0347466666667","6500100","板橋區"
