"lineid","car","time","location","longitude","latitude","cityid","cityname"
"234044","148-BY","2018/01/22 12:49:41","新北市永和區秀朗路二段148巷12弄16號","121.524776666667","25.0010766666667","6500400","永和區"
"234005","207-UY","2018/01/22 12:49:28","新北市永和區文化路38號","121.51494","25.0151366666667","6500400","永和區"
"234078","298-R6","2018/01/22 12:49:40","新北市永和區永利路99號","121.521828333333","25.003115","6500400","永和區"
"234036","336-UY","2018/01/22 12:49:39","新北市永和區成功路一段45號","121.527051666667","25.00407","6500400","永和區"
"234062","337-UY","2018/01/22 12:49:26","新北市永和區豫溪街217巷7號","121.5251","25.00999","6500400","永和區"
"234084","338-UY","2018/01/22 12:49:29","新北市永和區中正路106號","121.514503333333","24.9959666666667","6500400","永和區"
"234068","552-UM","2018/01/22 12:49:40","新北市永和區竹林路96巷4號","121.51918","25.012085","6500400","永和區"
"234052","553-UM","2018/01/22 12:49:34","新北市永和區豫溪街189巷2號","121.522981666667","25.01043","6500400","永和區"
"234015","745-BX","2018/01/22 12:49:38","新北市永和區永和路二段393-1號","121.515561666667","25.01664","6500400","永和區"
"234028","746-BX","2018/01/22 12:49:40","新北市永和區得和路331號","121.523633333333","24.9996666666667","6500400","永和區"
"234012","KEA-2591","2018/01/22 12:49:33","新北市永和區保福路二段133巷18號","121.509248333333","25.01374","6500400","永和區"
"234060","AAD-866","2018/01/22 12:49:44","新北市永和區福和路1號","121.525935","25.0095166666667","6500400","永和區"
"234040","862-TW","2018/01/22 12:49:26","新北市永和區永和路一段105號","121.51378","25.0077633333333","6500400","永和區"
"234048","863-TW","2018/01/22 12:49:38","新北市永和區保安路2號","121.51084","25.017585","6500400","永和區"
"234025","9371-KE","2018/01/22 12:49:41","新北市永和區中正路659號","121.514773333333","25.0102833333333","6500400","永和區"
"234022","9381-KE","2018/01/22 12:49:41","新北市永和區竹林路119巷35號","121.521838333333","25.0119933333333","6500400","永和區"
"234010","9373-KE","2018/01/22 12:49:41","新北市永和區保福路二段158巷1號","121.509135","25.0150183333333","6500400","永和區"
"248015","026-BX","2018/01/22 12:38:55","新北市五股區中興路二段83巷26-6號","121.46006","25.0752216666667","6501500","五股區"
"248019","225-UY","2018/01/22 12:49:30","新北市五股區中興路二段83巷26-6號","121.459936666667","25.0751766666667","6501500","五股區"
"234076","969-R7","2018/01/22 12:49:40","新北市永和區中正路38號","121.512956666667","24.9943066666667","6500400","永和區"
"234072","AAC-211","2018/01/22 12:49:27","新北市永和區福和路1號","121.526318333333","25.009905","6500400","永和區"
"234066","AAC-212","2018/01/22 12:49:35","新北市永和區永和路一段36號","121.513068333333","25.0051183333333","6500400","永和區"
"234001","AAC-295","2018/01/22 12:49:35","新北市永和區中正路742-1號","121.515065","25.010255","6500400","永和區"
"244001","248-BX","2018/01/22 12:49:36","新北市林口區粉寮路二段160巷28號","121.405156666667","25.09083","6501700","林口區"
"243004","AAD-798","2018/01/22 12:28:04","新北市泰山區黎明路25號","121.422013333333","25.0608066666667","6501600","泰山區"
"243003","297-R6","2018/01/22 12:40:08","新北市泰山區犁頭窠3-1號","121.421938333333","25.0602816666667","6501600","泰山區"
"231002","002-UM","2018/01/22 12:49:44","新北市新店區安華路28-1號","121.51954","24.960985","6500600","新店區"
"231028","046-UY","2018/01/22 12:49:37","新北市新店區安華路28-1號","121.519593333333","24.960925","6500600","新店區"
"231029","106-UY","2018/01/22 12:49:30","新北市新店區安華路28-1號","121.519576666667","24.9608583333333","6500600","新店區"
"231018","107-UY","2018/01/22 12:49:35","新北市新店區安華路28-1號","121.519461666667","24.961325","6500600","新店區"
"231011","108-UY","2018/01/22 12:49:31","新北市新店區安華路28-1號","121.519568333333","24.9608933333333","6500600","新店區"
"231019","188-VK","2018/01/22 12:49:34","新北市新店區安華路30巷1號","121.519473333333","24.959775","6500600","新店區"
"231014","KEA-2219","2018/01/22 12:49:38","新北市新店區安華路30巷1號","121.51954","24.95988","6500600","新店區"
"231010","278-BY","2018/01/22 12:49:47","新北市新店區安華路28-1號","121.519808333333","24.9612616666667","6500600","新店區"
"231023","AAD-862","2018/01/22 12:49:35","新北市新店區安華路28-1號","121.51976","24.961265","6500600","新店區"
"231058","3712-VJ","2018/01/22 12:49:43","新北市新店區安華路28-1號","121.519323333333","24.960705","6500600","新店區"
"231038","4715-K9","2018/01/22 12:49:28","新北市新店區安華路28-1號","121.519423333333","24.960615","6500600","新店區"
"231036","512-UM","2018/01/22 12:49:32","新北市新店區安華路28-1號","121.519603333333","24.961275","6500600","新店區"
"231001","619-UM","2018/01/22 12:49:33","新北市新店區安華路28-1號","121.519481666667","24.9609266666667","6500600","新店區"
"231031","720-UM","2018/01/22 12:49:27","新北市新店區安華路28-1號","121.519333333333","24.961215","6500600","新店區"
"231037","AKT-0513","2018/01/22 12:49:33","新北市新店區安華路28-1號","121.519388333333","24.96062","6500600","新店區"
"235022","151-BY","2018/01/22 12:46:46","新北市中和區員山路36巷16-3號","121.485153333333","24.9912766666667","6500300","中和區"
"235002","185-VK","2018/01/22 12:49:36","新北市中和區景平路1號","121.525673333333","24.9901133333333","6500300","中和區"
"235031","255-BX","2018/01/22 12:49:42","新北市中和區中山路二段568巷38號","121.482398333333","25.006845","6500300","中和區"
"235001","611-BX","2018/01/22 12:49:38","新北市中和區中山路三段136巷125號","121.474261666667","25.0083116666667","6500300","中和區"
"235005","802-TS","2018/01/22 12:49:33","新北市中和區員山路36巷16-2號","121.485251666667","24.991725","6500300","中和區"
"208004","AAC-292","2018/01/22 12:49:39","新北市金山區磺清路135號","121.63931","25.22766","6502700","金山區"
"207002","749-BX","2018/01/22 12:49:21","新北市萬里區雙興里二坪路30號","121.646556666667","25.16839","6502800","萬里區"
"207001","662-BX","2018/01/22 12:49:26","新北市萬里區萬里里獅頭路23號","121.693423333333","25.17817","6502800","萬里區"
"236005","498-BY","2018/01/22 12:49:37","新北市土城區永寧路20-1號","121.429796666667","24.9615","6501300","土城區"
"221032","280-BY","2018/01/22 12:49:44","新北市汐止區康寧街901號","121.651153333333","25.075135","6501100","汐止區"
"221029","298-VK","2018/01/22 12:49:30","新北市汐止區康寧街901號","121.651663333333","25.0749716666667","6501100","汐止區"
