"lineid","car","time","location","longitude","latitude","cityid","cityname"
"234044","148-BY","2018/01/22 13:09:40","新北市永和區永元路18巷39號","121.524211666667","25.0003483333333","6500400","永和區"
"234005","207-UY","2018/01/22 13:09:28","新北市永和區中山路一段175-1號","121.509476666667","25.0091316666667","6500400","永和區"
"234078","298-R6","2018/01/22 13:09:20","新北市永和區永貞路39巷7號","121.521626666667","25.0066","6500400","永和區"
"234036","336-UY","2018/01/22 13:09:39","新北市永和區民樂街71巷2號","121.527341666667","24.99734","6500400","永和區"
"234062","337-UY","2018/01/22 13:09:46","新北市永和區秀朗路二段33號","121.521363333333","25.0023966666667","6500400","永和區"
"234084","338-UY","2018/01/22 13:09:47","新北市永和區永貞路126號","121.518525","25.0045266666667","6500400","永和區"
"234068","552-UM","2018/01/22 13:09:44","新北市永和區豫溪街137巷1弄18號","121.51871","25.0105233333333","6500400","永和區"
"234052","553-UM","2018/01/22 13:09:36","新北市永和區中興街133巷18號","121.518128333333","25.012595","6500400","永和區"
"234015","745-BX","2018/01/22 13:09:38","新北市永和區文化路90巷15弄1號","121.513775","25.0159383333333","6500400","永和區"
"234028","746-BX","2018/01/22 13:09:40","新北市永和區民生路21號","121.522866666667","24.9988633333333","6500400","永和區"
"234012","KEA-2591","2018/01/22 13:09:35","新北市永和區保福路二段56號","121.510915","25.0122666666667","6500400","永和區"
"234060","AAD-866","2018/01/22 13:09:44","新北市永和區安樂路304巷7號","121.51457","25.0050816666667","6500400","永和區"
"234040","862-TW","2018/01/22 13:09:46","新北市永和區保平路93巷7號","121.511936666667","25.0065433333333","6500400","永和區"
"234048","863-TW","2018/01/22 13:09:38","新北市永和區文化路135巷26弄1號","121.51066","25.0143966666667","6500400","永和區"
"234025","9371-KE","2018/01/22 13:09:41","新北市永和區永和路一段72巷4號","121.513385","25.0060916666667","6500400","永和區"
"234022","9381-KE","2018/01/22 13:09:41","新北市永和區中興街29巷20號","121.51632","25.01237","6500400","永和區"
"234010","9373-KE","2018/01/22 13:09:41","新北市永和區仁愛路31巷2弄1號","121.51421","25.012955","6500400","永和區"
"248013","025-BX","2018/01/22 13:09:34","新北市五股區成泰路二段33號","121.437206666667","25.0818916666667","6501500","五股區"
"248015","026-BX","2018/01/22 13:09:39","新北市五股區成泰路三段221巷14號","121.44583","25.093415","6501500","五股區"
"248005","077-UY","2018/01/22 13:09:38","新北市五股區中興路二段82號","121.460806666667","25.0773083333333","6501500","五股區"
"248007","095-VK","2018/01/22 13:09:30","新北市蘆洲區永安南路二段294號","121.457263333333","25.0817866666667","6501500","五股區"
"248019","225-UY","2018/01/22 13:06:10","新北市蘆洲區永樂街110號","121.452995","25.0897633333333","6501500","五股區"
"248011","247-BX","2018/01/22 13:09:40","新北市五股區新五路二段258號","121.440983333333","25.082195","6501500","五股區"
"248003","677-BX","2018/01/22 13:09:27","新北市五股區成泰路二段129號","121.438651666667","25.08483","6501500","五股區"
"248001","678-BX","2018/01/22 12:59:04","新北市五股區中興路二段37巷28號","121.46024","25.0745233333333","6501500","五股區"
"248009","682-TV","2018/01/22 13:09:34","新北市五股區中興路四段17號","121.440048333333","25.0819733333333","6501500","五股區"
"234076","969-R7","2018/01/22 13:09:42","新北市永和區民光街9號","121.515481666667","24.9962116666667","6500400","永和區"
"234072","AAC-211","2018/01/22 13:09:27","新北市永和區竹林路211號","121.52061","25.0088466666667","6500400","永和區"
"234066","AAC-212","2018/01/22 13:09:35","新北市永和區永和路一段65巷2號","121.512853333333","25.0071316666667","6500400","永和區"
"234001","AAC-295","2018/01/22 13:09:35","新北市永和區中山路一段138-1號","121.510151666667","25.0097966666667","6500400","永和區"
"244001","248-BX","2018/01/22 13:09:36","新北市林口區頂福里6鄰32號","121.361685","25.0966383333333","6501700","林口區"
"243003","297-R6","2018/01/22 12:40:08","新北市泰山區犁頭窠3-1號","121.421938333333","25.0602816666667","6501600","泰山區"
"243005","646-TV","2018/01/22 13:09:41","新北市泰山區南林路99巷1-1號","121.415243333333","25.0509266666667","6501600","泰山區"
"231002","002-UM","2018/01/22 13:09:44","新北市新店區安華路28-1號","121.519628333333","24.960825","6500600","新店區"
"231025","0291-UT","2018/01/22 13:09:30","新北市新店區安華路28-1號","121.51975","24.96144","6500600","新店區"
"231028","046-UY","2018/01/22 13:09:37","新北市新店區安華路28-1號","121.519598333333","24.96093","6500600","新店區"
"231029","106-UY","2018/01/22 13:09:30","新北市新店區安華路28-1號","121.519628333333","24.9609166666667","6500600","新店區"
"231018","107-UY","2018/01/22 13:09:35","新北市新店區秀山路68號","121.530885","24.961","6500600","新店區"
"231011","108-UY","2018/01/22 13:09:32","新北市新店區安華路28-1號","121.51948","24.9612566666667","6500600","新店區"
"231019","188-VK","2018/01/22 13:09:34","新北市新店區安康路一段355號","121.51985","24.9633116666667","6500600","新店區"
"231014","KEA-2219","2018/01/22 13:09:38","新北市新店區安華路28-1號","121.519848333333","24.96127","6500600","新店區"
"231026","256-BX","2018/01/22 13:09:33","新北市新店區安華路28-1號","121.519781666667","24.9611666666667","6500600","新店區"
"231010","278-BY","2018/01/22 13:09:47","新北市新店區安華路28-1號","121.519421666667","24.961115","6500600","新店區"
"231023","AAD-862","2018/01/22 13:09:35","新北市新店區安華路28-1號","121.51965","24.9611933333333","6500600","新店區"
"231027","3712-VJ","2018/01/22 13:09:43","新北市新店區安華路28-1號","121.519311666667","24.9606533333333","6500600","新店區"
"231024","4716-K9","2018/01/22 13:09:30","新北市新店區安華路28-1號","121.519711666667","24.961055","6500600","新店區"
"231038","4715-K9","2018/01/22 13:09:28","新北市新店區安華路28-1號","121.51924","24.9606816666667","6500600","新店區"
"231036","512-UM","2018/01/22 13:09:32","新北市新店區車子路1-1號","121.504578333333","24.9580333333333","6500600","新店區"
"231035","515-UM","2018/01/22 13:09:26","新北市新店區安華路28-1號","121.519671666667","24.961145","6500600","新店區"
"231003","616-UM","2018/01/22 13:09:41","新北市新店區安華路1-1號","121.519465","24.9605283333333","6500600","新店區"
"231001","619-UM","2018/01/22 13:09:33","新北市新店區安華路28-1號","121.519403333333","24.9608483333333","6500600","新店區"
"231034","645-TV","2018/01/22 13:09:41","新北市新店區安華路28-1號","121.51931","24.9606833333333","6500600","新店區"
"231013","719-UM","2018/01/22 13:09:28","新北市新店區安華路28-1號","121.519516666667","24.9612166666667","6500600","新店區"
"231031","720-UM","2018/01/22 13:09:27","新北市新店區安華路28-1號","121.519321666667","24.9612466666667","6500600","新店區"
"231005","897-TW","2018/01/22 13:09:38","新北市新店區安華路28-1號","121.519526666667","24.960765","6500600","新店區"
"231006","898-TW","2018/01/22 13:09:29","新北市新店區安華路28-1號","121.519321666667","24.960815","6500600","新店區"
"231004","899-TW","2018/01/22 13:09:42","新北市新店區安華路28-1號","121.519345","24.9608516666667","6500600","新店區"
"231037","AKT-0513","2018/01/22 13:09:33","新北市新店區安華路28-1號","121.519383333333","24.9605783333333","6500600","新店區"
"235030","003-UY","2018/01/22 13:09:42","新北市中和區中山路二段64巷11號","121.503381666667","25.0055","6500300","中和區"
"235028","005-UY","2018/01/22 13:09:38","新北市中和區中正路275號","121.495451666667","24.9937166666667","6500300","中和區"
"235027","006-UY","2018/01/22 13:09:39","新北市中和區員山路36巷16-3號","121.485001666667","24.9913","6500300","中和區"
"235003","097-UM","2018/01/22 13:09:40","新北市中和區和城路一段271巷1號","121.485428333333","24.9918183333333","6500300","中和區"
"235029","098-UM","2018/01/22 13:09:35","新北市中和區福祥路48號","121.499401666667","25.0040866666667","6500300","中和區"
"235004","150-BY","2018/01/22 12:41:23","新北市中和區員山路36巷16-2號","121.485418333333","24.9910283333333","6500300","中和區"
"235022","151-BY","2018/01/22 13:09:37","新北市中和區圓通路367巷33弄23號","121.494766666667","24.9853683333333","6500300","中和區"
"235002","185-VK","2018/01/22 13:09:36","新北市中和區大智街15號","121.519903333333","24.9919533333333","6500300","中和區"
"235031","255-BX","2018/01/22 13:09:42","新北市中和區中正路849巷1號","121.484725","25.002725","6500300","中和區"
"235036","301-VK","2018/01/22 13:09:33","新北市中和區員山路36巷13號","121.483915","24.99119","6500300","中和區"
"235007","352-BY","2018/01/22 13:09:29","新北市中和區中正路637巷52弄1號","121.485418333333","24.9934616666667","6500300","中和區"
"235032","377-QA","2018/01/22 13:09:31","新北市中和區員山路36巷16-3號","121.48505","24.9912766666667","6500300","中和區"
"235014","4979-A6","2018/01/22 13:09:47","新北市中和區中正路637巷60弄61號","121.485471666667","24.99326","6500300","中和區"
"235034","558-UM","2018/01/22 13:09:14","新北市中和區員山路36巷16-4號","121.484998333333","24.992055","6500300","中和區"
"235018","640-BX","2018/01/22 13:09:43","新北市土城區金城路三段257號","121.471906666667","24.9900583333333","6500300","中和區"
"235011","732-UM","2018/01/22 13:09:32","新北市中和區員山路36巷16-3號","121.4847","24.9914433333333","6500300","中和區"
"235026","800-TS","2018/01/22 13:09:42","新北市中和區建一路103號","121.48804","25.0014483333333","6500300","中和區"
"235005","802-TS","2018/01/22 13:09:33","新北市中和區中正路254號","121.49558","24.9939266666667","6500300","中和區"
"235016","805-TS","2018/01/22 13:09:29","新北市中和區中正路275號","121.495415","24.9937483333333","6500300","中和區"
"235012","896-TW","2018/01/22 13:09:44","新北市中和區員山路36巷16-3號","121.484955","24.9918383333333","6500300","中和區"
"235017","900-TW","2018/01/22 13:09:34","新北市中和區員山路36巷16-2號","121.484976666667","24.9919816666667","6500300","中和區"
"235015","157-BY","2018/01/22 13:09:27","新北市中和區捷運路102號","121.50566","24.9914316666667","6500300","中和區"
"235001","AAC-213","2018/01/22 13:09:35","新北市中和區景平路149號","121.513993333333","24.9921616666667","6500300","中和區"
"223006","022-BY","2018/01/22 13:09:29","新北市深坑區文山路一段8-1號","121.643846666667","25.00869","6501900","石碇區"
"253001","4710-YM","2018/01/22 13:09:38","新北市石門區老梅路43-2號","121.545351666667","25.2896233333333","6502200","石門區"
"253003","6232-TK","2018/01/22 13:09:05","新北市石門區石崩山1號","121.564741666667","25.2853433333333","6502200","石門區"
"253002","637-UY","2018/01/22 13:09:31","新北市石門區老崩山35號","121.556608333333","25.276825","6502200","石門區"
"253004","8270-PC","2018/01/22 13:09:34","新北市石門區小坑12號","121.59242","25.2881183333333","6502200","石門區"
"208004","AAC-292","2018/01/22 13:09:39","新北市金山區中正路6號","121.636426666667","25.2224066666667","6502700","金山區"
"207002","749-BX","2018/01/22 13:04:41","新北市萬里區溪底里香員林路15號","121.634445","25.1632916666667","6502800","萬里區"
"252005","073-UM","2018/01/22 13:09:41","新北市三芝區八賢里八連溪1-1號","121.509165","25.2466516666667","6502100","三芝區"
"207001","662-BX","2018/01/22 13:09:46","新北市萬里區萬里里瑪鋉路28號","121.689113333333","25.1772166666667","6502800","萬里區"
"236005","498-BY","2018/01/22 13:09:37","新北市土城區亞洲路58巷5弄26號","121.433963333333","24.9733316666667","6501300","土城區"
"221036","130-UY","2018/01/22 13:09:39","新北市汐止區茄苳路158號","121.669203333333","25.0697433333333","6501100","汐止區"
"221032","280-BY","2018/01/22 13:09:44","新北市汐止區建成路57巷1號","121.662423333333","25.0725633333333","6501100","汐止區"
