"lineid","car","time","location","longitude","latitude","cityid","cityname"
"234044","148-BY","2018/01/22 13:29:40","新北市永和區秀朗路二段181巷3號","121.526023333333","25.0015066666667","6500400","永和區"
"234005","207-UY","2018/01/22 13:29:28","新北市永和區中山路一段174號","121.50915","25.008995","6500400","永和區"
"234078","298-R6","2018/01/22 13:29:43","新北市永和區福和路5-9號","121.525425","25.0084883333333","6500400","永和區"
"234036","336-UY","2018/01/22 13:29:44","新北市永和區民樂街35巷2號","121.527555","25.0008983333333","6500400","永和區"
"234062","337-UY","2018/01/22 13:29:26","新北市永和區中正路368巷1弄88號","121.520466666667","25.0007366666667","6500400","永和區"
"234084","338-UY","2018/01/22 13:29:27","新北市永和區永利路93號","121.521701666667","25.003195","6500400","永和區"
"234068","552-UM","2018/01/22 13:29:40","新北市永和區警光街12號","121.519713333333","25.00955","6500400","永和區"
"234052","553-UM","2018/01/22 13:29:34","新北市永和區復興街19巷2號","121.516138333333","25.013115","6500400","永和區"
"234015","745-BX","2018/01/22 13:29:46","新北市永和區環河西路一段87-1號","121.512503333333","25.01793","6500400","永和區"
"234028","746-BX","2018/01/22 13:29:40","新北市永和區民生路28號","121.522581666667","24.9971883333333","6500400","永和區"
"234012","KEA-2591","2018/01/22 13:29:41","新北市永和區中山路一段184巷9弄17號","121.508481666667","25.0091066666667","6500400","永和區"
"234060","AAD-866","2018/01/22 13:29:44","新北市永和區中正路435號","121.517198333333","25.005135","6500400","永和區"
"234040","862-TW","2018/01/22 13:29:26","新北市永和區永貞路304號","121.511961666667","25.0047366666667","6500400","永和區"
"234048","863-TW","2018/01/22 13:29:38","新北市永和區信義路106號","121.512331666667","25.01414","6500400","永和區"
"234025","9371-KE","2018/01/22 13:29:41","新北市永和區中山路一段17巷4弄14號","121.51315","25.0102016666667","6500400","永和區"
"234022","9381-KE","2018/01/22 13:29:41","新北市永和區竹林路91巷43弄2號","121.52132","25.0127816666667","6500400","永和區"
"234010","9373-KE","2018/01/22 13:29:41","新北市永和區仁愛路141巷30弄5號","121.511935","25.0114883333333","6500400","永和區"
"248013","025-BX","2018/01/22 13:29:34","新北市五股區成泰路一段141號","121.435471666667","25.0730116666667","6501500","五股區"
"248015","026-BX","2018/01/22 13:29:39","新北市五股區凌雲路一段83巷22弄1號","121.449868333333","25.100745","6501500","五股區"
"248005","077-UY","2018/01/22 13:29:37","新北市五股區四維路25號","121.467056666667","25.0706383333333","6501500","五股區"
"248007","095-VK","2018/01/22 13:29:30","新北市五股區四維路185巷42弄1號","121.46339","25.0769016666667","6501500","五股區"
"248019","225-UY","2018/01/22 13:29:31","新北市五股區孝義路90號","121.448138333333","25.1151983333333","6501500","五股區"
"248011","247-BX","2018/01/22 13:29:40","新北市五股區御成路148號","121.440898333333","25.0944616666667","6501500","五股區"
"248003","677-BX","2018/01/22 13:29:27","新北市五股區六合街3號","121.431968333333","25.088525","6501500","五股區"
"248009","682-TV","2018/01/22 13:29:34","新北市五股區明德路10號","121.433386666667","25.07175","6501500","五股區"
"234076","969-R7","2018/01/22 13:29:26","新北市永和區民治街82號","121.517396666667","24.9983233333333","6500400","永和區"
"234072","AAC-211","2018/01/22 13:29:27","新北市永和區永和路二段98號","121.514991666667","25.0117816666667","6500400","永和區"
"234066","AAC-212","2018/01/22 13:29:35","新北市永和區永貞路360巷8號","121.510656666667","25.0069","6500400","永和區"
"234001","AAC-295","2018/01/22 13:29:35","新北市永和區永平路152巷4號","121.511553333333","25.008995","6500400","永和區"
"244001","248-BX","2018/01/22 13:29:36","新北市林口區瑞平里10鄰44號","121.33558","25.12263","6501700","林口區"
"243004","AAD-798","2018/01/22 13:29:28","新北市泰山區黎明路25號","121.421871666667","25.060665","6501600","泰山區"
"243005","646-TV","2018/01/22 13:29:41","新北市泰山區明志路三段206巷3號","121.423268333333","25.0379416666667","6501600","泰山區"
"231002","002-UM","2018/01/22 13:29:44","新北市新店區環河路62號","121.537143333333","24.962665","6500600","新店區"
"231025","0291-UT","2018/01/22 13:29:30","新北市新店區中央七街61巷26號","121.529281666667","24.975875","6500600","新店區"
"231028","046-UY","2018/01/22 13:29:37","新北市新店區安康路一段355號","121.519921666667","24.96388","6500600","新店區"
"231030","047-UY","2018/01/22 13:29:41","新北市新店區安康路一段351-1號","121.519248333333","24.96392","6500600","新店區"
"231029","106-UY","2018/01/22 13:29:30","新北市新店區安豐路22巷18-1號","121.502016666667","24.9543866666667","6500600","新店區"
"231018","107-UY","2018/01/22 13:29:35","新北市新店區中央路81號","121.532131666667","24.9766866666667","6500600","新店區"
"231011","108-UY","2018/01/22 13:29:32","新北市新店區德正街17巷2號","121.543651666667","24.9728266666667","6500600","新店區"
"231019","188-VK","2018/01/22 13:29:34","新北市新店區永興路88-1號","121.544141666667","24.933615","6500600","新店區"
"231014","KEA-2219","2018/01/22 13:29:38","新北市新店區新烏路一段11巷15號","121.547683333333","24.9509466666667","6500600","新店區"
"231026","256-BX","2018/01/22 13:29:34","新北市新店區光明街23號","121.538261666667","24.9595966666667","6500600","新店區"
"231010","278-BY","2018/01/22 13:29:47","新北市新店區自由街12號","121.535238333333","24.9749583333333","6500600","新店區"
"231023","AAD-862","2018/01/22 13:29:35","新北市新店區光明街9號","121.538148333333","24.9593583333333","6500600","新店區"
"231027","3712-VJ","2018/01/22 13:29:43","新北市新店區新店後街52號","121.537858333333","24.9539133333333","6500600","新店區"
"231024","4716-K9","2018/01/22 13:29:30","新北市新店區中正路128巷11號","121.542535","24.9720033333333","6500600","新店區"
"231038","4715-K9","2018/01/22 13:29:28","新北市新店區安華路30巷1號","121.519571666667","24.9592466666667","6500600","新店區"
"231036","512-UM","2018/01/22 13:29:39","新北市新店區安祥路190巷27號","121.477983333333","24.955495","6500600","新店區"
"231035","515-UM","2018/01/22 13:29:26","新北市新店區安康路一段355號","121.519915","24.9638366666667","6500600","新店區"
"231003","616-UM","2018/01/22 13:29:41","新北市新店區中正路75巷71號","121.543085","24.9688933333333","6500600","新店區"
"231001","619-UM","2018/01/22 13:29:33","新北市新店區中央路216號","121.529933333333","24.9733916666667","6500600","新店區"
"231034","645-TV","2018/01/22 13:29:41","新北市新店區車子路110號","121.505215","24.9520833333333","6500600","新店區"
"231013","719-UM","2018/01/22 13:29:28","新北市新店區中正路454-5號","121.53444","24.9790416666667","6500600","新店區"
"231031","720-UM","2018/01/22 13:29:27","新北市新店區安康路一段355號","121.519901666667","24.9634483333333","6500600","新店區"
"231005","897-TW","2018/01/22 13:29:38","新北市新店區寶中路72號","121.547908333333","24.980635","6500600","新店區"
"231006","898-TW","2018/01/22 13:29:29","新北市新店區安康路一段35-1號","121.53198","24.960635","6500600","新店區"
"231004","899-TW","2018/01/22 13:29:42","新北市新店區安康路一段83-1號","121.529638333333","24.9613166666667","6500600","新店區"
"231037","AKT-0513","2018/01/22 13:29:33","新北市新店區薏仁坑路24-1號","121.498535","24.9598783333333","6500600","新店區"
"235030","003-UY","2018/01/22 13:29:42","新北市中和區中山路二段120號","121.502676666667","25.00382","6500300","中和區"
"235028","005-UY","2018/01/22 13:29:14","新北市中和區圓通路139號","121.498948333333","24.995505","6500300","中和區"
"235027","006-UY","2018/01/22 13:29:39","新北市中和區連城路347巷2弄3-3號","121.487981666667","24.9958283333333","6500300","中和區"
"235020","096-UM","2018/01/22 13:29:23","新北市中和區建八路1號","121.485476666667","24.9985966666667","6500300","中和區"
"235003","097-UM","2018/01/22 13:29:40","新北市中和區景平路111巷2號","121.516658333333","24.9919583333333","6500300","中和區"
"235029","098-UM","2018/01/22 13:29:35","新北市中和區莊敬路38巷1號","121.501711666667","25.00525","6500300","中和區"
"235004","150-BY","2018/01/22 13:29:36","新北市中和區保健路50巷66號","121.50933","24.9952033333333","6500300","中和區"
"235022","151-BY","2018/01/22 13:29:37","新北市中和區圓通路369巷152號","121.487935","24.9815833333333","6500300","中和區"
"235019","183-VK","2018/01/22 13:29:34","新北市中和區民享街283號","121.47125","24.9960633333333","6500300","中和區"
"235002","185-VK","2018/01/22 13:29:45","新北市永和區民有街75巷10弄18號","121.519035","24.99601","6500300","中和區"
"235013","186-VK","2018/01/22 13:29:30","新北市中和區景平路520號","121.503348333333","24.9938833333333","6500300","中和區"
"235031","255-BX","2018/01/22 13:29:42","新北市中和區新生街242巷11弄6號","121.482885","24.9975683333333","6500300","中和區"
"235008","293-VK","2018/01/22 13:29:44","新北市中和區復興路301巷15號","121.501578333333","24.9896716666667","6500300","中和區"
"235036","301-VK","2018/01/22 13:29:33","新北市中和區連城路265號","121.491316666667","24.9963583333333","6500300","中和區"
"235007","352-BY","2018/01/22 13:29:28","新北市中和區景平路331號","121.505821666667","24.9931283333333","6500300","中和區"
"235032","377-QA","2018/01/22 13:29:31","新北市中和區中正路273號","121.495671666667","24.9937166666667","6500300","中和區"
"235025","378-QA","2018/01/22 13:29:30","新北市中和區民享街93巷16號","121.475535","25.00092","6500300","中和區"
"235014","4979-A6","2018/01/22 13:29:27","新北市中和區景新街362巷5號","121.51197","24.99005","6500300","中和區"
"235033","4980-A6","2018/01/22 13:28:26","新北市中和區連城路89巷52號","121.49753","24.998255","6500300","中和區"
"235006","551-UM","2018/01/22 13:29:42","新北市中和區秀朗路三段150巷13號","121.523686666667","24.9909316666667","6500300","中和區"
"235034","558-UM","2018/01/22 13:27:34","新北市中和區圓通路61號","121.500476666667","24.9972483333333","6500300","中和區"
"235009","565-BX","2018/01/22 13:29:39","新北市中和區復興路20號","121.505488333333","24.98989","6500300","中和區"
"235018","640-BX","2018/01/22 13:29:43","新北市中和區民享街119巷1號","121.474523333333","24.9988883333333","6500300","中和區"
"235024","647-TV","2018/01/22 13:29:30","新北市中和區連城路523巷13弄4號","121.481785","24.993605","6500300","中和區"
"235011","732-UM","2018/01/22 13:29:31","新北市中和區南山路523-1號","121.507945","24.9871516666667","6500300","中和區"
"235026","800-TS","2018/01/22 13:29:42","新北市中和區景平路744號","121.49653","25.0042716666667","6500300","中和區"
"235021","801-TS","2018/01/22 13:29:40","新北市中和區民享街97巷19號","121.475416666667","24.9995333333333","6500300","中和區"
"235005","802-TS","2018/01/22 13:29:33","新北市中和區中和路324巷6弄2號","121.509766666667","25.0004216666667","6500300","中和區"
"235016","805-TS","2018/01/22 13:29:29","新北市中和區興南路二段133號","121.5053","24.9841883333333","6500300","中和區"
"235012","896-TW","2018/01/22 13:29:23","新北市中和區中正路525號","121.487901666667","24.9935716666667","6500300","中和區"
"235017","900-TW","2018/01/22 13:29:34","新北市中和區民享街469-1號","121.469826666667","24.992285","6500300","中和區"
"235015","157-BY","2018/01/22 13:29:39","新北市中和區興南路二段142巷35弄1號","121.502551666667","24.98448","6500300","中和區"
"235001","AAC-213","2018/01/22 13:29:35","新北市中和區景德街95-14號","121.514895","24.9911383333333","6500300","中和區"
"220013","072-UY","2018/01/22 13:29:35","新北市板橋區南雅南路二段90號","121.453608333333","25.001435","6500100","板橋區"
"220034","073-UY","2018/01/22 13:29:37","新北市板橋區華東街308號","121.452826666667","25.0030616666667","6500100","板橋區"
"247011","546-UM","2018/01/22 13:29:38","新北市五股區中興路三段163號","121.4492","25.0808383333333","6501400","蘆洲區"
"247005","056-VK","2018/01/22 13:29:35","新北市五股區中興路三段163號","121.449261666667","25.0808083333333","6501400","蘆洲區"
"247017","001-UY","2018/01/22 13:29:37","新北市五股區中興路三段163號","121.449046666667","25.0807733333333","6501400","蘆洲區"
"223006","022-BY","2018/01/22 13:29:29","新北市石碇區小粗坑(潭邊里)5號","121.673213333333","24.9832516666667","6501900","石碇區"
"227005","282-VK","2018/01/22 13:29:26","新北市雙溪區三貂里政光路3-1號","121.850906666667","25.0630966666667","6502500","雙溪區"
"253001","4710-YM","2018/01/22 13:29:38","新北市石門區楓林17-8號","121.537903333333","25.2935883333333","6502200","石門區"
"253003","6232-TK","2018/01/22 13:29:34","新北市石門區內石門50-4號","121.57052","25.2632866666667","6502200","石門區"
"253002","637-UY","2018/01/22 13:29:31","新北市石門區九芎林23號","121.554505","25.268245","6502200","石門區"
"253004","8270-PC","2018/01/22 13:29:34","新北市石門區阿里荖54號","121.609461666667","25.2736683333333","6502200","石門區"
"208004","AAC-292","2018/01/22 13:29:41","新北市金山區南勢湖56號","121.61435","25.21455","6502700","金山區"
"207002","749-BX","2018/01/22 13:29:41","新北市萬里區崁腳里崁腳路166號","121.644995","25.1558283333333","6502800","萬里區"
"252005","073-UM","2018/01/22 13:29:40","新北市三芝區福德里土地公埔54號","121.517768333333","25.225225","6502100","三芝區"
"207001","662-BX","2018/01/22 13:29:46","新北市萬里區野柳里八斗60-1號","121.674566666667","25.201275","6502800","萬里區"
"236005","498-BY","2018/01/22 13:29:37","新北市土城區亞洲路11巷1弄36號","121.43637","24.9716066666667","6501300","土城區"
"221036","130-UY","2018/01/22 13:29:39","新北市汐止區東勢街54號","121.625591666667","25.0399333333333","6501100","汐止區"
"221032","280-BY","2018/01/22 13:29:44","新北市汐止區龍安路28巷10號","121.654815","25.0644016666667","6501100","汐止區"
"220027","145-BY","2018/01/22 13:29:36","新北市板橋區華東街1-10號","121.448326666667","24.995105","6500100","板橋區"
"220030","610-BX","2018/01/22 13:29:36","新北市板橋區華東街1-10號","121.44829","24.9949016666667","6500100","板橋區"
"220019","283-VK","2018/01/22 13:29:42","新北市板橋區華東街1-9號","121.448058333333","24.9948833333333","6500100","板橋區"
"220032","296-UM","2018/01/22 13:29:30","新北市板橋區華東街1-9號","121.44812","24.9950166666667","6500100","板橋區"
"220023","303-R5","2018/01/22 13:29:41","新北市板橋區華東街1-9號","121.448236666667","24.99495","6500100","板橋區"
"220104","560-BX","2018/01/22 13:29:46","新北市板橋區林園街1號","121.453785","25.009145","6500100","板橋區"
"220005","686-BX","2018/01/22 13:29:29","新北市板橋區華東街1-10號","121.44823","24.9949766666667","6500100","板橋區"
"220025","687-BX","2018/01/22 13:29:29","新北市板橋區大觀路三段52號","121.43227","24.99604","6500100","板橋區"
"220014","829-TW","2018/01/22 13:29:41","新北市板橋區民生路二段161巷5號","121.470271666667","25.0197666666667","6500100","板橋區"
"220022","895-R6","2018/01/22 13:29:42","新北市板橋區華東街1-10號","121.448381666667","24.9950383333333","6500100","板橋區"
"220021","985-R7","2018/01/22 13:29:42","新北市板橋區華東街1-10號","121.448293333333","24.9950016666667","6500100","板橋區"
