"lineid","car","time","location","longitude","latitude","cityid","cityname"
"234044","148-BY","2018/01/22 13:59:21","新北市永和區成功路一段77號","121.526961666667","25.00318","6500400","永和區"
"234005","207-UY","2018/01/22 13:59:28","新北市中和區中和路330號","121.509978333333","25.0011316666667","6500400","永和區"
"234078","298-R6","2018/01/22 13:59:30","新北市永和區國中路8號","121.524295","25.0047333333333","6500400","永和區"
"234036","336-UY","2018/01/22 13:59:19","新北市永和區成功路二段183號","121.52668","24.9966016666667","6500400","永和區"
"234062","337-UY","2018/01/22 13:59:26","新北市永和區中正路412巷20弄14號","121.518806666667","25.0015183333333","6500400","永和區"
"234084","338-UY","2018/01/22 13:59:27","新北市永和區福和路278號","121.51789","25.007505","6500400","永和區"
"234068","552-UM","2018/01/22 13:59:20","新北市永和區國光路39-1號","121.519041666667","25.008255","6500400","永和區"
"234052","553-UM","2018/01/22 13:59:14","新北市永和區竹林路39巷14號","121.518485","25.0145566666667","6500400","永和區"
"234015","745-BX","2018/01/22 13:59:18","新北市永和區文化路170號","121.511905","25.0153816666667","6500400","永和區"
"234028","746-BX","2018/01/22 13:59:20","新北市永和區四維街75號","121.525176666667","24.9978366666667","6500400","永和區"
"234012","KEA-2591","2018/01/22 13:59:33","新北市永和區仁愛路285號","121.505568333333","25.0094933333333","6500400","永和區"
"234060","AAD-866","2018/01/22 13:59:33","新北市永和區中正路283巷37號","121.516126666667","24.9996283333333","6500400","永和區"
"234040","862-TW","2018/01/22 13:59:32","新北市永和區中和路421巷3弄21號","121.508511666667","25.000295","6500400","永和區"
"234048","863-TW","2018/01/22 13:59:18","新北市永和區保安路145號","121.507068333333","25.0131666666667","6500400","永和區"
"234022","9381-KE","2018/01/22 13:59:29","新北市永和區中正路702巷20弄1號","121.516548333333","25.01057","6500400","永和區"
"234010","9373-KE","2018/01/22 13:59:21","新北市永和區仁愛路352巷106號","121.500691666667","25.0080383333333","6500400","永和區"
"248015","026-BX","2018/01/22 13:59:18","新北市五股區成泰路三段559巷14弄2號","121.451345","25.102415","6501500","五股區"
"248007","095-VK","2018/01/22 13:59:30","新北市五股區中興路一段128巷18號","121.465711666667","25.0747033333333","6501500","五股區"
"248019","225-UY","2018/01/22 13:59:30","新北市五股區凌雲路三段57號","121.425333333333","25.1250283333333","6501500","五股區"
"248011","247-BX","2018/01/22 13:59:20","新北市五股區成泰路二段197巷1號","121.440566666667","25.0875033333333","6501500","五股區"
"248003","677-BX","2018/01/22 13:59:27","新北市五股區民義路一段305號","121.421356666667","25.0960783333333","6501500","五股區"
"248009","682-TV","2018/01/22 13:59:14","新北市五股區水碓一路23號","121.430601666667","25.0713783333333","6501500","五股區"
"234076","969-R7","2018/01/22 13:59:27","新北市永和區民權路58巷2弄2號","121.519803333333","24.9982966666667","6500400","永和區"
"234072","AAC-211","2018/01/22 13:59:27","新北市永和區豫溪街185號","121.522463333333","25.01035","6500400","永和區"
"234066","AAC-212","2018/01/22 13:59:35","新北市永和區永貞路362號","121.510206666667","25.0066833333333","6500400","永和區"
"234001","AAC-295","2018/01/22 13:59:35","新北市永和區自由街2號","121.514858333333","25.0071633333333","6500400","永和區"
"243004","AAD-798","2018/01/22 13:59:28","新北市泰山區仁德路112號","121.432776666667","25.0569566666667","6501600","泰山區"
"243003","297-R6","2018/01/22 13:59:25","新北市泰山區明志路二段320巷2弄7號","121.426085","25.04658","6501600","泰山區"
"243007","380-SR","2018/01/22 13:59:26","新北市泰山區泰林路二段219號","121.432543333333","25.0618333333333","6501600","泰山區"
"243006","421-VK","2018/01/22 13:59:25","新北市泰山區黎明路25號","121.421826666667","25.0608516666667","6501600","泰山區"
"243002","KEA-2215","2018/01/22 13:59:30","新北市泰山區辭修路30號","121.428996666667","25.058215","6501600","泰山區"
"243001","KEA-2216","2018/01/22 13:59:22","新北市泰山區泰林路二段245號","121.432001666667","25.0621433333333","6501600","泰山區"
"243005","646-TV","2018/01/22 13:59:21","新北市泰山區明志路三段351巷25號","121.422891666667","25.034835","6501600","泰山區"
"231002","002-UM","2018/01/22 13:59:24","新北市新店區溪園路205號","121.527633333333","24.9852183333333","6500600","新店區"
"231025","0291-UT","2018/01/22 13:59:30","新北市新店區中正路275巷5號","121.537555","24.9740133333333","6500600","新店區"
"231028","046-UY","2018/01/22 13:59:24","新北市新店區安和路三段77號","121.517935","24.9834883333333","6500600","新店區"
"231030","047-UY","2018/01/22 13:59:21","新北市新店區安興路7-1號","121.515008333333","24.968525","6500600","新店區"
"231029","106-UY","2018/01/22 13:59:30","新北市新店區安康路二段3-3號","121.515915","24.9637083333333","6500600","新店區"
"231018","107-UY","2018/01/22 13:59:34","新北市新店區中央路99號","121.531085","24.975075","6500600","新店區"
"231011","108-UY","2018/01/22 13:59:32","新北市新店區五峰路62號","121.545875","24.9682566666667","6500600","新店區"
"231019","188-VK","2018/01/22 13:59:33","新北市新店區自強路74巷4號","121.545641666667","24.92498","6500600","新店區"
"231014","KEA-2219","2018/01/22 13:59:18","新北市新店區北宜路二段82-1號","121.553598333333","24.9532566666667","6500600","新店區"
"231026","256-BX","2018/01/22 13:59:34","新北市新店區環河路22號","121.536888333333","24.9617866666667","6500600","新店區"
"231023","AAD-862","2018/01/22 13:59:15","新北市新店區文中路40號","121.539725","24.95655","6500600","新店區"
"231027","3712-VJ","2018/01/22 13:59:24","新北市新店區中興路一段34號","121.538748333333","24.95856","6500600","新店區"
"231024","4716-K9","2018/01/22 13:59:30","新北市新店區新生街11號","121.540031666667","24.9661766666667","6500600","新店區"
"231038","4715-K9","2018/01/22 13:59:28","新北市新店區溪洲路101-1號","121.531816666667","24.96246","6500600","新店區"
"231036","512-UM","2018/01/22 13:59:19","新北市新店區安祥路110巷2號","121.474841666667","24.9570583333333","6500600","新店區"
"231035","515-UM","2018/01/22 13:59:26","新北市新店區安康路二段85巷5弄2號","121.513666666667","24.9623016666667","6500600","新店區"
"231003","616-UM","2018/01/22 13:59:21","新北市新店區北宜路一段3號","121.538431666667","24.95841","6500600","新店區"
"231001","619-UM","2018/01/22 13:59:33","新北市新店區三民路45號","121.537103333333","24.9709383333333","6500600","新店區"
"231034","645-TV","2018/01/22 13:59:21","新北市新店區達觀路41號","121.502946666667","24.9387866666667","6500600","新店區"
"231013","719-UM","2018/01/22 13:59:28","新北市新店區明德路66號","121.541555","24.9795","6500600","新店區"
"231031","720-UM","2018/01/22 13:59:27","新北市新店區太平路27號","121.533725","24.95826","6500600","新店區"
"231005","897-TW","2018/01/22 13:59:18","新北市新店區中興路三段202號","121.54382","24.9819616666667","6500600","新店區"
"231006","898-TW","2018/01/22 13:59:29","新北市新店區北宜路二段207號","121.553131666667","24.9532933333333","6500600","新店區"
"231004","899-TW","2018/01/22 13:59:22","新北市新店區北新路二段156號","121.543006666667","24.9754933333333","6500600","新店區"
"231037","AKT-0513","2018/01/22 13:59:33","新北市新店區安康路三段207巷15號","121.488408333333","24.9508083333333","6500600","新店區"
"235030","003-UY","2018/01/22 13:59:22","新北市中和區中山路二段131巷10弄4號","121.50277","25.002315","6500300","中和區"
"235028","005-UY","2018/01/22 13:59:33","新北市中和區泰和街44巷35號","121.498035","25.0013316666667","6500300","中和區"
"235027","006-UY","2018/01/22 13:59:19","新北市中和區中正路580號","121.486073333333","24.9948133333333","6500300","中和區"
"235020","096-UM","2018/01/22 13:59:24","新北市中和區中正路1206巷10號","121.480276666667","25.011125","6500300","中和區"
"235003","097-UM","2018/01/22 13:59:20","新北市中和區景平路64巷13弄20號","121.521728333333","24.99145","6500300","中和區"
"235029","098-UM","2018/01/22 13:59:23","新北市中和區福祥路129號","121.498595","25.0071183333333","6500300","中和區"
"235004","150-BY","2018/01/22 13:59:33","新北市中和區保健路46巷20弄2號","121.508916666667","24.996155","6500300","中和區"
"235022","151-BY","2018/01/22 13:59:37","新北市中和區連城路530號","121.47581","24.991535","6500300","中和區"
"235019","183-VK","2018/01/22 13:59:34","新北市板橋區民族路310號","121.470721666667","25.0064833333333","6500300","中和區"
"235002","185-VK","2018/01/22 13:59:16","新北市中和區立人街24-4號","121.518893333333","24.9942183333333","6500300","中和區"
"235013","186-VK","2018/01/22 13:59:30","新北市中和區景新街210巷2弄2號","121.507056666667","24.9942216666667","6500300","中和區"
"235031","255-BX","2018/01/22 13:59:22","新北市中和區新生街170號","121.483703333333","25.000135","6500300","中和區"
"235008","293-VK","2018/01/22 13:59:24","新北市中和區中興街161巷8弄2號","121.500873333333","24.9908733333333","6500300","中和區"
"235036","301-VK","2018/01/22 13:59:33","新北市中和區中山路二段172號","121.501158333333","25.0028","6500300","中和區"
"235007","352-BY","2018/01/22 13:59:29","新北市中和區秀朗路三段48號","121.526446666667","24.995565","6500300","中和區"
"235032","377-QA","2018/01/22 13:59:31","新北市中和區圓通路281巷3號","121.49566","24.9927033333333","6500300","中和區"
"235025","378-QA","2018/01/22 13:59:30","新北市中和區民有街57號","121.476186666667","25.0037766666667","6500300","中和區"
"235014","4979-A6","2018/01/22 13:59:27","新北市中和區華新街50巷8號","121.507653333333","24.9839833333333","6500300","中和區"
"235033","4980-A6","2018/01/22 13:59:26","新北市中和區中和路217巷18弄1號","121.504755","25.000315","6500300","中和區"
"235006","551-UM","2018/01/22 13:59:22","新北市中和區秀朗路三段22巷22號","121.525291666667","24.9961716666667","6500300","中和區"
"235034","558-UM","2018/01/22 13:56:14","新北市中和區南山路37巷3弄16號","121.502405","24.9993883333333","6500300","中和區"
"235009","565-BX","2018/01/22 13:59:19","新北市中和區景新街467巷20弄7號","121.51434","24.9879766666667","6500300","中和區"
"235018","640-BX","2018/01/22 13:59:23","新北市中和區自治街1號","121.47489","25.0033183333333","6500300","中和區"
"235024","647-TV","2018/01/22 13:59:30","新北市中和區中山路三段206號","121.471553333333","25.00649","6500300","中和區"
"235011","732-UM","2018/01/22 13:59:31","新北市中和區興南路二段54巷11弄12號","121.505393333333","24.9852216666667","6500300","中和區"
"235010","733-UM","2018/01/22 13:59:25","新北市中和區興南路一段135巷22弄14號","121.508955","24.9866433333333","6500300","中和區"
"235026","800-TS","2018/01/22 13:59:21","新北市中和區中山路二段340巷64號","121.492935","25.0048483333333","6500300","中和區"
"235021","801-TS","2018/01/22 13:59:20","新北市中和區民利街40巷3弄11號","121.47889","24.9991316666667","6500300","中和區"
"235005","802-TS","2018/01/22 13:59:33","新北市中和區中安街18號","121.513441666667","25.00314","6500300","中和區"
"235016","805-TS","2018/01/22 13:59:29","新北市中和區興南路二段261巷6-11號","121.502825","24.9796816666667","6500300","中和區"
"235012","896-TW","2018/01/22 13:59:23","新北市中和區華新街42號","121.507905","24.9842683333333","6500300","中和區"
"235017","900-TW","2018/01/22 13:59:34","新北市中和區壽德街20-1號","121.466225","24.9948216666667","6500300","中和區"
"235015","157-BY","2018/01/22 13:59:27","新北市中和區忠孝街19巷2號","121.51018","24.98303","6500300","中和區"
"235001","AAC-213","2018/01/22 13:59:35","新北市中和區自立路3號","121.522631666667","24.9967333333333","6500300","中和區"
"235023","AAC-215","2018/01/22 13:59:35","新北市中和區圓通路367巷20弄23號","121.491398333333","24.9882983333333","6500300","中和區"
"220034","015-TV","2018/01/22 13:59:29","新北市板橋區館前西路158-2號","121.45483","25.0088883333333","6500100","板橋區"
"220013","072-UY","2018/01/22 13:59:35","新北市板橋區漢生東路340巷12號","121.471348333333","25.0073133333333","6500100","板橋區"
"220034","073-UY","2018/01/22 13:59:32","新北市板橋區大智街14號","121.455953333333","25.0148433333333","6500100","板橋區"
"220105","075-UY","2018/01/22 13:59:25","新北市板橋區文化路二段124巷22號","121.47114","25.0257483333333","6500100","板橋區"
"220017","AAD-861","2018/01/22 13:59:27","新北市板橋區華興街32-5號","121.458885","25.0046883333333","6500100","板橋區"
"220045","120-SR","2018/01/22 13:59:24","新北市板橋區莒光路99號","121.472473333333","25.0240683333333","6500100","板橋區"
"247011","546-UM","2018/01/22 13:59:38","新北市蘆洲區中興街11號","121.480406666667","25.0869083333333","6501400","蘆洲區"
"247019","500-BY","2018/01/22 13:59:30","新北市蘆洲區民族路422巷29號","121.473571666667","25.09328","6501400","蘆洲區"
"247007","341-TH","2018/01/22 13:59:29","新北市三重區仁愛街743號","121.481313333333","25.0806566666667","6501400","蘆洲區"
"247009","339-TH","2018/01/22 13:59:19","新北市蘆洲區集賢路224巷20號","121.481776666667","25.0871583333333","6501400","蘆洲區"
"247003","336-TH","2018/01/22 13:59:26","新北市蘆洲區中華街8號","121.463315","25.0817283333333","6501400","蘆洲區"
"247015","057-VK","2018/01/22 13:59:26","新北市蘆洲區光華路33號","121.469098333333","25.083065","6501400","蘆洲區"
"247005","056-VK","2018/01/22 13:59:35","新北市蘆洲區永安南路二段50號","121.466065","25.0776716666667","6501400","蘆洲區"
"247013","007-UY","2018/01/22 13:59:26","新北市蘆洲區中正路100號","121.469738333333","25.0843283333333","6501400","蘆洲區"
"247017","001-UY","2018/01/22 13:59:17","新北市蘆洲區民族路327巷140號","121.475413333333","25.08933","6501400","蘆洲區"
"253001","4710-YM","2018/01/22 13:59:18","新北市石門區八甲60-5號","121.526118333333","25.271015","6502200","石門區"
"253003","6232-TK","2018/01/22 13:59:14","新北市石門區尖子鹿16號","121.576513333333","25.27919","6502200","石門區"
"253002","637-UY","2018/01/22 13:59:31","新北市石門區尖山湖17號","121.561346666667","25.2452816666667","6502200","石門區"
"253004","8270-PC","2018/01/22 13:58:54","新北市石門區草埔尾34號","121.603286666667","25.265805","6502200","石門區"
"208004","AAC-292","2018/01/22 13:59:19","新北市金山區山城路29號","121.598305","25.2019233333333","6502700","金山區"
"207002","749-BX","2018/01/22 13:58:01","新北市萬里區溪底里烏塗炭9號","121.6376","25.1516266666667","6502800","萬里區"
"252005","073-UM","2018/01/22 13:59:20","新北市三芝區圓山里二坪頂77-1號","121.537521666667","25.238655","6502100","三芝區"
"207001","662-BX","2018/01/22 13:59:26","新北市萬里區磺潭里清水18號","121.63776","25.1977716666667","6502800","萬里區"
"236064","105-UM","2018/01/22 13:59:36","新北市土城區城林路6巷80號","121.438415","24.9796716666667","6501300","土城區"
"236040","107-UM","2018/01/22 13:59:21","新北市土城區中央路二段280號","121.440723333333","24.9740733333333","6501300","土城區"
"236074","166-UM","2018/01/22 13:59:04","新北市土城區永寧路32巷10弄3號","121.428853333333","24.9610216666667","6501300","土城區"
"236028","253-BX","2018/01/22 13:59:24","新北市土城區城林路6巷80號","121.438541666667","24.9798033333333","6501300","土城區"
"236024","269-VK","2018/01/22 13:59:23","新北市土城區承天路31號","121.437063333333","24.9650366666667","6501300","土城區"
"236012","270-VK","2018/01/22 13:59:35","新北市土城區員福街6號","121.441863333333","24.9784283333333","6501300","土城區"
"236032","271-VK","2018/01/22 13:59:22","新北市土城區城林路6巷80號","121.438515","24.9797383333333","6501300","土城區"
"236016","401-BY","2018/01/22 13:59:31","新北市土城區城林路6巷80號","121.438565","24.97979","6501300","土城區"
"236005","498-BY","2018/01/22 13:59:17","新北市土城區中央路一段365巷27弄1號","121.446675","24.9798483333333","6501300","土城區"
"236056","912-UM","2018/01/22 13:59:15","新北市土城區永寧路1號","121.430488333333","24.9648166666667","6501300","土城區"
"236044","913-UM","2018/01/22 13:59:35","新北市土城區城林路6巷80號","121.43821","24.9796666666667","6501300","土城區"
"236060","915-UM","2018/01/22 13:59:27","新北市土城區城林路6巷80號","121.438443333333","24.979795","6501300","土城區"
"236052","AAC-216","2018/01/22 13:59:22","新北市土城區城林路6巷80號","121.4384","24.9797966666667","6501300","土城區"
"221036","130-UY","2018/01/22 13:59:19","新北市汐止區汐碇路436巷104弄1號","121.642331666667","25.030945","6501100","汐止區"
"221029","298-VK","2018/01/22 13:59:30","新北市汐止區橫科路407巷99號","121.62913","25.05147","6501100","汐止區"
"220027","145-BY","2018/01/22 13:59:36","新北市板橋區民權路202巷1弄2-3號","121.459483333333","25.01419","6500100","板橋區"
"220028","200-UY","2018/01/22 13:59:32","新北市板橋區大觀路二段265巷1弄46號","121.44486","24.9979983333333","6500100","板橋區"
"220030","610-BX","2018/01/22 13:59:23","新北市板橋區篤行路三段20-1號","121.428758333333","24.98706","6500100","板橋區"
"220050","245-BX","2018/01/22 13:59:20","新北市板橋區文化路二段182巷3弄2號","121.471488333333","25.0271483333333","6500100","板橋區"
"220004","276-BY","2018/01/22 13:59:20","新北市板橋區信義路78號","121.457651666667","24.993335","6500100","板橋區"
"220020","277-BY","2018/01/22 13:59:31","新北市板橋區大觀路三段50巷53號","121.431995","24.995965","6500100","板橋區"
"220012","282-UM","2018/01/22 13:59:31","新北市板橋區縣民大道二段112號","121.467145","25.015695","6500100","板橋區"
"220019","283-VK","2018/01/22 13:59:22","新北市板橋區忠孝路136號","121.463595","25.0023616666667","6500100","板橋區"
"220043","285-UM","2018/01/22 13:59:33","新北市板橋區文化路二段51號","121.469131666667","25.0250966666667","6500100","板橋區"
"220001","285-VK","2018/01/22 13:59:35","新北市板橋區中山路二段89巷48號","121.473731666667","25.01724","6500100","板橋區"
"220031","286-VK","2018/01/22 13:59:19","新北市板橋區大觀路一段38巷170弄1號","121.441951666667","25.00459","6500100","板橋區"
"220029","287-VK","2018/01/22 13:59:34","新北市板橋區光華街19巷32號","121.453451666667","25.0120383333333","6500100","板橋區"
"220039","288-VK","2018/01/22 13:59:27","新北市板橋區四維路177巷2弄1號","121.463996666667","25.0262116666667","6500100","板橋區"
"220009","293-UM","2018/01/22 13:59:30","新北市板橋區永豐街120巷2弄9-2號","121.476383333333","25.0203533333333","6500100","板橋區"
"220010","295-UM","2018/01/22 13:59:32","新北市板橋區三民路二段245巷47號","121.48061","25.0126283333333","6500100","板橋區"
"220032","296-UM","2018/01/22 13:59:30","新北市板橋區龍興街63巷2號","121.442986666667","25.0012866666667","6500100","板橋區"
"220023","303-R5","2018/01/22 13:59:21","新北市板橋區館前西路213巷19號","121.454335","25.0080033333333","6500100","板橋區"
"220041","307-R5","2018/01/22 13:59:29","新北市板橋區文化路一段104巷17號","121.465065","25.01805","6500100","板橋區"
"220047","317-R6","2018/01/22 13:59:31","新北市板橋區民有街18號","121.466213333333","25.0250333333333","6500100","板橋區"
"220038","487-VK","2018/01/22 13:59:29","新北市板橋區文化路二段22號","121.468886666667","25.0244566666667","6500100","板橋區"
"220037","491-VK","2018/01/22 13:59:14","新北市板橋區民生路二段208號","121.469541666667","25.0211866666667","6500100","板橋區"
"220104","560-BX","2018/01/22 13:59:25","新北市板橋區中正路375巷27號","121.453803333333","25.0201716666667","6500100","板橋區"
"220052","561-BX","2018/01/22 13:59:27","新北市板橋區縣民大道二段279號","121.470095","25.0178483333333","6500100","板橋區"
"220003","568-UM","2018/01/22 13:59:29","新北市板橋區區運路67號","121.466861666667","25.0109333333333","6500100","板橋區"
"220011","609-BX","2018/01/22 13:59:23","新北市板橋區中山路二段88號","121.475146666667","25.0162783333333","6500100","板橋區"
"220040","637-BX","2018/01/22 13:59:31","新北市板橋區莒光路165巷38號","121.474321666667","25.024995","6500100","板橋區"
"220005","686-BX","2018/01/22 13:59:34","新北市板橋區館前東路29號","121.46075","25.0073216666667","6500100","板橋區"
"220025","687-BX","2018/01/22 13:59:29","新北市板橋區大觀路二段431-1號","121.441095","24.99473","6500100","板橋區"
"220042","689-BX","2018/01/22 13:59:29","新北市板橋區民生路三段30-5號","121.467465","25.0246716666667","6500100","板橋區"
"220002","741-BX","2018/01/22 13:59:15","新北市板橋區後埔街45號","121.460535","25.00597","6500100","板橋區"
"220014","829-TW","2018/01/22 13:59:20","新北市板橋區三民路二段正隆巷12弄18號","121.477623333333","25.01355","6500100","板橋區"
"220051","830-TW","2018/01/22 13:59:19","新北市板橋區萬板路706號","121.481536666667","25.0273283333333","6500100","板橋區"
"220022","895-R6","2018/01/22 13:59:29","新北市板橋區南雅南路一段106號","121.454936666667","25.0044516666667","6500100","板橋區"
"220021","985-R7","2018/01/22 13:59:23","新北市板橋區西門街2號","121.455893333333","25.011545","6500100","板橋區"
"220046","AAC-210","2018/01/22 13:59:24","新北市板橋區陽明街166號","121.463631666667","25.0245983333333","6500100","板橋區"
"220018","AAC-253","2018/01/22 13:59:32","新北市板橋區四川路一段329號","121.45854","25.00034","6500100","板橋區"
