"lineid","car","time","location","longitude","latitude","cityid","cityname"
"234044","148-BY","2018/01/22 14:09:20","新北市永和區得和路324號","121.523185","24.9995683333333","6500400","永和區"
"234005","207-UY","2018/01/22 14:09:08","新北市永和區中和路307號","121.506656666667","24.9996233333333","6500400","永和區"
"234078","298-R6","2018/01/22 14:09:00","新北市永和區永亨路100號","121.5231","25.0047883333333","6500400","永和區"
"234036","336-UY","2018/01/22 14:09:19","新北市永和區成功路一段47巷5號","121.527468333333","25.0040866666667","6500400","永和區"
"234062","337-UY","2018/01/22 14:09:06","新北市永和區永利路156號","121.522573333333","25.00284","6500400","永和區"
"234084","338-UY","2018/01/22 14:09:07","新北市永和區福和路16號","121.524206666667","25.0085233333333","6500400","永和區"
"234068","552-UM","2018/01/22 14:09:20","新北市永和區福和路247號","121.518043333333","25.0074683333333","6500400","永和區"
"234052","553-UM","2018/01/22 14:09:14","新北市永和區博愛街53號","121.51969","25.0159833333333","6500400","永和區"
"234015","745-BX","2018/01/22 14:09:18","新北市永和區仁愛路30號","121.514591666667","25.013445","6500400","永和區"
"234028","746-BX","2018/01/22 14:09:00","新北市永和區民權路51號","121.5202","24.99701","6500400","永和區"
"234012","KEA-2591","2018/01/22 14:09:13","新北市永和區保生路3號","121.506268333333","25.0073883333333","6500400","永和區"
"234060","AAD-866","2018/01/22 14:09:04","新北市永和區安樂路100巷21弄17號","121.51485","24.9989633333333","6500400","永和區"
"234040","862-TW","2018/01/22 14:09:06","新北市永和區雙和街16巷12號","121.509983333333","25.0024466666667","6500400","永和區"
"234048","863-TW","2018/01/22 14:09:18","新北市永和區環河西路二段149號","121.5057","25.01403","6500400","永和區"
"234025","9371-KE","2018/01/22 14:09:21","新北市永和區安樂路272巷9弄7號","121.515101666667","25.0045483333333","6500400","永和區"
"234022","9381-KE","2018/01/22 14:09:09","新北市永和區復興街16巷2號","121.515588333333","25.0126616666667","6500400","永和區"
"234010","9373-KE","2018/01/22 14:09:01","新北市永和區仁愛路352巷122弄30號","121.500795","25.0091583333333","6500400","永和區"
"248015","026-BX","2018/01/22 14:09:18","新北市五股區成泰路三段545號","121.45189","25.10172","6501500","五股區"
"248007","095-VK","2018/01/22 14:09:10","新北市五股區中興路一段118巷18號","121.46602","25.0742683333333","6501500","五股區"
"248019","225-UY","2018/01/22 14:00:04","新北市五股區凌雲路三段57號","121.425331666667","25.12503","6501500","五股區"
"248011","247-BX","2018/01/22 14:09:00","新北市五股區工商路18巷23弄22號","121.439821666667","25.08434","6501500","五股區"
"248003","677-BX","2018/01/22 14:09:07","新北市五股區六合街3號","121.431803333333","25.0885683333333","6501500","五股區"
"248009","682-TV","2018/01/22 14:09:14","新北市五股區水碓一路23號","121.430593333333","25.071295","6501500","五股區"
"234076","969-R7","2018/01/22 14:09:09","新北市永和區民權路96號","121.519896666667","24.99666","6500400","永和區"
"234072","AAC-211","2018/01/22 14:09:06","新北市永和區竹林路201巷22弄7號","121.52243","25.0093433333333","6500400","永和區"
"234066","AAC-212","2018/01/22 14:09:16","新北市永和區保平路236巷15弄1號","121.508563333333","25.0062266666667","6500400","永和區"
"234001","AAC-295","2018/01/22 14:09:15","新北市永和區中正路708號","121.516011666667","25.0099566666667","6500400","永和區"
"243004","AAD-798","2018/01/22 14:09:08","新北市泰山區辭修路34巷1號","121.428558333333","25.0580483333333","6501600","泰山區"
"243003","297-R6","2018/01/22 14:09:05","新北市泰山區明志路二段358號","121.425475","25.0453183333333","6501600","泰山區"
"243007","380-SR","2018/01/22 14:09:02","新北市泰山區明志路一段432號","121.430665","25.056295","6501600","泰山區"
"243006","421-VK","2018/01/22 14:09:05","新北市泰山區泰林路二段528號","121.423891666667","25.0638166666667","6501600","泰山區"
"243002","KEA-2215","2018/01/22 14:09:10","新北市泰山區明志路一段483巷1弄2號","121.431123333333","25.05537","6501600","泰山區"
"243001","KEA-2216","2018/01/22 14:09:08","新北市泰山區明志路一段95號","121.43361","25.0640166666667","6501600","泰山區"
"243005","646-TV","2018/01/22 14:09:01","新北市泰山區明志路三段145巷2弄15號","121.42507","25.03936","6501600","泰山區"
"231002","002-UM","2018/01/22 14:09:03","新北市新店區中正路616號","121.53393","24.9886683333333","6500600","新店區"
"231025","0291-UT","2018/01/22 14:09:10","新北市新店區中正路302巷14號","121.538056666667","24.975235","6500600","新店區"
"231028","046-UY","2018/01/22 14:09:17","新北市新店區安業街1號","121.516631666667","24.978985","6500600","新店區"
"231030","047-UY","2018/01/22 14:09:21","新北市新店區安民街65巷21-2號","121.515078333333","24.9674716666667","6500600","新店區"
"231029","106-UY","2018/01/22 14:09:10","新北市新店區安康路二段161號","121.510248333333","24.959445","6500600","新店區"
"231018","107-UY","2018/01/22 14:09:14","新北市新店區中央五街2號","121.530071666667","24.9740683333333","6500600","新店區"
"231011","108-UY","2018/01/22 14:09:12","新北市新店區五峰路71號","121.54641","24.9681766666667","6500600","新店區"
"231019","188-VK","2018/01/22 14:09:13","新北市新店區屈尺路83號","121.545093333333","24.922575","6500600","新店區"
"231014","KEA-2219","2018/01/22 14:09:18","新北市新店區郵政路1號","121.557741666667","24.9529133333333","6500600","新店區"
"231023","AAD-862","2018/01/22 14:09:15","新北市新店區文中路40號","121.539718333333","24.95658","6500600","新店區"
"231027","3712-VJ","2018/01/22 14:09:23","新北市新店區光明街224巷20弄3號","121.54075","24.9623816666667","6500600","新店區"
"231024","4716-K9","2018/01/22 14:09:10","新北市新店區新生街13巷26號","121.53898","24.9665416666667","6500600","新店區"
"231038","4715-K9","2018/01/22 14:09:08","新北市新店區溪洲路101-1號","121.531788333333","24.96247","6500600","新店區"
"231036","512-UM","2018/01/22 14:09:19","新北市新店區安祥路109巷1弄1號","121.475626666667","24.959415","6500600","新店區"
"231035","515-UM","2018/01/22 14:09:06","新北市新店區安和路一段52巷2號","121.517625","24.966175","6500600","新店區"
"231003","616-UM","2018/01/22 14:09:21","新北市新店區中興路一段180號","121.543206666667","24.9646833333333","6500600","新店區"
"231001","619-UM","2018/01/22 14:09:13","新北市新店區中華路40號","121.539903333333","24.9681883333333","6500600","新店區"
"231034","645-TV","2018/01/22 14:09:01","新北市新店區黎明路3號","121.503416666667","24.9523783333333","6500600","新店區"
"231013","719-UM","2018/01/22 14:09:08","新北市新店區二十張路1巷3弄3號","121.540625","24.9820816666667","6500600","新店區"
"231031","720-UM","2018/01/22 14:09:07","新北市新店區太平路2號","121.53463","24.9577183333333","6500600","新店區"
"231005","897-TW","2018/01/22 14:09:18","新北市新店區中興路三段301號","121.542048333333","24.985455","6500600","新店區"
"231006","898-TW","2018/01/22 14:09:09","新北市新店區北宜路二段126號","121.556845","24.9538683333333","6500600","新店區"
"231004","899-TW","2018/01/22 14:09:22","新北市新店區北新路二段156-1號","121.542951666667","24.9755283333333","6500600","新店區"
"231037","AKT-0513","2018/01/22 14:09:13","新北市新店區安康路三段77號","121.49204","24.9520083333333","6500600","新店區"
"235030","003-UY","2018/01/22 14:09:02","新北市中和區水源路102號","121.50609","25.003385","6500300","中和區"
"235028","005-UY","2018/01/22 14:09:14","新北市中和區連城路23巷1號","121.498968333333","25.0018683333333","6500300","中和區"
"235027","006-UY","2018/01/22 14:09:19","新北市中和區連城路249巷21弄2號","121.494083333333","24.99594","6500300","中和區"
"235020","096-UM","2018/01/22 14:09:04","新北市中和區員山路534號","121.478865","25.0098833333333","6500300","中和區"
"235003","097-UM","2018/01/22 14:09:00","新北市中和區景平路3號","121.52409","24.9902166666667","6500300","中和區"
"235029","098-UM","2018/01/22 14:09:15","新北市中和區中山路二段136巷8號","121.501818333333","25.0037483333333","6500300","中和區"
"235004","150-BY","2018/01/22 14:09:16","新北市中和區宜安路119巷2號","121.509786666667","24.9977083333333","6500300","中和區"
"235022","151-BY","2018/01/22 14:09:22","新北市中和區員山路143巷22號","121.48009","24.99593","6500300","中和區"
"235019","183-VK","2018/01/22 14:09:14","新北市中和區德光路71號","121.46957","25.0037883333333","6500300","中和區"
"235002","185-VK","2018/01/22 14:09:16","新北市中和區大仁街10巷27弄4號","121.5192","24.992725","6500300","中和區"
"235013","186-VK","2018/01/22 14:09:10","新北市中和區景新街210巷2弄2號","121.50705","24.9942166666667","6500300","中和區"
"235031","255-BX","2018/01/22 14:06:11","新北市中和區新生街199號","121.483776666667","25.00003","6500300","中和區"
"235008","293-VK","2018/01/22 14:09:04","新北市中和區中興街214號","121.499525","24.9900083333333","6500300","中和區"
"235036","301-VK","2018/01/22 14:09:13","新北市中和區福祥路90巷3號","121.499431666667","25.0057616666667","6500300","中和區"
"235007","352-BY","2018/01/22 14:09:08","新北市中和區景平路4號","121.52448","24.9905","6500300","中和區"
"235032","377-QA","2018/01/22 14:09:11","新北市中和區圓通路179號","121.497526666667","24.99491","6500300","中和區"
"235025","378-QA","2018/01/22 14:09:10","新北市中和區員山路349號","121.481271666667","25.0017783333333","6500300","中和區"
"235014","4979-A6","2018/01/22 14:09:07","新北市中和區復興路276號","121.502793333333","24.9905516666667","6500300","中和區"
"235033","4980-A6","2018/01/22 14:09:06","新北市中和區中山路二段134-5號","121.502243333333","25.0032766666667","6500300","中和區"
"235006","551-UM","2018/01/22 14:09:22","新北市中和區自立路117巷2弄2號","121.522343333333","24.9943933333333","6500300","中和區"
"235034","558-UM","2018/01/22 14:07:33","新北市中和區安和路205號","121.50614","24.99868","6500300","中和區"
"235009","565-BX","2018/01/22 14:09:19","新北市中和區景新街467巷35弄1號","121.514581666667","24.9890916666667","6500300","中和區"
"235018","640-BX","2018/01/22 14:09:03","新北市中和區民享街85號","121.474271666667","25.0016733333333","6500300","中和區"
"235024","647-TV","2018/01/22 14:09:10","新北市中和區民治街120號","121.475168333333","25.0033583333333","6500300","中和區"
"235011","732-UM","2018/01/22 14:09:11","新北市中和區興南路一段56巷11號","121.51019","24.9912766666667","6500300","中和區"
"235010","733-UM","2018/01/22 14:09:05","新北市中和區忠孝街1巷52號","121.508446666667","24.984515","6500300","中和區"
"235026","800-TS","2018/01/22 14:09:02","新北市中和區中山路二段366巷15號","121.491655","25.0046516666667","6500300","中和區"
"235021","801-TS","2018/01/22 14:09:00","新北市中和區民利街48號","121.479383333333","24.9988133333333","6500300","中和區"
"235005","802-TS","2018/01/22 14:09:13","新北市中和區中安街58號","121.512555","25.0021766666667","6500300","中和區"
"235016","805-TS","2018/01/22 14:09:09","新北市中和區興南路二段128巷7弄2號","121.503245","24.984025","6500300","中和區"
"235012","896-TW","2018/01/22 14:09:04","新北市中和區工專路147號","121.508403333333","24.9788433333333","6500300","中和區"
"235017","900-TW","2018/01/22 14:09:16","新北市中和區華福街51號","121.46654","24.9966766666667","6500300","中和區"
"235015","157-BY","2018/01/22 14:09:07","新北市中和區景新街401號","121.512603333333","24.9897016666667","6500300","中和區"
"235001","AAC-213","2018/01/22 14:09:15","新北市中和區秀朗路三段60巷9號","121.525735","24.995055","6500300","中和區"
"235023","AAC-215","2018/01/22 14:09:15","新北市中和區圓通路294巷17-5號","121.488748333333","24.990315","6500300","中和區"
"220034","015-TV","2018/01/22 14:05:29","新北市板橋區西門街42號","121.454323333333","25.0094233333333","6500100","板橋區"
"220013","072-UY","2018/01/22 14:09:15","新北市板橋區民族路151巷77號","121.469541666667","25.0086683333333","6500100","板橋區"
"220034","073-UY","2018/01/22 14:09:17","新北市板橋區中正路236巷13號","121.456566666667","25.0191233333333","6500100","板橋區"
"220105","075-UY","2018/01/22 14:09:20","新北市板橋區文化路二段169號","121.47049","25.0274116666667","6500100","板橋區"
"220017","AAD-861","2018/01/22 14:09:07","新北市板橋區東興街1號","121.458823333333","25.0053416666667","6500100","板橋區"
"220045","120-SR","2018/01/22 14:09:04","新北市板橋區雙十路二段47巷2號","121.47626","25.0261133333333","6500100","板橋區"
"247021","893-R6","2018/01/22 14:09:19","新北市蘆洲區三民路205號","121.470263333333","25.0878783333333","6501400","蘆洲區"
"247011","546-UM","2018/01/22 14:09:18","新北市蘆洲區信義路250號","121.478361666667","25.0865166666667","6501400","蘆洲區"
"247019","500-BY","2018/01/22 14:09:10","新北市蘆洲區民族路422巷15弄23號","121.47305","25.0929266666667","6501400","蘆洲區"
"247007","341-TH","2018/01/22 14:09:09","新北市蘆洲區中山一路293-1號","121.471641666667","25.0792466666667","6501400","蘆洲區"
"247009","339-TH","2018/01/22 14:09:19","新北市蘆洲區三民路50號","121.475541666667","25.0831733333333","6501400","蘆洲區"
"247003","336-TH","2018/01/22 14:09:06","新北市蘆洲區中華街6巷5號","121.462298333333","25.0825783333333","6501400","蘆洲區"
"247015","057-VK","2018/01/22 14:09:06","新北市蘆洲區光華路46巷48號","121.467555","25.0846183333333","6501400","蘆洲區"
"247005","056-VK","2018/01/22 14:09:15","新北市蘆洲區九芎街75號","121.466838333333","25.0789816666667","6501400","蘆洲區"
"247001","053-VK","2018/01/22 14:09:05","新北市蘆洲區永平街52號","121.457838333333","25.091355","6501400","蘆洲區"
"247013","007-UY","2018/01/22 14:09:06","新北市蘆洲區保和街50-1號","121.469611666667","25.086205","6501400","蘆洲區"
"247023","002-UY","2018/01/22 14:09:20","新北市蘆洲區光明路108號","121.46352","25.0880433333333","6501400","蘆洲區"
"247017","001-UY","2018/01/22 14:09:17","新北市蘆洲區復興路105巷11號","121.476338333333","25.088425","6501400","蘆洲區"
"253001","4710-YM","2018/01/22 14:09:18","新北市石門區下員坑51-1號","121.520623333333","25.271645","6502200","石門區"
"253003","6232-TK","2018/01/22 14:09:14","新北市石門區阿里磅80號","121.584216666667","25.267305","6502200","石門區"
"253002","637-UY","2018/01/22 14:09:11","新北市石門區七股56號","121.553045","25.255965","6502200","石門區"
"253004","8270-PC","2018/01/22 14:09:11","新北市石門區小坑40號","121.599325","25.2649533333333","6502200","石門區"
"208004","AAC-292","2018/01/22 14:09:19","新北市金山區重和里六股林口81號","121.599798333333","25.2155233333333","6502700","金山區"
"207002","749-BX","2018/01/22 14:09:21","新北市萬里區溪底里瑞泉路8-2號","121.607108333333","25.1445083333333","6502800","萬里區"
"252005","073-UM","2018/01/22 14:09:20","新北市三芝區橫山里橫山51-1號","121.533748333333","25.25542","6502100","三芝區"
"207001","662-BX","2018/01/22 14:09:06","新北市萬里區磺潭里清水18號","121.637768333333","25.197765","6502800","萬里區"
"236064","105-UM","2018/01/22 14:09:16","新北市土城區明德路一段202號","121.461485","24.977715","6501300","土城區"
"236040","107-UM","2018/01/22 14:09:03","新北市土城區明德路二段106號","121.445156666667","24.9841133333333","6501300","土城區"
"236074","166-UM","2018/01/22 13:59:04","新北市土城區永寧路32巷10弄3號","121.428853333333","24.9610216666667","6501300","土城區"
"236028","253-BX","2018/01/22 14:09:04","新北市土城區城林路6巷80號","121.43851","24.979755","6501300","土城區"
"236024","269-VK","2018/01/22 14:09:23","新北市土城區承天路67號","121.439545","24.9634816666667","6501300","土城區"
"236012","270-VK","2018/01/22 14:09:15","新北市土城區學府路一段6號","121.459705","24.98842","6501300","土城區"
"236032","271-VK","2018/01/22 14:09:22","新北市土城區明德路一段375-1號","121.45512","24.9780583333333","6501300","土城區"
"236016","401-BY","2018/01/22 14:09:12","新北市土城區城林路6巷80號","121.43873","24.9799333333333","6501300","土城區"
"236005","498-BY","2018/01/22 14:09:17","新北市土城區中央路一段29號","121.44835","24.9907666666667","6501300","土城區"
"236056","912-UM","2018/01/22 14:09:15","新北市土城區中央路四段84號","121.418738333333","24.9594483333333","6501300","土城區"
"236044","913-UM","2018/01/22 14:09:15","新北市土城區明德路一段365-1號","121.453538333333","24.9790733333333","6501300","土城區"
"236060","915-UM","2018/01/22 14:09:08","新北市土城區學士路123號","121.4467","24.975855","6501300","土城區"
"236052","AAC-216","2018/01/22 14:09:22","新北市土城區中華路二段102號","121.438081666667","24.9743583333333","6501300","土城區"
"221036","130-UY","2018/01/22 14:09:19","台北市南港區舊莊街二段10巷1號","121.626206666667","25.037595","6501100","汐止區"
"221029","298-VK","2018/01/22 14:08:50","新北市新店區寶高路102巷20號","121.553255","24.9730516666667","6501100","汐止區"
"220027","145-BY","2018/01/22 14:09:16","新北市板橋區民權路202巷9弄12號","121.459995","25.01553","6500100","板橋區"
"220028","200-UY","2018/01/22 14:09:15","新北市板橋區大觀路二段7巷73號","121.449426666667","25.0031466666667","6500100","板橋區"
"220030","610-BX","2018/01/22 14:09:16","新北市板橋區溪崑二街22巷30號","121.4281","24.9919283333333","6500100","板橋區"
"220050","245-BX","2018/01/22 14:09:20","新北市板橋區民生路二段226巷46號","121.471763333333","25.0223933333333","6500100","板橋區"
"220004","276-BY","2018/01/22 14:09:20","新北市板橋區信義路74巷1弄2號","121.457126666667","24.993105","6500100","板橋區"
"220020","277-BY","2018/01/22 14:09:16","新北市板橋區金門街369巷50號","121.428446666667","24.9824083333333","6500100","板橋區"
"220012","282-UM","2018/01/22 14:09:11","新北市板橋區民生路一段53號","121.475355","25.0127883333333","6500100","板橋區"
"220019","283-VK","2018/01/22 14:09:07","新北市板橋區重慶路327巷19弄1號","121.464621666667","24.99868","6500100","板橋區"
"220043","285-UM","2018/01/22 14:09:16","新北市板橋區光武街133號","121.465721666667","25.0291166666667","6500100","板橋區"
"220001","285-VK","2018/01/22 14:09:05","新北市板橋區懷仁街24巷23號","121.4756","25.0192083333333","6500100","板橋區"
"220031","286-VK","2018/01/22 14:09:19","新北市板橋區大觀路二段174巷178號","121.442021666667","25.003565","6500100","板橋區"
"220029","287-VK","2018/01/22 14:09:06","新北市板橋區南雅西路二段156巷24號","121.452343333333","25.01284","6500100","板橋區"
"220039","288-VK","2018/01/22 14:09:07","新北市板橋區四維路291巷4弄1號","121.462265","25.0282833333333","6500100","板橋區"
"220009","293-UM","2018/01/22 14:09:07","新北市板橋區三民路二段21巷6號","121.479776666667","25.0181583333333","6500100","板橋區"
"220010","295-UM","2018/01/22 14:09:12","新北市板橋區三民路二段居仁巷1弄12號","121.479656666667","25.0135433333333","6500100","板橋區"
"220032","296-UM","2018/01/22 14:09:10","新北市板橋區篤行路一段8號","121.431736666667","24.9953766666667","6500100","板橋區"
"220023","303-R5","2018/01/22 14:09:22","新北市板橋區大智街25巷2號","121.455041666667","25.0149533333333","6500100","板橋區"
"220041","307-R5","2018/01/22 14:09:09","新北市板橋區文化路二段225巷35號","121.469376666667","25.0282666666667","6500100","板橋區"
"220047","317-R6","2018/01/22 14:09:19","新北市板橋區自由路51巷14弄3號","121.464773333333","25.02363","6500100","板橋區"
"220038","487-VK","2018/01/22 14:09:09","新北市板橋區文化路二段453號","121.47546","25.0335233333333","6500100","板橋區"
"220037","491-VK","2018/01/22 14:09:14","新北市板橋區莊敬路38號","121.472753333333","25.0270516666667","6500100","板橋區"
"220104","560-BX","2018/01/22 14:09:05","新北市板橋區中正路415號","121.454153333333","25.0226666666667","6500100","板橋區"
"220052","561-BX","2018/01/22 14:09:22","新北市板橋區文化路一段188巷9弄21號","121.468516666667","25.019505","6500100","板橋區"
"220003","568-UM","2018/01/22 14:09:09","新北市板橋區中山路一段146號","121.463966666667","25.0110183333333","6500100","板橋區"
"220011","609-BX","2018/01/22 14:09:23","新北市板橋區三民路二段67號","121.479551666667","25.0171366666667","6500100","板橋區"
"220040","637-BX","2018/01/22 14:09:11","新北市板橋區萬板路378號","121.478453333333","25.0253","6500100","板橋區"
"220005","686-BX","2018/01/22 14:09:08","新北市板橋區重慶路265號","121.463221666667","25.000165","6500100","板橋區"
"220025","687-BX","2018/01/22 14:09:09","新北市板橋區僑中二街152號","121.444748333333","25.00445","6500100","板橋區"
"220042","689-BX","2018/01/22 14:09:09","新北市板橋區民生路三段257號","121.464446666667","25.0293166666667","6500100","板橋區"
"220002","741-BX","2018/01/22 14:09:15","新北市板橋區重慶路93巷32號","121.463358333333","25.00594","6500100","板橋區"
"220014","829-TW","2018/01/22 14:09:22","新北市板橋區中山路二段90巷43弄3號","121.476533333333","25.0150016666667","6500100","板橋區"
"220051","830-TW","2018/01/22 14:09:20","新北市板橋區田單街51號","121.482626666667","25.0279","6500100","板橋區"
"220022","895-R6","2018/01/22 14:09:03","新北市板橋區林園街48號","121.453645","25.0104983333333","6500100","板橋區"
"220021","985-R7","2018/01/22 14:09:13","新北市板橋區民權路255號","121.457185","25.0158533333333","6500100","板橋區"
"220046","AAC-210","2018/01/22 14:09:24","新北市板橋區英士路76號","121.460125","25.0242366666667","6500100","板橋區"
"220018","AAC-253","2018/01/22 14:09:17","新北市板橋區忠孝路41-1號","121.461136666667","25.00204","6500100","板橋區"
