"lineid","car","time","location","longitude","latitude","cityid","cityname"
"234036","336-UY","2018/01/22 15:37:59","新北市八里區荖阡坑路34號","121.402525","25.1284316666667","6500400","永和區"
"243013","646-TV","2018/01/22 15:38:16","新北市泰山區犁頭窠3-1號","121.422021666667","25.06037","6501600","泰山區"
"231028","046-UY","2018/01/22 15:39:37","新北市新店區安康路二段382號","121.500418333333","24.9572233333333","6500600","新店區"
"231030","047-UY","2018/01/22 15:39:24","新北市新店區永安街93-6號","121.520741666667","24.9866566666667","6500600","新店區"
"231029","106-UY","2018/01/22 15:39:30","新北市新店區安康路三段47號","121.492715","24.952595","6500600","新店區"
"231018","107-UY","2018/01/22 15:39:34","新北市新店區民生路132號","121.529173333333","24.981575","6500600","新店區"
"231011","108-UY","2018/01/22 15:39:32","新北市新店區文化路92號","121.544938333333","24.982575","6500600","新店區"
"231019","188-VK","2018/01/22 15:39:33","新北市新店區新烏路一段85巷6-6號","121.549696666667","24.9426783333333","6500600","新店區"
"231026","256-BX","2018/01/22 15:39:36","新北市新店區三民路75巷4弄2號","121.535575","24.9710033333333","6500600","新店區"
"231023","AAD-862","2018/01/22 15:39:35","新北市新店區中興路一段273號","121.545211666667","24.968085","6500600","新店區"
"231038","4715-K9","2018/01/22 15:39:28","新北市新店區安康路一段355號","121.519876666667","24.9637466666667","6500600","新店區"
"231036","512-UM","2018/01/22 15:39:19","新北市新店區安祥路63號","121.483941666667","24.9602783333333","6500600","新店區"
"231035","515-UM","2018/01/22 15:39:26","新北市新店區安興路83-1號","121.515095","24.9753583333333","6500600","新店區"
"231003","616-UM","2018/01/22 15:39:21","新北市新店區寶興路60巷3號","121.549866666667","24.9718416666667","6500600","新店區"
"231034","645-TV","2018/01/22 15:39:21","新北市新店區玫瑰路58巷9號","121.494903333333","24.9466266666667","6500600","新店區"
"231039","718-UY","2018/01/22 15:39:33","新北市新店區寶元路二段29號","121.546566666667","24.981875","6500600","新店區"
"231013","719-UM","2018/01/22 15:39:22","新北市新店區永業路81巷7弄2號","121.530701666667","24.94865","6500600","新店區"
"231031","720-UM","2018/01/22 15:39:27","新北市新店區雙城路45巷2號","121.492398333333","24.9480583333333","6500600","新店區"
"231005","897-TW","2018/01/22 15:39:18","新北市新店區民族路188號","121.536846666667","24.9760516666667","6500600","新店區"
"231004","899-TW","2018/01/22 15:39:22","新北市新店區民族路108號","121.538188333333","24.9773633333333","6500600","新店區"
"231037","AKT-0513","2018/01/22 15:39:33","新北市新店區安興路112號","121.514685","24.9776316666667","6500600","新店區"
"241011","013-R5","2018/01/22 15:39:23","新北市三重區秀江街194號","121.49768","25.0715983333333","6500200","三重區"
"241028","022-UY","2018/01/22 15:39:19","新北市三重區重新路四段121號","121.484745","25.0525166666667","6500200","三重區"
"241017","063-VK","2018/01/22 15:39:32","新北市三重區大仁街1號","121.491605","25.0636216666667","6500200","三重區"
"241009","265-UM","2018/01/22 15:39:34","新北市三重區重新路四段121號","121.485133333333","25.05227","6500200","三重區"
"241013","270-UM","2018/01/22 15:39:35","新北市三重區忠孝路二段126號","121.482948333333","25.068775","6500200","三重區"
"241033","557-UM","2018/01/22 15:39:22","新北市三重區重新路五段447號","121.474395","25.047285","6500200","三重區"
"241029","942-UM","2018/01/22 15:39:34","新北市三重區大同南路202號","121.49676","25.05674","6500200","三重區"
"235004","150-BY","2018/01/22 15:39:16","新北市中和區景安路85號","121.506288333333","24.9968366666667","6500300","中和區"
"235013","186-VK","2018/01/22 15:39:29","新北市中和區景平路385-2號","121.502985","24.9941866666667","6500300","中和區"
"235033","4980-A6","2018/01/22 15:39:26","新北市中和區員山路381巷1弄2號","121.480921666667","25.002345","6500300","中和區"
"235026","800-TS","2018/01/22 15:39:21","新北市中和區中山路二段367號","121.487635","25.0048","6500300","中和區"
"235023","AAC-215","2018/01/22 15:39:35","新北市中和區員山路28-11號","121.480913333333","24.9860216666667","6500300","中和區"
"220105","075-UY","2018/01/22 15:39:20","新北市八里區商港路105巷15號","121.391401666667","25.1492683333333","6500100","板橋區"
"227001","400-TW","2018/01/22 15:39:35","新北市雙溪區牡丹里頂坪5-1號","121.86278","25.0387116666667","6502500","雙溪區"
"253004","8270-PC","2018/01/22 15:39:22","新北市石門區小坑9號","121.594405","25.2883916666667","6502200","石門區"
"208004","AAC-292","2018/01/22 15:39:39","新北市金山區六股里下六股18-1號","121.624755","25.2239866666667","6502700","金山區"
"236064","105-UM","2018/01/22 15:39:36","新北市土城區中央路三段134-1號","121.43347","24.9656333333333","6501300","土城區"
"236040","107-UM","2018/01/22 15:39:23","新北市土城區學享街12號","121.451241666667","24.9874033333333","6501300","土城區"
"236074","166-UM","2018/01/22 15:39:34","新北市土城區福安街64號","121.418471666667","24.96455","6501300","土城區"
"236028","253-BX","2018/01/22 15:39:35","新北市土城區中央路一段141號","121.44674","24.98802","6501300","土城區"
"236024","269-VK","2018/01/22 15:39:37","新北市土城區裕生路102巷2號","121.446768333333","24.9846433333333","6501300","土城區"
"236012","270-VK","2018/01/22 15:39:35","新北市土城區四川路22號","121.455235","24.99594","6501300","土城區"
"236032","271-VK","2018/01/22 15:39:22","新北市土城區明德路一段288號","121.456585","24.9776983333333","6501300","土城區"
"236016","401-BY","2018/01/22 15:39:31","新北市土城區延吉街137巷12弄5號","121.470725","24.985435","6501300","土城區"
"236052","752-BX","2018/01/22 15:39:25","新北市土城區學府路一段183號","121.452288333333","24.9850916666667","6501300","土城區"
"236056","912-UM","2018/01/22 15:39:35","新北市土城區中央路一段227號","121.445578333333","24.986295","6501300","土城區"
"236044","913-UM","2018/01/22 15:39:35","新北市土城區金城路三段172號","121.46758","24.987585","6501300","土城區"
"238002","755-BX","2018/01/22 15:39:33","新北市樹林區中興街8號","121.420783333333","24.989825","6500700","樹林區"
"238010","601-UM","2018/01/22 15:39:33","新北市樹林區三福街79號","121.407366666667","25.0163016666667","6500700","樹林區"
"238006","599-UM","2018/01/22 15:39:22","新北市樹林區太平路263號","121.418656666667","24.9743383333333","6500700","樹林區"
"238005","571-TV","2018/01/22 15:39:18","新北市樹林區保安街一段22號","121.427413333333","24.9934466666667","6500700","樹林區"
"238011","5061-A6","2018/01/22 15:39:34","新北市樹林區中山路二段189巷5號","121.40508","24.976835","6500700","樹林區"
"238008","KEA-2217","2018/01/22 15:39:18","新北市樹林區柑園街一段68號","121.402156666667","24.960285","6500700","樹林區"
"238009","KEA-2213","2018/01/22 15:39:17","新北市樹林區中華路187巷15號","121.420785","24.9810466666667","6500700","樹林區"
"238012","303-VK","2018/01/22 15:39:18","新北市樹林區中山路二段110-4號","121.413926666667","24.983185","6500700","樹林區"
"238004","283-BY","2018/01/22 15:39:28","新北市樹林區保安街二段156號","121.413248333333","25.0045816666667","6500700","樹林區"
"238001","282-BY","2018/01/22 15:39:29","新北市樹林區潭興街91巷8號","121.424431666667","24.9987166666667","6500700","樹林區"
"238007","268-VK","2018/01/22 15:39:34","新北市樹林區俊英街166巷10號","121.427068333333","25.00716","6500700","樹林區"
"238013","172-UY","2018/01/22 15:39:20","新北市樹林區中洲街51巷4號","121.396713333333","24.97103","6500700","樹林區"
"238003","169-UY","2018/01/22 15:39:35","新北市樹林區育英街35號","121.42131","24.9891783333333","6500700","樹林區"
"221036","130-UY","2018/01/22 15:39:21","新北市汐止區汐萬路一段256巷1號","121.65181","25.074905","6501100","汐止區"
"220050","245-BX","2018/01/22 15:39:20","新北市板橋區漢生東路63巷2號","121.465935","25.0163066666667","6500100","板橋區"
"220012","282-UM","2018/01/22 15:39:31","新北市五股區天乙路101-6號","121.44648","25.10712","6500100","板橋區"
"220038","487-VK","2018/01/22 15:39:29","新北市板橋區四維路270號","121.463215","25.0285716666667","6500100","板橋區"
"220052","561-BX","2018/01/22 15:39:22","新北市板橋區漢生東路33巷39號","121.466056666667","25.0177183333333","6500100","板橋區"
