"lineid","car","time","location","longitude","latitude","cityid","cityname"
"249005","172-UM","2018/01/22 16:39:51","新北市八里區忠孝路337號","121.41755","25.16131","6502300","八里區"
"244019","402-UM","2018/01/22 16:39:48","新北市林口區粉寮69號","121.405076666667","25.0908533333333","6501700","林口區"
"231046","278-BY","2018/01/22 16:39:53","新北市新店區灣潭路55號","121.540673333333","24.94265","6500600","新店區"
"241011","013-R5","2018/01/22 16:39:42","新北市三重區秀江街203號","121.49765","25.0718483333333","6500200","三重區"
"241028","022-UY","2018/01/22 16:39:39","新北市三重區重新路三段76號","121.493411666667","25.06097","6500200","三重區"
"241008","059-VK","2018/01/22 16:39:40","新北市三重區永安北路一段27巷22號","121.477195","25.075535","6500200","三重區"
"241031","061-VK","2018/01/22 16:39:32","新北市三重區重新路四段41巷2弄13號","121.487446666667","25.0579683333333","6500200","三重區"
"241015","062-VK","2018/01/22 16:39:36","新北市三重區文化北路41號","121.498906666667","25.0651733333333","6500200","三重區"
"241017","063-VK","2018/01/22 16:39:32","新北市三重區中正北路25巷2號","121.493253333333","25.0627083333333","6500200","三重區"
"241024","065-VK","2018/01/22 16:39:39","新北市三重區中正北路315巷6弄65號","121.477193333333","25.0724766666667","6500200","三重區"
"241002","090-VK","2018/01/22 16:39:38","新北市三重區自強路五段93號","121.495451666667","25.082115","6500200","三重區"
"241003","091-VK","2018/01/22 16:39:41","新北市三重區五華街71巷110號","121.494785","25.0841966666667","6500200","三重區"
"241020","156-TC","2018/01/22 16:39:46","新北市三重區車路頭街66號","121.484338333333","25.0727783333333","6500200","三重區"
"241005","262-UM","2018/01/22 16:39:34","新北市三重區溪尾街289號","121.487531666667","25.083005","6500200","三重區"
"241009","265-UM","2018/01/22 16:39:34","新北市三重區三和路四段203巷46號","121.483106666667","25.07977","6500200","三重區"
"241016","266-UM","2018/01/22 16:39:41","新北市三重區大智街1-1號","121.494785","25.064905","6500200","三重區"
"241022","267-UM","2018/01/22 16:39:42","新北市三重區新北大道一段100巷31號","121.48542","25.0628866666667","6500200","三重區"
"241018","268-UM","2018/01/22 16:39:31","新北市三重區六張街83號","121.493125","25.0701","6500200","三重區"
"241032","269-UM","2018/01/22 16:39:31","新北市三重區新北大道一段31號","121.486165","25.0613566666667","6500200","三重區"
"241013","270-UM","2018/01/22 16:39:35","新北市三重區仁愛街75號","121.496118333333","25.0729516666667","6500200","三重區"
"241025","271-UM","2018/01/22 16:39:42","新北市三重區中正北路291號","121.474628333333","25.07113","6500200","三重區"
"241007","398-BY","2018/01/22 16:39:42","新北市三重區三和路四段167巷51號","121.485378333333","25.07948","6500200","三重區"
"241004","475-VK","2018/01/22 16:39:32","新北市三重區五福街5號","121.49301","25.0816666666667","6500200","三重區"
"241019","478-VK","2018/01/22 16:39:39","新北市三重區力行路一段85號","121.486708333333","25.0679","6500200","三重區"
"241030","480-VK","2018/01/22 16:39:45","新北市三重區成功路20巷12-3號","121.489566666667","25.0490983333333","6500200","三重區"
"241014","543-UM","2018/01/22 16:39:48","新北市三重區龍濱路34號","121.502856666667","25.0681883333333","6500200","三重區"
"241023","545-UM","2018/01/22 16:39:37","新北市三重區忠孝路三段50巷98號","121.483348333333","25.06427","6500200","三重區"
"241001","547-UM","2018/01/22 16:39:46","新北市三重區福隆路50號","121.492471666667","25.0784666666667","6500200","三重區"
"241033","557-UM","2018/01/22 16:39:42","新北市三重區光復路一段97號","121.472326666667","25.0508583333333","6500200","三重區"
"241006","AAD-863","2018/01/22 16:39:39","新北市三重區力行路二段136巷23弄26號","121.481236666667","25.0762566666667","6500200","三重區"
"241026","887-TS","2018/01/22 16:39:34","新北市三重區福和街1號","121.503013333333","25.061785","6500200","三重區"
"241012","941-UM","2018/01/22 16:39:41","新北市三重區仁興街3巷17號","121.500468333333","25.073995","6500200","三重區"
"241029","942-UM","2018/01/22 16:39:54","新北市三重區集美街178號","121.490545","25.0532066666667","6500200","三重區"
"235062","800-TS","2018/01/22 16:35:10","新北市中和區員山路36巷16-3號","121.484795","24.9916433333333","6500300","中和區"
"247007","341-TH","2018/01/22 16:39:49","新北市蘆洲區永安南路二段244號","121.460183333333","25.0799316666667","6501400","蘆洲區"
"247004","336-TH","2018/01/22 16:39:43","新北市五股區中興路三段163號","121.449361666667","25.0805966666667","6501400","蘆洲區"
"247006","056-VK","2018/01/22 16:39:38","新北市五股區中興路三段5號","121.448391666667","25.0799183333333","6501400","蘆洲區"
"228002","663-BX","2018/01/22 16:39:52","新北市貢寮區貢寮里朝陽街20號","121.911448333333","25.0216233333333","6502600","貢寮區"
"224006","676-BX","2018/01/22 16:36:27","新北市瑞芳區大寮路356-1號","121.784698333333","25.1033216666667","6501200","瑞芳區"
"224007","273-VK","2018/01/22 16:39:48","新北市瑞芳區月眉路7號","121.760268333333","25.1055933333333","6501200","瑞芳區"
"224005","271-BY","2018/01/22 16:39:43","新北市瑞芳區洞頂路212-2號","121.86143","25.1247116666667","6501200","瑞芳區"
"227008","642-TC","2018/01/22 16:39:41","新北市雙溪區牡丹里中正路67號","121.86467","25.0439483333333","6502500","雙溪區"
"227001","400-TW","2018/01/22 16:39:34","新北市雙溪區外柑里外柑腳56號","121.807945","25.0178833333333","6502500","雙溪區"
"251013","179-VK","2018/01/22 16:39:44","新北市淡水區楓樹湖12-1號","121.498593333333","25.18762","6501000","淡水區"
"251008","181-VK","2018/01/22 16:39:41","台北市北投區中央北路四段30巷160號","121.474158333333","25.1404666666667","6501000","淡水區"
"251015","182-VK","2018/01/22 16:39:45","新北市淡水區長興街43-2號","121.444115","25.171685","6501000","淡水區"
"251016","442-VK","2018/01/22 16:39:40","新北市淡水區北新路228號","121.452381666667","25.1803933333333","6501000","淡水區"
"251007","577-R6","2018/01/22 16:39:34","新北市淡水區中正路二段31號","121.419476666667","25.1815633333333","6501000","淡水區"
"251011","650-BX","2018/01/22 16:39:39","新北市淡水區中正路二段31號","121.419438333333","25.181675","6501000","淡水區"
"252002","178-VK","2018/01/22 16:39:51","新北市三芝區茂長里陳厝坑12-2號","121.515368333333","25.2553083333333","6502100","三芝區"
"238006","599-UM","2018/01/22 16:39:42","新北市樹林區中山路三段214號","121.379818333333","24.9676583333333","6500700","樹林區"
"238004","283-BY","2018/01/22 16:39:48","新北市樹林區中正路433-2號","121.41488","25.008165","6500700","樹林區"
"238001","282-BY","2018/01/22 16:39:49","新北市樹林區中正路22-1號","121.427815","24.9996816666667","6500700","樹林區"
"238007","268-VK","2018/01/22 16:39:34","新北市樹林區俊英街2號","121.43022","24.9988866666667","6500700","樹林區"
"239003","360-BY","2018/01/22 16:39:41","新北市鶯歌區二甲路13-16號","121.345448333333","24.9351233333333","6500800","鶯歌區"
"220012","282-UM","2018/01/22 16:39:46","新北市五股區新五路二段279號","121.442818333333","25.086135","6500100","板橋區"
"220052","561-BX","2018/01/22 16:39:42","新北市樹林區中華路1-2號","121.42529","24.9842083333333","6500100","板橋區"
