"lineid","car","time","location","longitude","latitude","cityid","cityname"
"249005","172-UM","2018/01/22 16:49:51","新北市八里區大堀湖2-3號","121.423161666667","25.15371","6502300","八里區"
"249004","303-UY","2018/01/22 16:49:42","新北市八里區博物館路195號","121.405678333333","25.156655","6502300","八里區"
"249003","593-UM","2018/01/22 16:49:41","新北市八里區中山路二段149號","121.405068333333","25.1510316666667","6502300","八里區"
"244019","402-UM","2018/01/22 16:49:48","新北市林口區粉寮69號","121.405065","25.09085","6501700","林口區"
"231046","278-BY","2018/01/22 16:49:41","新北市新店區灣潭路15-8號","121.54138","24.9394966666667","6500600","新店區"
"241011","013-R5","2018/01/22 16:49:43","新北市三重區仁愛街53巷132號","121.49916","25.0725933333333","6500200","三重區"
"241028","022-UY","2018/01/22 16:49:39","新北市三重區光興街111號","121.496975","25.0598716666667","6500200","三重區"
"241008","059-VK","2018/01/22 16:49:40","新北市三重區永福街177巷24號","121.477953333333","25.075155","6500200","三重區"
"241031","061-VK","2018/01/22 16:49:51","新北市三重區過圳街42-1號","121.488308333333","25.05953","6500200","三重區"
"241015","062-VK","2018/01/22 16:49:42","新北市三重區長元西街1號","121.498803333333","25.0656183333333","6500200","三重區"
"241017","063-VK","2018/01/22 16:49:52","新北市三重區國隆路8巷3號","121.493231666667","25.0636133333333","6500200","三重區"
"241024","065-VK","2018/01/22 16:49:39","新北市三重區中正北路317巷26號","121.475626666667","25.0730466666667","6500200","三重區"
"241002","090-VK","2018/01/22 16:49:37","新北市三重區仁義街233號","121.49643","25.08237","6500200","三重區"
"241003","091-VK","2018/01/22 16:49:41","新北市三重區五華街118號","121.492086666667","25.0831366666667","6500200","三重區"
"241020","156-TC","2018/01/22 16:49:46","新北市三重區忠孝路二段34號","121.485843333333","25.07106","6500200","三重區"
"241005","262-UM","2018/01/22 16:49:34","新北市三重區仁華街80巷15號","121.484586666667","25.083495","6500200","三重區"
"241009","265-UM","2018/01/22 16:49:34","新北市三重區仁美街99號","121.485985","25.0805783333333","6500200","三重區"
"241016","266-UM","2018/01/22 16:49:41","新北市三重區大同北路115巷7號","121.493903333333","25.0646283333333","6500200","三重區"
"241022","267-UM","2018/01/22 16:49:42","新北市三重區中華路111巷16號","121.484253333333","25.0634383333333","6500200","三重區"
"241018","268-UM","2018/01/22 16:49:51","新北市三重區安樂街87號","121.494591666667","25.0693233333333","6500200","三重區"
"241032","269-UM","2018/01/22 16:49:51","新北市三重區重陽路一段120巷35號","121.485063333333","25.06018","6500200","三重區"
"241013","270-UM","2018/01/22 16:49:35","新北市三重區仁壽街70號","121.49808","25.0737966666667","6500200","三重區"
"241025","271-UM","2018/01/22 16:49:42","新北市三重區中正北路530巷19號","121.472051666667","25.0704266666667","6500200","三重區"
"241007","398-BY","2018/01/22 16:49:42","新北市三重區三和路四段181巷58號","121.483916666667","25.079445","6500200","三重區"
"241004","475-VK","2018/01/22 16:49:32","新北市三重區仁愛街397巷1號","121.491405","25.081085","6500200","三重區"
"241019","478-VK","2018/01/22 16:49:39","新北市三重區三張街149巷10弄16號","121.485901666667","25.0696833333333","6500200","三重區"
"241030","480-VK","2018/01/22 16:49:45","新北市三重區中正南路263號","121.49278","25.05284","6500200","三重區"
"241014","543-UM","2018/01/22 16:49:48","新北市三重區長榮路75號","121.502551666667","25.0690683333333","6500200","三重區"
"241023","545-UM","2018/01/22 16:49:37","新北市三重區新北大道一段206巷40號","121.482498333333","25.062515","6500200","三重區"
"241001","547-UM","2018/01/22 16:49:46","新北市三重區仁政街76巷9號","121.49216","25.0772333333333","6500200","三重區"
"241033","557-UM","2018/01/22 16:47:42","新北市三重區新北大道二段139巷38號","121.46667","25.06009","6500200","三重區"
"241006","AAD-863","2018/01/22 16:49:39","新北市三重區力行路二段89號","121.48253","25.0757733333333","6500200","三重區"
"241026","887-TS","2018/01/22 16:49:34","新北市三重區文化南路17號","121.500013333333","25.0621383333333","6500200","三重區"
"241012","941-UM","2018/01/22 16:49:41","新北市三重區仁興街11巷20號","121.50038","25.0742866666667","6500200","三重區"
"241029","942-UM","2018/01/22 16:49:34","新北市三重區集美街175號","121.491443333333","25.054095","6500200","三重區"
"235062","800-TS","2018/01/22 16:35:10","新北市中和區員山路36巷16-3號","121.484795","24.9916433333333","6500300","中和區"
"247012","546-UM","2018/01/22 16:49:49","新北市蘆洲區中正路520巷9號","121.462628333333","25.0997133333333","6501400","蘆洲區"
"247008","341-TH","2018/01/22 16:49:49","新北市蘆洲區中山一路176號","121.474195","25.0811866666667","6501400","蘆洲區"
"247004","336-TH","2018/01/22 16:49:43","新北市五股區成泰路三段544-1號","121.454453333333","25.10155","6501400","蘆洲區"
"247016","057-VK","2018/01/22 16:49:45","新北市蘆洲區正和街10號","121.470291666667","25.0828866666667","6501400","蘆洲區"
"247006","056-VK","2018/01/22 16:49:38","新北市蘆洲區永安南路二段132-1號","121.462603333333","25.078615","6501400","蘆洲區"
"247014","007-UY","2018/01/22 16:49:33","新北市蘆洲區三民路89號","121.474268333333","25.0846266666667","6501400","蘆洲區"
"247018","001-UY","2018/01/22 16:49:48","新北市蘆洲區中正路516巷38-5號","121.461721666667","25.09883","6501400","蘆洲區"
"228003","097-TW","2018/01/22 16:49:50","新北市貢寮區貢寮里朝陽街1-2號","121.912353333333","25.0212316666667","6502600","貢寮區"
"228002","663-BX","2018/01/22 16:49:38","新北市貢寮區貢寮里朝陽街142號","121.905828333333","25.0231483333333","6502600","貢寮區"
"224006","676-BX","2018/01/22 16:36:27","新北市瑞芳區大寮路356-1號","121.784698333333","25.1033216666667","6501200","瑞芳區"
"224009","285-BY","2018/01/22 16:49:52","新北市瑞芳區中山路81號","121.803856666667","25.1062033333333","6501200","瑞芳區"
"224008","275-VK","2018/01/22 16:49:41","新北市瑞芳區民權街3-1號","121.809301666667","25.1083766666667","6501200","瑞芳區"
"224007","273-VK","2018/01/22 16:49:48","新北市瑞芳區中央路48巷吉祥園8號","121.759571666667","25.10376","6501200","瑞芳區"
"224005","271-BY","2018/01/22 16:49:41","新北市瑞芳區洞頂路116號","121.861323333333","25.123","6501200","瑞芳區"
"227008","642-TC","2018/01/22 16:49:41","新北市雙溪區牡丹里石5-2號","121.863215","25.050875","6502500","雙溪區"
"227001","400-TW","2018/01/22 16:49:34","新北市雙溪區外柑里外柑腳71號","121.807128333333","25.0176116666667","6502500","雙溪區"
"251013","179-VK","2018/01/22 16:49:44","新北市淡水區泉洲厝32號","121.48928","25.19255","6501000","淡水區"
"251014","180-VK","2018/01/22 16:49:51","新北市淡水區興仁路162號","121.451428333333","25.220765","6501000","淡水區"
"251008","181-VK","2018/01/22 16:49:01","新北市淡水區樹梅坑44號","121.47464","25.1443683333333","6501000","淡水區"
"251015","182-VK","2018/01/22 16:49:45","新北市淡水區忠愛街6號","121.460796666667","25.1715466666667","6501000","淡水區"
"251012","441-VK","2018/01/22 16:49:36","新北市淡水區中正路二段31號","121.419431666667","25.1816216666667","6501000","淡水區"
"251016","442-VK","2018/01/22 16:49:40","新北市淡水區水頭42號","121.478135","25.185095","6501000","淡水區"
"251007","577-R6","2018/01/22 16:49:54","新北市淡水區中正路二段31號","121.419456666667","25.1815516666667","6501000","淡水區"
"251011","650-BX","2018/01/22 16:49:39","新北市淡水區中正路二段31號","121.419348333333","25.1817666666667","6501000","淡水區"
"252002","178-VK","2018/01/22 16:49:51","新北市三芝區埔坪里埔頭坑44號","121.504983333333","25.26174","6502100","三芝區"
"252001","292-VK","2018/01/22 16:49:38","新北市三芝區埔坪里埔頭坑107號","121.504646666667","25.2617233333333","6502100","三芝區"
"242004","413-TV","2018/01/22 16:49:50","新北市新莊區新泰路357巷3弄57號","121.442003333333","25.0394616666667","6500500","新莊區"
"242042","400-BY","2018/01/22 16:49:52","新北市新莊區新泰路357巷3弄57號","121.442213333333","25.03966","6500500","新莊區"
"242060","362-BY","2018/01/22 16:49:33","新北市新莊區三和路12-21號","121.442036666667","25.0383016666667","6500500","新莊區"
"242019","348-TH","2018/01/22 16:49:43","新北市新莊區新泰路357巷3弄57號","121.441921666667","25.0393666666667","6500500","新莊區"
"238019","599-UM","2018/01/22 16:49:42","新北市樹林區育德街78-1號","121.387741666667","24.968125","6500700","樹林區"
"238004","283-BY","2018/01/22 16:49:48","新北市樹林區中正路433-2號","121.414878333333","25.008165","6500700","樹林區"
"238001","282-BY","2018/01/22 16:49:49","新北市樹林區中正路22-1號","121.427776666667","24.9996483333333","6500700","樹林區"
"238007","268-VK","2018/01/22 16:49:54","新北市板橋區金門街337巷14弄18號","121.431708333333","24.9826283333333","6500700","樹林區"
"239003","360-BY","2018/01/22 16:49:41","新北市鶯歌區二甲路13-16號","121.345455","24.93511","6500800","鶯歌區"
"220012","282-UM","2018/01/22 16:49:46","新北市新莊區中山路一段458號","121.442405","25.056715","6500100","板橋區"
"220052","561-BX","2018/01/22 16:49:42","新北市板橋區板新路237號","121.467583333333","25.0159916666667","6500100","板橋區"
