"lineid","car","time","location","longitude","latitude","cityid","cityname"
"249005","172-UM","2018/01/22 17:19:51","新北市八里區荖阡坑路46號","121.41126","25.1235066666667","6502300","八里區"
"249001","173-UM","2018/01/22 17:19:33","新北市八里區中華路二段165巷3號","121.407623333333","25.1509433333333","6502300","八里區"
"249004","303-UY","2018/01/22 17:19:42","新北市八里區賢三街21號","121.418958333333","25.15916","6502300","八里區"
"249002","305-UY","2018/01/22 17:19:41","新北市八里區龍米路二段117巷37號","121.443303333333","25.14194","6502300","八里區"
"249003","593-UM","2018/01/22 17:19:41","新北市八里區中山路二段459號","121.396275","25.1454383333333","6502300","八里區"
"244013","069-UM","2018/01/22 17:19:53","新北市林口區粉寮69號","121.405058333333","25.0908516666667","6501700","林口區"
"244007","080-UY","2018/01/22 17:19:37","新北市林口區菁埔25-2號","121.376978333333","25.0964033333333","6501700","林口區"
"244019","402-UM","2018/01/22 17:19:48","新北市林口區文化一路一段190巷7弄1號","121.379748333333","25.0747983333333","6501700","林口區"
"244009","410-SL","2018/01/22 17:19:39","新北市林口區文化北路二段550巷20弄37號","121.377963333333","25.0913033333333","6501700","林口區"
"244023","483-VK","2018/01/22 17:19:48","新北市林口區隆林街67號","121.386915","25.0754316666667","6501700","林口區"
"244017","485-VK","2018/01/22 17:19:38","新北市林口區粉寮69號","121.404988333333","25.0908616666667","6501700","林口區"
"244011","656-BX","2018/01/22 17:19:40","新北市林口區粉寮路二段160巷28號","121.40516","25.09078","6501700","林口區"
"244021","657-BX","2018/01/22 17:19:54","新北市林口區粉寮路二段358-2號","121.406751666667","25.0968116666667","6501700","林口區"
"244025","837-TS","2018/01/22 17:19:42","新北市林口區民權路203號","121.375498333333","25.08572","6501700","林口區"
"231046","278-BY","2018/01/22 17:19:41","新北市新店區直潭路92號","121.530913333333","24.9375816666667","6500600","新店區"
"241011","013-R5","2018/01/22 17:19:42","新北市三重區河邊北街100巷4號","121.503683333333","25.0703716666667","6500200","三重區"
"241028","022-UY","2018/01/22 17:19:39","新北市三重區仁化街63號","121.493838333333","25.0589966666667","6500200","三重區"
"241008","059-VK","2018/01/22 17:19:40","新北市三重區下竹圍街14號","121.480963333333","25.07575","6500200","三重區"
"241015","062-VK","2018/01/22 17:19:36","新北市三重區福德北路82-1號","121.501816666667","25.0662283333333","6500200","三重區"
"241017","063-VK","2018/01/22 17:19:52","新北市三重區大同北路44巷19號","121.494621666667","25.0629016666667","6500200","三重區"
"241024","065-VK","2018/01/22 17:19:39","新北市三重區中正北路193巷21弄37號","121.478335","25.07082","6500200","三重區"
"241002","090-VK","2018/01/22 17:19:37","新北市三重區自強路五段20號","121.49257","25.0806066666667","6500200","三重區"
"241003","091-VK","2018/01/22 17:19:41","新北市三重區富福街66號","121.492136666667","25.0847083333333","6500200","三重區"
"241020","156-TC","2018/01/22 17:19:46","新北市三重區自強路三段7巷6號","121.487513333333","25.0720366666667","6500200","三重區"
"241005","262-UM","2018/01/22 17:19:44","新北市三重區永安北路二段13號","121.482098333333","25.0814416666667","6500200","三重區"
"241009","265-UM","2018/01/22 17:19:34","新北市三重區三和路四段233號","121.481125","25.0798383333333","6500200","三重區"
"241016","266-UM","2018/01/22 17:19:41","新北市三重區大同北路97-3號","121.494346666667","25.0636116666667","6500200","三重區"
"241022","267-UM","2018/01/22 17:19:42","新北市三重區中正北路111-1號","121.485786666667","25.0653316666667","6500200","三重區"
"241018","268-UM","2018/01/22 17:19:51","新北市三重區安慶街153號","121.494343333333","25.068775","6500200","三重區"
"241032","269-UM","2018/01/22 17:19:31","新北市三重區新北大道一段165號","121.482305","25.0609683333333","6500200","三重區"
"241013","270-UM","2018/01/22 17:19:35","新北市三重區仁福街22號","121.49654","25.0744983333333","6500200","三重區"
"241025","271-UM","2018/01/22 17:19:42","新北市三重區中正北路253號","121.475353333333","25.07071","6500200","三重區"
"241007","398-BY","2018/01/22 17:19:51","新北市三重區慈愛街26號","121.484883333333","25.0788683333333","6500200","三重區"
"241004","475-VK","2018/01/22 17:19:52","新北市三重區五華街110巷5號","121.49186","25.08269","6500200","三重區"
"241019","478-VK","2018/01/22 17:19:39","新北市三重區忠孝路二段56號","121.484931666667","25.0703983333333","6500200","三重區"
"241030","480-VK","2018/01/22 17:19:45","新北市三重區成功路73巷11號","121.489446666667","25.05189","6500200","三重區"
"241014","543-UM","2018/01/22 17:19:48","新北市三重區長榮路6號","121.500076666667","25.0685266666667","6500200","三重區"
"241023","545-UM","2018/01/22 17:19:37","新北市三重區三民街174號","121.482075","25.0656133333333","6500200","三重區"
"241001","547-UM","2018/01/22 17:19:46","新北市三重區仁愛街269巷62號","121.494903333333","25.0797833333333","6500200","三重區"
"241033","557-UM","2018/01/22 17:19:42","新北市三重區中興北街136巷21號","121.468208333333","25.0559516666667","6500200","三重區"
"241006","AAD-863","2018/01/22 17:19:39","新北市三重區三和路四段218巷15號","121.485576666667","25.0764583333333","6500200","三重區"
"241026","887-TS","2018/01/22 17:19:38","新北市三重區中央南路17號","121.501176666667","25.0625616666667","6500200","三重區"
"241012","941-UM","2018/01/22 17:19:41","新北市三重區河邊北街248巷15號","121.50132","25.075825","6500200","三重區"
"241029","942-UM","2018/01/22 17:19:34","新北市三重區重新路三段150號","121.49077","25.0593883333333","6500200","三重區"
"235046","733-UM","2018/01/22 16:52:44","新北市中和區員山路36巷13號","121.484168333333","24.9908","6500300","中和區"
"247022","893-R6","2018/01/22 17:19:41","新北市蘆洲區三民路128巷94號","121.469561666667","25.0902383333333","6501400","蘆洲區"
"247012","546-UM","2018/01/22 17:19:49","新北市蘆洲區信義路319巷10弄2號","121.477803333333","25.0863133333333","6501400","蘆洲區"
"247020","500-BY","2018/01/22 17:19:53","新北市蘆洲區民族路331-19號","121.47341","25.0918316666667","6501400","蘆洲區"
"247008","341-TH","2018/01/22 17:19:09","新北市蘆洲區信義路30巷135號","121.47531","25.0766516666667","6501400","蘆洲區"
"247010","339-TH","2018/01/22 17:19:47","新北市蘆洲區中山一路120巷7弄22號","121.477278333333","25.0821433333333","6501400","蘆洲區"
"247004","336-TH","2018/01/22 17:19:43","新北市蘆洲區中原路54號","121.459091666667","25.0823466666667","6501400","蘆洲區"
"247016","057-VK","2018/01/22 17:19:25","新北市蘆洲區正和街99號","121.467968333333","25.0803633333333","6501400","蘆洲區"
"247006","056-VK","2018/01/22 17:19:38","新北市蘆洲區永安南路二段156號","121.461713333333","25.0789366666667","6501400","蘆洲區"
"247002","053-VK","2018/01/22 17:19:47","新北市蘆洲區永樂街38巷37號","121.458116666667","25.0894533333333","6501400","蘆洲區"
"247014","007-UY","2018/01/22 17:19:53","新北市蘆洲區中正路81號","121.470148333333","25.0835783333333","6501400","蘆洲區"
"247024","002-UY","2018/01/22 17:19:39","新北市蘆洲區長榮路256號","121.46056","25.085835","6501400","蘆洲區"
"247018","001-UY","2018/01/22 17:19:48","新北市蘆洲區民權路92號","121.47427","25.08787","6501400","蘆洲區"
"228003","097-TW","2018/01/22 17:19:50","新北市貢寮區福隆里興隆街38號","121.940801666667","25.0176633333333","6502600","貢寮區"
"228001","212-TW","2018/01/22 17:19:41","新北市貢寮區仁理村尖山腳街18-3號","121.925511666667","25.0483283333333","6502600","貢寮區"
"228002","663-BX","2018/01/22 17:19:38","新北市貢寮區雙玉里下雙溪街22號","121.920028333333","25.0103633333333","6502600","貢寮區"
"224010","AGQ-8101","2018/01/22 17:19:44","新北市瑞芳區逢甲路17號","121.809495","25.1083583333333","6501200","瑞芳區"
"224006","676-BX","2018/01/22 17:19:40","新北市瑞芳區大寮路62號","121.781831666667","25.0981783333333","6501200","瑞芳區"
"224009","285-BY","2018/01/22 17:19:52","新北市瑞芳區豎崎路24號","121.843081666667","25.1096766666667","6501200","瑞芳區"
"224008","275-VK","2018/01/22 17:19:41","新北市瑞芳區侯硐路288號","121.83116","25.0895033333333","6501200","瑞芳區"
"224005","271-BY","2018/01/22 17:19:41","新北市瑞芳區鼻頭路247號","121.91162","25.1230633333333","6501200","瑞芳區"
"227008","642-TC","2018/01/22 17:19:40","新北市雙溪區三貂里政光路3號","121.851341666667","25.063225","6502500","雙溪區"
"227001","400-TW","2018/01/22 17:19:34","新北市雙溪區上林里內平林82-1號","121.828818333333","25.0280183333333","6502500","雙溪區"
"251009","008-UM","2018/01/22 17:19:41","新北市淡水區三民街20號","121.439011666667","25.171745","6501000","淡水區"
"251004","009-UM","2018/01/22 17:19:41","新北市淡水區中正東路二段88巷15號","121.459106666667","25.1504983333333","6501000","淡水區"
"251005","010-UM","2018/01/22 17:19:49","新北市淡水區鄧公路23巷1-5號","121.450241666667","25.1699566666667","6501000","淡水區"
"251013","179-VK","2018/01/22 17:19:44","新北市淡水區破瓦厝子3-3號","121.472318333333","25.1975066666667","6501000","淡水區"
"251014","180-VK","2018/01/22 17:19:32","新北市淡水區番子田132號","121.464836666667","25.2276583333333","6501000","淡水區"
"251008","181-VK","2018/01/22 17:19:41","新北市淡水區大同路273號","121.467376666667","25.142235","6501000","淡水區"
"251015","182-VK","2018/01/22 17:19:45","新北市淡水區樹林口168號","121.476571666667","25.167","6501000","淡水區"
"251010","413-VK","2018/01/22 17:19:40","新北市淡水區新民街一段119號","121.428093333333","25.1880266666667","6501000","淡水區"
"251012","441-VK","2018/01/22 17:19:36","新北市淡水區中山北路一段158號","121.44437","25.1779416666667","6501000","淡水區"
"251016","442-VK","2018/01/22 17:19:40","新北市淡水區鄒厝崙13-1號","121.462515","25.190715","6501000","淡水區"
"251006","561-UM","2018/01/22 17:19:51","新北市淡水區大智街23號","121.442135","25.1744283333333","6501000","淡水區"
"251007","577-R6","2018/01/22 17:19:34","新北市淡水區民生路47-4號","121.462035","25.1380466666667","6501000","淡水區"
"251011","650-BX","2018/01/22 17:19:39","新北市淡水區坪頂路139號","121.466533333333","25.16161","6501000","淡水區"
"251002","672-BX","2018/01/22 17:19:52","新北市淡水區中正路二段31號","121.419355","25.1816833333333","6501000","淡水區"
"251003","766-UM","2018/01/22 17:19:41","新北市淡水區中正路一段85號","121.422616666667","25.1787166666667","6501000","淡水區"
"207003","550-UM","2018/01/22 17:19:46","新北市萬里區龜吼里美崙路53號","121.687438333333","25.1837","6502800","萬里區"
"252002","178-VK","2018/01/22 17:19:51","新北市三芝區忠孝街1-14號","121.50552","25.2539916666667","6502100","三芝區"
"252001","292-VK","2018/01/22 17:19:38","新北市三芝區長安街119號","121.498063333333","25.259665","6502100","三芝區"
"237015","649-BX","2018/01/22 17:17:29","新北市三峽區中山路459巷163-3號","121.348746666667","24.9330083333333","6500900","三峽區"
"242031","AAC-296","2018/01/22 17:19:45","新北市新莊區新泰路500號","121.442368333333","25.0458966666667","6500500","新莊區"
"242029","986-R7","2018/01/22 17:19:34","新北市新莊區幸福路610號","121.451706666667","25.0492283333333","6500500","新莊區"
"242025","615-BX","2018/01/22 17:19:44","新北市新莊區中港一街157號","121.447513333333","25.0449966666667","6500500","新莊區"
"242023","613-BX","2018/01/22 17:19:38","新北市新莊區永樂街58號","121.451156666667","25.0451583333333","6500500","新莊區"
"242027","612-BX","2018/01/22 17:19:35","新北市新莊區復興路一段93號","121.44881","25.0427516666667","6500500","新莊區"
"242039","566-BX","2018/01/22 17:19:48","新北市新莊區民安路426-9號","121.432918333333","25.0228333333333","6500500","新莊區"
"242044","442-UM","2018/01/22 17:19:51","新北市新莊區富國路101-1號","121.421335","25.0255716666667","6500500","新莊區"
"242048","441-UM","2018/01/22 17:19:52","新北市新莊區龍安路255號","121.419735","25.0200933333333","6500500","新莊區"
"242053","440-UM","2018/01/22 17:19:46","新北市新莊區環河路462號","121.440106666667","25.019755","6500500","新莊區"
"242034","415-TV","2018/01/22 17:19:33","新北市新莊區中正路473-1號","121.442005","25.0332816666667","6500500","新莊區"
"242004","413-TV","2018/01/22 17:19:50","新北市新莊區新泰路498號","121.44256","25.0462433333333","6500500","新莊區"
"242042","400-BY","2018/01/22 17:19:52","新北市新莊區新樹路115號","121.437338333333","25.0266183333333","6500500","新莊區"
"242060","362-BY","2018/01/22 17:19:52","新北市新莊區中正路471號","121.441921666667","25.0335483333333","6500500","新莊區"
"242058","353-BY","2018/01/22 17:19:38","新北市新莊區三和路10號","121.441936666667","25.0354766666667","6500500","新莊區"
"242007","132-UY","2018/01/22 17:19:37","新北市新莊區中平路111號","121.444596666667","25.0464433333333","6500500","新莊區"
"242036","133-UY","2018/01/22 17:19:46","新北市新莊區民安路429巷1號","121.433835","25.0230833333333","6500500","新莊區"
"242021","135-UY","2018/01/22 17:19:42","新北市新莊區中港路273號","121.453463333333","25.043625","6500500","新莊區"
"242046","172-VK","2018/01/22 17:19:43","新北市新莊區中正路487號","121.441086666667","25.03371","6500500","新莊區"
"242015","175-VK","2018/01/22 17:19:53","新北市新莊區新泰路478號","121.442798333333","25.0455083333333","6500500","新莊區"
"242013","346-TH","2018/01/22 17:19:53","新北市新莊區新泰路255巷83號","121.4425","25.039365","6500500","新莊區"
"242019","348-TH","2018/01/22 17:19:49","新北市新莊區中港路245號","121.454085","25.04285","6500500","新莊區"
"242056","349-TH","2018/01/22 17:19:38","新北市新莊區新泰路357巷3弄33號","121.441948333333","25.0404933333333","6500500","新莊區"
"242017","350-TH","2018/01/22 17:19:44","新北市新莊區中華路一段103號","121.452801666667","25.0438683333333","6500500","新莊區"
"242011","351-TH","2018/01/22 17:19:47","新北市新莊區新泰路502巷57號","121.444531666667","25.0464683333333","6500500","新莊區"
"238015","755-BX","2018/01/22 17:19:35","新北市樹林區中山路三段89號","121.400101666667","24.974835","6500700","樹林區"
"238023","601-UM","2018/01/22 17:19:40","新北市樹林區中正路433號","121.415025","25.0085083333333","6500700","樹林區"
"238019","599-UM","2018/01/22 17:19:43","新北市樹林區八德街130號","121.421421666667","24.9790383333333","6500700","樹林區"
"238018","571-TV","2018/01/22 17:19:37","新北市樹林區水源街213號","121.42427","24.9871233333333","6500700","樹林區"
"238024","5061-A6","2018/01/22 17:19:54","新北市樹林區樹新路51巷2號","121.426963333333","24.9950283333333","6500700","樹林區"
"238021","KEA-2217","2018/01/22 17:19:47","新北市樹林區西圳街一段165巷20弄11號","121.395601666667","24.9602933333333","6500700","樹林區"
"238022","KEA-2213","2018/01/22 17:19:51","新北市樹林區信義街64號","121.424558333333","24.9828166666667","6500700","樹林區"
"238025","303-VK","2018/01/22 17:19:36","新北市樹林區保安二街67號","121.424661666667","24.9947466666667","6500700","樹林區"
"238017","283-BY","2018/01/22 17:19:48","新北市樹林區光武街30巷6號","121.416725","25.0053783333333","6500700","樹林區"
"238001","282-BY","2018/01/22 17:19:49","新北市樹林區長壽街15-5號","121.422943333333","24.99365","6500700","樹林區"
"238020","268-VK","2018/01/22 17:19:34","新北市樹林區大安路251號","121.419353333333","24.9941166666667","6500700","樹林區"
"238026","172-UY","2018/01/22 17:19:51","新北市樹林區東順街79巷1號","121.409893333333","24.97646","6500700","樹林區"
"238016","169-UY","2018/01/22 17:19:33","新北市樹林區中山路二段10號","121.417503333333","24.98499","6500700","樹林區"
"239007","AAC-297","2018/01/22 17:19:37","新北市鶯歌區行政路3-1號","121.350775","24.9552316666667","6500800","鶯歌區"
"239006","891-R6","2018/01/22 17:19:34","新北市鶯歌區鶯桃路311號","121.333845","24.9606933333333","6500800","鶯歌區"
"239008","527-UM","2018/01/22 17:19:43","新北市鶯歌區西湖街243巷13號","121.33892","24.9655166666667","6500800","鶯歌區"
"239005","526-UM","2018/01/22 17:19:54","新北市鶯歌區福德四街10號","121.329616666667","24.9678716666667","6500800","鶯歌區"
"239001","417-VK","2018/01/22 17:19:51","新北市鶯歌區尖山路260號","121.342395","24.9461583333333","6500800","鶯歌區"
"239003","360-BY","2018/01/22 17:19:41","新北市鶯歌區德昌二街71號","121.33342","24.9582516666667","6500800","鶯歌區"
"239002","359-BY","2018/01/22 17:19:45","新北市鶯歌區建國路170號","121.350236666667","24.95349","6500800","鶯歌區"
"239004","193-VK","2018/01/22 17:19:46","新北市鶯歌區文化路501-13號","121.353571666667","24.948625","6500800","鶯歌區"
"220012","282-UM","2018/01/22 16:59:58","新北市板橋區華東街1-10號","121.448353333333","24.99502","6500100","板橋區"
"234012","TL-1","2018/01/22 16:59:32","","0","0","6500400","永和區"
