"lineid","car","time","location","longitude","latitude","cityid","cityname"
"234007","207-UY","2018/01/22 18:09:29","新北市永和區保生路55號","121.504776666667","25.0107583333333","6500400","永和區"
"234042","862-TW","2018/01/22 18:09:30","新北市永和區福和路1號","121.526601666667","25.0095516666667","6500400","永和區"
"234026","9371-KE","2018/01/22 18:09:26","新北市永和區秀朗路一段10巷21號","121.513348333333","25.0062866666667","6500400","永和區"
"249005","172-UM","2018/01/22 18:09:31","新北市八里區荖阡坑路15號","121.401741666667","25.1398133333333","6502300","八里區"
"249001","173-UM","2018/01/22 18:09:33","新北市八里區龍米路二段17號","121.448608333333","25.1395366666667","6502300","八里區"
"249004","303-UY","2018/01/22 18:09:22","新北市八里區龍米路二段152-1號","121.435773333333","25.1570516666667","6502300","八里區"
"249002","305-UY","2018/01/22 18:09:41","新北市八里區龍米路一段356巷42號","121.452171666667","25.1304916666667","6502300","八里區"
"249003","593-UM","2018/01/22 18:09:41","新北市八里區中華路二段165巷19弄8號","121.40912","25.1509616666667","6502300","八里區"
"248014","025-BX","2018/01/22 18:09:28","新北市五股區成泰路一段189巷9弄2號","121.43415","25.076555","6501500","五股區"
"248016","026-BX","2018/01/22 18:09:38","新北市五股區成泰路三段163號","121.445183333333","25.09175","6501500","五股區"
"248006","077-UY","2018/01/22 18:09:29","新北市五股區中興路二段82號","121.460843333333","25.077305","6501500","五股區"
"248008","095-VK","2018/01/22 18:09:38","新北市五股區更洲路32巷15弄9號","121.458183333333","25.0805016666667","6501500","五股區"
"248018","225-UY","2018/01/22 18:09:40","新北市五股區成泰路三段67號","121.443363333333","25.089605","6501500","五股區"
"248012","247-BX","2018/01/22 18:09:35","新北市五股區成泰路三段101-1號","121.44404","25.090355","6501500","五股區"
"248004","677-BX","2018/01/22 18:09:43","新北市五股區中興路四段40-3號","121.43867","25.0827816666667","6501500","五股區"
"248010","682-TV","2018/01/22 18:09:27","新北市五股區成泰路一段229-1號","121.434253333333","25.0776783333333","6501500","五股區"
"232011","375-UM","2018/01/22 18:09:41","新北市坪林區國中路3號","121.71284","24.936945","6502000","坪林區"
"244013","069-UM","2018/01/22 18:09:33","新北市林口區中山路23號","121.395836666667","25.0782183333333","6501700","林口區"
"244007","080-UY","2018/01/22 18:09:37","新北市林口區林口路228號","121.386918333333","25.083905","6501700","林口區"
"244019","402-UM","2018/01/22 18:09:27","新北市林口區忠孝路528號","121.372305","25.068315","6501700","林口區"
"244009","410-SL","2018/01/22 18:09:39","新北市林口區竹林路606巷21弄4號","121.384891666667","25.0827783333333","6501700","林口區"
"244023","483-VK","2018/01/22 18:09:28","新北市林口區仁愛路二段161號","121.382158333333","25.073745","6501700","林口區"
"244017","485-VK","2018/01/22 18:09:38","新北市林口區忠孝路508號","121.370973333333","25.0698866666667","6501700","林口區"
"244011","656-BX","2018/01/22 18:09:40","新北市林口區中正路114號","121.393563333333","25.0772583333333","6501700","林口區"
"244021","657-BX","2018/01/22 18:09:34","新北市林口區自強五街15號","121.399091666667","25.0763283333333","6501700","林口區"
"244025","837-TS","2018/01/22 18:09:42","新北市林口區文化北路一段299巷36號","121.358908333333","25.0725133333333","6501700","林口區"
"243013","646-TV","2018/01/22 18:09:38","新北市泰山區南林路99巷8-1號","121.416078333333","25.0494933333333","6501600","泰山區"
"222003","436-BY","2018/01/22 18:09:33","新北市深坑區腳坑6號","121.610105","24.9946383333333","6501800","深坑區"
"222002","659-BX","2018/01/22 18:09:39","新北市深坑區文化街38-2號","121.61917","25.0017016666667","6501800","深坑區"
"231059","046-UY","2018/01/22 18:09:34","新北市新店區安華路28-1號","121.519536666667","24.9608016666667","6500600","新店區"
"231061","047-UY","2018/01/22 18:09:32","新北市新店區安華路28-1號","121.519255","24.9609383333333","6500600","新店區"
"231051","107-UY","2018/01/22 18:09:34","新北市新店區安康路一段355-3號","121.519278333333","24.961455","6500600","新店區"
"231052","188-VK","2018/01/22 18:09:22","新北市新店區安康路一段355-3號","121.519413333333","24.9616583333333","6500600","新店區"
"231046","278-BY","2018/01/22 18:09:22","新北市新店區康雅崙路50-1號","121.534313333333","24.9267383333333","6500600","新店區"
"231056","3713-VJ","2018/01/22 18:09:24","新北市新店區安華路28-1號","121.519235","24.9607466666667","6500600","新店區"
"231055","4716-K9","2018/01/22 18:09:33","新北市新店區安華路28-1號","121.5197","24.9611433333333","6500600","新店區"
"231040","619-UM","2018/01/22 18:09:25","新北市新店區安華路28-1號","121.519693333333","24.9607216666667","6500600","新店區"
"231063","645-TV","2018/01/22 18:09:33","新北市新店區安華路28-1號","121.51935","24.960755","6500600","新店區"
"231062","720-UM","2018/01/22 18:09:34","新北市新店區安康路一段359-27號","121.51898","24.9613583333333","6500600","新店區"
"241033","557-UM","2018/01/22 18:09:43","新北市三重區中興北街42巷19號","121.468828333333","25.04944","6500200","三重區"
"235066","003-UY","2018/01/22 18:09:27","新北市中和區中和路104號","121.502808333333","24.9997883333333","6500300","中和區"
"235064","005-UY","2018/01/22 18:09:30","新北市中和區中正路271號","121.495773333333","24.9936933333333","6500300","中和區"
"235063","006-UY","2018/01/22 18:09:30","新北市中和區員山路36巷16-3號","121.48502","24.99129","6500300","中和區"
"235056","096-UM","2018/01/22 18:09:35","新北市中和區員山路82巷10弄8號","121.481451666667","24.99359","6500300","中和區"
"235065","098-UM","2018/01/22 18:09:39","新北市中和區中山路二段2巷45弄2號","121.502381666667","25.0070333333333","6500300","中和區"
"235058","151-BY","2018/01/22 18:09:35","新北市中和區圓通路367巷33弄23號","121.49487","24.985245","6500300","中和區"
"235038","185-VK","2018/01/22 18:09:32","新北市中和區大智街15號","121.519791666667","24.991915","6500300","中和區"
"235067","255-BX","2018/01/22 18:09:36","新北市中和區和城路一段271巷1號","121.485465","24.9918816666667","6500300","中和區"
"235043","352-BY","2018/01/22 18:09:39","新北市中和區錦和路350-1號","121.490356666667","24.9935466666667","6500300","中和區"
"235050","4979-A6","2018/01/22 18:09:37","新北市中和區中正路589巷15號","121.485673333333","24.9935066666667","6500300","中和區"
"235045","565-BX","2018/01/22 18:09:33","新北市中和區錦和路350-1號","121.490388333333","24.9935816666667","6500300","中和區"
"235054","640-BX","2018/01/22 18:09:24","新北市中和區連城路607號","121.477836666667","24.9930083333333","6500300","中和區"
"235060","647-TV","2018/01/22 18:09:35","新北市中和區員山路36巷16-3號","121.48491","24.9917933333333","6500300","中和區"
"235047","732-UM","2018/01/22 18:09:30","新北市中和區員山路36巷16-8號","121.485503333333","24.9923633333333","6500300","中和區"
"235046","733-UM","2018/01/22 18:09:44","新北市中和區員山路36巷13號","121.484123333333","24.990865","6500300","中和區"
"235062","800-TS","2018/01/22 18:09:26","新北市中和區景平路999巷3號","121.49537","25.0058883333333","6500300","中和區"
"235052","805-TS","2018/01/22 18:09:25","新北市中和區中正路171號","121.497793333333","24.9936516666667","6500300","中和區"
"235048","896-TW","2018/01/22 18:09:41","新北市中和區員山路36巷13號","121.48419","24.9906283333333","6500300","中和區"
"235051","157-BY","2018/01/22 18:09:26","新北市中和區板南路100號","121.503715","24.9924266666667","6500300","中和區"
"235037","AAC-213","2018/01/22 18:09:37","新北市中和區景平路149號","121.513856666667","24.99214","6500300","中和區"
"247012","546-UM","2018/01/22 18:09:29","新北市蘆洲區民族路112號","121.478473333333","25.085255","6501400","蘆洲區"
"226004","312-R5","2018/01/22 18:09:30","新北市平溪區菁桐里菁桐街165號","121.723053333333","25.0236083333333","6502400","平溪區"
"228003","097-TW","2018/01/22 18:09:30","新北市貢寮區真理里美艷山街6-2號","121.928885","25.0607316666667","6502600","貢寮區"
"228001","212-TW","2018/01/22 18:09:41","新北市貢寮區真理里新港街26巷55弄2-1號","121.927386666667","25.052885","6502600","貢寮區"
"228002","663-BX","2018/01/22 18:09:38","新北市貢寮區福連里馬崗街1號","121.997376666667","25.0169516666667","6502600","貢寮區"
"224006","676-BX","2018/01/22 18:09:40","新北市瑞芳區中山路22號","121.804053333333","25.1062083333333","6501200","瑞芳區"
"224002","639-TC","2018/01/22 18:09:33","新北市瑞芳區三爪子坑路88號","121.809738333333","25.1054766666667","6501200","瑞芳區"
"224009","285-BY","2018/01/22 18:09:32","新北市瑞芳區金光路115號","121.853541666667","25.1062433333333","6501200","瑞芳區"
"224008","275-VK","2018/01/22 18:09:41","新北市瑞芳區三爪子坑路45號","121.813061666667","25.107465","6501200","瑞芳區"
"224007","273-VK","2018/01/22 18:09:28","新北市瑞芳區四腳亭坑路8號","121.777785","25.1096616666667","6501200","瑞芳區"
"224005","271-BY","2018/01/22 18:09:41","新北市瑞芳區深澳路4號","121.816693333333","25.1289233333333","6501200","瑞芳區"
"253005","032-BX","2018/01/22 18:09:36","新北市石門區福安街5號","121.568438333333","25.29285","6502200","石門區"
"253006","295-VK","2018/01/22 18:09:39","新北市石門區老梅路52巷25弄1號","121.546465","25.28807","6502200","石門區"
"222001","KEA-2212","2018/01/22 18:09:32","新北市深坑區北深路二段190號","121.613856666667","25.00236","6501800","深坑區"
"208002","742-BX","2018/01/22 18:09:39","新北市金山區三界壇路111巷20-3號","121.617256666667","25.231825","6502700","金山區"
"208003","665-BX","2018/01/22 18:09:31","新北市金山區磺港里磺港路127號","121.646605","25.227705","6502700","金山區"
"208001","761-BX","2018/01/22 18:09:25","新北市金山區磺港里磺港路107-1號","121.646503333333","25.226905","6502700","金山區"
"251009","008-UM","2018/01/22 18:09:41","新北市淡水區大忠街34巷10號","121.443521666667","25.1754583333333","6501000","淡水區"
"251004","009-UM","2018/01/22 18:09:42","新北市淡水區民族路110巷41號","121.461656666667","25.135215","6501000","淡水區"
"251005","010-UM","2018/01/22 18:09:29","新北市淡水區水源街一段160號","121.448641666667","25.1712666666667","6501000","淡水區"
"251001","011-UM","2018/01/22 18:09:34","新北市淡水區自立路15巷1號","121.462858333333","25.12982","6501000","淡水區"
"251013","179-VK","2018/01/22 18:09:44","新北市淡水區桂花樹4-3號","121.476363333333","25.1956733333333","6501000","淡水區"
"251014","180-VK","2018/01/22 18:09:32","新北市淡水區南平14-1號","121.485675","25.2208266666667","6501000","淡水區"
"251008","181-VK","2018/01/22 18:09:40","新北市淡水區中正東路二段7號","121.458348333333","25.158985","6501000","淡水區"
"251015","182-VK","2018/01/22 18:09:45","新北市淡水區興福寮88巷1號","121.485495","25.16508","6501000","淡水區"
"251010","413-VK","2018/01/22 18:09:40","新北市淡水區中正路二段50巷10號","121.419893333333","25.1833366666667","6501000","淡水區"
"251012","441-VK","2018/01/22 18:09:36","新北市淡水區北新路三段174號","121.492868333333","25.19282","6501000","淡水區"
"251016","442-VK","2018/01/22 18:09:40","新北市淡水區下圭柔山18-1號","121.45373","25.20279","6501000","淡水區"
"251006","561-UM","2018/01/22 18:09:31","新北市淡水區真理街3巷20號","121.437546666667","25.1760616666667","6501000","淡水區"
"251011","650-BX","2018/01/22 18:09:39","新北市淡水區三空泉9-1號","121.47449","25.1630733333333","6501000","淡水區"
"251002","672-BX","2018/01/22 18:09:32","新北市淡水區中正東路一段111巷1號","121.453901666667","25.1598766666667","6501000","淡水區"
"251003","766-UM","2018/01/22 18:09:41","新北市淡水區北新路184巷3-1號","121.449431666667","25.1784016666667","6501000","淡水區"
"207003","550-UM","2018/01/22 18:09:26","新北市萬里區野柳里港西路70-3號","121.685416666667","25.2047066666667","6502800","萬里區"
"207004","225-TW","2018/01/22 18:09:38","新北市萬里區中幅里中福路100號","121.67538","25.1699083333333","6502800","萬里區"
"252003","249-BX","2018/01/22 18:09:32","新北市三芝區埔頭里埔頭37號","121.498528333333","25.26033","6502100","三芝區"
"252001","292-VK","2018/01/22 18:09:38","新北市三芝區中興街二段2號","121.498303333333","25.2566633333333","6502100","三芝區"
"237004","078-UY","2018/01/22 18:09:41","新北市三峽區大埔路357號","121.371206666667","24.8956716666667","6500900","三峽區"
"237007","153-BY","2018/01/22 18:09:38","新北市三峽區中正路二段370巷81號","121.36423","24.9116666666667","6500900","三峽區"
"237009","210-TH","2018/01/22 18:09:34","新北市三峽區復興路303巷1弄1號","121.365581666667","24.93837","6500900","三峽區"
"237013","252-BX","2018/01/22 18:09:30","新北市三峽區長泰街47號","121.37766","24.932695","6500900","三峽區"
"237012","275-BY","2018/01/22 18:09:30","新北市三峽區民生街19巷7弄37號","121.377431666667","24.9354616666667","6500900","三峽區"
"237008","302-VK","2018/01/22 18:09:30","新北市三峽區白雞44-36號","121.377451666667","24.90998","6500900","三峽區"
"237014","433-BY","2018/01/22 18:09:27","新北市三峽區復興路155號","121.370746666667","24.938395","6500900","三峽區"
"237006","5529-G3","2018/01/22 18:09:33","新北市三峽區溪東路34巷13號","121.400396666667","24.93438","6500900","三峽區"
"237015","649-BX","2018/01/22 18:09:29","新北市三峽區紫新路48號","121.422085","24.92194","6500900","三峽區"
"237010","706-TV","2018/01/22 18:09:31","新北市三峽區民權街200號","121.367713333333","24.9292266666667","6500900","三峽區"
"237005","AKY-6261","2018/01/22 18:09:38","新北市三峽區文化路113號","121.37044","24.93605","6500900","三峽區"
"236069","105-UM","2018/01/22 18:09:39","新北市土城區明德路一段361-2號","121.456531666667","24.9776533333333","6501300","土城區"
"236042","107-UM","2018/01/22 18:09:26","新北市土城區城林路6巷80號","121.438598333333","24.9796333333333","6501300","土城區"
"236078","166-UM","2018/01/22 17:44:16","新北市土城區中央路三段99-6號","121.43661","24.96707","6501300","土城區"
"236030","253-BX","2018/01/22 18:09:31","新北市土城區城林路6巷80號","121.438508333333","24.9795983333333","6501300","土城區"
"236026","269-VK","2018/01/22 18:09:36","新北市土城區承天路18號","121.439346666667","24.9636866666667","6501300","土城區"
"236014","270-VK","2018/01/22 18:09:29","新北市土城區學府路一段42號","121.457925","24.9885033333333","6501300","土城區"
"236036","271-VK","2018/01/22 18:09:22","新北市土城區金城路二段37號","121.449825","24.9777316666667","6501300","土城區"
"236020","401-BY","2018/01/22 18:09:34","新北市土城區城林路6巷80號","121.438516666667","24.9797783333333","6501300","土城區"
"236058","912-UM","2018/01/22 18:09:44","新北市土城區中央路四段71號","121.417263333333","24.9583083333333","6501300","土城區"
"236048","913-UM","2018/01/22 18:09:28","新北市土城區明德路一段398號","121.453226666667","24.9793866666667","6501300","土城區"
"236062","915-UM","2018/01/22 18:09:27","新北市土城區學士路123號","121.446756666667","24.97585","6501300","土城區"
"236053","AAC-216","2018/01/22 18:09:27","新北市土城區城林路6巷80號","121.438436666667","24.9797183333333","6501300","土城區"
"242031","AAC-296","2018/01/22 18:09:27","新北市新莊區新泰路277巷47號","121.443875","25.040135","6500500","新莊區"
"242029","986-R7","2018/01/22 18:09:34","新北市新莊區中平路110巷11號","121.445675","25.0460433333333","6500500","新莊區"
"242025","615-BX","2018/01/22 18:09:24","新北市新莊區五權一路120號","121.459976666667","25.06816","6500500","新莊區"
"242023","613-BX","2018/01/22 18:09:38","新北市新莊區幸福路763-2號","121.44781","25.0489833333333","6500500","新莊區"
"242027","612-BX","2018/01/22 18:09:45","新北市新莊區幸福路73號","121.45687","25.04937","6500500","新莊區"
"242039","566-BX","2018/01/22 18:09:08","新北市新莊區民安西路38巷1號","121.427148333333","25.0208733333333","6500500","新莊區"
"242044","442-UM","2018/01/22 18:09:31","新北市新莊區天泉二街24巷1號","121.414628333333","25.0255066666667","6500500","新莊區"
"242048","441-UM","2018/01/22 18:09:32","新北市新莊區民安路49號","121.423871666667","25.0262366666667","6500500","新莊區"
"242053","440-UM","2018/01/22 18:09:30","新北市新莊區民安西路319-1號","121.427658333333","25.0113166666667","6500500","新莊區"
"242034","415-TV","2018/01/22 18:09:33","新北市新莊區景德路382號","121.446286666667","25.033595","6500500","新莊區"
"242004","413-TV","2018/01/22 18:09:30","新北市新莊區自由街50號","121.455838333333","25.0459233333333","6500500","新莊區"
"242042","400-BY","2018/01/22 18:09:40","新北市新莊區雙鳳路120號","121.413341666667","25.028535","6500500","新莊區"
"242060","362-BY","2018/01/22 18:09:38","新北市新莊區新樹路93號","121.437665","25.0272066666667","6500500","新莊區"
"242058","353-BY","2018/01/22 18:09:38","新北市新莊區壽山路49-2號","121.414391666667","25.030905","6500500","新莊區"
"242007","132-UY","2018/01/22 18:09:37","新北市新莊區自信街26號","121.454133333333","25.04814","6500500","新莊區"
"242036","133-UY","2018/01/22 18:09:40","新北市新莊區建福路48巷11號","121.425765","25.027485","6500500","新莊區"
"242021","135-UY","2018/01/22 18:09:42","新北市新莊區中華路一段63巷36號","121.45017","25.0394016666667","6500500","新莊區"
"242046","172-VK","2018/01/22 18:09:43","新北市新莊區福營路371號","121.423548333333","25.0276166666667","6500500","新莊區"
"242009","173-VK","2018/01/22 18:09:35","新北市新莊區昌平街71巷13號","121.453901666667","25.0534316666667","6500500","新莊區"
"242015","175-VK","2018/01/22 18:09:39","新北市新莊區中平路152巷38號","121.446371666667","25.0473583333333","6500500","新莊區"
"242002","176-VK","2018/01/22 18:09:38","新北市新莊區新莊路58號","121.457835","25.0367766666667","6500500","新莊區"
"242050","347-TH","2018/01/22 18:09:38","新北市新莊區民本街53巷19號","121.428965","25.01814","6500500","新莊區"
"242019","348-TH","2018/01/22 18:09:43","新北市新莊區中港路132巷14號","121.456","25.0406616666667","6500500","新莊區"
"242056","349-TH","2018/01/22 18:09:35","新北市新莊區豐年街豐1巷18號","121.447218333333","25.03117","6500500","新莊區"
"242011","351-TH","2018/01/22 18:09:27","新北市新莊區中榮街26號","121.45019","25.0527983333333","6500500","新莊區"
"238015","755-BX","2018/01/22 18:09:34","新北市樹林區啟智街156巷1號","121.414758333333","24.9873683333333","6500700","樹林區"
"238023","601-UM","2018/01/22 18:09:40","新北市樹林區龍興街46巷30號","121.40195","25.01522","6500700","樹林區"
"238019","599-UM","2018/01/22 18:09:42","新北市樹林區國凱街136巷32號","121.423613333333","24.9794133333333","6500700","樹林區"
"238018","571-TV","2018/01/22 18:09:37","新北市板橋區大觀路三段160巷38號","121.429745","24.9940316666667","6500700","樹林區"
"238024","5061-A6","2018/01/22 18:09:34","新北市樹林區文化街116巷2號","121.416371666667","24.98943","6500700","樹林區"
"238021","KEA-2217","2018/01/22 18:09:27","新北市樹林區柑園街一段136號","121.399785","24.9576133333333","6500700","樹林區"
"238022","KEA-2213","2018/01/22 18:09:42","新北市樹林區太平路225巷2號","121.41856","24.97702","6500700","樹林區"
"238025","303-VK","2018/01/22 18:09:40","新北市樹林區保安街二段64號","121.415348333333","25.002555","6500700","樹林區"
"238017","283-BY","2018/01/22 18:09:28","新北市樹林區中正路825號","121.409336666667","25.01711","6500700","樹林區"
"238014","282-BY","2018/01/22 18:09:29","新北市樹林區中正路55巷11號","121.426296666667","24.9993666666667","6500700","樹林區"
"238020","268-VK","2018/01/22 18:09:34","新北市樹林區三俊街135巷52號","121.418766666667","25.01727","6500700","樹林區"
"238026","172-UY","2018/01/22 18:09:31","新北市樹林區佳園路一段50號","121.39293","24.9706516666667","6500700","樹林區"
"238016","169-UY","2018/01/22 18:09:33","新北市樹林區日新街150號","121.420541666667","24.988575","6500700","樹林區"
"239007","AAC-297","2018/01/22 18:09:37","新北市鶯歌區尖山埔路183號","121.345628333333","24.950645","6500800","鶯歌區"
"239006","891-R6","2018/01/22 18:09:34","新北市鶯歌區鶯桃路381巷2弄9號","121.333","24.9636533333333","6500800","鶯歌區"
"239008","527-UM","2018/01/22 18:09:43","新北市鶯歌區朝陽街46巷1號","121.337155","24.97745","6500800","鶯歌區"
"239005","526-UM","2018/01/22 18:09:37","新北市鶯歌區鶯桃路668巷73號","121.329918333333","24.9717633333333","6500800","鶯歌區"
"239001","417-VK","2018/01/22 18:09:30","新北市鶯歌區中正三路5巷4號","121.34012","24.9427","6500800","鶯歌區"
"239003","360-BY","2018/01/22 18:09:41","新北市鶯歌區福安街32巷34號","121.335335","24.9635633333333","6500800","鶯歌區"
"239002","359-BY","2018/01/22 18:09:29","新北市鶯歌區中山路329巷18號","121.344151666667","24.9564933333333","6500800","鶯歌區"
"221036","130-UY","2018/01/22 18:09:37","新北市汐止區大同路三段251號","121.673391666667","25.0761266666667","6501100","汐止區"
"221010","269-BY","2018/01/22 18:09:24","新北市汐止區汐萬路二段269號","121.646056666667","25.08878","6501100","汐止區"
"221012","278-VK","2018/01/22 18:09:28","新北市汐止區保一街69號","121.674256666667","25.079775","6501100","汐止區"
"221023","279-VK","2018/01/22 18:09:33","新北市汐止區民族五街79號","121.627515","25.069985","6501100","汐止區"
"221032","280-BY","2018/01/22 18:09:26","新北市汐止區力行街1號","121.617398333333","25.05134","6501100","汐止區"
"221027","281-BY","2018/01/22 18:09:40","新北市汐止區大同路二段509號","121.661278333333","25.068715","6501100","汐止區"
"221029","298-VK","2018/01/22 18:09:34","新北市汐止區樟樹二路134號","121.64001","25.0656383333333","6501100","汐止區"
"221021","299-VK","2018/01/22 18:09:30","新北市汐止區龍安路202巷10號","121.652623333333","25.063345","6501100","汐止區"
"221031","353-TW","2018/01/22 18:09:32","新北市汐止區中興路173-3號","121.63077","25.0664866666667","6501100","汐止區"
"221008","358-BY","2018/01/22 18:09:38","新北市汐止區康寧街315號","121.627121666667","25.0678533333333","6501100","汐止區"
"221015","567-BX","2018/01/22 18:09:42","新北市汐止區鄉長路二段90號","121.666535","25.0847266666667","6501100","汐止區"
"221035","622-UM","2018/01/22 18:09:28","新北市汐止區大同路二段202號","121.653228333333","25.064855","6501100","汐止區"
"221025","623-UM","2018/01/22 18:09:23","新北市汐止區勤進路3巷27號","121.660985","25.0619033333333","6501100","汐止區"
"221038","646-BX","2018/01/22 18:09:29","新北市汐止區莊敬街131巷9號","121.654871666667","25.060235","6501100","汐止區"
"221033","647-BX","2018/01/22 18:09:40","新北市汐止區宜興街10巷21號","121.621996666667","25.0407283333333","6501100","汐止區"
"221002","707-TV","2018/01/22 18:09:33","新北市汐止區福德一路190號","121.63516","25.0656966666667","6501100","汐止區"
"221018","753-BX","2018/01/22 18:09:40","新北市汐止區忠孝東路397號","121.665763333333","25.0708266666667","6501100","汐止區"
