"lineid","car","time","location","longitude","latitude","cityid","cityname"
"234046","148-BY","2018/01/22 18:39:35","新北市永和區永元路68號","121.522571666667","25.0014933333333","6500400","永和區"
"234007","207-UY","2018/01/22 18:39:29","新北市永和區文化路176號","121.511518333333","25.015805","6500400","永和區"
"234081","298-R6","2018/01/22 18:39:36","新北市永和區林森路81號","121.523978333333","25.0038033333333","6500400","永和區"
"234086","338-UY","2018/01/22 18:39:32","新北市中和區景新街273巷32號","121.510743333333","24.9941283333333","6500400","永和區"
"234017","745-BX","2018/01/22 18:39:32","新北市永和區福和路1號","121.52637","25.0096466666667","6500400","永和區"
"234030","746-BX","2018/01/22 18:39:33","新北市永和區成功路一段77號","121.52689","25.003165","6500400","永和區"
"234013","KEA-2591","2018/01/22 18:39:27","新北市永和區仁愛路86號","121.512643333333","25.0131983333333","6500400","永和區"
"234061","AAD-866","2018/01/22 18:39:32","新北市永和區福和路1號","121.525985","25.00944","6500400","永和區"
"234042","862-TW","2018/01/22 18:39:30","新北市永和區環河東路二段102號","121.524531666667","25.0105266666667","6500400","永和區"
"234050","863-TW","2018/01/22 18:39:29","新北市永和區保安路2號","121.51081","25.017335","6500400","永和區"
"234026","9371-KE","2018/01/22 18:39:26","新北市永和區仁愛路271號","121.506091666667","25.0099666666667","6500400","永和區"
"234023","9381-KE","2018/01/22 18:39:36","新北市永和區福和路12巷2號","121.524468333333","25.00857","6500400","永和區"
"234011","9373-KE","2018/01/22 18:39:36","新北市永和區文化路9巷22弄24號","121.514703333333","25.0145716666667","6500400","永和區"
"249005","172-UM","2018/01/22 18:39:31","新北市八里區中華路三段208號","121.388433333333","25.1259116666667","6502300","八里區"
"249001","173-UM","2018/01/22 18:39:33","新北市八里區龍米路一段378號","121.451578333333","25.131755","6502300","八里區"
"249004","303-UY","2018/01/22 18:39:22","新北市八里區中山路一段7號","121.422451666667","25.1589816666667","6502300","八里區"
"249002","305-UY","2018/01/22 18:39:41","新北市八里區龍形一街33巷1-6號","121.449451666667","25.1293683333333","6502300","八里區"
"248014","025-BX","2018/01/22 18:39:28","新北市五股區成泰路二段100號","121.437625","25.08279","6501500","五股區"
"248016","026-BX","2018/01/22 18:39:38","新北市五股區凌雲路一段149巷24號","121.44881","25.101695","6501500","五股區"
"248008","095-VK","2018/01/22 18:39:38","新北市五股區中興路一段148號","121.464656666667","25.0739583333333","6501500","五股區"
"248018","225-UY","2018/01/22 18:39:40","新北市五股區民義路三段1號","121.403521666667","25.11329","6501500","五股區"
"248012","247-BX","2018/01/22 18:39:35","新北市五股區成泰路三段51號","121.442568333333","25.0894816666667","6501500","五股區"
"248004","677-BX","2018/01/22 18:39:36","新北市五股區民義路一段312-22號","121.422651666667","25.0953216666667","6501500","五股區"
"248010","682-TV","2018/01/22 18:39:27","新北市五股區自強路76號","121.432995","25.072885","6501500","五股區"
"234077","969-R7","2018/01/22 18:39:30","新北市永和區中正路226號","121.51596","24.9978116666667","6500400","永和區"
"234074","AAC-211","2018/01/22 18:39:28","新北市永和區福和路1號","121.526368333333","25.00986","6500400","永和區"
"234067","AAC-212","2018/01/22 18:39:23","新北市永和區福和路199號","121.519456666667","25.0075733333333","6500400","永和區"
"234003","AAC-295","2018/01/22 18:39:41","新北市永和區福和路1號","121.525548333333","25.0092783333333","6500400","永和區"
"232011","375-UM","2018/01/22 18:39:41","新北市坪林區坪雙路一段43號","121.711705","24.9425216666667","6502000","坪林區"
"244013","069-UM","2018/01/22 18:39:33","新北市林口區佳林路157號","121.385263333333","25.07925","6501700","林口區"
"244007","080-UY","2018/01/22 18:39:37","新北市林口區後湖14鄰50號","121.385786666667","25.1001","6501700","林口區"
"244019","402-UM","2018/01/22 18:39:27","新北市林口區忠孝路586巷8號","121.375158333333","25.0675366666667","6501700","林口區"
"244009","410-SL","2018/01/22 18:39:39","新北市林口區寶林路123號","121.383061666667","25.0854383333333","6501700","林口區"
"244023","483-VK","2018/01/22 18:39:28","新北市林口區民享路36號","121.380758333333","25.080605","6501700","林口區"
"244017","485-VK","2018/01/22 18:39:38","新北市林口區文化二路一段86號","121.366318333333","25.06955","6501700","林口區"
"244011","656-BX","2018/01/22 18:39:40","新北市林口區興林路17巷3弄2號","121.390278333333","25.0769716666667","6501700","林口區"
"244021","657-BX","2018/01/22 18:38:54","新北市林口區粉寮路一段80號","121.397186666667","25.079255","6501700","林口區"
"244025","837-TS","2018/01/22 18:39:22","新北市林口區南勢里53-7號","121.355061666667","25.0747933333333","6501700","林口區"
"243012","AAD-798","2018/01/22 18:39:38","新北市泰山區福興三街13號","121.434455","25.0577983333333","6501600","泰山區"
"243009","KEA-2216","2018/01/22 18:39:44","新北市泰山區犁頭窠3-1號","121.42182","25.060525","6501600","泰山區"
"243013","646-TV","2018/01/22 18:39:38","新北市泰山區明志路三段206巷3號","121.423273333333","25.0379016666667","6501600","泰山區"
"243016","680-BX","2018/01/22 18:39:43","新北市泰山區犁頭窠3-1號","121.422115","25.0606083333333","6501600","泰山區"
"222003","436-BY","2018/01/22 18:39:33","新北市深坑區翠谷街24號","121.626876666667","25.0088516666667","6501800","深坑區"
"222002","659-BX","2018/01/22 18:39:39","新北市深坑區文山路一段62巷33號","121.621148333333","25.0001833333333","6501800","深坑區"
"231041","002-UM","2018/01/22 18:39:27","新北市新店區安華路28-1號","121.519703333333","24.9608516666667","6500600","新店區"
"231059","046-UY","2018/01/22 18:39:34","新北市新店區安華路28-1號","121.519536666667","24.960815","6500600","新店區"
"231061","047-UY","2018/01/22 18:39:32","新北市新店區安華路28-1號","121.519278333333","24.960965","6500600","新店區"
"231060","106-UY","2018/01/22 18:39:34","新北市新店區安華路28-1號","121.519695","24.9607366666667","6500600","新店區"
"231051","107-UY","2018/01/22 18:39:35","新北市新店區環河路29巷1號","121.536961666667","24.9613666666667","6500600","新店區"
"231047","108-UY","2018/01/22 18:39:40","新北市新店區北新路一段89號","121.538543333333","24.9616766666667","6500600","新店區"
"231052","188-VK","2018/01/22 18:39:42","新北市新店區永興路7號","121.54456","24.939545","6500600","新店區"
"231050","KEA-2219","2018/01/22 18:39:40","新北市新店區安華路28-1號","121.519843333333","24.9611866666667","6500600","新店區"
"231057","256-BX","2018/01/22 18:39:36","新北市新店區新烏路一段205-2號","121.547573333333","24.9326133333333","6500600","新店區"
"231046","278-BY","2018/01/22 18:39:41","新北市新店區直潭二街1號","121.535501666667","24.9431716666667","6500600","新店區"
"231054","AAD-862","2018/01/22 18:39:39","新北市新店區安華路28-1號","121.5199","24.961095","6500600","新店區"
"231058","3712-VJ","2018/01/22 18:39:37","新北市新店區北宜路一段105巷4弄9號","121.540403333333","24.95549","6500600","新店區"
"231056","3713-VJ","2018/01/22 18:39:25","新北市新店區自立街42號","121.53829","24.9787183333333","6500600","新店區"
"231055","4716-K9","2018/01/22 18:39:33","新北市新店區華興街14號","121.537755","24.969695","6500600","新店區"
"231067","4772-VM","2018/01/22 18:39:37","新北市新店區安康路一段355號","121.519848333333","24.9633516666667","6500600","新店區"
"231065","512-UM","2018/01/22 18:39:30","新北市新店區安華路28-1號","121.519225","24.9612433333333","6500600","新店區"
"231064","515-UM","2018/01/22 18:39:30","新北市新店區安華路28-1號","121.520048333333","24.961015","6500600","新店區"
"231042","616-UM","2018/01/22 18:39:32","新北市新店區安華路1-1號","121.519423333333","24.96047","6500600","新店區"
"231040","619-UM","2018/01/22 18:39:26","新北市新店區安華路28-1號","121.519635","24.9607233333333","6500600","新店區"
"231063","645-TV","2018/01/22 18:39:33","新北市新店區安華路28-1號","121.519406666667","24.96076","6500600","新店區"
"231049","719-UM","2018/01/22 18:39:34","新北市新店區安康路一段117號","121.528408333333","24.96173","6500600","新店區"
"231062","720-UM","2018/01/22 18:39:34","新北市新店區安華路28-1號","121.519173333333","24.961375","6500600","新店區"
"231044","897-TW","2018/01/22 18:39:23","新北市新店區寶中路72號","121.547896666667","24.9806233333333","6500600","新店區"
"231045","898-TW","2018/01/22 18:39:31","新北市新店區安華路28-1號","121.519413333333","24.9609466666667","6500600","新店區"
"231043","899-TW","2018/01/22 18:39:30","新北市新店區安華路28-1號","121.51931","24.960865","6500600","新店區"
"231066","AKT-0513","2018/01/22 18:39:33","新北市新店區安華路28-1號","121.51951","24.9606566666667","6500600","新店區"
"235066","003-UY","2018/01/22 18:39:27","新北市中和區水源路24號","121.50434","25.0035316666667","6500300","中和區"
"235064","005-UY","2018/01/22 18:39:30","新北市中和區連城路109巷42-1號","121.497268333333","24.9978033333333","6500300","中和區"
"235063","006-UY","2018/01/22 18:39:30","新北市中和區連城路347巷4弄15號","121.48767","24.99558","6500300","中和區"
"235056","096-UM","2018/01/22 18:39:34","新北市中和區員山路611巷1號","121.477851666667","25.01131","6500300","中和區"
"235039","097-UM","2018/01/22 18:39:28","新北市中和區安平路186號","121.512993333333","24.99898","6500300","中和區"
"235065","098-UM","2018/01/22 18:39:39","新北市中和區莊敬路33巷36弄14號","121.500621666667","25.0063733333333","6500300","中和區"
"235040","150-BY","2018/01/22 18:39:29","新北市中和區宜安路41號","121.511838333333","24.9963516666667","6500300","中和區"
"235058","151-BY","2018/01/22 18:39:35","新北市中和區圓通路369巷30弄100號","121.4881","24.9840983333333","6500300","中和區"
"235055","183-VK","2018/01/22 18:39:39","新北市中和區中山路三段229巷51號","121.469198333333","25.0054783333333","6500300","中和區"
"235038","185-VK","2018/01/22 18:39:32","新北市中和區立人街14巷52號","121.518421666667","24.9956683333333","6500300","中和區"
"235049","186-VK","2018/01/22 18:39:40","新北市中和區景平路500巷7號","121.50442","24.9936933333333","6500300","中和區"
"235067","255-BX","2018/01/22 18:39:36","新北市中和區新生街3號","121.483233333333","25.0047283333333","6500300","中和區"
"235044","293-VK","2018/01/22 18:39:30","新北市中和區復興路280巷18弄8號","121.502251666667","24.991695","6500300","中和區"
"235072","301-VK","2018/01/22 18:39:43","新北市中和區景平路595-1號","121.497011666667","25.0004816666667","6500300","中和區"
"235043","352-BY","2018/01/22 18:39:39","新北市中和區景平路105號","121.517016666667","24.9917816666667","6500300","中和區"
"235068","377-QA","2018/01/22 18:38:10","新北市中和區中正路175號","121.497455","24.99356","6500300","中和區"
"235061","378-QA","2018/01/22 18:39:41","新北市中和區民享街88巷16號","121.473788333333","25.0005016666667","6500300","中和區"
"235050","4979-A6","2018/01/22 18:39:37","新北市中和區景新街496巷28弄10號","121.513071666667","24.9858983333333","6500300","中和區"
"235069","4980-A6","2018/01/22 18:39:38","新北市中和區連城路63號","121.49765","25.001375","6500300","中和區"
"235070","558-UM","2018/01/22 18:27:45","新北市中和區景平路465號","121.500218333333","24.996725","6500300","中和區"
"235045","565-BX","2018/01/22 18:39:33","新北市中和區南山路236巷30弄3號","121.505298333333","24.9884883333333","6500300","中和區"
"235054","640-BX","2018/01/22 18:39:24","新北市中和區莒光路129巷2弄24號","121.47296","25.00114","6500300","中和區"
"235060","647-TV","2018/01/22 18:39:34","新北市中和區中山路二段479號","121.483081666667","25.0049016666667","6500300","中和區"
"235047","732-UM","2018/01/22 18:39:30","新北市中和區南山路320巷1號","121.507735","24.9865166666667","6500300","中和區"
"235046","733-UM","2018/01/22 18:39:24","新北市中和區捷運路8-5號","121.50957","24.9896","6500300","中和區"
"235062","800-TS","2018/01/22 18:39:26","新北市中和區中山路二段312巷33弄12號","121.49486","25.00388","6500300","中和區"
"235057","801-TS","2018/01/22 18:39:37","新北市中和區員山路327巷92號","121.479375","25.0023683333333","6500300","中和區"
"235041","802-TS","2018/01/22 18:39:46","新北市中和區宜安路141號","121.509451666667","24.99855","6500300","中和區"
"235052","805-TS","2018/01/22 18:39:25","新北市中和區興南路三段21號","121.496936666667","24.9792933333333","6500300","中和區"
"235048","896-TW","2018/01/22 18:39:41","新北市中和區南山路317號","121.505013333333","24.9914633333333","6500300","中和區"
"235053","900-TW","2018/01/22 18:39:34","新北市土城區延壽路75巷1號","121.46926","24.992515","6500300","中和區"
"235051","157-BY","2018/01/22 18:39:26","新北市中和區華新街232巷8號","121.505851666667","24.982025","6500300","中和區"
"235037","AAC-213","2018/01/22 18:39:37","新北市中和區景平路111巷60弄54號","121.514575","24.9908866666667","6500300","中和區"
"235059","AAC-215","2018/01/22 18:39:31","新北市中和區錦和路350-1號","121.49047","24.993525","6500300","中和區"
"220065","072-UY","2018/01/22 18:39:29","新北市板橋區區運路19號","121.465651666667","25.0100516666667","6500100","板橋區"
"220086","073-UY","2018/01/22 18:39:34","新北市板橋區南雅西路二段192巷3號","121.452068333333","25.0144816666667","6500100","板橋區"
"226004","312-R5","2018/01/22 18:38:29","新北市平溪區靜安路二段294巷6號","121.735633333333","25.02359","6502400","平溪區"
"228003","097-TW","2018/01/22 18:39:30","新北市貢寮區和美里龍洞街34-1號","121.917291666667","25.111675","6502600","貢寮區"
"228001","212-TW","2018/01/22 18:39:41","新北市貢寮區仁理村保健街69號","121.923728333333","25.0516083333333","6502600","貢寮區"
"228002","663-BX","2018/01/22 18:39:38","新北市貢寮區福隆里東興街6-11號","121.950781666667","25.0210733333333","6502600","貢寮區"
"224010","AGQ-8101","2018/01/22 18:39:24","新北市瑞芳區烏勢巷107號","121.846158333333","25.1086383333333","6501200","瑞芳區"
"224006","676-BX","2018/01/22 18:39:44","新北市瑞芳區明燈路三段98號","121.805328333333","25.1083416666667","6501200","瑞芳區"
"224002","639-TC","2018/01/22 18:39:33","新北市瑞芳區中山路248號","121.799883333333","25.10727","6501200","瑞芳區"
"224009","285-BY","2018/01/22 18:39:32","新北市瑞芳區新山路31號","121.855905","25.1083666666667","6501200","瑞芳區"
"224008","275-VK","2018/01/22 18:39:41","新北市瑞芳區逢甲路274號","121.804795","25.1109033333333","6501200","瑞芳區"
"224007","273-VK","2018/01/22 18:39:28","新北市瑞芳區大埔路167號","121.763795","25.101905","6501200","瑞芳區"
"224005","271-BY","2018/01/22 18:39:41","新北市瑞芳區永龍新村34號","121.818913333333","25.1193983333333","6501200","瑞芳區"
"227008","642-TC","2018/01/22 18:39:40","新北市雙溪區牡丹里下坑11號","121.851033333333","25.0561666666667","6502500","雙溪區"
"227001","400-TW","2018/01/22 18:39:34","新北市雙溪區魚行里坤溪5號","121.874383333333","25.0221033333333","6502500","雙溪區"
"253005","032-BX","2018/01/22 18:39:36","新北市石門區中山路52號","121.566613333333","25.29036","6502200","石門區"
"253006","295-VK","2018/01/22 18:39:26","新北市石門區楓林28-5號","121.542643333333","25.289815","6502200","石門區"
"222001","KEA-2212","2018/01/22 18:39:31","新北市深坑區北深路一段82號","121.636303333333","25.0107433333333","6501800","深坑區"
"208002","742-BX","2018/01/22 18:39:39","新北市金山區忠孝一路24-1號","121.638346666667","25.2195966666667","6502700","金山區"
"208003","665-BX","2018/01/22 18:39:31","新北市金山區中山路276-3號","121.63504","25.2243283333333","6502700","金山區"
"208001","761-BX","2018/01/22 18:39:25","新北市金山區文化三路7號","121.635081666667","25.2249216666667","6502700","金山區"
"251004","009-UM","2018/01/22 18:39:41","新北市淡水區民權路41號","121.460123333333","25.14028","6501000","淡水區"
"251001","011-UM","2018/01/22 18:39:32","新北市淡水區自強路415巷2號","121.465495","25.1341983333333","6501000","淡水區"
"251013","179-VK","2018/01/22 18:39:24","新北市淡水區雲廣坑5-1號","121.474678333333","25.2130933333333","6501000","淡水區"
"251014","180-VK","2018/01/22 18:39:31","新北市淡水區崙頂12-8號","121.495561666667","25.2172533333333","6501000","淡水區"
"251008","181-VK","2018/01/22 18:39:40","新北市淡水區北投子72-1號","121.453675","25.182175","6501000","淡水區"
"251015","182-VK","2018/01/22 18:39:25","新北市淡水區興福寮66巷267號","121.486831666667","25.1621616666667","6501000","淡水區"
"251010","413-VK","2018/01/22 18:39:40","新北市淡水區沙崙路122號","121.423351666667","25.1827866666667","6501000","淡水區"
"251012","441-VK","2018/01/22 18:39:36","新北市淡水區北新路117號","121.448981666667","25.1785533333333","6501000","淡水區"
"251016","442-VK","2018/01/22 18:39:40","新北市淡水區下圭柔山84-1號","121.440015","25.2050716666667","6501000","淡水區"
"251006","561-UM","2018/01/22 18:39:31","新北市淡水區中山北路二段383號","121.443966666667","25.1887083333333","6501000","淡水區"
"251011","650-BX","2018/01/22 18:39:39","新北市淡水區鄧公路52號","121.460086666667","25.168765","6501000","淡水區"
"251002","672-BX","2018/01/22 18:39:32","新北市淡水區中正東路一段3巷14弄1號","121.450886666667","25.1641533333333","6501000","淡水區"
"251003","766-UM","2018/01/22 18:39:41","新北市淡水區中山北路一段212巷38號","121.446143333333","25.1790966666667","6501000","淡水區"
"207003","550-UM","2018/01/22 18:39:26","新北市萬里區野柳里港西路80-1號","121.684201666667","25.206175","6502800","萬里區"
"207004","225-TW","2018/01/22 18:39:26","新北市萬里區萬里里獅頭路10-1號","121.692108333333","25.1787133333333","6502800","萬里區"
"252002","178-VK","2018/01/22 18:39:31","新北市三芝區民生街36號","121.50371","25.2561766666667","6502100","三芝區"
"252003","249-BX","2018/01/22 18:39:32","新北市三芝區後厝里土地公坑999號","121.464585","25.2491","6502100","三芝區"
"252001","292-VK","2018/01/22 18:39:38","新北市三芝區埔頭里埔頭14號","121.50091","25.2537383333333","6502100","三芝區"
"237004","078-UY","2018/01/22 18:39:40","新北市三峽區插角234號","121.412283333333","24.8688516666667","6500900","三峽區"
"237007","153-BY","2018/01/22 18:39:38","新北市三峽區柑樹路2巷98號","121.361755","24.9043216666667","6500900","三峽區"
"237009","210-TH","2018/01/22 18:39:34","新北市三峽區大同路286巷3號","121.364036666667","24.92528","6500900","三峽區"
"237013","252-BX","2018/01/22 18:39:30","新北市三峽區光明路69巷25號","121.376741666667","24.929285","6500900","三峽區"
"237012","275-BY","2018/01/22 18:39:30","新北市三峽區三樹路278號","121.380256666667","24.94366","6500900","三峽區"
"237008","302-VK","2018/01/22 18:39:30","新北市三峽區白雞52-1號","121.38196","24.9121316666667","6500900","三峽區"
"237014","433-BY","2018/01/22 18:39:27","新北市三峽區復興路176-8號","121.370421666667","24.9385783333333","6500900","三峽區"
"237006","5529-G3","2018/01/22 18:39:33","新北市三峽區溪東路315巷106號","121.412185","24.9315483333333","6500900","三峽區"
"237015","649-BX","2018/01/22 18:39:29","新北市三峽區竹崙路32號","121.429613333333","24.9225016666667","6500900","三峽區"
"237010","706-TV","2018/01/22 18:39:31","新北市三峽區復興路361號","121.363698333333","24.938625","6500900","三峽區"
"237005","AKY-6261","2018/01/22 18:39:38","新北市三峽區民生街100號","121.373846666667","24.9355983333333","6500900","三峽區"
"236069","105-UM","2018/01/22 18:39:39","新北市土城區永豐路157巷29弄6-1號","121.468375","24.98148","6501300","土城區"
"236042","107-UM","2018/01/22 18:39:25","新北市土城區學成路108巷9號","121.45012","24.98964","6501300","土城區"
"236030","253-BX","2018/01/22 18:39:31","新北市土城區慶利街32號","121.438836666667","24.9744616666667","6501300","土城區"
"236026","269-VK","2018/01/22 18:39:36","新北市土城區千歲路3巷6弄30號","121.442245","24.9704033333333","6501300","土城區"
"236014","270-VK","2018/01/22 18:39:29","新北市土城區清水路234巷15弄5號","121.462175","24.9823283333333","6501300","土城區"
"236036","271-VK","2018/01/22 18:39:42","新北市土城區明德路一段291巷11弄1號","121.460398333333","24.9766166666667","6501300","土城區"
"236020","401-BY","2018/01/22 18:39:34","新北市土城區延吉街309巷6號","121.466093333333","24.9843883333333","6501300","土城區"
"236058","912-UM","2018/01/22 18:39:44","新北市土城區中央路四段25-5號","121.424793333333","24.9624783333333","6501300","土城區"
"236048","913-UM","2018/01/22 18:39:32","新北市土城區明德路一段24號","121.46512","24.9848666666667","6501300","土城區"
"236062","915-UM","2018/01/22 18:39:34","新北市土城區延壽路55巷9弄2號","121.469473333333","24.991625","6501300","土城區"
"236053","AAC-216","2018/01/22 18:39:27","新北市土城區中華路一段49號","121.445713333333","24.98826","6501300","土城區"
"242060","362-BY","2018/01/22 18:39:32","新北市新莊區新莊路692號","121.440696666667","25.0328116666667","6500500","新莊區"
"242058","353-BY","2018/01/22 18:39:38","新北市新莊區中正路887號","121.416926666667","25.0247333333333","6500500","新莊區"
"242046","172-VK","2018/01/22 18:39:43","新北市板橋區大觀路三段50巷47號","121.432968333333","24.9955983333333","6500500","新莊區"
"242056","349-TH","2018/01/22 18:39:38","新北市新莊區環漢路三段531號","121.435398333333","25.0009433333333","6500500","新莊區"
"238023","601-UM","2018/01/22 18:39:40","新北市樹林區三福街114號","121.406318333333","25.0163583333333","6500700","樹林區"
"238019","599-UM","2018/01/22 18:39:42","新北市樹林區鎮前街465巷55弄32號","121.412865","24.98206","6500700","樹林區"
"238018","571-TV","2018/01/22 18:39:39","新北市樹林區樹新路135號","121.428408333333","24.9963166666667","6500700","樹林區"
"238024","5061-A6","2018/01/22 18:39:34","新北市樹林區太順街49巷20弄18號","121.417771666667","24.978295","6500700","樹林區"
"238025","303-VK","2018/01/22 18:37:56","新北市樹林區中山路三段214號","121.379873333333","24.96764","6500700","樹林區"
"238014","282-BY","2018/01/22 18:39:29","新北市樹林區中山路三段160-1號","121.389388333333","24.97023","6500700","樹林區"
"238020","268-VK","2018/01/22 18:39:34","新北市樹林區俊安街15號","121.419748333333","25.01381","6500700","樹林區"
"238026","172-UY","2018/01/22 18:39:31","新北市樹林區八德街1008號","121.391455","24.9684483333333","6500700","樹林區"
"238016","169-UY","2018/01/22 18:39:33","新北市樹林區文化街23號","121.419285","24.9876616666667","6500700","樹林區"
"239007","AAC-297","2018/01/22 18:39:37","新北市鶯歌區中山路83號","121.350745","24.95699","6500800","鶯歌區"
"239008","527-UM","2018/01/22 18:39:43","新北市鶯歌區國際一路179號","121.336235","24.9765233333333","6500800","鶯歌區"
"239005","526-UM","2018/01/22 18:39:37","新北市鶯歌區鳳吉二街101號","121.328691666667","24.9749516666667","6500800","鶯歌區"
"239001","417-VK","2018/01/22 18:39:30","新北市鶯歌區中正三路195-1號","121.335965","24.9390416666667","6500800","鶯歌區"
"239003","360-BY","2018/01/22 18:39:41","新北市鶯歌區永和街99巷2號","121.333715","24.9684283333333","6500800","鶯歌區"
"239004","193-VK","2018/01/22 18:39:26","新北市鶯歌區中正三路156巷31號","121.33337","24.939615","6500800","鶯歌區"
"221036","130-UY","2018/01/22 18:39:37","新北市汐止區南昌街31號","121.663166666667","25.0691783333333","6501100","汐止區"
"221010","269-BY","2018/01/22 18:39:24","新北市汐止區汐萬路三段256號","121.643823333333","25.10458","6501100","汐止區"
"221012","278-VK","2018/01/22 18:39:28","新北市汐止區長江街213號","121.660541666667","25.0770183333333","6501100","汐止區"
"221023","279-VK","2018/01/22 18:39:33","新北市汐止區康寧街607號","121.635878333333","25.07088","6501100","汐止區"
"221032","280-BY","2018/01/22 18:39:26","新北市汐止區福山街58巷9號","121.617911666667","25.0460833333333","6501100","汐止區"
"221027","281-BY","2018/01/22 18:39:40","新北市汐止區和平街75號","121.661403333333","25.07069","6501100","汐止區"
"221029","298-VK","2018/01/22 18:39:34","新北市汐止區樟樹一路131號","121.642175","25.06503","6501100","汐止區"
"221021","299-VK","2018/01/22 18:39:30","新北市汐止區新江北路30巷15號","121.652868333333","25.06892","6501100","汐止區"
"221031","353-TW","2018/01/22 18:39:31","新北市汐止區工建路332號","121.63354","25.05974","6501100","汐止區"
"221008","358-BY","2018/01/22 18:34:34","新北市汐止區康寧街901號","121.651283333333","25.07503","6501100","汐止區"
"221015","567-BX","2018/01/22 18:39:22","新北市汐止區吉祥街26號","121.667805","25.08103","6501100","汐止區"
"221035","622-UM","2018/01/22 18:39:28","新北市汐止區大同路二段270號","121.654673333333","25.0661933333333","6501100","汐止區"
"221025","623-UM","2018/01/22 18:39:23","新北市汐止區仁愛路121巷1號","121.662926666667","25.0640366666667","6501100","汐止區"
"221038","646-BX","2018/01/22 18:39:29","新北市汐止區汐萬路一段256巷3號","121.653476666667","25.07459","6501100","汐止區"
"221033","647-BX","2018/01/22 18:39:40","新北市汐止區南勢街1巷1號","121.627051666667","25.0374016666667","6501100","汐止區"
"221002","707-TV","2018/01/22 18:39:27","新北市汐止區中興路108號","121.633368333333","25.0636133333333","6501100","汐止區"
"221018","753-BX","2018/01/22 18:39:43","新北市汐止區茄苳路250巷19號","121.671795","25.067685","6501100","汐止區"
"220079","145-BY","2018/01/22 18:39:24","新北市板橋區光華街2號","121.454345","25.0112116666667","6500100","板橋區"
"220080","200-UY","2018/01/22 18:39:26","新北市板橋區大觀路二段265巷7-7號","121.444126666667","24.9945683333333","6500100","板橋區"
"220082","610-BX","2018/01/22 18:39:34","新北市板橋區篤行路一段29號","121.43203","24.9945833333333","6500100","板橋區"
"220056","276-BY","2018/01/22 18:39:32","新北市板橋區四川路二段橋頭6號","121.448328333333","24.99402","6500100","板橋區"
"220064","282-UM","2018/01/22 18:39:32","新北市板橋區民生路二段36-1號","121.472118333333","25.01677","6500100","板橋區"
"220071","283-VK","2018/01/22 18:39:29","新北市板橋區華東街1-10號","121.448615","24.994855","6500100","板橋區"
"220094","285-UM","2018/01/22 18:39:41","新北市板橋區民生路二段161巷1號","121.47006","25.019855","6500100","板橋區"
"220053","285-VK","2018/01/22 18:39:24","新北市板橋區民生路二段120號","121.470313333333","25.0199416666667","6500100","板橋區"
"220083","286-VK","2018/01/22 18:39:24","新北市板橋區華東街1-10號","121.448428333333","24.9949583333333","6500100","板橋區"
"220081","287-VK","2018/01/22 18:39:26","新北市板橋區大觀路二段11-12號","121.44787","24.99659","6500100","板橋區"
"220061","293-UM","2018/01/22 18:39:33","新北市板橋區民生路二段161巷9號","121.470301666667","25.019605","6500100","板橋區"
"220010","295-UM","2018/01/22 18:39:43","新北市板橋區民生路二段161巷9號","121.470206666667","25.0195233333333","6500100","板橋區"
"220084","296-UM","2018/01/22 18:39:40","新北市板橋區大觀路二段11-12號","121.448171666667","24.9966583333333","6500100","板橋區"
"220075","303-R5","2018/01/22 18:39:40","新北市板橋區南雅南路二段120-16號","121.452023333333","24.9992666666667","6500100","板橋區"
"220035","560-BX","2018/01/22 18:39:30","新北市板橋區南雅西路二段145巷6號","121.451605","25.011855","6500100","板橋區"
"220057","686-BX","2018/01/22 18:39:28","新北市板橋區華東街1-10號","121.448263333333","24.9949483333333","6500100","板橋區"
"220077","687-BX","2018/01/22 18:39:35","新北市板橋區四川路二段橋頭1巷1號","121.446903333333","24.9940966666667","6500100","板橋區"
"220054","741-BX","2018/01/22 18:39:28","新北市板橋區華東街1-9號","121.448083333333","24.994915","6500100","板橋區"
"220067","829-TW","2018/01/22 18:39:36","新北市板橋區民生路二段120號","121.470398333333","25.0197066666667","6500100","板橋區"
"220074","895-R6","2018/01/22 18:39:33","新北市板橋區華東街1-10號","121.448576666667","24.9948983333333","6500100","板橋區"
"220073","985-R7","2018/01/22 18:39:25","新北市板橋區南雅南路二段140號","121.451921666667","24.9962616666667","6500100","板橋區"
"220070","AAC-253","2018/01/22 18:39:33","新北市板橋區華東街1-9號","121.448258333333","24.99484","6500100","板橋區"
