"lineid","car","time","location","longitude","latitude","cityid","cityname"
"234046","148-BY","2018/01/22 18:49:35","新北市永和區秀朗路二段128號","121.524838333333","25.001405","6500400","永和區"
"234007","207-UY","2018/01/22 18:49:29","新北市永和區文化路154號","121.512411666667","25.0152933333333","6500400","永和區"
"234081","298-R6","2018/01/22 18:49:36","新北市永和區永利路106號","121.52111","25.003485","6500400","永和區"
"234038","336-UY","2018/01/22 18:49:19","新北市永和區成功路一段74號","121.526958333333","25.0035183333333","6500400","永和區"
"234064","337-UY","2018/01/22 18:49:28","新北市永和區環河東路二段92號","121.524496666667","25.0105466666667","6500400","永和區"
"234086","338-UY","2018/01/22 18:49:32","新北市永和區中正路75號","121.515063333333","24.9968","6500400","永和區"
"234070","552-UM","2018/01/22 18:49:20","新北市永和區豫溪街185號","121.522488333333","25.0103633333333","6500400","永和區"
"234054","553-UM","2018/01/22 18:49:25","新北市永和區豫溪街191巷3弄1號","121.52328","25.010375","6500400","永和區"
"234017","745-BX","2018/01/22 18:49:32","新北市永和區永和路二段405巷3號","121.515273333333","25.01707","6500400","永和區"
"234030","746-BX","2018/01/22 18:49:33","新北市永和區得和路342號","121.523671666667","24.9994666666667","6500400","永和區"
"234013","KEA-2591","2018/01/22 18:49:27","新北市永和區保福路二段133巷37號","121.50898","25.0133866666667","6500400","永和區"
"234061","AAD-866","2018/01/22 18:49:32","新北市永和區福和路307號","121.516235","25.0071766666667","6500400","永和區"
"234042","862-TW","2018/01/22 18:49:30","新北市永和區永貞路308號","121.511866666667","25.004885","6500400","永和區"
"234050","863-TW","2018/01/22 18:49:29","新北市永和區保安路2號","121.51082","25.01744","6500400","永和區"
"234023","9381-KE","2018/01/22 18:49:16","新北市永和區竹林路119巷22弄3-2號","121.521755","25.01156","6500400","永和區"
"234011","9373-KE","2018/01/22 18:49:36","新北市永和區文化路126巷10弄2號","121.51312","25.0158883333333","6500400","永和區"
"249005","172-UM","2018/01/22 18:49:31","新北市八里區長道坑15號","121.394636666667","25.118365","6502300","八里區"
"249001","173-UM","2018/01/22 18:49:33","新北市八里區龍米路二段68號","121.447873333333","25.141645","6502300","八里區"
"249004","303-UY","2018/01/22 18:49:22","新北市八里區挖子尾街16號","121.4153","25.1643966666667","6502300","八里區"
"248014","025-BX","2018/01/22 18:49:28","新北市五股區成泰路二段226號","121.439625","25.0863483333333","6501500","五股區"
"248016","026-BX","2018/01/22 18:49:38","新北市五股區凌雲路一段133巷23號","121.44917","25.101295","6501500","五股區"
"248006","077-UY","2018/01/22 18:49:29","新北市五股區四維路1巷1號","121.466848333333","25.0700166666667","6501500","五股區"
"248008","095-VK","2018/01/22 18:49:38","新北市五股區中興路一段151巷1弄2號","121.464981666667","25.072925","6501500","五股區"
"248018","225-UY","2018/01/22 18:49:19","新北市五股區民義路二段54號","121.406588333333","25.10717","6501500","五股區"
"248012","247-BX","2018/01/22 18:49:35","新北市五股區成泰路二段147巷6號","121.437715","25.089125","6501500","五股區"
"248004","677-BX","2018/01/22 18:49:36","新北市五股區民義路二段70號","121.405543333333","25.10826","6501500","五股區"
"248010","682-TV","2018/01/22 18:49:27","新北市五股區水碓三路103號","121.431338333333","25.0725883333333","6501500","五股區"
"234077","969-R7","2018/01/22 18:49:31","新北市永和區中正路2巷29弄2-2號","121.513876666667","24.9939083333333","6500400","永和區"
"234074","AAC-211","2018/01/22 18:49:28","新北市永和區福和路1號","121.526285","25.0097866666667","6500400","永和區"
"234067","AAC-212","2018/01/22 18:49:23","新北市永和區中和路625號","121.51298","25.0048516666667","6500400","永和區"
"234003","AAC-295","2018/01/22 18:49:21","新北市永和區中正路708號","121.51609","25.00994","6500400","永和區"
"232011","375-UM","2018/01/22 18:49:21","新北市坪林區坪雙路一段43號","121.711726666667","24.9425133333333","6502000","坪林區"
"244013","069-UM","2018/01/22 18:49:33","新北市林口區仁愛路二段201-1號","121.377835","25.0746533333333","6501700","林口區"
"244007","080-UY","2018/01/22 18:49:37","新北市林口區太平里16號","121.377241666667","25.1151016666667","6501700","林口區"
"244019","402-UM","2018/01/22 18:49:28","新北市林口區忠孝路622巷2號","121.3778","25.0682883333333","6501700","林口區"
"244009","410-SL","2018/01/22 18:49:19","新北市林口區竹林路330巷28號","121.392688333333","25.0827583333333","6501700","林口區"
"244023","483-VK","2018/01/22 18:49:28","新北市林口區文化三路二段211巷95-1號","121.375321666667","25.0844283333333","6501700","林口區"
"244017","485-VK","2018/01/22 18:49:38","新北市林口區文化二路一段20巷25弄9號","121.365356666667","25.0671633333333","6501700","林口區"
"244011","656-BX","2018/01/22 18:49:19","新北市林口區仁愛路一段270號","121.393691666667","25.0759433333333","6501700","林口區"
"244025","837-TS","2018/01/22 18:49:36","新北市林口區南勢二街412號","121.359835","25.0771233333333","6501700","林口區"
"243012","AAD-798","2018/01/22 18:49:18","新北市泰山區福興三街13號","121.434458333333","25.0578116666667","6501600","泰山區"
"243015","380-SR","2018/01/22 18:49:24","新北市泰山區泰林路二段378號","121.428275","25.0639433333333","6501600","泰山區"
"243010","KEA-2215","2018/01/22 18:49:30","新北市泰山區公園路80號","121.424655","25.05623","6501600","泰山區"
"243009","KEA-2216","2018/01/22 18:49:24","新北市泰山區黎明路11號","121.421031666667","25.0631783333333","6501600","泰山區"
"243013","646-TV","2018/01/22 18:49:18","新北市泰山區明志路三段206巷3號","121.423291666667","25.03792","6501600","泰山區"
"243016","680-BX","2018/01/22 18:49:23","新北市泰山區明志路一段509號","121.430491666667","25.0543133333333","6501600","泰山區"
"222003","436-BY","2018/01/22 18:49:33","新北市深坑區北深路一段355-1號","121.622898333333","25.005175","6501800","深坑區"
"222002","659-BX","2018/01/22 18:49:19","新北市深坑區文山路一段69號","121.62697","25.0018616666667","6501800","深坑區"
"231041","002-UM","2018/01/22 18:49:27","新北市新店區安華路28-1號","121.519761666667","24.96085","6500600","新店區"
"231059","046-UY","2018/01/22 18:49:34","新北市新店區安華路28-1號","121.519575","24.9608233333333","6500600","新店區"
"231061","047-UY","2018/01/22 18:49:32","新北市新店區安華路28-1號","121.519275","24.9609383333333","6500600","新店區"
"231060","106-UY","2018/01/22 18:49:34","新北市新店區安華路28-1號","121.519608333333","24.960785","6500600","新店區"
"231051","107-UY","2018/01/22 18:49:35","新北市新店區中央路81號","121.532348333333","24.97655","6500600","新店區"
"231047","108-UY","2018/01/22 18:49:38","新北市新店區德正街21巷1號","121.543851666667","24.9722283333333","6500600","新店區"
"231052","188-VK","2018/01/22 18:49:22","新北市新店區新烏路一段100-2號","121.545991666667","24.93709","6500600","新店區"
"231050","KEA-2219","2018/01/22 18:49:20","新北市新店區安康路一段222號","121.52372","24.963575","6500600","新店區"
"231046","278-BY","2018/01/22 18:49:22","新北市新店區直潭路71號","121.532398333333","24.9421966666667","6500600","新店區"
"231054","AAD-862","2018/01/22 18:49:39","新北市新店區秀山路72號","121.531181666667","24.9609533333333","6500600","新店區"
"231058","3712-VJ","2018/01/22 18:49:37","新北市新店區中興路一段208號","121.543725","24.9655366666667","6500600","新店區"
"231056","3713-VJ","2018/01/22 18:49:25","新北市新店區大豐路68巷5號","121.538933333333","24.9799216666667","6500600","新店區"
"231055","4716-K9","2018/01/22 18:49:33","新北市新店區中華路47巷2弄1號","121.539728333333","24.9675466666667","6500600","新店區"
"231067","4772-VM","2018/01/22 18:49:37","新北市新店區安康路一段104號","121.527283333333","24.9625283333333","6500600","新店區"
"231065","512-UM","2018/01/22 18:49:30","新北市新店區安忠路102-1號","121.510353333333","24.955645","6500600","新店區"
"231064","515-UM","2018/01/22 18:49:30","新北市新店區安華路28-1號","121.519965","24.9610083333333","6500600","新店區"
"231042","616-UM","2018/01/22 18:49:32","新北市新店區北新路一段93號","121.538993333333","24.961845","6500600","新店區"
"231040","619-UM","2018/01/22 18:49:26","新北市新店區環河路116號","121.536873333333","24.9674066666667","6500600","新店區"
"231063","645-TV","2018/01/22 18:49:33","新北市新店區安華路30巷1號","121.519093333333","24.9592783333333","6500600","新店區"
"231049","719-UM","2018/01/22 18:49:34","新北市新店區中正路454-5號","121.534421666667","24.979025","6500600","新店區"
"231062","720-UM","2018/01/22 18:49:34","新北市新店區安忠路101號","121.510916666667","24.9560566666667","6500600","新店區"
"231044","897-TW","2018/01/22 18:49:23","新北市新店區寶中路72號","121.54792","24.98065","6500600","新店區"
"231045","898-TW","2018/01/22 18:49:31","新北市新店區安康路一段65號","121.530393333333","24.9610033333333","6500600","新店區"
"231043","899-TW","2018/01/22 18:49:30","新北市新店區安康路一段76號","121.528218333333","24.96187","6500600","新店區"
"231066","AKT-0513","2018/01/22 18:49:33","新北市新店區安豐路22巷11號","121.502813333333","24.955205","6500600","新店區"
"241012","941-UM","2018/01/22 18:49:21","新北市三重區仁興街24巷13號","121.498935","25.0750683333333","6500200","三重區"
"235066","003-UY","2018/01/22 18:49:27","新北市中和區水源路7巷29號","121.504106666667","25.0038716666667","6500300","中和區"
"235064","005-UY","2018/01/22 18:49:30","新北市中和區連城路75巷2-10號","121.497688333333","24.9993083333333","6500300","中和區"
"235063","006-UY","2018/01/22 18:49:30","新北市中和區連城路315號","121.489331666667","24.9962133333333","6500300","中和區"
"235056","096-UM","2018/01/22 18:49:34","新北市中和區員山路568號","121.478671666667","25.0108316666667","6500300","中和區"
"235039","097-UM","2018/01/22 18:49:28","新北市永和區中正路3號","121.513773333333","24.9955283333333","6500300","中和區"
"235065","098-UM","2018/01/22 18:49:19","新北市中和區中山路二段2巷13弄27號","121.503023333333","25.0063716666667","6500300","中和區"
"235040","150-BY","2018/01/22 18:49:29","新北市中和區宜安路47巷2號","121.511595","24.996465","6500300","中和區"
"235058","151-BY","2018/01/22 18:49:35","新北市中和區連城路573-1號","121.478908333333","24.9944333333333","6500300","中和區"
"235055","183-VK","2018/01/22 18:49:19","新北市中和區民生街45號","121.469955","25.00529","6500300","中和區"
"235038","185-VK","2018/01/22 18:49:32","新北市中和區大勇街45巷1號","121.517953333333","24.9948833333333","6500300","中和區"
"235049","186-VK","2018/01/22 18:49:21","新北市中和區明義街11巷12弄2號","121.503688333333","24.994635","6500300","中和區"
"235067","255-BX","2018/01/22 18:49:36","新北市中和區中山路二段461號","121.483678333333","25.0050033333333","6500300","中和區"
"235044","293-VK","2018/01/22 18:49:30","新北市中和區中興街169號","121.500016666667","24.990495","6500300","中和區"
"235072","301-VK","2018/01/22 18:49:23","新北市中和區中山路二段26號","121.504701666667","25.00528","6500300","中和區"
"235043","352-BY","2018/01/22 18:49:39","新北市中和區成功路88號","121.525905","24.991285","6500300","中和區"
"235068","377-QA","2018/01/22 18:49:29","新北市中和區中正路211巷32弄12號","121.496851666667","24.992725","6500300","中和區"
"235061","378-QA","2018/01/22 18:49:36","新北市中和區民享街32巷2號","121.474013333333","25.0033016666667","6500300","中和區"
"235050","4979-A6","2018/01/22 18:49:37","新北市中和區忠孝街62巷46號","121.513161666667","24.9839333333333","6500300","中和區"
"235069","4980-A6","2018/01/22 18:49:38","新北市中和區南山路81巷8弄12號","121.502506666667","24.9977183333333","6500300","中和區"
"235042","551-UM","2018/01/22 18:49:30","新北市中和區秀朗路三段135巷7弄4號","121.525418333333","24.99181","6500300","中和區"
"235070","558-UM","2018/01/22 18:27:45","新北市中和區景平路465號","121.500218333333","24.996725","6500300","中和區"
"235045","565-BX","2018/01/22 18:49:33","新北市中和區復興路65號","121.503958333333","24.99015","6500300","中和區"
"235054","640-BX","2018/01/22 18:49:24","新北市中和區民享街62-1號","121.474098333333","25.0021333333333","6500300","中和區"
"235060","647-TV","2018/01/22 18:49:34","新北市中和區中山路三段154號","121.473251666667","25.0063416666667","6500300","中和區"
"235047","732-UM","2018/01/22 18:49:30","新北市中和區興南路二段34巷28弄2號","121.505091666667","24.9864383333333","6500300","中和區"
"235046","733-UM","2018/01/22 18:49:24","新北市中和區仁愛街36巷46號","121.51141","24.9862316666667","6500300","中和區"
"235062","800-TS","2018/01/22 18:49:26","新北市中和區中山路二段328-3號","121.495115","25.00231","6500300","中和區"
"235057","801-TS","2018/01/22 18:49:18","新北市中和區民安街22巷19號","121.47968","25.0013516666667","6500300","中和區"
"235041","802-TS","2018/01/22 18:49:26","新北市中和區中安街178巷13弄7號","121.510503333333","24.998535","6500300","中和區"
"235052","805-TS","2018/01/22 18:49:25","新北市中和區興南路二段399巷98-1號","121.500088333333","24.9775616666667","6500300","中和區"
"235048","896-TW","2018/01/22 18:49:21","新北市中和區南山路300號","121.507821666667","24.987105","6500300","中和區"
"235053","900-TW","2018/01/22 18:49:34","新北市中和區華福街44號","121.466503333333","24.9965266666667","6500300","中和區"
"235051","157-BY","2018/01/22 18:49:26","新北市中和區華新街109巷11弄2-4號","121.508726666667","24.9796133333333","6500300","中和區"
"235037","AAC-213","2018/01/22 18:49:37","新北市中和區秀朗路三段128巷2號","121.524638333333","24.9925216666667","6500300","中和區"
"235059","AAC-215","2018/01/22 18:49:31","新北市中和區圓通路395號","121.489626666667","24.9890916666667","6500300","中和區"
"220065","072-UY","2018/01/22 18:49:09","新北市板橋區民族路247巷5弄40號","121.470163333333","25.0083983333333","6500100","板橋區"
"220086","073-UY","2018/01/22 18:49:34","新北市板橋區大智街71巷7弄1號","121.45312","25.0146533333333","6500100","板橋區"
"220106","075-UY","2018/01/22 18:49:26","新北市板橋區民生路二段120號","121.470468333333","25.01966","6500100","板橋區"
"220069","AAD-861","2018/01/22 18:49:20","新北市板橋區華東街11號","121.451158333333","24.998085","6500100","板橋區"
"220096","120-SR","2018/01/22 18:49:32","新北市板橋區民生路二段120號","121.470523333333","25.0197066666667","6500100","板橋區"
"226004","312-R5","2018/01/22 18:47:09","新北市平溪區平溪里三坑路50號","121.733633333333","25.0300416666667","6502400","平溪區"
"228003","097-TW","2018/01/22 18:49:30","新北市瑞芳區鼻頭路127號","121.917055","25.12137","6502600","貢寮區"
"228001","212-TW","2018/01/22 18:49:21","新北市貢寮區仁理村保健街73號","121.9237","25.0516616666667","6502600","貢寮區"
"228002","663-BX","2018/01/22 18:49:38","新北市貢寮區福隆里東興街6-11號","121.950788333333","25.021085","6502600","貢寮區"
"224010","AGQ-8101","2018/01/22 18:49:24","新北市瑞芳區烏勢巷150號","121.847148333333","25.1079783333333","6501200","瑞芳區"
"224006","676-BX","2018/01/22 18:49:20","新北市瑞芳區中山路19號","121.805051666667","25.10764","6501200","瑞芳區"
"224009","285-BY","2018/01/22 18:49:32","新北市瑞芳區五號路56號","121.855756666667","25.1094816666667","6501200","瑞芳區"
"224008","275-VK","2018/01/22 18:49:20","新北市瑞芳區逢甲路347-2號","121.79764","25.1138783333333","6501200","瑞芳區"
"224007","273-VK","2018/01/22 18:49:28","新北市瑞芳區大埔路88號","121.76215","25.1010583333333","6501200","瑞芳區"
"224005","271-BY","2018/01/22 18:49:21","新北市瑞芳區瑞濱路20號","121.826075","25.1212466666667","6501200","瑞芳區"
"227008","642-TC","2018/01/22 18:49:25","新北市雙溪區牡丹里聖南26號","121.856351666667","25.0535116666667","6502500","雙溪區"
"227001","400-TW","2018/01/22 18:49:34","新北市雙溪區平林里梅竹蹊28號","121.86165","25.03603","6502500","雙溪區"
"253005","032-BX","2018/01/22 18:49:36","新北市石門區中山路11號","121.565741666667","25.290475","6502200","石門區"
"253006","295-VK","2018/01/22 18:49:26","新北市石門區下員坑30-3號","121.520053333333","25.2826783333333","6502200","石門區"
"222001","KEA-2212","2018/01/22 18:49:31","新北市深坑區松柏街1號","121.638418333333","25.01132","6501800","深坑區"
"208002","742-BX","2018/01/22 18:49:39","新北市金山區信義路62號","121.635628333333","25.2190166666667","6502700","金山區"
"208003","665-BX","2018/01/22 18:49:31","新北市金山區中山路393號","121.63344","25.2252216666667","6502700","金山區"
"208001","761-BX","2018/01/22 18:49:25","新北市金山區文化三路66巷2弄1號","121.634345","25.2256816666667","6502700","金山區"
"251009","008-UM","2018/01/22 18:49:21","新北市淡水區重建街185號","121.440853333333","25.1743316666667","6501000","淡水區"
"251004","009-UM","2018/01/22 18:49:22","新北市淡水區中正東路二段143巷2弄1號","121.460723333333","25.147305","6501000","淡水區"
"251001","011-UM","2018/01/22 18:49:32","新北市淡水區自強路84號","121.462781666667","25.128195","6501000","淡水區"
"251013","179-VK","2018/01/22 18:49:24","新北市淡水區頂田寮路769號","121.48031","25.2145633333333","6501000","淡水區"
"251014","180-VK","2018/01/22 18:49:31","新北市淡水區崙頂3號","121.491033333333","25.223915","6501000","淡水區"
"251015","182-VK","2018/01/22 18:49:25","新北市淡水區興福寮77巷59號","121.487393333333","25.1634466666667","6501000","淡水區"
"251010","413-VK","2018/01/22 18:49:40","新北市淡水區沙崙路9號","121.421098333333","25.1812183333333","6501000","淡水區"
"251012","441-VK","2018/01/22 18:49:36","新北市淡水區新興街8號","121.443888333333","25.1803283333333","6501000","淡水區"
"251016","442-VK","2018/01/22 18:49:20","新北市淡水區下圭柔山71-3號","121.447083333333","25.2061633333333","6501000","淡水區"
"251011","650-BX","2018/01/22 18:49:27","新北市淡水區學府路30號","121.447846666667","25.1685316666667","6501000","淡水區"
"251002","672-BX","2018/01/22 18:49:35","新北市淡水區學府路43號","121.447943333333","25.16914","6501000","淡水區"
"251003","766-UM","2018/01/22 18:49:21","新北市淡水區中山北路一段149巷11號","121.44276","25.1775683333333","6501000","淡水區"
"207003","550-UM","2018/01/22 18:49:26","新北市萬里區大鵬里頂社2-1號","121.659313333333","25.2076783333333","6502800","萬里區"
"207004","225-TW","2018/01/22 18:49:26","新北市萬里區萬里里獅頭路23號","121.693228333333","25.178255","6502800","萬里區"
"252002","178-VK","2018/01/22 18:49:31","新北市三芝區中正路一段101號","121.504753333333","25.2564583333333","6502100","三芝區"
"252003","249-BX","2018/01/22 18:49:32","新北市三芝區後厝里大片頭83-3號","121.458975","25.244055","6502100","三芝區"
"252001","292-VK","2018/01/22 18:49:19","新北市三芝區中正路三段9號","121.502868333333","25.253985","6502100","三芝區"
"237004","078-UY","2018/01/22 18:49:21","新北市三峽區有木205-1號","121.439033333333","24.8514616666667","6500900","三峽區"
"237007","153-BY","2018/01/22 18:49:18","新北市三峽區大埔路80號","121.366446666667","24.9072683333333","6500900","三峽區"
"237009","210-TH","2018/01/22 18:49:34","新北市三峽區民權街132號","121.368425","24.93216","6500900","三峽區"
"237013","252-BX","2018/01/22 18:49:30","新北市三峽區光明路69巷25號","121.376796666667","24.9291966666667","6500900","三峽區"
"237012","275-BY","2018/01/22 18:49:30","新北市三峽區三樹路340號","121.383953333333","24.9433266666667","6500900","三峽區"
"237008","302-VK","2018/01/22 18:49:30","新北市三峽區白雞33-9號","121.370413333333","24.9122183333333","6500900","三峽區"
"237014","433-BY","2018/01/22 18:49:27","新北市三峽區復興路480巷32號","121.35951","24.9400033333333","6500900","三峽區"
"237006","5529-G3","2018/01/22 18:49:33","新北市三峽區溪東路211巷31弄5號","121.405505","24.9342333333333","6500900","三峽區"
"237015","649-BX","2018/01/22 18:49:29","新北市三峽區建安74號","121.449165","24.9259466666667","6500900","三峽區"
"237010","706-TV","2018/01/22 18:49:31","新北市三峽區復興路239-1號","121.367938333333","24.93891","6500900","三峽區"
"237005","AKY-6261","2018/01/22 18:49:38","新北市三峽區大勇路29巷6弄12號","121.367843333333","24.93583","6500900","三峽區"
"236069","105-UM","2018/01/22 18:49:39","新北市土城區金城路二段362號","121.46214","24.9853183333333","6501300","土城區"
"236042","107-UM","2018/01/22 18:49:25","新北市土城區裕民路92巷25弄1號","121.44965","24.9859333333333","6501300","土城區"
"236030","253-BX","2018/01/22 18:49:31","新北市土城區忠義路36巷12號","121.439916666667","24.9698766666667","6501300","土城區"
"236026","269-VK","2018/01/22 18:49:36","新北市土城區中央路二段235號","121.440346666667","24.9723083333333","6501300","土城區"
"236014","270-VK","2018/01/22 18:49:29","新北市土城區清水路271號","121.463838333333","24.9853583333333","6501300","土城區"
"236036","271-VK","2018/01/22 18:49:22","新北市土城區明德路一段195巷2弄2號","121.463965","24.9786916666667","6501300","土城區"
"236020","401-BY","2018/01/22 18:49:34","新北市土城區延安街37巷1號","121.468065","24.984185","6501300","土城區"
"236058","912-UM","2018/01/22 18:49:24","新北市土城區中央路三段129號","121.433758333333","24.9654933333333","6501300","土城區"
"236048","913-UM","2018/01/22 18:49:28","新北市土城區青雲路13號","121.460253333333","24.9893716666667","6501300","土城區"
"236062","915-UM","2018/01/22 18:49:27","新北市土城區延和路191-1號","121.469453333333","24.99025","6501300","土城區"
"236053","AAC-216","2018/01/22 18:49:27","新北市土城區裕民路217號","121.45382","24.984005","6501300","土城區"
"242056","349-TH","2018/01/22 18:49:38","新北市板橋區金門街369巷95號","121.430133333333","24.9808916666667","6500500","新莊區"
"238023","601-UM","2018/01/22 18:49:40","新北市樹林區三福街114號","121.406385","25.01633","6500700","樹林區"
"238019","599-UM","2018/01/22 18:49:22","新北市樹林區東華街30號","121.414633333333","24.9822083333333","6500700","樹林區"
"238018","571-TV","2018/01/22 18:49:17","新北市樹林區鎮前街165號","121.42227","24.9871933333333","6500700","樹林區"
"238024","5061-A6","2018/01/22 18:49:34","新北市樹林區八德街428號","121.402391666667","24.97042","6500700","樹林區"
"238022","KEA-2213","2018/01/22 18:49:22","新北市樹林區東順街1號","121.41289","24.9790666666667","6500700","樹林區"
"238025","303-VK","2018/01/22 18:49:36","新北市樹林區中山路三段22號","121.395651666667","24.9729616666667","6500700","樹林區"
"238017","283-BY","2018/01/22 18:49:28","新北市樹林區中山路三段210-2號","121.381255","24.9657416666667","6500700","樹林區"
"238014","282-BY","2018/01/22 18:49:29","新北市樹林區大安路111巷11號","121.423043333333","24.99768","6500700","樹林區"
"238020","268-VK","2018/01/22 18:49:34","新北市樹林區俊英街282號","121.423745","25.0133233333333","6500700","樹林區"
"238026","172-UY","2018/01/22 18:49:31","新北市樹林區中和街46號","121.389246666667","24.97394","6500700","樹林區"
"238016","169-UY","2018/01/22 18:49:33","新北市樹林區文化街23號","121.419301666667","24.9876316666667","6500700","樹林區"
"239007","AAC-297","2018/01/22 18:49:16","新北市鶯歌區中正一路461-2號","121.363185","24.95669","6500800","鶯歌區"
"239008","527-UM","2018/01/22 18:49:27","新北市鶯歌區晨曦街18號","121.337545","24.9764533333333","6500800","鶯歌區"
"239005","526-UM","2018/01/22 18:49:17","新北市鶯歌區鳳吉二街10號","121.325628333333","24.97307","6500800","鶯歌區"
"239001","417-VK","2018/01/22 18:49:30","新北市鶯歌區鶯桃路62號","121.340713333333","24.9532033333333","6500800","鶯歌區"
"239003","360-BY","2018/01/22 18:49:21","新北市鶯歌區永和街45號","121.332586666667","24.96741","6500800","鶯歌區"
"239004","193-VK","2018/01/22 18:49:26","新北市鶯歌區中正三路230巷12號","121.330136666667","24.93918","6500800","鶯歌區"
"221036","130-UY","2018/01/22 18:49:17","新北市汐止區水碓街38號","121.665053333333","25.068665","6501100","汐止區"
"221010","269-BY","2018/01/22 18:49:24","新北市汐止區汐萬路二段3號","121.649283333333","25.0799333333333","6501100","汐止區"
"221012","278-VK","2018/01/22 18:49:28","新北市汐止區康寧街901號","121.65082","25.0752716666667","6501100","汐止區"
"221023","279-VK","2018/01/22 18:49:33","新北市汐止區汐萬路一段256巷3號","121.65332","25.0746616666667","6501100","汐止區"
"221032","280-BY","2018/01/22 18:49:26","新北市汐止區橫科路40-2號","121.621116666667","25.0504666666667","6501100","汐止區"
"221027","281-BY","2018/01/22 18:49:20","新北市汐止區康寧街901號","121.651366666667","25.0750833333333","6501100","汐止區"
"221029","298-VK","2018/01/22 18:49:34","新北市汐止區工建路60號","121.640738333333","25.0627716666667","6501100","汐止區"
"221031","353-TW","2018/01/22 18:49:31","新北市汐止區福德一路298號","121.631376666667","25.0632533333333","6501100","汐止區"
"221008","358-BY","2018/01/22 18:49:23","新北市汐止區康寧街901號","121.651363333333","25.07502","6501100","汐止區"
"221015","567-BX","2018/01/22 18:49:22","新北市汐止區鄉長路一段285號","121.66863","25.0787733333333","6501100","汐止區"
"221035","622-UM","2018/01/22 18:49:34","新北市汐止區禮門街17號","121.65656","25.0675916666667","6501100","汐止區"
"221025","623-UM","2018/01/22 18:49:23","新北市汐止區仁愛路108號","121.662426666667","25.0635183333333","6501100","汐止區"
"221038","646-BX","2018/01/22 18:49:29","新北市汐止區康寧街901號","121.650726666667","25.075295","6501100","汐止區"
"221033","647-BX","2018/01/22 18:49:20","新北市汐止區南勢街1巷1號","121.62705","25.0374266666667","6501100","汐止區"
"221002","707-TV","2018/01/22 18:49:27","新北市汐止區大同路一段215-1號","121.634003333333","25.0574583333333","6501100","汐止區"
"221018","753-BX","2018/01/22 18:49:35","新北市汐止區茄苳路252號","121.67149","25.068415","6501100","汐止區"
"220079","145-BY","2018/01/22 18:49:31","新北市板橋區民權路202巷7弄6號","121.45993","25.0148316666667","6500100","板橋區"
"220080","200-UY","2018/01/22 18:49:26","新北市板橋區大觀路二段265巷72弄19號","121.441695","24.9969666666667","6500100","板橋區"
"220082","610-BX","2018/01/22 18:49:29","新北市板橋區篤行路三段91號","121.426578333333","24.9848283333333","6500100","板橋區"
"220056","276-BY","2018/01/22 18:49:32","新北市土城區四川路3號","121.45585","24.9960833333333","6500100","板橋區"
"220072","277-BY","2018/01/22 18:49:34","新北市板橋區金門街25巷6號","121.433773333333","24.9943583333333","6500100","板橋區"
"220064","282-UM","2018/01/22 18:49:32","新北市板橋區民生路二段36-1號","121.47209","25.016745","6500100","板橋區"
"220071","283-VK","2018/01/22 18:49:29","新北市板橋區忠孝路176巷12號","121.464668333333","25.0019316666667","6500100","板橋區"
"220094","285-UM","2018/01/22 18:49:21","新北市板橋區民生路二段161巷1號","121.470045","25.0197966666667","6500100","板橋區"
"220053","285-VK","2018/01/22 18:49:24","新北市板橋區介壽街117號","121.47054","25.0187666666667","6500100","板橋區"
"220083","286-VK","2018/01/22 18:49:24","新北市板橋區大觀路二段22巷34號","121.444968333333","25.0036983333333","6500100","板橋區"
"220081","287-VK","2018/01/22 18:49:26","新北市板橋區南雅西路二段108-1號","121.45217","25.0119966666667","6500100","板橋區"
"220090","288-VK","2018/01/22 18:49:29","新北市板橋區民生路二段161巷9號","121.470066666667","25.01954","6500100","板橋區"
"220061","293-UM","2018/01/22 18:49:33","新北市板橋區太和街4巷9號","121.474218333333","25.0199633333333","6500100","板橋區"
"220010","295-UM","2018/01/22 18:49:23","新北市板橋區中山路二段25號","121.472506666667","25.0152483333333","6500100","板橋區"
"220084","296-UM","2018/01/22 18:49:40","新北市板橋區大觀路二段150巷71-1號","121.441476666667","25.00083","6500100","板橋區"
"220075","303-R5","2018/01/22 18:49:20","新北市板橋區大觀路一段28巷106-1號","121.450751666667","25.0108616666667","6500100","板橋區"
"220092","307-R5","2018/01/22 18:49:20","新北市板橋區民生路二段120號","121.47047","25.0195533333333","6500100","板橋區"
"220098","317-R6","2018/01/22 18:49:30","新北市板橋區民生路二段161巷9號","121.470223333333","25.0196366666667","6500100","板橋區"
"220035","560-BX","2018/01/22 18:49:30","新北市板橋區中正路325巷41號","121.453441666667","25.0192916666667","6500100","板橋區"
"220103","561-BX","2018/01/22 18:49:17","新北市板橋區民生路二段120號","121.470588333333","25.0195166666667","6500100","板橋區"
"220055","568-UM","2018/01/22 18:49:20","新北市板橋區館前西路49號","121.457828333333","25.0066833333333","6500100","板橋區"
"220091","637-BX","2018/01/22 18:49:27","新北市板橋區民生路二段188號","121.470275","25.0201716666667","6500100","板橋區"
"220057","686-BX","2018/01/22 18:49:28","新北市板橋區華東街1-8號","121.447936666667","24.9948933333333","6500100","板橋區"
"220077","687-BX","2018/01/22 18:49:35","新北市板橋區僑中二街152號","121.44495","25.004305","6500100","板橋區"
"220054","741-BX","2018/01/22 18:49:28","新北市板橋區館前西路15號","121.458876666667","25.0069633333333","6500100","板橋區"
"220067","829-TW","2018/01/22 18:49:36","新北市板橋區三民路二段正隆巷50號","121.476861666667","25.01396","6500100","板橋區"
"220074","895-R6","2018/01/22 18:49:33","新北市板橋區南門街10號","121.457396666667","25.0090116666667","6500100","板橋區"
"220073","985-R7","2018/01/22 18:49:25","新北市板橋區林園街7-1號","121.453958333333","25.00915","6500100","板橋區"
"220070","AAC-253","2018/01/22 18:49:33","新北市板橋區館前西路56號","121.458395","25.006885","6500100","板橋區"
