"lineid","car","time","location","longitude","latitude","cityid","cityname"
"234046","148-BY","2018/01/22 19:08:55","新北市永和區永元路18巷16號","121.523095","25.0001783333333","6500400","永和區"
"234007","207-UY","2018/01/22 19:08:50","新北市永和區中山路一段245號","121.507801666667","25.0075233333333","6500400","永和區"
"234081","298-R6","2018/01/22 19:08:56","新北市永和區永亨路83號","121.522081666667","25.0057716666667","6500400","永和區"
"234038","336-UY","2018/01/22 19:09:00","新北市永和區民樂街90巷1號","121.527328333333","24.9973916666667","6500400","永和區"
"234064","337-UY","2018/01/22 19:09:08","新北市永和區秀朗路二段17號","121.521021666667","25.0026416666667","6500400","永和區"
"234086","338-UY","2018/01/22 19:08:52","新北市永和區永貞路112號","121.518846666667","25.0045283333333","6500400","永和區"
"234070","552-UM","2018/01/22 19:09:00","新北市永和區豫溪街137巷1弄23號","121.518441666667","25.0103816666667","6500400","永和區"
"234054","553-UM","2018/01/22 19:09:05","新北市永和區中興街149號","121.51914","25.0124083333333","6500400","永和區"
"234017","745-BX","2018/01/22 19:08:59","新北市永和區忠孝街27號","121.513985","25.0156033333333","6500400","永和區"
"234030","746-BX","2018/01/22 19:09:06","新北市永和區民生路29號","121.522818333333","24.9984116666667","6500400","永和區"
"234013","KEA-2591","2018/01/22 19:09:07","新北市永和區保福路二段6號","121.51104","25.0110883333333","6500400","永和區"
"234061","AAD-866","2018/01/22 19:08:52","新北市永和區安樂路304巷10弄13號","121.515233333333","25.0054166666667","6500400","永和區"
"234042","862-TW","2018/01/22 19:09:09","新北市永和區保平路131號","121.510476666667","25.0061866666667","6500400","永和區"
"234050","863-TW","2018/01/22 19:09:09","新北市永和區文化路135巷26弄1號","121.510615","25.014465","6500400","永和區"
"234026","9371-KE","2018/01/22 19:09:06","新北市永和區安樂路272巷9弄7號","121.515031666667","25.0045866666667","6500400","永和區"
"234023","9381-KE","2018/01/22 19:08:57","新北市永和區中興街27號","121.516163333333","25.01211","6500400","永和區"
"234011","9373-KE","2018/01/22 19:09:06","新北市永和區仁愛路141巷30弄26號","121.512008333333","25.0114716666667","6500400","永和區"
"249005","172-UM","2018/01/22 19:09:11","新北市八里區中華路三段73號","121.394566666667","25.1407283333333","6502300","八里區"
"249001","173-UM","2018/01/22 19:08:53","新北市八里區龍米路二段228-1號","121.43275","25.1584383333333","6502300","八里區"
"248016","026-BX","2018/01/22 19:08:58","新北市五股區成泰路三段577巷62號","121.450341666667","25.103375","6501500","五股區"
"248018","225-UY","2018/01/22 19:09:00","新北市五股區民義路一段287巷9-1號","121.424606666667","25.09182","6501500","五股區"
"248012","247-BX","2018/01/22 19:08:55","新北市五股區中興路四段48巷16號","121.438651666667","25.0834083333333","6501500","五股區"
"248004","677-BX","2018/01/22 19:08:56","新北市五股區民義路一段185-4號","121.43176","25.0883866666667","6501500","五股區"
"248010","682-TV","2018/01/22 19:09:07","新北市五股區水碓一路23號","121.430625","25.0713033333333","6501500","五股區"
"234077","969-R7","2018/01/22 19:08:51","新北市永和區民權路3號","121.520163333333","24.9983666666667","6500400","永和區"
"234074","AAC-211","2018/01/22 19:09:09","新北市永和區竹林路198號","121.520528333333","25.0094316666667","6500400","永和區"
"234067","AAC-212","2018/01/22 19:09:03","新北市永和區永和路一段51號","121.512703333333","25.006595","6500400","永和區"
"234003","AAC-295","2018/01/22 19:09:01","新北市永和區保福路一段68-1號","121.512561666667","25.009915","6500400","永和區"
"244013","069-UM","2018/01/22 19:08:53","新北市林口區麗園一街11巷7號","121.37803","25.0704583333333","6501700","林口區"
"244019","402-UM","2018/01/22 19:09:08","新北市林口區麗園二街47巷51號","121.38269","25.0694533333333","6501700","林口區"
"244009","410-SL","2018/01/22 19:08:59","新北市林口區竹林路462號","121.387733333333","25.0851383333333","6501700","林口區"
"244023","483-VK","2018/01/22 19:09:08","新北市林口區仁愛路二段692號","121.369526666667","25.0805466666667","6501700","林口區"
"244011","656-BX","2018/01/22 19:08:59","新北市林口區中正路353號","121.387796666667","25.077695","6501700","林口區"
"243012","AAD-798","2018/01/22 19:08:58","新北市泰山區辭修路36巷8弄5號","121.427908333333","25.0585616666667","6501600","泰山區"
"243011","297-R6","2018/01/22 19:08:57","新北市泰山區明志路二段335號","121.425611666667","25.0447566666667","6501600","泰山區"
"243015","380-SR","2018/01/22 19:09:05","新北市泰山區明志路一段398號","121.430745","25.057165","6501600","泰山區"
"243014","421-VK","2018/01/22 19:08:54","新北市泰山區泰林路二段377號","121.427698333333","25.0641266666667","6501600","泰山區"
"243010","KEA-2215","2018/01/22 19:09:10","新北市泰山區明志路一段453-1號","121.430705","25.05638","6501600","泰山區"
"243009","KEA-2216","2018/01/22 19:09:04","新北市泰山區楓樹街15巷28號","121.434508333333","25.0631283333333","6501600","泰山區"
"243013","646-TV","2018/01/22 19:09:08","新北市泰山區台麗街16巷9號","121.424438333333","25.0376816666667","6501600","泰山區"
"243016","680-BX","2018/01/22 19:09:03","新北市泰山區明志路三段1號","121.424881666667","25.043435","6501600","泰山區"
"222003","436-BY","2018/01/22 19:08:53","新北市深坑區深南路162號","121.626138333333","25.0147483333333","6501800","深坑區"
"222002","659-BX","2018/01/22 19:08:59","新北市深坑區烏月路1號","121.633428333333","25.008265","6501800","深坑區"
"231041","002-UM","2018/01/22 19:09:07","新北市新店區溪園路403號","121.524005","24.9781916666667","6500600","新店區"
"231059","046-UY","2018/01/22 19:08:53","新北市新店區安和路二段126號","121.519188333333","24.9713716666667","6500600","新店區"
"231061","047-UY","2018/01/22 19:08:53","新北市新店區安康路一段79巷1號","121.529816666667","24.9612333333333","6500600","新店區"
"231060","106-UY","2018/01/22 19:08:54","新北市新店區安康路二段250號","121.509093333333","24.9590483333333","6500600","新店區"
"231051","107-UY","2018/01/22 19:09:07","新北市新店區中正路397號","121.534448333333","24.977395","6500600","新店區"
"231047","108-UY","2018/01/22 19:09:00","新北市新店區德正街31號","121.544685","24.9712966666667","6500600","新店區"
"231052","188-VK","2018/01/22 19:09:02","新北市新店區自強路59號","121.546305","24.9249616666667","6500600","新店區"
"231050","KEA-2219","2018/01/22 19:09:00","新北市新店區竹林路2巷30號","121.550025","24.9504583333333","6500600","新店區"
"231046","278-BY","2018/01/22 19:09:02","新北市新店區華城路77巷6號","121.524906666667","24.9461066666667","6500600","新店區"
"231054","AAD-862","2018/01/22 19:08:59","新北市新店區新店路137號","121.537045","24.9546383333333","6500600","新店區"
"231058","3712-VJ","2018/01/22 19:08:57","新北市新店區光明街138巷13弄1號","121.540383333333","24.9611083333333","6500600","新店區"
"231056","3713-VJ","2018/01/22 19:09:05","新北市新店區二十張路46巷37弄21-4號","121.53552","24.98128","6500600","新店區"
"231067","4772-VM","2018/01/22 19:08:57","新北市新店區安康路一段206號","121.524146666667","24.9634566666667","6500600","新店區"
"231065","512-UM","2018/01/22 19:09:10","新北市新店區安祥路111號","121.475623333333","24.9569183333333","6500600","新店區"
"231064","515-UM","2018/01/22 19:09:09","新北市新店區安忠路83號","121.511155","24.9570866666667","6500600","新店區"
"231042","616-UM","2018/01/22 19:08:52","新北市新店區中興路一段110號","121.541011666667","24.9620266666667","6500600","新店區"
"231040","619-UM","2018/01/22 19:09:06","新北市新店區三民路98-2號","121.533971666667","24.9735433333333","6500600","新店區"
"231063","645-TV","2018/01/22 19:08:52","新北市新店區車子路121-1號","121.505246666667","24.9500266666667","6500600","新店區"
"231049","719-UM","2018/01/22 19:09:08","新北市新店區二十張路25巷18弄2號","121.539223333333","24.9817733333333","6500600","新店區"
"231062","720-UM","2018/01/22 19:08:54","新北市新店區安平路13巷1號","121.524351666667","24.9655783333333","6500600","新店區"
"231044","897-TW","2018/01/22 19:09:03","新北市新店區中興路三段202號","121.54381","24.9819533333333","6500600","新店區"
"231045","898-TW","2018/01/22 19:08:51","新北市新店區北宜路一段164號","121.540433333333","24.9534133333333","6500600","新店區"
"231043","899-TW","2018/01/22 19:08:50","新北市新店區寶橋路132號","121.547405","24.9759866666667","6500600","新店區"
"231066","AKT-0513","2018/01/22 19:08:55","新北市新店區安康路三段359巷12弄3號","121.484333333333","24.9497583333333","6500600","新店區"
"241026","887-TS","2018/01/22 19:09:04","新北市三重區泉州街78-1號","121.494761666667","25.0545216666667","6500200","三重區"
"241029","942-UM","2018/01/22 19:08:59","新北市三重區集美街218號","121.4918","25.055555","6500200","三重區"
"235066","003-UY","2018/01/22 19:09:07","新北市中和區光華街70號","121.505846666667","25.0035316666667","6500300","中和區"
"235064","005-UY","2018/01/22 19:08:50","新北市中和區泰和街38巷13號","121.498945","25.0005516666667","6500300","中和區"
"235063","006-UY","2018/01/22 19:09:10","新北市中和區中正路598巷4弄8號","121.486226666667","24.995065","6500300","中和區"
"235056","096-UM","2018/01/22 19:08:54","新北市板橋區三民路二段210號","121.478876666667","25.01195","6500300","中和區"
"235039","097-UM","2018/01/22 19:09:08","新北市中和區安樂路195號","121.514701666667","24.9983366666667","6500300","中和區"
"235065","098-UM","2018/01/22 19:08:59","新北市中和區中山路二段2巷87號","121.50074","25.0076866666667","6500300","中和區"
"235040","150-BY","2018/01/22 19:09:09","新北市中和區保健路123號","121.512516666667","24.9962583333333","6500300","中和區"
"235058","151-BY","2018/01/22 19:08:54","新北市中和區連城路428巷13號","121.479766666667","24.9956366666667","6500300","中和區"
"235055","183-VK","2018/01/22 19:08:59","新北市中和區莒光路2號","121.471636666667","25.0046333333333","6500300","中和區"
"235038","185-VK","2018/01/22 19:09:12","新北市中和區大仁街10巷27弄4號","121.51923","24.9927683333333","6500300","中和區"
"235049","186-VK","2018/01/22 19:09:01","新北市中和區明禮街43號","121.504073333333","24.9964233333333","6500300","中和區"
"235067","255-BX","2018/01/22 19:08:56","新北市中和區新生街176巷19號","121.482606666667","24.99989","6500300","中和區"
"235044","293-VK","2018/01/22 19:09:10","新北市中和區中興街222-6號","121.50063","24.9896283333333","6500300","中和區"
"235072","301-VK","2018/01/22 19:09:03","新北市中和區永和路39巷2號","121.498041666667","25.0049966666667","6500300","中和區"
"235043","352-BY","2018/01/22 19:08:59","新北市中和區景平路120號","121.51929","24.9916633333333","6500300","中和區"
"235068","377-QA","2018/01/22 19:08:50","新北市中和區圓通路158巷1弄9號","121.497253333333","24.9960766666667","6500300","中和區"
"235061","378-QA","2018/01/22 19:09:01","新北市中和區中山路三段65號","121.476581666667","25.0055933333333","6500300","中和區"
"235050","4979-A6","2018/01/22 19:08:56","新北市中和區南山路423號","121.507468333333","24.989455","6500300","中和區"
"235069","4980-A6","2018/01/22 19:08:58","新北市中和區中和路165巷18號","121.503325","25.0004616666667","6500300","中和區"
"235042","551-UM","2018/01/22 19:08:50","新北市中和區秀朗路三段22巷22號","121.525306666667","24.9961983333333","6500300","中和區"
"235070","558-UM","2018/01/22 19:09:05","新北市中和區景新街8號","121.50265","24.9994433333333","6500300","中和區"
"235045","565-BX","2018/01/22 19:08:53","新北市中和區景新街467巷33號","121.51475","24.98884","6500300","中和區"
"235054","640-BX","2018/01/22 19:09:04","新北市中和區民德路130號","121.468798333333","25.0009","6500300","中和區"
"235060","647-TV","2018/01/22 19:08:55","新北市中和區民享街48號","121.474033333333","25.0026466666667","6500300","中和區"
"235047","732-UM","2018/01/22 19:08:50","新北市中和區興南路一段56巷5號","121.510471666667","24.9911116666667","6500300","中和區"
"235046","733-UM","2018/01/22 19:09:04","新北市中和區忠孝街1巷48號","121.508433333333","24.9843133333333","6500300","中和區"
"235057","801-TS","2018/01/22 19:09:06","新北市中和區民利街68巷5弄42號","121.477166666667","24.998645","6500300","中和區"
"235041","802-TS","2018/01/22 19:09:06","新北市中和區中和路232號","121.506638333333","24.9994666666667","6500300","中和區"
"235052","805-TS","2018/01/22 19:09:05","新北市中和區興南路二段242巷18號","121.502285","24.983245","6500300","中和區"
"235048","896-TW","2018/01/22 19:09:01","新北市中和區華新街208號","121.506535","24.9819266666667","6500300","中和區"
"235053","900-TW","2018/01/22 19:09:05","新北市中和區華福街46-1號","121.46655","24.996585","6500300","中和區"
"235051","157-BY","2018/01/22 19:09:06","新北市中和區忠孝街31巷42號","121.509825","24.9850966666667","6500300","中和區"
"235037","AAC-213","2018/01/22 19:08:57","新北市中和區秀朗路三段60巷42號","121.524915","24.9949566666667","6500300","中和區"
"235059","AAC-215","2018/01/22 19:08:51","新北市中和區圓通路294巷13號","121.488811666667","24.9900966666667","6500300","中和區"
"220065","072-UY","2018/01/22 19:09:09","新北市板橋區民族路151巷45號","121.468985","25.0082616666667","6500100","板橋區"
"220086","073-UY","2018/01/22 19:08:54","新北市板橋區中正路250巷60號","121.457773333333","25.0196633333333","6500100","板橋區"
"220106","075-UY","2018/01/22 19:09:06","新北市板橋區文化路二段315號","121.472141666667","25.029765","6500100","板橋區"
"220069","AAD-861","2018/01/22 19:09:11","新北市板橋區東興街91號","121.457656666667","25.005205","6500100","板橋區"
"220096","120-SR","2018/01/22 19:08:52","新北市板橋區雙十路二段33巷1-1號","121.476671666667","25.0256733333333","6500100","板橋區"
"226004","312-R5","2018/01/22 18:54:49","新北市平溪區平溪里平溪街53號","121.737223333333","25.0269083333333","6502400","平溪區"
"228003","097-TW","2018/01/22 19:09:10","新北市貢寮區和美里和美街32-7號","121.912671666667","25.0848166666667","6502600","貢寮區"
"228001","212-TW","2018/01/22 19:09:01","新北市貢寮區真理里新港街10號","121.92547","25.0543933333333","6502600","貢寮區"
"228002","663-BX","2018/01/22 19:08:58","新北市貢寮區福隆里福隆街36號","121.945095","25.017475","6502600","貢寮區"
"224010","AGQ-8101","2018/01/22 19:09:04","新北市瑞芳區基山街139號","121.843895","25.1083333333333","6501200","瑞芳區"
"224006","676-BX","2018/01/22 19:09:05","新北市瑞芳區三爪子坑路120號","121.806175","25.1054666666667","6501200","瑞芳區"
"224009","285-BY","2018/01/22 19:09:07","新北市瑞芳區祈堂路53-1號","121.859528333333","25.1105566666667","6501200","瑞芳區"
"224008","275-VK","2018/01/22 19:09:09","新北市瑞芳區明燈路三段101號","121.803905","25.10839","6501200","瑞芳區"
"224007","273-VK","2018/01/22 19:09:08","新北市瑞芳區瑞竹路121號","121.762473333333","25.103795","6501200","瑞芳區"
"224005","271-BY","2018/01/22 19:08:41","新北市瑞芳區阿美家園11號","121.820843333333","25.11592","6501200","瑞芳區"
"227008","642-TC","2018/01/22 19:09:00","新北市雙溪區牡丹里中正路37號","121.864756666667","25.0383833333333","6502500","雙溪區"
"227001","400-TW","2018/01/22 19:08:55","新北市雙溪區平林里外平林10-4號","121.859155","25.038045","6502500","雙溪區"
"253005","032-BX","2018/01/22 19:08:55","新北市石門區阿里荖35-2號","121.606495","25.28069","6502200","石門區"
"253006","295-VK","2018/01/22 19:09:06","新北市石門區海灣新城8號","121.525356666667","25.285015","6502200","石門區"
"222001","KEA-2212","2018/01/22 19:09:11","新北市深坑區北深路一段300號","121.624258333333","25.005795","6501800","深坑區"
"208002","742-BX","2018/01/22 19:08:58","新北市金山區仁愛路67巷28號","121.634016666667","25.2208416666667","6502700","金山區"
"208003","665-BX","2018/01/22 19:08:51","新北市金山區中正路135號","121.632416666667","25.2215233333333","6502700","金山區"
"208001","761-BX","2018/01/22 19:09:05","新北市金山區溫泉路4號","121.639596666667","25.221965","6502700","金山區"
"251009","008-UM","2018/01/22 19:09:01","新北市淡水區清水街204號","121.440355","25.1712133333333","6501000","淡水區"
"251005","010-UM","2018/01/22 19:09:08","新北市淡水區中山路126號","121.44186","25.1708633333333","6501000","淡水區"
"251001","011-UM","2018/01/22 19:08:52","新北市淡水區自強路201巷39號","121.462088333333","25.1268416666667","6501000","淡水區"
"251013","179-VK","2018/01/22 19:09:04","新北市淡水區安子內12號","121.481576666667","25.2190466666667","6501000","淡水區"
"251014","180-VK","2018/01/22 19:09:11","新北市淡水區小中寮39號","121.48719","25.227285","6501000","淡水區"
"251015","182-VK","2018/01/22 19:09:05","新北市淡水區南勢埔22-1號","121.483043333333","25.1791433333333","6501000","淡水區"
"251010","413-VK","2018/01/22 19:09:00","新北市淡水區中正路一段156巷3號","121.421228333333","25.180335","6501000","淡水區"
"251016","442-VK","2018/01/22 19:09:00","新北市淡水區淡金路三段350巷18號","121.450811666667","25.2083433333333","6501000","淡水區"
"251006","561-UM","2018/01/22 19:08:51","新北市淡水區崁頂57-7號","121.442676666667","25.19725","6501000","淡水區"
"251002","672-BX","2018/01/22 19:09:12","新北市淡水區中山路77號","121.442655","25.170465","6501000","淡水區"
"251003","766-UM","2018/01/22 19:09:01","新北市淡水區中山北路一段42號","121.441873333333","25.1754183333333","6501000","淡水區"
"207003","550-UM","2018/01/22 19:09:06","新北市萬里區大鵬里萬里加投24-2號","121.649108333333","25.2073416666667","6502800","萬里區"
"207004","225-TW","2018/01/22 19:09:06","新北市萬里區萬里里瑪鋉下街52號","121.69161","25.1795016666667","6502800","萬里區"
"252002","178-VK","2018/01/22 19:08:50","新北市三芝區中正路一段58號","121.503636666667","25.257875","6502100","三芝區"
"252003","249-BX","2018/01/22 19:09:13","新北市三芝區錫板里海尾11-7號","121.478858333333","25.2610483333333","6502100","三芝區"
"252001","292-VK","2018/01/22 19:08:58","新北市三芝區長勤街80號","121.500273333333","25.2551266666667","6502100","三芝區"
"237004","078-UY","2018/01/22 19:09:01","新北市三峽區有木206號","121.439101666667","24.85153","6500900","三峽區"
"237007","153-BY","2018/01/22 19:08:58","新北市三峽區中正路二段42巷84號","121.36423","24.92054","6500900","三峽區"
"237009","210-TH","2018/01/22 19:08:54","新北市三峽區文化路127號","121.369823333333","24.93605","6500900","三峽區"
"237013","252-BX","2018/01/22 19:08:50","新北市三峽區光明路69巷25號","121.376701666667","24.9292116666667","6500900","三峽區"
"237012","275-BY","2018/01/22 19:08:50","新北市三峽區三樹路222巷69號","121.384346666667","24.9425033333333","6500900","三峽區"
"237008","302-VK","2018/01/22 19:08:50","新北市三峽區大同路95號","121.374743333333","24.927015","6500900","三峽區"
"237014","433-BY","2018/01/22 19:09:07","新北市三峽區大勇路18-1號","121.367038333333","24.9380516666667","6500900","三峽區"
"237006","5529-G3","2018/01/22 19:08:53","新北市三峽區溪東路205巷16號","121.40509","24.9339716666667","6500900","三峽區"
"237015","649-BX","2018/01/22 19:09:09","新北市三峽區建安86-2號","121.454401666667","24.920855","6500900","三峽區"
"237010","706-TV","2018/01/22 19:08:51","新北市三峽區國光街20號","121.375268333333","24.9372933333333","6500900","三峽區"
"237005","AKY-6261","2018/01/22 19:08:58","新北市三峽區中山路459巷163-3號","121.348655","24.9329133333333","6500900","三峽區"
"236069","105-UM","2018/01/22 19:09:09","新北市土城區裕生路86巷2號","121.447241666667","24.9851283333333","6501300","土城區"
"236042","107-UM","2018/01/22 19:09:06","新北市土城區學府路一段276號","121.450095","24.98318","6501300","土城區"
"236026","269-VK","2018/01/22 19:08:56","新北市土城區中正路43號","121.443883333333","24.9754533333333","6501300","土城區"
"236014","270-VK","2018/01/22 19:09:09","新北市土城區學府路一段99巷8號","121.45671","24.9870216666667","6501300","土城區"
"236036","271-VK","2018/01/22 19:09:01","新北市土城區清水路145號","121.458375","24.9818416666667","6501300","土城區"
"236020","401-BY","2018/01/22 19:08:56","新北市土城區延吉街217巷9弄2號","121.468851666667","24.9845233333333","6501300","土城區"
"236058","912-UM","2018/01/22 19:09:04","新北市土城區金城路二段266號","121.457958333333","24.9840583333333","6501300","土城區"
"236048","913-UM","2018/01/22 19:09:08","新北市土城區明德路一段398-1號","121.453618333333","24.979125","6501300","土城區"
"236053","AAC-216","2018/01/22 19:09:07","新北市土城區學府路一段201號","121.451915","24.9847016666667","6501300","土城區"
"242056","349-TH","2018/01/22 19:08:58","新北市樹林區中山路三段206-2號","121.383148333333","24.9665716666667","6500500","新莊區"
"238023","601-UM","2018/01/22 19:09:00","新北市樹林區大慶街124號","121.396043333333","25.013495","6500700","樹林區"
"238019","599-UM","2018/01/22 19:09:01","新北市樹林區鎮前街347巷1弄22號","121.417158333333","24.9839816666667","6500700","樹林區"
"238018","571-TV","2018/01/22 19:08:57","新北市樹林區太平路56巷2號","121.41898","24.9820133333333","6500700","樹林區"
"238024","5061-A6","2018/01/22 19:08:54","新北市樹林區中山路二段249巷30號","121.403511666667","24.975425","6500700","樹林區"
"238021","KEA-2217","2018/01/22 19:09:06","新北市樹林區柑園街二段278號","121.374241666667","24.952075","6500700","樹林區"
"238022","KEA-2213","2018/01/22 19:09:06","新北市樹林區中山路二段151巷8弄2號","121.406525","24.9781233333333","6500700","樹林區"
"238025","303-VK","2018/01/22 19:09:00","新北市樹林區中山路三段96號","121.392933333333","24.9721766666667","6500700","樹林區"
"238017","283-BY","2018/01/22 19:09:08","新北市樹林區光興街196號","121.407968333333","25.00472","6500700","樹林區"
"238014","282-BY","2018/01/22 19:09:09","新北市樹林區千歲街92巷7弄1號","121.42714","24.997585","6500700","樹林區"
"238020","268-VK","2018/01/22 19:08:53","新北市樹林區俊英街155巷41號","121.422948333333","25.012225","6500700","樹林區"
"238026","172-UY","2018/01/22 19:09:11","新北市樹林區地政街8巷10弄2號","121.393691666667","24.97153","6500700","樹林區"
"238016","169-UY","2018/01/22 19:08:53","新北市樹林區文化街28號","121.419353333333","24.987685","6500700","樹林區"
"239007","AAC-297","2018/01/22 19:08:57","新北市鶯歌區中正一路303-2號","121.356366666667","24.9575033333333","6500800","鶯歌區"
"239006","891-R6","2018/01/22 19:08:54","新北市鶯歌區鶯桃路296巷84弄40號","121.337635","24.9611533333333","6500800","鶯歌區"
"239008","527-UM","2018/01/22 19:09:03","新北市鶯歌區國際二路12巷18號","121.338175","24.9746433333333","6500800","鶯歌區"
"239005","526-UM","2018/01/22 19:08:57","新北市鶯歌區永和街249號","121.336996666667","24.9721183333333","6500800","鶯歌區"
"239001","417-VK","2018/01/22 19:08:51","新北市鶯歌區永智街43巷4號","121.336771666667","24.9540266666667","6500800","鶯歌區"
"239003","360-BY","2018/01/22 19:09:01","新北市鶯歌區鶯桃路405號","121.333028333333","24.9644033333333","6500800","鶯歌區"
"239004","193-VK","2018/01/22 19:09:06","新北市鶯歌區鶯華新村32號","121.330346666667","24.934385","6500800","鶯歌區"
"221036","130-UY","2018/01/22 19:08:57","新北市汐止區新台五路二段39號","121.663225","25.0663616666667","6501100","汐止區"
"221010","269-BY","2018/01/22 19:09:04","新北市汐止區康寧街901號","121.651401666667","25.07504","6501100","汐止區"
"221012","278-VK","2018/01/22 19:09:08","新北市汐止區康寧街901號","121.650828333333","25.0752533333333","6501100","汐止區"
"221023","279-VK","2018/01/22 19:08:53","新北市汐止區康寧街901號","121.650976666667","25.0752066666667","6501100","汐止區"
"221027","281-BY","2018/01/22 19:09:00","新北市汐止區康寧街901號","121.651451666667","25.0749433333333","6501100","汐止區"
"221029","298-VK","2018/01/22 19:08:54","新北市汐止區汐萬路一段256巷3號","121.652535","25.0745833333333","6501100","汐止區"
"221031","353-TW","2018/01/22 19:09:06","新北市汐止區福德三路129巷2號","121.63341","25.0675033333333","6501100","汐止區"
"221008","358-BY","2018/01/22 19:09:03","新北市汐止區康寧街476號","121.632051666667","25.0682933333333","6501100","汐止區"
"221015","567-BX","2018/01/22 19:09:02","新北市汐止區大同路二段353號","121.656983333333","25.067215","6501100","汐止區"
"221025","623-UM","2018/01/22 19:09:03","新北市汐止區康寧街901號","121.651555","25.0749166666667","6501100","汐止區"
"221038","646-BX","2018/01/22 19:09:09","新北市汐止區汐萬路一段312號","121.650686666667","25.0752183333333","6501100","汐止區"
"221033","647-BX","2018/01/22 19:09:00","新北市汐止區南勢街3號","121.627061666667","25.037405","6501100","汐止區"
"221002","707-TV","2018/01/22 19:09:07","台北市南港區南港路一段30巷2號","121.618826666667","25.0552083333333","6501100","汐止區"
"220079","145-BY","2018/01/22 19:09:05","新北市板橋區民權路260巷1弄1-1號","121.45792","25.01543","6500100","板橋區"
"220080","200-UY","2018/01/22 19:09:06","新北市板橋區大觀路二段7巷102號","121.450243333333","25.0029283333333","6500100","板橋區"
"220082","610-BX","2018/01/22 19:09:10","新北市板橋區溪崑二街89號","121.427255","24.9894416666667","6500100","板橋區"
"220101","245-BX","2018/01/22 19:09:10","新北市板橋區萬板路31-1號","121.470885","25.0211583333333","6500100","板橋區"
"220056","276-BY","2018/01/22 19:09:12","新北市板橋區信義路74巷1弄1號","121.45729","24.993115","6500100","板橋區"
"220072","277-BY","2018/01/22 19:08:54","新北市板橋區金門街369巷57弄7-1號","121.42927","24.9841316666667","6500100","板橋區"
"220064","282-UM","2018/01/22 19:09:12","新北市板橋區板新路87號","121.47321","25.013855","6500100","板橋區"
"220071","283-VK","2018/01/22 19:09:09","新北市板橋區重慶路353巷7號","121.46483","24.9981683333333","6500100","板橋區"
"220094","285-UM","2018/01/22 19:09:07","新北市板橋區光武街133號","121.465723333333","25.0291166666667","6500100","板橋區"
"220053","285-VK","2018/01/22 19:09:05","新北市板橋區懷仁街37號","121.476713333333","25.0194983333333","6500100","板橋區"
"220083","286-VK","2018/01/22 19:09:04","新北市板橋區龍興街101巷16號","121.443671666667","25.0035133333333","6500100","板橋區"
"220081","287-VK","2018/01/22 19:09:06","新北市板橋區光華街39巷1號","121.453631666667","25.01313","6500100","板橋區"
"220090","288-VK","2018/01/22 19:09:06","新北市板橋區裕民街45巷2號","121.461526666667","25.0284166666667","6500100","板橋區"
"220061","293-UM","2018/01/22 19:08:53","新北市板橋區中山路二段273號","121.47774","25.017935","6500100","板橋區"
"220010","295-UM","2018/01/22 19:09:03","新北市板橋區三民路二段245巷83號","121.481393333333","25.0125916666667","6500100","板橋區"
"220084","296-UM","2018/01/22 19:09:10","新北市板橋區篤行路二段92-1號","121.43141","24.991685","6500100","板橋區"
"220075","303-R5","2018/01/22 19:09:00","新北市板橋區館前西路120號","121.456696666667","25.0076866666667","6500100","板橋區"
"220092","307-R5","2018/01/22 19:09:00","新北市板橋區文化路二段59號","121.469295","25.025525","6500100","板橋區"
"220098","317-R6","2018/01/22 19:09:10","新北市板橋區四維路103巷21號","121.464643333333","25.0240316666667","6500100","板橋區"
"220089","487-VK","2018/01/22 19:09:03","新北市板橋區文化路二段500號","121.475706666667","25.0333783333333","6500100","板橋區"
"220088","491-VK","2018/01/22 19:09:02","新北市板橋區文化路二段182巷1弄6號","121.47122","25.0276233333333","6500100","板橋區"
"220035","560-BX","2018/01/22 19:09:10","新北市板橋區中正路330號","121.454618333333","25.0217416666667","6500100","板橋區"
"220103","561-BX","2018/01/22 19:08:57","新北市板橋區文化路一段188巷9弄21號","121.468513333333","25.0194566666667","6500100","板橋區"
"220055","568-UM","2018/01/22 19:09:00","新北市板橋區新民街7巷21號","121.463491666667","25.0103883333333","6500100","板橋區"
"220063","609-BX","2018/01/22 19:09:08","新北市板橋區三民路二段143號","121.47922","25.0151283333333","6500100","板橋區"
"220091","637-BX","2018/01/22 19:09:07","新北市板橋區萬板路478號","121.479988333333","25.0260066666667","6500100","板橋區"
"220057","686-BX","2018/01/22 19:09:08","新北市板橋區忠孝路116號","121.462735","25.0021816666667","6500100","板橋區"
"220077","687-BX","2018/01/22 19:08:55","新北市板橋區大觀路二段123號","121.445895","25.0013516666667","6500100","板橋區"
"220093","689-BX","2018/01/22 19:09:10","新北市板橋區民生路三段267號","121.46434","25.029665","6500100","板橋區"
"220054","741-BX","2018/01/22 19:09:11","新北市板橋區重慶路89巷6號","121.462706666667","25.006455","6500100","板橋區"
"220067","829-TW","2018/01/22 19:09:01","新北市板橋區中山路二段90巷41號","121.47634","25.0147316666667","6500100","板橋區"
"220102","830-TW","2018/01/22 19:09:11","新北市板橋區田單街44號","121.48274","25.0276216666667","6500100","板橋區"
"220074","895-R6","2018/01/22 19:09:09","新北市板橋區茶館街41號","121.45595","25.0102916666667","6500100","板橋區"
"220073","985-R7","2018/01/22 19:09:05","新北市板橋區中正路307號","121.455196666667","25.0196633333333","6500100","板橋區"
"220097","AAC-210","2018/01/22 19:08:55","新北市板橋區新生街96號","121.458355","25.0220883333333","6500100","板橋區"
"220070","AAC-253","2018/01/22 19:09:13","新北市板橋區忠孝路28號","121.460308333333","25.0019033333333","6500100","板橋區"
