"lineid","car","time","location","longitude","latitude","cityid","cityname"
"234046","148-BY","2018/01/22 20:19:14","新北市永和區得和路313號","121.523171666667","24.9996483333333","6500400","永和區"
"234007","207-UY","2018/01/22 20:19:10","新北市永和區仁愛路306巷28號","121.50206","25.0087683333333","6500400","永和區"
"234081","298-R6","2018/01/22 20:19:29","新北市永和區國中路126號","121.523656666667","25.006845","6500400","永和區"
"234038","336-UY","2018/01/22 20:19:19","新北市永和區成功路一段93巷23弄1號","121.528768333333","25.0028483333333","6500400","永和區"
"234064","337-UY","2018/01/22 20:19:32","新北市永和區得和路124號","121.518721666667","25.00022","6500400","永和區"
"234086","338-UY","2018/01/22 20:19:12","新北市永和區永和路二段55號","121.514651666667","25.01086","6500400","永和區"
"234070","552-UM","2018/01/22 20:19:20","新北市永和區福和路263巷13號","121.518005","25.0065816666667","6500400","永和區"
"234054","553-UM","2018/01/22 20:19:25","新北市永和區光復街2巷16弄9號","121.517575","25.0164133333333","6500400","永和區"
"234017","745-BX","2018/01/22 20:19:32","新北市永和區永和路二段185號","121.515083333333","25.0134283333333","6500400","永和區"
"234030","746-BX","2018/01/22 20:19:13","新北市永和區民權路84號","121.519716666667","24.9970133333333","6500400","永和區"
"234061","AAD-866","2018/01/22 20:19:32","新北市中和區安平路222號","121.514031666667","25.0002183333333","6500400","永和區"
"234042","862-TW","2018/01/22 20:19:30","新北市中和區中和路350巷12弄2號","121.510783333333","25.0002316666667","6500400","永和區"
"234050","863-TW","2018/01/22 20:19:29","新北市永和區保安路23號","121.510333333333","25.0166783333333","6500400","永和區"
"234026","9371-KE","2018/01/22 20:19:26","新北市永和區仁愛路352巷122弄13號","121.500711666667","25.0090116666667","6500400","永和區"
"234023","9381-KE","2018/01/22 20:19:21","新北市永和區復興街38號","121.516241666667","25.0129983333333","6500400","永和區"
"249005","172-UM","2018/01/22 20:19:10","新北市八里區下罟子7號","121.385568333333","25.1405916666667","6502300","八里區"
"249001","173-UM","2018/01/22 20:19:14","新北市八里區中華路二段538號","121.399068333333","25.1450533333333","6502300","八里區"
"249004","303-UY","2018/01/22 20:19:18","新北市八里區中山路一段153號","121.412761666667","25.1589383333333","6502300","八里區"
"249002","305-UY","2018/01/22 20:19:21","新北市八里區龍米路一段398-1號","121.451311666667","25.1331216666667","6502300","八里區"
"249003","593-UM","2018/01/22 20:19:19","新北市八里區中山路二段441號","121.396835","25.14572","6502300","八里區"
"248016","026-BX","2018/01/22 20:19:26","新北市五股區凌雲路一段158巷20號","121.448","25.103675","6501500","五股區"
"248012","247-BX","2018/01/22 20:19:15","新北市五股區六合街32號","121.433265","25.0889083333333","6501500","五股區"
"248004","677-BX","2018/01/22 20:19:16","新北市五股區中興路四段17-4號","121.43947","25.082455","6501500","五股區"
"248010","682-TV","2018/01/22 20:19:27","新北市五股區成泰路一段7巷7號","121.433266666667","25.0667116666667","6501500","五股區"
"234077","969-R7","2018/01/22 20:19:11","新北市永和區民享街23巷7號","121.5161","24.99507","6500400","永和區"
"234074","AAC-211","2018/01/22 20:19:28","新北市永和區竹林路201巷22弄18號","121.52304","25.0094016666667","6500400","永和區"
"234067","AAC-212","2018/01/22 20:19:25","新北市永和區保平路195號","121.509063333333","25.0051266666667","6500400","永和區"
"234003","AAC-295","2018/01/22 20:19:21","新北市永和區大新街12號","121.514931666667","25.0085033333333","6500400","永和區"
"243012","AAD-798","2018/01/22 20:19:18","新北市泰山區楓江路127-3號","121.439201666667","25.0646516666667","6501600","泰山區"
"243011","297-R6","2018/01/22 20:19:17","新北市泰山區新北大道六段313巷13弄9號","121.424615","25.0337116666667","6501600","泰山區"
"243015","380-SR","2018/01/22 20:19:24","新北市泰山區仁德路67號","121.434243333333","25.05665","6501600","泰山區"
"243014","421-VK","2018/01/22 20:19:26","新北市泰山區泰林路二段445號","121.425866666667","25.0641116666667","6501600","泰山區"
"243010","KEA-2215","2018/01/22 20:19:29","新北市泰山區明志路二段252號","121.426833333333","25.0477233333333","6501600","泰山區"
"243009","KEA-2216","2018/01/22 20:19:24","新北市泰山區泰林路二段292巷11號","121.431558333333","25.0635166666667","6501600","泰山區"
"243013","646-TV","2018/01/22 20:19:25","新北市泰山區中央路5巷19號","121.427288333333","25.04357","6501600","泰山區"
"243016","680-BX","2018/01/22 20:19:23","新北市泰山區明志路三段94號","121.424943333333","25.0413216666667","6501600","泰山區"
"222003","436-BY","2018/01/22 20:19:27","新北市深坑區文化街74號","121.618181666667","25.0018583333333","6501800","深坑區"
"222002","659-BX","2018/01/22 20:19:19","新北市深坑區萬福路75巷48號","121.598276666667","25.00991","6501800","深坑區"
"231041","002-UM","2018/01/22 20:19:27","新北市新店區民權路44號","121.540181666667","24.9831116666667","6500600","新店區"
"231059","046-UY","2018/01/22 20:19:21","新北市新店區安康路二段234巷27號","121.508893333333","24.9604866666667","6500600","新店區"
"231061","047-UY","2018/01/22 20:19:12","新北市新店區安興路32號","121.515725","24.9703733333333","6500600","新店區"
"231060","106-UY","2018/01/22 20:19:14","新北市新店區錦秀路11巷35號","121.48018","24.94471","6500600","新店區"
"231051","107-UY","2018/01/22 20:19:15","新北市新店區中央六街29號","121.529156666667","24.9751416666667","6500600","新店區"
"231047","108-UY","2018/01/22 20:19:20","新北市新店區寶橋路84號","121.546483333333","24.9757383333333","6500600","新店區"
"231052","188-VK","2018/01/22 20:19:22","新北市新店區新烏路二段301-3號","121.549315","24.9117616666667","6500600","新店區"
"231050","KEA-2219","2018/01/22 20:19:20","新北市新店區北新路二段2號","121.542818333333","24.970765","6500600","新店區"
"231057","256-BX","2018/01/22 20:19:26","新北市新店區花園五路二段11號","121.554071666667","24.9343666666667","6500600","新店區"
"231054","AAD-862","2018/01/22 20:19:19","新北市新店區檳榔路109號","121.544376666667","24.9616983333333","6500600","新店區"
"231058","3712-VJ","2018/01/22 20:19:17","新北市新店區中正路366號","121.535201666667","24.97614","6500600","新店區"
"231056","3713-VJ","2018/01/22 20:19:25","新北市新店區中正路275巷34號","121.53674","24.972935","6500600","新店區"
"231055","4716-K9","2018/01/22 20:19:14","新北市新店區中華路59號","121.539958333333","24.9680183333333","6500600","新店區"
"231067","4772-VM","2018/01/22 20:19:17","新北市新店區溪洲路8巷56號","121.533353333333","24.9622833333333","6500600","新店區"
"231065","512-UM","2018/01/22 20:19:10","新北市新店區安祥路106巷49號","121.475793333333","24.960975","6500600","新店區"
"231064","515-UM","2018/01/22 20:19:30","新北市新店區安樂街1-1號","121.519976666667","24.9736766666667","6500600","新店區"
"231042","616-UM","2018/01/22 20:19:12","新北市新店區中興路二段235號","121.547295","24.9750733333333","6500600","新店區"
"231040","619-UM","2018/01/22 20:19:25","新北市新店區三民路28號","121.53684","24.9710766666667","6500600","新店區"
"231063","645-TV","2018/01/22 20:19:13","新北市新店區車子路1-1號","121.504686666667","24.9577633333333","6500600","新店區"
"231068","718-UY","2018/01/22 20:19:23","新北市新店區民權路8號","121.542478333333","24.9829483333333","6500600","新店區"
"231049","719-UM","2018/01/22 20:19:14","新北市新店區北新路一段319號","121.541576666667","24.96805","6500600","新店區"
"231062","720-UM","2018/01/22 20:19:14","新北市新店區安泰路7巷16號","121.485668333333","24.950985","6500600","新店區"
"231044","897-TW","2018/01/22 20:19:23","新北市新店區北新路三段196號","121.541473333333","24.9833516666667","6500600","新店區"
"231045","898-TW","2018/01/22 20:19:31","新北市新店區中興路一段202號","121.54367","24.96543","6500600","新店區"
"231043","899-TW","2018/01/22 20:19:10","新北市新店區建國路131號","121.539393333333","24.978105","6500600","新店區"
"231066","AKT-0513","2018/01/22 20:19:13","新北市新店區安興路112號","121.514638333333","24.9776483333333","6500600","新店區"
"241011","013-R5","2018/01/22 20:19:24","新北市三重區龍門路250號","121.500945","25.073855","6500200","三重區"
"241028","022-UY","2018/01/22 20:19:15","新北市三重區大同南路103-2號","121.496265","25.0585516666667","6500200","三重區"
"241008","059-VK","2018/01/22 20:19:20","新北市三重區永福街211巷11號","121.479551666667","25.0741683333333","6500200","三重區"
"241031","061-VK","2018/01/22 20:19:11","新北市三重區三寧街15號","121.489455","25.05979","6500200","三重區"
"241015","062-VK","2018/01/22 20:19:31","新北市三重區重新路一段142號","121.500365","25.062835","6500200","三重區"
"241017","063-VK","2018/01/22 20:19:32","新北市三重區自強路一段179號","121.492281666667","25.06782","6500200","三重區"
"241024","065-VK","2018/01/22 20:19:24","新北市三重區忠孝路三段13號","121.481675","25.06732","6500200","三重區"
"241002","090-VK","2018/01/22 20:19:18","新北市三重區仁義街101巷42號","121.499151666667","25.080835","6500200","三重區"
"241003","091-VK","2018/01/22 20:19:12","新北市三重區富華街56號","121.49032","25.0830633333333","6500200","三重區"
"241020","156-TC","2018/01/22 20:19:26","新北市三重區三和路三段170巷23號","121.491801666667","25.072905","6500200","三重區"
"241005","262-UM","2018/01/22 20:19:18","新北市三重區碧華街215號","121.488793333333","25.082835","6500200","三重區"
"241009","265-UM","2018/01/22 20:19:13","新北市三重區三和路四段382巷153號","121.479061666667","25.0780833333333","6500200","三重區"
"241016","266-UM","2018/01/22 20:19:20","新北市三重區大同北路97-2號","121.494458333333","25.06345","6500200","三重區"
"241022","267-UM","2018/01/22 20:19:28","新北市三重區市前街14號","121.489188333333","25.0623983333333","6500200","三重區"
"241018","268-UM","2018/01/22 20:19:30","新北市三重區雙園街115號","121.49353","25.06721","6500200","三重區"
"241032","269-UM","2018/01/22 20:19:19","新北市三重區捷運路19巷6弄21號","121.484218333333","25.0568566666667","6500200","三重區"
"241013","270-UM","2018/01/22 20:19:18","新北市三重區三和路三段151巷4號","121.492163333333","25.0738433333333","6500200","三重區"
"241025","271-UM","2018/01/22 20:19:16","新北市三重區自由街35巷10弄13號","121.478998333333","25.0675866666667","6500200","三重區"
"241007","398-BY","2018/01/22 20:19:22","新北市三重區三和路四段111-9號","121.48647","25.0776683333333","6500200","三重區"
"241004","475-VK","2018/01/22 20:19:28","新北市三重區仁政街205號","121.49056","25.0805","6500200","三重區"
"241019","478-VK","2018/01/22 20:19:19","新北市三重區大智街149號","121.490416666667","25.0713683333333","6500200","三重區"
"241030","480-VK","2018/01/22 20:19:25","新北市三重區集美街89巷18號","121.488481666667","25.05268","6500200","三重區"
"241014","543-UM","2018/01/22 20:19:27","新北市三重區長榮路75號","121.502625","25.0690383333333","6500200","三重區"
"241023","545-UM","2018/01/22 20:19:17","新北市三重區大有街1-1號","121.477828333333","25.0655566666667","6500200","三重區"
"241001","547-UM","2018/01/22 20:19:13","新北市三重區自強路四段3巷31號","121.489986666667","25.0764583333333","6500200","三重區"
"241033","557-UM","2018/01/22 20:17:22","新北市三重區五谷王北街50巷9號","121.475728333333","25.05151","6500200","三重區"
"241035","743-BX","2018/01/22 20:19:16","新北市三重區正義北路33巷52號","121.499121666667","25.0639366666667","6500200","三重區"
"241026","887-TS","2018/01/22 20:19:23","新北市三重區中央南路74號","121.50149","25.0611283333333","6500200","三重區"
"241012","941-UM","2018/01/22 20:19:21","新北市三重區河邊北街385號","121.501636666667","25.07675","6500200","三重區"
"241029","942-UM","2018/01/22 20:19:19","新北市三重區光明路96巷7號","121.492726666667","25.0565183333333","6500200","三重區"
"235066","003-UY","2018/01/22 20:19:27","新北市中和區南工路94巷2號","121.507223333333","25.0029033333333","6500300","中和區"
"235039","097-UM","2018/01/22 20:19:28","新北市中和區立人街24-5號","121.518791666667","24.9941766666667","6500300","中和區"
"235065","098-UM","2018/01/22 20:19:19","新北市中和區永和路67-2號","121.496645","25.0055816666667","6500300","中和區"
"235068","377-QA","2018/01/22 20:19:09","新北市中和區福祥路85巷2弄26號","121.498438333333","25.0065666666667","6500300","中和區"
"235050","4979-A6","2018/01/22 20:19:16","新北市中和區景新街264號","121.509988333333","24.9930466666667","6500300","中和區"
"235069","4980-A6","2018/01/22 20:19:18","新北市中和區中正路418號","121.491821666667","24.9942733333333","6500300","中和區"
"235070","558-UM","2018/01/22 20:18:45","新北市中和區中正路636號","121.485543333333","24.9962683333333","6500300","中和區"
"235054","640-BX","2018/01/22 20:19:04","新北市五股區五工一路106號","121.457526666667","25.070145","6500300","中和區"
"235037","AAC-213","2018/01/22 20:19:17","新北市板橋區民生路二段210-1號","121.469238333333","25.0212216666667","6500300","中和區"
"235059","AAC-215","2018/01/22 20:19:31","新北市中和區員山路30-11號","121.484263333333","24.9875433333333","6500300","中和區"
"220069","AAD-861","2018/01/22 20:19:20","新北市板橋區大觀路一段28巷4弄28-5號","121.451388333333","25.00896","6500100","板橋區"
"247022","893-R6","2018/01/22 20:19:25","新北市蘆洲區民族路455號","121.467491666667","25.0884366666667","6501400","蘆洲區"
"247020","500-BY","2018/01/22 20:19:27","新北市蘆洲區仁愛街37號","121.472143333333","25.09285","6501400","蘆洲區"
"247008","341-TH","2018/01/22 20:19:28","新北市蘆洲區集賢路231號","121.482135","25.0858183333333","6501400","蘆洲區"
"247010","339-TH","2018/01/22 20:19:25","新北市蘆洲區信義路188巷18弄1號","121.48043","25.0845516666667","6501400","蘆洲區"
"247002","337-TH","2018/01/22 20:19:24","新北市蘆洲區環堤大道104號","121.455386666667","25.0863866666667","6501400","蘆洲區"
"247004","336-TH","2018/01/22 20:19:23","新北市蘆洲區長安街218號","121.45837","25.0843633333333","6501400","蘆洲區"
"247016","057-VK","2018/01/22 20:19:21","新北市蘆洲區中正路185巷45弄13號","121.46628","25.0835283333333","6501400","蘆洲區"
"247006","056-VK","2018/01/22 20:19:25","新北市蘆洲區九芎街153巷9號","121.465628333333","25.078795","6501400","蘆洲區"
"247012","053-VK","2018/01/22 20:19:19","新北市蘆洲區中興街15巷5號","121.480423333333","25.087285","6501400","蘆洲區"
"247024","002-UY","2018/01/22 20:19:18","新北市蘆洲區光明路112巷29弄9號","121.464043333333","25.087635","6501400","蘆洲區"
"247018","001-UY","2018/01/22 20:19:29","新北市蘆洲區民族路408巷6號","121.474898333333","25.0917316666667","6501400","蘆洲區"
"224006","676-BX","2018/01/22 20:19:20","新北市瑞芳區中山路266號","121.799343333333","25.1076733333333","6501200","瑞芳區"
"222001","KEA-2212","2018/01/22 20:19:11","新北市深坑區北深路三段262號","121.599331666667","25.0044616666667","6501800","深坑區"
"251013","179-VK","2018/01/22 20:19:23","新北市淡水區水汴頭4-3號","121.475363333333","25.2044166666667","6501000","淡水區"
"251014","180-VK","2018/01/22 20:19:31","新北市淡水區石頭厝3號","121.458703333333","25.23555","6501000","淡水區"
"251008","181-VK","2018/01/22 20:19:20","新北市淡水區淡海路150巷5弄2號","121.422095","25.1840433333333","6501000","淡水區"
"251015","182-VK","2018/01/22 20:19:24","新北市淡水區興仁路108號","121.451678333333","25.2181133333333","6501000","淡水區"
"251010","413-VK","2018/01/22 20:19:20","新北市淡水區新民街一段136號","121.427576666667","25.1890783333333","6501000","淡水區"
"251012","441-VK","2018/01/22 20:19:16","新北市淡水區下圭柔山431-1號","121.450305","25.2110083333333","6501000","淡水區"
"251016","442-VK","2018/01/22 20:19:20","新北市淡水區新埔子15-1號","121.449233333333","25.2282483333333","6501000","淡水區"
"251006","561-UM","2018/01/22 20:19:11","新北市淡水區北新路228號","121.452283333333","25.18031","6501000","淡水區"
"251002","672-BX","2018/01/22 20:19:21","新北市淡水區中正路65號","121.441273333333","25.1695316666667","6501000","淡水區"
"251003","766-UM","2018/01/22 20:19:21","新北市淡水區中山北路一段168號","121.444268333333","25.178715","6501000","淡水區"
"207004","225-TW","2018/01/22 20:19:26","新北市萬里區北基里仁二街2號","121.682551666667","25.1756566666667","6502800","萬里區"
"252002","178-VK","2018/01/22 20:19:31","新北市三芝區中正路一段20號","121.503063333333","25.2586933333333","6502100","三芝區"
"252001","292-VK","2018/01/22 20:19:18","新北市三芝區中山路一段35號","121.500593333333","25.2579683333333","6502100","三芝區"
"237006","5529-G3","2018/01/22 20:19:13","新北市三峽區嘉添1-3號","121.367846666667","24.9117483333333","6500900","三峽區"
"237005","AKY-6261","2018/01/22 20:19:18","新北市三峽區三樹路98巷74弄28號","121.384963333333","24.9384466666667","6500900","三峽區"
"236069","105-UM","2018/01/22 20:19:19","新北市土城區中山路99號","121.43291","24.9712816666667","6501300","土城區"
"236042","107-UM","2018/01/22 20:19:25","新北市土城區學享街5號","121.450838333333","24.9871916666667","6501300","土城區"
"236078","166-UM","2018/01/22 19:59:36","新北市土城區中山路2-1號","121.412621666667","24.95978","6501300","土城區"
"236030","253-BX","2018/01/22 20:19:31","新北市土城區學成路128巷8弄1號","121.449481666667","24.9899383333333","6501300","土城區"
"236026","269-VK","2018/01/22 20:19:16","新北市土城區中央路一段249巷27號","121.446413333333","24.9854933333333","6501300","土城區"
"236014","270-VK","2018/01/22 20:19:27","新北市板橋區信義路26巷12號","121.4562","24.9953","6501300","土城區"
"236036","271-VK","2018/01/22 20:19:22","新北市土城區延吉街329-2號","121.465415","24.9840516666667","6501300","土城區"
"236020","401-BY","2018/01/22 20:19:14","新北市土城區延吉街111巷15號","121.471915","24.9858783333333","6501300","土城區"
"236058","912-UM","2018/01/22 20:19:24","新北市土城區中央路三段73-2號","121.438653333333","24.96892","6501300","土城區"
"242031","AAC-296","2018/01/22 20:19:16","新北市新莊區義豐街29號","121.441203333333","25.035245","6500500","新莊區"
"242029","986-R7","2018/01/22 20:19:14","新北市新莊區中原路319-1號","121.446598333333","25.05429","6500500","新莊區"
"242025","615-BX","2018/01/22 20:19:10","新北市新莊區五工二路70號","121.46037","25.0657816666667","6500500","新莊區"
"242023","613-BX","2018/01/22 20:19:21","新北市新莊區化成路405號","121.46512","25.0589233333333","6500500","新莊區"
"242027","612-BX","2018/01/22 20:19:28","新北市新莊區幸福路588號","121.453668333333","25.04932","6500500","新莊區"
"242039","566-BX","2018/01/22 20:19:28","新北市新莊區龍安路441號","121.42437","25.018565","6500500","新莊區"
"242044","442-UM","2018/01/22 20:19:11","新北市新莊區中正路新建巷28弄29號","121.413988333333","25.0215033333333","6500500","新莊區"
"242048","441-UM","2018/01/22 20:19:12","新北市新莊區四維路188巷10號","121.421358333333","25.0211166666667","6500500","新莊區"
"242053","440-UM","2018/01/22 20:19:26","新北市新莊區西盛街388巷11號","121.427155","25.0129933333333","6500500","新莊區"
"242034","415-TV","2018/01/22 20:19:13","新北市新莊區建中街116巷3弄19號","121.445068333333","25.0370433333333","6500500","新莊區"
"242004","413-TV","2018/01/22 20:19:30","新北市新莊區頭前路15巷9號","121.467858333333","25.0516233333333","6500500","新莊區"
"242042","400-BY","2018/01/22 20:19:11","新北市新莊區天祥街54巷2弄1號","121.41666","25.0291333333333","6500500","新莊區"
"242060","362-BY","2018/01/22 20:19:23","新北市新莊區瓊林路206-6號","121.43544","25.0222116666667","6500500","新莊區"
"242058","353-BY","2018/01/22 20:19:30","新北市新莊區四維路215號","121.421625","25.0199966666667","6500500","新莊區"
"242007","132-UY","2018/01/22 20:19:16","新北市新莊區思源路421號","121.459403333333","25.0527316666667","6500500","新莊區"
"242021","135-UY","2018/01/22 20:19:16","新北市新莊區復興路一段7號","121.445633333333","25.0415766666667","6500500","新莊區"
"242046","172-VK","2018/01/22 20:19:23","新北市新莊區中正路新生巷41號","121.417446666667","25.02333","6500500","新莊區"
"242009","173-VK","2018/01/22 20:19:15","新北市新莊區昌平街26號","121.455111666667","25.0528516666667","6500500","新莊區"
"242015","175-VK","2018/01/22 20:19:12","新北市新莊區中和街44號","121.44819","25.0442716666667","6500500","新莊區"
"242002","176-VK","2018/01/22 20:19:18","新北市新莊區中正路33號","121.463925","25.0409383333333","6500500","新莊區"
"242013","346-TH","2018/01/22 20:19:12","新北市新莊區中和街155巷24弄32號","121.446631666667","25.0510633333333","6500500","新莊區"
"242050","347-TH","2018/01/22 20:19:18","新北市新莊區民安西路201號","121.426016666667","25.01489","6500500","新莊區"
"242019","348-TH","2018/01/22 20:19:29","新北市新莊區復興路二段196巷2弄1號","121.459331666667","25.0440633333333","6500500","新莊區"
"242056","349-TH","2018/01/22 20:19:18","新北市新莊區豐年街28巷14號","121.445625","25.0324166666667","6500500","新莊區"
"242017","350-TH","2018/01/22 20:19:15","新北市新莊區中港一街71號","121.449923333333","25.0453833333333","6500500","新莊區"
"242011","351-TH","2018/01/22 20:19:27","新北市新莊區中信街25號","121.45088","25.0508033333333","6500500","新莊區"
"221036","130-UY","2018/01/22 20:19:17","新北市汐止區福安街59巷13號","121.664521666667","25.0639816666667","6501100","汐止區"
"221010","269-BY","2018/01/22 20:19:27","新北市汐止區八連路二段331號","121.629613333333","25.1000916666667","6501100","汐止區"
"221012","278-VK","2018/01/22 20:19:27","新北市汐止區保新街155號","121.688331666667","25.0693716666667","6501100","汐止區"
"221023","279-VK","2018/01/22 20:19:13","新北市汐止區明峰街312號","121.62495","25.067465","6501100","汐止區"
"221032","280-BY","2018/01/22 20:19:26","新北市汐止區民權街二段28號","121.619438333333","25.049865","6501100","汐止區"
"221027","281-BY","2018/01/22 20:19:20","新北市汐止區大同路二段517號","121.661476666667","25.0689183333333","6501100","汐止區"
"221029","298-VK","2018/01/22 20:19:14","新北市汐止區工建路31號","121.639555","25.0634","6501100","汐止區"
"221021","299-VK","2018/01/22 20:19:30","新北市汐止區水源路一段280號","121.654213333333","25.0583866666667","6501100","汐止區"
"221031","353-TW","2018/01/22 20:19:12","新北市汐止區原興路51號","121.632836666667","25.06496","6501100","汐止區"
"221008","358-BY","2018/01/22 20:19:23","新北市汐止區康寧街107號","121.620581666667","25.06652","6501100","汐止區"
"221015","567-BX","2018/01/22 20:19:22","新北市汐止區建成路142巷19弄15號","121.661865","25.0738666666667","6501100","汐止區"
"221035","622-UM","2018/01/22 20:19:28","新北市汐止區長江街101-5號","121.658703333333","25.0731683333333","6501100","汐止區"
"221025","623-UM","2018/01/22 20:19:23","新北市汐止區水源路二段72巷6弄5號","121.655665","25.05571","6501100","汐止區"
"221038","646-BX","2018/01/22 20:19:29","新北市汐止區忠孝東路462巷18號","121.666568333333","25.07356","6501100","汐止區"
"221033","647-BX","2018/01/22 20:19:20","新北市汐止區東勢街201巷5號","121.633646666667","25.0427616666667","6501100","汐止區"
"221018","753-BX","2018/01/22 20:19:24","新北市汐止區茄苳路277號","121.672266666667","25.06796","6501100","汐止區"
"220101","245-BX","2018/01/22 20:19:30","新北市板橋區雙十路一段44巷36號","121.477296666667","25.0250183333333","6500100","板橋區"
"220083","286-VK","2018/01/22 20:19:24","新北市板橋區僑中二街90巷1號","121.446508333333","25.0089716666667","6500100","板橋區"
"220081","287-VK","2018/01/22 20:19:26","新北市板橋區僑中一街80巷14弄2號","121.448253333333","25.0134583333333","6500100","板橋區"
"220061","293-UM","2018/01/22 20:19:13","新北市板橋區中山路一段161號","121.465441666667","25.011865","6500100","板橋區"
"220089","487-VK","2018/01/22 20:19:23","新北市板橋區四維路255號","121.46344","25.027945","6500100","板橋區"
"220103","561-BX","2018/01/22 20:19:17","新北市板橋區陽明街261號","121.46244","25.025645","6500100","板橋區"
"220055","568-UM","2018/01/22 20:19:20","新北市板橋區仁愛路26號","121.458851666667","24.9994316666667","6500100","板橋區"
"220102","830-TW","2018/01/22 20:19:11","新北市板橋區縣民大道二段200巷5號","121.469745","25.0174566666667","6500100","板橋區"
"220074","895-R6","2018/01/22 20:19:22","新北市板橋區館前西路104號","121.457125","25.00736","6500100","板橋區"
"220097","AAC-210","2018/01/22 20:19:15","新北市板橋區光正街9巷11號","121.46266","25.0165333333333","6500100","板橋區"
"220070","AAC-253","2018/01/22 20:19:13","新北市板橋區四川路二段245巷13號","121.45099","24.9931666666667","6500100","板橋區"
