"lineid","car","time","location","longitude","latitude","cityid","cityname"
"234064","337-UY","2018/01/22 20:39:08","新北市永和區永和路二段190號","121.515546666667","25.0134966666667","6500400","永和區"
"234030","746-BX","2018/01/22 20:39:13","新北市中和區景平路476號","121.505345","24.99364","6500400","永和區"
"234061","AAD-866","2018/01/22 20:39:12","新北市永和區秀朗路一段175號","121.516985","25.0036816666667","6500400","永和區"
"234050","863-TW","2018/01/22 20:39:09","新北市永和區新生路89號","121.508373333333","25.0157066666667","6500400","永和區"
"234023","9381-KE","2018/01/22 20:39:21","新北市永和區竹林路25巷21號","121.518165","25.014985","6500400","永和區"
"249001","173-UM","2018/01/22 20:39:14","新北市八里區下罟子23號","121.377096666667","25.1387866666667","6502300","八里區"
"249004","303-UY","2018/01/22 20:39:18","新北市八里區中山路一段219號","121.411283333333","25.1578","6502300","八里區"
"249002","305-UY","2018/01/22 20:39:21","新北市八里區龍米路三段52號","121.42452","25.1591866666667","6502300","八里區"
"249003","593-UM","2018/01/22 20:39:19","新北市八里區商港路98號","121.39543","25.146965","6502300","八里區"
"234074","AAC-211","2018/01/22 20:39:21","新北市永和區竹林路119巷22弄1號","121.521331666667","25.0115983333333","6500400","永和區"
"243014","421-VK","2018/01/22 20:39:14","新北市泰山區泰林路三段745巷145號","121.405523333333","25.06769","6501600","泰山區"
"243010","KEA-2215","2018/01/22 20:39:10","新北市泰山區犁頭窠6號","121.421745","25.0588333333333","6501600","泰山區"
"243009","KEA-2216","2018/01/22 20:39:04","新北市泰山區橫窠雅2號","121.402573333333","25.0717966666667","6501600","泰山區"
"243016","680-BX","2018/01/22 20:39:23","新北市泰山區明志路二段214巷16弄16號","121.427051666667","25.0496433333333","6501600","泰山區"
"222003","436-BY","2018/01/22 20:39:07","新北市深坑區深坑街163號","121.612848333333","25.001125","6501800","深坑區"
"222002","659-BX","2018/01/22 20:39:19","新北市深坑區萬福路45號","121.599468333333","25.006825","6501800","深坑區"
"231041","002-UM","2018/01/22 20:39:07","新北市新店區中正路545號","121.533718333333","24.9876","6500600","新店區"
"231059","046-UY","2018/01/22 20:39:23","新北市新店區吉祥街15巷60號","121.499813333333","24.9451466666667","6500600","新店區"
"231061","047-UY","2018/01/22 20:39:12","新北市新店區新和街52號","121.519651666667","24.98523","6500600","新店區"
"231060","106-UY","2018/01/22 20:39:19","新北市新店區安康路三段561巷2弄10號","121.476025","24.9442466666667","6500600","新店區"
"231051","107-UY","2018/01/22 20:39:15","新北市新店區中央七街1號","121.530683333333","24.9747533333333","6500600","新店區"
"231047","108-UY","2018/01/22 20:39:20","新北市新店區順安街69號","121.540488333333","24.9866866666667","6500600","新店區"
"231052","188-VK","2018/01/22 20:39:22","新北市新店區松林路36號","121.54587","24.9106216666667","6500600","新店區"
"231050","KEA-2219","2018/01/22 20:39:20","新北市新店區博愛街13巷23號","121.540296666667","24.9741133333333","6500600","新店區"
"231057","256-BX","2018/01/22 20:39:17","新北市新店區花園六路二段1號","121.55403","24.9337116666667","6500600","新店區"
"231054","AAD-862","2018/01/22 20:39:22","新北市新店區行政街14巷1號","121.54321","24.9661216666667","6500600","新店區"
"231058","3712-VJ","2018/01/22 20:39:17","新北市新店區平等街55號","121.536175","24.972775","6500600","新店區"
"231056","3713-VJ","2018/01/22 20:39:05","新北市新店區中正路461號","121.533366666667","24.98068","6500600","新店區"
"231065","512-UM","2018/01/22 20:39:10","新北市新店區安祥路102巷51號","121.485891666667","24.963945","6500600","新店區"
"231064","515-UM","2018/01/22 20:39:11","新北市新店區安和路三段110巷1號","121.517363333333","24.985465","6500600","新店區"
"231042","616-UM","2018/01/22 20:39:12","新北市新店區寶高路120巷1-1號","121.554548333333","24.9758816666667","6500600","新店區"
"231040","619-UM","2018/01/22 20:39:25","新北市新店區中正路276號","121.538816666667","24.9736366666667","6500600","新店區"
"231063","645-TV","2018/01/22 20:39:13","新北市新店區玫瑰路4-1號","121.49357","24.9513683333333","6500600","新店區"
"231068","718-UY","2018/01/22 20:39:03","新北市新店區寶元路一段65號","121.542246666667","24.9858566666667","6500600","新店區"
"231049","719-UM","2018/01/22 20:39:14","新北市新店區永業路81巷11弄11號","121.531518333333","24.9505983333333","6500600","新店區"
"231062","720-UM","2018/01/22 20:39:14","新北市新店區雙城路4巷1號","121.491348333333","24.950845","6500600","新店區"
"231044","897-TW","2018/01/22 20:39:23","新北市新店區建國路293巷1號","121.536706666667","24.9862033333333","6500600","新店區"
"231045","898-TW","2018/01/22 20:39:11","新北市新店區長春路557-1號","121.55407","24.9611133333333","6500600","新店區"
"231043","899-TW","2018/01/22 20:39:10","新北市新店區博愛街13巷23號","121.540391666667","24.9740466666667","6500600","新店區"
"231066","AKT-0513","2018/01/22 20:39:13","新北市新店區安興路112號","121.514606666667","24.9775516666667","6500600","新店區"
"241011","013-R5","2018/01/22 20:39:24","新北市三重區龍門路154號","121.49858","25.073145","6500200","三重區"
"241028","022-UY","2018/01/22 20:39:15","新北市三重區光興街93號","121.497335","25.059935","6500200","三重區"
"241008","059-VK","2018/01/22 20:39:20","新北市三重區下竹圍街42號","121.481025","25.0748933333333","6500200","三重區"
"241031","061-VK","2018/01/22 20:39:11","新北市三重區重陽路一段113巷1弄41號","121.487933333333","25.0587766666667","6500200","三重區"
"241015","062-VK","2018/01/22 20:39:11","新北市三重區文化北路200弄1號","121.49792","25.0681216666667","6500200","三重區"
"241017","063-VK","2018/01/22 20:39:12","新北市三重區大同北路261號","121.490925","25.0671433333333","6500200","三重區"
"241024","065-VK","2018/01/22 20:39:22","新北市三重區中正北路346號","121.477845","25.0692016666667","6500200","三重區"
"241002","090-VK","2018/01/22 20:39:17","新北市三重區仁義街167巷40號","121.498715","25.0824516666667","6500200","三重區"
"241003","091-VK","2018/01/22 20:39:21","新北市三重區富華街246號","121.494021666667","25.0857183333333","6500200","三重區"
"241020","156-TC","2018/01/22 20:39:26","新北市三重區忠孝路一段101號","121.489365","25.0722383333333","6500200","三重區"
"241005","262-UM","2018/01/22 20:39:14","新北市三重區碧華街392號","121.49152","25.084665","6500200","三重區"
"241009","265-UM","2018/01/22 20:39:13","新北市三重區永福街62-4號","121.48087","25.0778533333333","6500200","三重區"
"241016","266-UM","2018/01/22 20:39:20","新北市三重區長壽西街136號","121.494938333333","25.0668766666667","6500200","三重區"
"241022","267-UM","2018/01/22 20:39:26","新北市三重區民生街61巷6弄1號","121.488666666667","25.06236","6500200","三重區"
"241018","268-UM","2018/01/22 20:39:10","新北市三重區自強路一段316號","121.491133333333","25.0685783333333","6500200","三重區"
"241032","269-UM","2018/01/22 20:39:19","新北市三重區重陽路一段120巷48號","121.485006666667","25.06018","6500200","三重區"
"241013","270-UM","2018/01/22 20:39:18","新北市三重區溪尾街5巷3號","121.492008333333","25.074365","6500200","三重區"
"241025","271-UM","2018/01/22 20:39:16","新北市三重區金華街85號","121.477328333333","25.0650716666667","6500200","三重區"
"241007","398-BY","2018/01/22 20:39:22","新北市三重區三和路四段101巷2號","121.487531666667","25.0768033333333","6500200","三重區"
"241004","475-VK","2018/01/22 20:39:08","新北市三重區分子尾街45號","121.489235","25.0820816666667","6500200","三重區"
"241019","478-VK","2018/01/22 20:39:19","新北市三重區重陽路四段77號","121.492571666667","25.0709183333333","6500200","三重區"
"241030","480-VK","2018/01/22 20:39:05","新北市三重區成功路73巷11號","121.489538333333","25.05185","6500200","三重區"
"241014","543-UM","2018/01/22 20:39:07","新北市三重區萬壽街14號","121.499356666667","25.0693733333333","6500200","三重區"
"241023","545-UM","2018/01/22 20:39:17","新北市三重區自由街35巷2號","121.478976666667","25.0668933333333","6500200","三重區"
"241001","547-UM","2018/01/22 20:39:13","新北市三重區自強路三段114號","121.486846666667","25.0747333333333","6500200","三重區"
"241033","557-UM","2018/01/22 20:39:22","新北市三重區光復路二段87巷28號","121.474546666667","25.05794","6500200","三重區"
"241035","743-BX","2018/01/22 20:39:19","新北市三重區重陽路四段146號","121.492998333333","25.0718266666667","6500200","三重區"
"241026","887-TS","2018/01/22 20:39:23","新北市三重區重新路二段36巷29號","121.499723333333","25.0623316666667","6500200","三重區"
"241012","941-UM","2018/01/22 20:39:21","新北市三重區秀江街26號","121.50249","25.0730583333333","6500200","三重區"
"241029","942-UM","2018/01/22 20:39:19","新北市三重區集美街126巷25號","121.489953333333","25.0537416666667","6500200","三重區"
"235069","4980-A6","2018/01/22 20:39:18","新北市中和區員山路325-5號","121.480988333333","25.001075","6500300","中和區"
"235054","640-BX","2018/01/22 20:39:04","新北市八里區中山路三段409號","121.368385","25.1351133333333","6500300","中和區"
"235026","800-TS","2018/01/22 20:39:26","新北市中和區員山路36巷16-3號","121.484743333333","24.9912116666667","6500300","中和區"
"235037","AAC-213","2018/01/22 20:36:37","新北市八里區下罟子5-11號","121.386265","25.1455783333333","6500300","中和區"
"247022","893-R6","2018/01/22 20:39:20","新北市蘆洲區中正路243巷7弄46號","121.467546666667","25.085725","6501400","蘆洲區"
"247020","500-BY","2018/01/22 20:39:07","新北市蘆洲區民族路424號","121.473943333333","25.0917916666667","6501400","蘆洲區"
"247008","341-TH","2018/01/22 20:39:08","新北市蘆洲區重陽街54號","121.48152","25.0834516666667","6501400","蘆洲區"
"247010","339-TH","2018/01/22 20:39:25","新北市蘆洲區集賢路395號","121.48033","25.0819616666667","6501400","蘆洲區"
"247002","337-TH","2018/01/22 20:39:04","新北市蘆洲區長安街375巷8號","121.456846666667","25.0878716666667","6501400","蘆洲區"
"247004","336-TH","2018/01/22 20:39:22","新北市蘆洲區長安街222號","121.458131666667","25.084875","6501400","蘆洲區"
"247016","057-VK","2018/01/22 20:39:21","新北市蘆洲區中山二路197號","121.470858333333","25.0806","6501400","蘆洲區"
"247006","056-VK","2018/01/22 20:39:25","新北市蘆洲區和平路184號","121.466273333333","25.0813966666667","6501400","蘆洲區"
"247012","053-VK","2018/01/22 20:39:19","新北市蘆洲區集賢路224巷72號","121.48055","25.088715","6501400","蘆洲區"
"247014","007-UY","2018/01/22 20:39:12","新北市蘆洲區成功路85號","121.473026666667","25.08113","6501400","蘆洲區"
"247024","002-UY","2018/01/22 20:39:18","新北市蘆洲區長樂路27號","121.463441666667","25.085395","6501400","蘆洲區"
"222001","KEA-2212","2018/01/22 20:39:11","新北市深坑區北深路三段234號","121.600621666667","25.00397","6501800","深坑區"
"251001","011-UM","2018/01/22 20:39:12","新北市淡水區竿蓁二街85號","121.456408333333","25.1633333333333","6501000","淡水區"
"251013","179-VK","2018/01/22 20:39:23","新北市淡水區下圭柔山28巷23號","121.458118333333","25.2041033333333","6501000","淡水區"
"251014","180-VK","2018/01/22 20:39:11","新北市淡水區桂竹圍12-6號","121.471905","25.2322066666667","6501000","淡水區"
"251015","182-VK","2018/01/22 20:39:05","新北市淡水區興仁路162號","121.451605","25.2207633333333","6501000","淡水區"
"251010","413-VK","2018/01/22 20:39:20","新北市淡水區沙崙路181巷1號","121.424036666667","25.18437","6501000","淡水區"
"251012","441-VK","2018/01/22 20:39:16","新北市淡水區興仁路108號","121.45162","25.2181783333333","6501000","淡水區"
"251016","442-VK","2018/01/22 20:39:20","新北市淡水區後洲子8-2號","121.449568333333","25.2240266666667","6501000","淡水區"
"251006","561-UM","2018/01/22 20:39:11","新北市淡水區商工路196巷4號","121.451128333333","25.1869366666667","6501000","淡水區"
"251011","650-BX","2018/01/22 20:38:54","新北市淡水區新市一路一段361號","121.436295","25.1861816666667","6501000","淡水區"
"251002","672-BX","2018/01/22 20:39:12","新北市淡水區中正路36號","121.44375","25.16921","6501000","淡水區"
"251003","766-UM","2018/01/22 20:39:21","新北市淡水區新民街120巷54號","121.438733333333","25.1784216666667","6501000","淡水區"
"252002","178-VK","2018/01/22 20:39:10","新北市三芝區淡金路二段47-2號","121.50368","25.2605666666667","6502100","三芝區"
"252001","292-VK","2018/01/22 20:39:18","新北市三芝區長安街36號","121.501551666667","25.2562683333333","6502100","三芝區"
"242031","AAC-296","2018/01/22 20:39:16","新北市新莊區三泰路7-6號","121.439578333333","25.03443","6500500","新莊區"
"242029","986-R7","2018/01/22 20:39:14","新北市新莊區中華路二段151號","121.452895","25.0514183333333","6500500","新莊區"
"242025","615-BX","2018/01/22 20:39:16","新北市新莊區化成路579巷2號","121.46396","25.0662616666667","6500500","新莊區"
"242023","613-BX","2018/01/22 20:39:21","新北市新莊區化成路628號","121.466273333333","25.0550616666667","6500500","新莊區"
"242027","612-BX","2018/01/22 20:39:13","新北市新莊區思源路65號","121.459885","25.04049","6500500","新莊區"
"242039","566-BX","2018/01/22 20:39:08","新北市新莊區民安路381號","121.431838333333","25.023025","6500500","新莊區"
"242044","442-UM","2018/01/22 20:39:20","新北市新莊區龍安路100號","121.418116666667","25.020635","6500500","新莊區"
"242048","441-UM","2018/01/22 20:39:12","新北市新莊區中正路863-2號","121.418776666667","25.0276266666667","6500500","新莊區"
"242053","440-UM","2018/01/22 20:39:20","新北市新莊區西盛街323巷5號","121.42847","25.0148033333333","6500500","新莊區"
"242034","415-TV","2018/01/22 20:39:13","新北市新莊區中正路316號","121.44637","25.034885","6500500","新莊區"
"242004","413-TV","2018/01/22 20:39:10","新北市新莊區思源路379號","121.459738333333","25.0512083333333","6500500","新莊區"
"242042","400-BY","2018/01/22 20:39:11","新北市新莊區天祥街47巷9號","121.416478333333","25.0284216666667","6500500","新莊區"
"242060","362-BY","2018/01/22 20:39:23","新北市新莊區新樹路262號","121.432748333333","25.0148","6500500","新莊區"
"242058","353-BY","2018/01/22 20:39:10","新北市新莊區民安路138號","121.424215","25.0253333333333","6500500","新莊區"
"242007","132-UY","2018/01/22 20:39:16","新北市新莊區思源路311號","121.459953333333","25.0490733333333","6500500","新莊區"
"242021","135-UY","2018/01/22 20:39:16","新北市新莊區公園路116號","121.451395","25.0399216666667","6500500","新莊區"
"242046","172-VK","2018/01/22 20:39:23","新北市新莊區裕民街57號","121.41883","25.0244866666667","6500500","新莊區"
"242009","173-VK","2018/01/22 20:39:15","新北市新莊區幸福路64巷3弄8號","121.456848333333","25.0500633333333","6500500","新莊區"
"242015","175-VK","2018/01/22 20:39:12","新北市新莊區中和街32號","121.448253333333","25.0438783333333","6500500","新莊區"
"242002","176-VK","2018/01/22 20:39:18","新北市新莊區明中街43巷29號","121.457001666667","25.038455","6500500","新莊區"
"242013","346-TH","2018/01/22 20:39:12","新北市新莊區中和街175巷13號","121.447178333333","25.0506516666667","6500500","新莊區"
"242050","347-TH","2018/01/22 20:39:18","新北市新莊區西盛街280巷3號","121.42766","25.015215","6500500","新莊區"
"242019","348-TH","2018/01/22 20:39:09","新北市新莊區銘德街139號","121.454726666667","25.0428433333333","6500500","新莊區"
"242056","349-TH","2018/01/22 20:39:18","新北市新莊區瓊泰路102號","121.443368333333","25.029825","6500500","新莊區"
"242017","350-TH","2018/01/22 20:39:15","新北市新莊區中港三街46號","121.449766666667","25.04636","6500500","新莊區"
"242011","351-TH","2018/01/22 20:39:07","新北市新莊區中榮街122巷2號","121.446575","25.05312","6500500","新莊區"
"221036","130-UY","2018/01/22 20:39:17","新北市汐止區新昌路12號","121.66216","25.06726","6501100","汐止區"
"221023","279-VK","2018/01/22 20:39:13","新北市汐止區湖東街11號","121.634783333333","25.0722933333333","6501100","汐止區"
"221032","280-BY","2018/01/22 20:39:06","新北市汐止區民權街二段35-1號","121.620175","25.0502033333333","6501100","汐止區"
"221027","281-BY","2018/01/22 20:39:20","新北市汐止區大同路二段567號","121.662925","25.0699483333333","6501100","汐止區"
"221029","298-VK","2018/01/22 20:39:14","新北市汐止區大同路一段421號","121.642743333333","25.0610966666667","6501100","汐止區"
"221021","299-VK","2018/01/22 20:39:10","新北市汐止區水源路一段282巷6號","121.653796666667","25.058275","6501100","汐止區"
"221031","353-TW","2018/01/22 20:39:12","新北市汐止區中興路27巷22號","121.634015","25.06086","6501100","汐止區"
"221008","358-BY","2018/01/22 20:39:23","新北市汐止區康寧街861巷3號","121.645355","25.076115","6501100","汐止區"
"221015","567-BX","2018/01/22 20:39:22","新北市汐止區建成路40號","121.664003333333","25.0727916666667","6501100","汐止區"
"221035","622-UM","2018/01/22 20:39:08","新北市汐止區長江街101-5號","121.658691666667","25.073205","6501100","汐止區"
"221025","623-UM","2018/01/22 20:39:23","新北市汐止區水源路二段283巷1號","121.659208333333","25.0497966666667","6501100","汐止區"
"221038","646-BX","2018/01/22 20:39:09","新北市汐止區大同路二段196號","121.652986666667","25.0643683333333","6501100","汐止區"
"221033","647-BX","2018/01/22 20:39:20","新北市汐止區合順街18巷8弄5號","121.620316666667","25.0418666666667","6501100","汐止區"
"221018","753-BX","2018/01/22 20:39:24","新北市汐止區茄苳路103號","121.66739","25.0714383333333","6501100","汐止區"
"220083","286-VK","2018/01/22 20:39:04","新北市板橋區僑中二街104巷1號","121.446041666667","25.0077083333333","6500100","板橋區"
"220081","287-VK","2018/01/22 20:39:20","新北市板橋區大觀路二段281號","121.442498333333","24.99896","6500100","板橋區"
"220089","487-VK","2018/01/22 20:39:23","新北市板橋區四維路357號","121.462161666667","25.03022","6500100","板橋區"
"220103","561-BX","2018/01/22 20:39:17","新北市板橋區漢生東路83巷25號","121.467376666667","25.016775","6500100","板橋區"
"220070","AAC-253","2018/01/22 20:39:13","新北市五股區凌雲路二段66號","121.440043333333","25.106225","6500100","板橋區"
