"lineid","car","time","location","longitude","latitude","cityid","cityname"
"234074","AAC-211","2018/01/22 20:49:28","新北市永和區竹林路75巷4弄34號","121.521686666667","25.0140866666667","6500400","永和區"
"222003","436-BY","2018/01/22 20:49:27","新北市深坑區阿柔洋40號","121.610295","24.9984683333333","6501800","深坑區"
"222002","659-BX","2018/01/22 20:49:19","新北市深坑區北深路三段93巷73號","121.60346","25.0011933333333","6501800","深坑區"
"231059","046-UY","2018/01/22 20:49:33","新北市新店區僑信路120巷40號","121.499306666667","24.9459883333333","6500600","新店區"
"231061","047-UY","2018/01/22 20:49:32","新北市新店區永安街89-6號","121.520703333333","24.986665","6500600","新店區"
"231060","106-UY","2018/01/22 20:49:34","新北市新店區安康路三段742號","121.473838333333","24.9418683333333","6500600","新店區"
"231051","107-UY","2018/01/22 20:49:35","新北市新店區中央七街89號","121.52663","24.977145","6500600","新店區"
"231047","108-UY","2018/01/22 20:49:20","新北市新店區寶元路二段1巷2號","121.550715","24.9840666666667","6500600","新店區"
"231052","188-VK","2018/01/22 20:49:22","新北市新店區屈尺路6號","121.549405","24.9235383333333","6500600","新店區"
"231050","KEA-2219","2018/01/22 20:49:20","新北市新店區中正路247巷45號","121.538235","24.97205","6500600","新店區"
"231057","256-BX","2018/01/22 20:49:25","新北市新店區花園六路二段9號","121.555535","24.933005","6500600","新店區"
"231054","AAD-862","2018/01/22 20:49:19","新北市新店區北新路一段126巷27號","121.543388333333","24.96954","6500600","新店區"
"231058","3712-VJ","2018/01/22 20:49:37","新北市新店區溪園路395號","121.52359","24.97734","6500600","新店區"
"231056","3713-VJ","2018/01/22 20:49:25","新北市新店區中央七街61巷2號","121.528325","24.9765216666667","6500600","新店區"
"231065","512-UM","2018/01/22 20:49:29","新北市新店區安祥路104巷11弄2號","121.481328333333","24.9635933333333","6500600","新店區"
"231064","515-UM","2018/01/22 20:49:29","新北市新店區安民街389號","121.516025","24.9769166666667","6500600","新店區"
"231042","616-UM","2018/01/22 20:49:32","新北市新店區寶高路120巷1-1號","121.554545","24.9759","6500600","新店區"
"231040","619-UM","2018/01/22 20:49:33","新北市新店區中正路190號","121.540578333333","24.9724766666667","6500600","新店區"
"231063","645-TV","2018/01/22 20:49:33","新北市新店區如意街7-2號","121.495201666667","24.9486166666667","6500600","新店區"
"231068","718-UY","2018/01/22 20:49:23","新北市新店區寶元路一段84巷1號","121.5445","24.983785","6500600","新店區"
"231049","719-UM","2018/01/22 20:49:34","新北市新店區安康路一段61號","121.530628333333","24.960865","6500600","新店區"
"231062","720-UM","2018/01/22 20:49:34","新北市新店區裕合街143號","121.489161666667","24.94905","6500600","新店區"
"231044","897-TW","2018/01/22 20:49:23","新北市新店區建國路132號","121.53912","24.9788383333333","6500600","新店區"
"231043","899-TW","2018/01/22 20:49:30","新北市新店區建國路39號","121.540498333333","24.97496","6500600","新店區"
"231066","AKT-0513","2018/01/22 20:49:33","新北市新店區安興路112號","121.514598333333","24.9775583333333","6500600","新店區"
"241011","013-R5","2018/01/22 20:49:24","新北市三重區環河北路一段352號","121.50324","25.0726233333333","6500200","三重區"
"241028","022-UY","2018/01/22 20:49:15","新北市三重區中正南路41巷1號","121.493868333333","25.059895","6500200","三重區"
"241008","059-VK","2018/01/22 20:49:20","新北市三重區永福街70號","121.479321666667","25.0768283333333","6500200","三重區"
"241031","061-VK","2018/01/22 20:49:31","新北市三重區重陽路一段113巷2弄2號","121.487521666667","25.0598783333333","6500200","三重區"
"241015","062-VK","2018/01/22 20:49:31","新北市三重區自強路一段10號","121.499023333333","25.0681766666667","6500200","三重區"
"241017","063-VK","2018/01/22 20:49:36","新北市三重區民生街18號","121.492013333333","25.0673533333333","6500200","三重區"
"241024","065-VK","2018/01/22 20:49:24","新北市三重區大勇街82巷15弄30號","121.481188333333","25.0720016666667","6500200","三重區"
"241002","090-VK","2018/01/22 20:49:17","新北市三重區仁義街157巷64號","121.49838","25.0817866666667","6500200","三重區"
"241003","091-VK","2018/01/22 20:49:31","新北市三重區五華街141巷58號","121.49355","25.0867883333333","6500200","三重區"
"241020","156-TC","2018/01/22 20:49:26","新北市三重區忠孝路一段101號","121.48945","25.0721766666667","6500200","三重區"
"241005","262-UM","2018/01/22 20:49:34","新北市三重區集賢路87-1號","121.493795","25.0869883333333","6500200","三重區"
"241009","265-UM","2018/01/22 20:49:34","新北市三重區碧華街23號","121.48408","25.0810733333333","6500200","三重區"
"241016","266-UM","2018/01/22 20:49:20","新北市三重區自強路一段220號","121.494016666667","25.06666","6500200","三重區"
"241022","267-UM","2018/01/22 20:49:26","新北市三重區重陽路二段19巷17號","121.488125","25.0623533333333","6500200","三重區"
"241018","268-UM","2018/01/22 20:49:30","新北市三重區正義北路291號","121.494915","25.0705883333333","6500200","三重區"
"241013","270-UM","2018/01/22 20:49:38","新北市三重區仁賢街6號","121.495686666667","25.0748016666667","6500200","三重區"
"241025","271-UM","2018/01/22 20:49:36","新北市三重區貴陽街14號","121.484175","25.061855","6500200","三重區"
"241007","398-BY","2018/01/22 20:49:22","新北市三重區三和路四段109號","121.48626","25.0770266666667","6500200","三重區"
"241004","475-VK","2018/01/22 20:49:28","新北市三重區分子尾街36-1號","121.489483333333","25.081","6500200","三重區"
"241019","478-VK","2018/01/22 20:49:19","新北市三重區大智街190號","121.490511666667","25.070835","6500200","三重區"
"241030","480-VK","2018/01/22 20:49:25","新北市三重區昌隆街26號","121.492051666667","25.0522816666667","6500200","三重區"
"241014","543-UM","2018/01/22 20:49:27","新北市三重區萬全街82號","121.50165","25.0702716666667","6500200","三重區"
"241023","545-UM","2018/01/22 20:49:37","新北市三重區三民街146巷3弄2號","121.481671666667","25.064655","6500200","三重區"
"241001","547-UM","2018/01/22 20:49:32","新北市三重區自強路三段76巷10號","121.486355","25.07421","6500200","三重區"
"241033","557-UM","2018/01/22 20:49:22","新北市三重區光復路二段2號","121.472193333333","25.0533283333333","6500200","三重區"
"241006","AAD-863","2018/01/22 20:49:25","新北市三重區車路頭街139巷14號","121.484266666667","25.0762266666667","6500200","三重區"
"241026","887-TS","2018/01/22 20:43:44","新北市三重區重新路二段36巷14號","121.49967","25.06242","6500200","三重區"
"241012","941-UM","2018/01/22 20:49:21","新北市三重區仁信街27號","121.501313333333","25.07556","6500200","三重區"
"241029","942-UM","2018/01/22 20:49:19","新北市三重區重安街14號","121.4903","25.0581816666667","6500200","三重區"
"235069","4980-A6","2018/01/22 20:49:18","新北市中和區連城路469巷3號","121.483623333333","24.9958133333333","6500300","中和區"
"235026","800-TS","2018/01/22 20:42:12","新北市中和區員山路36巷16號","121.484625","24.9915983333333","6500300","中和區"
"235037","AAC-213","2018/01/22 20:49:37","新北市八里區中山路三段409號","121.368676666667","25.1346566666667","6500300","中和區"
"247022","893-R6","2018/01/22 20:49:20","新北市蘆洲區三民路157-2號","121.470961666667","25.0866266666667","6501400","蘆洲區"
"247020","500-BY","2018/01/22 20:49:27","新北市蘆洲區仁愛街64號","121.47146","25.0940166666667","6501400","蘆洲區"
"247008","341-TH","2018/01/22 20:49:28","新北市蘆洲區集賢路269巷12號","121.481693333333","25.08354","6501400","蘆洲區"
"247010","339-TH","2018/01/22 20:49:25","新北市蘆洲區鷺江街76號","121.476953333333","25.0837933333333","6501400","蘆洲區"
"247002","337-TH","2018/01/22 20:49:24","新北市蘆洲區長安街222號","121.458285","25.0853516666667","6501400","蘆洲區"
"247004","336-TH","2018/01/22 20:49:22","新北市蘆洲區長安街100號","121.461605","25.0808916666667","6501400","蘆洲區"
"247016","057-VK","2018/01/22 20:49:21","新北市蘆洲區中山二路263號","121.469835","25.0796066666667","6501400","蘆洲區"
"247006","056-VK","2018/01/22 20:49:25","新北市蘆洲區和平路121巷8弄4號","121.466968333333","25.0799566666667","6501400","蘆洲區"
"247012","053-VK","2018/01/22 20:49:19","新北市三重區集賢路186號","121.48407","25.0884366666667","6501400","蘆洲區"
"247014","007-UY","2018/01/22 20:49:32","新北市蘆洲區三民路33號","121.475415","25.0830016666667","6501400","蘆洲區"
"247024","002-UY","2018/01/22 20:49:18","新北市蘆洲區長樂路136號","121.462178333333","25.0900783333333","6501400","蘆洲區"
"247018","001-UY","2018/01/22 20:49:29","新北市蘆洲區民權路70號","121.474936666667","25.0873116666667","6501400","蘆洲區"
"222001","KEA-2212","2018/01/22 20:49:31","新北市深坑區北深路三段155巷3號","121.60232","25.0031683333333","6501800","深坑區"
"251005","010-UM","2018/01/22 20:49:28","新北市淡水區水源街二段174號","121.455851666667","25.1757116666667","6501000","淡水區"
"251001","011-UM","2018/01/22 20:49:32","新北市淡水區淡金路218號","121.460565","25.1671616666667","6501000","淡水區"
"251013","179-VK","2018/01/22 20:49:23","新北市淡水區埤島41號","121.451945","25.1976316666667","6501000","淡水區"
"251014","180-VK","2018/01/22 20:49:31","新北市淡水區公埔子32-8號","121.461765","25.2324033333333","6501000","淡水區"
"251015","182-VK","2018/01/22 20:49:24","新北市淡水區興仁路162號","121.451613333333","25.2207216666667","6501000","淡水區"
"251010","413-VK","2018/01/22 20:49:20","新北市淡水區沙崙路126號","121.423481666667","25.1828683333333","6501000","淡水區"
"251012","441-VK","2018/01/22 20:49:16","新北市淡水區興仁路162號","121.45162","25.2206083333333","6501000","淡水區"
"251016","442-VK","2018/01/22 20:49:20","新北市淡水區興仁路165號","121.451515","25.2202416666667","6501000","淡水區"
"251011","650-BX","2018/01/22 20:49:34","新北市淡水區新民街一段13-1號","121.433063333333","25.1845783333333","6501000","淡水區"
"251002","672-BX","2018/01/22 20:49:32","新北市淡水區英專路42號","121.445705","25.1702883333333","6501000","淡水區"
"251003","766-UM","2018/01/22 20:49:21","新北市淡水區中山北路一段207巷36號","121.443135","25.179485","6501000","淡水區"
"252002","178-VK","2018/01/22 20:49:31","新北市三芝區淡金路二段95號","121.504171666667","25.2609483333333","6502100","三芝區"
"242031","AAC-296","2018/01/22 20:49:16","新北市新莊區中正路508巷5弄2號","121.435075","25.0338033333333","6500500","新莊區"
"242029","986-R7","2018/01/22 20:49:34","新北市新莊區昌平街19號","121.454296666667","25.0513666666667","6500500","新莊區"
"242027","612-BX","2018/01/22 20:49:28","新北市新莊區瓊林南路75-37號","121.437881666667","25.0145566666667","6500500","新莊區"
"242039","566-BX","2018/01/22 20:49:28","新北市新莊區瓊林北路1-1號","121.440053333333","25.0228816666667","6500500","新莊區"
"242048","441-UM","2018/01/22 20:49:32","新北市新莊區中正路639號","121.430968333333","25.0314916666667","6500500","新莊區"
"242053","440-UM","2018/01/22 20:49:38","新北市新莊區民安西路189巷10弄24-1號","121.426536666667","25.01502","6500500","新莊區"
"242060","362-BY","2018/01/22 20:49:23","新北市新莊區新樹路699巷102-1號","121.432476666667","24.9996883333333","6500500","新莊區"
"242007","132-UY","2018/01/22 20:49:36","新北市新莊區福壽街56巷6號","121.458585","25.048785","6500500","新莊區"
"242009","173-VK","2018/01/22 20:49:35","新北市新莊區幸福路576號","121.454078333333","25.0493183333333","6500500","新莊區"
"242002","176-VK","2018/01/22 20:49:27","新北市新莊區中港路五守新村37巷1號","121.45466","25.0388133333333","6500500","新莊區"
"242050","347-TH","2018/01/22 20:49:30","新北市新莊區民安西路145號","121.426293333333","25.016805","6500500","新莊區"
"242056","349-TH","2018/01/22 20:49:18","新北市新莊區瓊泰路85號","121.442955","25.02949","6500500","新莊區"
"242011","351-TH","2018/01/22 20:49:27","新北市新莊區新泰路528號","121.442081666667","25.0470133333333","6500500","新莊區"
"221036","130-UY","2018/01/22 20:49:17","新北市汐止區新昌路84號","121.663901666667","25.0688916666667","6501100","汐止區"
"221027","281-BY","2018/01/22 20:49:20","新北市汐止區大同路二段377號","121.657476666667","25.06725","6501100","汐止區"
"221029","298-VK","2018/01/22 20:49:34","新北市汐止區樟樹二路339巷18號","121.64197","25.0719216666667","6501100","汐止區"
"221035","622-UM","2018/01/22 20:49:28","新北市汐止區汐萬路一段312號","121.650673333333","25.0753183333333","6501100","汐止區"
"221038","646-BX","2018/01/22 20:49:29","新北市汐止區汐萬路一段256巷1號","121.652026666667","25.0748316666667","6501100","汐止區"
"221033","647-BX","2018/01/22 20:49:20","新北市汐止區合順街18巷8弄5號","121.620331666667","25.0419516666667","6501100","汐止區"
"220083","286-VK","2018/01/22 20:39:24","新北市板橋區僑中二街106巷2號","121.446031666667","25.00765","6500100","板橋區"
"220089","487-VK","2018/01/22 20:48:43","新北市三重區後埔街61-1號","121.47952","25.04728","6500100","板橋區"
"220070","AAC-253","2018/01/22 20:49:33","新北市八里區中山路三段386號","121.368408333333","25.13601","6500100","板橋區"
