"lineid","car","time","location","longitude","latitude","cityid","cityname"
"222002","659-BX","2018/01/22 20:59:19","新北市深坑區北深路三段93巷11號","121.605453333333","25.0010816666667","6501800","深坑區"
"231059","046-UY","2018/01/22 20:59:33","新北市新店區僑信路100號","121.500001666667","24.947435","6500600","新店區"
"231061","047-UY","2018/01/22 20:59:32","新北市新店區永安街60號","121.518901666667","24.9868916666667","6500600","新店區"
"231060","106-UY","2018/01/22 20:59:34","新北市新店區安康路三段525巷37號","121.481683333333","24.94448","6500600","新店區"
"231051","107-UY","2018/01/22 20:59:35","新北市新店區溪園路245號","121.526843333333","24.982665","6500600","新店區"
"231047","108-UY","2018/01/22 20:59:20","新北市新店區文化路73巷1號","121.544876666667","24.9825","6500600","新店區"
"231052","188-VK","2018/01/22 20:59:22","新北市新店區新烏路一段87巷67號","121.546015","24.9413533333333","6500600","新店區"
"231050","KEA-2219","2018/01/22 20:59:22","新北市新店區三民路77號","121.536008333333","24.9715016666667","6500600","新店區"
"231054","AAD-862","2018/01/22 20:59:39","新北市新店區中正路71號","121.54357","24.96961","6500600","新店區"
"231067","4772-VM","2018/01/22 20:59:37","新北市新店區安德街158號","121.508423333333","24.959295","6500600","新店區"
"231065","512-UM","2018/01/22 20:59:29","新北市新店區安祥路67巷1號","121.484043333333","24.9597916666667","6500600","新店區"
"231064","515-UM","2018/01/22 20:59:30","新北市新店區安民街300號","121.517751666667","24.9737216666667","6500600","新店區"
"231042","616-UM","2018/01/22 20:59:32","新北市新店區寶興路60巷4號","121.549798333333","24.9718783333333","6500600","新店區"
"231040","619-UM","2018/01/22 20:59:25","新北市新店區北新路一段351號","121.541968333333","24.9694833333333","6500600","新店區"
"231063","645-TV","2018/01/22 20:59:33","新北市新店區富貴街6巷1號","121.494481666667","24.9499633333333","6500600","新店區"
"231068","718-UY","2018/01/22 20:59:23","新北市新店區寶元路二段31巷2號","121.546711666667","24.9816983333333","6500600","新店區"
"231062","720-UM","2018/01/22 20:59:34","新北市新店區雙城路65號","121.493145","24.9483566666667","6500600","新店區"
"231043","899-TW","2018/01/22 20:59:37","新北市新店區民族路233號","121.536688333333","24.9756883333333","6500600","新店區"
"231066","AKT-0513","2018/01/22 20:59:32","新北市新店區安民街70巷5號","121.516938333333","24.9663916666667","6500600","新店區"
"241011","013-R5","2018/01/22 20:59:24","新北市三重區秀江街119號","121.499693333333","25.0722266666667","6500200","三重區"
"241028","022-UY","2018/01/22 20:59:35","新北市三重區新北大道一段7號","121.489705","25.0614833333333","6500200","三重區"
"241008","059-VK","2018/01/22 20:59:20","新北市三重區車路頭街135-1號","121.484238333333","25.0759983333333","6500200","三重區"
"241031","061-VK","2018/01/22 20:59:32","新北市三重區重陽路一段113巷2弄2號","121.48755","25.059875","6500200","三重區"
"241015","062-VK","2018/01/22 20:59:31","新北市三重區福德北路67號","121.502051666667","25.0655783333333","6500200","三重區"
"241017","063-VK","2018/01/22 20:59:32","新北市三重區大仁街23號","121.492076666667","25.0646283333333","6500200","三重區"
"241024","065-VK","2018/01/22 20:59:24","新北市三重區國道路一段58巷20號","121.4812","25.0720066666667","6500200","三重區"
"241002","090-VK","2018/01/22 20:59:37","新北市三重區五華街7巷34號","121.496663333333","25.0809483333333","6500200","三重區"
"241003","091-VK","2018/01/22 20:59:31","新北市三重區進安街198號","121.493898333333","25.086015","6500200","三重區"
"241020","156-TC","2018/01/22 20:59:26","新北市三重區忠孝路二段35號","121.485925","25.0710883333333","6500200","三重區"
"241005","262-UM","2018/01/22 20:59:34","新北市三重區五華街141巷13號","121.491528333333","25.08504","6500200","三重區"
"241009","265-UM","2018/01/22 20:59:33","新北市三重區力行路二段151號","121.483596666667","25.077595","6500200","三重區"
"241016","266-UM","2018/01/22 20:59:20","新北市三重區正義北路115號","121.496846666667","25.0658833333333","6500200","三重區"
"241022","267-UM","2018/01/22 20:59:26","新北市三重區重陽路二段19巷17號","121.488135","25.0623566666667","6500200","三重區"
"241018","268-UM","2018/01/22 20:59:30","新北市三重區自強路一段161號","121.493183333333","25.0671866666667","6500200","三重區"
"241013","270-UM","2018/01/22 20:59:18","新北市三重區仁賢街8號","121.495745","25.0747733333333","6500200","三重區"
"241025","271-UM","2018/01/22 20:59:16","新北市三重區貴陽街18-1號","121.484148333333","25.0618866666667","6500200","三重區"
"241007","398-BY","2018/01/22 20:59:22","新北市三重區三和路四段155巷29號","121.484761666667","25.0785666666667","6500200","三重區"
"241004","475-VK","2018/01/22 20:59:28","新北市三重區仁愛街423-1號","121.490385","25.08144","6500200","三重區"
"241019","478-VK","2018/01/22 20:59:39","新北市三重區自強路二段74巷21號","121.48792","25.06989","6500200","三重區"
"241030","480-VK","2018/01/22 20:59:25","新北市三重區環河南路220-8號","121.493368333333","25.0527016666667","6500200","三重區"
"241014","543-UM","2018/01/22 20:59:27","新北市三重區長榮路75號","121.502638333333","25.06907","6500200","三重區"
"241023","545-UM","2018/01/22 20:59:37","新北市三重區忠孝路三段50巷41弄64號","121.482396666667","25.0637483333333","6500200","三重區"
"241001","547-UM","2018/01/22 20:59:32","新北市三重區三和路四段138巷8號","121.488018333333","25.0751716666667","6500200","三重區"
"241033","557-UM","2018/01/22 20:59:22","新北市三重區光復路二段1號","121.472198333333","25.0533266666667","6500200","三重區"
"241006","AAD-863","2018/01/22 20:59:25","新北市三重區永福街46-4號","121.48178","25.0780833333333","6500200","三重區"
"241026","887-TS","2018/01/22 20:59:33","新北市三重區文化南路31號","121.500158333333","25.0618066666667","6500200","三重區"
"241012","941-UM","2018/01/22 20:59:21","新北市三重區仁信街6號","121.501335","25.0755383333333","6500200","三重區"
"241029","942-UM","2018/01/22 20:59:31","新北市三重區正義南路107號","121.49802","25.058515","6500200","三重區"
"235026","800-TS","2018/01/22 20:42:12","新北市中和區員山路36巷16號","121.484625","24.9915983333333","6500300","中和區"
"247022","893-R6","2018/01/22 20:59:20","新北市蘆洲區中正路198號","121.466811666667","25.0881983333333","6501400","蘆洲區"
"247020","500-BY","2018/01/22 20:59:27","新北市蘆洲區民族路371號","121.47103","25.0912433333333","6501400","蘆洲區"
"247008","341-TH","2018/01/22 20:59:28","新北市蘆洲區中山一路293-1號","121.471648333333","25.079125","6501400","蘆洲區"
"247010","339-TH","2018/01/22 20:59:25","新北市蘆洲區鷺江街76號","121.477031666667","25.08379","6501400","蘆洲區"
"247002","337-TH","2018/01/22 20:59:24","新北市蘆洲區永平街22號","121.459025","25.0906866666667","6501400","蘆洲區"
"247004","336-TH","2018/01/22 20:59:22","新北市蘆洲區永安南路二段268號","121.458641666667","25.0807133333333","6501400","蘆洲區"
"247016","057-VK","2018/01/22 20:59:21","新北市蘆洲區中山二路196巷29號","121.469666666667","25.0808783333333","6501400","蘆洲區"
"247006","056-VK","2018/01/22 20:59:31","新北市蘆洲區永安南路二段16巷16號","121.468033333333","25.077585","6501400","蘆洲區"
"247012","053-VK","2018/01/22 20:59:19","新北市蘆洲區民權路6號","121.477076666667","25.0855266666667","6501400","蘆洲區"
"247014","007-UY","2018/01/22 20:59:32","新北市蘆洲區中山二路36巷15號","121.474255","25.0828833333333","6501400","蘆洲區"
"247024","002-UY","2018/01/22 20:59:38","新北市蘆洲區長興路198號","121.46085","25.0869433333333","6501400","蘆洲區"
"247018","001-UY","2018/01/22 20:59:29","新北市蘆洲區民權路144號","121.472825","25.0893","6501400","蘆洲區"
"251004","009-UM","2018/01/22 20:59:25","新北市淡水區中正東路二段141號","121.459605","25.14814","6501000","淡水區"
"251005","010-UM","2018/01/22 20:59:28","新北市淡水區學府路71號","121.448318333333","25.1699233333333","6501000","淡水區"
"251001","011-UM","2018/01/22 20:59:32","新北市淡水區淡金路二段66-1號","121.450465","25.1823933333333","6501000","淡水區"
"251013","179-VK","2018/01/22 20:59:23","新北市淡水區行忠路260號","121.459533333333","25.2004133333333","6501000","淡水區"
"251014","180-VK","2018/01/22 20:59:31","新北市淡水區淡金路五段72號","121.454973333333","25.2335283333333","6501000","淡水區"
"251015","182-VK","2018/01/22 20:59:24","新北市淡水區興仁路162號","121.451603333333","25.22072","6501000","淡水區"
"251010","413-VK","2018/01/22 20:59:20","新北市淡水區中正路一段116-3號","121.4239","25.17871","6501000","淡水區"
"251012","441-VK","2018/01/22 20:59:16","新北市淡水區淡金路五段42號","121.453961666667","25.232965","6501000","淡水區"
"251016","442-VK","2018/01/22 20:59:20","新北市淡水區牛埔子11-1號","121.450145","25.2184416666667","6501000","淡水區"
"251011","650-BX","2018/01/22 20:59:34","新北市淡水區新民街280號","121.435263333333","25.1819916666667","6501000","淡水區"
"251002","672-BX","2018/01/22 20:59:32","新北市淡水區水源街一段117號","121.446543333333","25.1720616666667","6501000","淡水區"
"251003","766-UM","2018/01/22 20:59:21","新北市淡水區新春街125巷5號","121.441438333333","25.182355","6501000","淡水區"
"242029","986-R7","2018/01/22 20:59:34","新北市新莊區中港路441號","121.452641666667","25.048295","6500500","新莊區"
"242048","441-UM","2018/01/22 20:59:32","新北市新莊區新崑路189號","121.434441666667","25.0001266666667","6500500","新莊區"
"242007","132-UY","2018/01/22 20:59:36","新北市新莊區思源路59號","121.459951666667","25.0403183333333","6500500","新莊區"
"221029","298-VK","2018/01/22 20:59:34","新北市汐止區康寧街901號","121.651698333333","25.074985","6501100","汐止區"
"220083","286-VK","2018/01/22 20:39:24","新北市板橋區僑中二街106巷2號","121.446031666667","25.00765","6500100","板橋區"
"220089","487-VK","2018/01/22 20:57:43","新北市五股區中直路17-4號","121.42249","25.111445","6500100","板橋區"
"220070","AAC-253","2018/01/22 20:59:13","新北市林口區太平里180號","121.366691666667","25.1338233333333","6500100","板橋區"
