"lineid","car","time","location","longitude","latitude","cityid","cityname"
"223006","022-BY","2018/01/23 06:39:17","新北市石碇區石崁1號","121.651488333333","25.0026133333333","6501900","石碇區"
"223002","198-BX","2018/01/23 06:39:33","新北市石碇區石碇東街125號","121.659321666667","24.990015","6501900","石碇區"
"223008","406-TH","2018/01/23 06:39:39","新北市石碇區碇坪路一段282號","121.677513333333","24.97796","6501900","石碇區"
"223001","437-BY","2018/01/23 06:39:35","新北市石碇區碇坪路一段186號","121.667695","24.9841566666667","6501900","石碇區"
"223007","661-BX","2018/01/23 06:39:27","新北市石碇區石崁12號","121.655118333333","24.9956016666667","6501900","石碇區"
"227006","282-VK","2018/01/23 06:39:46","新北市雙溪區牡丹里中正路78號","121.862276666667","25.0465","6502500","雙溪區"
"252005","073-UM","2018/01/23 06:39:38","新北市三芝區中山路二段50號","121.503116666667","25.2543583333333","6502100","三芝區"
"220034","461-BY","2018/01/23 06:39:26","新北市板橋區南雅西路一段63巷6號","121.45203","25.0077933333333","6500100","板橋區"
