"lineid","car","time","location","longitude","latitude","cityid","cityname"
"248005","653-BX","2018/01/23 07:36:50","新北市五股區明德路10號","121.433441666667","25.0716766666667","6501500","五股區"
"232006","758-BX","2018/01/23 07:22:44","新北市坪林區北宜路九段8號","121.720028333333","24.9024583333333","6502000","坪林區"
"244002","248-BX","2018/01/23 07:49:49","新北市林口區下福里9-1號","121.315381666667","25.1026433333333","6501700","林口區"
"222004","289-BY","2018/01/23 07:49:31","新北市深坑區文化街45號","121.616826666667","25.00162","6501800","深坑區"
"231007","189-VK","2018/01/23 07:49:27","新北市新店區安華路28-1號","121.519791666667","24.96147","6500600","新店區"
"231009","192-VK","2018/01/23 07:49:42","新北市新店區安華路28-1號","121.519006666667","24.9611383333333","6500600","新店區"
"235001","611-BX","2018/01/23 07:49:43","新北市中和區圓通路367巷4號","121.491446666667","24.9892883333333","6500300","中和區"
"226005","5620-A6","2018/01/23 07:47:18","新北市平溪區嶺腳里嶺腳寮83-2號","121.750815","25.0352366666667","6502400","平溪區"
"226002","7418-A5","2018/01/23 07:49:43","新北市平溪區平湖里坑頭3-1號","121.783791666667","25.02587","6502400","平溪區"
"226003","AGD-0702","2018/01/23 07:45:13","新北市平溪區嶺腳里嶺腳寮83-2號","121.75012","25.0349933333333","6502400","平溪區"
"223006","022-BY","2018/01/23 07:49:42","新北市坪林區北宜路八段558號","121.716911666667","24.9093933333333","6501900","石碇區"
"223002","198-BX","2018/01/23 07:49:33","新北市石碇區月扇湖3號","121.664238333333","24.9571216666667","6501900","石碇區"
"223001","205-TH","2018/01/23 07:45:07","新北市石碇區樟空子10-2號","121.666945","24.9621633333333","6501900","石碇區"
"223008","406-TH","2018/01/23 07:33:20","新北市石碇區靜安路一段337號","121.698898333333","25.01464","6501900","石碇區"
"223001","437-BY","2018/01/23 07:49:36","新北市石碇區樟空子7-2號","121.667698333333","24.9633683333333","6501900","石碇區"
"223004","660-BX","2018/01/23 07:49:38","新北市石碇區楓子林36-3號","121.642346666667","25.00953","6501900","石碇區"
"223005","677-TV","2018/01/23 07:49:40","新北市石碇區楓子林30號","121.642313333333","25.00964","6501900","石碇區"
"227006","282-VK","2018/01/23 07:49:46","新北市雙溪區雙溪里太平路54號","121.864818333333","25.03546","6502500","雙溪區"
"252005","073-UM","2018/01/23 07:49:38","新北市三芝區中正路三段3號","121.503098333333","25.25431","6502100","三芝區"
"252004","249-BX","2018/01/23 07:49:46","新北市三芝區興華里車埕16號","121.502696666667","25.1982683333333","6502100","三芝區"
"252007","AAC-283","2018/01/23 07:49:39","新北市三芝區海景一街47號","121.475226666667","25.2467933333333","6502100","三芝區"
"237001","159-UY","2018/01/23 07:49:40","新北市三峽區大學路77號","121.376106666667","24.9416466666667","6500900","三峽區"
"236008","165-UM","2018/01/23 07:49:33","新北市土城區延吉街327-1號","121.465611666667","24.9842816666667","6501300","土城區"
"236002","339-SR","2018/01/23 07:49:36","新北市土城區龍泉路96號","121.442555","24.9427316666667","6501300","土城區"
"220034","461-BY","2018/01/23 07:49:37","新北市板橋區南門街14號","121.457338333333","25.0088783333333","6500100","板橋區"
