"lineid","car","time","location","longitude","latitude","cityid","cityname"
"248005","653-BX","2018/05/11 08:58:51","新北市五股區明德路12巷6號","121.433446666667","25.07183","6501500","五股區"
"243003","KEA-2215","2018/05/11 08:59:02","新北市泰山區明志路三段427號","121.421026666667","25.0333683333333","6501600","泰山區"
"222005","289-BY","2018/05/11 08:43:34","新北市深坑區土庫尖路75-1號","121.631175","25.01821","6501800","深坑區"
"231059","046-UY","2018/05/11 08:58:57","新北市中和區興南路三段47巷32-6號","121.497053333333","24.9777483333333","6500600","新店區"
"231007","110-UY","2018/05/11 08:58:12","新北市新店區新潭路三段275-1號","121.502175","24.902535","6500600","新店區"
"231009","188-VK","2018/05/11 08:59:01","新北市新店區新烏路三段寶島巷4號","121.551276666667","24.8993716666667","6500600","新店區"
"235001","611-BX","2018/05/11 08:58:58","新北市中和區莒光路183號","121.472705","24.9991166666667","6500300","中和區"
"226001","7418-A5","2018/05/11 08:55:50","新北市平溪區東勢里番仔坑16號","121.754965","24.99125","6502400","平溪區"
"226006","AGD-0702","2018/05/11 08:59:04","新北市平溪區嶺腳里嶺腳寮89號","121.74743","25.03503","6502400","平溪區"
"223001","205-TH","2018/05/11 08:59:00","新北市石碇區北宜路五段坑內巷5號","121.634548333333","24.9532633333333","6501900","石碇區"
"223008","406-TH","2018/05/11 08:58:56","新北市石碇區大湖格21號","121.697026666667","25.01905","6501900","石碇區"
"223001","592-UM","2018/05/11 08:59:03","新北市石碇區北宜路五段火燒樟巷12號","121.625098333333","24.9545016666667","6501900","石碇區"
"223004","660-BX","2018/05/11 08:58:47","新北市石碇區崩山24-2號","121.67973","24.9679083333333","6501900","石碇區"
"223005","677-TV","2018/05/11 08:58:57","新北市石碇區崩山42-2號","121.680238333333","24.9647916666667","6501900","石碇區"
"227005","282-VK","2018/05/11 08:58:50","新北市雙溪區泰平里料角坑13-1號","121.816688333333","24.9732266666667","6502500","雙溪區"
"237001","159-UY","2018/05/11 08:58:58","新北市三峽區大觀路315號","121.373121666667","24.94763","6500900","三峽區"
"236010","165-UM","2018/05/11 08:58:46","新北市土城區明德路一段365-1號","121.453626666667","24.97944","6501300","土城區"
"236004","339-SR","2018/05/11 08:58:54","新北市土城區中央路三段85-6號","121.437871666667","24.967985","6501300","土城區"
"236006","498-BY","2018/05/11 08:58:58","新北市土城區承天路31號","121.437101666667","24.9650933333333","6501300","土城區"
