"lineid","car","time","location","longitude","latitude","cityid","cityname"
"234044","148-BY","2018/05/11 12:49:09","新北市永和區秀朗路二段68號","121.522768333333","25.0016566666667","6500400","永和區"
"234005","207-UY","2018/05/11 12:48:54","新北市永和區文化路128號","121.513005","25.015305","6500400","永和區"
"234078","298-R6","2018/05/11 12:49:04","新北市永和區永利路108號","121.521261666667","25.0034233333333","6500400","永和區"
"234036","336-UY","2018/05/11 12:48:56","新北市永和區環河東路三段54號","121.526813333333","25.00626","6500400","永和區"
"234062","337-UY","2018/05/11 12:49:00","新北市永和區福和路1號","121.526503333333","25.01013","6500400","永和區"
"234084","338-UY","2018/05/11 12:48:52","新北市永和區中正路3-1號","121.513966666667","24.9955016666667","6500400","永和區"
"234068","552-UM","2018/05/11 12:48:59","新北市永和區竹林路96巷4號","121.519208333333","25.0121183333333","6500400","永和區"
"234015","745-BX","2018/05/11 12:49:06","新北市永和區永和路二段297號","121.516045","25.01606","6500400","永和區"
"234028","746-BX","2018/05/11 12:48:50","新北市永和區得和路321號","121.523438333333","24.9995366666667","6500400","永和區"
"234052","KEA-2590","2018/05/11 12:49:09","新北市永和區竹林路153號","121.520368333333","25.0104033333333","6500400","永和區"
"234012","KEA-2591","2018/05/11 12:48:59","新北市永和區保福路二段133巷27號","121.50928","25.0135683333333","6500400","永和區"
"234060","AAD-866","2018/05/11 12:49:06","新北市永和區中正路509巷4號","121.516506666667","25.0070266666667","6500400","永和區"
"234040","862-TW","2018/05/11 12:49:07","新北市永和區永貞路271號","121.51167","25.00482","6500400","永和區"
"234048","863-TW","2018/05/11 12:49:06","新北市永和區福和路1號","121.526856666667","25.0099516666667","6500400","永和區"
"234025","9371-KE","2018/05/11 12:49:06","新北市永和區豫溪街33號","121.51642","25.0099833333333","6500400","永和區"
"234010","9373-KE","2018/05/11 12:48:57","新北市永和區福和路1號","121.5256","25.0093583333333","6500400","永和區"
"248019","225-UY","2018/05/11 12:48:53","新北市五股區中興路二段83巷18號","121.459403333333","25.0759766666667","6501500","五股區"
"234022","9380-KE","2018/05/11 12:48:51","新北市永和區竹林路119巷26號","121.521156666667","25.0117516666667","6500400","永和區"
"234076","969-R7","2018/05/11 12:49:11","新北市中和區安樂路101-3號","121.513503333333","24.99505","6500400","永和區"
"234072","AAC-211","2018/05/11 12:48:54","新北市永和區福和路1號","121.526076666667","25.0097183333333","6500400","永和區"
"234066","AAC-212","2018/05/11 12:48:59","新北市永和區永和路一段22號","121.513011666667","25.0047733333333","6500400","永和區"
"234001","AAC-295","2018/05/11 12:49:08","新北市永和區中正路653號","121.515045","25.0101916666667","6500400","永和區"
"231002","002-UM","2018/05/11 12:49:08","新北市新店區安華路28-1號","121.52003","24.9606033333333","6500600","新店區"
"231001","047-UY","2018/05/11 12:49:00","新北市新店區安華路28-1號","121.519381666667","24.9609283333333","6500600","新店區"
"231005","106-UY","2018/05/11 12:48:58","新北市新店區安華路28-1號","121.519713333333","24.9608733333333","6500600","新店區"
"231010","107-UY","2018/05/11 12:48:53","新北市新店區安一路一段1-1號","121.519455","24.9613","6500600","新店區"
"231012","187-VK","2018/05/11 12:49:07","新北市新店區安一路一段1-1號","121.519543333333","24.9612833333333","6500600","新店區"
"231003","268-BY","2018/05/11 12:49:08","新北市新店區安華路28-1號","121.519435","24.960815","6500600","新店區"
"231016","AAD-862","2018/05/11 12:48:54","新北市新店區安一路一段1-1號","121.519946666667","24.9611366666667","6500600","新店區"
"231036","512-UM","2018/05/11 12:49:04","新北市新店區安一路一段1-1號","121.519248333333","24.9611783333333","6500600","新店區"
"231013","513-UM","2018/05/11 12:48:50","新北市新店區安一路一段1-1號","121.51967","24.9612983333333","6500600","新店區"
"231030","619-UM","2018/05/11 12:49:04","新北市新店區安華路28-1號","121.519623333333","24.961035","6500600","新店區"
"231032","720-UM","2018/05/11 12:49:08","新北市新店區安一路一段1-1號","121.519186666667","24.9612766666667","6500600","新店區"
"231024","AKT-0513","2018/05/11 12:49:10","新北市新店區安華路1-1號","121.519533333333","24.9604866666667","6500600","新店區"
"235027","006-UY","2018/05/11 12:49:09","新北市中和區員山路36巷16-3號","121.48505","24.9912966666667","6500300","中和區"
"235022","151-BY","2018/05/11 12:49:06","新北市中和區員山路36巷16-2號","121.485268333333","24.9916566666667","6500300","中和區"
"235031","255-BX","2018/05/11 12:49:09","新北市中和區中正路1155號","121.481891666667","25.0082483333333","6500300","中和區"
"235025","378-QA","2018/05/11 12:32:44","新北市中和區員山路36巷16-2號","121.485373333333","24.991565","6500300","中和區"
"235001","611-BX","2018/05/11 12:49:10","新北市中和區中山路三段118-1號","121.475193333333","25.0075266666667","6500300","中和區"
"235029","251-BX","2018/05/11 12:49:07","新北市中和區員山路36巷16-3號","121.48502","24.9913333333333","6500300","中和區"
"207002","749-BX","2018/05/11 12:49:04","新北市萬里區雙興里二坪路32號","121.644735","25.16875","6502800","萬里區"
"207001","662-BX","2018/05/11 12:48:56","新北市萬里區萬里里獅頭路23號","121.693226666667","25.1781333333333","6502800","萬里區"
"236006","498-BY","2018/05/11 12:48:51","新北市土城區大安路89號","121.43325","24.9679433333333","6501300","土城區"
"221032","280-BY","2018/05/11 12:49:00","新北市汐止區康寧街901號","121.650901666667","25.0752233333333","6501100","汐止區"
