"lineid","car","time","location","longitude","latitude","cityid","cityname"
"234044","148-BY","2018/05/11 13:29:09","新北市永和區秀朗路二段243號","121.526435","24.999695","6500400","永和區"
"234005","207-UY","2018/05/11 13:28:54","新北市永和區中山路一段193號","121.509156666667","25.0089483333333","6500400","永和區"
"234078","298-R6","2018/05/11 13:29:01","新北市永和區福和路5號","121.52509","25.00874","6500400","永和區"
"234036","336-UY","2018/05/11 13:29:10","新北市永和區民樂街39巷18弄2號","121.528426666667","24.9995433333333","6500400","永和區"
"234062","337-UY","2018/05/11 13:29:00","新北市永和區得和路243巷27號","121.520746666667","25.0011783333333","6500400","永和區"
"234084","338-UY","2018/05/11 13:28:52","新北市永和區成功路一段48巷12號","121.526303333333","25.0042633333333","6500400","永和區"
"234068","552-UM","2018/05/11 13:28:59","新北市永和區警光街5-1號","121.519746666667","25.0094933333333","6500400","永和區"
"234015","745-BX","2018/05/11 13:29:06","新北市永和區永和路二段425巷5號","121.515243333333","25.01779","6500400","永和區"
"234028","746-BX","2018/05/11 13:29:10","新北市永和區民生路53號","121.522765","24.9976533333333","6500400","永和區"
"234052","KEA-2590","2018/05/11 13:29:09","新北市永和區竹林路23號","121.517271666667","25.0146483333333","6500400","永和區"
"234012","KEA-2591","2018/05/11 13:28:59","新北市永和區中山路一段184巷9弄19號","121.508115","25.0089383333333","6500400","永和區"
"234060","AAD-866","2018/05/11 13:29:09","新北市永和區中正路530號","121.517351666667","25.0051816666667","6500400","永和區"
"234040","862-TW","2018/05/11 13:29:08","新北市永和區水源街39巷6號","121.510391666667","25.0040283333333","6500400","永和區"
"234048","863-TW","2018/05/11 13:29:06","新北市永和區保福路二段143號","121.50967","25.014205","6500400","永和區"
"234025","9371-KE","2018/05/11 13:29:06","新北市永和區永和路二段35號","121.514461666667","25.0103316666667","6500400","永和區"
"234010","9373-KE","2018/05/11 13:28:57","新北市永和區信義路25巷53號","121.512325","25.0115533333333","6500400","永和區"
"248019","225-UY","2018/05/11 13:28:33","新北市五股區天乙路114號","121.447155","25.1129133333333","6501500","五股區"
"234022","9380-KE","2018/05/11 13:28:51","新北市永和區環河東路二段8-1號","121.521845","25.0132466666667","6500400","永和區"
"234076","969-R7","2018/05/11 13:28:51","新北市永和區民治街79巷8號","121.51735","24.99784","6500400","永和區"
"234072","AAC-211","2018/05/11 13:28:54","新北市永和區永和路二段98號","121.51503","25.0118133333333","6500400","永和區"
"234066","AAC-212","2018/05/11 13:28:59","新北市永和區保平路174巷2號","121.510858333333","25.0067633333333","6500400","永和區"
"234001","AAC-295","2018/05/11 13:29:08","新北市永和區永和路一段136號","121.514033333333","25.0079416666667","6500400","永和區"
"244004","248-BX","2018/05/11 13:29:10","新北市林口區頂福里23-1號","121.351461666667","25.0839483333333","6501700","林口區"
"231002","002-UM","2018/05/11 13:29:09","新北市新店區環河路62號","121.537118333333","24.9626833333333","6500600","新店區"
"231027","0291-UT","2018/05/11 13:29:07","新北市新店區國校路32-3號","121.537761666667","24.9542083333333","6500600","新店區"
"231028","046-UY","2018/05/11 13:28:55","新北市新店區安華路28-1號","121.519606666667","24.9609333333333","6500600","新店區"
"231001","047-UY","2018/05/11 13:29:00","新北市新店區環河路114巷4-1號","121.536991666667","24.9648316666667","6500600","新店區"
"231005","106-UY","2018/05/11 13:28:58","新北市新店區北新路一段89號","121.538476666667","24.961675","6500600","新店區"
"231010","107-UY","2018/05/11 13:28:53","新北市新店區中央路81號","121.532371666667","24.976665","6500600","新店區"
"231022","108-UY","2018/05/11 13:29:02","新北市新店區永興路88-1號","121.544085","24.9336966666667","6500600","新店區"
"231012","187-VK","2018/05/11 13:29:07","新北市新店區北新路一段62號","121.541246666667","24.9667416666667","6500600","新店區"
"231023","KEA-2219","2018/05/11 13:29:01","新北市新店區新店路13號","121.540291666667","24.952875","6500600","新店區"
"231003","268-BY","2018/05/11 13:29:08","新北市新店區北新路一段91號","121.538946666667","24.961765","6500600","新店區"
"231018","278-BY","2018/05/11 13:28:56","新北市新店區中央路230號","121.52955","24.97265","6500600","新店區"
"231016","AAD-862","2018/05/11 13:28:54","新北市新店區北宜路二段30巷5弄3號","121.548363333333","24.9507633333333","6500600","新店區"
"231038","3712-VJ","2018/05/11 13:28:59","新北市新店區安華路28-1號","121.519315","24.9606233333333","6500600","新店區"
"231037","4716-K9","2018/05/11 13:28:56","新北市新店區安豐路30-1號","121.500695","24.95686","6500600","新店區"
"231025","4715-K9","2018/05/11 13:28:58","新北市新店區中央六街56號","121.527923333333","24.9757483333333","6500600","新店區"
"231036","512-UM","2018/05/11 13:28:44","新北市新店區建業路96號","121.47974","24.9553716666667","6500600","新店區"
"231013","513-UM","2018/05/11 13:29:10","新北市新店區安康路一段46巷4號","121.530585","24.9610416666667","6500600","新店區"
"231026","515-UM","2018/05/11 13:29:09","新北市新店區安康路一段85號","121.529435","24.9614166666667","6500600","新店區"
"231034","616-UM","2018/05/11 13:29:10","新北市新店區安華路28-1號","121.519456666667","24.9605533333333","6500600","新店區"
"231006","617-UM","2018/05/11 13:28:54","新北市新店區安康路一段79巷3號","121.52995","24.9612133333333","6500600","新店區"
"231030","619-UM","2018/05/11 13:29:04","新北市新店區安華路1-1號","121.519613333333","24.9603866666667","6500600","新店區"
"231035","719-UM","2018/05/11 13:29:01","新北市新店區安一路一段1-1號","121.519605","24.9613016666667","6500600","新店區"
"231032","720-UM","2018/05/11 13:29:08","新北市新店區安豐路60-2號","121.498001666667","24.9538016666667","6500600","新店區"
"231029","897-TW","2018/05/11 13:28:56","新北市新店區安華路16號","121.51697","24.9581416666667","6500600","新店區"
"231004","899-TW","2018/05/11 13:28:58","新北市新店區安康路一段214號","121.524036666667","24.9634783333333","6500600","新店區"
"231024","AKT-0513","2018/05/11 13:29:10","新北市新店區中正路154巷12號","121.541978333333","24.97221","6500600","新店區"
"235028","005-UY","2018/05/11 13:29:06","新北市中和區圓通路146-1號","121.498015","24.99573","6500300","中和區"
"235027","006-UY","2018/05/11 13:29:09","新北市中和區連城路347巷2弄1號","121.48814","24.995785","6500300","中和區"
"235011","031-BX","2018/05/11 13:28:58","新北市中和區南山路320巷1號","121.507696666667","24.98657","6500300","中和區"
"235020","096-UM","2018/05/11 13:28:52","新北市中和區新民街85號","121.481428333333","25.007985","6500300","中和區"
"235003","097-UM","2018/05/11 13:28:49","新北市中和區景平路157號","121.5132","24.9924133333333","6500300","中和區"
"235004","150-BY","2018/05/11 13:13:29","新北市中和區中正路305號","121.492695","24.9939766666667","6500300","中和區"
"235022","151-BY","2018/05/11 13:29:06","新北市中和區圓通路369巷133號","121.490546666667","24.9823016666667","6500300","中和區"
"235019","183-VK","2018/05/11 13:28:53","新北市中和區民享街245號","121.471935","24.9962433333333","6500300","中和區"
"235002","185-VK","2018/05/11 13:29:06","新北市中和區立人街14巷40弄4號","121.519098333333","24.995695","6500300","中和區"
"235013","186-VK","2018/05/11 13:28:57","新北市中和區景安路179號","121.505121666667","24.9940783333333","6500300","中和區"
"235031","255-BX","2018/05/11 13:29:09","新北市中和區連城路340巷14弄20號","121.48291","24.9972216666667","6500300","中和區"
"235036","301-VK","2018/05/11 13:29:06","新北市中和區連城路224號","121.491268333333","24.9964733333333","6500300","中和區"
"235007","352-BY","2018/05/11 13:29:05","新北市中和區景平路293-1號","121.507013333333","24.9931233333333","6500300","中和區"
"235032","377-QA","2018/05/11 13:29:00","新北市中和區中正路273-4號","121.49561","24.9934083333333","6500300","中和區"
"235025","378-QA","2018/05/11 13:28:56","新北市中和區民享街88巷3號","121.474361666667","25.0004533333333","6500300","中和區"
"235014","4979-A6","2018/05/11 13:29:00","新北市中和區景新街342號","121.512011666667","24.990385","6500300","中和區"
"235033","4980-A6","2018/05/11 13:28:51","新北市中和區連城路127巷25號","121.497038333333","24.9976683333333","6500300","中和區"
"235006","551-UM","2018/05/11 13:28:55","新北市中和區景平路89號","121.517796666667","24.9919","6500300","中和區"
"235034","558-UM","2018/05/11 13:28:54","新北市中和區南華路17-2號","121.502545","24.9957183333333","6500300","中和區"
"235009","565-BX","2018/05/11 13:29:10","新北市中和區復興路14號","121.505683333333","24.9898816666667","6500300","中和區"
"235018","640-BX","2018/05/11 13:28:51","新北市中和區民享街89巷4弄11號","121.475173333333","25.00128","6500300","中和區"
"235024","647-TV","2018/05/11 13:28:59","新北市中和區員山路162號","121.481353333333","24.999735","6500300","中和區"
"235010","733-UM","2018/05/11 13:29:00","新北市中和區中正路283號","121.493735","24.9938233333333","6500300","中和區"
"235035","783-BX","2018/05/11 13:28:51","新北市中和區環中路120號","121.48206","25.012355","6500300","中和區"
"235026","800-TS","2018/05/11 13:28:52","新北市中和區景平路732號","121.496671666667","25.003905","6500300","中和區"
"235021","801-TS","2018/05/11 13:29:05","新北市中和區民享街97巷21號","121.475406666667","24.9995266666667","6500300","中和區"
"235005","802-TS","2018/05/11 13:29:01","新北市中和區中和路318號","121.509603333333","25.00054","6500300","中和區"
"235016","805-TS","2018/05/11 13:29:07","新北市中和區興南路二段133號","121.505246666667","24.9842066666667","6500300","中和區"
"235017","900-TW","2018/05/11 13:28:59","新北市中和區民享街457號","121.47041","24.9931766666667","6500300","中和區"
"235030","911-UM","2018/05/11 13:29:06","新北市中和區中山路二段120號","121.50272","25.00385","6500300","中和區"
"235015","157-BY","2018/05/11 13:29:00","新北市中和區興南路二段142巷35弄2號","121.502358333333","24.984675","6500300","中和區"
"235001","AAC-213","2018/05/11 13:28:53","新北市中和區景德街95-1號","121.515536666667","24.99117","6500300","中和區"
"235023","AAC-215","2018/05/11 13:28:55","新北市中和區員山路36巷16-3號","121.484958333333","24.9913716666667","6500300","中和區"
"220028","015-TV","2018/05/11 13:28:55","新北市板橋區華東街1-9號","121.448101666667","24.9947833333333","6500100","板橋區"
"220013","072-UY","2018/05/11 13:29:00","新北市板橋區南雅南路二段1-1號","121.454741666667","25.00363","6500100","板橋區"
"220034","073-UY","2018/05/11 13:29:04","新北市板橋區板城路421號","121.448466666667","24.9959833333333","6500100","板橋區"
"247009","341-TH","2018/05/11 13:28:50","新北市五股區中興路三段163號","121.449253333333","25.0807166666667","6501400","蘆洲區"
"247007","056-VK","2018/05/11 13:29:06","新北市五股區中興路三段5號","121.44943","25.079795","6501400","蘆洲區"
"235029","251-BX","2018/05/11 13:29:07","新北市中和區莊敬路49巷20弄18號","121.502533333333","25.0055766666667","6500300","中和區"
"207002","749-BX","2018/05/11 13:29:04","新北市萬里區崁腳里崁腳路166號","121.645038333333","25.155865","6502800","萬里區"
"207001","662-BX","2018/05/11 13:28:56","新北市萬里區野柳里八斗60-1號","121.670061666667","25.20254","6502800","萬里區"
"236006","498-BY","2018/05/11 13:29:11","新北市土城區亞洲路11巷1弄17號","121.435565","24.9718533333333","6501300","土城區"
"221032","280-BY","2018/05/11 13:29:00","新北市汐止區復興路23號","121.656228333333","25.065205","6501100","汐止區"
"220027","145-BY","2018/05/11 13:28:51","新北市板橋區板城路271號","121.450148333333","24.99801","6500100","板橋區"
"220031","286-VK","2018/05/11 13:29:04","新北市板橋區華東街1-9號","121.448253333333","24.994915","6500100","板橋區"
"220029","287-VK","2018/05/11 13:29:04","新北市板橋區華東街1-9號","121.448083333333","24.9949216666667","6500100","板橋區"
"220023","303-R5","2018/05/11 13:29:00","新北市板橋區華東街1-9號","121.448086666667","24.9949216666667","6500100","板橋區"
"220010","305-R5","2018/05/11 13:29:01","新北市板橋區民生路二段120號","121.470335","25.0197066666667","6500100","板橋區"
"220012","486-VK","2018/05/11 13:29:00","新北市板橋區南雅南路二段120號","121.452306666667","24.9996","6500100","板橋區"
"220104","560-BX","2018/05/11 13:28:56","新北市板橋區南雅南路二段1-1號","121.454741666667","25.0037833333333","6500100","板橋區"
"220025","687-BX","2018/05/11 13:28:56","新北市板橋區篤行路一段37號","121.431961666667","24.99401","6500100","板橋區"
"220002","741-BX","2018/05/11 13:28:53","新北市板橋區華東街1-9號","121.448153333333","24.9948733333333","6500100","板橋區"
"220021","985-R7","2018/05/11 13:29:07","新北市板橋區華東街1-10號","121.448363333333","24.9949633333333","6500100","板橋區"
