"lineid","car","time","location","longitude","latitude","cityid","cityname"
"234062","337-UY","2018/05/11 14:39:00","新北市永和區福和路41-1號","121.523465","25.008085","6500400","永和區"
"234028","746-BX","2018/05/11 14:39:10","新北市永和區民權路51號","121.519978333333","24.9970216666667","6500400","永和區"
"234052","KEA-2590","2018/05/11 14:39:09","新北市永和區環河東路一段80號","121.519585","25.01653","6500400","永和區"
"234060","AAD-866","2018/05/11 14:39:06","新北市永和區福和路5號","121.525138333333","25.0087333333333","6500400","永和區"
"234025","9371-KE","2018/05/11 14:39:06","新北市永和區中和路501巷2號","121.510595","25.0024966666667","6500400","永和區"
"234072","AAC-211","2018/05/11 14:39:03","新北市永和區環河東路二段26號","121.522496666667","25.0128216666667","6500400","永和區"
"234001","AAC-295","2018/05/11 14:39:08","新北市永和區中正路620號","121.517021666667","25.00789","6500400","永和區"
"244004","248-BX","2018/05/11 14:39:10","新北市林口區竹林路267號","121.389591666667","25.08083","6501700","林口區"
"231002","002-UM","2018/05/11 14:39:09","新北市新店區中正路468號","121.534001666667","24.9794666666667","6500600","新店區"
"231027","0291-UT","2018/05/11 14:38:53","新北市新店區中正路148號","121.541665","24.9716233333333","6500600","新店區"
"231028","046-UY","2018/05/11 14:38:55","新北市新店區安德街78號","121.510163333333","24.9615516666667","6500600","新店區"
"231001","047-UY","2018/05/11 14:39:00","新北市新店區中正路2號","121.545903333333","24.96928","6500600","新店區"
"231005","106-UY","2018/05/11 14:38:58","新北市新店區復興路94號","121.533035","24.9884683333333","6500600","新店區"
"231022","108-UY","2018/05/11 14:39:02","新北市新店區永福路30-1號","121.54871","24.9289883333333","6500600","新店區"
"231012","187-VK","2018/05/11 14:39:07","新北市新店區寶宏路3-3號","121.54918","24.9766666666667","6500600","新店區"
"231023","KEA-2219","2018/05/11 14:39:01","新北市新店區檳榔路29巷2號","121.541851666667","24.963625","6500600","新店區"
"231003","268-BY","2018/05/11 14:39:08","新北市新店區中興路一段292號","121.545936666667","24.969235","6500600","新店區"
"231018","278-BY","2018/05/11 14:38:56","新北市新店區中央路153號","121.529956666667","24.973165","6500600","新店區"
"231016","AAD-862","2018/05/11 14:38:54","新北市新店區北宜路三段335巷15號","121.61008","24.95908","6500600","新店區"
"231038","3712-VJ","2018/05/11 14:38:59","新北市新店區安華路28-1號","121.519541666667","24.9609583333333","6500600","新店區"
"231037","4716-K9","2018/05/11 14:38:56","新北市新店區柴埕路52巷13號","121.511648333333","24.9651433333333","6500600","新店區"
"231036","512-UM","2018/05/11 14:39:04","新北市新店區安祥路106巷137號","121.473271666667","24.9586016666667","6500600","新店區"
"231013","513-UM","2018/05/11 14:39:10","新北市新店區北新路二段171巷9號","121.54218","24.9764383333333","6500600","新店區"
"231034","616-UM","2018/05/11 14:39:10","新北市新店區黎明路53巷1號","121.502295","24.94881","6500600","新店區"
"231006","617-UM","2018/05/11 14:38:54","新北市新店區北宜路二段103號","121.55016","24.9524266666667","6500600","新店區"
"231030","619-UM","2018/05/11 14:39:04","新北市新店區安民街189-7號","121.517058333333","24.9713866666667","6500600","新店區"
"231035","719-UM","2018/05/11 14:39:01","新北市新店區安光路13號","121.513428333333","24.9638866666667","6500600","新店區"
"231032","720-UM","2018/05/11 14:39:08","新北市新店區安德街60巷5號","121.509961666667","24.9629316666667","6500600","新店區"
"231029","897-TW","2018/05/11 14:38:56","新北市新店區安康路三段539-1號","121.479816666667","24.94708","6500600","新店區"
"231004","899-TW","2018/05/11 14:38:58","新北市新店區中正路271號","121.537755","24.97421","6500600","新店區"
"231024","AKT-0513","2018/05/11 14:39:10","新北市新店區力行路14巷12號","121.539295","24.9651666666667","6500600","新店區"
"235028","005-UY","2018/05/11 14:39:06","新北市中和區南華路17-6號","121.502501666667","24.9958783333333","6500300","中和區"
"235027","006-UY","2018/05/11 14:39:09","新北市中和區連城路231號","121.493951666667","24.9973616666667","6500300","中和區"
"235011","031-BX","2018/05/11 14:38:58","新北市中和區和平街10號","121.510085","24.990035","6500300","中和區"
"235020","096-UM","2018/05/11 14:38:52","新北市中和區員山路581巷31弄1號","121.477271666667","25.010315","6500300","中和區"
"235003","097-UM","2018/05/11 14:39:09","新北市中和區景德街1號","121.519101666667","24.9914033333333","6500300","中和區"
"235004","150-BY","2018/05/11 14:39:09","新北市中和區宜安路11巷25號","121.512486666667","24.9947766666667","6500300","中和區"
"235022","151-BY","2018/05/11 14:39:05","新北市中和區員山路132巷11號","121.481933333333","24.9963216666667","6500300","中和區"
"235019","183-VK","2018/05/11 14:38:53","新北市中和區民生街12巷2號","121.470666666667","25.005635","6500300","中和區"
"235002","185-VK","2018/05/11 14:39:06","新北市中和區自強路3號","121.520001666667","24.9938233333333","6500300","中和區"
"235013","186-VK","2018/05/11 14:38:57","新北市中和區安和路27號","121.510568333333","24.99436","6500300","中和區"
"235031","255-BX","2018/05/11 14:39:09","新北市中和區新生街186巷1弄7-3號","121.483448333333","24.9993466666667","6500300","中和區"
"235008","293-VK","2018/05/11 14:39:08","新北市中和區捷運路6號","121.510133333333","24.9894516666667","6500300","中和區"
"235036","301-VK","2018/05/11 14:39:06","新北市中和區保平路340巷18號","121.506098333333","25.0046","6500300","中和區"
"235007","352-BY","2018/05/11 14:39:05","新北市中和區景平路530號","121.502865","24.99454","6500300","中和區"
"235032","377-QA","2018/05/11 14:39:00","新北市中和區景平路736巷5弄11號","121.497725","25.00358","6500300","中和區"
"235025","378-QA","2018/05/11 14:38:56","新北市中和區新生街148巷19弄6-2號","121.482535","25.00043","6500300","中和區"
"235014","4979-A6","2018/05/11 14:39:00","新北市中和區中正路2-1號","121.503215","24.9935466666667","6500300","中和區"
"235006","551-UM","2018/05/11 14:38:55","新北市中和區保健路2巷26號","121.507133333333","24.9976016666667","6500300","中和區"
"235034","558-UM","2018/05/11 14:38:54","新北市中和區連勝街45號","121.498105","24.997605","6500300","中和區"
"235009","565-BX","2018/05/11 14:39:10","新北市中和區景平路290號","121.513225","24.992755","6500300","中和區"
"235018","640-BX","2018/05/11 14:39:11","新北市中和區莒光路149號","121.472628333333","25.0011666666667","6500300","中和區"
"235024","647-TV","2018/05/11 14:38:58","新北市中和區中山路二段523巷41號","121.482201666667","25.0031633333333","6500300","中和區"
"235010","733-UM","2018/05/11 14:39:00","新北市中和區四維街8號","121.513306666667","24.9872933333333","6500300","中和區"
"235035","783-BX","2018/05/11 14:39:11","新北市中和區連城路314號","121.483615","24.9961433333333","6500300","中和區"
"235026","800-TS","2018/05/11 14:38:52","新北市中和區建六路67巷2號","121.486893333333","25.002465","6500300","中和區"
"235021","801-TS","2018/05/11 14:39:05","新北市中和區員山路238號","121.481391666667","25.0012766666667","6500300","中和區"
"235005","802-TS","2018/05/11 14:39:01","新北市中和區中和路350巷12號","121.510881666667","25.0003166666667","6500300","中和區"
"235016","805-TS","2018/05/11 14:39:07","新北市中和區華新街143巷72號","121.506375","24.9791833333333","6500300","中和區"
"235012","896-TW","2018/05/11 14:39:13","新北市中和區景新街487號","121.513695","24.9874616666667","6500300","中和區"
"235017","900-TW","2018/05/11 14:38:59","新北市中和區民德路137號","121.46888","25.0005816666667","6500300","中和區"
"235030","911-UM","2018/05/11 14:39:06","新北市中和區景新街133號","121.505845","24.9971566666667","6500300","中和區"
"235015","157-BY","2018/05/11 14:39:00","新北市中和區中興街180巷45號","121.498185","24.9896533333333","6500300","中和區"
"235001","AAC-213","2018/05/11 14:38:56","新北市中和區成功路6號","121.526196666667","24.9939133333333","6500300","中和區"
"235023","AAC-215","2018/05/11 14:38:55","新北市中和區圓通路305巷5弄1號","121.493495","24.9903516666667","6500300","中和區"
"220028","015-TV","2018/05/11 14:39:10","新北市板橋區大觀路二段59巷31號","121.447733333333","25.0024383333333","6500100","板橋區"
"220013","072-UY","2018/05/11 14:39:00","新北市板橋區國泰街35號","121.468581666667","25.00671","6500100","板橋區"
"220034","073-UY","2018/05/11 14:39:03","新北市板橋區中正路1巷4號","121.455708333333","25.0119433333333","6500100","板橋區"
"220105","075-UY","2018/05/11 14:39:10","新北市板橋區文化路二段604號","121.477043333333","25.0349783333333","6500100","板橋區"
"220017","AAD-861","2018/05/11 14:38:55","新北市板橋區南雅南路二段22號","121.454421666667","25.003165","6500100","板橋區"
"247023","893-R6","2018/05/11 14:39:01","新北市蘆洲區中山二路222巷20號","121.469321666667","25.08046","6501400","蘆洲區"
"247013","546-UM","2018/05/11 14:38:52","新北市蘆洲區成功路115號","121.47258","25.08202","6501400","蘆洲區"
"247009","341-TH","2018/05/11 14:39:10","新北市蘆洲區信義路222巷45號","121.480385","25.0855983333333","6501400","蘆洲區"
"247011","339-TH","2018/05/11 14:38:57","新北市蘆洲區中興街15巷17號","121.480088333333","25.08755","6501400","蘆洲區"
"247005","336-TH","2018/05/11 14:38:54","新北市蘆洲區中華街53號","121.46262","25.08107","6501400","蘆洲區"
"247007","056-VK","2018/05/11 14:39:06","新北市蘆洲區信義路32-1號","121.474275","25.0792983333333","6501400","蘆洲區"
"247015","007-UY","2018/05/11 14:39:01","新北市蘆洲區正和街96巷10號","121.467921666667","25.0809733333333","6501400","蘆洲區"
"247001","002-UY","2018/05/11 14:38:56","新北市蘆洲區長安街274巷3號","121.457733333333","25.0871583333333","6501400","蘆洲區"
"247019","001-UY","2018/05/11 14:39:05","新北市蘆洲區民權路180號","121.471803333333","25.09043","6501400","蘆洲區"
"235029","251-BX","2018/05/11 14:39:10","新北市中和區福祥路58號","121.499355","25.004775","6500300","中和區"
"207002","749-BX","2018/05/11 14:39:04","新北市萬里區崁腳里崁腳路73號","121.647603333333","25.159615","6502800","萬里區"
"207001","662-BX","2018/05/11 14:38:16","新北市萬里區雙興里豐稟路22-2號","121.641576666667","25.1825866666667","6502800","萬里區"
"236067","105-UM","2018/05/11 14:38:59","新北市土城區永豐路308號","121.472346666667","24.97759","6501300","土城區"
"236040","107-UM","2018/05/11 14:39:07","新北市土城區裕民路55巷1號","121.448985","24.98805","6501300","土城區"
"236077","166-UM","2018/05/11 14:39:10","新北市土城區中央路四段67巷60號","121.417986666667","24.9565766666667","6501300","土城區"
"236029","253-BX","2018/05/11 14:39:02","新北市土城區中華路二段187號","121.43838","24.974695","6501300","土城區"
"236024","269-VK","2018/05/11 14:39:11","新北市土城區和平路12號","121.442908333333","24.973895","6501300","土城區"
"236013","270-VK","2018/05/11 14:38:59","新北市土城區清水路207巷7號","121.460033333333","24.9821466666667","6501300","土城區"
"236032","271-VK","2018/05/11 14:38:57","新北市土城區青山路3巷1號","121.461035","24.9769066666667","6501300","土城區"
"236006","498-BY","2018/05/11 14:38:52","新北市土城區城林路6巷80號","121.438611666667","24.9797833333333","6501300","土城區"
"236016","752-BX","2018/05/11 14:39:10","新北市土城區明德路一段38號","121.465223333333","24.98451","6501300","土城區"
"236057","912-UM","2018/05/11 14:39:05","新北市土城區中央路三段283號","121.426363333333","24.963275","6501300","土城區"
"236045","913-UM","2018/05/11 14:39:01","新北市土城區明德路一段101號","121.465641666667","24.982785","6501300","土城區"
"236060","915-UM","2018/05/11 14:38:57","新北市土城區延和路125巷77號","121.469163333333","24.9911016666667","6501300","土城區"
"236054","AAC-216","2018/05/11 14:38:57","新北市土城區中華路一段45號","121.445758333333","24.988385","6501300","土城區"
"220027","145-BY","2018/05/11 14:39:11","新北市板橋區建國街97號","121.459763333333","25.01743","6500100","板橋區"
"220050","245-BX","2018/05/11 14:39:03","新北市板橋區莒光路196巷29號","121.472885","25.0223883333333","6500100","板橋區"
"220040","267-BY","2018/05/11 14:39:04","新北市板橋區懷德街139巷20弄10號","121.480215","25.0306533333333","6500100","板橋區"
"220004","276-BY","2018/05/11 14:39:03","新北市板橋區四川路二段47巷2弄1號","121.454096666667","24.9949316666667","6500100","板橋區"
"220020","277-BY","2018/05/11 14:38:58","新北市板橋區金門街215巷2弄1號","121.432525","24.9890066666667","6500100","板橋區"
"220043","285-UM","2018/05/11 14:39:12","新北市板橋區宏國路97-3號","121.469836666667","25.0323166666667","6500100","板橋區"
"220001","285-VK","2018/05/11 14:38:52","新北市板橋區中山路二段148巷30號","121.47717","25.0160716666667","6500100","板橋區"
"220031","286-VK","2018/05/11 14:39:05","新北市板橋區僑中二街12巷18號","121.44606","25.0108116666667","6500100","板橋區"
"220029","287-VK","2018/05/11 14:39:04","新北市板橋區大觀路一段28巷88號","121.44979","25.0110283333333","6500100","板橋區"
"220039","288-VK","2018/05/11 14:39:10","新北市板橋區龍泉街54巷8弄16號","121.457638333333","25.026975","6500100","板橋區"
"220009","293-UM","2018/05/11 14:39:02","新北市板橋區板新路200巷16號","121.468846666667","25.01646","6500100","板橋區"
"220032","296-UM","2018/05/11 14:38:59","新北市板橋區溪崑二街102號","121.426426666667","24.9888533333333","6500100","板橋區"
"220023","303-R5","2018/05/11 14:39:09","新北市板橋區大勇街77號","121.452958333333","25.0166016666667","6500100","板橋區"
"220010","305-R5","2018/05/11 14:39:00","新北市板橋區三民路二段35巷27號","121.481056666667","25.0180466666667","6500100","板橋區"
"220041","307-R5","2018/05/11 14:39:07","新北市板橋區文化路一段387巷18號","121.46633","25.0222366666667","6500100","板橋區"
"220047","317-R6","2018/05/11 14:39:03","新北市板橋區裕民街93巷4號","121.460418333333","25.027755","6500100","板橋區"
"220012","486-VK","2018/05/11 14:39:03","新北市板橋區民族路47號","121.463086666667","25.009685","6500100","板橋區"
"220037","491-VK","2018/05/11 14:39:05","新北市板橋區文化路二段410巷2號","121.474023333333","25.0317366666667","6500100","板橋區"
"220104","560-BX","2018/05/11 14:38:56","新北市板橋區金華街83號","121.45803","25.0208016666667","6500100","板橋區"
"220052","561-BX","2018/05/11 14:39:13","新北市板橋區文化路一段288號","121.467426666667","25.02146","6500100","板橋區"
"220019","568-UM","2018/05/11 14:38:56","新北市板橋區信義路279巷21號","121.464298333333","24.9902366666667","6500100","板橋區"
"220011","609-BX","2018/05/11 14:38:59","新北市板橋區三民路一段31巷39-1號","121.480601666667","25.0232483333333","6500100","板橋區"
"220003","630-UY","2018/05/11 14:39:11","新北市板橋區國慶路153號","121.461545","24.996045","6500100","板橋區"
"220005","686-BX","2018/05/11 14:39:04","新北市板橋區和平路安樂巷27號","121.461665","24.99356","6500100","板橋區"
"220025","687-BX","2018/05/11 14:38:56","新北市板橋區僑中二街10巷1號","121.446981666667","25.0108516666667","6500100","板橋區"
"220042","689-BX","2018/05/11 14:38:57","新北市板橋區新海路393號","121.458816666667","25.0264616666667","6500100","板橋區"
"220002","741-BX","2018/05/11 14:38:59","新北市板橋區忠孝路忠義巷15弄3號","121.465828333333","25.0038833333333","6500100","板橋區"
"220051","KEA-2699","2018/05/11 14:39:03","新北市板橋區雙十路二段46巷20號","121.476213333333","25.0281383333333","6500100","板橋區"
"220030","806-UM","2018/05/11 14:39:11","新北市板橋區大觀路三段236-10號","121.429398333333","24.9922","6500100","板橋區"
"220014","829-TW","2018/05/11 14:39:00","新北市板橋區漢生東路279巷8號","121.471833333333","25.0092266666667","6500100","板橋區"
"220016","830-TW","2018/05/11 14:39:08","新北市板橋區中山路二段412巷12號","121.48331","25.0203066666667","6500100","板橋區"
"220045","831-TW","2018/05/11 14:39:06","新北市板橋區民生路二段234巷23號","121.468961666667","25.0227666666667","6500100","板橋區"
"220038","833-TW","2018/05/11 14:39:03","新北市板橋區英士路17號","121.46173","25.02504","6500100","板橋區"
"220022","895-R6","2018/05/11 14:38:59","新北市板橋區文化路一段46巷19號","121.460323333333","25.0115383333333","6500100","板橋區"
"220021","985-R7","2018/05/11 14:39:07","新北市板橋區大仁街51號","121.454621666667","25.0164583333333","6500100","板橋區"
"220046","AAC-210","2018/05/11 14:39:08","新北市板橋區漢生西路89巷2弄12-2號","121.461818333333","25.0195766666667","6500100","板橋區"
"220018","AAC-253","2018/05/11 14:38:57","新北市板橋區民族路304號","121.470643333333","25.006715","6500100","板橋區"
