"lineid","car","time","location","longitude","latitude","cityid","cityname"
"248018","225-UY","2018/05/11 15:29:11","新北市五股區中興路二段83巷26-6號","121.460135","25.0752466666667","6501500","五股區"
"234077","969-R7","2018/05/11 15:43:48","新北市永和區福和路1號","121.52643","25.0097983333333","6500400","永和區"
"231046","107-UY","2018/05/11 15:49:11","新北市新店區安一路一段1-1號","121.519701666667","24.9612066666667","6500600","新店區"
"231022","108-UY","2018/05/11 15:49:02","新北市新店區新烏路一段85巷6-6號","121.549706666667","24.942685","6500600","新店區"
"231012","187-VK","2018/05/11 15:49:07","新北市新店區文化路53號","121.544363333333","24.981495","6500600","新店區"
"231023","KEA-2219","2018/05/11 15:49:01","新北市新店區中興路一段199號","121.543405","24.9653","6500600","新店區"
"231003","268-BY","2018/05/11 15:49:08","新北市新店區寶興路60巷4號","121.549845","24.9719016666667","6500600","新店區"
"231018","278-BY","2018/05/11 15:48:55","新北市新店區中正路663巷7弄15號","121.532958333333","24.990075","6500600","新店區"
"231016","AAD-862","2018/05/11 15:49:14","新北市新店區中華路83巷4弄10號","121.538695","24.96849","6500600","新店區"
"231038","3712-VJ","2018/05/11 15:48:59","新北市新店區安康路二段242巷2號","121.508946666667","24.9594883333333","6500600","新店區"
"231037","4716-K9","2018/05/11 15:48:56","新北市新店區安興路65巷14號","121.515923333333","24.9729016666667","6500600","新店區"
"231013","513-UM","2018/05/11 15:49:07","新北市新店區永業路81巷3弄16號","121.530465","24.9495083333333","6500600","新店區"
"231026","515-UM","2018/05/11 15:48:58","新北市新店區中正路347號","121.535405","24.975905","6500600","新店區"
"231034","616-UM","2018/05/11 15:49:10","新北市新店區吉祥街6巷1號","121.497641666667","24.9456466666667","6500600","新店區"
"231030","619-UM","2018/05/11 15:49:01","新北市新店區永安街60號","121.518958333333","24.98691","6500600","新店區"
"231039","718-UY","2018/05/11 15:49:00","新北市新店區中興路二段137號","121.546853333333","24.9732566666667","6500600","新店區"
"231035","719-UM","2018/05/11 15:49:01","新北市新店區安興路81號","121.515435","24.9752716666667","6500600","新店區"
"231032","720-UM","2018/05/11 15:49:08","新北市新店區雙城路150號","121.493896666667","24.9455883333333","6500600","新店區"
"231029","897-TW","2018/05/11 15:48:56","新北市新店區安忠路205巷8號","121.509193333333","24.9546183333333","6500600","新店區"
"241011","013-R5","2018/05/11 15:49:05","新北市三重區文化北路246號","121.497448333333","25.069905","6500200","三重區"
"241008","059-VK","2018/05/11 15:49:10","新北市三重區重新路四段121號","121.485033333333","25.051905","6500200","三重區"
"241015","062-VK","2018/05/11 15:48:52","新北市三重區重新路四段121號","121.485146666667","25.0519766666667","6500200","三重區"
"241017","063-VK","2018/05/11 15:48:58","新北市三重區大仁街5號","121.491688333333","25.0637783333333","6500200","三重區"
"241026","066-VK","2018/05/11 15:49:05","新北市三重區泉州街96巷14號","121.495555","25.05411","6500200","三重區"
"241005","262-UM","2018/05/11 15:49:04","新北市三重區泉州街84巷18號","121.49583","25.05426","6500200","三重區"
"241028","265-UM","2018/05/11 15:48:59","新北市三重區中正南路48號","121.493951666667","25.0599783333333","6500200","三重區"
"241016","266-UM","2018/05/11 15:49:09","新北市三重區重新路四段121號","121.485146666667","25.0520116666667","6500200","三重區"
"241022","267-UM","2018/05/11 15:49:09","新北市三重區重新路四段121號","121.48488","25.0517233333333","6500200","三重區"
"241013","270-UM","2018/05/11 15:49:00","新北市三重區六張街21號","121.495281666667","25.0706116666667","6500200","三重區"
"241007","398-BY","2018/05/11 15:49:11","新北市三重區重新路四段121號","121.484718333333","25.0514533333333","6500200","三重區"
"241020","413-TH","2018/05/11 15:49:12","新北市三重區忠孝路二段63號","121.484916666667","25.0705183333333","6500200","三重區"
"241014","543-UM","2018/05/11 15:48:57","新北市三重區重新路四段121號","121.485098333333","25.0519616666667","6500200","三重區"
"241023","545-UM","2018/05/11 15:49:08","新北市三重區名源街61巷17號","121.480735","25.0593716666667","6500200","三重區"
"241006","AAD-863","2018/05/11 15:49:00","新北市三重區成功路108巷8號","121.486635","25.050695","6500200","三重區"
"241012","941-UM","2018/05/11 15:49:08","新北市三重區長壽街1-1號","121.49826","25.06749","6500200","三重區"
"241029","942-UM","2018/05/11 15:48:59","新北市三重區大同南路242號","121.496886666667","25.05595","6500200","三重區"
"241033","AAC-255","2018/05/11 15:49:08","新北市三重區光復路一段66號","121.471973333333","25.0490916666667","6500200","三重區"
"235033","4980-A6","2018/05/11 15:49:11","新北市中和區中正路637巷18弄20號","121.484311666667","24.9950833333333","6500300","中和區"
"235046","733-UM","2018/05/11 15:25:03","新北市中和區員山路36巷13號","121.484165","24.9908283333333","6500300","中和區"
"235026","800-TS","2018/05/11 15:49:12","新北市中和區永和路209號","121.490425","25.00774","6500300","中和區"
"235023","AAC-215","2018/05/11 15:48:55","新北市中和區員山路72號","121.48087","24.9935983333333","6500300","中和區"
"224007","275-VK","2018/05/11 15:48:57","新北市瑞芳區大寮路356-1號","121.784605","25.1031266666667","6501200","瑞芳區"
"227011","642-TC","2018/05/11 15:49:10","新北市雙溪區牡丹里中正路61巷16號","121.866081666667","25.0425616666667","6502500","雙溪區"
"227003","400-TW","2018/05/11 15:48:58","新北市雙溪區平林里外平林44號","121.852925","25.0363466666667","6502500","雙溪區"
"236067","105-UM","2018/05/11 15:48:59","新北市土城區中山路67號","121.426655","24.9652416666667","6501300","土城區"
"236057","912-UM","2018/05/11 15:49:05","新北市土城區中央路一段330號","121.443211666667","24.9814383333333","6501300","土城區"
"236045","913-UM","2018/05/11 15:49:01","新北市土城區清水路144號","121.4588","24.981525","6501300","土城區"
"236054","AAC-216","2018/05/11 15:49:12","新北市土城區中華路一段236號","121.439855","24.9799216666667","6501300","土城區"
