"lineid","car","time","location","longitude","latitude","cityid","cityname"
"231046","107-UY","2018/05/11 16:19:11","新北市新店區灣潭路3-2號","121.538276666667","24.95079","6500600","新店區"
"231018","278-BY","2018/05/11 16:19:15","新北市新店區中正路700巷82號","121.535916666667","24.9932233333333","6500600","新店區"
"241011","013-R5","2018/05/11 16:19:05","新北市三重區龍濱路285號","121.501123333333","25.073355","6500200","三重區"
"241008","059-VK","2018/05/11 16:19:10","新北市三重區永福街179號","121.479006666667","25.075325","6500200","三重區"
"241009","060-VK","2018/05/11 16:19:04","新北市三重區溪尾街196巷27號","121.487383333333","25.0807166666667","6500200","三重區"
"241031","061-VK","2018/05/11 16:19:00","新北市三重區成功路165號","121.486355","25.0524133333333","6500200","三重區"
"241015","062-VK","2018/05/11 16:19:12","新北市三重區福德北路77號","121.501915","25.0658216666667","6500200","三重區"
"241017","063-VK","2018/05/11 16:18:58","新北市三重區大同北路91號","121.494788333333","25.063635","6500200","三重區"
"241024","065-VK","2018/05/11 16:19:07","新北市三重區中正北路145巷1弄2號","121.483141666667","25.06755","6500200","三重區"
"241026","066-VK","2018/05/11 16:19:05","新北市三重區正義南路60-4號","121.498345","25.0604133333333","6500200","三重區"
"241002","090-VK","2018/05/11 16:19:01","新北市三重區仁義街91號","121.499756666667","25.0796116666667","6500200","三重區"
"241003","091-VK","2018/05/11 16:19:06","新北市三重區五華街65號","121.492661666667","25.0825816666667","6500200","三重區"
"241005","262-UM","2018/05/11 16:19:04","新北市三重區溪尾街305號","121.487503333333","25.0837616666667","6500200","三重區"
"241028","265-UM","2018/05/11 16:18:59","新北市三重區正義南路181巷1號","121.499075","25.0572116666667","6500200","三重區"
"241016","266-UM","2018/05/11 16:19:09","新北市三重區大仁街88號","121.492836666667","25.0655033333333","6500200","三重區"
"241022","267-UM","2018/05/11 16:19:09","新北市三重區新北大道一段7號","121.489906666667","25.0612833333333","6500200","三重區"
"241018","268-UM","2018/05/11 16:19:12","新北市三重區重陽路三段43號","121.489468333333","25.0670333333333","6500200","三重區"
"241032","269-UM","2018/05/11 16:19:06","新北市三重區三陽路100巷3弄13號","121.483005","25.05811","6500200","三重區"
"241013","270-UM","2018/05/11 16:19:08","新北市三重區仁愛街63號","121.496138333333","25.07266","6500200","三重區"
"241025","271-UM","2018/05/11 16:19:00","新北市三重區中正北路560巷100弄2號","121.472563333333","25.0682383333333","6500200","三重區"
"241007","398-BY","2018/05/11 16:18:51","新北市三重區仁美街83號","121.486125","25.079455","6500200","三重區"
"241020","413-TH","2018/05/11 16:18:52","新北市三重區後竹圍街260號","121.483913333333","25.0712333333333","6500200","三重區"
"241004","475-VK","2018/05/11 16:19:08","新北市三重區五華街74號","121.493496666667","25.0819633333333","6500200","三重區"
"241014","543-UM","2018/05/11 16:18:57","新北市三重區河邊北街100巷17號","121.503183333333","25.0702816666667","6500200","三重區"
"241023","545-UM","2018/05/11 16:19:08","新北市三重區忠孝路二段138號","121.482573333333","25.068245","6500200","三重區"
"241001","547-UM","2018/05/11 16:19:10","新北市三重區自強路四段87號","121.491071666667","25.0792833333333","6500200","三重區"
"241006","AAD-863","2018/05/11 16:19:07","新北市三重區永福街46巷31弄23號","121.481601666667","25.0774683333333","6500200","三重區"
"241030","743-BX","2018/05/11 16:18:57","新北市三重區重新路四段121號","121.484756666667","25.052365","6500200","三重區"
"241019","887-TS","2018/05/11 16:19:09","新北市三重區重陽路三段95號","121.490331666667","25.0678766666667","6500200","三重區"
"241012","941-UM","2018/05/11 16:19:07","新北市三重區河邊北街317號","121.502461666667","25.0749066666667","6500200","三重區"
"241029","942-UM","2018/05/11 16:18:59","新北市三重區環河南路220-8號","121.493385","25.052665","6500200","三重區"
"241033","AAC-255","2018/05/11 16:19:08","新北市三重區五谷王南街2號","121.474911666667","25.04701","6500200","三重區"
"235026","800-TS","2018/05/11 16:19:12","新北市中和區建八路139巷9弄1號","121.490156666667","24.999545","6500300","中和區"
"224007","275-VK","2018/05/11 16:18:57","新北市瑞芳區大埔路220-1號","121.76091","25.1022","6501200","瑞芳區"
"224005","271-BY","2018/05/11 16:18:56","新北市瑞芳區中山路243號","121.80017","25.1070433333333","6501200","瑞芳區"
"227011","642-TC","2018/05/11 16:19:10","新北市雙溪區三港里雙澳路80號","121.883805","25.0538716666667","6502500","雙溪區"
"227003","400-TW","2018/05/11 16:18:58","新北市雙溪區上林里內平林80號","121.8283","25.0279416666667","6502500","雙溪區"
"251008","181-VK","2018/05/11 16:18:57","新北市淡水區中山路131號","121.441196666667","25.1713633333333","6501000","淡水區"
"236045","913-UM","2018/05/11 16:19:01","新北市土城區大安路30號","121.432781666667","24.96664","6501300","土城區"
