"lineid","car","time","location","longitude","latitude","cityid","cityname"
"249005","172-UM","2018/05/11 16:49:14","新北市八里區大堀湖2-3號","121.422611666667","25.1537683333333","6502300","八里區"
"231046","107-UY","2018/05/11 16:49:11","新北市新店區灣潭路15-8號","121.540761666667","24.9388633333333","6500600","新店區"
"241011","013-R5","2018/05/11 16:49:05","新北市三重區仁愛街53巷196號","121.500626666667","25.0730116666667","6500200","三重區"
"241008","059-VK","2018/05/11 16:49:10","新北市三重區永福街179巷28號","121.477928333333","25.0748466666667","6500200","三重區"
"241009","060-VK","2018/05/11 16:49:04","新北市三重區溪尾街204號","121.488161666667","25.081165","6500200","三重區"
"241031","061-VK","2018/05/11 16:49:00","新北市三重區過圳街42-2號","121.488028333333","25.060105","6500200","三重區"
"241015","062-VK","2018/05/11 16:49:12","新北市三重區文化北路45號","121.498938333333","25.06547","6500200","三重區"
"241017","063-VK","2018/05/11 16:49:02","新北市三重區國隆路6號","121.49342","25.0636733333333","6500200","三重區"
"241024","065-VK","2018/05/11 16:49:07","新北市三重區中正北路317巷20號","121.47545","25.07297","6500200","三重區"
"241026","066-VK","2018/05/11 16:49:05","新北市三重區文化南路10巷7號","121.500563333333","25.062055","6500200","三重區"
"241002","090-VK","2018/05/11 16:49:10","新北市三重區仁義街153號","121.497161666667","25.08098","6500200","三重區"
"241003","091-VK","2018/05/11 16:49:05","新北市三重區碧華街422號","121.492403333333","25.0854316666667","6500200","三重區"
"241005","262-UM","2018/05/11 16:49:04","新北市三重區仁華街78號","121.484773333333","25.083195","6500200","三重區"
"241028","265-UM","2018/05/11 16:48:59","新北市三重區光興街89號","121.497431666667","25.0599733333333","6500200","三重區"
"241016","266-UM","2018/05/11 16:49:09","新北市三重區大同北路167巷45號","121.493798333333","25.0651716666667","6500200","三重區"
"241022","267-UM","2018/05/11 16:49:09","新北市三重區貴陽街47巷2號","121.484908333333","25.0629083333333","6500200","三重區"
"241018","268-UM","2018/05/11 16:49:12","新北市三重區安樂街71號","121.49489","25.0693833333333","6500200","三重區"
"241032","269-UM","2018/05/11 16:49:06","新北市三重區重陽路一段120巷35號","121.485143333333","25.0602116666667","6500200","三重區"
"241013","270-UM","2018/05/11 16:48:59","新北市三重區仁壽街35號","121.496988333333","25.0734016666667","6500200","三重區"
"241025","271-UM","2018/05/11 16:49:00","新北市三重區中正北路510號","121.472623333333","25.07173","6500200","三重區"
"241007","398-BY","2018/05/11 16:49:11","新北市三重區三和路四段181巷55號","121.484106666667","25.079345","6500200","三重區"
"241020","413-TH","2018/05/11 16:49:12","新北市三重區忠孝路二段51號","121.485721666667","25.0710533333333","6500200","三重區"
"241004","475-VK","2018/05/11 16:49:09","新北市三重區仁愛街397巷1號","121.491408333333","25.08104","6500200","三重區"
"241014","543-UM","2018/05/11 16:48:57","新北市三重區長榮路75號","121.502626666667","25.069085","6500200","三重區"
"241023","545-UM","2018/05/11 16:49:08","新北市三重區新北大道一段206巷20號","121.48252","25.062285","6500200","三重區"
"241001","547-UM","2018/05/11 16:48:57","新北市三重區仁政街54巷12號","121.492625","25.0768316666667","6500200","三重區"
"241006","AAD-863","2018/05/11 16:49:12","新北市三重區車路頭街120號","121.484098333333","25.0751983333333","6500200","三重區"
"241030","743-BX","2018/05/11 16:34:36","新北市三重區環河南路261號","121.490228333333","25.0496783333333","6500200","三重區"
"241019","887-TS","2018/05/11 16:49:09","新北市三重區力行路一段179巷17弄2號","121.485381666667","25.0699383333333","6500200","三重區"
"241012","941-UM","2018/05/11 16:49:07","新北市三重區河邊北街339號","121.502278333333","25.07536","6500200","三重區"
"241029","942-UM","2018/05/11 16:48:59","新北市三重區中正南路201巷12號","121.492395","25.0540366666667","6500200","三重區"
"241033","AAC-255","2018/05/11 16:49:08","新北市三重區新北大道二段139巷36號","121.466546666667","25.06028","6500200","三重區"
"247006","336-TH","2018/05/11 16:49:02","新北市蘆洲區永安南路二段132-1號","121.462521666667","25.0785283333333","6501400","蘆洲區"
"247008","056-VK","2018/05/11 16:49:13","新北市蘆洲區中山二路45巷30號","121.47434","25.0812283333333","6501400","蘆洲區"
"247016","007-UY","2018/05/11 16:49:03","新北市蘆洲區正和街3號","121.470461666667","25.0827083333333","6501400","蘆洲區"
"247020","001-UY","2018/05/11 16:49:04","新北市蘆洲區民族路422巷14號","121.474128333333","25.092165","6501400","蘆洲區"
"228002","663-BX","2018/05/11 16:48:54","新北市貢寮區貢寮里長泰路24-1號","121.902678333333","25.0240633333333","6502600","貢寮區"
"228003","828-UM","2018/05/11 16:49:00","新北市貢寮區貢寮里朝陽街1-2號","121.912356666667","25.02126","6502600","貢寮區"
"224006","676-BX","2018/05/11 16:48:56","新北市瑞芳區大寮路356-1號","121.784796666667","25.1031716666667","6501200","瑞芳區"
"224007","275-VK","2018/05/11 16:48:59","新北市瑞芳區中央路11號","121.762008333333","25.103665","6501200","瑞芳區"
"224005","271-BY","2018/05/11 16:48:56","新北市瑞芳區洞頂路116號","121.861391666667","25.12299","6501200","瑞芳區"
"227011","642-TC","2018/05/11 16:49:10","新北市雙溪區牡丹里石5-2號","121.863753333333","25.0516466666667","6502500","雙溪區"
"227003","400-TW","2018/05/11 16:48:58","新北市雙溪區外柑里外柑腳74號","121.807178333333","25.017595","6502500","雙溪區"
"251008","181-VK","2018/05/11 16:48:57","新北市淡水區樹梅坑45號","121.47459","25.1444216666667","6501000","淡水區"
"251010","413-VK","2018/05/11 16:49:01","新北市淡水區淡海路100號","121.422618333333","25.182345","6501000","淡水區"
"251012","441-VK","2018/05/11 16:49:02","新北市淡水區中正路二段31號","121.4197","25.1815816666667","6501000","淡水區"
"251007","442-VK","2018/05/11 16:48:54","新北市淡水區中正路二段38號","121.419655","25.1822716666667","6501000","淡水區"
"251011","650-BX","2018/05/11 16:49:11","新北市淡水區中正路二段31號","121.419405","25.1817033333333","6501000","淡水區"
"252002","178-VK","2018/05/11 16:49:12","新北市三芝區忠孝街116號","121.505948333333","25.25733","6502100","三芝區"
"252001","702-TV","2018/05/11 16:49:15","新北市三芝區埔坪里埔頭坑44號","121.50475","25.2617766666667","6502100","三芝區"
"242029","612-BX","2018/05/11 16:49:08","新北市新莊區新泰路357巷3弄57號","121.442145","25.0392616666667","6500500","新莊區"
"242005","176-VK","2018/05/11 16:48:58","新北市新莊區新泰路255巷83號","121.442076666667","25.038855","6500500","新莊區"
"242015","346-TH","2018/05/11 16:48:55","新北市新莊區三和路12-16號","121.44205","25.03739","6500500","新莊區"
