"lineid","car","time","location","longitude","latitude","cityid","cityname"
"249005","172-UM","2018/05/11 17:09:08","新北市八里區華富山5-5號","121.417715","25.1445833333333","6502300","八里區"
"249001","173-UM","2018/05/11 17:09:00","新北市八里區商港路2號","121.397638333333","25.1439366666667","6502300","八里區"
"249004","303-UY","2018/05/11 17:09:10","新北市八里區忠孝路353號","121.416605","25.1612133333333","6502300","八里區"
"249003","759-BX","2018/05/11 17:09:13","新北市八里區中山路二段419號","121.39716","25.1461833333333","6502300","八里區"
"244007","080-UY","2018/05/11 17:08:59","新北市林口區中湖52-1號","121.375946666667","25.0915583333333","6501700","林口區"
"244019","403-UM","2018/05/11 17:09:00","新北市林口區四維路156號","121.380555","25.075535","6501700","林口區"
"244023","483-VK","2018/05/11 17:09:13","新北市林口區仁愛路一段246號","121.395886666667","25.0757566666667","6501700","林口區"
"244025","837-TS","2018/05/11 17:09:11","新北市林口區粉寮路一段139號","121.399101666667","25.0812283333333","6501700","林口區"
"244021","838-TS","2018/05/11 17:09:04","新北市林口區粉寮路二段221號","121.40423","25.0904283333333","6501700","林口區"
"231046","107-UY","2018/05/11 17:09:11","新北市新店區直潭路92號","121.53094","24.9376066666667","6500600","新店區"
"241011","013-R5","2018/05/11 17:09:05","新北市三重區龍濱路269號","121.501338333333","25.0731183333333","6500200","三重區"
"241008","059-VK","2018/05/11 17:09:10","新北市三重區力行路二段134號","121.482171666667","25.07567","6500200","三重區"
"241009","060-VK","2018/05/11 17:09:04","新北市三重區三和路四段217號","121.481538333333","25.07966","6500200","三重區"
"241015","062-VK","2018/05/11 17:09:12","新北市三重區長生街24號","121.499471666667","25.0663983333333","6500200","三重區"
"241017","063-VK","2018/05/11 17:08:58","新北市三重區中正北路25巷8號","121.493435","25.0628316666667","6500200","三重區"
"241024","065-VK","2018/05/11 17:08:47","新北市三重區後竹圍街295號","121.4788","25.06971","6500200","三重區"
"241026","066-VK","2018/05/11 17:09:05","新北市三重區重新路二段1號","121.499671666667","25.0629783333333","6500200","三重區"
"241002","090-VK","2018/05/11 17:09:01","新北市三重區五華街33-1號","121.49463","25.0809133333333","6500200","三重區"
"241003","091-VK","2018/05/11 17:09:05","新北市三重區富福街107號","121.49346","25.0855366666667","6500200","三重區"
"241005","262-UM","2018/05/11 17:09:04","新北市三重區仁愛街648號","121.482848333333","25.0806433333333","6500200","三重區"
"241028","265-UM","2018/05/11 17:08:59","新北市三重區重新路三段81-2號","121.491756666667","25.060105","6500200","三重區"
"241016","266-UM","2018/05/11 17:09:09","新北市三重區中正北路25巷25弄7號","121.49345","25.0627133333333","6500200","三重區"
"241022","267-UM","2018/05/11 17:09:09","新北市三重區重陽路二段24巷10號","121.486121666667","25.062595","6500200","三重區"
"241018","268-UM","2018/05/11 17:09:12","新北市三重區正義北路332-1號","121.494378333333","25.0704216666667","6500200","三重區"
"241032","269-UM","2018/05/11 17:09:14","新北市三重區三陽路13巷1號","121.486068333333","25.05952","6500200","三重區"
"241013","270-UM","2018/05/11 17:08:59","新北市三重區仁福街17號","121.496151666667","25.0742616666667","6500200","三重區"
"241025","271-UM","2018/05/11 17:09:00","新北市三重區中正北路560巷61-3號","121.470941666667","25.0689766666667","6500200","三重區"
"241007","398-BY","2018/05/11 17:09:11","新北市三重區三和路四段163巷83號","121.486103333333","25.0794183333333","6500200","三重區"
"241020","413-TH","2018/05/11 17:09:12","新北市三重區自強路三段47號","121.486848333333","25.0728716666667","6500200","三重區"
"241004","475-VK","2018/05/11 17:09:08","新北市三重區五華街92巷3號","121.492571666667","25.08221","6500200","三重區"
"241014","543-UM","2018/05/11 17:08:57","新北市三重區河邊北街128巷58號","121.502085","25.0712883333333","6500200","三重區"
"241023","545-UM","2018/05/11 17:09:08","新北市三重區忠孝路三段84巷1號","121.480296666667","25.064615","6500200","三重區"
"241001","547-UM","2018/05/11 17:08:57","新北市三重區仁愛街255巷82號","121.494703333333","25.0792333333333","6500200","三重區"
"241006","AAD-863","2018/05/11 17:09:07","新北市三重區車路頭街133號","121.484566666667","25.07639","6500200","三重區"
"241030","743-BX","2018/05/11 17:08:59","新北市三重區集成路40號","121.489013333333","25.0525883333333","6500200","三重區"
"241019","887-TS","2018/05/11 17:09:13","新北市三重區力行路一段153巷10號","121.485641666667","25.0689383333333","6500200","三重區"
"241012","941-UM","2018/05/11 17:09:07","新北市三重區河邊北街367號","121.501903333333","25.076015","6500200","三重區"
"241029","942-UM","2018/05/11 17:08:59","新北市三重區重新路三段174-1號","121.490801666667","25.0592233333333","6500200","三重區"
"241033","AAC-255","2018/05/11 17:08:48","新北市三重區中興北街271號","121.46928","25.0605783333333","6500200","三重區"
"247024","893-R6","2018/05/11 17:08:59","新北市蘆洲區長興路52號","121.463466666667","25.083605","6501400","蘆洲區"
"247014","546-UM","2018/05/11 17:09:07","新北市蘆洲區中央路22號","121.47359","25.0827033333333","6501400","蘆洲區"
"247022","500-BY","2018/05/11 17:09:06","新北市蘆洲區三民路188號","121.46948","25.088665","6501400","蘆洲區"
"247010","341-TH","2018/05/11 17:09:09","新北市蘆洲區民族路20號","121.476003333333","25.0840883333333","6501400","蘆洲區"
"247012","339-TH","2018/05/11 17:09:06","新北市蘆洲區信義路294號","121.477925","25.0876516666667","6501400","蘆洲區"
"247004","337-TH","2018/05/11 17:08:57","新北市蘆洲區長安街193巷24號","121.459553333333","25.0814616666667","6501400","蘆洲區"
"247006","336-TH","2018/05/11 17:09:03","新北市蘆洲區長安街108巷37號","121.462265","25.0826416666667","6501400","蘆洲區"
"247018","057-VK","2018/05/11 17:08:58","新北市蘆洲區信義路304號","121.47748","25.087805","6501400","蘆洲區"
"247008","056-VK","2018/05/11 17:09:13","新北市蘆洲區信義路30巷67號","121.47485","25.0777633333333","6501400","蘆洲區"
"247016","007-UY","2018/05/11 17:09:03","新北市蘆洲區光華路71號","121.46812","25.082585","6501400","蘆洲區"
"247002","002-UY","2018/05/11 17:08:57","新北市蘆洲區永樂街48號","121.457655","25.0885383333333","6501400","蘆洲區"
"247020","001-UY","2018/05/11 17:09:04","新北市蘆洲區民族路422巷116號","121.472613333333","25.0941633333333","6501400","蘆洲區"
"228002","663-BX","2018/05/11 17:09:14","新北市貢寮區龍崗里嵩陽街38號","121.908953333333","25.0164483333333","6502600","貢寮區"
"228001","670-TC","2018/05/11 17:09:01","新北市貢寮區仁理村研海街62-2號","121.92575","25.044365","6502600","貢寮區"
"228003","828-UM","2018/05/11 17:09:00","新北市貢寮區福隆里東興街32號","121.949396666667","25.0181133333333","6502600","貢寮區"
"224006","676-BX","2018/05/11 17:09:02","新北市瑞芳區大寮路101-2號","121.778166666667","25.09931","6501200","瑞芳區"
"224008","285-BY","2018/05/11 17:09:10","新北市瑞芳區柴寮路40號","121.827463333333","25.0868533333333","6501200","瑞芳區"
"224009","273-VK","2018/05/11 17:09:10","新北市瑞芳區輕便路32號","121.844015","25.11062","6501200","瑞芳區"
"224005","271-BY","2018/05/11 17:08:56","新北市瑞芳區鼻頭路225號","121.914846666667","25.1239333333333","6501200","瑞芳區"
"227011","642-TC","2018/05/11 17:09:10","新北市雙溪區牡丹里下坑35號","121.850391666667","25.0567066666667","6502500","雙溪區"
"227003","400-TW","2018/05/11 17:08:58","新北市雙溪區外柑里田寮3號","121.806195","25.0167633333333","6502500","雙溪區"
"251009","008-UM","2018/05/11 17:08:54","新北市淡水區三民街20號","121.439063333333","25.171755","6501000","淡水區"
"251004","009-UM","2018/05/11 17:09:01","新北市淡水區中正路二段31號","121.419348333333","25.181895","6501000","淡水區"
"251001","011-UM","2018/05/11 17:08:58","新北市淡水區長興街2巷1號","121.443851666667","25.1704683333333","6501000","淡水區"
"251008","181-VK","2018/05/11 17:08:57","新北市淡水區民生路169號","121.469613333333","25.1420966666667","6501000","淡水區"
"251010","413-VK","2018/05/11 17:09:01","新北市淡水區新市五路二段75號","121.431298333333","25.1983483333333","6501000","淡水區"
"251012","441-VK","2018/05/11 17:09:02","新北市淡水區中山北路一段158號","121.444301666667","25.177875","6501000","淡水區"
"251007","442-VK","2018/05/11 17:09:14","新北市淡水區中正東路二段161巷8弄13號","121.461568333333","25.1456916666667","6501000","淡水區"
"251005","443-VK","2018/05/11 17:09:05","新北市淡水區英專路116號","121.445906666667","25.17226","6501000","淡水區"
"251006","561-UM","2018/05/11 17:09:05","新北市淡水區新民街21號","121.439201666667","25.1753016666667","6501000","淡水區"
"251011","650-BX","2018/05/11 17:09:11","新北市淡水區坪頂路50號","121.457941666667","25.1625333333333","6501000","淡水區"
"252002","178-VK","2018/05/11 17:09:12","新北市三芝區忠孝街1-19號","121.5059","25.2531633333333","6502100","三芝區"
"252001","702-TV","2018/05/11 17:09:15","新北市三芝區埔頭里埔頭37號","121.498478333333","25.2603033333333","6502100","三芝區"
"242034","AAC-296","2018/05/11 17:07:36","新北市新莊區新泰路255巷83號","121.442643333333","25.0390916666667","6500500","新莊區"
"242027","615-BX","2018/05/11 17:09:02","新北市新莊區新泰路255巷83號","121.442205","25.0388216666667","6500500","新莊區"
"242025","613-BX","2018/05/11 17:07:42","新北市新莊區新泰路255巷83號","121.442201666667","25.0391533333333","6500500","新莊區"
"242029","612-BX","2018/05/11 17:09:08","新北市新莊區新泰路255巷83號","121.44228","25.0391233333333","6500500","新莊區"
"242041","566-BX","2018/05/11 17:08:53","新北市新莊區新泰路357巷3弄57號","121.442143333333","25.0391566666667","6500500","新莊區"
"242046","497-BY","2018/05/11 17:09:13","新北市新莊區三和路12-17號","121.44227","25.0374933333333","6500500","新莊區"
"242050","441-UM","2018/05/11 17:09:12","新北市新莊區三和路12-21號","121.442236666667","25.0386716666667","6500500","新莊區"
"242056","440-UM","2018/05/11 17:09:10","新北市新莊區新泰路357巷3弄57號","121.442206666667","25.0392483333333","6500500","新莊區"
"242007","413-TV","2018/05/11 17:09:07","新北市新莊區新泰路357巷3弄57號","121.441945","25.0395583333333","6500500","新莊區"
"242023","362-BY","2018/05/11 17:09:08","新北市新莊區新泰路255巷83號","121.442295","25.03876","6500500","新莊區"
"242039","133-UY","2018/05/11 17:09:07","新北市新莊區三和路12-16號","121.442335","25.0373416666667","6500500","新莊區"
"242032","135-UY","2018/05/11 17:09:00","新北市新莊區新泰路255巷83號","121.441993333333","25.038885","6500500","新莊區"
"242048","172-VK","2018/05/11 17:08:55","新北市新莊區中正路475號","121.441578333333","25.033825","6500500","新莊區"
"242017","175-VK","2018/05/11 17:09:02","新北市新莊區三和路12-21號","121.442101666667","25.0387016666667","6500500","新莊區"
"242005","176-VK","2018/05/11 17:08:59","新北市新莊區新泰路255巷83號","121.442156666667","25.0388183333333","6500500","新莊區"
"242015","346-TH","2018/05/11 17:08:55","新北市新莊區三和路12-15號","121.442185","25.03733","6500500","新莊區"
"242021","347-TH","2018/05/11 17:08:57","新北市新莊區三和路12-18號","121.44201","25.0376516666667","6500500","新莊區"
"242044","348-TH","2018/05/11 17:08:54","新北市新莊區新泰路357巷3弄1號","121.442281666667","25.04142","6500500","新莊區"
"242037","349-TH","2018/05/11 17:09:10","新北市新莊區三和路12-16號","121.442128333333","25.03737","6500500","新莊區"
"242019","350-TH","2018/05/11 17:09:04","新北市新莊區新泰路255巷83號","121.442178333333","25.0389","6500500","新莊區"
"242013","351-TH","2018/05/11 17:08:56","新北市新莊區新泰路357巷3弄57號","121.441868333333","25.039555","6500500","新莊區"
"238019","599-UM","2018/05/11 17:09:05","新北市樹林區太平路273巷23號","121.421198333333","24.97633","6500700","樹林區"
"238018","571-TV","2018/05/11 17:09:02","新北市樹林區環河路10號","121.426971666667","24.9779916666667","6500700","樹林區"
"238024","5061-A6","2018/05/11 17:09:10","新北市樹林區博愛街215號","121.424025","24.9868033333333","6500700","樹林區"
"238022","KEA-2213","2018/05/11 17:09:09","新北市樹林區太平路277號","121.419","24.9727516666667","6500700","樹林區"
"238017","283-BY","2018/05/11 17:09:07","新北市樹林區八德街224號","121.415591666667","24.9718016666667","6500700","樹林區"
"238014","282-BY","2018/05/11 17:08:59","新北市樹林區中山路二段222-2號","121.409823333333","24.980445","6500700","樹林區"
"238020","268-VK","2018/05/11 17:09:02","新北市樹林區大安路323巷10弄14號","121.417015","24.9912633333333","6500700","樹林區"
"239007","AAC-297","2018/05/11 17:09:08","新北市鶯歌區建國路102號","121.353618333333","24.95434","6500800","鶯歌區"
"239006","891-R6","2018/05/11 17:09:02","新北市鶯歌區八德路2巷18弄2號","121.336695","24.9469916666667","6500800","鶯歌區"
"239008","527-UM","2018/05/11 17:09:04","新北市鶯歌區文化路337號","121.351946666667","24.9516133333333","6500800","鶯歌區"
"239005","526-UM","2018/05/11 17:09:00","新北市鶯歌區鶯桃路311號","121.333946666667","24.9609716666667","6500800","鶯歌區"
"239001","417-VK","2018/05/11 17:09:08","新北市鶯歌區尖山路86巷26號","121.347061666667","24.94958","6500800","鶯歌區"
"239003","360-BY","2018/05/11 17:09:10","新北市鶯歌區八德路50號","121.33026","24.9561616666667","6500800","鶯歌區"
"239002","359-BY","2018/05/11 17:09:14","新北市鶯歌區建國路262號","121.347521666667","24.953375","6500800","鶯歌區"
"239004","193-VK","2018/05/11 17:09:06","新北市鶯歌區文化路667號","121.353016666667","24.9461483333333","6500800","鶯歌區"
"242002","KEA-2550","2018/05/11 17:09:07","新北市新莊區三和路12-18號","121.442221666667","25.0376016666667","6500500","新莊區"
"242009","281-VK","2018/05/11 17:08:55","新北市新莊區三和路12-18號","121.442093333333","25.037665","6500500","新莊區"
"242054","280-VK","2018/05/11 17:09:01","新北市新莊區三和路12-21號","121.442353333333","25.03805","6500500","新莊區"
