"lineid","car","time","location","longitude","latitude","cityid","cityname"
"234026","9371-KE","2018/05/11 17:59:11","新北市永和區永和路一段7-1號","121.512733333333","25.0053016666667","6500400","永和區"
"249005","172-UM","2018/05/11 17:59:14","新北市八里區荖阡坑路20-9號","121.398613333333","25.137545","6502300","八里區"
"249001","173-UM","2018/05/11 17:59:00","新北市八里區龍米路二段30號","121.44865","25.1400416666667","6502300","八里區"
"249004","303-UY","2018/05/11 17:59:10","新北市八里區中山路一段10號","121.423341666667","25.1589766666667","6502300","八里區"
"249002","305-UY","2018/05/11 17:59:09","新北市八里區龍米路一段259號","121.450621666667","25.133625","6502300","八里區"
"249003","759-BX","2018/05/11 17:59:13","新北市八里區中山路二段306號","121.404678333333","25.1501183333333","6502300","八里區"
"248006","077-UY","2018/05/11 17:59:09","新北市五股區中興路二段37巷28號","121.460153333333","25.074915","6501500","五股區"
"248008","095-VK","2018/05/11 17:59:15","新北市五股區中興路二段150號","121.458605","25.0785616666667","6501500","五股區"
"248018","225-UY","2018/05/11 17:59:12","新北市五股區中興路二段83巷26-6號","121.460033333333","25.0751466666667","6501500","五股區"
"248016","261-SL","2018/05/11 17:58:58","新北市五股區中興路二段83巷26號","121.459058333333","25.0759766666667","6501500","五股區"
"248010","272-BY","2018/05/11 17:58:59","新北市五股區中興路二段157巷11-1號","121.458191666667","25.0770966666667","6501500","五股區"
"248004","677-BX","2018/05/11 17:58:58","新北市五股區中興路二段83巷26-6號","121.459951666667","25.0749066666667","6501500","五股區"
"232011","375-UM","2018/05/11 17:59:11","新北市坪林區北宜路八段157號","121.707385","24.9345616666667","6502000","坪林區"
"244013","069-UM","2018/05/11 17:59:02","新北市林口區中山路202-6號","121.387943333333","25.0790616666667","6501700","林口區"
"244007","080-UY","2018/05/11 17:58:59","新北市林口區林口路222號","121.386895","25.083615","6501700","林口區"
"244019","403-UM","2018/05/11 17:59:00","新北市林口區文化一路一段122號","121.37478","25.07212","6501700","林口區"
"244009","410-SL","2018/05/11 17:59:00","新北市林口區竹林路582巷3號","121.386263333333","25.0832083333333","6501700","林口區"
"244023","483-VK","2018/05/11 17:59:13","新北市林口區東湖路120號","121.384766666667","25.0735016666667","6501700","林口區"
"244017","485-VK","2018/05/11 17:58:57","新北市林口區文化三路一段402巷2號","121.368878333333","25.0741766666667","6501700","林口區"
"244011","657-BX","2018/05/11 17:59:15","新北市林口區中興街11號","121.388756666667","25.077165","6501700","林口區"
"244025","837-TS","2018/05/11 17:59:11","新北市林口區文化三路一段39巷118-2號","121.359578333333","25.0678216666667","6501700","林口區"
"244021","838-TS","2018/05/11 17:55:04","新北市林口區新寮44號","121.404068333333","25.064865","6501700","林口區"
"222003","436-BY","2018/05/11 17:59:13","新北市深坑區炮子崙23號","121.6072","24.9909316666667","6501800","深坑區"
"222002","659-BX","2018/05/11 17:59:13","新北市深坑區深坑街35號","121.615958333333","25.001885","6501800","深坑區"
"231046","107-UY","2018/05/11 17:59:11","新北市新店區直潭路113號","121.531683333333","24.9361133333333","6500600","新店區"
"241024","065-VK","2018/05/11 17:59:07","新北市三重區大勇街82巷5號","121.479408333333","25.071425","6500200","三重區"
"241005","262-UM","2018/05/11 17:59:10","新北市三重區碧華街260號","121.488036666667","25.082865","6500200","三重區"
"241016","266-UM","2018/05/11 17:59:08","新北市三重區捷運路19巷1號","121.485343333333","25.05606","6500200","三重區"
"241033","AAC-255","2018/05/11 17:59:08","新北市三重區重新路五段602號","121.468958333333","25.045025","6500200","三重區"
"235064","005-UY","2018/05/11 17:59:03","新北市中和區員山路36巷16-3號","121.485131666667","24.99126","6500300","中和區"
"235063","006-UY","2018/05/11 17:59:13","新北市中和區員山路36巷16-3號","121.484958333333","24.9913883333333","6500300","中和區"
"235058","151-BY","2018/05/11 17:59:15","新北市中和區中正路637巷60弄61號","121.485408333333","24.9932533333333","6500300","中和區"
"235038","185-VK","2018/05/11 17:59:09","新北市中和區中正路275-1號","121.495546666667","24.993595","6500300","中和區"
"235037","AAC-213","2018/05/11 17:58:54","新北市中和區中正路503號","121.488666666667","24.9935933333333","6500300","中和區"
"247014","546-UM","2018/05/11 17:59:06","新北市蘆洲區三民路101號","121.472286666667","25.0854316666667","6501400","蘆洲區"
"247018","057-VK","2018/05/11 17:58:58","新北市蘆洲區復興路230號","121.47927","25.0893066666667","6501400","蘆洲區"
"247016","007-UY","2018/05/11 17:58:42","新北市蘆洲區中正路185巷78弄21號","121.465396666667","25.0850916666667","6501400","蘆洲區"
"247002","002-UY","2018/05/11 17:58:57","新北市蘆洲區永平街32巷57弄29號","121.458745","25.0932","6501400","蘆洲區"
"247020","001-UY","2018/05/11 17:59:04","新北市蘆洲區民義街35巷8號","121.471758333333","25.089565","6501400","蘆洲區"
"226004","205-ST","2018/05/11 17:58:58","新北市平溪區石底里公園街18-3號","121.733191666667","25.0260483333333","6502400","平溪區"
"235065","251-BX","2018/05/11 17:59:00","新北市中和區連城路471號","121.483446666667","24.99582","6500300","中和區"
"228002","663-BX","2018/05/11 17:59:14","新北市貢寮區福連里香蘭街2-1號","121.970365","25.0239466666667","6502600","貢寮區"
"228001","670-TC","2018/05/11 17:59:01","新北市貢寮區仁理村仁愛路106巷36號","121.929385","25.054165","6502600","貢寮區"
"228003","828-UM","2018/05/11 17:59:00","新北市貢寮區真理里美艷山街6-2號","121.928801666667","25.06076","6502600","貢寮區"
"224010","AGQ-8101","2018/05/11 17:59:05","新北市瑞芳區汽車路139號","121.838771666667","25.109825","6501200","瑞芳區"
"224006","676-BX","2018/05/11 17:59:04","新北市瑞芳區傑魚坑路191號","121.788141666667","25.1075616666667","6501200","瑞芳區"
"224002","639-TC","2018/05/11 17:59:16","新北市瑞芳區三爪子坑路149號","121.810586666667","25.1062966666667","6501200","瑞芳區"
"224008","285-BY","2018/05/11 17:59:10","新北市瑞芳區員山子路23號","121.821391666667","25.103035","6501200","瑞芳區"
"224009","273-VK","2018/05/11 17:58:59","新北市瑞芳區金光路255號","121.85011","25.1076883333333","6501200","瑞芳區"
"224005","271-BY","2018/05/11 17:58:56","新北市瑞芳區深澳路151-1號","121.820438333333","25.133495","6501200","瑞芳區"
"227011","642-TC","2018/05/11 17:59:10","新北市雙溪區三貂里定福路1-2號","121.850771666667","25.0635716666667","6502500","雙溪區"
"253005","032-BX","2018/05/11 17:58:57","新北市石門區中山路62-12號","121.567498333333","25.2897533333333","6502200","石門區"
"253006","295-VK","2018/05/11 17:59:00","新北市石門區大丘田45-2號","121.549801666667","25.2748416666667","6502200","石門區"
"222001","KEA-2212","2018/05/11 17:59:01","新北市深坑區北深路三段34號","121.609053333333","25.0009966666667","6501800","深坑區"
"208002","KEA-2872","2018/05/11 17:59:06","新北市金山區三界壇路5號","121.628625","25.2276366666667","6502700","金山區"
"208003","665-BX","2018/05/11 17:59:08","新北市金山區磺港里磺港路309號","121.644076666667","25.22761","6502700","金山區"
"208001","761-BX","2018/05/11 17:59:00","新北市金山區磺港里青年路1號","121.641205","25.2251516666667","6502700","金山區"
"251009","008-UM","2018/05/11 17:59:14","新北市淡水區大仁街6巷1號","121.442423333333","25.1746316666667","6501000","淡水區"
"251004","009-UM","2018/05/11 17:59:11","新北市淡水區民權路185-10號","121.459291666667","25.1335366666667","6501000","淡水區"
"251001","011-UM","2018/05/11 17:58:58","新北市淡水區民權路94巷1號","121.463161666667","25.1248533333333","6501000","淡水區"
"251002","012-UM","2018/05/11 17:59:07","新北市淡水區中正東路36號","121.449191666667","25.165665","6501000","淡水區"
"251008","181-VK","2018/05/11 17:58:57","新北市淡水區八勢一街32巷4號","121.461901666667","25.1559533333333","6501000","淡水區"
"251010","413-VK","2018/05/11 17:59:00","新北市淡水區中正路一段132巷22號","121.423","25.1799783333333","6501000","淡水區"
"251012","441-VK","2018/05/11 17:59:02","新北市淡水區北新路三段38巷7號","121.484546666667","25.1870283333333","6501000","淡水區"
"251007","442-VK","2018/05/11 17:59:14","新北市淡水區中正東路二段153號","121.45995","25.1465466666667","6501000","淡水區"
"251005","443-VK","2018/05/11 17:59:06","新北市淡水區英專路125-6號","121.44613","25.172635","6501000","淡水區"
"251006","561-UM","2018/05/11 17:59:05","新北市淡水區新生街30巷1號","121.438936666667","25.173105","6501000","淡水區"
"251011","650-BX","2018/05/11 17:59:11","新北市淡水區三空泉9-2號","121.474175","25.1632966666667","6501000","淡水區"
"251003","766-UM","2018/05/11 17:59:09","新北市淡水區大忠街51號","121.44484","25.17646","6501000","淡水區"
"207003","550-UM","2018/05/11 17:59:07","新北市萬里區港東路野柳風景區攤販66號","121.69132","25.2058666666667","6502800","萬里區"
"207004","225-TW","2018/05/11 17:59:10","新北市萬里區北基里忠三街1號","121.683696666667","25.1742783333333","6502800","萬里區"
"252002","178-VK","2018/05/11 17:59:13","新北市三芝區中山路二段43號","121.503006666667","25.2550316666667","6502100","三芝區"
"252001","702-TV","2018/05/11 17:58:55","新北市三芝區中興街一段50號","121.498306666667","25.25672","6502100","三芝區"
"237004","KEA-2597","2018/05/11 17:59:11","新北市三峽區中正路二段60號","121.366655","24.9186333333333","6500900","三峽區"
"237007","153-BY","2018/05/11 17:59:14","新北市三峽區中園街227號","121.36684","24.91974","6500900","三峽區"
"237011","572-TV","2018/05/11 17:58:55","新北市三峽區大同路2-1號","121.378341666667","24.9300383333333","6500900","三峽區"
"237009","210-TH","2018/05/11 17:59:01","新北市三峽區中山路108號","121.365968333333","24.9358033333333","6500900","三峽區"
"237013","252-BX","2018/05/11 17:59:03","新北市三峽區介壽路一段109-3號","121.375831666667","24.9321933333333","6500900","三峽區"
"237012","275-BY","2018/05/11 17:58:58","新北市三峽區民生街27巷1號","121.376101666667","24.9362333333333","6500900","三峽區"
"237008","302-VK","2018/05/11 17:59:07","新北市三峽區正義街100號","121.368708333333","24.917305","6500900","三峽區"
"237014","433-BY","2018/05/11 17:59:08","新北市三峽區復興路101巷1弄79號","121.370981666667","24.9377116666667","6500900","三峽區"
"237006","5529-G3","2018/05/11 17:59:05","新北市三峽區介壽路二段138巷1弄90-7號","121.397386666667","24.9320666666667","6500900","三峽區"
"237005","AKY-6261","2018/05/11 17:59:03","新北市三峽區復興路237巷16號","121.368223333333","24.9378516666667","6500900","三峽區"
"236069","105-UM","2018/05/11 17:59:17","新北市土城區中華路一段301號","121.439918333333","24.979615","6501300","土城區"
"236042","107-UM","2018/05/11 17:58:58","新北市土城區城林路6巷80號","121.438545","24.979755","6501300","土城區"
"236079","166-UM","2018/05/11 17:59:07","新北市土城區永寧路32巷10弄1號","121.42891","24.96098","6501300","土城區"
"236030","253-BX","2018/05/11 17:59:04","新北市土城區城林路6巷80號","121.438663333333","24.9796816666667","6501300","土城區"
"236026","269-VK","2018/05/11 17:59:10","新北市土城區中央路三段88號","121.436136666667","24.9668766666667","6501300","土城區"
"236014","270-VK","2018/05/11 17:59:06","新北市土城區城林路6巷80號","121.438448333333","24.979585","6501300","土城區"
"236039","271-VK","2018/05/11 17:58:58","新北市土城區城林路6巷80號","121.438568333333","24.9796166666667","6501300","土城區"
"236020","752-BX","2018/05/11 17:59:02","新北市土城區城林路6巷80號","121.438768333333","24.9796866666667","6501300","土城區"
"236059","912-UM","2018/05/11 17:59:11","新北市土城區中央路三段234號","121.42861","24.9643716666667","6501300","土城區"
"236048","913-UM","2018/05/11 17:59:06","新北市土城區城林路6巷80號","121.438506666667","24.9797133333333","6501300","土城區"
"236063","915-UM","2018/05/11 17:59:12","新北市土城區城林路6巷80號","121.438491666667","24.979665","6501300","土城區"
"242034","AAC-296","2018/05/11 17:58:56","新北市新莊區福海街18號","121.445291666667","25.0337683333333","6500500","新莊區"
"242058","986-R7","2018/05/11 17:58:59","新北市新莊區雙鳳路134巷5號","121.412726666667","25.0281","6500500","新莊區"
"242027","615-BX","2018/05/11 17:59:09","新北市新莊區思源路368號","121.460008333333","25.05167","6500500","新莊區"
"242025","613-BX","2018/05/11 17:59:02","新北市新莊區五工路58號","121.458866666667","25.0628116666667","6500500","新莊區"
"242029","612-BX","2018/05/11 17:59:07","新北市新莊區中平路92巷2號","121.444795","25.0453866666667","6500500","新莊區"
"242041","566-BX","2018/05/11 17:59:13","新北市新莊區壽山路7號","121.420663333333","25.0289333333333","6500500","新莊區"
"242046","497-BY","2018/05/11 17:59:13","新北市新莊區福營路195巷18號","121.431793333333","25.0299933333333","6500500","新莊區"
"242050","441-UM","2018/05/11 17:59:12","新北市新莊區龍安路535號","121.42786","25.01749","6500500","新莊區"
"242056","440-UM","2018/05/11 17:59:10","新北市新莊區豐年街124巷33號","121.445475","25.0297816666667","6500500","新莊區"
"242007","413-TV","2018/05/11 17:59:07","新北市新莊區自信街36號","121.454501666667","25.048235","6500500","新莊區"
"242023","362-BY","2018/05/11 17:59:08","新北市新莊區幸福路589號","121.453646666667","25.0491533333333","6500500","新莊區"
"242060","353-BY","2018/05/11 17:59:14","新北市新莊區新樹路403號","121.432685","25.0143466666667","6500500","新莊區"
"242039","133-UY","2018/05/11 17:59:07","新北市新莊區民安路184號","121.425356666667","25.0237083333333","6500500","新莊區"
"242032","135-UY","2018/05/11 17:59:00","新北市新莊區新泰路289巷20號","121.444526666667","25.0406483333333","6500500","新莊區"
"242048","172-VK","2018/05/11 17:58:35","新北市新莊區萬安街47巷3號","121.42217","25.02453","6500500","新莊區"
"242011","173-VK","2018/05/11 17:59:08","新北市新莊區中港路中慶巷13號","121.450655","25.0537616666667","6500500","新莊區"
"242017","175-VK","2018/05/11 17:59:02","新北市新莊區中和街60巷13號","121.448545","25.0448133333333","6500500","新莊區"
"242005","176-VK","2018/05/11 17:58:58","新北市新莊區自由街6號","121.455773333333","25.0478866666667","6500500","新莊區"
"242015","346-TH","2018/05/11 17:59:15","新北市新莊區中平路81巷8號","121.444228333333","25.0454433333333","6500500","新莊區"
"242021","347-TH","2018/05/11 17:58:57","新北市新莊區中正路217號","121.45116","25.0358083333333","6500500","新莊區"
"242044","348-TH","2018/05/11 17:59:14","新北市新莊區雙鳳路109號","121.413911666667","25.0279166666667","6500500","新莊區"
"242037","349-TH","2018/05/11 17:59:10","新北市新莊區建福路13號","121.426103333333","25.0293483333333","6500500","新莊區"
"242019","350-TH","2018/05/11 17:59:04","新北市新莊區明中街49巷15號","121.456715","25.039","6500500","新莊區"
"242013","351-TH","2018/05/11 17:59:16","新北市新莊區幸福路914號","121.44257","25.0490816666667","6500500","新莊區"
"238015","755-BX","2018/05/11 17:59:15","新北市樹林區啟智街80巷19號","121.418543333333","24.9924216666667","6500700","樹林區"
"238023","601-UM","2018/05/11 17:59:12","新北市樹林區龍興街57號","121.403198333333","25.015275","6500700","樹林區"
"238019","599-UM","2018/05/11 17:59:05","新北市樹林區中華路71號","121.423206666667","24.98303","6500700","樹林區"
"238018","571-TV","2018/05/11 17:59:02","新北市樹林區樹新路30-1號","121.427078333333","24.9945766666667","6500700","樹林區"
"238022","KEA-2213","2018/05/11 17:59:09","新北市樹林區太平路150巷7號","121.418116666667","24.97773","6500700","樹林區"
"238025","303-VK","2018/05/11 17:59:14","新北市樹林區俊興街232號","121.417821666667","25.0153366666667","6500700","樹林區"
"238017","283-BY","2018/05/11 17:59:07","新北市樹林區俊德街34號","121.415128333333","25.0142183333333","6500700","樹林區"
"238014","282-BY","2018/05/11 17:59:15","新北市樹林區中正路65-2號","121.42633","25.0000916666667","6500700","樹林區"
"238020","268-VK","2018/05/11 17:59:01","新北市樹林區俊興街288號","121.418393333333","25.0171516666667","6500700","樹林區"
"238026","172-UY","2018/05/11 17:59:12","新北市樹林區佳園路一段46號","121.392886666667","24.970925","6500700","樹林區"
"238016","169-UY","2018/05/11 17:57:55","新北市樹林區復興路295巷1號","121.418856666667","24.9889583333333","6500700","樹林區"
"239007","AAC-297","2018/05/11 17:57:28","新北市鶯歌區鶯桃路94巷33號","121.342158333333","24.9544983333333","6500800","鶯歌區"
"239006","891-R6","2018/05/11 17:59:02","新北市鶯歌區鶯桃路381巷2弄15號","121.332911666667","24.96383","6500800","鶯歌區"
"239008","527-UM","2018/05/11 17:59:04","新北市鶯歌區朝陽街47巷1號","121.337236666667","24.97753","6500800","鶯歌區"
"239005","526-UM","2018/05/11 17:59:00","新北市鶯歌區鶯桃路658巷121號","121.331645","24.97298","6500800","鶯歌區"
"239001","417-VK","2018/05/11 17:59:07","新北市鶯歌區尖山路302巷22號","121.34208","24.94332","6500800","鶯歌區"
"239003","360-BY","2018/05/11 17:59:10","新北市鶯歌區鶯桃路336號","121.333928333333","24.962245","6500800","鶯歌區"
"239002","359-BY","2018/05/11 17:59:14","新北市鶯歌區中山路249巷20號","121.347278333333","24.9564466666667","6500800","鶯歌區"
"239004","193-VK","2018/05/11 17:59:06","新北市鶯歌區尖山路103-6號","121.348108333333","24.948735","6500800","鶯歌區"
"221008","489-VK","2018/05/11 17:59:09","新北市汐止區康寧街619號","121.636591666667","25.0714833333333","6501100","汐止區"
"221036","130-UY","2018/05/11 17:59:06","新北市汐止區大同路三段62巷1號","121.667596666667","25.0770933333333","6501100","汐止區"
"221015","131-UY","2018/05/11 17:59:09","新北市汐止區長江街333號","121.666836666667","25.0818166666667","6501100","汐止區"
"221010","269-BY","2018/05/11 17:59:01","新北市汐止區汐萬路二段245巷54號","121.645141666667","25.0877383333333","6501100","汐止區"
"221012","278-VK","2018/05/11 17:58:59","新北市汐止區保一街8巷8號","121.673336666667","25.0813316666667","6501100","汐止區"
"221023","279-VK","2018/05/11 17:59:14","新北市汐止區明峰街142號","121.629578333333","25.0707416666667","6501100","汐止區"
"221032","280-BY","2018/05/11 17:59:15","新北市汐止區民權街一段16號","121.621428333333","25.0535833333333","6501100","汐止區"
"221027","281-BY","2018/05/11 17:58:55","新北市汐止區大同路二段370號","121.657725","25.0671466666667","6501100","汐止區"
"221029","298-VK","2018/05/11 17:58:43","新北市汐止區樟樹二路294號","121.641535","25.06901","6501100","汐止區"
"221021","299-VK","2018/05/11 17:59:08","新北市汐止區水源路一段56號","121.657335","25.0655566666667","6501100","汐止區"
"221031","353-TW","2018/05/11 17:59:10","新北市汐止區中興路151號","121.631323333333","25.065845","6501100","汐止區"
"221035","622-UM","2018/05/11 17:58:59","新北市汐止區汐萬路一段115巷50號","121.652876666667","25.0703433333333","6501100","汐止區"
"221025","623-UM","2018/05/11 17:59:10","新北市汐止區仁愛路19號","121.659253333333","25.0638766666667","6501100","汐止區"
"221038","646-BX","2018/05/11 17:59:13","新北市汐止區連興街56號","121.653873333333","25.063165","6501100","汐止區"
"221033","647-BX","2018/05/11 17:59:10","新北市汐止區合順街37號","121.620665","25.0432433333333","6501100","汐止區"
"221002","707-TV","2018/05/11 17:58:57","新北市汐止區工建路202號","121.636853333333","25.0626516666667","6501100","汐止區"
"221018","753-BX","2018/05/11 17:59:02","新北市汐止區忠孝東路346號","121.66553","25.069805","6501100","汐止區"
"242002","KEA-2550","2018/05/11 17:59:07","新北市新莊區大觀街42巷5號","121.454311666667","25.03584","6500500","新莊區"
"242009","281-VK","2018/05/11 17:59:15","新北市新莊區中華路二段294號","121.452423333333","25.0538566666667","6500500","新莊區"
"242054","280-VK","2018/05/11 17:59:01","新北市新莊區民安西路426號","121.42948","25.0097","6500500","新莊區"
