"lineid","car","time","location","longitude","latitude","cityid","cityname"
"234046","148-BY","2018/05/11 18:59:09","新北市永和區得和路373巷16弄1號","121.525091666667","25.0003633333333","6500400","永和區"
"234007","207-UY","2018/05/11 18:59:08","新北市永和區永和路二段98號","121.515035","25.0117716666667","6500400","永和區"
"234081","298-R6","2018/05/11 18:59:18","新北市永和區永亨路61號","121.521061666667","25.0060433333333","6500400","永和區"
"234038","336-UY","2018/05/11 18:59:01","新北市永和區成功路二段207號","121.52656","24.9958883333333","6500400","永和區"
"234064","337-UY","2018/05/11 18:59:15","新北市永和區秀朗路一段122號","121.51767","25.0034466666667","6500400","永和區"
"234086","338-UY","2018/05/11 18:59:08","新北市永和區永寧街127號","121.518008333333","25.0055983333333","6500400","永和區"
"234070","552-UM","2018/05/11 18:59:08","新北市永和區中興街68巷5弄4號","121.518521666667","25.0115783333333","6500400","永和區"
"234017","745-BX","2018/05/11 18:59:07","新北市永和區永和路二段299號","121.516098333333","25.0161766666667","6500400","永和區"
"234030","746-BX","2018/05/11 18:59:04","新北市永和區四維街71號","121.525473333333","24.998025","6500400","永和區"
"234054","KEA-2590","2018/05/11 18:59:12","新北市永和區竹林路64號","121.5183","25.0135466666667","6500400","永和區"
"234013","KEA-2591","2018/05/11 18:59:13","新北市永和區信義路17巷22號","121.513173333333","25.0111283333333","6500400","永和區"
"234061","AAD-866","2018/05/11 18:59:06","新北市永和區福和路309巷1號","121.516291666667","25.0070566666667","6500400","永和區"
"234042","862-TW","2018/05/11 18:59:12","新北市永和區永貞路267號","121.511791666667","25.004775","6500400","永和區"
"234050","863-TW","2018/05/11 18:59:10","新北市永和區文化路151號","121.510691666667","25.016195","6500400","永和區"
"234026","9371-KE","2018/05/11 18:59:18","新北市永和區安樂路467號","121.514351666667","25.0054866666667","6500400","永和區"
"234011","9373-KE","2018/05/11 18:59:08","新北市永和區環河西路一段51巷24號","121.51414","25.0175816666667","6500400","永和區"
"249005","172-UM","2018/05/11 18:59:14","新北市八里區長道坑6號","121.397886666667","25.12354","6502300","八里區"
"249001","173-UM","2018/05/11 18:59:00","新北市八里區龍米路二段228-1號","121.432736666667","25.158435","6502300","八里區"
"248014","025-BX","2018/05/11 18:59:06","新北市五股區民義路一段114號","121.435121666667","25.0856","6501500","五股區"
"248006","077-UY","2018/05/11 18:59:09","新北市五股區中興路一段73號","121.467523333333","25.0726816666667","6501500","五股區"
"248008","095-VK","2018/05/11 18:59:15","新北市五股區中興路一段118巷2號","121.465961666667","25.0737266666667","6501500","五股區"
"248018","225-UY","2018/05/11 18:59:12","新北市五股區民義路二段22巷30-1號","121.423833333333","25.0993133333333","6501500","五股區"
"248016","261-SL","2018/05/11 18:59:06","新北市五股區成泰路三段543巷13號","121.450688333333","25.102365","6501500","五股區"
"248010","272-BY","2018/05/11 18:59:19","新北市五股區水碓三路9號","121.429231666667","25.070755","6501500","五股區"
"248004","677-BX","2018/05/11 18:59:07","新北市五股區民義路二段107號","121.404681666667","25.1098166666667","6501500","五股區"
"248002","678-BX","2018/05/11 18:59:03","新北市五股區凌雲路一段111號","121.450045","25.101715","6501500","五股區"
"248012","682-TV","2018/05/11 18:59:15","新北市五股區工商路36巷14號","121.4398","25.0841516666667","6501500","五股區"
"234023","9380-KE","2018/05/11 18:59:14","新北市永和區環河東路二段20號","121.522355","25.0131683333333","6500400","永和區"
"234077","969-R7","2018/05/11 18:59:09","新北市永和區智光街18號","121.518145","24.9992083333333","6500400","永和區"
"234074","AAC-211","2018/05/11 18:58:57","新北市永和區環河東路二段96號","121.524061666667","25.0104033333333","6500400","永和區"
"234067","AAC-212","2018/05/11 18:59:12","新北市中和區永貞路229號","121.513338333333","25.0036716666667","6500400","永和區"
"234003","AAC-295","2018/05/11 18:59:10","新北市永和區和平街28號","121.513441666667","25.009925","6500400","永和區"
"232011","375-UM","2018/05/11 18:59:11","新北市坪林區水聳淒坑19-1號","121.71272","24.9350716666667","6502000","坪林區"
"244013","069-UM","2018/05/11 18:59:02","新北市林口區文化一路一段122號","121.374438333333","25.0720983333333","6501700","林口區"
"244019","403-UM","2018/05/11 18:59:00","新北市林口區麗園二街81-1號","121.382195","25.067865","6501700","林口區"
"244009","410-SL","2018/05/11 18:59:00","新北市林口區竹林路462號","121.387721666667","25.0850216666667","6501700","林口區"
"244023","483-VK","2018/05/11 18:59:13","新北市林口區文林六街15號","121.370725","25.0804166666667","6501700","林口區"
"244017","485-VK","2018/05/11 18:59:09","新北市林口區文化二路一段120巷3號","121.367918333333","25.0701266666667","6501700","林口區"
"244011","657-BX","2018/05/11 18:59:15","新北市林口區仁愛路一段285巷32號","121.395581666667","25.07539","6501700","林口區"
"244025","837-TS","2018/05/11 18:59:11","新北市林口區民族路96號","121.366451666667","25.0758566666667","6501700","林口區"
"243013","AAD-798","2018/05/11 18:59:04","新北市泰山區明志路三段239號","121.423496666667","25.03777","6501600","泰山區"
"243009","297-R6","2018/05/11 18:59:06","新北市泰山區泰林路二段359號","121.428046666667","25.0637116666667","6501600","泰山區"
"243016","380-SR","2018/05/11 18:59:17","新北市泰山區明志路二段135號","121.427655","25.0508083333333","6501600","泰山區"
"243015","421-VK","2018/05/11 18:58:58","新北市泰山區泰林路二段244號","121.432085","25.0621466666667","6501600","泰山區"
"243011","KEA-2215","2018/05/11 18:59:05","新北市泰山區明志路二段228號","121.427141666667","25.0482316666667","6501600","泰山區"
"243010","KEA-2216","2018/05/11 18:59:14","新北市泰山區辭修路30號","121.428938333333","25.0582033333333","6501600","泰山區"
"243012","646-TV","2018/05/11 18:59:15","新北市泰山區福興三街170號","121.432283333333","25.057015","6501600","泰山區"
"243014","680-BX","2018/05/11 18:59:00","新北市泰山區黎明路21號","121.42089","25.062695","6501600","泰山區"
"222003","436-BY","2018/05/11 18:59:13","新北市深坑區深南路51-1號","121.621351666667","25.0101683333333","6501800","深坑區"
"222002","659-BX","2018/05/11 18:59:13","新北市深坑區文山路一段33號","121.629663333333","25.0036983333333","6501800","深坑區"
"231041","002-UM","2018/05/11 18:59:10","新北市新店區環河路74號","121.536975","24.9631533333333","6500600","新店區"
"231059","046-UY","2018/05/11 18:58:58","新北市新店區安華路28-1號","121.519546666667","24.9607233333333","6500600","新店區"
"231040","047-UY","2018/05/11 18:59:09","新北市新店區中正路406號","121.534423333333","24.9775666666667","6500600","新店區"
"231044","106-UY","2018/05/11 18:58:58","新北市新店區寶中路72號","121.547851666667","24.9806283333333","6500600","新店區"
"231046","107-UY","2018/05/11 18:59:11","新北市新店區直潭八街2號","121.534603333333","24.9401883333333","6500600","新店區"
"231053","108-UY","2018/05/11 18:59:10","新北市新店區櫻花街55巷18號","121.548775","24.92529","6500600","新店區"
"231048","187-VK","2018/05/11 18:59:05","新北市新店區德正街25巷1號","121.5443","24.9715983333333","6500600","新店區"
"231054","KEA-2219","2018/05/11 18:59:02","新北市新店區新店路13號","121.540291666667","24.952885","6500600","新店區"
"231042","268-BY","2018/05/11 18:59:18","新北市新店區中興路一段282號","121.545681666667","24.96855","6500600","新店區"
"231051","278-BY","2018/05/11 18:58:58","新北市新店區百忍街23號","121.533971666667","24.975685","6500600","新店區"
"231050","AAD-862","2018/05/11 18:59:00","新北市新店區新烏路一段11巷7號","121.5473","24.9513416666667","6500600","新店區"
"231058","3713-VJ","2018/05/11 18:59:11","新北市新店區中正路1巷2號","121.54564","24.9689583333333","6500600","新店區"
"231066","4716-K9","2018/05/11 18:58:57","新北市新店區安豐路30-1號","121.500651666667","24.9569233333333","6500600","新店區"
"231056","4715-K9","2018/05/11 18:59:05","新北市新店區二十張路46巷37弄11號","121.536471666667","24.9818233333333","6500600","新店區"
"231067","4772-VM","2018/05/11 18:58:59","新北市新店區安康路一段247巷7號","121.525026666667","24.962785","6500600","新店區"
"231065","512-UM","2018/05/11 18:59:08","新北市新店區建業路43號","121.479893333333","24.9551833333333","6500600","新店區"
"231049","513-UM","2018/05/11 18:59:15","新北市新店區中正路454-5號","121.534418333333","24.9790766666667","6500600","新店區"
"231063","616-UM","2018/05/11 18:58:59","新北市新店區安華路30巷12-1號","121.518633333333","24.9581883333333","6500600","新店區"
"231045","617-UM","2018/05/11 18:59:06","新北市新店區光明街1-1號","121.538081666667","24.959105","6500600","新店區"
"231061","619-UM","2018/05/11 18:59:10","新北市新店區安華路28-1號","121.519511666667","24.9607333333333","6500600","新店區"
"231064","719-UM","2018/05/11 18:59:16","新北市新店區安一路一段1-1號","121.519476666667","24.961095","6500600","新店區"
"231062","720-UM","2018/05/11 18:58:59","新北市新店區安豐路3號","121.501851666667","24.9572783333333","6500600","新店區"
"231060","897-TW","2018/05/11 18:59:01","新北市新店區安忠路81巷6號","121.511643333333","24.9566816666667","6500600","新店區"
"231043","899-TW","2018/05/11 18:59:13","新北市新店區北新路二段1號","121.542726666667","24.9712883333333","6500600","新店區"
"231055","AKT-0513","2018/05/11 18:58:45","新北市新店區力行路12號","121.539395","24.9646283333333","6500600","新店區"
"241005","262-UM","2018/05/11 18:59:04","新北市三重區溪尾街73號","121.490993333333","25.07782","6500200","三重區"
"241035","462-BY","2018/05/11 18:58:55","新北市三重區重新路四段121號","121.484853333333","25.0520066666667","6500200","三重區"
"241029","942-UM","2018/05/11 18:59:05","新北市三重區重安街14號","121.490256666667","25.0581966666667","6500200","三重區"
"235063","006-UY","2018/05/11 18:59:13","新北市中和區中正路530號","121.487901666667","24.9944783333333","6500300","中和區"
"235047","031-BX","2018/05/11 18:59:04","新北市中和區興南路二段54巷11弄12號","121.505466666667","24.9852766666667","6500300","中和區"
"235056","096-UM","2018/05/11 18:58:55","新北市中和區員山路466巷17弄23號","121.480451666667","25.007215","6500300","中和區"
"235039","097-UM","2018/05/11 18:59:16","新北市中和區安樂路143巷20號","121.51314","24.9966433333333","6500300","中和區"
"235040","150-BY","2018/05/11 18:59:07","新北市中和區安樂路91號","121.512988333333","24.994845","6500300","中和區"
"235058","151-BY","2018/05/11 18:58:55","新北市中和區連城路573-1號","121.478933333333","24.9943016666667","6500300","中和區"
"235055","183-VK","2018/05/11 18:59:09","新北市中和區民德路23號","121.46887","25.002685","6500300","中和區"
"235038","185-VK","2018/05/11 18:59:09","新北市中和區立人街36號","121.51822","24.9941116666667","6500300","中和區"
"235049","186-VK","2018/05/11 18:59:15","新北市中和區景安路167巷11號","121.505995","24.9947633333333","6500300","中和區"
"235067","255-BX","2018/05/11 18:58:57","新北市中和區新生街166巷8號","121.483195","25.0002016666667","6500300","中和區"
"235044","293-VK","2018/05/11 18:59:03","新北市中和區中興街161巷9弄1號","121.501275","24.9909683333333","6500300","中和區"
"235072","301-VK","2018/05/11 18:59:17","新北市中和區景平路713號","121.496476666667","25.003765","6500300","中和區"
"235043","352-BY","2018/05/11 18:59:01","新北市中和區成功路50號","121.525938333333","24.9927316666667","6500300","中和區"
"235061","378-QA","2018/05/11 18:59:03","新北市中和區民享街29-1號","121.47397","25.0043116666667","6500300","中和區"
"235050","4979-A6","2018/05/11 18:59:01","新北市中和區華新街50巷4號","121.507768333333","24.9840016666667","6500300","中和區"
"235069","4980-A6","2018/05/11 18:59:04","新北市中和區圓通路109巷1弄4號","121.499925","24.9963916666667","6500300","中和區"
"235042","551-UM","2018/05/11 18:59:00","新北市中和區秀朗路三段128巷36弄2號","121.524861666667","24.99371","6500300","中和區"
"235070","558-UM","2018/05/11 18:59:09","新北市中和區安和路189號","121.506005","24.9980666666667","6500300","中和區"
"235045","565-BX","2018/05/11 18:59:15","新北市中和區景新街467巷15弄2號","121.514145","24.9884416666667","6500300","中和區"
"235054","640-BX","2018/05/11 18:59:10","新北市中和區民享街2巷1號","121.473841666667","25.0057116666667","6500300","中和區"
"235060","647-TV","2018/05/11 18:59:02","新北市中和區民治街24號","121.475103333333","25.004165","6500300","中和區"
"235046","733-UM","2018/05/11 18:59:08","新北市中和區興南路一段135巷22弄2號","121.509168333333","24.9868766666667","6500300","中和區"
"235062","800-TS","2018/05/11 18:59:13","新北市中和區中山路二段355號","121.489755","25.003645","6500300","中和區"
"235057","801-TS","2018/05/11 18:59:03","新北市中和區民利街75號","121.478433333333","24.9982566666667","6500300","中和區"
"235041","802-TS","2018/05/11 18:59:15","新北市中和區安平路145巷14號","121.511588333333","24.998395","6500300","中和區"
"235052","805-TS","2018/05/11 18:59:04","新北市中和區興南路二段347號","121.500113333333","24.9801483333333","6500300","中和區"
"235048","896-TW","2018/05/11 18:59:13","新北市中和區忠孝街2號","121.5087","24.9827733333333","6500300","中和區"
"235053","900-TW","2018/05/11 18:58:58","新北市中和區壽德街26號","121.46666","24.9943633333333","6500300","中和區"
"235066","911-UM","2018/05/11 18:59:09","新北市中和區中山路二段131巷5弄4號","121.502968333333","25.0028666666667","6500300","中和區"
"235051","157-BY","2018/05/11 18:59:03","新北市中和區忠孝街19巷12號","121.510088333333","24.98323","6500300","中和區"
"235037","AAC-213","2018/05/11 18:59:14","新北市中和區自立路3號","121.522651666667","24.996725","6500300","中和區"
"235059","AAC-215","2018/05/11 18:59:11","新北市中和區圓通路367巷20弄7號","121.491975","24.98848","6500300","中和區"
"220080","015-TV","2018/05/11 18:59:11","新北市板橋區大觀路二段265巷1弄12號","121.443456666667","24.9985066666667","6500100","板橋區"
"220065","072-UY","2018/05/11 18:59:15","新北市板橋區民族路287巷12號","121.471216666667","25.0071866666667","6500100","板橋區"
"220086","073-UY","2018/05/11 18:59:04","新北市板橋區民權路286號","121.457401666667","25.0157783333333","6500100","板橋區"
"220106","075-UY","2018/05/11 18:59:08","新北市板橋區文化路二段124巷3號","121.470516666667","25.0260266666667","6500100","板橋區"
"220069","AAD-861","2018/05/11 18:59:10","新北市板橋區華興街73-1號","121.45712","25.0049583333333","6500100","板橋區"
"226004","205-ST","2018/05/11 18:59:18","新北市平溪區靜安路二段548號","121.746575","25.0259983333333","6502400","平溪區"
"235065","251-BX","2018/05/11 18:58:59","新北市中和區勝利路35巷1弄36號","121.500526666667","25.0079566666667","6500300","中和區"
"228002","663-BX","2018/05/11 18:59:14","新北市貢寮區福隆里東興街106巷25弄1號","121.946426666667","25.0183316666667","6502600","貢寮區"
"228001","670-TC","2018/05/11 18:59:01","新北市貢寮區仁理村保健街73號","121.923691666667","25.0516766666667","6502600","貢寮區"
"228003","828-UM","2018/05/11 18:59:00","新北市貢寮區和美里龍洞街52-1號","121.911785","25.1132766666667","6502600","貢寮區"
"224010","AGQ-8101","2018/05/11 18:58:30","新北市瑞芳區基山街4號","121.844946666667","25.1096766666667","6501200","瑞芳區"
"224006","676-BX","2018/05/11 18:59:19","新北市瑞芳區三爪子坑路106巷182號","121.80901","25.1035166666667","6501200","瑞芳區"
"224008","285-BY","2018/05/11 18:59:10","新北市瑞芳區逢甲路343-1號","121.800195","25.112295","6501200","瑞芳區"
"224007","275-VK","2018/05/11 18:59:15","新北市瑞芳區中央路48巷180號","121.758488333333","25.102775","6501200","瑞芳區"
"224009","273-VK","2018/05/11 18:58:59","新北市瑞芳區長仁路38號","121.864411666667","25.1172316666667","6501200","瑞芳區"
"224005","271-BY","2018/05/11 18:59:16","新北市瑞芳區豎崎路32-5號","121.823993333333","25.1209983333333","6501200","瑞芳區"
"227011","642-TC","2018/05/11 18:59:10","新北市雙溪區牡丹里中正路58巷23號","121.866423333333","25.0416283333333","6502500","雙溪區"
"227003","400-TW","2018/05/11 18:58:58","新北市雙溪區平林里康福家園10號","121.858791666667","25.037335","6502500","雙溪區"
"253005","032-BX","2018/05/11 18:59:17","新北市石門區中央路37-2號","121.568623333333","25.2952033333333","6502200","石門區"
"253006","295-VK","2018/05/11 18:59:05","新北市石門區八甲11號","121.521966666667","25.2814333333333","6502200","石門區"
"222001","KEA-2212","2018/05/11 18:59:01","新北市深坑區北深路一段264號","121.629375","25.008765","6501800","深坑區"
"208002","KEA-2872","2018/05/11 18:59:06","新北市金山區信義路39號","121.635235","25.2196116666667","6502700","金山區"
"208003","665-BX","2018/05/11 18:59:08","新北市金山區中正路51號","121.63463","25.2219966666667","6502700","金山區"
"208001","761-BX","2018/05/11 18:59:00","新北市金山區中山路85號","121.640215","25.2187033333333","6502700","金山區"
"251009","008-UM","2018/05/11 18:59:14","新北市淡水區重建街38號","121.439891666667","25.171275","6501000","淡水區"
"251001","011-UM","2018/05/11 18:59:18","新北市淡水區自強路60號","121.46311","25.1276","6501000","淡水區"
"251002","012-UM","2018/05/11 18:59:07","新北市淡水區中正東路63號","121.446975","25.1677133333333","6501000","淡水區"
"251010","413-VK","2018/05/11 18:59:00","新北市淡水區淡海路111號","121.421848333333","25.1827183333333","6501000","淡水區"
"251007","442-VK","2018/05/11 18:59:14","新北市淡水區民生路113巷1弄40號","121.463026666667","25.13868","6501000","淡水區"
"251005","443-VK","2018/05/11 18:59:01","新北市淡水區馬偕街28-9號","121.437601666667","25.1729683333333","6501000","淡水區"
"251011","650-BX","2018/05/11 18:59:12","新北市淡水區中正東路一段135號","121.455815","25.1591166666667","6501000","淡水區"
"251003","766-UM","2018/05/11 18:59:09","新北市淡水區大義街11號","121.443143333333","25.17821","6501000","淡水區"
"207003","550-UM","2018/05/11 18:59:07","新北市萬里區大鵬里頂社1-2號","121.657341666667","25.2096966666667","6502800","萬里區"
"207004","225-TW","2018/05/11 18:59:10","新北市萬里區萬里里獅頭路23號","121.693138333333","25.17827","6502800","萬里區"
"252002","178-VK","2018/05/11 18:59:12","新北市三芝區中正路一段68號","121.503665","25.2576666666667","6502100","三芝區"
"252003","249-BX","2018/05/11 18:59:13","新北市三芝區後厝里北勢子42-3號","121.472245","25.2526116666667","6502100","三芝區"
"252001","702-TV","2018/05/11 18:59:15","新北市三芝區中興街二段260號","121.501806666667","25.253055","6502100","三芝區"
"237004","KEA-2597","2018/05/11 18:58:58","新北市三峽區有木206號","121.4392","24.85155","6500900","三峽區"
"237007","153-BY","2018/05/11 18:59:14","新北市三峽區中正路二段42巷84號","121.36442","24.92049","6500900","三峽區"
"237011","572-TV","2018/05/11 18:59:15","新北市三峽區中正路一段120號","121.373748333333","24.9292416666667","6500900","三峽區"
"237009","210-TH","2018/05/11 18:59:01","新北市三峽區中山路459巷163-3號","121.348816666667","24.933015","6500900","三峽區"
"237013","252-BX","2018/05/11 18:59:03","新北市三峽區光明路69巷25號","121.3766","24.9293033333333","6500900","三峽區"
"237012","275-BY","2018/05/11 18:59:18","新北市三峽區三樹路222巷192-1號","121.388545","24.9427033333333","6500900","三峽區"
"237008","302-VK","2018/05/11 18:59:07","新北市三峽區大同路168號","121.372751666667","24.9267366666667","6500900","三峽區"
"237014","433-BY","2018/05/11 18:59:08","新北市三峽區隆恩街236號","121.357751666667","24.9411683333333","6500900","三峽區"
"237006","5529-G3","2018/05/11 18:59:05","新北市三峽區溪東路45巷11弄12號","121.401008333333","24.93577","6500900","三峽區"
"237010","706-TV","2018/05/11 18:59:04","新北市三峽區國光街16號","121.375421666667","24.93729","6500900","三峽區"
"237005","AKY-6261","2018/05/11 18:59:02","新北市三峽區中山路459巷163-3號","121.348643333333","24.9329516666667","6500900","三峽區"
"236069","105-UM","2018/05/11 18:59:16","新北市土城區學士路33巷10號","121.453518333333","24.9810033333333","6501300","土城區"
"236042","107-UM","2018/05/11 18:59:18","新北市土城區裕民路214巷18弄10號","121.452335","24.9842133333333","6501300","土城區"
"236079","166-UM","2018/05/11 18:59:07","新北市土城區中央路四段418-2號","121.411203333333","24.9522166666667","6501300","土城區"
"236030","253-BX","2018/05/11 18:59:04","新北市土城區興城路110號","121.440271666667","24.97088","6501300","土城區"
"236026","269-VK","2018/05/11 18:59:10","新北市土城區慶安街58號","121.440933333333","24.9730983333333","6501300","土城區"
"236014","270-VK","2018/05/11 18:59:13","新北市土城區延和路13巷1號","121.463535","24.988505","6501300","土城區"
"236039","271-VK","2018/05/11 18:58:58","新北市土城區仁愛路17巷2號","121.460665","24.980405","6501300","土城區"
"236020","752-BX","2018/05/11 18:59:02","新北市土城區延吉街168巷3號","121.468243333333","24.9856183333333","6501300","土城區"
"236059","912-UM","2018/05/11 18:59:11","新北市土城區金城路二段188號","121.45422","24.9812883333333","6501300","土城區"
"236048","913-UM","2018/05/11 18:59:06","新北市土城區青雲路318-1號","121.458938333333","24.97769","6501300","土城區"
"236063","915-UM","2018/05/11 18:59:12","新北市土城區延和路43號","121.46604","24.9894166666667","6501300","土城區"
"236055","AAC-216","2018/05/11 18:59:14","新北市土城區學成路160號","121.448143333333","24.989205","6501300","土城區"
"242050","441-UM","2018/05/11 18:59:12","新北市新莊區新樹路613號","121.436053333333","25.0043333333333","6500500","新莊區"
"242037","349-TH","2018/05/11 18:59:10","新北市樹林區育德街78-1號","121.388393333333","24.9681833333333","6500500","新莊區"
"238023","601-UM","2018/05/11 18:59:12","新北市樹林區工興街35巷1號","121.401198333333","25.0132216666667","6500700","樹林區"
"238019","599-UM","2018/05/11 18:59:05","新北市樹林區鎮前街423號","121.413795","24.9828333333333","6500700","樹林區"
"238018","571-TV","2018/05/11 18:59:11","新北市樹林區太元街6號","121.417633333333","24.9809083333333","6500700","樹林區"
"238021","KEA-2217","2018/05/11 18:58:58","新北市樹林區柑園街二段276巷26號","121.372535","24.95331","6500700","樹林區"
"238022","KEA-2213","2018/05/11 18:59:09","新北市樹林區中山路二段151巷14弄7號","121.407855","24.977385","6500700","樹林區"
"238025","303-VK","2018/05/11 18:59:06","新北市樹林區民和街59號","121.38173","24.9705933333333","6500700","樹林區"
"238017","283-BY","2018/05/11 18:59:07","新北市樹林區光興街50號","121.409833333333","25.0027133333333","6500700","樹林區"
"238014","282-BY","2018/05/11 18:58:59","新北市樹林區千歲街134巷7號","121.427616666667","24.9985783333333","6500700","樹林區"
"238020","268-VK","2018/05/11 18:59:02","新北市樹林區俊英街155巷13號","121.423745","25.0122266666667","6500700","樹林區"
"238026","172-UY","2018/05/11 18:59:12","新北市樹林區佳園路一段41巷30號","121.394615","24.9710466666667","6500700","樹林區"
"238016","169-UY","2018/05/11 18:59:15","新北市樹林區文化街25巷34號","121.417715","24.98651","6500700","樹林區"
"239007","AAC-297","2018/05/11 18:59:08","新北市鶯歌區中正一路333-6號","121.356568333333","24.9576733333333","6500800","鶯歌區"
"239006","891-R6","2018/05/11 18:59:02","新北市鶯歌區鶯桃路240號","121.336333333333","24.9594166666667","6500800","鶯歌區"
"239008","527-UM","2018/05/11 18:59:04","新北市鶯歌區國際二路14巷16號","121.338041666667","24.9750033333333","6500800","鶯歌區"
"239005","526-UM","2018/05/11 18:59:00","新北市鶯歌區中湖街74號","121.34796","24.9727816666667","6500800","鶯歌區"
"239001","417-VK","2018/05/11 18:59:07","新北市鶯歌區永智街43巷29號","121.33731","24.953725","6500800","鶯歌區"
"239003","360-BY","2018/05/11 18:59:10","新北市鶯歌區鶯桃路419號","121.332716666667","24.9647516666667","6500800","鶯歌區"
"239002","359-BY","2018/05/11 18:59:14","新北市鶯歌區西湖街88號","121.339726666667","24.95951","6500800","鶯歌區"
"239004","193-VK","2018/05/11 18:59:06","新北市鶯歌區二甲路106巷2號","121.333873333333","24.9313183333333","6500800","鶯歌區"
"221008","489-VK","2018/05/11 18:59:07","新北市汐止區汐萬路一段312號","121.650506666667","25.075385","6501100","汐止區"
"221036","130-UY","2018/05/11 18:59:06","新北市汐止區大同路二段339號","121.656375","25.0671233333333","6501100","汐止區"
"221015","131-UY","2018/05/11 18:59:04","新北市汐止區汐萬路一段25號","121.655785","25.06777","6501100","汐止區"
"221010","269-BY","2018/05/11 18:59:01","新北市汐止區康寧街901號","121.651368333333","25.0750883333333","6501100","汐止區"
"221012","278-VK","2018/05/11 18:59:19","新北市汐止區康寧街901號","121.650781666667","25.0752583333333","6501100","汐止區"
"221023","279-VK","2018/05/11 18:59:14","新北市汐止區康寧街901號","121.651013333333","25.0752233333333","6501100","汐止區"
"221032","280-BY","2018/05/11 18:59:15","新北市汐止區橫科路407巷30弄28號","121.6273","25.0483033333333","6501100","汐止區"
"221027","281-BY","2018/05/11 18:59:15","新北市汐止區康寧街901號","121.65144","25.0750066666667","6501100","汐止區"
"221029","298-VK","2018/05/11 18:59:02","新北市汐止區樟樹一路256號","121.642463333333","25.0672983333333","6501100","汐止區"
"221031","353-TW","2018/05/11 18:59:10","新北市汐止區中興路181巷29弄8號","121.629813333333","25.0658316666667","6501100","汐止區"
"221035","622-UM","2018/05/11 18:59:19","新北市汐止區汐萬路一段256巷3號","121.653335","25.07469","6501100","汐止區"
"221025","623-UM","2018/05/11 18:59:10","新北市汐止區汐萬路一段256巷3號","121.65248","25.0745916666667","6501100","汐止區"
"221038","646-BX","2018/05/11 18:59:13","新北市汐止區康寧街901號","121.65073","25.075285","6501100","汐止區"
"221033","647-BX","2018/05/11 18:59:10","新北市汐止區南勢街3號","121.62709","25.03742","6501100","汐止區"
"221002","707-TV","2018/05/11 18:58:57","新北市汐止區大同路一段2號","121.62103","25.05507","6501100","汐止區"
"221018","753-BX","2018/05/11 18:59:02","新北市汐止區康寧街901號","121.651525","25.0749633333333","6501100","汐止區"
"220079","145-BY","2018/05/11 18:59:09","新北市板橋區民權路202巷15弄1號","121.460626666667","25.0161266666667","6500100","板橋區"
"242002","KEA-2550","2018/05/11 18:59:07","新北市新莊區三和路12-20號","121.442056666667","25.0378433333333","6500500","新莊區"
"220082","610-BX","2018/05/11 18:59:04","新北市板橋區滿平街72號","121.427366666667","24.9892583333333","6500100","板橋區"
"220101","245-BX","2018/05/11 18:59:12","新北市板橋區文化路二段162號","121.470268333333","25.0267566666667","6500100","板橋區"
"220091","267-BY","2018/05/11 18:59:10","新北市板橋區萬板路165號","121.474043333333","25.023755","6500100","板橋區"
"220056","276-BY","2018/05/11 18:59:08","新北市板橋區信義路134號","121.458615","24.9921783333333","6500100","板橋區"
"220072","277-BY","2018/05/11 18:59:02","新北市板橋區篤行路一段10號","121.432108333333","24.9955416666667","6500100","板橋區"
"220094","285-UM","2018/05/11 18:59:11","新北市板橋區莒光路1-1號","121.469633333333","25.0249566666667","6500100","板橋區"
"220053","285-VK","2018/05/11 18:59:05","新北市板橋區中山路二段89巷1弄2-2號","121.473843333333","25.0164","6500100","板橋區"
"220083","286-VK","2018/05/11 18:59:15","新北市板橋區大觀路一段38巷184號","121.441461666667","25.00467","6500100","板橋區"
"220081","287-VK","2018/05/11 18:59:05","新北市板橋區光華街19巷2號","121.453913333333","25.0121716666667","6500100","板橋區"
"220090","288-VK","2018/05/11 18:59:14","新北市板橋區四維路175-3號","121.464456666667","25.0263483333333","6500100","板橋區"
"220061","293-UM","2018/05/11 18:59:14","新北市板橋區縣民大道三段138號","121.475136666667","25.0211533333333","6500100","板橋區"
"220084","296-UM","2018/05/11 18:59:07","新北市板橋區大觀路二段142-2號","121.442568333333","24.999185","6500100","板橋區"
"220075","303-R5","2018/05/11 18:59:15","新北市板橋區茶館街21號","121.456461666667","25.0105966666667","6500100","板橋區"
"220062","305-R5","2018/05/11 18:58:58","新北市板橋區三民路二段正隆巷28號","121.477325","25.013385","6500100","板橋區"
"220092","307-R5","2018/05/11 18:59:12","新北市板橋區縣民大道二段106號","121.46676","25.015525","6500100","板橋區"
"220098","317-R6","2018/05/11 18:59:10","新北市板橋區民有街17號","121.466178333333","25.02496","6500100","板橋區"
"220064","486-VK","2018/05/11 18:59:05","新北市板橋區漢生東路178號","121.467276666667","25.0143633333333","6500100","板橋區"
"242054","280-VK","2018/05/11 18:59:01","新北市樹林區環河路110號","121.426656666667","24.977825","6500500","新莊區"
"220088","491-VK","2018/05/11 18:59:15","新北市板橋區民生路二段198號","121.469708333333","25.0209516666667","6500100","板橋區"
"220035","560-BX","2018/05/11 18:59:16","新北市板橋區中正路294號","121.454975","25.0203483333333","6500100","板橋區"
"220103","561-BX","2018/05/11 18:58:59","新北市板橋區介壽街119號","121.470523333333","25.0185933333333","6500100","板橋區"
"220071","568-UM","2018/05/11 18:58:55","新北市板橋區重慶路247-1號","121.463626666667","25.0006283333333","6500100","板橋區"
"220063","609-BX","2018/05/11 18:59:12","新北市板橋區中山路二段169號","121.475975","25.01678","6500100","板橋區"
"220055","630-UY","2018/05/11 18:59:17","新北市板橋區民安街13號","121.46704","25.0116633333333","6500100","板橋區"
"220057","686-BX","2018/05/11 18:59:12","新北市板橋區重慶路104號","121.461985","25.00563","6500100","板橋區"
"220077","687-BX","2018/05/11 18:59:12","新北市板橋區大觀路二段142-4號","121.442455","24.998945","6500100","板橋區"
"220093","689-BX","2018/05/11 18:59:07","新北市板橋區民生路三段64號","121.467128333333","25.0256183333333","6500100","板橋區"
"220054","741-BX","2018/05/11 18:59:15","新北市板橋區成都街23號","121.460671666667","25.0048866666667","6500100","板橋區"
"220102","KEA-2699","2018/05/11 18:59:12","新北市板橋區萬板路706號","121.481705","25.0269033333333","6500100","板橋區"
"220067","829-TW","2018/05/11 18:59:15","新北市板橋區三民路2段正泰3巷18-1號","121.477863333333","25.014255","6500100","板橋區"
"220068","830-TW","2018/05/11 18:59:09","新北市板橋區中山路二段443巷76號","121.480991666667","25.022265","6500100","板橋區"
"220096","831-TW","2018/05/11 18:59:07","新北市板橋區莒光路93號","121.472236666667","25.0240766666667","6500100","板橋區"
"220089","833-TW","2018/05/11 18:59:02","新北市板橋區文化路二段107號","121.46974","25.0260216666667","6500100","板橋區"
"220074","895-R6","2018/05/11 18:59:13","新北市板橋區西門街59號","121.454375","25.00918","6500100","板橋區"
"220073","985-R7","2018/05/11 18:59:11","新北市板橋區民權路248號","121.458375","25.014625","6500100","板橋區"
"220070","AAC-253","2018/05/11 18:59:16","新北市板橋區四川路一段294號","121.458655","25.00063","6500100","板橋區"
