"lineid","car","time","location","longitude","latitude","cityid","cityname"
"234081","298-R6","2018/05/11 20:29:09","新北市永和區永貞路82號","121.520153333333","25.0050366666667","6500400","永和區"
"234064","337-UY","2018/05/11 20:29:15","新北市永和區中正路437號","121.517076666667","25.0051466666667","6500400","永和區"
"234086","338-UY","2018/05/11 20:29:03","新北市永和區光復街21號","121.5165","25.0174433333333","6500400","永和區"
"234070","552-UM","2018/05/11 20:29:08","新北市永和區永亨路6-1號","121.519463333333","25.0056683333333","6500400","永和區"
"234030","746-BX","2018/05/11 20:29:03","新北市永和區民族街81巷62號","121.520223333333","24.996505","6500400","永和區"
"234054","KEA-2590","2018/05/11 20:29:12","新北市永和區環河東路一段80號","121.519578333333","25.0164883333333","6500400","永和區"
"234061","AAD-866","2018/05/11 20:29:14","新北市永和區安樂路194巷17弄12號","121.516253333333","25.0014266666667","6500400","永和區"
"234042","862-TW","2018/05/11 20:29:19","新北市永和區安樂路282號","121.514456666667","25.0044016666667","6500400","永和區"
"234050","863-TW","2018/05/11 20:29:11","新北市永和區新生路118巷1弄18號","121.506605","25.0144683333333","6500400","永和區"
"249001","173-UM","2018/05/11 20:29:10","新北市八里區下罟子5-11號","121.386926666667","25.14227","6502300","八里區"
"249004","303-UY","2018/05/11 20:29:07","新北市八里區中山路一段129巷31號","121.414043333333","25.1584916666667","6502300","八里區"
"249002","305-UY","2018/05/11 20:29:09","新北市八里區龍米路二段125巷1號","121.446138333333","25.1451883333333","6502300","八里區"
"249003","759-BX","2018/05/11 20:29:15","新北市八里區中山路二段440號","121.39953","25.147505","6502300","八里區"
"234023","9380-KE","2018/05/11 20:29:14","新北市永和區光復街2巷16弄50號","121.518406666667","25.0163","6500400","永和區"
"234074","AAC-211","2018/05/11 20:29:17","新北市永和區豫溪街191巷7弄19號","121.523256666667","25.01087","6500400","永和區"
"234067","AAC-212","2018/05/11 20:29:12","新北市永和區保平路292巷4號","121.507898333333","25.0048066666667","6500400","永和區"
"243009","297-R6","2018/05/11 20:29:05","新北市泰山區忠孝街41巷1號","121.42846","25.0654083333333","6501600","泰山區"
"243016","380-SR","2018/05/11 20:29:21","新北市泰山區新生路33號","121.427635","25.0453533333333","6501600","泰山區"
"243015","421-VK","2018/05/11 20:28:58","新北市泰山區泰林路二段422號","121.426886666667","25.0643066666667","6501600","泰山區"
"243011","KEA-2215","2018/05/11 20:29:05","新北市泰山區貴陽街43號","121.422725","25.0327483333333","6501600","泰山區"
"243010","KEA-2216","2018/05/11 20:29:14","新北市泰山區明志路二段273巷16弄16號","121.427741666667","25.0465866666667","6501600","泰山區"
"243012","646-TV","2018/05/11 20:29:15","新北市泰山區忠孝街19巷3弄1號","121.427488333333","25.065935","6501600","泰山區"
"243014","680-BX","2018/05/11 20:29:00","新北市泰山區泰林路三段102號","121.416526666667","25.066265","6501600","泰山區"
"222003","436-BY","2018/05/11 20:29:13","新北市深坑區深坑街47號","121.615363333333","25.00179","6501800","深坑區"
"222002","659-BX","2018/05/11 20:29:13","新北市深坑區萬福路57號","121.600068333333","25.0071683333333","6501800","深坑區"
"231041","002-UM","2018/05/11 20:29:10","新北市新店區民權路159號","121.534043333333","24.9827433333333","6500600","新店區"
"231059","046-UY","2018/05/11 20:28:58","新北市新店區安康路二段354號","121.502285","24.957435","6500600","新店區"
"231040","047-UY","2018/05/11 20:29:09","新北市新店區中正路331-1號","121.536058333333","24.9753266666667","6500600","新店區"
"231044","106-UY","2018/05/11 20:29:18","新北市新店區建國路143號","121.539021666667","24.9786866666667","6500600","新店區"
"231053","108-UY","2018/05/11 20:29:10","新北市新店區松林路36號","121.546181666667","24.9102833333333","6500600","新店區"
"231048","187-VK","2018/05/11 20:29:05","新北市新店區寶慶街58巷21-1號","121.542018333333","24.9872666666667","6500600","新店區"
"231054","KEA-2219","2018/05/11 20:29:01","新北市新店區檳榔路150號","121.544308333333","24.9613916666667","6500600","新店區"
"231042","268-BY","2018/05/11 20:29:18","新北市新店區寶橋路97號","121.547293333333","24.9763033333333","6500600","新店區"
"231051","278-BY","2018/05/11 20:28:58","新北市新店區中央六街30號","121.529128333333","24.97508","6500600","新店區"
"231050","AAD-862","2018/05/11 20:29:00","新北市新店區建興街9巷1號","121.539923333333","24.9763083333333","6500600","新店區"
"231058","3713-VJ","2018/05/11 20:29:09","新北市新店區中央路25號","121.53309","24.9780233333333","6500600","新店區"
"231066","4716-K9","2018/05/11 20:29:17","新北市新店區安民街365巷1弄8號","121.51637","24.9751933333333","6500600","新店區"
"231056","4715-K9","2018/05/11 20:29:05","新北市新店區中正路468-2號","121.533898333333","24.9798233333333","6500600","新店區"
"231067","4772-VM","2018/05/11 20:29:19","新北市新店區安華路28-1號","121.519836666667","24.96092","6500600","新店區"
"231065","512-UM","2018/05/11 20:29:03","新北市新店區安祥路102巷30弄11號","121.484603333333","24.9636183333333","6500600","新店區"
"231049","513-UM","2018/05/11 20:29:15","新北市新店區華潭街31號","121.529918333333","24.9545633333333","6500600","新店區"
"231057","515-UM","2018/05/11 20:29:20","新北市新店區花園五路二段1號","121.553556666667","24.93421","6500600","新店區"
"231063","616-UM","2018/05/11 20:29:19","新北市新店區玫瑰路4-1號","121.493321666667","24.9515866666667","6500600","新店區"
"231045","617-UM","2018/05/11 20:29:06","新北市新店區長春路21巷1號","121.54936","24.9581833333333","6500600","新店區"
"231061","619-UM","2018/05/11 20:29:12","新北市新店區新和街33號","121.518883333333","24.9846383333333","6500600","新店區"
"231068","718-UY","2018/05/11 20:29:21","新北市新店區中興路三段226號","121.543518333333","24.9829683333333","6500600","新店區"
"231064","719-UM","2018/05/11 20:29:16","新北市新店區安和路三段61號","121.518023333333","24.9832116666667","6500600","新店區"
"231062","720-UM","2018/05/11 20:29:19","新北市新店區安泰路60巷21號","121.483553333333","24.9465733333333","6500600","新店區"
"231060","897-TW","2018/05/11 20:29:01","新北市新店區錦秀路34號","121.479195","24.94387","6500600","新店區"
"231043","899-TW","2018/05/11 20:29:13","新北市新店區建國路94號","121.540165","24.9775683333333","6500600","新店區"
"241011","013-R5","2018/05/11 20:29:11","新北市三重區龍門路42號","121.49604","25.0723683333333","6500200","三重區"
"241008","059-VK","2018/05/11 20:29:17","新北市三重區下竹圍街91號","121.481245","25.0749183333333","6500200","三重區"
"241009","060-VK","2018/05/11 20:29:04","新北市三重區永福街58巷1弄4號","121.481263333333","25.07788","6500200","三重區"
"241031","061-VK","2018/05/11 20:29:00","新北市三重區三寧街25號","121.489533333333","25.05985","6500200","三重區"
"241015","062-VK","2018/05/11 20:29:17","新北市三重區文化北路47號","121.498863333333","25.065535","6500200","三重區"
"241017","063-VK","2018/05/11 20:29:18","新北市三重區自強路一段288號","121.491603333333","25.068255","6500200","三重區"
"241024","065-VK","2018/05/11 20:29:07","新北市三重區忠孝路三段15巷49號","121.479785","25.06834","6500200","三重區"
"241026","066-VK","2018/05/11 20:29:05","新北市三重區福德南路8巷17號","121.503538333333","25.0635416666667","6500200","三重區"
"241002","090-VK","2018/05/11 20:29:21","新北市三重區仁義街211巷1號","121.496971666667","25.08186","6500200","三重區"
"241003","091-VK","2018/05/11 20:29:07","新北市三重區富華街145號","121.49299","25.0847766666667","6500200","三重區"
"241005","262-UM","2018/05/11 20:29:04","新北市三重區碧華街285號","121.49012","25.0836333333333","6500200","三重區"
"241028","265-UM","2018/05/11 20:29:09","新北市三重區光興街89號","121.497453333333","25.0599583333333","6500200","三重區"
"241016","266-UM","2018/05/11 20:29:19","新北市三重區正義北路190巷7號","121.496055","25.0667883333333","6500200","三重區"
"241022","267-UM","2018/05/11 20:29:11","新北市三重區重陽路二段19巷6號","121.48752","25.0625516666667","6500200","三重區"
"241018","268-UM","2018/05/11 20:29:06","新北市三重區正義北路220號","121.496286666667","25.0675833333333","6500200","三重區"
"241013","270-UM","2018/05/11 20:29:00","新北市三重區溪尾街5巷5號","121.492008333333","25.07439","6500200","三重區"
"241025","271-UM","2018/05/11 20:29:00","新北市三重區頂崁街210巷23弄1號","121.475845","25.068155","6500200","三重區"
"241007","398-BY","2018/05/11 20:29:11","新北市三重區自強路四段29號","121.488761666667","25.0764633333333","6500200","三重區"
"241020","413-TH","2018/05/11 20:29:20","新北市三重區三和路三段140號","121.4935","25.0724033333333","6500200","三重區"
"241035","462-BY","2018/05/11 20:29:15","新北市三重區正義北路110號","121.496951666667","25.0651233333333","6500200","三重區"
"241004","475-VK","2018/05/11 20:29:06","新北市三重區慈愛街141號","121.489275","25.0800066666667","6500200","三重區"
"241014","543-UM","2018/05/11 20:29:06","新北市三重區長興街87號","121.501586666667","25.0691133333333","6500200","三重區"
"241023","545-UM","2018/05/11 20:29:09","新北市三重區自由街17巷1號","121.479905","25.0665916666667","6500200","三重區"
"241001","547-UM","2018/05/11 20:29:10","新北市三重區自強路四段39號","121.489093333333","25.0769116666667","6500200","三重區"
"241030","743-BX","2018/05/11 20:29:16","新北市三重區成功路62號","121.48858","25.0509","6500200","三重區"
"241019","887-TS","2018/05/11 20:29:08","新北市三重區重陽路四段77號","121.492581666667","25.07087","6500200","三重區"
"241012","941-UM","2018/05/11 20:29:13","新北市三重區龍濱路261號","121.501495","25.0729433333333","6500200","三重區"
"241029","942-UM","2018/05/11 20:29:05","新北市三重區集美街235號","121.492158333333","25.0552433333333","6500200","三重區"
"241033","AAC-255","2018/05/11 20:29:15","新北市三重區五谷王北街151號","121.476118333333","25.0523566666667","6500200","三重區"
"235039","097-UM","2018/05/11 20:29:16","新北市中和區大勇街27巷10號","121.517028333333","24.993935","6500300","中和區"
"235050","4979-A6","2018/05/11 20:29:01","新北市中和區景新街160巷18號","121.504906666667","24.9966166666667","6500300","中和區"
"235069","4980-A6","2018/05/11 20:29:04","新北市中和區中正路440號","121.491066666667","24.994265","6500300","中和區"
"235059","AAC-215","2018/05/11 20:29:11","新北市中和區員山路37-8號","121.482078333333","24.9900266666667","6500300","中和區"
"247024","893-R6","2018/05/11 20:29:09","新北市蘆洲區長興路50巷61號","121.464911666667","25.0852866666667","6501400","蘆洲區"
"247014","546-UM","2018/05/11 20:29:19","新北市蘆洲區中山二路95號","121.472853333333","25.0818","6501400","蘆洲區"
"247022","500-BY","2018/05/11 20:29:11","新北市蘆洲區中正路176號","121.46717","25.087735","6501400","蘆洲區"
"247010","341-TH","2018/05/11 20:29:11","新北市蘆洲區信義路222巷32弄1號","121.480613333333","25.085505","6501400","蘆洲區"
"247012","339-TH","2018/05/11 20:29:12","新北市蘆洲區復興路237號","121.480306666667","25.0898066666667","6501400","蘆洲區"
"247004","337-TH","2018/05/11 20:29:15","新北市蘆洲區長安街297號","121.45803","25.0848633333333","6501400","蘆洲區"
"247006","336-TH","2018/05/11 20:29:00","新北市蘆洲區和平路121巷14弄29號","121.466048333333","25.0801433333333","6501400","蘆洲區"
"247018","057-VK","2018/05/11 20:28:58","新北市蘆洲區民族路305號","121.474831666667","25.0911616666667","6501400","蘆洲區"
"247008","056-VK","2018/05/11 20:29:09","新北市蘆洲區永安北路二段76巷15號","121.482466666667","25.0853333333333","6501400","蘆洲區"
"247016","007-UY","2018/05/11 20:29:12","新北市蘆洲區光華路11號","121.469811666667","25.0834183333333","6501400","蘆洲區"
"247002","002-UY","2018/05/11 20:29:16","新北市蘆洲區長安街361巷30號","121.455858333333","25.0876466666667","6501400","蘆洲區"
"247020","001-UY","2018/05/11 20:29:10","新北市蘆洲區仁愛街102-1號","121.470098333333","25.0947433333333","6501400","蘆洲區"
"222001","KEA-2212","2018/05/11 20:29:01","新北市深坑區北深路三段345號","121.597223333333","25.0051616666667","6501800","深坑區"
"251009","008-UM","2018/05/11 20:29:14","新北市淡水區中正東路一段3巷14弄1號","121.450778333333","25.1640366666667","6501000","淡水區"
"251001","011-UM","2018/05/11 20:28:58","新北市淡水區新市一路三段36號","121.445566666667","25.1828816666667","6501000","淡水區"
"251002","012-UM","2018/05/11 20:29:08","新北市淡水區中正路52號","121.44321","25.16957","6501000","淡水區"
"251008","181-VK","2018/05/11 20:29:17","新北市淡水區中正路二段52號","121.419818333333","25.1835966666667","6501000","淡水區"
"251010","413-VK","2018/05/11 20:29:00","新北市淡水區沙崙路181巷1號","121.424093333333","25.1842933333333","6501000","淡水區"
"251012","441-VK","2018/05/11 20:29:17","新北市淡水區興仁路108號","121.451701666667","25.2181166666667","6501000","淡水區"
"251006","561-UM","2018/05/11 20:29:05","新北市淡水區商工路296號","121.460611666667","25.1860033333333","6501000","淡水區"
"251003","766-UM","2018/05/11 20:29:09","新北市淡水區新生街108巷1-2號","121.440341666667","25.17476","6501000","淡水區"
"252002","178-VK","2018/05/11 20:29:12","新北市三芝區淡金路二段47-2號","121.503683333333","25.26054","6502100","三芝區"
"252001","702-TV","2018/05/11 20:29:15","新北市三芝區中山路一段14號","121.500755","25.25818","6502100","三芝區"
"242034","AAC-296","2018/05/11 20:29:14","新北市新莊區中正路287號","121.448748333333","25.03535","6500500","新莊區"
"242058","986-R7","2018/05/11 20:29:18","新北市新莊區四維路186巷2號","121.422071666667","25.0211966666667","6500500","新莊區"
"242027","615-BX","2018/05/11 20:29:13","新北市新莊區幸福路1號","121.460041666667","25.0494133333333","6500500","新莊區"
"242025","613-BX","2018/05/11 20:29:05","新北市新莊區五工二路50巷23號","121.461758333333","25.0660416666667","6500500","新莊區"
"242029","612-BX","2018/05/11 20:29:14","新北市新莊區昌隆街18號","121.453716666667","25.05087","6500500","新莊區"
"242041","566-BX","2018/05/11 20:29:08","新北市新莊區天祥街52號","121.416571666667","25.0291233333333","6500500","新莊區"
"242046","497-BY","2018/05/11 20:29:12","新北市新莊區中正路新雅巷5號","121.417986666667","25.0255383333333","6500500","新莊區"
"242050","441-UM","2018/05/11 20:29:12","新北市新莊區民安西路221號","121.426045","25.0144216666667","6500500","新莊區"
"242056","440-UM","2018/05/11 20:29:18","新北市新莊區瓊泰路132號","121.443286666667","25.031865","6500500","新莊區"
"242007","413-TV","2018/05/11 20:29:19","新北市新莊區思源路287巷1弄33號","121.459421666667","25.0469416666667","6500500","新莊區"
"242023","362-BY","2018/05/11 20:29:10","新北市新莊區新北大道二段302號","121.464598333333","25.06139","6500500","新莊區"
"242060","353-BY","2018/05/11 20:29:14","新北市新莊區民全街2號","121.429046666667","25.0210783333333","6500500","新莊區"
"242039","133-UY","2018/05/11 20:29:07","新北市新莊區成功街20號","121.425156666667","25.0210466666667","6500500","新莊區"
"242032","135-UY","2018/05/11 20:29:15","新北市新莊區三泰路32-1號","121.438026666667","25.03522","6500500","新莊區"
"242048","172-VK","2018/05/11 20:29:15","新北市新莊區中正路877-5號","121.41801","25.0265016666667","6500500","新莊區"
"242011","173-VK","2018/05/11 20:29:08","新北市新莊區中義街48號","121.449431666667","25.051185","6500500","新莊區"
"242017","175-VK","2018/05/11 20:28:58","新北市新莊區中港三街35號","121.449968333333","25.0463","6500500","新莊區"
"242005","176-VK","2018/05/11 20:29:18","新北市新莊區化成路389巷50號","121.46357","25.0582633333333","6500500","新莊區"
"242015","346-TH","2018/05/11 20:29:14","新北市新莊區中平路82巷22號","121.445775","25.0449666666667","6500500","新莊區"
"242021","347-TH","2018/05/11 20:29:17","新北市新莊區公園路24號","121.448433333333","25.039135","6500500","新莊區"
"242044","348-TH","2018/05/11 20:29:17","新北市新莊區龍安路22號","121.414485","25.0223316666667","6500500","新莊區"
"242037","349-TH","2018/05/11 20:29:10","新北市新莊區後港一路60號","121.426445","25.0264416666667","6500500","新莊區"
"242019","350-TH","2018/05/11 20:29:16","新北市新莊區銘德街129號","121.45503","25.043065","6500500","新莊區"
"242013","351-TH","2018/05/11 20:29:12","新北市新莊區中平路302巷8號","121.445435","25.0517783333333","6500500","新莊區"
"221008","489-VK","2018/05/11 20:29:07","新北市汐止區康寧街582號","121.635386666667","25.0701316666667","6501100","汐止區"
"221036","130-UY","2018/05/11 20:29:11","新北市汐止區新台五路二段148號","121.664151666667","25.0665933333333","6501100","汐止區"
"221015","131-UY","2018/05/11 20:29:07","新北市汐止區建成路142巷19弄1號","121.662246666667","25.073765","6501100","汐止區"
"221010","269-BY","2018/05/11 20:29:01","新北市汐止區八連路二段376-1號","121.629725","25.10149","6501100","汐止區"
"221012","278-VK","2018/05/11 20:29:19","新北市汐止區大同路三段241號","121.672661666667","25.0766633333333","6501100","汐止區"
"221023","279-VK","2018/05/11 20:29:14","新北市汐止區湖東街17號","121.635393333333","25.07228","6501100","汐止區"
"221032","280-BY","2018/05/11 20:29:15","新北市汐止區弘道街53巷11號","121.618651666667","25.0489966666667","6501100","汐止區"
"221027","281-BY","2018/05/11 20:29:15","新北市汐止區中正路189號","121.658796666667","25.06902","6501100","汐止區"
"221029","298-VK","2018/05/11 20:29:04","新北市汐止區樟樹一路138號","121.642228333333","25.0649083333333","6501100","汐止區"
"221021","299-VK","2018/05/11 20:29:08","新北市汐止區水源路一段293號","121.654376666667","25.0582866666667","6501100","汐止區"
"221031","353-TW","2018/05/11 20:29:10","新北市汐止區福德一路239號","121.634101666667","25.0644983333333","6501100","汐止區"
"221035","622-UM","2018/05/11 20:28:58","新北市汐止區長江街101-5號","121.65868","25.0732316666667","6501100","汐止區"
"221025","623-UM","2018/05/11 20:29:09","新北市汐止區水源路二段88巷1弄3號","121.656448333333","25.0558116666667","6501100","汐止區"
"221038","646-BX","2018/05/11 20:29:13","新北市汐止區秀峰路6巷12號","121.659206666667","25.0660583333333","6501100","汐止區"
"221033","647-BX","2018/05/11 20:29:10","新北市汐止區林森街73巷9號","121.623631666667","25.04109","6501100","汐止區"
"221002","707-TV","2018/05/11 20:29:17","新北市汐止區福德二路21-1號","121.635281666667","25.0682733333333","6501100","汐止區"
"221018","753-BX","2018/05/11 20:29:02","新北市汐止區茄苳路158號","121.669163333333","25.069815","6501100","汐止區"
"242002","KEA-2550","2018/05/11 20:29:07","新北市新莊區中正路育農巷1號","121.456975","25.0379666666667","6500500","新莊區"
"220101","245-BX","2018/05/11 20:28:32","新北市五股區中直路15-2號","121.423631666667","25.11096","6500100","板橋區"
"220061","293-UM","2018/05/11 20:29:06","新北市板橋區文華街22號","121.457468333333","25.000685","6500100","板橋區"
"242009","281-VK","2018/05/11 20:29:06","新北市新莊區昌隆街92號","121.456175","25.0508166666667","6500500","新莊區"
"242054","280-VK","2018/05/11 20:29:05","新北市新莊區西盛街362巷14號","121.427293333333","25.0136716666667","6500500","新莊區"
"220103","561-BX","2018/05/11 20:29:19","新北市板橋區漢生東路31號","121.465393333333","25.0169866666667","6500100","板橋區"
"220102","KEA-2699","2018/05/11 20:29:12","新北市板橋區民生路二段207號","121.469251666667","25.02091","6500100","板橋區"
"220089","833-TW","2018/05/11 20:29:01","新北市板橋區四維路345號","121.46238","25.0298383333333","6500100","板橋區"
"220070","AAC-253","2018/05/11 20:29:15","新北市五股區新五路二段251號","121.442613333333","25.0852833333333","6500100","板橋區"
