"lineid","car","time","location","longitude","latitude","cityid","cityname"
"247010","341-TH","2018/05/11 22:09:11","新北市八里區中山路三段409號","121.368578333333","25.134875","6501400","蘆洲區"
"251004","009-UM","2018/05/11 22:09:07","新北市淡水區民族路72號","121.462218333333","25.1356633333333","6501000","淡水區"
"251008","181-VK","2018/05/11 22:09:01","新北市淡水區學府路104號","121.449871666667","25.1717916666667","6501000","淡水區"
"251010","413-VK","2018/05/11 22:09:20","新北市淡水區沙崙路200號","121.424733333333","25.1839283333333","6501000","淡水區"
"251007","442-VK","2018/05/11 22:09:14","新北市淡水區北新路180號","121.449408333333","25.1787716666667","6501000","淡水區"
"251005","443-VK","2018/05/11 22:09:01","新北市淡水區水源街二段177巷32弄20號","121.455648333333","25.17784","6501000","淡水區"
"251011","650-BX","2018/05/11 22:09:08","新北市淡水區水碓街7號","121.443238333333","25.177125","6501000","淡水區"
