"lineid","car","time","location","longitude","latitude","cityid","cityname"
"248005","653-BX","2018/05/12 07:19:21","新北市五股區明德路12巷3號","121.433293333333","25.0718","6501500","五股區"
"232004","290-BY","2018/05/12 07:19:29","新北市坪林區坪雙路一段66號","121.714776666667","24.9434883333333","6502000","坪林區"
"232016","291-BY","2018/05/12 07:19:25","新北市坪林區金瓜寮19號","121.679758333333","24.913125","6502000","坪林區"
"232010","375-UM","2018/05/12 07:19:15","新北市坪林區水聳淒坑5-1號","121.726213333333","24.9259883333333","6502000","坪林區"
"232009","758-BX","2018/05/12 07:19:14","新北市坪林區魚堀44-1號","121.701381666667","24.9330333333333","6502000","坪林區"
"244005","248-BX","2018/05/12 07:19:20","新北市林口區頂福里71-82號","121.3546","25.0818016666667","6501700","林口區"
"222004","289-BY","2018/05/12 07:16:20","新北市深坑區昇高坑路72號","121.630926666667","24.9878666666667","6501800","深坑區"
"231007","189-VK","2018/05/12 07:19:24","新北市新店區安一路一段1-1號","121.520175","24.9611233333333","6500600","新店區"
"235001","611-BX","2018/05/12 07:19:20","新北市中和區圓通路367巷6號","121.491525","24.9893333333333","6500300","中和區"
"226005","5620-A6","2018/05/12 07:16:50","新北市平溪區靜安路二段123號","121.721555","25.0236","6502400","平溪區"
"226007","7418-A5","2018/05/12 07:18:54","新北市平溪區望古里灰4-2號","121.763168333333","25.0295366666667","6502400","平溪區"
"226003","AGD-0702","2018/05/12 07:19:27","新北市平溪區嶺腳里嶺腳寮36號","121.748381666667","25.0313633333333","6502400","平溪區"
"223006","022-BY","2018/05/12 07:19:13","新北市石碇區靜安路一段102號","121.648008333333","25.0102116666667","6501900","石碇區"
"223002","KEA-2673","2018/05/12 07:19:24","新北市石碇區半路店3號","121.647373333333","24.9641383333333","6501900","石碇區"
"223001","205-TH","2018/05/12 07:19:19","新北市石碇區蓬菜寮10號","121.65153","24.9735516666667","6501900","石碇區"
"223008","406-TH","2018/05/12 07:19:15","新北市石碇區番子坑22-5號","121.677388333333","25.0006316666667","6501900","石碇區"
"223001","592-UM","2018/05/12 07:19:28","新北市石碇區中楒子腳1-1號","121.644395","24.9705216666667","6501900","石碇區"
"223004","660-BX","2018/05/12 07:19:18","新北市石碇區新興坑4號","121.653596666667","25.0168616666667","6501900","石碇區"
"223007","661-BX","2018/05/12 07:19:24","新北市石碇區蚯蚓坑18-4號","121.690965","25.0044733333333","6501900","石碇區"
"223005","677-TV","2018/05/12 07:19:21","新北市石碇區新興坑1-1號","121.653423333333","25.01371","6501900","石碇區"
"227006","030-BX","2018/05/12 07:19:19","新北市雙溪區新基里自強路7號","121.866231666667","25.0390116666667","6502500","雙溪區"
"252004","249-BX","2018/05/12 07:19:28","新北市三芝區店子里龜子山4號","121.503041666667","25.2207516666667","6502100","三芝區"
"252007","AAC-283","2018/05/12 07:19:21","新北市三芝區錫板里海尾14-6號","121.477925","25.2583016666667","6502100","三芝區"
"237001","159-UY","2018/05/12 07:19:21","新北市三峽區隆恩街551號","121.357151666667","24.9400316666667","6500900","三峽區"
"236011","165-UM","2018/05/12 07:19:15","新北市土城區中央路一段57號","121.447821666667","24.9902483333333","6501300","土城區"
"236002","339-SR","2018/05/12 07:19:17","新北市土城區南天母路139-1號","121.447865","24.9535733333333","6501300","土城區"
"220070","282-UM","2018/05/12 07:16:40","新北市板橋區國光路51號","121.458045","25.01795","6500100","板橋區"
