"lineid","car","time","location","longitude","latitude","cityid","cityname"
"248005","653-BX","2018/05/12 07:49:21","新北市五股區明德路12巷3號","121.433266666667","25.0717783333333","6501500","五股區"
"232004","290-BY","2018/05/12 07:49:29","新北市坪林區下坑子口6-15號","121.71133","24.9433366666667","6502000","坪林區"
"232010","375-UM","2018/05/12 07:49:15","新北市坪林區磨壁潭10-1號","121.72348","24.9380633333333","6502000","坪林區"
"244005","248-BX","2018/05/12 07:49:20","新北市林口區下福里46-1號","121.310873333333","25.1132633333333","6501700","林口區"
"231007","189-VK","2018/05/12 07:49:29","新北市新店區安一路一段1-1號","121.520143333333","24.9616783333333","6500600","新店區"
"235001","611-BX","2018/05/12 07:49:20","新北市中和區圓通路367巷6號","121.49151","24.989325","6500300","中和區"
"226005","5620-A6","2018/05/12 07:49:10","新北市平溪區嶺腳里中華街39號","121.73926","25.02492","6502400","平溪區"
"226007","7418-A5","2018/05/12 07:49:13","新北市平溪區平湖里坑頭3-2號","121.784408333333","25.0260333333333","6502400","平溪區"
"226003","AGD-0702","2018/05/12 07:38:06","新北市平溪區嶺腳里嶺腳寮83-2號","121.750565","25.0351083333333","6502400","平溪區"
"223006","022-BY","2018/05/12 07:49:13","新北市石碇區北宜路五段38號","121.63143","24.951865","6501900","石碇區"
"223001","205-TH","2018/05/12 07:49:19","新北市石碇區四分子6號","121.664365","24.9609666666667","6501900","石碇區"
"223008","406-TH","2018/05/12 07:39:56","新北市石碇區靜安路一段337號","121.698838333333","25.0145466666667","6501900","石碇區"
"223001","592-UM","2018/05/12 07:49:26","新北市石碇區四分子6號","121.665201666667","24.96162","6501900","石碇區"
"223004","660-BX","2018/05/12 07:49:18","新北市石碇區楓子林30號","121.642298333333","25.009525","6501900","石碇區"
"223007","661-BX","2018/05/12 07:49:24","新北市石碇區靜安路一段337號","121.698923333333","25.0145816666667","6501900","石碇區"
"223005","677-TV","2018/05/12 07:49:21","新北市石碇區楓子林30號","121.642296666667","25.00962","6501900","石碇區"
"227006","030-BX","2018/05/12 07:49:19","新北市雙溪區雙溪里太平路54號","121.864818333333","25.0355316666667","6502500","雙溪區"
"252004","249-BX","2018/05/12 07:49:28","新北市三芝區店子里菜公坑76-2號","121.508966666667","25.2047133333333","6502100","三芝區"
"252007","AAC-283","2018/05/12 07:49:21","新北市三芝區海景四街23號","121.47319","25.2462616666667","6502100","三芝區"
"237001","159-UY","2018/05/12 07:49:21","新北市三峽區大學路86號","121.375818333333","24.9422466666667","6500900","三峽區"
"236011","165-UM","2018/05/12 07:48:55","新北市土城區永豐路181號","121.470035","24.9784683333333","6501300","土城區"
"236002","339-SR","2018/05/12 07:49:29","新北市土城區龍泉路80-1號","121.434465","24.9428116666667","6501300","土城區"
"220070","282-UM","2018/05/12 07:49:15","新北市板橋區南雅東路2號","121.455563333333","25.00577","6500100","板橋區"
