"lineid","car","time","location","longitude","latitude","cityid","cityname"
"248005","653-BX","2018/07/12 08:19:50","新北市五股區明德路10號","121.433436666667","25.0716866666667","6501500","五股區"
"232002","290-BY","2018/07/12 08:19:51","新北市坪林區坪雙路一段115號","121.728228333333","24.9482116666667","6502000","坪林區"
"232014","291-BY","2018/07/12 08:19:52","新北市坪林區嶺腳坑3號","121.69255","24.936865","6502000","坪林區"
"244006","080-UY","2018/07/12 08:19:40","新北市林口區菁埔1-72號","121.380965","25.0965916666667","6501700","林口區"
"244003","248-BX","2018/07/12 08:19:32","新北市林口區嘉溪雅坑9號","121.33395","25.1060033333333","6501700","林口區"
"244018","403-UM","2018/07/12 08:19:33","新北市林口區仁愛路二段190號","121.380301666667","25.0739183333333","6501700","林口區"
"244012","742-UY","2018/07/12 08:19:44","新北市林口區中山路255號","121.385306666667","25.0793683333333","6501700","林口區"
"244008","410-SL","2018/07/12 08:19:50","新北市林口區寶林路123號","121.383223333333","25.08544","6501700","林口區"
"244022","483-VK","2018/07/12 08:19:38","新北市林口區育林街11巷1-1號","121.385513333333","25.0755483333333","6501700","林口區"
"244016","485-VK","2018/07/12 08:19:45","新北市林口區中山路158號","121.390675","25.0787833333333","6501700","林口區"
"244010","657-BX","2018/07/12 08:19:38","新北市林口區中正路441號","121.384865","25.07773","6501700","林口區"
"244024","837-TS","2018/07/12 08:19:36","新北市林口區文化三路一段377-1號","121.36517","25.07362","6501700","林口區"
"244020","838-TS","2018/07/12 08:19:51","新北市林口區粉寮路一段135號","121.39897","25.0810816666667","6501700","林口區"
"222006","289-BY","2018/07/12 08:19:41","新北市深坑區萬福路81號","121.602808333333","25.0098383333333","6501800","深坑區"
"231069","189-VK","2018/07/12 08:19:36","新北市新店區新潭路一段22巷6號","121.522801666667","24.94304","6500600","新店區"
"231008","192-VK","2018/07/12 08:19:53","新北市新店區新烏路一段245-3號","121.548725","24.9307966666667","6500600","新店區"
"235001","611-BX","2018/07/12 08:19:48","新北市中和區中正路395號","121.489205","24.9939316666667","6500300","中和區"
"226005","5620-A6","2018/07/12 08:19:34","新北市平溪區南山里南山坪123號","121.78389","25.0447533333333","6502400","平溪區"
"226007","7418-A5","2018/07/12 08:19:36","新北市平溪區南山里南山坪20號","121.772113333333","25.0371616666667","6502400","平溪區"
"226003","AGD-0702","2018/07/12 08:19:49","新北市平溪區十分里十分街58巷7號","121.77541","25.0421183333333","6502400","平溪區"
"223006","022-BY","2018/07/12 08:18:19","新北市深坑區文山路一段10號","121.643003333333","25.0086333333333","6501900","石碇區"
"223002","KEA-2673","2018/07/12 08:19:47","新北市石碇區四分子路小粗坑巷5-1號","121.652865","24.9603233333333","6501900","石碇區"
"223003","205-TH","2018/07/12 08:19:50","新北市石碇區北宜路六段塗潭巷27號","121.64879","24.9322483333333","6501900","石碇區"
"223008","406-TH","2018/07/12 08:19:51","新北市石碇區石碇子埔97-4號","121.668415","25.0049016666667","6501900","石碇區"
"223001","592-UM","2018/07/12 08:19:45","新北市石碇區北宜路六段塗潭巷27號","121.648678333333","24.9323966666667","6501900","石碇區"
"223004","660-BX","2018/07/12 08:19:32","新北市石碇區碇坪路一段39號","121.658131666667","24.991455","6501900","石碇區"
"223005","677-TV","2018/07/12 08:19:33","新北市石碇區碇坪路一段39號","121.65807","24.9914783333333","6501900","石碇區"
"252004","249-BX","2018/07/12 08:19:44","新北市三芝區興華里車埕62號","121.498725","25.1969183333333","6502100","三芝區"
"252007","AAC-283","2018/07/12 08:19:42","新北市淡水區淡金路五段172號","121.457345","25.2403616666667","6502100","三芝區"
"237001","159-UY","2018/07/12 08:19:48","新北市三峽區大義路17號","121.378785","24.9441516666667","6500900","三峽區"
"236009","165-UM","2018/07/12 08:19:39","新北市土城區青雲路322巷12號","121.457478333333","24.9766533333333","6501300","土城區"
"236003","339-SR","2018/07/12 08:19:37","新北市土城區龍泉路64-1號","121.415293333333","24.94253","6501300","土城區"
"236005","498-BY","2018/07/12 08:19:42","新北市土城區中央路三段281巷1號","121.426755","24.9631683333333","6501300","土城區"
"242057","986-R7","2018/07/12 08:19:45","新北市新莊區壽山路162號","121.415148333333","25.0311366666667","6500500","新莊區"
"242052","751-BX","2018/07/12 08:19:47","新北市新莊區新樹路699巷43號","121.433095","25.0011733333333","6500500","新莊區"
"242026","615-BX","2018/07/12 08:19:54","新北市新莊區中原路5號","121.459343333333","25.054375","6500500","新莊區"
"242024","613-BX","2018/07/12 08:19:33","新北市三重區新北大道二段80-1號","121.47025","25.0616516666667","6500500","新莊區"
"242028","612-BX","2018/07/12 08:19:55","新北市新莊區中平路110巷9號","121.445508333333","25.0461283333333","6500500","新莊區"
"242040","566-BX","2018/07/12 08:19:42","新北市新莊區中正路612-1號","121.426143333333","25.0301833333333","6500500","新莊區"
"242045","497-BY","2018/07/12 08:19:44","新北市新莊區福營路125巷17號","121.433555","25.03095","6500500","新莊區"
"242038","442-UM","2018/07/12 08:19:50","新北市新莊區民安西路24巷1號","121.426546666667","25.0211566666667","6500500","新莊區"
"242049","441-UM","2018/07/12 08:19:43","新北市新莊區民本街53巷15號","121.428841666667","25.0181933333333","6500500","新莊區"
"242055","440-UM","2018/07/12 08:19:48","新北市新莊區豐年街128號","121.446551666667","25.0295933333333","6500500","新莊區"
"242035","415-TV","2018/07/12 08:19:50","新北市新莊區建福路27號","121.426473333333","25.0289933333333","6500500","新莊區"
"242006","413-TV","2018/07/12 08:19:50","新北市新莊區自強街23巷9號","121.454103333333","25.0463366666667","6500500","新莊區"
"242043","400-BY","2018/07/12 08:19:51","新北市新莊區雙鳳路109號","121.413913333333","25.02808","6500500","新莊區"
"242022","362-BY","2018/07/12 08:19:48","新北市新莊區幸福東路106號","121.463285","25.0494466666667","6500500","新莊區"
"242059","353-BY","2018/07/12 08:19:43","新北市新莊區瓊林南路220號","121.433526666667","25.0056133333333","6500500","新莊區"
"242008","132-UY","2018/07/12 08:19:52","新北市新莊區昌平街59巷10號","121.454406666667","25.05319","6500500","新莊區"
"242030","135-UY","2018/07/12 08:19:55","新北市新莊區新泰路305巷16號","121.44453","25.041005","6500500","新莊區"
"242047","172-VK","2018/07/12 08:19:36","新北市新莊區萬安街49號","121.421538333333","25.02464","6500500","新莊區"
"242010","173-VK","2018/07/12 08:19:42","新北市新莊區中港路728號","121.450885","25.0574333333333","6500500","新莊區"
"242016","175-VK","2018/07/12 08:19:50","新北市新莊區中和街48號","121.448125","25.044475","6500500","新莊區"
"242003","176-VK","2018/07/12 08:19:51","新北市新莊區自由街6號","121.455773333333","25.0478783333333","6500500","新莊區"
"242014","346-TH","2018/07/12 08:19:45","新北市新莊區新泰路502巷41弄8號","121.443775","25.046665","6500500","新莊區"
"242001","349-TH","2018/07/12 08:19:54","新北市新莊區大觀街42巷31號","121.454605","25.0364433333333","6500500","新莊區"
"242018","350-TH","2018/07/12 08:19:45","新北市新莊區民樂街28號","121.4577","25.04078","6500500","新莊區"
"242012","351-TH","2018/07/12 08:19:49","新北市新莊區中和街112號","121.447675","25.0472933333333","6500500","新莊區"
"242020","281-VK","2018/07/12 08:19:47","新北市新莊區中華路一段66巷5號","121.45246","25.0387516666667","6500500","新莊區"
"242033","280-VK","2018/07/12 08:19:41","新北市新莊區福海街31巷2號","121.445163333333","25.0339633333333","6500500","新莊區"
