"lineid","car","time","location","longitude","latitude","cityid","cityname"
"248005","653-BX","2018/07/12 10:29:10","新北市五股區中興路二段83巷26-6號","121.460008333333","25.07526","6501500","五股區"
"222006","289-BY","2018/07/12 10:29:20","新北市深坑區向天湖12號","121.619883333333","24.9916066666667","6501800","深坑區"
"231069","189-VK","2018/07/12 10:29:16","新北市新店區新潭路三段131號","121.511141666667","24.9114566666667","6500600","新店區"
"231008","192-VK","2018/07/12 10:26:53","新北市新店區小坑一路73巷6號","121.530128333333","24.908445","6500600","新店區"
"252007","AAC-283","2018/07/12 10:29:22","新北市三芝區新庄里番社后29-1號","121.50152","25.2706866666667","6502100","三芝區"
"237001","159-UY","2018/07/12 10:29:08","新北市三峽區國際一街66-2號","121.372373333333","24.94193","6500900","三峽區"
"242038","442-UM","2018/07/12 10:19:02","新北市新莊區新泰路255巷83號","121.44204","25.03894","6500500","新莊區"
