"lineid","car","time","location","longitude","latitude","cityid","cityname"
"234036","336-UY","2018/07/12 12:19:12","新北市永和區福和路1號","121.526698333333","25.0100766666667","6500400","永和區"
"234068","552-UM","2018/07/12 12:17:16","新北市永和區福和路1號","121.525543333333","25.0094683333333","6500400","永和區"
"234084","553-UM","2018/07/12 12:19:21","新北市永和區福和路1號","121.526118333333","25.0099266666667","6500400","永和區"
"234040","862-TW","2018/07/12 12:19:12","新北市永和區福和路1號","121.525621666667","25.0093583333333","6500400","永和區"
"244019","403-UM","2018/07/12 12:00:22","新北市林口區粉寮69號","121.405076666667","25.0908233333333","6501700","林口區"
"243008","380-SR","2018/07/12 12:15:39","新北市泰山區黎明路25號","121.422375","25.0607416666667","6501600","泰山區"
"231008","192-VK","2018/07/12 12:19:13","新北市新店區新烏路一段65號","121.546123333333","24.943545","6500600","新店區"
"235029","098-UM","2018/07/12 12:19:22","新北市中和區員山路36巷16-3號","121.485065","24.991275","6500300","中和區"
"235005","802-TS","2018/07/12 12:19:16","新北市中和區員山路36巷16-2號","121.485291666667","24.9917116666667","6500300","中和區"
"228005","097-TW","2018/07/12 12:19:12","新北市貢寮區福連里福連街36號","121.98958","25.0100683333333","6502600","貢寮區"
"228004","212-TW","2018/07/12 12:19:17","新北市貢寮區貢寮里長泰路17-2號","121.892511666667","25.0208866666667","6502600","貢寮區"
