"lineid","car","time","location","longitude","latitude","cityid","cityname"
"234044","148-BY","2018/07/12 12:59:16","新北市永和區得和路373巷31弄8號","121.524673333333","25.0007566666667","6500400","永和區"
"234070","149-BY","2018/07/12 12:59:16","新北市永和區民生路47巷18號","121.52391","24.9975516666667","6500400","永和區"
"234005","207-UY","2018/07/12 12:59:28","新北市永和區永和路二段70號","121.514861666667","25.011","6500400","永和區"
"234078","298-R6","2018/07/12 12:59:15","新北市永和區永亨路83號","121.522008333333","25.0057233333333","6500400","永和區"
"234036","336-UY","2018/07/12 12:59:12","新北市中和區秀朗路三段38號","121.526425","24.9959616666667","6500400","永和區"
"234062","337-UY","2018/07/12 12:59:22","新北市永和區秀朗路一段152號","121.518286666667","25.0032616666667","6500400","永和區"
"234068","552-UM","2018/07/12 12:59:16","新北市永和區竹林路124巷32號","121.518198333333","25.0115483333333","6500400","永和區"
"234084","553-UM","2018/07/12 12:59:22","新北市永和區中正路155號","121.516421666667","24.9983033333333","6500400","永和區"
"234015","745-BX","2018/07/12 12:59:26","新北市永和區永和路二段299號","121.516075","25.0161","6500400","永和區"
"234028","746-BX","2018/07/12 12:59:19","新北市永和區秀朗路二段289號","121.526165","24.9980533333333","6500400","永和區"
"234052","KEA-2590","2018/07/12 12:59:30","新北市永和區竹林路66巷2號","121.518291666667","25.0133483333333","6500400","永和區"
"234012","KEA-2591","2018/07/12 12:59:22","新北市永和區信義路14號","121.514411666667","25.0120166666667","6500400","永和區"
"234060","AAD-866","2018/07/12 12:59:09","新北市永和區福和路309巷1號","121.516278333333","25.0070716666667","6500400","永和區"
"234040","862-TW","2018/07/12 12:59:12","新北市永和區永貞路308號","121.51186","25.0048933333333","6500400","永和區"
"234048","863-TW","2018/07/12 12:59:15","新北市永和區文化路190號","121.510863333333","25.0162016666667","6500400","永和區"
"234025","9371-KE","2018/07/12 12:59:19","新北市永和區水源街2巷14號","121.512348333333","25.0056433333333","6500400","永和區"
"234010","9373-KE","2018/07/12 12:59:23","新北市永和區文化路113巷19號","121.513243333333","25.01408","6500400","永和區"
"248015","026-BX","2018/07/12 12:59:15","新北市五股區中興路二段83巷26-6號","121.459895","25.075265","6501500","五股區"
"248005","077-UY","2018/07/12 12:59:19","新北市五股區中興路二段37巷26號","121.460295","25.0750616666667","6501500","五股區"
"248007","095-VK","2018/07/12 12:59:09","新北市五股區中興路二段150號","121.458615","25.0785683333333","6501500","五股區"
"248017","225-UY","2018/07/12 12:59:18","新北市五股區中興路二段83巷26-6號","121.460106666667","25.07517","6501500","五股區"
"248013","261-SL","2018/07/12 12:59:26","新北市五股區更洲路47-1號","121.454873333333","25.078175","6501500","五股區"
"234022","9380-KE","2018/07/12 12:59:27","新北市永和區竹林路75巷25弄3號","121.520315","25.0141633333333","6500400","永和區"
"234076","969-R7","2018/07/12 12:59:17","新北市永和區民享街3號","121.5151","24.9955766666667","6500400","永和區"
"234072","AAC-211","2018/07/12 12:59:11","新北市永和區環河東路二段100號","121.524095","25.010305","6500400","永和區"
"234066","AAC-212","2018/07/12 12:59:15","新北市永和區自由街76號","121.51334","25.0053033333333","6500400","永和區"
"234001","AAC-295","2018/07/12 12:59:15","新北市永和區永平路20號","121.513578333333","25.0088233333333","6500400","永和區"
"244003","248-BX","2018/07/12 12:59:15","新北市林口區中山路68-1號","121.393323333333","25.0786","6501700","林口區"
"231002","002-UM","2018/07/12 12:59:11","新北市新店區安華路28-1號","121.519746666667","24.96084","6500600","新店區"
"231027","0291-UT","2018/07/12 12:59:21","新北市新店區安華路28-1號","121.519363333333","24.9605866666667","6500600","新店區"
"231028","046-UY","2018/07/12 12:59:25","新北市新店區安華路28-1號","121.519541666667","24.96094","6500600","新店區"
"231001","047-UY","2018/07/12 12:59:27","新北市新店區安華路28-1號","121.519326666667","24.9608583333333","6500600","新店區"
"231005","106-UY","2018/07/12 12:59:12","新北市新店區安華路28-1號","121.519606666667","24.9608083333333","6500600","新店區"
"231010","107-UY","2018/07/12 12:59:10","新北市新店區安華路28-1號","121.51971","24.961015","6500600","新店區"
"231036","110-UY","2018/07/12 12:59:14","新北市新店區安一路一段1-1號","121.519206666667","24.9611466666667","6500600","新店區"
"231011","187-VK","2018/07/12 12:59:11","新北市新店區安一路一段1-1號","121.519545","24.961205","6500600","新店區"
"231003","268-BY","2018/07/12 12:59:17","新北市新店區安華路28-1號","121.519396666667","24.9605566666667","6500600","新店區"
"231018","278-BY","2018/07/12 12:59:13","新北市新店區安一路一段1-1號","121.519698333333","24.9612566666667","6500600","新店區"
"231017","AAD-862","2018/07/12 12:59:14","新北市新店區安一路一段1-1號","121.51996","24.9612433333333","6500600","新店區"
"231037","4716-K9","2018/07/12 12:59:27","新北市新店區安一路一段1-1號","121.519315","24.9612183333333","6500600","新店區"
"231013","513-UM","2018/07/12 12:59:22","新北市新店區安一路一段1-1號","121.519715","24.9611533333333","6500600","新店區"
"231034","616-UM","2018/07/12 12:59:15","新北市新店區安華路28-1號","121.519503333333","24.9606916666667","6500600","新店區"
"231030","619-UM","2018/07/12 12:59:22","新北市新店區安華路28-1號","121.519468333333","24.96095","6500600","新店區"
"231035","719-UM","2018/07/12 12:59:22","新北市新店區安一路一段1-1號","121.51954","24.9613366666667","6500600","新店區"
"231021","719-UY","2018/07/12 12:59:28","新北市新店區安一路一段1-1號","121.519446666667","24.9612183333333","6500600","新店區"
"231031","720-UM","2018/07/12 12:59:25","新北市新店區安一路一段1-1號","121.519293333333","24.9611833333333","6500600","新店區"
"231029","897-TW","2018/07/12 12:59:17","新北市新店區安華路28-1號","121.519445","24.9608566666667","6500600","新店區"
"231006","898-TW","2018/07/12 12:59:14","新北市新店區安華路28-1號","121.519391666667","24.9609266666667","6500600","新店區"
"231004","899-TW","2018/07/12 12:59:26","新北市新店區安華路28-1號","121.519061666667","24.960905","6500600","新店區"
"231024","AKT-0513","2018/07/12 12:59:30","新北市新店區安華路28-1號","121.51966","24.96072","6500600","新店區"
"235028","005-UY","2018/07/12 12:59:17","新北市中和區員山路36巷16-3號","121.485105","24.9912166666667","6500300","中和區"
"235027","006-UY","2018/07/12 12:59:21","新北市中和區員山路36巷16-3號","121.485001666667","24.991365","6500300","中和區"
"235009","031-BX","2018/07/12 12:56:56","新北市中和區員山路36巷13號","121.484178333333","24.9909433333333","6500300","中和區"
"235029","098-UM","2018/07/12 12:59:22","新北市中和區中山路二段311-3號","121.49466","25.0021133333333","6500300","中和區"
"235022","151-BY","2018/07/12 12:59:17","新北市中和區圓通路367巷18號","121.491706666667","24.9889016666667","6500300","中和區"
"235002","185-VK","2018/07/12 12:59:16","新北市中和區成功路8號","121.526226666667","24.9936666666667","6500300","中和區"
"235031","255-BX","2018/07/12 12:59:24","新北市中和區中正路895號","121.484276666667","25.0046916666667","6500300","中和區"
"235006","KEA-2878","2018/07/12 12:59:10","新北市中和區和城路一段271巷1號","121.48548","24.9916716666667","6500300","中和區"
"235014","4979-A6","2018/07/12 12:59:28","新北市中和區員山路36巷13號","121.484325","24.9914316666667","6500300","中和區"
"235001","611-BX","2018/07/12 12:59:18","新北市中和區中山路三段136巷10弄11號","121.474015","25.0074016666667","6500300","中和區"
"235018","640-BX","2018/07/12 12:59:19","新北市中和區連城路523巷13弄10號","121.481925","24.9935666666667","6500300","中和區"
"235035","783-BX","2018/07/12 12:59:01","新北市中和區連城路469-1號","121.483515","24.9958066666667","6500300","中和區"
"235026","800-TS","2018/07/12 12:59:26","新北市中和區員山路36巷16-2號","121.485048333333","24.9919666666667","6500300","中和區"
"235005","802-TS","2018/07/12 12:59:10","新北市中和區員山路36巷16-2號","121.485196666667","24.991685","6500300","中和區"
"235016","805-TS","2018/07/12 12:59:15","新北市中和區員山路36巷16號","121.484345","24.9916466666667","6500300","中和區"
"235015","157-BY","2018/07/12 12:59:24","新北市中和區中正路501號","121.488933333333","24.9935283333333","6500300","中和區"
"235001","AAC-213","2018/07/12 12:59:26","新北市中和區錦和路350-1號","121.490593333333","24.993555","6500300","中和區"
"235023","AAC-215","2018/07/12 12:59:22","新北市中和區員山路36巷16-3號","121.484998333333","24.99119","6500300","中和區"
"228005","097-TW","2018/07/12 12:59:12","新北市貢寮區福隆里桂安街17號","121.966146666667","25.022445","6502600","貢寮區"
"228004","212-TW","2018/07/12 12:59:17","新北市貢寮區吉林里內寮街57號","121.88702","24.9874983333333","6502600","貢寮區"
"253004","8270-PC","2018/07/12 12:59:30","新北市石門區中山路64-1號","121.567513333333","25.2905283333333","6502200","石門區"
"207002","749-BX","2018/07/12 12:59:25","新北市萬里區雙興里大坪路45-2號","121.627925","25.1692216666667","6502800","萬里區"
"207001","662-BX","2018/07/12 12:59:12","新北市萬里區萬里里獅頭路23號","121.693256666667","25.17838","6502800","萬里區"
"252005","AAC-283","2018/07/12 12:59:23","新北市三芝區埔坪里埔頭坑43號","121.504598333333","25.2617633333333","6502100","三芝區"
"236005","498-BY","2018/07/12 12:59:21","新北市土城區亞洲路34號","121.436091666667","24.9740583333333","6501300","土城區"
"242038","442-UM","2018/07/12 12:59:26","新北市新莊區中正路176號","121.45068","25.0358666666667","6500500","新莊區"
"221032","280-BY","2018/07/12 12:59:20","新北市汐止區大同路二段647號","121.664723333333","25.07134","6501100","汐止區"
"235025","KEA-2875","2018/07/12 12:59:22","新北市中和區員山路36巷16-2號","121.485346666667","24.991735","6500300","中和區"
