"lineid","car","time","location","longitude","latitude","cityid","cityname"
"234044","148-BY","2018/07/12 13:39:16","新北市永和區永利路238號","121.523936666667","25.0025133333333","6500400","永和區"
"234070","149-BY","2018/07/12 13:39:16","新北市永和區自由街77巷20弄3號","121.513691666667","25.00421","6500400","永和區"
"234005","207-UY","2018/07/12 13:39:28","新北市永和區永和路一段107號","121.513921666667","25.0078933333333","6500400","永和區"
"234078","298-R6","2018/07/12 13:39:16","新北市永和區國中路104巷8弄11號","121.525146666667","25.0065866666667","6500400","永和區"
"234036","336-UY","2018/07/12 13:39:12","新北市永和區環河東路四段20號","121.528573333333","24.99964","6500400","永和區"
"234062","337-UY","2018/07/12 13:39:26","新北市永和區秀朗路一段192巷6弄5號","121.519346666667","25.0021533333333","6500400","永和區"
"234068","552-UM","2018/07/12 13:39:16","新北市永和區永和路二段233號","121.51554","25.0142633333333","6500400","永和區"
"234084","553-UM","2018/07/12 13:39:22","新北市永和區永亨路165巷1-5號","121.526171666667","25.00412","6500400","永和區"
"234015","745-BX","2018/07/12 13:39:28","新北市永和區永和路二段405巷6號","121.515271666667","25.017415","6500400","永和區"
"234028","746-BX","2018/07/12 13:39:29","新北市永和區民權路29巷2號","121.520295","24.9977166666667","6500400","永和區"
"234052","KEA-2590","2018/07/12 13:39:30","新北市永和區竹林路39巷26號","121.519048333333","25.01472","6500400","永和區"
"234012","KEA-2591","2018/07/12 13:39:22","新北市永和區永平路238巷10號","121.50946","25.011455","6500400","永和區"
"234060","AAD-866","2018/07/12 13:39:29","新北市永和區中正路352號","121.517765","25.0005166666667","6500400","永和區"
"234040","862-TW","2018/07/12 13:39:12","新北市永和區永貞路261號","121.512018333333","25.0046083333333","6500400","永和區"
"234048","863-TW","2018/07/12 13:39:15","新北市永和區保安路11號","121.51052","25.016865","6500400","永和區"
"234025","9371-KE","2018/07/12 13:39:17","新北市永和區自由街58號","121.513708333333","25.005885","6500400","永和區"
"234010","9373-KE","2018/07/12 13:39:23","新北市永和區保福路二段85號","121.510605","25.0127583333333","6500400","永和區"
"248015","026-BX","2018/07/12 13:39:15","新北市五股區凌雲路一段149巷13-1號","121.44862","25.1008783333333","6501500","五股區"
"248005","077-UY","2018/07/12 13:39:20","新北市五股區中興路一段21號","121.469105","25.07232","6501500","五股區"
"248007","095-VK","2018/07/12 13:39:29","新北市五股區中興路一段150巷8號","121.464651666667","25.074235","6501500","五股區"
"248017","225-UY","2018/07/12 13:39:18","新北市五股區民義路二段93-9號","121.407148333333","25.10674","6501500","五股區"
"248011","247-BX","2018/07/12 13:39:29","新北市五股區御史路97號","121.439953333333","25.09503","6501500","五股區"
"248013","261-SL","2018/07/12 13:39:26","新北市五股區成泰路二段102號","121.437608333333","25.082915","6501500","五股區"
"248003","677-BX","2018/07/12 13:39:16","新北市五股區民義路一段277號","121.425936666667","25.09269","6501500","五股區"
"248001","678-BX","2018/07/12 13:39:28","新北市五股區西雲路248號","121.44887","25.0969166666667","6501500","五股區"
"248009","682-TV","2018/07/12 13:39:26","新北市五股區水碓一路92號","121.431791666667","25.07364","6501500","五股區"
"234022","9380-KE","2018/07/12 13:39:31","新北市永和區中正路702巷18號","121.516456666667","25.0104966666667","6500400","永和區"
"234076","969-R7","2018/07/12 13:39:28","新北市永和區民族街43巷12號","121.51916","24.9983133333333","6500400","永和區"
"234072","AAC-211","2018/07/12 13:39:14","新北市永和區竹林路213巷16號","121.521673333333","25.0087983333333","6500400","永和區"
"234066","AAC-212","2018/07/12 13:38:55","新北市永和區中山路一段193號","121.50932","25.0086916666667","6500400","永和區"
"234001","AAC-295","2018/07/12 13:39:16","新北市永和區秀朗路一段6號","121.513855","25.0072216666667","6500400","永和區"
"244003","248-BX","2018/07/12 13:39:15","新北市林口區瑞平里66號","121.345988333333","25.1274016666667","6501700","林口區"
"243002","267-VK","2018/07/12 13:39:29","新北市泰山區黎明路49號","121.421808333333","25.0585483333333","6501600","泰山區"
"243005","AAD-798","2018/07/12 13:27:23","新北市泰山區明志路三段206巷3號","121.42329","25.0379433333333","6501600","泰山區"
"243003","KEA-2215","2018/07/12 13:39:23","新北市泰山區黎明路31號","121.421681666667","25.0607483333333","6501600","泰山區"
"243004","646-TV","2018/07/12 13:39:18","新北市泰山區泰林路二段267號","121.430881666667","25.0627066666667","6501600","泰山區"
"231002","002-UM","2018/07/12 13:39:31","新北市新店區中央三街127號","121.524128333333","24.9768433333333","6500600","新店區"
"231027","0291-UT","2018/07/12 13:39:20","新北市新店區北宜路一段123-2號","121.540726666667","24.95348","6500600","新店區"
"231028","046-UY","2018/07/12 13:39:30","新北市新店區安和路一段6-2號","121.517186666667","24.9648183333333","6500600","新店區"
"231001","047-UY","2018/07/12 13:39:27","新北市新店區中正路376號","121.53482","24.9768166666667","6500600","新店區"
"231005","106-UY","2018/07/12 13:39:12","新北市新店區寶中路72號","121.547868333333","24.980655","6500600","新店區"
"231010","107-UY","2018/07/12 13:39:10","新北市新店區中正路307巷17號","121.535845","24.97359","6500600","新店區"
"231036","110-UY","2018/07/12 13:39:14","新北市新店區安祥路142號","121.474368333333","24.9554866666667","6500600","新店區"
"231011","187-VK","2018/07/12 13:39:11","新北市新店區德正街25巷2號","121.544363333333","24.9715933333333","6500600","新店區"
"231023","KEA-2219","2018/07/12 13:39:29","新北市新店區新店路162號","121.537135","24.95553","6500600","新店區"
"231026","256-BX","2018/07/12 13:39:27","新北市新店區中正路282-2號","121.538265","24.9740433333333","6500600","新店區"
"231003","268-BY","2018/07/12 13:39:17","新北市新店區中興路一段282號","121.545746666667","24.9684833333333","6500600","新店區"
"231018","278-BY","2018/07/12 13:39:13","新北市新店區百忍街31號","121.533763333333","24.9757083333333","6500600","新店區"
"231017","AAD-862","2018/07/12 13:39:15","新北市新店區竹林路2巷15號","121.550475","24.9515266666667","6500600","新店區"
"231038","3712-VJ","2018/07/12 13:39:32","新北市新店區安華路28-1號","121.51924","24.9605766666667","6500600","新店區"
"231037","4716-K9","2018/07/12 13:39:27","新北市新店區薏仁坑路29-1號","121.495586666667","24.96067","6500600","新店區"
"231025","4715-K9","2018/07/12 13:39:22","新北市新店區中央六街54號","121.527993333333","24.9756466666667","6500600","新店區"
"231013","513-UM","2018/07/12 13:39:22","新北市新店區中正路454-5號","121.53444","24.9790433333333","6500600","新店區"
"231034","616-UM","2018/07/12 13:39:16","新北市新店區車子路110號","121.505221666667","24.9520783333333","6500600","新店區"
"231030","619-UM","2018/07/12 13:39:28","新北市新店區安康路一段238號","121.522036666667","24.9637333333333","6500600","新店區"
"231035","719-UM","2018/07/12 13:39:22","新北市新店區安忠路56巷6號","121.512963333333","24.9594283333333","6500600","新店區"
"231021","719-UY","2018/07/12 13:39:28","新北市新店區新烏路一段159號","121.544763333333","24.935265","6500600","新店區"
"231031","720-UM","2018/07/12 13:39:25","新北市新店區安康路一段229號","121.52551","24.9631166666667","6500600","新店區"
"231029","897-TW","2018/07/12 13:39:17","新北市新店區安康路二段295-1號","121.502916666667","24.9576183333333","6500600","新店區"
"231006","898-TW","2018/07/12 13:39:14","新北市新店區北宜路一段80號","121.538753333333","24.955795","6500600","新店區"
"231004","899-TW","2018/07/12 13:39:26","新北市新店區北新路二段7號","121.542591666667","24.971325","6500600","新店區"
"231024","AKT-0513","2018/07/12 13:39:30","新北市新店區北新路一段271巷37號","121.539791666667","24.9671933333333","6500600","新店區"
"235030","003-UY","2018/07/12 13:39:12","新北市中和區水源路35號","121.50438","25.0035766666667","6500300","中和區"
"235028","005-UY","2018/07/12 13:39:17","新北市中和區連城路109巷38號","121.497198333333","24.998015","6500300","中和區"
"235027","006-UY","2018/07/12 13:39:21","新北市中和區連城路389巷10弄4號","121.486293333333","24.995635","6500300","中和區"
"235009","031-BX","2018/07/12 13:39:13","新北市中和區南山路236巷11號","121.505751666667","24.9888266666667","6500300","中和區"
"235020","096-UM","2018/07/12 13:39:20","新北市中和區員山路466巷17弄25號","121.48047","25.00731","6500300","中和區"
"235003","097-UM","2018/07/12 13:39:21","新北市中和區景平路278巷16弄24號","121.514425","24.993745","6500300","中和區"
"235029","098-UM","2018/07/12 13:39:22","新北市中和區中山路二段2巷59號","121.501645","25.0074116666667","6500300","中和區"
"235022","151-BY","2018/07/12 13:39:21","新北市中和區員山路111號","121.480846666667","24.9949033333333","6500300","中和區"
"235019","183-VK","2018/07/12 13:39:29","新北市中和區莒光路120巷12號","121.471588333333","25.0017633333333","6500300","中和區"
"235002","185-VK","2018/07/12 13:39:15","新北市中和區大勇街76號","121.518203333333","24.994865","6500300","中和區"
"235013","186-VK","2018/07/12 13:39:24","新北市中和區明義街11巷1弄1號","121.503898333333","24.99495","6500300","中和區"
"235031","255-BX","2018/07/12 13:39:24","新北市中和區新生街220巷4號","121.482841666667","24.9986433333333","6500300","中和區"
"235008","293-VK","2018/07/12 13:39:17","新北市中和區復興路274巷12號","121.502853333333","24.9907716666667","6500300","中和區"
"235036","301-VK","2018/07/12 13:39:26","新北市中和區安邦街3號","121.495838333333","24.9983166666667","6500300","中和區"
"235007","352-BY","2018/07/12 13:39:24","新北市中和區景平路163號","121.512436666667","24.992445","6500300","中和區"
"235006","KEA-2878","2018/07/12 13:39:30","新北市中和區成功路97巷2號","121.526688333333","24.991745","6500300","中和區"
"235014","4979-A6","2018/07/12 13:39:08","新北市中和區景新街496巷30弄11號","121.513066666667","24.9854866666667","6500300","中和區"
"235033","4980-A6","2018/07/12 13:39:17","新北市中和區連城路96號","121.496458333333","24.9999783333333","6500300","中和區"
"235034","558-UM","2018/07/12 13:39:20","新北市中和區圓通路12號","121.50159","24.9980166666667","6500300","中和區"
"235018","640-BX","2018/07/12 13:39:19","新北市中和區莒光路129巷1弄8-4號","121.473028333333","25.0021616666667","6500300","中和區"
"235024","647-TV","2018/07/12 13:39:16","新北市中和區中山路二段598號","121.481866666667","25.00527","6500300","中和區"
"235011","732-UM","2018/07/12 13:39:28","新北市中和區南山路320巷10弄1號","121.506866666667","24.9864383333333","6500300","中和區"
"235035","783-BX","2018/07/12 13:39:21","新北市中和區光環路二段307號","121.48703","25.0137933333333","6500300","中和區"
"235026","800-TS","2018/07/12 13:39:26","新北市中和區景平路703巷2弄7-3號","121.495646666667","25.0036466666667","6500300","中和區"
"235021","801-TS","2018/07/12 13:39:22","新北市中和區員山路327巷8號","121.480888333333","25.001195","6500300","中和區"
"235005","802-TS","2018/07/12 13:39:30","新北市中和區中和路400巷27號","121.511788333333","25.0021966666667","6500300","中和區"
"235016","805-TS","2018/07/12 13:39:15","新北市中和區興南路三段61號","121.493221666667","24.975095","6500300","中和區"
"235012","896-TW","2018/07/12 13:39:12","新北市中和區中正路81號","121.500741666667","24.99341","6500300","中和區"
"235017","900-TW","2018/07/12 13:39:26","新北市中和區民德路270號","121.468098333333","24.9964966666667","6500300","中和區"
"235015","157-BY","2018/07/12 13:39:24","新北市中和區華新街143巷106弄25號","121.506721666667","24.9783316666667","6500300","中和區"
"235001","AAC-213","2018/07/12 13:39:26","新北市中和區景德街52號","121.517696666667","24.9915066666667","6500300","中和區"
"235023","AAC-215","2018/07/12 13:39:22","新北市中和區錦和路350-1號","121.490455","24.9936316666667","6500300","中和區"
"220013","072-UY","2018/07/12 13:39:12","新北市板橋區海山路1號","121.469551666667","25.0095466666667","6500100","板橋區"
"220017","AAD-861","2018/07/12 13:39:29","新北市板橋區華東街1-10號","121.44836","24.9950833333333","6500100","板橋區"
"247007","053-VK","2018/07/12 13:39:16","新北市五股區中興路二段163號","121.457368333333","25.0773966666667","6501400","蘆洲區"
"247019","001-UY","2018/07/12 13:39:19","新北市五股區新城八路1號","121.44798","25.08923","6501400","蘆洲區"
"228005","097-TW","2018/07/12 13:39:12","新北市貢寮區美豐里文秀坑8號","121.902573333333","25.0504416666667","6502600","貢寮區"
"228004","212-TW","2018/07/12 13:39:17","新北市貢寮區龍崗里嵩陽街17號","121.907323333333","25.0083683333333","6502600","貢寮區"
"253003","6232-TK","2018/07/12 13:39:19","新北市石門區內石門17-1號","121.574021666667","25.2753716666667","6502200","石門區"
"253001","6251-TK","2018/07/12 13:39:04","新北市石門區白沙灣別墅12號","121.508961666667","25.27805","6502200","石門區"
"253002","637-UY","2018/07/12 13:39:30","新北市石門區內石門78-1號","121.569208333333","25.2566933333333","6502200","石門區"
"253004","8270-PC","2018/07/12 13:39:09","新北市石門區五爪崙5號","121.611181666667","25.2592033333333","6502200","石門區"
"207002","749-BX","2018/07/12 13:39:25","新北市萬里區崁腳里崁腳路166號","121.645083333333","25.15596","6502800","萬里區"
"207001","662-BX","2018/07/12 13:39:12","新北市萬里區大鵬里萬里加投18-3號","121.6501","25.209325","6502800","萬里區"
"252005","AAC-283","2018/07/12 13:39:23","新北市三芝區圓山里木屐寮31號","121.533095","25.2216433333333","6502100","三芝區"
"236040","107-UM","2018/07/12 13:39:29","新北市土城區城林路6巷80號","121.438715","24.9797216666667","6501300","土城區"
"236074","166-UM","2018/07/12 13:39:19","新北市土城區城林路6巷80號","121.438438333333","24.97971","6501300","土城區"
"236012","270-VK","2018/07/12 13:39:16","新北市土城區城林路6巷80號","121.438551666667","24.979765","6501300","土城區"
"236068","KEA-2877","2018/07/12 13:39:19","新北市土城區城林路6巷80號","121.438773333333","24.979705","6501300","土城區"
"236005","498-BY","2018/07/12 13:39:21","新北市土城區慶祥街96巷1號","121.435618333333","24.9727683333333","6501300","土城區"
"242038","442-UM","2018/07/12 13:39:25","新北市新莊區新泰路38號","121.449563333333","25.03418","6500500","新莊區"
"221032","280-BY","2018/07/12 13:39:20","新北市汐止區仁愛路1號","121.658906666667","25.06473","6501100","汐止區"
"220027","145-BY","2018/07/12 13:39:18","新北市板橋區南雅西路二段195號","121.451771666667","25.0132516666667","6500100","板橋區"
"220028","200-UY","2018/07/12 13:39:20","新北市板橋區大觀路二段265巷76弄23號","121.441683333333","24.9966683333333","6500100","板橋區"
"220030","610-BX","2018/07/12 13:39:24","新北市板橋區篤行路一段39號","121.432063333333","24.9941416666667","6500100","板橋區"
"220004","276-BY","2018/07/12 13:39:21","新北市土城區廣興街38號","121.453475","24.9914033333333","6500100","板橋區"
"220019","283-VK","2018/07/12 13:39:27","新北市板橋區四川路二段14號","121.455953333333","24.9961466666667","6500100","板橋區"
"220043","285-UM","2018/07/12 13:39:13","新北市板橋區民生路二段161巷1號","121.470043333333","25.0198866666667","6500100","板橋區"
"220001","285-VK","2018/07/12 13:39:26","新北市板橋區民生路二段161巷1號","121.470263333333","25.0199566666667","6500100","板橋區"
"220031","286-VK","2018/07/12 13:39:25","新北市板橋區大觀路二段153巷44弄5號","121.446546666667","24.9993983333333","6500100","板橋區"
"220032","296-UM","2018/07/12 13:39:26","新北市板橋區大觀路二段150巷22號","121.441801666667","24.9995016666667","6500100","板橋區"
"220023","303-R5","2018/07/12 13:39:18","新北市板橋區華東街310號","121.452745","25.0030133333333","6500100","板橋區"
"220010","305-R5","2018/07/12 13:39:12","新北市板橋區民生路二段120號","121.470485","25.0195766666667","6500100","板橋區"
"220047","317-R6","2018/07/12 13:39:15","新北市板橋區民生路二段120號","121.470346666667","25.0195833333333","6500100","板橋區"
"220104","560-BX","2018/07/12 13:39:30","新北市板橋區南雅西路二段145巷10號","121.451596666667","25.0119433333333","6500100","板橋區"
"220052","561-BX","2018/07/12 13:39:11","新北市板橋區民生路二段161巷7號","121.470263333333","25.0196983333333","6500100","板橋區"
"220020","568-UM","2018/07/12 13:39:10","新北市板橋區溪城路90-2號","121.429293333333","24.9802966666667","6500100","板橋區"
"220011","609-BX","2018/07/12 13:39:18","新北市板橋區民生路二段171號","121.469958333333","25.0202066666667","6500100","板橋區"
"220034","630-UY","2018/07/12 13:39:29","新北市板橋區南雅西路二段239號","121.451523333333","25.0143083333333","6500100","板橋區"
"220005","686-BX","2018/07/12 13:39:27","新北市板橋區華東街1-9號","121.448218333333","24.9949316666667","6500100","板橋區"
"220042","689-BX","2018/07/12 13:39:30","新北市板橋區民生路二段161巷1號","121.469976666667","25.0200933333333","6500100","板橋區"
"220002","741-BX","2018/07/12 13:39:21","新北市板橋區華東街262號","121.452608333333","25.0011083333333","6500100","板橋區"
"220025","806-UM","2018/07/12 13:39:28","新北市板橋區大觀路三段160巷34弄2號","121.430115","24.994","6500100","板橋區"
"220003","827-TW","2018/07/12 13:39:27","新北市板橋區華東街1-10號","121.448706666667","24.9950133333333","6500100","板橋區"
"220014","829-TW","2018/07/12 13:39:23","新北市板橋區民生路二段120號","121.47068","25.0197183333333","6500100","板橋區"
"220022","895-R6","2018/07/12 13:39:14","新北市板橋區南雅南路一段60-1號","121.455511666667","25.0054133333333","6500100","板橋區"
"220021","985-R7","2018/07/12 13:39:16","新北市板橋區南雅南路二段144巷1號","121.451461666667","24.9960466666667","6500100","板橋區"
"220018","AAC-253","2018/07/12 13:39:19","新北市板橋區大觀路二段266號","121.449071666667","24.99642","6500100","板橋區"
"235032","KEA-2873","2018/07/12 13:39:14","新北市中和區中正路211巷36弄20號","121.496898333333","24.99244","6500300","中和區"
"235025","KEA-2875","2018/07/12 13:39:22","新北市中和區民享街30巷4號","121.473635","25.0035366666667","6500300","中和區"
