"lineid","car","time","location","longitude","latitude","cityid","cityname"
"234044","148-BY","2018/07/12 14:07:56","新北市永和區得和路390號","121.525145","24.9990933333333","6500400","永和區"
"234070","149-BY","2018/07/12 14:13:36","新北市永和區民治街59巷10號","121.518401666667","24.9972633333333","6500400","永和區"
"234005","207-UY","2018/07/12 14:18:28","新北市永和區中正路641號","121.515321666667","25.0101133333333","6500400","永和區"
"234078","298-R6","2018/07/12 14:07:15","新北市永和區國中路90號","121.524538333333","25.0062283333333","6500400","永和區"
"234036","336-UY","2018/07/12 14:08:32","新北市永和區成功路一段45號","121.5271","25.0042183333333","6500400","永和區"
"234062","337-UY","2018/07/12 14:12:01","新北市永和區永元路105號","121.522565","25.00235","6500400","永和區"
"234068","552-UM","2018/07/12 14:03:56","新北市永和區大新街95號","121.51816","25.0080716666667","6500400","永和區"
"234084","553-UM","2018/07/12 14:07:21","新北市永和區中正路541號","121.51687","25.007965","6500400","永和區"
"234015","745-BX","2018/07/12 14:09:26","新北市永和區仁愛路93號","121.512946666667","25.013065","6500400","永和區"
"234028","746-BX","2018/07/12 14:08:19","新北市永和區民生路22巷27號","121.521148333333","24.9969233333333","6500400","永和區"
"234052","KEA-2590","2018/07/12 14:11:30","新北市永和區博愛街30號","121.518608333333","25.0158066666667","6500400","永和區"
"234012","KEA-2591","2018/07/12 14:13:02","新北市永和區保生路24號","121.506671666667","25.0075066666667","6500400","永和區"
"234060","AAD-866","2018/07/12 14:10:49","新北市永和區安樂路158號","121.514386666667","25.0007","6500400","永和區"
"234040","862-TW","2018/07/12 14:06:52","新北市永和區雙和街64巷22弄5-1號","121.509885","25.00296","6500400","永和區"
"234048","863-TW","2018/07/12 14:05:55","新北市永和區環河西路二段145號","121.50581","25.01415","6500400","永和區"
"234025","9371-KE","2018/07/12 14:09:58","新北市永和區安樂路272巷9弄7號","121.515025","25.0045333333333","6500400","永和區"
"248015","026-BX","2018/07/12 14:17:35","新北市五股區成洲五路12號","121.452351666667","25.1015733333333","6501500","五股區"
"248007","095-VK","2018/07/12 14:10:09","新北市五股區中興路一段118巷20號","121.465996666667","25.0744","6501500","五股區"
"248017","225-UY","2018/07/12 14:12:18","新北市五股區民義路一段316號","121.42184","25.09592","6501500","五股區"
"248011","247-BX","2018/07/12 14:10:29","新北市五股區工商路18巷1號","121.439906666667","25.0834816666667","6501500","五股區"
"248003","677-BX","2018/07/12 14:09:31","新北市五股區五福路7-2號","121.434248333333","25.0879216666667","6501500","五股區"
"248001","678-BX","2018/07/12 14:10:28","新北市五股區成泰路三段577巷77號","121.449708333333","25.1037066666667","6501500","五股區"
"248009","682-TV","2018/07/12 14:17:47","新北市五股區水碓二路1號","121.430585","25.07129","6501500","五股區"
"234022","9380-KE","2018/07/12 14:10:51","新北市永和區博愛街32巷13號","121.518848333333","25.0153383333333","6500400","永和區"
"234076","969-R7","2018/07/12 14:08:57","新北市永和區民有街75巷10弄33號","121.519233333333","24.99608","6500400","永和區"
"234072","AAC-211","2018/07/12 14:07:31","新北市永和區豫溪街160巷4號","121.523191666667","25.0094683333333","6500400","永和區"
"234066","AAC-212","2018/07/12 14:10:35","新北市永和區保平路236巷7弄1號","121.508833333333","25.0059933333333","6500400","永和區"
"234001","AAC-295","2018/07/12 14:08:55","新北市永和區中正路722號","121.515681666667","25.0100916666667","6500400","永和區"
"243002","267-VK","2018/07/12 14:10:29","新北市泰山區明志路一段460號","121.430545","25.0555633333333","6501600","泰山區"
"243005","AAD-798","2018/07/12 14:08:14","新北市泰山區明志路三段229號","121.423791666667","25.0378633333333","6501600","泰山區"
"243001","297-R6","2018/07/12 14:12:28","新北市泰山區和平街9-2號","121.434115","25.06456","6501600","泰山區"
"243008","380-SR","2018/07/12 14:07:16","新北市泰山區中央路1巷5號","121.427115","25.0441516666667","6501600","泰山區"
"243007","421-VK","2018/07/12 14:08:49","新北市泰山區明志路一段440號","121.430705","25.056225","6501600","泰山區"
"243003","KEA-2215","2018/07/12 14:15:03","新北市泰山區中央路7巷2號","121.426498333333","25.0432983333333","6501600","泰山區"
"243004","646-TV","2018/07/12 14:11:18","新北市泰山區吳厝窠1號","121.428126666667","25.0586233333333","6501600","泰山區"
"243006","680-BX","2018/07/12 14:09:59","新北市泰山區泰林路二段423號","121.426465","25.0641166666667","6501600","泰山區"
"231002","002-UM","2018/07/12 14:08:51","新北市新店區中正路542-6號","121.53359","24.9862966666667","6500600","新店區"
"231027","0291-UT","2018/07/12 14:11:16","新北市新店區光明街168巷12號","121.540205","24.9616733333333","6500600","新店區"
"231028","046-UY","2018/07/12 14:07:45","新北市新店區安和路三段141號","121.51691","24.9854433333333","6500600","新店區"
"231001","047-UY","2018/07/12 14:08:27","新北市新店區中華路62號","121.539246666667","24.9689266666667","6500600","新店區"
"231005","106-UY","2018/07/12 14:08:12","新北市新店區中興路三段307號","121.54195","24.985705","6500600","新店區"
"231036","110-UY","2018/07/12 14:17:54","新北市新店區安祥路109巷11號","121.475928333333","24.9590633333333","6500600","新店區"
"231011","187-VK","2018/07/12 14:12:11","新北市新店區五峰路63巷8弄36號","121.54769","24.96918","6500600","新店區"
"231023","KEA-2219","2018/07/12 14:13:49","新北市新店區中興路一段24-3號","121.538796666667","24.958135","6500600","新店區"
"231003","268-BY","2018/07/12 14:16:57","新北市新店區中興路一段170號","121.542921666667","24.964405","6500600","新店區"
"231018","278-BY","2018/07/12 14:11:32","新北市新店區中央五街81號","121.526571666667","24.9761866666667","6500600","新店區"
"231017","AAD-862","2018/07/12 14:15:34","新北市新店區北宜路二段392巷12號","121.566088333333","24.95318","6500600","新店區"
"231038","3712-VJ","2018/07/12 14:08:52","新北市新店區安康路一段89號","121.529181666667","24.961415","6500600","新店區"
"231037","4716-K9","2018/07/12 14:15:46","新北市新店區安康路二段341巷16號","121.49693","24.954805","6500600","新店區"
"231013","513-UM","2018/07/12 14:11:22","新北市新店區北新路三段49號","121.541896666667","24.9805283333333","6500600","新店區"
"231034","616-UM","2018/07/12 14:15:55","新北市新店區黎明路3號","121.50319","24.9522","6500600","新店區"
"231030","619-UM","2018/07/12 14:18:41","新北市新店區柴埕路59號","121.513675","24.9648766666667","6500600","新店區"
"231035","719-UM","2018/07/12 14:18:01","新北市新店區安和路一段52巷2-1號","121.517795","24.9667066666667","6500600","新店區"
"231021","719-UY","2018/07/12 14:18:28","新北市新店區屈尺路83-1號","121.544478333333","24.92241","6500600","新店區"
"231031","720-UM","2018/07/12 14:13:25","新北市新店區永業路3號","121.533981666667","24.9560566666667","6500600","新店區"
"231029","897-TW","2018/07/12 14:09:17","新北市新店區安康路二段133號","121.512036666667","24.96052","6500600","新店區"
"231006","898-TW","2018/07/12 14:12:54","新北市新店區北宜路二段483號","121.562211666667","24.953845","6500600","新店區"
"231004","899-TW","2018/07/12 14:11:26","新北市新店區寶橋路1巷14號","121.543346666667","24.9744883333333","6500600","新店區"
"231024","AKT-0513","2018/07/12 14:15:50","新北市新店區薏仁坑路自強巷1號","121.497886666667","24.9574883333333","6500600","新店區"
"235030","003-UY","2018/07/12 14:18:12","新北市中和區中和路102號","121.50267","24.99969","6500300","中和區"
"235028","005-UY","2018/07/12 14:10:37","新北市中和區泰和街18號","121.49973","25.0008583333333","6500300","中和區"
"235027","006-UY","2018/07/12 14:17:21","新北市中和區連勝街140號","121.494131666667","24.997075","6500300","中和區"
"235009","031-BX","2018/07/12 14:07:13","新北市中和區景新街467巷36號","121.515335","24.9885166666667","6500300","中和區"
"235020","096-UM","2018/07/12 14:08:40","新北市中和區新民街12-3號","121.481856666667","25.0074083333333","6500300","中和區"
"235003","097-UM","2018/07/12 14:10:41","新北市中和區秀峰街119巷6弄7號","121.519391666667","24.9900233333333","6500300","中和區"
"235029","098-UM","2018/07/12 14:14:02","新北市中和區中山路二段2巷45弄5號","121.502363333333","25.0064516666667","6500300","中和區"
"235040","150-BY","2018/07/12 14:11:57","新北市中和區保健路106巷12弄16號","121.5111","24.9956666666667","6500300","中和區"
"235022","151-BY","2018/07/12 14:13:57","新北市中和區連城路469巷89號","121.485078333333","24.9934616666667","6500300","中和區"
"235019","183-VK","2018/07/12 14:07:44","新北市中和區德光路12號","121.471435","25.0046016666667","6500300","中和區"
"235002","185-VK","2018/07/12 14:13:35","新北市中和區大仁街10巷46號","121.519285","24.9924083333333","6500300","中和區"
"235013","186-VK","2018/07/12 14:12:45","新北市中和區景新街228-6號","121.50822","24.9941916666667","6500300","中和區"
"235031","255-BX","2018/07/12 14:15:44","新北市中和區連城路340巷8弄1號","121.48274","24.9963766666667","6500300","中和區"
"235008","293-VK","2018/07/12 14:16:37","新北市中和區中興街266巷2號","121.498456666667","24.9875133333333","6500300","中和區"
"235036","301-VK","2018/07/12 14:10:06","新北市中和區廟美街23號","121.50007","25.0024816666667","6500300","中和區"
"235007","352-BY","2018/07/12 14:11:32","新北市中和區景平路166號","121.517058333333","24.99223","6500300","中和區"
"235006","KEA-2878","2018/07/12 14:13:10","新北市中和區大勇街60巷8號","121.518611666667","24.994685","6500300","中和區"
"247009","KEA-2869","2018/07/12 14:14:44","新北市蘆洲區民族路31-1號","121.477633333333","25.08491","6501400","蘆洲區"
"235014","4979-A6","2018/07/12 14:13:27","新北市中和區景安路208巷7號","121.503535","24.991125","6500300","中和區"
"235033","4980-A6","2018/07/12 14:17:57","新北市中和區景平路736巷1弄8號","121.497306666667","25.003975","6500300","中和區"
"235034","558-UM","2018/07/12 14:15:00","新北市中和區中山路二段221號","121.498601666667","25.0026316666667","6500300","中和區"
"235018","640-BX","2018/07/12 14:12:39","新北市中和區國光街111號","121.469931666667","25.000485","6500300","中和區"
"235024","647-TV","2018/07/12 14:10:56","新北市中和區民有街94號","121.476113333333","25.0035133333333","6500300","中和區"
"235011","732-UM","2018/07/12 14:16:20","新北市中和區和平街38巷3號","121.50929","24.990765","6500300","中和區"
"235010","733-UM","2018/07/12 14:09:57","新北市中和區忠孝街1巷6號","121.508816666667","24.983345","6500300","中和區"
"235035","783-BX","2018/07/12 14:12:22","新北市中和區立德街98巷16號","121.487645","25.0085933333333","6500300","中和區"
"235026","800-TS","2018/07/12 14:14:06","新北市中和區橋和路99號","121.490701666667","25.005515","6500300","中和區"
"235021","801-TS","2018/07/12 14:14:42","新北市中和區員山路325-5號","121.481205","25.0009283333333","6500300","中和區"
"235005","802-TS","2018/07/12 14:11:30","新北市中和區中安街192號","121.511413333333","24.9992783333333","6500300","中和區"
"235016","805-TS","2018/07/12 14:14:55","新北市中和區興南路二段128巷1弄8號","121.50366","24.9835633333333","6500300","中和區"
"235012","896-TW","2018/07/12 14:13:12","新北市中和區華新街109巷22號","121.508471666667","24.9805033333333","6500300","中和區"
"235017","900-TW","2018/07/12 14:10:05","新北市中和區華安街30巷16-1號","121.466903333333","24.99734","6500300","中和區"
"235015","157-BY","2018/07/12 14:11:04","新北市中和區興南路一段56巷5號","121.51045","24.9912216666667","6500300","中和區"
"235001","AAC-213","2018/07/12 14:15:46","新北市中和區秀朗路三段50巷25號","121.524405","24.9950816666667","6500300","中和區"
"235023","AAC-215","2018/07/12 14:08:21","新北市中和區圓通路294巷3號","121.488771666667","24.9897066666667","6500300","中和區"
"220016","013-TV","2018/07/12 14:09:40","新北市板橋區翠華街6巷13號","121.480903333333","25.0243283333333","6500100","板橋區"
"220013","072-UY","2018/07/12 14:07:12","新北市板橋區民族路219巷20號","121.46931","25.00806","6500100","板橋區"
"220105","075-UY","2018/07/12 14:10:37","新北市板橋區雙十路三段10巷10號","121.472045","25.0307233333333","6500100","板橋區"
"220017","AAD-861","2018/07/12 14:03:09","新北市板橋區南雅南路一段1巷42號","121.457601666667","25.0063416666667","6500100","板橋區"
"247023","893-R6","2018/07/12 14:12:52","新北市蘆洲區光明路132號","121.463946666667","25.0883883333333","6501400","蘆洲區"
"247013","546-UM","2018/07/12 14:16:19","新北市蘆洲區中山一路247號","121.473195","25.080365","6501400","蘆洲區"
"247021","500-BY","2018/07/12 14:14:41","新北市蘆洲區三民路226號","121.468506666667","25.08944","6501400","蘆洲區"
"247003","337-TH","2018/07/12 14:09:42","新北市蘆洲區中華街6巷5號","121.46237","25.0824966666667","6501400","蘆洲區"
"247005","336-TH","2018/07/12 14:10:25","新北市蘆洲區永安南路二段16巷16號","121.468053333333","25.0777233333333","6501400","蘆洲區"
"247017","057-VK","2018/07/12 14:07:49","新北市蘆洲區民族路227巷12號","121.47719","25.089535","6501400","蘆洲區"
"247007","053-VK","2018/07/12 14:15:16","新北市蘆洲區中山一路237號","121.47345","25.080645","6501400","蘆洲區"
"247015","007-UY","2018/07/12 14:17:01","新北市蘆洲區光華路110巷22號","121.466715","25.0835816666667","6501400","蘆洲區"
"247019","001-UY","2018/07/12 14:11:59","新北市蘆洲區民族路436巷5號","121.472941666667","25.0927283333333","6501400","蘆洲區"
"228005","097-TW","2018/07/12 14:15:32","新北市貢寮區美豐里雞母嶺街60號","121.897335","25.0617933333333","6502600","貢寮區"
"228004","212-TW","2018/07/12 14:13:57","新北市貢寮區雙玉里下雙溪街8號","121.916255","25.0138783333333","6502600","貢寮區"
"253003","6232-TK","2018/07/12 14:14:38","新北市石門區尖子鹿53-2號","121.580338333333","25.27041","6502200","石門區"
"253001","6251-TK","2018/07/12 14:11:44","新北市石門區八甲74號","121.529786666667","25.2649383333333","6502200","石門區"
"253002","637-UY","2018/07/12 14:14:50","新北市石門區大溪墘2-4號","121.548858333333","25.2892833333333","6502200","石門區"
"253004","8270-PC","2018/07/12 14:14:53","新北市石門區坪林28號","121.59581","25.2673233333333","6502200","石門區"
"207002","749-BX","2018/07/12 14:10:25","新北市萬里區溪底里瑞泉路7號","121.603548333333","25.1391266666667","6502800","萬里區"
"207001","662-BX","2018/07/12 14:01:51","新北市萬里區磺潭里清水18號","121.637616666667","25.1978233333333","6502800","萬里區"
"252005","AAC-283","2018/07/12 14:18:23","新北市三芝區橫山里橫山23-6號","121.541278333333","25.260065","6502100","三芝區"
"236040","107-UM","2018/07/12 14:13:30","新北市土城區中央路一段264-2號","121.44379","24.9836933333333","6501300","土城區"
"236074","166-UM","2018/07/12 14:12:59","新北市土城區永安街88號","121.431148333333","24.9640033333333","6501300","土城區"
"236029","253-BX","2018/07/12 14:15:46","新北市土城區中央路二段176號","121.44171","24.976185","6501300","土城區"
"236024","269-VK","2018/07/12 14:16:36","新北市土城區承天路67號","121.439506666667","24.963545","6501300","土城區"
"236012","270-VK","2018/07/12 14:17:36","新北市土城區青雲路39巷7號","121.460333333333","24.9875833333333","6501300","土城區"
"236032","271-VK","2018/07/12 14:18:45","新北市土城區青雲路451巷6號","121.459518333333","24.9745716666667","6501300","土城區"
"236068","KEA-2877","2018/07/12 14:13:39","新北市土城區明德路一段375-2號","121.454628333333","24.9782983333333","6501300","土城區"
"236017","401-BY","2018/07/12 14:13:28","新北市土城區城林路6巷80號","121.438455","24.9798266666667","6501300","土城區"
"236005","498-BY","2018/07/12 14:14:22","新北市土城區中央路一段80號","121.44726","24.9891583333333","6501300","土城區"
"236060","752-BX","2018/07/12 14:17:19","新北市土城區金城路三段191-1號","121.469941666667","24.9889566666667","6501300","土城區"
"236057","912-UM","2018/07/12 14:09:13","新北市土城區中央路四段123號","121.416386666667","24.9577166666667","6501300","土城區"
"236045","913-UM","2018/07/12 14:17:37","新北市土城區明德路一段365-1號","121.453536666667","24.9790466666667","6501300","土城區"
"236054","AAC-216","2018/07/12 14:15:54","新北市土城區中華路二段82號","121.438821666667","24.9762733333333","6501300","土城區"
"242038","442-UM","2018/07/12 14:15:45","新北市樹林區環河路10號","121.427363333333","24.9783666666667","6500500","新莊區"
"220027","145-BY","2018/07/12 14:05:37","新北市板橋區民權路202巷9弄14號","121.45992","25.015565","6500100","板橋區"
"220028","200-UY","2018/07/12 14:05:50","新北市板橋區大觀路二段5-5號","121.446895","25.0036216666667","6500100","板橋區"
"220030","610-BX","2018/07/12 14:03:24","新北市板橋區溪崑二街7-3號","121.429","24.9919566666667","6500100","板橋區"
"220050","245-BX","2018/07/12 14:08:52","新北市板橋區民生路二段148號","121.471243333333","25.0195833333333","6500100","板橋區"
"220004","276-BY","2018/07/12 14:07:21","新北市板橋區信義路150巷16號","121.458201666667","24.99198","6500100","板橋區"
"220019","283-VK","2018/07/12 14:05:07","新北市板橋區重慶路327巷15號","121.464413333333","24.998605","6500100","板橋區"
"220043","285-UM","2018/07/12 14:06:13","新北市板橋區光武街94號","121.466023333333","25.0287183333333","6500100","板橋區"
"220001","285-VK","2018/07/12 14:04:46","新北市板橋區懷仁街10巷3號","121.47499","25.019355","6500100","板橋區"
"220031","286-VK","2018/07/12 14:06:44","新北市板橋區大觀路二段174巷175號","121.44186","25.0036716666667","6500100","板橋區"
"220029","287-VK","2018/07/12 14:05:53","新北市板橋區南雅西路二段203號","121.451681666667","25.013395","6500100","板橋區"
"220039","288-VK","2018/07/12 14:09:58","新北市板橋區四維路291巷1號","121.461953333333","25.0282966666667","6500100","板橋區"
"220009","293-UM","2018/07/12 14:04:26","新北市板橋區懷仁街85巷8號","121.477733333333","25.0185983333333","6500100","板橋區"
"220032","296-UM","2018/07/12 14:04:20","新北市板橋區篤行路二段128-2號","121.430991666667","24.99059","6500100","板橋區"
"220023","303-R5","2018/07/12 14:13:18","新北市板橋區南雅南路一段1巷25號","121.457291666667","25.0066566666667","6500100","板橋區"
"220010","305-R5","2018/07/12 14:07:52","新北市板橋區三民路二段居仁巷1弄14號","121.479706666667","25.0135016666667","6500100","板橋區"
"220041","307-R5","2018/07/12 14:12:12","新北市板橋區文化路二段225巷60弄50號","121.469128333333","25.0295283333333","6500100","板橋區"
"220047","317-R6","2018/07/12 14:08:15","新北市板橋區文化路一段435巷78號","121.46581","25.0239133333333","6500100","板橋區"
"220012","486-VK","2018/07/12 14:04:31","新北市板橋區板新路51號","121.47384","25.0133516666667","6500100","板橋區"
"220037","491-VK","2018/07/12 14:12:49","新北市板橋區文化路二段182巷5弄13號","121.471963333333","25.0275483333333","6500100","板橋區"
"220104","560-BX","2018/07/12 14:06:30","新北市板橋區中正路379巷1弄2號","121.454006666667","25.0215433333333","6500100","板橋區"
"220052","561-BX","2018/07/12 14:09:51","新北市板橋區文化路一段188巷9弄21號","121.468496666667","25.0194633333333","6500100","板橋區"
"220020","568-UM","2018/07/12 14:06:30","新北市板橋區溪北路154號","121.430473333333","24.9882733333333","6500100","板橋區"
"220011","609-BX","2018/07/12 14:04:38","新北市板橋區中山路二段248號","121.478686666667","25.0181716666667","6500100","板橋區"
"220034","630-UY","2018/07/12 14:16:09","新北市板橋區中正路216巷22號","121.45673","25.0185416666667","6500100","板橋區"
"220040","637-BX","2018/07/12 14:07:45","新北市板橋區八德路三段58巷2號","121.482348333333","25.027205","6500100","板橋區"
"220005","686-BX","2018/07/12 14:06:27","新北市板橋區重慶路290號","121.463621666667","24.998935","6500100","板橋區"
"220042","689-BX","2018/07/12 14:07:50","新北市板橋區民生路三段223號","121.464896666667","25.0284216666667","6500100","板橋區"
"220002","741-BX","2018/07/12 14:08:41","新北市板橋區重慶路62巷13弄1號","121.461368333333","25.00663","6500100","板橋區"
"220051","KEA-2699","2018/07/12 14:07:08","新北市板橋區田單街44號","121.482711666667","25.0277283333333","6500100","板橋區"
"220025","806-UM","2018/07/12 14:07:08","新北市板橋區龍興街103巷1號","121.444448333333","25.0032983333333","6500100","板橋區"
"220003","827-TW","2018/07/12 14:09:27","新北市板橋區新民街9號","121.46372","25.0098266666667","6500100","板橋區"
"220014","829-TW","2018/07/12 14:08:43","新北市板橋區中山路二段90巷43弄17號","121.476991666667","25.0152433333333","6500100","板橋區"
"220045","830-TW","2018/07/12 14:05:09","新北市板橋區莒光路158-2號","121.473856666667","25.023855","6500100","板橋區"
"220038","833-TW","2018/07/12 14:10:06","新北市板橋區文化路二段336號","121.472773333333","25.03037","6500100","板橋區"
"220022","895-R6","2018/07/12 14:07:14","新北市板橋區府中路141-2號","121.455545","25.00946","6500100","板橋區"
"220021","985-R7","2018/07/12 14:04:16","新北市板橋區北門街53號","121.455923333333","25.0115833333333","6500100","板橋區"
"220046","AAC-210","2018/07/12 14:08:35","新北市板橋區幸福路60巷67號","121.459868333333","25.0215166666667","6500100","板橋區"
"220018","AAC-253","2018/07/12 14:08:19","新北市板橋區忠孝路86號","121.46156","25.0021433333333","6500100","板橋區"
"235032","KEA-2873","2018/07/12 14:14:43","新北市中和區連勝街47-6號","121.498278333333","24.997125","6500300","中和區"
"235025","KEA-2875","2018/07/12 14:16:22","新北市中和區民利街13號","121.480543333333","24.9991383333333","6500300","中和區"
