"lineid","car","time","location","longitude","latitude","cityid","cityname"
"234070","149-BY","2018/07/12 14:56:36","新北市八里區中山路三段409號","121.368488333333","25.1349433333333","6500400","永和區"
"234025","9371-KE","2018/07/12 14:37:38","新北市永和區中和路501巷9號","121.510435","25.0027233333333","6500400","永和區"
"248015","026-BX","2018/07/12 14:47:35","新北市五股區成泰路三段577巷82號","121.449635","25.1038133333333","6501500","五股區"
"248007","095-VK","2018/07/12 14:47:09","新北市五股區國道路三段1號","121.469928333333","25.0750083333333","6501500","五股區"
"248011","247-BX","2018/07/12 14:38:49","新北市五股區蓬萊路1-3號","121.434428333333","25.079655","6501500","五股區"
"248013","261-SL","2018/07/12 14:38:09","新北市五股區五福路52巷11弄2號","121.433961666667","25.0899016666667","6501500","五股區"
"248009","682-TV","2018/07/12 14:40:46","新北市五股區登林路貿商巷3弄13號","121.429716666667","25.0697483333333","6501500","五股區"
"234072","AAC-211","2018/07/12 14:32:51","新北市永和區環河東路一段126號","121.520681666667","25.0153616666667","6500400","永和區"
"243001","297-R6","2018/07/12 14:35:28","新北市泰山區楓江路16巷28號","121.433895","25.0615766666667","6501600","泰山區"
"243003","KEA-2215","2018/07/12 14:42:23","新北市泰山區明志路三段182巷15號","121.423446666667","25.0390666666667","6501600","泰山區"
"231002","002-UM","2018/07/12 14:31:11","新北市新店區中央路81號","121.532388333333","24.976615","6500600","新店區"
"231027","0291-UT","2018/07/12 14:38:41","新北市新店區中正路104號","121.54327","24.9705933333333","6500600","新店區"
"231001","047-UY","2018/07/12 14:31:27","新北市新店區大新街7巷1號","121.543291666667","24.9686316666667","6500600","新店區"
"231036","110-UY","2018/07/12 14:50:14","新北市新店區安祥路104巷1弄5號","121.480793333333","24.9626","6500600","新店區"
"231011","187-VK","2018/07/12 14:32:11","新北市新店區寶橋路138號","121.547806666667","24.9762733333333","6500600","新店區"
"231023","KEA-2219","2018/07/12 14:30:49","新北市新店區光明街171號","121.539761666667","24.962615","6500600","新店區"
"231026","256-BX","2018/07/12 14:57:59","新北市新店區中正路187號","121.540628333333","24.9722883333333","6500600","新店區"
"231003","268-BY","2018/07/12 14:36:17","新北市新店區中興路一段285號","121.545458333333","24.9685083333333","6500600","新店區"
"231018","278-BY","2018/07/12 14:54:32","新北市新店區中央六街7號","121.530286666667","24.9746016666667","6500600","新店區"
"231017","AAD-862","2018/07/12 14:52:54","新北市新店區北宜路二段470號","121.56926","24.955205","6500600","新店區"
"231038","3712-VJ","2018/07/12 14:45:32","新北市新店區安華路28-1號","121.51954","24.9608816666667","6500600","新店區"
"231037","4716-K9","2018/07/12 14:48:46","新北市新店區安民街65巷15-2號","121.515346666667","24.966785","6500600","新店區"
"231025","4715-K9","2018/07/12 14:52:23","新北市新店區建國路219號","121.537691666667","24.9810133333333","6500600","新店區"
"231013","513-UM","2018/07/12 14:36:22","新北市新店區明德路31號","121.541636666667","24.9773516666667","6500600","新店區"
"231034","616-UM","2018/07/12 14:56:15","新北市新店區玫瑰路4-1號","121.493563333333","24.9514116666667","6500600","新店區"
"231030","619-UM","2018/07/12 14:40:22","新北市新店區安民街166號","121.516853333333","24.97052","6500600","新店區"
"231035","719-UM","2018/07/12 14:42:01","新北市新店區柴埕路59號","121.513813333333","24.96501","6500600","新店區"
"231021","719-UY","2018/07/12 14:46:48","新北市新店區桂山路35號","121.559243333333","24.902945","6500600","新店區"
"231029","897-TW","2018/07/12 14:32:17","新北市新店區安康路三段77號","121.49199","24.95202","6500600","新店區"
"231006","898-TW","2018/07/12 14:42:34","新北市新店區北宜路二段55號","121.549106666667","24.951455","6500600","新店區"
"231004","899-TW","2018/07/12 14:34:06","新北市新店區中正路263-2號","121.538485","24.9737566666667","6500600","新店區"
"231024","AKT-0513","2018/07/12 14:44:10","新北市新店區新生街2號","121.540385","24.9658883333333","6500600","新店區"
"241013","270-UM","2018/07/12 14:56:21","新北市三重區重新路四段121號","121.484858333333","25.052595","6500200","三重區"
"235030","003-UY","2018/07/12 14:52:32","新北市中和區南工路70號","121.50647","25.0021033333333","6500300","中和區"
"235027","006-UY","2018/07/12 14:50:01","新北市中和區中山路二段332巷6號","121.49447","25.0033033333333","6500300","中和區"
"235020","096-UM","2018/07/12 14:35:40","新北市中和區員山路581巷2弄7-2號","121.47761","25.0095516666667","6500300","中和區"
"235003","097-UM","2018/07/12 14:46:01","新北市永和區中正路43號","121.51421","24.9963133333333","6500300","中和區"
"235029","098-UM","2018/07/12 14:35:01","新北市中和區福美路253號","121.498713333333","25.0050983333333","6500300","中和區"
"235040","150-BY","2018/07/12 14:44:58","新北市中和區安平路30號","121.509583333333","24.9948466666667","6500300","中和區"
"235022","151-BY","2018/07/12 14:39:57","新北市中和區員山路150-1號","121.481261666667","24.9973233333333","6500300","中和區"
"235013","186-VK","2018/07/12 14:38:44","新北市中和區景平路566號","121.501866666667","24.99535","6500300","中和區"
"235031","255-BX","2018/07/12 14:48:04","新北市板橋區民生路三段224號","121.464756666667","25.02979","6500300","中和區"
"235008","293-VK","2018/07/12 14:40:57","新北市中和區捷運路58-3號","121.507393333333","24.9908033333333","6500300","中和區"
"235036","301-VK","2018/07/12 14:58:26","新北市中和區板南路405號","121.492803333333","24.99969","6500300","中和區"
"235007","352-BY","2018/07/12 14:48:52","新北市中和區安樂路37號","121.511865","24.9930366666667","6500300","中和區"
"235006","KEA-2878","2018/07/12 14:39:10","新北市中和區宜安路171號","121.508406666667","24.9991533333333","6500300","中和區"
"247009","KEA-2869","2018/07/12 14:56:34","新北市蘆洲區信義路30巷22號","121.474285","25.078705","6501400","蘆洲區"
"235014","4979-A6","2018/07/12 14:47:07","新北市中和區景平路241巷82弄41號","121.506138333333","24.992495","6500300","中和區"
"235033","4980-A6","2018/07/12 14:57:17","新北市中和區圓通路83號","121.499921666667","24.9968966666667","6500300","中和區"
"235034","558-UM","2018/07/12 14:56:40","新北市中和區圓通路138號","121.498333333333","24.9957133333333","6500300","中和區"
"235018","640-BX","2018/07/12 14:36:39","新北市中和區莒光路124號","121.472391666667","25.0016883333333","6500300","中和區"
"235024","647-TV","2018/07/12 14:40:16","新北市中和區新生街16巷19號","121.482408333333","25.0042933333333","6500300","中和區"
"235011","732-UM","2018/07/12 14:43:48","新北市中和區興南路一段67號","121.51023","24.9893933333333","6500300","中和區"
"235010","733-UM","2018/07/12 14:52:17","新北市中和區興南路一段63-6號","121.510318333333","24.989565","6500300","中和區"
"235035","783-BX","2018/07/12 14:42:41","新北市中和區連城路369號","121.48727","24.99625","6500300","中和區"
"235026","800-TS","2018/07/12 14:43:05","新北市中和區中山路二段411號","121.486033333333","25.004305","6500300","中和區"
"235021","801-TS","2018/07/12 14:31:02","新北市中和區員山路250號","121.481505","25.0015116666667","6500300","中和區"
"235005","802-TS","2018/07/12 14:44:50","新北市中和區景新街269號","121.509113333333","24.99392","6500300","中和區"
"235016","805-TS","2018/07/12 14:49:35","新北市中和區華新街144巷6號","121.507736666667","24.9828183333333","6500300","中和區"
"235012","896-TW","2018/07/12 14:43:12","新北市中和區忠孝街137號","121.512786666667","24.9882766666667","6500300","中和區"
"235017","900-TW","2018/07/12 14:43:26","新北市中和區國光街215巷6弄2號","121.466343333333","25.0016466666667","6500300","中和區"
"235015","157-BY","2018/07/12 14:43:04","新北市中和區中興街233巷10號","121.501433333333","24.989505","6500300","中和區"
"235001","AAC-213","2018/07/12 14:48:26","新北市中和區自立路66號","121.523873333333","24.991305","6500300","中和區"
"235023","AAC-215","2018/07/12 14:48:22","新北市中和區圓通路305巷5弄34號","121.494461666667","24.9902933333333","6500300","中和區"
"247023","893-R6","2018/07/12 14:45:13","新北市蘆洲區和平路102號","121.46822","25.07929","6501400","蘆洲區"
"247021","500-BY","2018/07/12 14:51:21","新北市蘆洲區中正路385號","121.463851666667","25.09207","6501400","蘆洲區"
"247003","337-TH","2018/07/12 14:31:02","新北市蘆洲區永康街1巷13號","121.459638333333","25.0856166666667","6501400","蘆洲區"
"247015","007-UY","2018/07/12 14:41:21","新北市蘆洲區正和街25號","121.469818333333","25.0820283333333","6501400","蘆洲區"
"247001","002-UY","2018/07/12 14:38:35","新北市蘆洲區長安街315號","121.457458333333","25.0861633333333","6501400","蘆洲區"
"247019","001-UY","2018/07/12 14:44:39","新北市蘆洲區民義街68巷70號","121.474096666667","25.08985","6501400","蘆洲區"
"228005","097-TW","2018/07/12 14:49:32","新北市貢寮區美豐里丹裡街67號","121.908206666667","25.05831","6502600","貢寮區"
"228004","212-TW","2018/07/12 14:43:57","新北市貢寮區福隆里興隆街21-1號","121.943438333333","25.0162883333333","6502600","貢寮區"
"253003","6232-TK","2018/07/12 14:51:58","新北市石門區尖子鹿88號","121.579216666667","25.2905616666667","6502200","石門區"
"253001","6251-TK","2018/07/12 14:41:04","新北市石門區崁子腳36-1號","121.537446666667","25.2701683333333","6502200","石門區"
"253002","637-UY","2018/07/12 14:59:06","新北市石門區中央路1-17號","121.561211666667","25.2909733333333","6502200","石門區"
"253004","8270-PC","2018/07/12 14:51:53","新北市石門區茂林社區224號","121.5916","25.2677783333333","6502200","石門區"
"207002","749-BX","2018/07/12 14:33:05","新北市萬里區崁腳里崁腳路118-1號","121.645241666667","25.1582716666667","6502800","萬里區"
"207001","662-BX","2018/07/12 14:31:51","新北市萬里區磺潭里清水9號","121.640538333333","25.200015","6502800","萬里區"
"252005","AAC-283","2018/07/12 14:49:03","新北市三芝區埔坪里埔頭坑143號","121.51123","25.24888","6502100","三芝區"
"236024","269-VK","2018/07/12 14:37:36","新北市土城區忠義路55巷15號","121.44122","24.9686466666667","6501300","土城區"
"236012","270-VK","2018/07/12 14:35:56","新北市土城區立仁街32號","121.460481666667","24.9829666666667","6501300","土城區"
"236068","KEA-2877","2018/07/12 14:30:59","新北市土城區永豐路255巷27弄3號","121.475995","24.9728683333333","6501300","土城區"
"236017","401-BY","2018/07/12 14:40:08","新北市土城區延吉街331號","121.465298333333","24.9841983333333","6501300","土城區"
"236005","498-BY","2018/07/12 14:38:21","新北市土城區城林路6巷80號","121.438183333333","24.9794966666667","6501300","土城區"
"236057","912-UM","2018/07/12 14:39:13","新北市土城區中央路三段173號","121.431633333333","24.9652433333333","6501300","土城區"
"236054","AAC-216","2018/07/12 14:30:14","新北市土城區中華路一段301號","121.43988","24.9795433333333","6501300","土城區"
"242038","442-UM","2018/07/12 14:59:19","新北市新莊區三和路12-21號","121.441771666667","25.03854","6500500","新莊區"
"238012","303-VK","2018/07/12 14:59:06","新北市樹林區育德街78號","121.387478333333","24.9684366666667","6500700","樹林區"
"238001","283-BY","2018/07/12 14:56:02","新北市樹林區育德街78號","121.387538333333","24.9683866666667","6500700","樹林區"
"238001","282-BY","2018/07/12 14:57:14","新北市樹林區中山路三段204號","121.386836666667","24.968155","6500700","樹林區"
"220034","630-UY","2018/07/12 14:53:49","新北市板橋區僑中一街124巷70-5號","121.450021666667","25.0164083333333","6500100","板橋區"
"235032","KEA-2873","2018/07/12 14:51:13","新北市中和區福祥路85巷2弄2號","121.498798333333","25.0058433333333","6500300","中和區"
"235025","KEA-2875","2018/07/12 14:49:02","新北市中和區員山路36巷13號","121.4844","24.9910916666667","6500300","中和區"
