"lineid","car","time","location","longitude","latitude","cityid","cityname"
"234070","149-BY","2018/07/12 15:29:56","新北市中和區永和路226號","121.490871666667","25.00883","6500400","永和區"
"244003","248-BX","2018/07/12 15:29:55","新北市林口區粉寮路二段160巷28號","121.405146666667","25.09076","6501700","林口區"
"231002","002-UM","2018/07/12 15:29:51","新北市新店區環河路150-6號","121.534626666667","24.9677316666667","6500600","新店區"
"231028","046-UY","2018/07/12 15:29:45","新北市新店區僑信路52號","121.499355","24.950315","6500600","新店區"
"231005","106-UY","2018/07/12 15:29:52","新北市新店區建國路293巷2號","121.537018333333","24.98576","6500600","新店區"
"231036","110-UY","2018/07/12 15:29:34","新北市新店區安祥路69巷52弄1號","121.481905","24.9597716666667","6500600","新店區"
"231011","187-VK","2018/07/12 15:29:51","新北市新店區寶元路一段109號","121.545845","24.983105","6500600","新店區"
"231023","KEA-2219","2018/07/12 15:29:49","新北市新店區北新路一段96巷23號","121.542863333333","24.968765","6500600","新店區"
"231026","256-BX","2018/07/12 15:29:38","新北市新店區三民路117巷5弄2號","121.534171666667","24.9712","6500600","新店區"
"231003","268-BY","2018/07/12 15:29:57","新北市新店區寶高路120巷1號","121.554585","24.9760166666667","6500600","新店區"
"231018","278-BY","2018/07/12 15:29:53","新北市新店區中央路121號","121.53071","24.9743583333333","6500600","新店區"
"231017","AAD-862","2018/07/12 15:29:55","新北市新店區明山路45號","121.563706666667","24.9558716666667","6500600","新店區"
"231038","3712-VJ","2018/07/12 15:29:52","新北市新店區安華路28-1號","121.5197","24.9608716666667","6500600","新店區"
"231037","4716-K9","2018/07/12 15:29:47","新北市新店區安興路91巷71號","121.511921666667","24.97451","6500600","新店區"
"231034","616-UM","2018/07/12 15:29:55","新北市新店區玫瑰路16號","121.494955","24.9503766666667","6500600","新店區"
"231030","619-UM","2018/07/12 15:29:41","新北市新店區新和街34號","121.519243333333","24.98489","6500600","新店區"
"231039","718-UY","2018/07/12 15:29:49","新北市新店區寶元路一段87巷1號","121.54305","24.9854916666667","6500600","新店區"
"231035","719-UM","2018/07/12 15:29:42","新北市新店區安興路81號","121.515568333333","24.975205","6500600","新店區"
"231021","719-UY","2018/07/12 15:29:47","新北市新店區湖興路97號","121.565975","24.9321766666667","6500600","新店區"
"231031","720-UM","2018/07/12 15:29:45","新北市新店區雙城路4巷12號","121.490641666667","24.9505183333333","6500600","新店區"
"231029","897-TW","2018/07/12 15:29:57","新北市新店區安康路三段492號","121.483191666667","24.9499333333333","6500600","新店區"
"231006","898-TW","2018/07/12 15:29:54","新北市新店區安華路3號","121.519415","24.9598316666667","6500600","新店區"
"231004","899-TW","2018/07/12 15:29:46","新北市新店區中正路348號","121.536266666667","24.9753666666667","6500600","新店區"
"241011","013-R5","2018/07/12 15:29:38","新北市三重區環河南路100號","121.500118333333","25.05706","6500200","三重區"
"241015","062-VK","2018/07/12 15:29:43","新北市三重區重新路四段121號","121.484958333333","25.0525133333333","6500200","三重區"
"241017","063-VK","2018/07/12 15:29:43","新北市三重區重新路四段121號","121.484675","25.0521333333333","6500200","三重區"
"241002","090-VK","2018/07/12 15:29:39","新北市三重區仁義街91號","121.499758333333","25.0794766666667","6500200","三重區"
"241003","091-VK","2018/07/12 15:29:39","新北市三重區新北大道一段250號","121.479873333333","25.0612666666667","6500200","三重區"
"241016","266-UM","2018/07/12 15:29:37","新北市三重區重新路四段121號","121.48504","25.05235","6500200","三重區"
"241013","270-UM","2018/07/12 15:29:41","新北市三重區忠孝路二段98號","121.483551666667","25.0693283333333","6500200","三重區"
"241007","398-BY","2018/07/12 15:29:50","新北市三重區重新路四段121號","121.485095","25.0522966666667","6500200","三重區"
"241020","478-VK","2018/07/12 15:29:46","新北市三重區新北大道一段250號","121.479858333333","25.06136","6500200","三重區"
"241023","887-TS","2018/07/12 15:29:44","新北市三重區重新路四段121號","121.484653333333","25.0523116666667","6500200","三重區"
"241033","AAC-255","2018/07/12 15:29:46","新北市三重區成功路97號","121.487726666667","25.05164","6500200","三重區"
"235030","003-UY","2018/07/12 15:29:51","新北市中和區光華街69號","121.506725","25.002895","6500300","中和區"
"235014","4979-A6","2018/07/12 15:29:47","新北市中和區景平路385巷9弄43號","121.502016666667","24.99402","6500300","中和區"
"235033","4980-A6","2018/07/12 15:29:36","新北市中和區中正路592號","121.485746666667","24.995075","6500300","中和區"
"235024","647-TV","2018/07/12 15:01:13","新北市中和區員山路36巷16-3號","121.484975","24.9916133333333","6500300","中和區"
"235010","733-UM","2018/07/12 15:29:37","新北市五股區凌雲路三段17-2號","121.430596666667","25.1083483333333","6500300","中和區"
"235023","AAC-215","2018/07/12 15:29:41","新北市中和區員山路6-1號","121.484015","24.9833466666667","6500300","中和區"
"253003","6232-TK","2018/07/12 15:29:38","新北市石門區小坑9號","121.59441","25.28837","6502200","石門區"
"253001","6251-TK","2018/07/12 15:29:44","新北市石門區小坑9號","121.59414","25.2887216666667","6502200","石門區"
"253004","8270-PC","2018/07/12 15:29:53","新北市石門區小坑9號","121.594501666667","25.289175","6502200","石門區"
"207001","662-BX","2018/07/12 15:29:51","新北市萬里區龜吼里玉田路4-2號","121.681578333333","25.1842066666667","6502800","萬里區"
"236040","107-UM","2018/07/12 15:29:49","新北市土城區學享街6巷2號","121.450875","24.98719","6501300","土城區"
"236074","166-UM","2018/07/12 15:29:48","新北市土城區龍泉路13-1號","121.411033333333","24.9478166666667","6501300","土城區"
"236029","253-BX","2018/07/12 15:29:46","新北市土城區日新街9巷1號","121.445395","24.98709","6501300","土城區"
"236024","269-VK","2018/07/12 15:29:36","新北市土城區明德路二段102巷17號","121.445623333333","24.9847366666667","6501300","土城區"
"236012","270-VK","2018/07/12 15:29:36","新北市土城區廣興街39號","121.45504","24.99141","6501300","土城區"
"236032","271-VK","2018/07/12 15:29:45","新北市土城區延吉街363巷10號","121.46422","24.9834033333333","6501300","土城區"
"236068","KEA-2877","2018/07/12 15:29:39","新北市土城區中央路二段191號","121.442068333333","24.9753766666667","6501300","土城區"
"236017","401-BY","2018/07/12 15:29:53","新北市土城區延吉街119號","121.471081666667","24.9865066666667","6501300","土城區"
"236060","752-BX","2018/07/12 15:28:48","新北市土城區金城路三段73巷9弄21號","121.465725","24.9874583333333","6501300","土城區"
"236057","912-UM","2018/07/12 15:29:53","新北市土城區中央路二段154號","121.44192","24.9767883333333","6501300","土城區"
"236045","913-UM","2018/07/12 15:29:57","新北市土城區青雲路151巷15號","121.459623333333","24.9845633333333","6501300","土城區"
"236054","AAC-216","2018/07/12 15:29:54","新北市土城區金城路三段159號","121.468916666667","24.9883666666667","6501300","土城區"
"242038","442-UM","2018/07/12 15:08:37","新北市新莊區三和路12-21號","121.441958333333","25.0383416666667","6500500","新莊區"
"238002","755-BX","2018/07/12 15:29:47","新北市樹林區復興路227號","121.41994","24.9908166666667","6500700","樹林區"
"238010","601-UM","2018/07/12 15:29:45","新北市樹林區三福街24號","121.408451666667","25.01668","6500700","樹林區"
"238006","599-UM","2018/07/12 15:29:42","新北市樹林區太平路64號","121.419135","24.980745","6500700","樹林區"
"238005","571-TV","2018/07/12 15:29:46","新北市樹林區保安街一段7號","121.426653333333","24.9936333333333","6500700","樹林區"
"238011","5061-A6","2018/07/12 15:29:38","新北市樹林區八德街212巷26號","121.415126666667","24.97387","6500700","樹林區"
"238009","KEA-2213","2018/07/12 15:29:41","新北市樹林區仁愛街35號","121.421913333333","24.9819233333333","6500700","樹林區"
"238008","KEA-2539","2018/07/12 15:29:50","新北市樹林區柑園街一段53號","121.40303","24.9602466666667","6500700","樹林區"
"238012","303-VK","2018/07/12 15:29:47","新北市樹林區中山路一段213號","121.42105","24.9872883333333","6500700","樹林區"
"238001","283-BY","2018/07/12 15:29:42","新北市樹林區保安街二段333巷2號","121.412473333333","25.0076666666667","6500700","樹林區"
"238001","282-BY","2018/07/12 15:29:54","新北市樹林區千歲街61巷40弄9號","121.42587","24.9990783333333","6500700","樹林區"
"238007","268-VK","2018/07/12 15:29:48","新北市樹林區俊英街116巷5號","121.42772","25.0057883333333","6500700","樹林區"
"238013","172-UY","2018/07/12 15:28:35","新北市樹林區新興街19巷30號","121.401466666667","24.973085","6500700","樹林區"
"238003","169-UY","2018/07/12 15:29:41","新北市樹林區長壽街4號","121.423995","24.9933166666667","6500700","樹林區"
"220050","245-BX","2018/07/12 15:29:52","新北市板橋區縣民大道二段101號","121.466296666667","25.0157","6500100","板橋區"
"220004","276-BY","2018/07/12 15:29:41","新北市土城區自強街31-1號","121.431891666667","24.9724983333333","6500100","板橋區"
"220041","307-R5","2018/07/12 15:29:52","新北市五股區中興路三段2巷10號","121.448286666667","25.0823633333333","6500100","板橋區"
"220052","561-BX","2018/07/12 15:29:51","新北市板橋區漢生東路43巷26號","121.466478333333","25.0175116666667","6500100","板橋區"
"220011","609-BX","2018/07/12 15:29:38","新北市板橋區三民路一段185號","121.479146666667","25.0193666666667","6500100","板橋區"
"220003","827-TW","2018/07/12 15:16:31","新北市板橋區華東街1-9號","121.448225","24.99496","6500100","板橋區"
"220038","833-TW","2018/07/12 15:29:46","新北市板橋區四維路268號","121.463223333333","25.02853","6500100","板橋區"
