"lineid","car","time","location","longitude","latitude","cityid","cityname"
"234070","149-BY","2018/07/12 15:39:23","新北市中和區永和路103巷2號","121.495055","25.00696","6500400","永和區"
"243014","680-BX","2018/07/12 15:30:21","新北市泰山區黎明路33號","121.421885","25.0604833333333","6501600","泰山區"
"231028","046-UY","2018/07/12 15:39:25","新北市新店區安豐路30-1號","121.500676666667","24.9568366666667","6500600","新店區"
"231005","106-UY","2018/07/12 15:39:12","新北市新店區博愛街13巷24號","121.540286666667","24.9740766666667","6500600","新店區"
"231036","110-UY","2018/07/12 15:39:14","新北市新店區安祥路35-1號","121.491971666667","24.9553216666667","6500600","新店區"
"231011","187-VK","2018/07/12 15:39:11","新北市新店區寶元路一段105號","121.545535","24.9831883333333","6500600","新店區"
"231023","KEA-2219","2018/07/12 15:39:09","新北市新店區大新街7巷31號","121.544445","24.967665","6500600","新店區"
"231026","256-BX","2018/07/12 15:39:19","新北市新店區三民路51巷1弄1號","121.536778333333","24.9707416666667","6500600","新店區"
"231003","268-BY","2018/07/12 15:39:23","新北市新店區中興路二段200-1號","121.548235","24.9742733333333","6500600","新店區"
"231018","278-BY","2018/07/12 15:39:13","新北市新店區溪園路247號","121.525796666667","24.9834683333333","6500600","新店區"
"231017","AAD-862","2018/07/12 15:39:15","新北市新店區北宜路二段103號","121.550523333333","24.9525233333333","6500600","新店區"
"231038","3712-VJ","2018/07/12 15:39:12","新北市新店區安華路28-1號","121.519701666667","24.9609033333333","6500600","新店區"
"231037","4716-K9","2018/07/12 15:39:27","新北市新店區安興路56號","121.516326666667","24.9747866666667","6500600","新店區"
"231013","513-UM","2018/07/12 15:39:22","新北市新店區永業路81巷5弄1號","121.530125","24.9490716666667","6500600","新店區"
"231034","616-UM","2018/07/12 15:39:15","新北市新店區如意街87號","121.494986666667","24.9469883333333","6500600","新店區"
"231030","619-UM","2018/07/12 15:39:21","新北市新店區新和街91號","121.520915","24.9865483333333","6500600","新店區"
"231039","718-UY","2018/07/12 15:39:29","新北市新店區寶元路二段29號","121.546581666667","24.9818666666667","6500600","新店區"
"231035","719-UM","2018/07/12 15:39:22","新北市新店區安興路83號","121.515246666667","24.9752483333333","6500600","新店區"
"231021","719-UY","2018/07/12 15:39:08","新北市新店區湖興路109號","121.561663333333","24.9369816666667","6500600","新店區"
"231031","720-UM","2018/07/12 15:39:25","新北市新店區雙城路133號","121.497835","24.9388083333333","6500600","新店區"
"231029","897-TW","2018/07/12 15:39:17","新北市新店區安康路二段317-1號","121.499098333333","24.9564066666667","6500600","新店區"
"241011","013-R5","2018/07/12 15:39:19","新北市三重區秀江街167號","121.498326666667","25.0718166666667","6500200","三重區"
"241008","059-VK","2018/07/12 15:39:11","新北市三重區重新路四段121號","121.485203333333","25.052335","6500200","三重區"
"241015","062-VK","2018/07/12 15:39:23","新北市三重區重新路四段121號","121.485025","25.0524266666667","6500200","三重區"
"241017","063-VK","2018/07/12 15:39:23","新北市三重區大仁街1號","121.491625","25.0636083333333","6500200","三重區"
"241002","090-VK","2018/07/12 15:39:19","新北市三重區仁義街91號","121.499776666667","25.0794966666667","6500200","三重區"
"241003","091-VK","2018/07/12 15:39:19","新北市三重區自強路四段28號","121.4889","25.0767883333333","6500200","三重區"
"241005","262-UM","2018/07/12 15:39:17","新北市三重區重新路四段121號","121.485076666667","25.0521816666667","6500200","三重區"
"241016","266-UM","2018/07/12 15:39:17","新北市三重區重新路四段121號","121.485056666667","25.052385","6500200","三重區"
"241013","270-UM","2018/07/12 15:39:21","新北市三重區正義北路295號","121.494958333333","25.0706783333333","6500200","三重區"
"241007","398-BY","2018/07/12 15:39:10","新北市三重區重新路四段121號","121.485086666667","25.0523066666667","6500200","三重區"
"241025","413-TH","2018/07/12 15:39:16","新北市三重區重新路四段121號","121.484818333333","25.052665","6500200","三重區"
"241020","478-VK","2018/07/12 15:39:26","新北市三重區忠孝路二段48號","121.485138333333","25.0703766666667","6500200","三重區"
"241030","480-VK","2018/07/12 15:39:22","新北市三重區重新路四段121號","121.4849","25.052525","6500200","三重區"
"241023","887-TS","2018/07/12 15:39:24","新北市三重區重新路四段121號","121.484643333333","25.05232","6500200","三重區"
"241012","941-UM","2018/07/12 15:39:22","新北市三重區自強路一段62號","121.497298333333","25.0667366666667","6500200","三重區"
"241029","942-UM","2018/07/12 15:39:11","新北市三重區大同南路153-2號","121.496676666667","25.056695","6500200","三重區"
"241033","AAC-255","2018/07/12 15:39:07","新北市三重區重新路五段326巷12號","121.47863","25.046695","6500200","三重區"
"235033","4980-A6","2018/07/12 15:39:16","新北市中和區員山路375號","121.48099","25.0022766666667","6500300","中和區"
"235010","733-UM","2018/07/12 15:39:17","新北市八里區中山路三段390號","121.368376666667","25.135905","6500300","中和區"
"235023","AAC-215","2018/07/12 15:39:22","新北市中和區員山路31-5號","121.48015","24.98779","6500300","中和區"
"227010","642-TC","2018/07/12 15:39:15","新北市雙溪區三貂里政光路3-1號","121.8511","25.06302","6502500","雙溪區"
"227004","400-TW","2018/07/12 15:39:10","新北市雙溪區牡丹里中正路43號","121.864743333333","25.03863","6502500","雙溪區"
"253003","6232-TK","2018/07/12 15:39:17","新北市石門區小坑12號","121.591555","25.290695","6502200","石門區"
"236074","166-UM","2018/07/12 15:39:19","新北市土城區中央路四段183號","121.414968333333","24.9567433333333","6501300","土城區"
"236029","253-BX","2018/07/12 15:39:26","新北市土城區裕民路34號","121.447871666667","24.98826","6501300","土城區"
"236024","269-VK","2018/07/12 15:39:15","新北市土城區裕生路83巷30號","121.447906666667","24.9837883333333","6501300","土城區"
"236012","270-VK","2018/07/12 15:39:16","新北市土城區四川路31號","121.455006666667","24.9957116666667","6501300","土城區"
"236068","KEA-2877","2018/07/12 15:39:12","新北市土城區中央路二段346巷23號","121.439228333333","24.9722716666667","6501300","土城區"
"236017","401-BY","2018/07/12 15:39:08","新北市土城區延吉街25號","121.472433333333","24.988435","6501300","土城區"
"236060","752-BX","2018/07/12 15:38:59","新北市土城區金城路二段269號","121.463875","24.98612","6501300","土城區"
"236057","912-UM","2018/07/12 15:39:13","新北市土城區中央路一段186-1號","121.445515","24.9863483333333","6501300","土城區"
"236045","913-UM","2018/07/12 15:39:17","新北市土城區延壽路2巷5號","121.472121666667","24.990165","6501300","土城區"
"236054","AAC-216","2018/07/12 15:39:14","新北市土城區學成路130號","121.449135","24.9895483333333","6501300","土城區"
"238002","755-BX","2018/07/12 15:39:08","新北市樹林區日新街109號","121.421408333333","24.9898316666667","6500700","樹林區"
"238010","601-UM","2018/07/12 15:39:25","新北市樹林區福興街10號","121.404131666667","25.016675","6500700","樹林區"
"238006","599-UM","2018/07/12 15:39:21","新北市樹林區八德街11號","121.42","24.9747166666667","6500700","樹林區"
"238005","571-TV","2018/07/12 15:39:26","新北市樹林區中華路233號","121.418655","24.9807866666667","6500700","樹林區"
"238011","5061-A6","2018/07/12 15:39:18","新北市樹林區中山路二段249巷2號","121.40201","24.97585","6500700","樹林區"
"238009","KEA-2213","2018/07/12 15:39:21","新北市樹林區太元街52號","121.418378333333","24.9796666666667","6500700","樹林區"
"238008","KEA-2539","2018/07/12 15:39:10","新北市樹林區柑園街一段351號","121.390045","24.956275","6500700","樹林區"
"238012","303-VK","2018/07/12 15:39:26","新北市樹林區復興路340號","121.416331666667","24.9864133333333","6500700","樹林區"
"238001","283-BY","2018/07/12 15:39:22","新北市樹林區光榮街5號","121.412985","25.00407","6500700","樹林區"
"238001","282-BY","2018/07/12 15:39:14","新北市樹林區潭興街143巷2號","121.425741666667","24.9998216666667","6500700","樹林區"
"238007","268-VK","2018/07/12 15:39:19","新北市樹林區三俊街289號","121.42341","25.0140783333333","6500700","樹林區"
"238013","172-UY","2018/07/12 15:39:15","新北市樹林區中洲街16號","121.397283333333","24.9723533333333","6500700","樹林區"
"238003","169-UY","2018/07/12 15:39:21","新北市樹林區復興路337號","121.41783","24.9877916666667","6500700","樹林區"
"220050","245-BX","2018/07/12 15:39:12","新北市板橋區太和街5巷16號","121.473181666667","25.0198633333333","6500100","板橋區"
"220041","307-R5","2018/07/12 15:39:12","新北市八里區商港路105巷15號","121.39033","25.1483116666667","6500100","板橋區"
"220011","609-BX","2018/07/12 15:39:18","新北市板橋區縣民大道三段258-2號","121.477868333333","25.0230666666667","6500100","板橋區"
"220003","827-TW","2018/07/12 15:16:31","新北市板橋區華東街1-9號","121.448225","24.99496","6500100","板橋區"
