"lineid","car","time","location","longitude","latitude","cityid","cityname"
"234070","149-BY","2018/07/12 16:09:24","新北市永和區福和路1號","121.526241666667","25.0099266666667","6500400","永和區"
"243009","297-R6","2018/07/12 15:57:10","新北市泰山區黎明路25號","121.42188","25.0607816666667","6501600","泰山區"
"231046","107-UY","2018/07/12 16:09:23","新北市新店區灣潭路2-1號","121.53648","24.9505016666667","6500600","新店區"
"231011","187-VK","2018/07/12 16:09:11","新北市新店區安德街148巷48號","121.507578333333","24.9614616666667","6500600","新店區"
"231018","278-BY","2018/07/12 16:09:13","新北市新店區中正路694巷15號","121.535375","24.9908816666667","6500600","新店區"
"231037","4716-K9","2018/07/12 16:09:07","新北市新店區薏仁坑路自強巷1號","121.49779","24.9576016666667","6500600","新店區"
"231021","719-UY","2018/07/12 16:09:08","新北市新店區新烏路一段87巷3號","121.54621","24.94189","6500600","新店區"
"241011","013-R5","2018/07/12 16:09:18","新北市三重區三和路三段124號","121.493551666667","25.0723883333333","6500200","三重區"
"241028","022-UY","2018/07/12 16:09:11","新北市三重區正義南路111號","121.498265","25.0585583333333","6500200","三重區"
"241008","059-VK","2018/07/12 16:09:11","新北市三重區力行路二段27號","121.48196","25.0727033333333","6500200","三重區"
"241022","060-VK","2018/07/12 16:09:19","新北市三重區市前街2號","121.488965","25.061895","6500200","三重區"
"241015","062-VK","2018/07/12 16:09:23","新北市三重區正義南路183號","121.499171666667","25.0561916666667","6500200","三重區"
"241017","063-VK","2018/07/12 16:09:23","新北市三重區大同北路148巷76號","121.490176666667","25.0645233333333","6500200","三重區"
"241024","065-VK","2018/07/12 16:09:10","新北市三重區力行路一段38巷13號","121.48577","25.067575","6500200","三重區"
"241026","066-VK","2018/07/12 16:09:19","新北市三重區正義南路38號","121.498255","25.06099","6500200","三重區"
"241002","090-VK","2018/07/12 16:09:20","新北市三重區仁義街91號","121.49975","25.0795116666667","6500200","三重區"
"241003","091-VK","2018/07/12 16:09:14","新北市三重區仁義街301號","121.495678333333","25.0837666666667","6500200","三重區"
"241005","262-UM","2018/07/12 16:09:17","新北市三重區溪尾街300-2號","121.487523333333","25.0836083333333","6500200","三重區"
"241016","266-UM","2018/07/12 16:09:17","新北市三重區重新路三段80號","121.493118333333","25.0611433333333","6500200","三重區"
"241018","268-UM","2018/07/12 16:09:26","新北市三重區明志街38號","121.491318333333","25.0638433333333","6500200","三重區"
"241013","270-UM","2018/07/12 16:09:21","新北市三重區文化北路248號","121.497343333333","25.0701016666667","6500200","三重區"
"241007","398-BY","2018/07/12 16:09:10","新北市三重區慈愛街1號","121.48463","25.0784033333333","6500200","三重區"
"241025","413-TH","2018/07/12 16:09:17","新北市三重區中正北路210號","121.482465","25.0673333333333","6500200","三重區"
"241004","475-VK","2018/07/12 16:09:15","新北市三重區泉州街84巷18號","121.4958","25.0542333333333","6500200","三重區"
"241020","478-VK","2018/07/12 16:09:05","新北市三重區後竹圍街294號","121.482898333333","25.0709783333333","6500200","三重區"
"241030","480-VK","2018/07/12 16:09:22","新北市三重區重新路四段101-11號","121.484911666667","25.0531516666667","6500200","三重區"
"241014","543-UM","2018/07/12 16:09:14","新北市三重區環河南路110-4號","121.498653333333","25.0560666666667","6500200","三重區"
"241001","547-UM","2018/07/12 16:09:22","新北市三重區自強路四段32-2號","121.489113333333","25.0771266666667","6500200","三重區"
"241019","KEA-2593","2018/07/12 16:09:14","新北市三重區重陽路三段99號","121.490416666667","25.0680516666667","6500200","三重區"
"241006","AAD-863","2018/07/12 16:09:17","新北市三重區永福街58巷3弄20號","121.480648333333","25.07728","6500200","三重區"
"241023","887-TS","2018/07/12 16:09:24","新北市三重區力行路一段56-1號","121.484658333333","25.0689066666667","6500200","三重區"
"241012","941-UM","2018/07/12 16:09:22","新北市三重區文化北路132巷2-5號","121.498161666667","25.06662","6500200","三重區"
"241029","942-UM","2018/07/12 16:09:11","新北市三重區同安街24號","121.496271666667","25.0567783333333","6500200","三重區"
"241033","AAC-255","2018/07/12 16:09:26","新北市三重區中興南街80巷3號","121.471276666667","25.0435516666667","6500200","三重區"
"235064","005-UY","2018/07/12 16:09:17","新北市中和區員山路36巷16-3號","121.485093333333","24.991355","6500300","中和區"
"235026","800-TS","2018/07/12 16:09:25","新北市中和區永和路191巷6-1號","121.49126","25.0069216666667","6500300","中和區"
"224007","275-VK","2018/07/12 16:09:22","新北市瑞芳區粗坑口路3-1號","121.76184","25.0985933333333","6501200","瑞芳區"
"227010","642-TC","2018/07/12 16:09:15","新北市雙溪區三港里雙澳路72號","121.881848333333","25.0545266666667","6502500","雙溪區"
"227004","400-TW","2018/07/12 16:09:10","新北市雙溪區上林里內平林47號","121.833315","25.030435","6502500","雙溪區"
"251008","442-VK","2018/07/12 16:09:16","新北市淡水區中正路一段21號","121.426331666667","25.1762916666667","6501000","淡水區"
"236057","912-UM","2018/07/12 16:09:13","新北市土城區大安路126號","121.433808333333","24.96957","6501300","土城區"
"238002","755-BX","2018/07/12 16:09:08","新北市樹林區大安路323巷10弄15號","121.41714","24.990865","6500700","樹林區"
"238010","601-UM","2018/07/12 16:09:25","新北市樹林區三福街85巷8號","121.40713","25.0155733333333","6500700","樹林區"
"238006","599-UM","2018/07/12 16:09:21","新北市樹林區東陽街3號","121.412733333333","24.9822283333333","6500700","樹林區"
"238009","KEA-2213","2018/07/12 16:09:21","新北市樹林區育德街78-1號","121.387815","24.9681383333333","6500700","樹林區"
"238025","303-VK","2018/07/12 16:03:36","新北市樹林區中正路22-1號","121.42789","24.9993183333333","6500700","樹林區"
"238001","283-BY","2018/07/12 16:09:22","新北市樹林區中正路433-1號","121.41472","25.0079916666667","6500700","樹林區"
"238001","282-BY","2018/07/12 16:09:19","新北市樹林區千歲街63-12號","121.426961666667","24.9985633333333","6500700","樹林區"
"238007","268-VK","2018/07/12 16:09:08","新北市樹林區三龍街113號","121.417308333333","25.0183083333333","6500700","樹林區"
"220004","276-BY","2018/07/12 15:46:06","新北市板橋區華東街1-9號","121.448163333333","24.994915","6500100","板橋區"
"220041","307-R5","2018/07/12 16:09:12","新北市八里區中山路三段106號","121.390738333333","25.1421216666667","6500100","板橋區"
