"lineid","car","time","location","longitude","latitude","cityid","cityname"
"234026","9371-KE","2018/07/12 18:09:23","新北市永和區永和路一段72巷4號","121.513365","25.006085","6500400","永和區"
"249005","172-UM","2018/07/12 18:09:17","新北市八里區荖阡坑路15號","121.401396666667","25.1398716666667","6502300","八里區"
"249001","173-UM","2018/07/12 18:09:29","新北市八里區龍米路二段29號","121.448578333333","25.1397766666667","6502300","八里區"
"249004","303-UY","2018/07/12 18:09:16","新北市八里區龍米路二段148號","121.437146666667","25.155875","6502300","八里區"
"249002","305-UY","2018/07/12 18:09:28","新北市八里區龍米路一段386巷8號","121.45227","25.1317483333333","6502300","八里區"
"249003","593-UM","2018/07/12 18:09:28","新北市八里區松子腳4-3號","121.402985","25.1442183333333","6502300","八里區"
"248016","026-BX","2018/07/12 18:09:26","新北市五股區成泰路三段149號","121.44492","25.0914016666667","6501500","五股區"
"248006","077-UY","2018/07/12 18:09:26","新北市五股區中興路二段82號","121.460891666667","25.0772533333333","6501500","五股區"
"248008","095-VK","2018/07/12 18:09:23","新北市五股區更洲路32巷15弄3號","121.458555","25.0803466666667","6501500","五股區"
"248020","225-UY","2018/07/12 18:09:24","新北市五股區成泰路三段544-1號","121.454313333333","25.1023883333333","6501500","五股區"
"248012","247-BX","2018/07/12 18:09:20","新北市五股區新五路二段572號","121.443063333333","25.0859483333333","6501500","五股區"
"248014","261-SL","2018/07/12 18:09:24","新北市五股區成泰路一段220-1號","121.436358333333","25.0795866666667","6501500","五股區"
"248004","677-BX","2018/07/12 18:09:27","新北市五股區中興路四段54號","121.43809","25.082945","6501500","五股區"
"248002","678-BX","2018/07/12 18:09:14","新北市五股區新五路二段582號","121.443226666667","25.0862166666667","6501500","五股區"
"248010","682-TV","2018/07/12 18:09:15","新北市五股區成泰路一段216號","121.436551666667","25.0791333333333","6501500","五股區"
"234067","AAC-212","2018/07/12 17:42:10","新北市永和區福和路1號","121.526393333333","25.00964","6500400","永和區"
"232011","375-UM","2018/07/12 18:09:25","新北市坪林區水柳腳7號","121.711301666667","24.935645","6502000","坪林區"
"244007","080-UY","2018/07/12 18:09:30","新北市林口區林口路150號","121.387966666667","25.082135","6501700","林口區"
"244019","403-UM","2018/07/12 18:09:20","新北市林口區文化一路一段133號","121.373966666667","25.0717683333333","6501700","林口區"
"244013","742-UY","2018/07/12 18:09:14","新北市林口區中山路160巷5號","121.390965","25.0793183333333","6501700","林口區"
"244009","410-SL","2018/07/12 18:09:12","新北市林口區文化二路二段126號","121.379951666667","25.0827983333333","6501700","林口區"
"244023","483-VK","2018/07/12 18:09:15","新北市林口區東湖路153巷135號","121.38219","25.0735216666667","6501700","林口區"
"244017","485-VK","2018/07/12 18:09:22","新北市林口區忠孝路506號","121.370808333333","25.070005","6501700","林口區"
"244011","657-BX","2018/07/12 18:09:18","新北市林口區粉寮路一段45號","121.39667","25.0776183333333","6501700","林口區"
"244025","837-TS","2018/07/12 18:09:26","新北市林口區文化北路一段212號","121.358093333333","25.070845","6501700","林口區"
"244021","838-TS","2018/07/12 18:09:14","新北市林口區自強五街23號","121.4002","25.0757533333333","6501700","林口區"
"243013","AAD-798","2018/07/12 18:09:20","新北市泰山區南林路99巷19號","121.417235","25.0495033333333","6501600","泰山區"
"222002","016-RS","2018/07/12 18:09:24","新北市深坑區文化街42號","121.619096666667","25.0016466666667","6501800","深坑區"
"222003","436-BY","2018/07/12 18:09:10","新北市深坑區阿柔洋47號","121.612276666667","24.9974383333333","6501800","深坑區"
"231041","002-UM","2018/07/12 18:09:15","新北市新店區安華路28-1號","121.519536666667","24.9608866666667","6500600","新店區"
"231059","046-UY","2018/07/12 18:09:13","新北市新店區安華路28-1號","121.519528333333","24.9608516666667","6500600","新店區"
"231040","047-UY","2018/07/12 18:09:32","新北市新店區安華路28-1號","121.51927","24.9609116666667","6500600","新店區"
"231044","106-UY","2018/07/12 18:09:21","新北市新店區安華路28-1號","121.519558333333","24.96081","6500600","新店區"
"231046","107-UY","2018/07/12 18:09:23","新北市新店區直潭七街60號","121.532293333333","24.9397883333333","6500600","新店區"
"231065","110-UY","2018/07/12 18:09:25","新北市新店區安一路一段1-1號","121.519398333333","24.9610216666667","6500600","新店區"
"231047","187-VK","2018/07/12 18:09:23","新北市新店區安一路一段1-1號","121.519555","24.9612183333333","6500600","新店區"
"231054","KEA-2219","2018/07/12 18:09:21","新北市新店區安一路一段1-1號","121.519751666667","24.961265","6500600","新店區"
"231057","256-BX","2018/07/12 18:09:15","新北市新店區安一路一段1-1號","121.519606666667","24.9611233333333","6500600","新店區"
"231042","268-BY","2018/07/12 18:09:19","新北市新店區安華路28-1號","121.519371666667","24.9606516666667","6500600","新店區"
"231051","278-BY","2018/07/12 18:09:14","新北市新店區安一路一段1-1號","121.519588333333","24.9611033333333","6500600","新店區"
"231050","AAD-862","2018/07/12 18:09:19","新北市新店區安一路一段1-1號","121.519578333333","24.96109","6500600","新店區"
"231066","4716-K9","2018/07/12 18:09:24","新北市新店區安一路一段1-1號","121.51932","24.9615666666667","6500600","新店區"
"231056","4715-K9","2018/07/12 18:09:15","新北市新店區安康路一段186號","121.524818333333","24.963305","6500600","新店區"
"231049","513-UM","2018/07/12 18:09:27","新北市新店區安華路28-1號","121.519528333333","24.9609866666667","6500600","新店區"
"231063","616-UM","2018/07/12 18:09:09","新北市新店區安華路1-1號","121.519465","24.9604933333333","6500600","新店區"
"231061","619-UM","2018/07/12 18:09:16","新北市新店區安華路28-1號","121.519466666667","24.96096","6500600","新店區"
"231052","719-UY","2018/07/12 18:09:22","新北市新店區安一路一段1-1號","121.519125","24.9615966666667","6500600","新店區"
"231060","897-TW","2018/07/12 18:09:25","新北市新店區安華路28-1號","121.519481666667","24.9607216666667","6500600","新店區"
"231045","898-TW","2018/07/12 18:09:17","新北市新店區安華路28-1號","121.519376666667","24.960855","6500600","新店區"
"231055","AKT-0513","2018/07/12 18:09:18","新北市新店區安華路28-1號","121.5194","24.960545","6500600","新店區"
"241033","AAC-255","2018/07/12 18:09:26","新北市三重區中興北街54-30號","121.46897","25.05103","6500200","三重區"
"235066","003-UY","2018/07/12 18:09:22","新北市中和區圓通路172號","121.497376666667","24.9946983333333","6500300","中和區"
"235064","005-UY","2018/07/12 18:09:14","新北市中和區中正路250號","121.495728333333","24.9939466666667","6500300","中和區"
"235045","031-BX","2018/07/12 18:09:15","新北市中和區錦和路350-1號","121.490515","24.9935583333333","6500300","中和區"
"235039","097-UM","2018/07/12 18:09:18","新北市中和區和城路一段271巷1號","121.48543","24.9916583333333","6500300","中和區"
"235065","098-UM","2018/07/12 18:09:19","新北市中和區中山路二段2巷45弄3號","121.502255","25.0068383333333","6500300","中和區"
"235040","150-BY","2018/07/12 18:09:19","新北市中和區中正路637巷52弄1號","121.485428333333","24.9935983333333","6500300","中和區"
"235058","151-BY","2018/07/12 18:09:29","新北市中和區圓通路367巷33弄23號","121.494796666667","24.98534","6500300","中和區"
"235055","183-VK","2018/07/12 18:09:28","新北市中和區中正路637巷60弄61號","121.485473333333","24.9931916666667","6500300","中和區"
"235043","352-BY","2018/07/12 18:09:24","新北市中和區中正路637巷52弄1號","121.485475","24.9933733333333","6500300","中和區"
"235042","KEA-2878","2018/07/12 18:09:17","新北市中和區景平路408-1號","121.50857","24.9931633333333","6500300","中和區"
"235050","4979-A6","2018/07/12 18:09:16","新北市中和區錦和路350-1號","121.490233333333","24.993555","6500300","中和區"
"235070","558-UM","2018/07/12 18:09:19","新北市中和區中正路406號","121.492353333333","24.9939816666667","6500300","中和區"
"235054","640-BX","2018/07/12 18:09:22","新北市中和區莒光路185號","121.472621666667","24.99899","6500300","中和區"
"235047","732-UM","2018/07/12 18:09:23","新北市中和區錦和路350-1號","121.490168333333","24.993535","6500300","中和區"
"235062","800-TS","2018/07/12 18:09:26","新北市中和區中山路二段478號","121.487816666667","25.004805","6500300","中和區"
"235057","801-TS","2018/07/12 18:09:16","新北市中和區員山路36巷16-3號","121.484903333333","24.9915966666667","6500300","中和區"
"235052","805-TS","2018/07/12 18:09:19","新北市中和區中正路169號","121.498161666667","24.9936933333333","6500300","中和區"
"235053","900-TW","2018/07/12 18:09:21","新北市中和區員山路36巷16-3號","121.485043333333","24.9916883333333","6500300","中和區"
"235051","157-BY","2018/07/12 18:09:23","新北市中和區捷運路8-7號","121.509458333333","24.98965","6500300","中和區"
"235037","AAC-213","2018/07/12 18:09:27","新北市中和區景平路149號","121.513966666667","24.9921166666667","6500300","中和區"
"235059","AAC-215","2018/07/12 18:09:21","新北市中和區員山路36巷16-3號","121.485291666667","24.9910083333333","6500300","中和區"
"226004","312-R5","2018/07/12 18:09:25","新北市平溪區薯榔里薯榔寮23號","121.71537","25.0194966666667","6502400","平溪區"
"228003","097-TW","2018/07/12 18:09:23","新北市貢寮區真理里美艷山街6-2號","121.928843333333","25.0607183333333","6502600","貢寮區"
"228001","212-TW","2018/07/12 18:09:24","新北市貢寮區真理里新港街26巷55弄2-1號","121.927396666667","25.0528683333333","6502600","貢寮區"
"228002","663-BX","2018/07/12 18:09:11","新北市貢寮區福連里馬崗街35號","122.000956666667","25.0119466666667","6502600","貢寮區"
"224010","AGQ-8101","2018/07/12 18:00:55","新北市瑞芳區烏勢巷145號","121.847711666667","25.1090016666667","6501200","瑞芳區"
"224006","676-BX","2018/07/12 18:09:29","新北市瑞芳區中山路153號","121.802491666667","25.1064583333333","6501200","瑞芳區"
"224002","639-TC","2018/07/12 18:09:30","新北市瑞芳區三爪子坑路149巷22-15號","121.811618333333","25.1059716666667","6501200","瑞芳區"
"224008","285-BY","2018/07/12 18:09:15","新北市瑞芳區員山子路23號","121.821135","25.1033066666667","6501200","瑞芳區"
"224007","275-VK","2018/07/12 18:09:22","新北市瑞芳區四腳亭坑路2-3號","121.776248333333","25.1091183333333","6501200","瑞芳區"
"224009","273-VK","2018/07/12 18:09:29","新北市瑞芳區金光路115號","121.853616666667","25.1063216666667","6501200","瑞芳區"
"224005","271-BY","2018/07/12 18:09:12","新北市瑞芳區深澳路10-2號","121.817343333333","25.1291583333333","6501200","瑞芳區"
"227010","642-TC","2018/07/12 18:09:14","新北市雙溪區三貂里定福路1-2號","121.850716666667","25.063385","6502500","雙溪區"
"253005","032-BX","2018/07/12 18:09:12","新北市石門區福安街25號","121.568768333333","25.2924466666667","6502200","石門區"
"253006","295-VK","2018/07/12 18:09:13","新北市石門區老梅路52巷21號","121.546418333333","25.2885966666667","6502200","石門區"
"222001","KEA-2212","2018/07/12 18:09:14","新北市深坑區北深路二段104號","121.616946666667","25.0033166666667","6501800","深坑區"
"208002","KEA-2872","2018/07/12 18:09:30","新北市金山區三界壇路13號","121.619253333333","25.2338216666667","6502700","金山區"
"208003","665-BX","2018/07/12 18:08:59","新北市金山區磺港里磺港路8號","121.649608333333","25.230555","6502700","金山區"
"208001","761-BX","2018/07/12 18:09:22","新北市金山區磺港里磺港路110號","121.646358333333","25.226825","6502700","金山區"
"251016","008-UM","2018/07/12 18:09:22","新北市淡水區下圭柔山15-2號","121.453246666667","25.20229","6501000","淡水區"
"251004","009-UM","2018/07/12 18:09:24","新北市淡水區民族路110巷43弄5號","121.461583333333","25.1350766666667","6501000","淡水區"
"251001","011-UM","2018/07/12 18:09:28","新北市淡水區自立路10號","121.463085","25.1297916666667","6501000","淡水區"
"251013","KEA-2871","2018/07/12 18:09:27","新北市淡水區竹圍子19-2號","121.477218333333","25.1914866666667","6501000","淡水區"
"251014","180-VK","2018/07/12 18:09:18","新北市淡水區南平15號","121.488483333333","25.2190716666667","6501000","淡水區"
"251015","181-VK","2018/07/12 18:09:19","新北市淡水區興福寮66巷539號","121.4846","25.1650966666667","6501000","淡水區"
"251010","413-VK","2018/07/12 18:09:24","新北市淡水區淡海路160號","121.420908333333","25.1832766666667","6501000","淡水區"
"251012","441-VK","2018/07/12 18:09:16","新北市淡水區北新路三段171-1號","121.492091666667","25.1915983333333","6501000","淡水區"
"251008","442-VK","2018/07/12 18:09:26","新北市淡水區坪頂路70巷35號","121.460133333333","25.1608166666667","6501000","淡水區"
"251005","443-VK","2018/07/12 18:09:20","新北市淡水區水源街一段141號","121.447238333333","25.1719616666667","6501000","淡水區"
"251006","561-UM","2018/07/12 18:09:16","新北市淡水區真理街3巷20號","121.437535","25.176015","6501000","淡水區"
"251009","575-R6","2018/07/12 18:09:18","新北市淡水區大忠街34巷9號","121.443786666667","25.1755116666667","6501000","淡水區"
"251011","650-BX","2018/07/12 18:09:27","新北市淡水區三空泉9-2號","121.47414","25.16347","6501000","淡水區"
"251002","672-BX","2018/07/12 18:09:13","新北市淡水區中正東路一段127巷2號","121.455125","25.1593483333333","6501000","淡水區"
"251003","673-BX","2018/07/12 18:09:27","新北市淡水區大忠街113巷29號","121.4476","25.1774566666667","6501000","淡水區"
"207003","550-UM","2018/07/12 18:09:18","新北市萬里區野柳里港西路13號","121.685185","25.2043783333333","6502800","萬里區"
"207004","225-TW","2018/07/12 18:09:15","新北市萬里區中幅里中福路110號","121.676718333333","25.1690166666667","6502800","萬里區"
"252002","178-VK","2018/07/12 18:09:24","新北市三芝區中山路二段43號","121.50295","25.2550416666667","6502100","三芝區"
"252003","249-BX","2018/07/12 18:09:27","新北市三芝區埔頭里埔頭37號","121.498516666667","25.260355","6502100","三芝區"
"252001","292-VK","2018/07/12 18:09:17","新北市三芝區中興街二段2號","121.498386666667","25.2565633333333","6502100","三芝區"
"237007","153-BY","2018/07/12 18:09:27","新北市三峽區中正路二段285號","121.365903333333","24.9112516666667","6500900","三峽區"
"237009","210-TH","2018/07/12 18:09:29","新北市三峽區大仁路50巷16號","121.365335","24.9380933333333","6500900","三峽區"
"237013","252-BX","2018/07/12 18:09:13","新北市三峽區長泰街94號","121.3761","24.9333183333333","6500900","三峽區"
"237012","275-BY","2018/07/12 18:09:19","新北市三峽區民生街1巷6-7號","121.377371666667","24.9361416666667","6500900","三峽區"
"237008","302-VK","2018/07/12 18:09:28","新北市三峽區白雞50號","121.381275","24.9108733333333","6500900","三峽區"
"237014","433-BY","2018/07/12 18:09:25","新北市三峽區國光街81巷13號","121.373656666667","24.9378566666667","6500900","三峽區"
"237006","5529-G3","2018/07/12 18:09:18","新北市三峽區溪東路34巷19號","121.4003","24.93423","6500900","三峽區"
"237011","KEA-2596","2018/07/12 18:09:28","新北市三峽區大同路2-1號","121.378338333333","24.9300716666667","6500900","三峽區"
"237016","649-BX","2018/07/12 18:09:11","新北市三峽區紫新路32巷1號","121.422351666667","24.9219066666667","6500900","三峽區"
"237010","706-TV","2018/07/12 18:09:22","新北市三峽區中園街20號","121.368148333333","24.9270533333333","6500900","三峽區"
"237005","AKY-6261","2018/07/12 18:09:26","新北市三峽區文化路65巷7號","121.371935","24.935645","6500900","三峽區"
"236042","107-UM","2018/07/12 18:09:21","新北市土城區中華路二段2號","121.439341666667","24.97967","6501300","土城區"
"236078","166-UM","2018/07/12 18:09:28","新北市土城區永寧路27巷2號","121.430881666667","24.96377","6501300","土城區"
"236030","253-BX","2018/07/12 18:09:17","新北市土城區城林路6巷80號","121.43867","24.9796483333333","6501300","土城區"
"236026","269-VK","2018/07/12 18:09:21","新北市土城區承天路18號","121.439398333333","24.963475","6501300","土城區"
"236014","270-VK","2018/07/12 18:09:11","新北市土城區學府路二段134號","121.446443333333","24.9790683333333","6501300","土城區"
"236038","271-VK","2018/07/12 18:09:16","新北市土城區青雲路449號","121.458898333333","24.9748666666667","6501300","土城區"
"236070","KEA-2877","2018/07/12 18:09:27","新北市土城區青雲路605巷6號","121.459453333333","24.9692683333333","6501300","土城區"
"236021","401-BY","2018/07/12 18:09:27","新北市土城區城林路6巷80號","121.438743333333","24.97963","6501300","土城區"
"236063","752-BX","2018/07/12 18:08:49","新北市土城區中正路69號","121.444626666667","24.97566","6501300","土城區"
"236059","912-UM","2018/07/12 18:09:22","新北市土城區中央路四段123號","121.41632","24.9576233333333","6501300","土城區"
"236049","913-UM","2018/07/12 18:09:25","新北市土城區金城路二段26號","121.450345","24.9780816666667","6501300","土城區"
"236055","AAC-216","2018/07/12 18:09:14","新北市土城區城林路6巷80號","121.43833","24.979985","6501300","土城區"
"242058","986-R7","2018/07/12 18:09:18","新北市新莊區新北大道七段716號","121.412456666667","25.0262433333333","6500500","新莊區"
"242053","751-BX","2018/07/12 18:09:12","新北市新莊區民安西路303號","121.426885","25.011705","6500500","新莊區"
"242027","615-BX","2018/07/12 18:09:11","新北市新莊區幸福路511號","121.455758333333","25.049345","6500500","新莊區"
"242025","613-BX","2018/07/12 18:09:16","新北市新莊區五權一路11-2號","121.459495","25.0678333333333","6500500","新莊區"
"242029","612-BX","2018/07/12 18:09:00","新北市新莊區中平路112號","121.444953333333","25.0462083333333","6500500","新莊區"
"242042","566-BX","2018/07/12 18:09:17","新北市新莊區雙鳳路116巷15弄2號","121.413606666667","25.029205","6500500","新莊區"
"242046","497-BY","2018/07/12 18:09:19","新北市新莊區福營路227巷12號","121.43019","25.0291433333333","6500500","新莊區"
"242038","442-UM","2018/07/12 18:09:11","新北市新莊區民安東路37號","121.428853333333","25.0210066666667","6500500","新莊區"
"242051","441-UM","2018/07/12 18:09:14","新北市新莊區民本街11巷2弄29號","121.429145","25.0200233333333","6500500","新莊區"
"242056","440-UM","2018/07/12 18:09:18","新北市新莊區豐年街53巷50號","121.447961666667","25.0314716666667","6500500","新莊區"
"242036","415-TV","2018/07/12 18:09:28","新北市新莊區後港一路65巷9弄7號","121.425856666667","25.0267783333333","6500500","新莊區"
"242007","413-TV","2018/07/12 18:09:26","新北市新莊區自強街37巷3號","121.45441","25.0465666666667","6500500","新莊區"
"242044","400-BY","2018/07/12 18:09:26","新北市新莊區天泉二街22巷2號","121.414885","25.0251416666667","6500500","新莊區"
"242023","362-BY","2018/07/12 18:09:22","新北市泰山區泰林路一段2號","121.441991666667","25.0478316666667","6500500","新莊區"
"242061","353-BY","2018/07/12 18:09:22","新北市新莊區新樹路295-5號","121.43362","25.0196883333333","6500500","新莊區"
"242031","135-UY","2018/07/12 18:09:17","新北市新莊區新泰路255巷18號","121.445245","25.0399016666667","6500500","新莊區"
"242048","172-VK","2018/07/12 18:09:25","新北市新莊區民安路100號","121.423926666667","25.0260216666667","6500500","新莊區"
"242011","173-VK","2018/07/12 18:00:52","新北市新莊區中港路中慶巷27弄6號","121.449911666667","25.0535366666667","6500500","新莊區"
"242017","175-VK","2018/07/12 18:09:28","新北市新莊區中港路293號","121.452865","25.04414","6500500","新莊區"
"242015","346-TH","2018/07/12 18:09:13","新北市新莊區中和街59巷26號","121.446281666667","25.0467233333333","6500500","新莊區"
"242009","347-TH","2018/07/12 18:09:22","新北市新莊區昌平街6號","121.454793333333","25.05251","6500500","新莊區"
"242021","348-TH","2018/07/12 18:09:15","新北市新莊區建興街89巷2號","121.449893333333","25.0390133333333","6500500","新莊區"
"242002","349-TH","2018/07/12 18:09:24","新北市新莊區新莊路38號","121.458243333333","25.0370783333333","6500500","新莊區"
"238015","755-BX","2018/07/12 18:09:21","新北市樹林區大安路347號","121.416493333333","24.990615","6500700","樹林區"
"238023","601-UM","2018/07/12 18:09:25","新北市樹林區龍興街31巷5號","121.403335","25.01603","6500700","樹林區"
"238019","599-UM","2018/07/12 18:09:24","新北市樹林區忠孝街106號","121.42474","24.980365","6500700","樹林區"
"238018","571-TV","2018/07/12 18:09:27","新北市樹林區博愛一街10號","121.425376666667","24.9909933333333","6500700","樹林區"
"238024","5061-A6","2018/07/12 18:09:22","新北市樹林區保安街一段177號","121.421626666667","24.9955333333333","6500700","樹林區"
"238021","KEA-2539","2018/07/12 18:09:14","新北市樹林區柑園街二段175號","121.38044","24.9528866666667","6500700","樹林區"
"238025","303-VK","2018/07/12 18:09:26","新北市樹林區保安街一段236號","121.420226666667","24.9965583333333","6500700","樹林區"
"238017","283-BY","2018/07/12 18:09:22","新北市樹林區保安街二段333巷3號","121.411625","25.007485","6500700","樹林區"
"238014","282-BY","2018/07/12 18:09:14","新北市樹林區中正路65-4號","121.42636","25.0000916666667","6500700","樹林區"
"238026","172-UY","2018/07/12 18:09:20","新北市樹林區育德街11號","121.392388333333","24.97049","6500700","樹林區"
"238016","169-UY","2018/07/12 18:09:29","新北市樹林區文化街28號","121.41927","24.98781","6500700","樹林區"
"239007","AAC-297","2018/07/12 18:09:27","新北市鶯歌區重慶街65號","121.349506666667","24.9517183333333","6500800","鶯歌區"
"239006","891-R6","2018/07/12 18:09:13","新北市鶯歌區鶯桃路381巷2弄9號","121.33304","24.9636416666667","6500800","鶯歌區"
"239008","527-UM","2018/07/12 18:09:23","新北市鶯歌區朝陽街61巷33號","121.338916666667","24.9776883333333","6500800","鶯歌區"
"239005","526-UM","2018/07/12 18:09:13","新北市鶯歌區鶯桃路668巷61號","121.329515","24.9711933333333","6500800","鶯歌區"
"239001","417-VK","2018/07/12 18:09:21","新北市鶯歌區國中街60巷10號","121.34128","24.94265","6500800","鶯歌區"
"239003","360-BY","2018/07/12 18:09:26","新北市鶯歌區福安街38號","121.334483333333","24.9642733333333","6500800","鶯歌區"
"239002","359-BY","2018/07/12 18:09:13","新北市鶯歌區光明街98號","121.346198333333","24.955835","6500800","鶯歌區"
"239004","193-VK","2018/07/12 18:09:24","新北市鶯歌區尖山路137巷6號","121.346971666667","24.9484666666667","6500800","鶯歌區"
"221008","489-VK","2018/07/12 18:09:22","新北市汐止區康寧街315號","121.626951666667","25.0679716666667","6501100","汐止區"
"221036","130-UY","2018/07/12 18:09:10","新北市汐止區大同路三段247號","121.673285","25.07615","6501100","汐止區"
"221015","131-UY","2018/07/12 18:09:27","新北市汐止區鄉長路二段25-1號","121.668343333333","25.0827766666667","6501100","汐止區"
"221010","269-BY","2018/07/12 18:09:24","新北市汐止區汐萬路二段250-1號","121.646151666667","25.0890316666667","6501100","汐止區"
"221012","278-VK","2018/07/12 18:09:16","新北市汐止區長興街二段50巷30弄17號","121.675151666667","25.080605","6501100","汐止區"
"221023","279-VK","2018/07/12 18:09:19","新北市汐止區明峰街179-1號","121.628616666667","25.0700183333333","6501100","汐止區"
"221032","280-BY","2018/07/12 18:09:27","新北市汐止區橫科路61號","121.618661666667","25.0508316666667","6501100","汐止區"
"221027","281-BY","2018/07/12 18:09:26","新北市汐止區大同路二段509號","121.661343333333","25.0688366666667","6501100","汐止區"
"221033","297-VK","2018/07/12 18:09:18","新北市汐止區林森街21號","121.621751666667","25.0405016666667","6501100","汐止區"
"221029","298-VK","2018/07/12 18:09:17","新北市汐止區樟樹二路132號","121.639925","25.06561","6501100","汐止區"
"221021","299-VK","2018/07/12 18:09:20","新北市汐止區連興街6號","121.65602","25.064045","6501100","汐止區"
"221031","353-TW","2018/07/12 18:09:21","新北市汐止區中興路181-1號","121.630383333333","25.0668383333333","6501100","汐止區"
"221035","622-UM","2018/07/12 18:09:23","新北市汐止區大同路二段252號","121.654313333333","25.0658583333333","6501100","汐止區"
"221025","623-UM","2018/07/12 18:09:25","新北市汐止區勤進路1號","121.66039","25.0620983333333","6501100","汐止區"
"221038","646-BX","2018/07/12 18:09:28","新北市汐止區莊敬街119巷11號","121.655415","25.0603633333333","6501100","汐止區"
"221002","707-TV","2018/07/12 18:09:11","新北市汐止區福德一路176巷1弄18號","121.635088333333","25.0659566666667","6501100","汐止區"
"242019","281-VK","2018/07/12 18:09:19","新北市新莊區公園路10巷2號","121.44769","25.0388333333333","6500500","新莊區"
"242034","280-VK","2018/07/12 18:09:11","新北市新莊區景德路382號","121.44631","25.0335366666667","6500500","新莊區"
"220073","985-R7","2018/07/12 18:09:11","新北市板橋區華東街1-10號","121.448256666667","24.9949366666667","6500100","板橋區"
"235068","KEA-2873","2018/07/12 18:09:08","新北市中和區員山路36巷16-3號","121.484961666667","24.9913333333333","6500300","中和區"
"235061","KEA-2875","2018/07/12 18:09:07","新北市中和區連城路583巷17號","121.478803333333","24.9933016666667","6500300","中和區"
