"lineid","car","time","location","longitude","latitude","cityid","cityname"
"234046","148-BY","2018/07/12 19:09:15","新北市永和區秀朗路二段126巷30號","121.524568333333","25.0007783333333","6500400","永和區"
"234007","207-UY","2018/07/12 19:09:26","新北市永和區中山路一段197號","121.509053333333","25.00872","6500400","永和區"
"234081","298-R6","2018/07/12 19:09:17","新北市永和區福和路57巷14弄1號","121.522693333333","25.0069316666667","6500400","永和區"
"234038","336-UY","2018/07/12 19:09:22","新北市永和區民樂街90巷1號","121.527271666667","24.9973433333333","6500400","永和區"
"234064","337-UY","2018/07/12 19:09:26","新北市永和區秀朗路二段33號","121.52129","25.00242","6500400","永和區"
"234070","552-UM","2018/07/12 19:09:15","新北市永和區豫溪街137巷1弄18號","121.51874","25.0104383333333","6500400","永和區"
"234086","553-UM","2018/07/12 19:09:25","新北市永和區永貞路108號","121.518996666667","25.004615","6500400","永和區"
"234017","745-BX","2018/07/12 19:08:56","新北市永和區忠孝街17-2號","121.514333333333","25.0156316666667","6500400","永和區"
"234030","746-BX","2018/07/12 19:09:28","新北市永和區民生路29號","121.522708333333","24.9985666666667","6500400","永和區"
"234054","KEA-2590","2018/07/12 19:09:15","新北市永和區竹林路72巷2號","121.519156666667","25.01299","6500400","永和區"
"234013","KEA-2591","2018/07/12 19:09:16","新北市永和區保福路二段8號","121.51105","25.01105","6500400","永和區"
"234061","AAD-866","2018/07/12 19:09:30","新北市永和區自由街33號","121.51439","25.0061883333333","6500400","永和區"
"234042","862-TW","2018/07/12 19:09:16","新北市永和區永貞路330號","121.511271666667","25.005505","6500400","永和區"
"234050","863-TW","2018/07/12 19:09:23","新北市永和區文化路135巷9號","121.51066","25.014465","6500400","永和區"
"234026","9371-KE","2018/07/12 19:09:23","新北市永和區安樂路272巷9弄7號","121.515036666667","25.0046166666667","6500400","永和區"
"234011","9373-KE","2018/07/12 19:09:27","新北市永和區仁愛路141巷5弄8號","121.512105","25.0120366666667","6500400","永和區"
"249005","172-UM","2018/07/12 19:09:17","新北市八里區中華路三段77號","121.394408333333","25.140645","6502300","八里區"
"249001","173-UM","2018/07/12 19:09:09","新北市八里區龍米路二段228-1號","121.432805","25.15839","6502300","八里區"
"248016","026-BX","2018/07/12 19:09:26","新北市五股區成泰路三段543巷27號","121.45031","25.10257","6501500","五股區"
"248006","077-UY","2018/07/12 19:09:26","新北市五股區四維路127號","121.467523333333","25.0738616666667","6501500","五股區"
"248008","095-VK","2018/07/12 19:09:23","新北市五股區中興路二段11號","121.463005","25.07417","6501500","五股區"
"248020","225-UY","2018/07/12 19:09:24","新北市五股區凌雲路三段57號","121.425305","25.12501","6501500","五股區"
"248012","247-BX","2018/07/12 19:09:20","新北市五股區中興路四段48巷16號","121.438616666667","25.083435","6501500","五股區"
"248004","677-BX","2018/07/12 19:09:27","新北市五股區五福路18號","121.434256666667","25.0887366666667","6501500","五股區"
"248002","678-BX","2018/07/12 19:09:14","新北市五股區凌雲路一段158巷14-1號","121.447855","25.103475","6501500","五股區"
"248010","682-TV","2018/07/12 19:09:15","新北市五股區水碓一路23號","121.430598333333","25.07135","6501500","五股區"
"234023","9380-KE","2018/07/12 19:09:16","新北市永和區勵行街119號","121.517543333333","25.011875","6500400","永和區"
"234077","969-R7","2018/07/12 19:09:26","新北市永和區民權路34號","121.52018","24.998875","6500400","永和區"
"234074","AAC-211","2018/07/12 19:09:27","新北市永和區竹林路233號","121.520835","25.00825","6500400","永和區"
"234067","AAC-212","2018/07/12 19:09:14","新北市永和區永和路一段36號","121.513118333333","25.0052733333333","6500400","永和區"
"234003","AAC-295","2018/07/12 19:09:29","新北市永和區保福路一段71號","121.512133333333","25.010195","6500400","永和區"
"244007","080-UY","2018/07/12 19:09:30","新北市林口區太平里28號","121.376773333333","25.1183366666667","6501700","林口區"
"244019","403-UM","2018/07/12 19:09:20","新北市林口區文化一路一段126號","121.37552","25.0725966666667","6501700","林口區"
"244013","742-UY","2018/07/12 19:09:14","新北市林口區麗園一街4巷1號","121.376171666667","25.07132","6501700","林口區"
"244023","483-VK","2018/07/12 19:09:15","新北市林口區文化三路一段617巷16號","121.371046666667","25.077585","6501700","林口區"
"244017","485-VK","2018/07/12 19:09:22","新北市林口區公園路59號","121.367746666667","25.06894","6501700","林口區"
"244011","657-BX","2018/07/12 19:09:19","新北市林口區竹林路71號","121.387873333333","25.07879","6501700","林口區"
"244025","837-TS","2018/07/12 19:09:26","新北市林口區文化北路一段472號","121.365415","25.0774433333333","6501700","林口區"
"243010","267-VK","2018/07/12 19:09:21","新北市泰山區仁愛路39巷25號","121.431008333333","25.055325","6501600","泰山區"
"243013","AAD-798","2018/07/12 19:09:23","新北市泰山區台麗街16巷12號","121.424206666667","25.0376283333333","6501600","泰山區"
"243009","297-R6","2018/07/12 19:09:22","新北市泰山區明志路一段124號","121.433391666667","25.0635183333333","6501600","泰山區"
"243016","380-SR","2018/07/12 19:09:26","新北市泰山區明志路二段360號","121.42576","25.0451866666667","6501600","泰山區"
"243015","421-VK","2018/07/12 19:09:18","新北市泰山區明志路一段479號","121.430691666667","25.0555083333333","6501600","泰山區"
"243011","KEA-2215","2018/07/12 19:09:15","新北市泰山區明志路二段374號","121.425501666667","25.044815","6501600","泰山區"
"243012","646-TV","2018/07/12 19:09:18","新北市泰山區辭修路36巷8弄5號","121.427856666667","25.058585","6501600","泰山區"
"243014","680-BX","2018/07/12 19:09:16","新北市泰山區泰林路二段300號","121.430908333333","25.0627316666667","6501600","泰山區"
"222002","016-RS","2018/07/12 19:09:24","新北市深坑區北深路一段199號","121.630666666667","25.0092433333333","6501800","深坑區"
"222003","436-BY","2018/07/12 19:09:30","新北市深坑區深南路162號","121.626108333333","25.0149683333333","6501800","深坑區"
"231041","002-UM","2018/07/12 19:09:15","新北市新店區中央一街14號","121.528503333333","24.972755","6500600","新店區"
"231059","046-UY","2018/07/12 19:09:13","新北市新店區安康路一段351-1號","121.519415","24.964035","6500600","新店區"
"231040","047-UY","2018/07/12 19:09:12","新北市新店區三民路155號","121.533893333333","24.973485","6500600","新店區"
"231044","106-UY","2018/07/12 19:09:21","新北市新店區中興路三段182號","121.544101666667","24.9812883333333","6500600","新店區"
"231046","107-UY","2018/07/12 19:09:23","新北市新店區華潭街1巷47號","121.527833333333","24.9475516666667","6500600","新店區"
"231065","110-UY","2018/07/12 19:09:25","新北市新店區安祥路145巷31號","121.475441666667","24.956675","6500600","新店區"
"231047","187-VK","2018/07/12 19:09:23","新北市新店區德正街27巷29弄141號","121.545576666667","24.973565","6500600","新店區"
"231054","KEA-2219","2018/07/12 19:09:21","新北市新店區新店路157號","121.53705","24.9552116666667","6500600","新店區"
"231057","256-BX","2018/07/12 18:50:09","新北市新店區花園一路一段2號","121.55289","24.9324266666667","6500600","新店區"
"231042","268-BY","2018/07/12 19:09:19","新北市新店區中興路一段167號","121.542645","24.9644016666667","6500600","新店區"
"231051","278-BY","2018/07/12 19:09:14","新北市新店區中正路400巷17號","121.535148333333","24.9782933333333","6500600","新店區"
"231050","AAD-862","2018/07/12 19:09:18","新北市新店區竹林路2巷15號","121.5504","24.951425","6500600","新店區"
"231058","3713-VJ","2018/07/12 19:09:24","新北市新店區北新路一段73號","121.53843","24.9603566666667","6500600","新店區"
"231066","4716-K9","2018/07/12 19:09:24","新北市新店區安康路二段456巷6號","121.493746666667","24.9543083333333","6500600","新店區"
"231056","4715-K9","2018/07/12 19:09:15","新北市新店區民權路101-2號","121.536683333333","24.982735","6500600","新店區"
"231067","4772-VM","2018/07/12 19:09:16","新北市新店區安康路一段76巷34-1號","121.528366666667","24.9635633333333","6500600","新店區"
"231049","513-UM","2018/07/12 19:07:47","新北市新店區二十張路24號","121.538421666667","24.9817416666667","6500600","新店區"
"231063","616-UM","2018/07/12 19:09:09","新北市新店區車子路121號","121.505235","24.9504383333333","6500600","新店區"
"231061","619-UM","2018/07/12 19:09:29","新北市新店區安康路一段355-10號","121.520373333333","24.9638466666667","6500600","新店區"
"231064","719-UM","2018/07/12 19:09:18","新北市新店區安忠路56巷6號","121.512933333333","24.959385","6500600","新店區"
"231052","719-UY","2018/07/12 19:09:24","新北市新店區自強路23巷1號","121.546278333333","24.926835","6500600","新店區"
"231062","720-UM","2018/07/12 19:09:31","新北市新店區安平路53號","121.519716666667","24.9684016666667","6500600","新店區"
"231060","897-TW","2018/07/12 19:09:25","新北市新店區安康路二段316號","121.505305","24.9580483333333","6500600","新店區"
"231045","898-TW","2018/07/12 19:09:17","新北市新店區北宜路一段154號","121.540223333333","24.95361","6500600","新店區"
"231043","899-TW","2018/07/12 19:09:26","新北市新店區寶橋路132號","121.547288333333","24.9759866666667","6500600","新店區"
"241026","066-VK","2018/07/12 19:09:23","新北市三重區泉州街59號","121.494583333333","25.05471","6500200","三重區"
"241035","KEA-2210","2018/07/12 19:09:22","新北市三重區中正北路2號","121.489435","25.0630966666667","6500200","三重區"
"241020","478-VK","2018/07/12 19:09:25","新北市三重區自強路三段13號","121.487158333333","25.0719783333333","6500200","三重區"
"241029","942-UM","2018/07/12 19:09:18","新北市三重區集美街263號","121.49252","25.0557483333333","6500200","三重區"
"235066","003-UY","2018/07/12 19:09:22","新北市中和區廣福路48號","121.504081666667","25.0019833333333","6500300","中和區"
"235064","005-UY","2018/07/12 19:09:25","新北市中和區泰和街23號","121.499473333333","25.0002616666667","6500300","中和區"
"235063","006-UY","2018/07/12 19:09:24","新北市中和區建八路2號","121.486143333333","24.9985783333333","6500300","中和區"
"235045","031-BX","2018/07/12 19:09:15","新北市中和區景新街449號","121.513345","24.9886483333333","6500300","中和區"
"235056","096-UM","2018/07/12 19:09:30","新北市板橋區三民路二段228號","121.478875","25.01144","6500300","中和區"
"235039","097-UM","2018/07/12 19:09:18","新北市中和區景平路64巷14弄15號","121.52282","24.99129","6500300","中和區"
"235065","098-UM","2018/07/12 19:09:19","新北市中和區中山路二段136巷6弄1號","121.502123333333","25.003925","6500300","中和區"
"235040","150-BY","2018/07/12 19:09:19","新北市中和區保健路61巷1號","121.509516666667","24.9972833333333","6500300","中和區"
"235058","151-BY","2018/07/12 19:09:09","新北市中和區員山路145號","121.480928333333","24.996205","6500300","中和區"
"235055","183-VK","2018/07/12 19:09:28","新北市中和區德光路47號","121.470241666667","25.004065","6500300","中和區"
"235038","185-VK","2018/07/12 19:09:31","新北市中和區大仁街20巷50號","121.520168333333","24.9932416666667","6500300","中和區"
"235049","186-VK","2018/07/12 19:09:25","新北市中和區明禮街13號","121.50492","24.9958716666667","6500300","中和區"
"235067","255-BX","2018/07/12 19:09:30","新北市中和區新生街177巷14號","121.484321666667","25.00023","6500300","中和區"
"235044","293-VK","2018/07/12 19:09:32","新北市中和區中興街222-5號","121.500611666667","24.9896316666667","6500300","中和區"
"235072","301-VK","2018/07/12 19:09:21","新北市中和區中山路二段220號","121.499473333333","25.00293","6500300","中和區"
"235043","352-BY","2018/07/12 19:09:24","新北市中和區景平路134號","121.518775","24.9918483333333","6500300","中和區"
"235042","KEA-2878","2018/07/12 19:09:17","新北市中和區自強路13巷5號","121.520681666667","24.9936116666667","6500300","中和區"
"235050","4979-A6","2018/07/12 19:09:16","新北市中和區南山路407號","121.506921666667","24.989835","6500300","中和區"
"235069","4980-A6","2018/07/12 19:09:16","新北市中和區南山路17號","121.50216","24.9991566666667","6500300","中和區"
"235070","558-UM","2018/07/12 19:09:19","新北市中和區中和路16號","121.49968","25.0020333333333","6500300","中和區"
"235054","640-BX","2018/07/12 19:09:22","新北市中和區民德路105號","121.468821666667","25.00075","6500300","中和區"
"235060","647-TV","2018/07/12 19:09:31","新北市中和區中山路三段147號","121.47376","25.0060283333333","6500300","中和區"
"235047","732-UM","2018/07/12 19:09:23","新北市中和區興南路一段106號","121.509721666667","24.9888816666667","6500300","中和區"
"235046","733-UM","2018/07/12 19:09:21","新北市中和區忠孝街1巷44號","121.5085","24.9842283333333","6500300","中和區"
"235071","783-BX","2018/07/12 19:09:26","新北市中和區連城路469巷11號","121.48358","24.9955183333333","6500300","中和區"
"235057","801-TS","2018/07/12 19:09:16","新北市中和區民利街87號","121.478206666667","24.9981266666667","6500300","中和區"
"235041","802-TS","2018/07/12 19:09:21","新北市永和區中和路325號","121.50724","24.9997233333333","6500300","中和區"
"235052","805-TS","2018/07/12 19:09:19","新北市中和區興南路二段142巷31弄83號","121.501645","24.9836683333333","6500300","中和區"
"235048","896-TW","2018/07/12 19:09:26","新北市中和區華新街134號","121.508133333333","24.9826183333333","6500300","中和區"
"235053","900-TW","2018/07/12 19:09:21","新北市中和區民德路258號","121.467791666667","24.9969733333333","6500300","中和區"
"235051","157-BY","2018/07/12 19:09:23","新北市中和區興南路一段94號","121.509855","24.9891283333333","6500300","中和區"
"235037","AAC-213","2018/07/12 19:09:27","新北市中和區秀朗路三段60巷9號","121.525686666667","24.9950583333333","6500300","中和區"
"235059","AAC-215","2018/07/12 19:09:21","新北市中和區圓通路296巷31弄1號","121.48856","24.9904583333333","6500300","中和區"
"220068","013-TV","2018/07/12 19:09:31","新北市板橋區三民路一段3巷1號","121.478876666667","25.023615","6500100","板橋區"
"220065","072-UY","2018/07/12 19:09:31","新北市板橋區民族路219巷39號","121.468996666667","25.0085233333333","6500100","板橋區"
"220086","073-UY","2018/07/12 19:09:20","新北市板橋區國光路175號","121.46054","25.018535","6500100","板橋區"
"220106","075-UY","2018/07/12 19:09:09","新北市板橋區文化路二段313號","121.472075","25.02968","6500100","板橋區"
"220069","AAD-861","2018/07/12 19:09:22","新北市板橋區大華街67號","121.45961","25.0034866666667","6500100","板橋區"
"226004","312-R5","2018/07/12 19:09:19","新北市平溪區十分里十分街156號","121.777906666667","25.04335","6502400","平溪區"
"228003","097-TW","2018/07/12 19:09:23","新北市貢寮區和美里和美街42號","121.913546666667","25.0910416666667","6502600","貢寮區"
"228001","212-TW","2018/07/12 19:09:24","新北市貢寮區真理里新港街10號","121.925468333333","25.05438","6502600","貢寮區"
"228002","663-BX","2018/07/12 19:09:11","新北市貢寮區福隆里福隆街36號","121.945111666667","25.0174433333333","6502600","貢寮區"
"224010","AGQ-8101","2018/07/12 19:09:15","新北市瑞芳區街頂巷5號","121.844681666667","25.10831","6501200","瑞芳區"
"224006","676-BX","2018/07/12 19:09:29","新北市瑞芳區中山路243號","121.800235","25.1070016666667","6501200","瑞芳區"
"224008","285-BY","2018/07/12 19:09:14","新北市瑞芳區明燈路三段263號","121.798921666667","25.1119716666667","6501200","瑞芳區"
"224007","275-VK","2018/07/12 19:09:22","新北市瑞芳區瑞竹路46號","121.763491666667","25.1033416666667","6501200","瑞芳區"
"224009","273-VK","2018/07/12 19:09:29","新北市瑞芳區洞頂路101巷56號","121.860441666667","25.121965","6501200","瑞芳區"
"227010","642-TC","2018/07/12 19:09:15","新北市雙溪區牡丹里中正路30號","121.864511666667","25.0380933333333","6502500","雙溪區"
"227004","400-TW","2018/07/12 19:09:30","新北市雙溪區平林里梅竹蹊56-4號","121.860713333333","25.036665","6502500","雙溪區"
"253005","032-BX","2018/07/12 19:09:12","新北市石門區阿里荖35-2號","121.606398333333","25.2806733333333","6502200","石門區"
"253006","295-VK","2018/07/12 19:09:32","新北市石門區崁子腳61-1號","121.5325","25.2875383333333","6502200","石門區"
"222001","KEA-2212","2018/07/12 19:09:14","新北市深坑區北深路一段300號","121.624256666667","25.0057033333333","6501800","深坑區"
"208002","KEA-2872","2018/07/12 19:09:30","新北市金山區仁愛路67巷26號","121.634203333333","25.2210183333333","6502700","金山區"
"208003","665-BX","2018/07/12 19:09:19","新北市金山區中正路135號","121.63241","25.2215316666667","6502700","金山區"
"208001","761-BX","2018/07/12 19:09:22","新北市金山區溫泉路4號","121.639645","25.22197","6502700","金山區"
"251016","008-UM","2018/07/12 19:09:22","新北市淡水區淡金路三段340號","121.449211666667","25.2086916666667","6501000","淡水區"
"251001","011-UM","2018/07/12 19:09:08","新北市淡水區自強路201巷43號","121.462045","25.1268466666667","6501000","淡水區"
"251013","KEA-2871","2018/07/12 19:09:27","新北市淡水區安子內12-1號","121.481558333333","25.2190916666667","6501000","淡水區"
"251014","180-VK","2018/07/12 19:09:18","新北市淡水區小中寮39號","121.487153333333","25.22734","6501000","淡水區"
"251015","181-VK","2018/07/12 19:09:18","新北市淡水區南勢埔30-2號","121.483756666667","25.1803733333333","6501000","淡水區"
"251010","413-VK","2018/07/12 19:09:24","新北市淡水區中正路一段156巷3號","121.421165","25.1802666666667","6501000","淡水區"
"251005","443-VK","2018/07/12 19:09:20","新北市淡水區原德路11號","121.442088333333","25.17119","6501000","淡水區"
"251009","575-R6","2018/07/12 19:09:18","新北市淡水區清水街178號","121.440665","25.1708466666667","6501000","淡水區"
"251007","577-R6","2018/07/12 19:09:27","新北市淡水區民生路145巷36-16號","121.467135","25.1389316666667","6501000","淡水區"
"251011","650-BX","2018/07/12 19:09:05","新北市淡水區中正東路二段143巷2弄1號","121.460746666667","25.1474216666667","6501000","淡水區"
"251002","672-BX","2018/07/12 19:09:13","新北市淡水區中山路88號","121.442723333333","25.170505","6501000","淡水區"
"251003","673-BX","2018/07/12 19:09:27","新北市淡水區中山北路一段87號","121.44224","25.17622","6501000","淡水區"
"207003","550-UM","2018/07/12 19:09:18","新北市萬里區大鵬里萬里加投24-2號","121.64913","25.207365","6502800","萬里區"
"207004","225-TW","2018/07/12 19:09:15","新北市萬里區萬里里瑪鋉下街52號","121.69163","25.17953","6502800","萬里區"
"252002","178-VK","2018/07/12 19:09:24","新北市三芝區埔坪里埔頭坑77號","121.509421666667","25.2544333333333","6502100","三芝區"
"252003","249-BX","2018/07/12 19:09:07","新北市三芝區錫板里南勢崗6號","121.479536666667","25.2619616666667","6502100","三芝區"
"252001","292-VK","2018/07/12 19:09:17","新北市三芝區長勤街45巷2號","121.500358333333","25.255095","6502100","三芝區"
"237004","KEA-2597","2018/07/12 19:09:13","新北市三峽區有木205-1號","121.439006666667","24.8516683333333","6500900","三峽區"
"237007","153-BY","2018/07/12 19:09:27","新北市三峽區中正路二段42巷84號","121.364273333333","24.9205566666667","6500900","三峽區"
"237009","210-TH","2018/07/12 19:09:20","新北市三峽區文化路147號","121.368486666667","24.935925","6500900","三峽區"
"237013","252-BX","2018/07/12 19:09:13","新北市三峽區光明路69巷25號","121.376705","24.929285","6500900","三峽區"
"237012","275-BY","2018/07/12 19:09:19","新北市三峽區三樹路222巷236弄23號","121.391441666667","24.9430633333333","6500900","三峽區"
"237008","302-VK","2018/07/12 19:09:28","新北市三峽區大同路95號","121.37471","24.9271116666667","6500900","三峽區"
"237014","433-BY","2018/07/12 19:09:25","新北市三峽區復興路480巷28號","121.359165","24.9390033333333","6500900","三峽區"
"237006","5529-G3","2018/07/12 19:09:18","新北市三峽區溪東路45巷11弄21號","121.400936666667","24.935805","6500900","三峽區"
"237011","KEA-2596","2018/07/12 19:09:28","新北市三峽區介壽路一段516號","121.386093333333","24.93286","6500900","三峽區"
"237016","649-BX","2018/07/12 19:09:31","新北市三峽區建安22號","121.446158333333","24.9274716666667","6500900","三峽區"
"237010","706-TV","2018/07/12 19:09:22","新北市三峽區民生街53號","121.375355","24.936255","6500900","三峽區"
"237005","AKY-6261","2018/07/12 19:09:26","新北市三峽區中山路459巷163-3號","121.348675","24.9329216666667","6500900","三峽區"
"236078","166-UM","2018/07/12 19:09:28","新北市土城區龍泉路52號","121.413175","24.9443","6501300","土城區"
"236026","269-VK","2018/07/12 19:09:21","新北市土城區中正路56巷2號","121.443851666667","24.9753183333333","6501300","土城區"
"236014","270-VK","2018/07/12 19:09:30","新北市土城區學府路一段77號","121.456893333333","24.988185","6501300","土城區"
"236070","KEA-2877","2018/07/12 19:09:27","新北市土城區裕生路84巷6號","121.446953333333","24.985555","6501300","土城區"
"236021","401-BY","2018/07/12 19:09:27","新北市土城區延吉街146號","121.469066666667","24.9855916666667","6501300","土城區"
"236059","912-UM","2018/07/12 19:09:22","新北市土城區金城路一段131號","121.44482","24.9737466666667","6501300","土城區"
"236049","913-UM","2018/07/12 19:09:25","新北市土城區明德路一段365-1號","121.453631666667","24.9790916666667","6501300","土城區"
"242038","442-UM","2018/07/12 19:09:11","新北市新莊區環河路636-7號","121.437373333333","25.01159","6500500","新莊區"
"238015","755-BX","2018/07/12 19:09:23","新北市樹林區備內街112號","121.410488333333","24.98885","6500700","樹林區"
"238023","601-UM","2018/07/12 19:09:25","新北市樹林區大慶街19號","121.397053333333","25.0143833333333","6500700","樹林區"
"238019","599-UM","2018/07/12 19:09:21","新北市樹林區東榮街89號","121.416611666667","24.9828883333333","6500700","樹林區"
"238018","571-TV","2018/07/12 19:09:13","新北市樹林區太平路56巷33號","121.418195","24.981565","6500700","樹林區"
"238024","5061-A6","2018/07/12 19:09:21","新北市樹林區味王街8號","121.40291","24.97618","6500700","樹林區"
"238022","KEA-2213","2018/07/12 19:09:22","新北市樹林區中山路二段151巷8弄4號","121.406431666667","24.9779716666667","6500700","樹林區"
"238021","KEA-2539","2018/07/12 19:09:24","新北市樹林區柑園街二段426號","121.364511666667","24.9472016666667","6500700","樹林區"
"238025","303-VK","2018/07/12 19:09:25","新北市樹林區中山路三段68號","121.393786666667","24.9723633333333","6500700","樹林區"
"238017","283-BY","2018/07/12 19:09:26","新北市樹林區光興街192號","121.407846666667","25.0046666666667","6500700","樹林區"
"238014","282-BY","2018/07/12 19:09:13","新北市樹林區千歲街61巷2號","121.426526666667","24.9980616666667","6500700","樹林區"
"238026","172-UY","2018/07/12 19:09:20","新北市樹林區地政街41號","121.394883333333","24.97181","6500700","樹林區"
"238016","169-UY","2018/07/12 19:09:09","新北市樹林區中山路一段306巷51弄10號","121.418148333333","24.98607","6500700","樹林區"
"239007","AAC-297","2018/07/12 19:09:27","新北市鶯歌區大湖路122號","121.342386666667","24.9638466666667","6500800","鶯歌區"
"239006","891-R6","2018/07/12 19:09:13","新北市鶯歌區鶯桃路65-5號","121.340996666667","24.9526766666667","6500800","鶯歌區"
"239008","527-UM","2018/07/12 19:09:23","新北市鶯歌區國際二路16巷11號","121.337765","24.97505","6500800","鶯歌區"
"239005","526-UM","2018/07/12 19:09:33","新北市鶯歌區東湖路15-1號","121.35491","24.9719133333333","6500800","鶯歌區"
"239001","417-VK","2018/07/12 19:09:21","新北市鶯歌區永智街43巷29號","121.337413333333","24.9537533333333","6500800","鶯歌區"
"239003","360-BY","2018/07/12 19:09:26","新北市鶯歌區德昌街11號","121.333455","24.9602733333333","6500800","鶯歌區"
"239002","359-BY","2018/07/12 19:09:13","新北市鶯歌區西湖街182-1號","121.338355","24.9648833333333","6500800","鶯歌區"
"239004","193-VK","2018/07/12 19:09:24","新北市鶯歌區二甲路97-3號","121.332931666667","24.932","6500800","鶯歌區"
"221008","489-VK","2018/07/12 19:09:22","新北市汐止區康寧街476號","121.632095","25.06829","6501100","汐止區"
"221036","130-UY","2018/07/12 19:09:30","新北市汐止區信義路1號","121.662433333333","25.0694","6501100","汐止區"
"221015","131-UY","2018/07/12 19:09:27","新北市汐止區汐萬路一段22號","121.655815","25.0678183333333","6501100","汐止區"
"221010","269-BY","2018/07/12 19:09:24","新北市汐止區康寧街901號","121.651426666667","25.0748816666667","6501100","汐止區"
"221012","278-VK","2018/07/12 19:09:16","新北市汐止區康寧街901號","121.650853333333","25.075275","6501100","汐止區"
"221023","279-VK","2018/07/12 19:09:19","新北市汐止區康寧街901號","121.651","25.0752233333333","6501100","汐止區"
"221027","281-BY","2018/07/12 19:09:26","新北市汐止區康寧街901號","121.651461666667","25.0749616666667","6501100","汐止區"
"221033","297-VK","2018/07/12 19:09:11","新北市汐止區南勢街1巷1號","121.627093333333","25.0374583333333","6501100","汐止區"
"221029","298-VK","2018/07/12 19:09:17","新北市汐止區汐萬路一段256巷3號","121.652463333333","25.0745916666667","6501100","汐止區"
"221021","299-VK","2018/07/12 19:09:16","新北市汐止區康寧街901號","121.651486666667","25.075035","6501100","汐止區"
"221031","353-TW","2018/07/12 19:09:21","新北市汐止區福德三路127號","121.633575","25.0676366666667","6501100","汐止區"
"221025","623-UM","2018/07/12 19:09:25","新北市汐止區汐萬路一段256巷3號","121.653431666667","25.0745133333333","6501100","汐止區"
"221038","646-BX","2018/07/12 19:09:28","新北市汐止區汐萬路一段312號","121.650625","25.0753033333333","6501100","汐止區"
"221002","707-TV","2018/07/12 19:09:11","新北市汐止區大同路一段89-1號","121.62418","25.054655","6501100","汐止區"
"220079","145-BY","2018/07/12 19:09:16","新北市板橋區民權路306號","121.457128333333","25.01609","6500100","板橋區"
"220080","200-UY","2018/07/12 19:09:28","新北市板橋區大觀路二段5號","121.447015","25.00386","6500100","板橋區"
"220082","610-BX","2018/07/12 19:09:18","新北市板橋區溪崑二街89號","121.427216666667","24.9894366666667","6500100","板橋區"
"220101","245-BX","2018/07/12 19:09:21","新北市板橋區萬板路38號","121.472136666667","25.0224983333333","6500100","板橋區"
"220056","276-BY","2018/07/12 19:09:21","新北市板橋區信義路74巷1弄1號","121.4573","24.9931283333333","6500100","板橋區"
"220071","283-VK","2018/07/12 19:09:31","新北市板橋區重慶路347-3號","121.464018333333","24.9979533333333","6500100","板橋區"
"220094","285-UM","2018/07/12 19:09:21","新北市板橋區光武街151號","121.465541666667","25.0294633333333","6500100","板橋區"
"220053","285-VK","2018/07/12 19:09:22","新北市板橋區懷仁街10巷1號","121.475168333333","25.0195616666667","6500100","板橋區"
"220083","286-VK","2018/07/12 19:09:21","新北市板橋區大觀路二段174巷171號","121.44196","25.00356","6500100","板橋區"
"220081","287-VK","2018/07/12 19:09:25","新北市板橋區南雅西路二段156巷4號","121.452113333333","25.0133516666667","6500100","板橋區"
"220090","288-VK","2018/07/12 19:09:20","新北市板橋區裕民街54號","121.461486666667","25.0286933333333","6500100","板橋區"
"220061","293-UM","2018/07/12 19:09:26","新北市板橋區中山路二段267號","121.477615","25.0180183333333","6500100","板橋區"
"220084","296-UM","2018/07/12 19:09:22","新北市板橋區溪崑二街22巷9號","121.428225","24.991505","6500100","板橋區"
"220075","303-R5","2018/07/12 19:09:30","新北市板橋區南雅南路一段4巷14號","121.454688333333","25.0051666666667","6500100","板橋區"
"220062","305-R5","2018/07/12 19:09:15","新北市板橋區三民路二段245巷69弄2號","121.481105","25.0128583333333","6500100","板橋區"
"220092","307-R5","2018/07/12 19:09:27","新北市板橋區文化路一段190-1號","121.466178333333","25.01997","6500100","板橋區"
"220098","317-R6","2018/07/12 19:09:24","新北市板橋區自由路51巷14弄7號","121.464585","25.0237966666667","6500100","板橋區"
"220064","486-VK","2018/07/12 19:09:18","新北市板橋區民生路一段35號","121.475671666667","25.0125583333333","6500100","板橋區"
"220088","491-VK","2018/07/12 19:09:18","新北市板橋區文化路二段182巷3弄9號","121.4716","25.0275716666667","6500100","板橋區"
"220035","560-BX","2018/07/12 19:09:15","新北市板橋區中正路330號","121.454731666667","25.02188","6500100","板橋區"
"220103","561-BX","2018/07/12 19:09:11","新北市板橋區文化路一段188巷9弄13號","121.467963333333","25.0190416666667","6500100","板橋區"
"220072","568-UM","2018/07/12 19:09:18","新北市板橋區溪城路97號","121.427271666667","24.982835","6500100","板橋區"
"220063","609-BX","2018/07/12 19:09:24","新北市板橋區三民路二段140號","121.479188333333","25.01587","6500100","板橋區"
"220091","637-BX","2018/07/12 19:09:18","新北市板橋區縣民大道三段247巷7號","121.48156","25.0262633333333","6500100","板橋區"
"220057","686-BX","2018/07/12 19:09:27","新北市板橋區重慶路307號","121.463805","24.99869","6500100","板橋區"
"220093","689-BX","2018/07/12 19:09:20","新北市板橋區民生路三段253號","121.464556666667","25.029225","6500100","板橋區"
"220054","741-BX","2018/07/12 19:09:26","新北市板橋區重慶路69巷5-2號","121.462258333333","25.006935","6500100","板橋區"
"220102","KEA-2699","2018/07/12 19:09:22","新北市板橋區田單街42-1號","121.48262","25.0278816666667","6500100","板橋區"
"220077","806-UM","2018/07/12 19:09:16","新北市板橋區大觀路一段35巷1號","121.449438333333","25.00845","6500100","板橋區"
"220055","827-TW","2018/07/12 19:09:17","新北市板橋區新民街7巷25號","121.463555","25.010455","6500100","板橋區"
"220067","829-TW","2018/07/12 19:09:29","新北市板橋區長安街222-2號","121.475003333333","25.0123566666667","6500100","板橋區"
"220096","830-TW","2018/07/12 19:09:12","新北市板橋區雙十路二段37-1號","121.476845","25.02579","6500100","板橋區"
"220089","833-TW","2018/07/12 19:08:59","新北市板橋區文化路二段421號","121.47472","25.03277","6500100","板橋區"
"220074","895-R6","2018/07/12 19:09:20","新北市板橋區中正路自強新村43-2號","121.454931666667","25.013915","6500100","板橋區"
"220073","985-R7","2018/07/12 19:09:23","新北市板橋區中正路221號","121.456148333333","25.0176883333333","6500100","板橋區"
"220097","AAC-210","2018/07/12 19:09:13","新北市板橋區幸福路70巷32號","121.46013","25.0209866666667","6500100","板橋區"
"220070","AAC-253","2018/07/12 19:09:28","新北市板橋區忠孝路136號","121.463565","25.0023466666667","6500100","板橋區"
"235068","KEA-2873","2018/07/12 19:09:08","新北市中和區連勝街38巷16號","121.49777","24.9978966666667","6500300","中和區"
"235061","KEA-2875","2018/07/12 19:09:07","新北市中和區中山路三段63巷13弄61號","121.476586666667","25.003345","6500300","中和區"
