"lineid","car","time","location","longitude","latitude","cityid","cityname"
"234046","148-BY","2018/07/12 19:19:15","新北市永和區永元路2號","121.522078333333","24.999695","6500400","永和區"
"234007","207-UY","2018/07/12 19:19:26","新北市永和區中山路一段299號","121.506661666667","25.00676","6500400","永和區"
"234081","298-R6","2018/07/12 19:19:17","新北市永和區福和路52號","121.523448333333","25.0081016666667","6500400","永和區"
"234038","336-UY","2018/07/12 19:19:23","新北市永和區民樂街55巷2號","121.527458333333","24.9983416666667","6500400","永和區"
"234064","337-UY","2018/07/12 19:19:26","新北市永和區得和路245號","121.520481666667","25.0000083333333","6500400","永和區"
"234070","552-UM","2018/07/12 19:19:15","新北市永和區中正路668號","121.516811666667","25.0091","6500400","永和區"
"234086","553-UM","2018/07/12 19:19:25","新北市永和區永利路74號","121.520351666667","25.0041683333333","6500400","永和區"
"234017","745-BX","2018/07/12 19:19:16","新北市永和區文化路144巷27號","121.512465","25.016755","6500400","永和區"
"234030","746-BX","2018/07/12 19:19:15","新北市永和區厚德街84號","121.5237","24.9988866666667","6500400","永和區"
"234054","KEA-2590","2018/07/12 19:19:19","新北市永和區中興街32號","121.516278333333","25.0117733333333","6500400","永和區"
"234013","KEA-2591","2018/07/12 19:19:16","新北市永和區信義路62號","121.512795","25.0127633333333","6500400","永和區"
"234061","AAD-866","2018/07/12 19:19:30","新北市永和區秀朗路一段175號","121.517095","25.0036916666667","6500400","永和區"
"234042","862-TW","2018/07/12 19:19:16","新北市永和區保平路177巷6弄5號","121.50973","25.004685","6500400","永和區"
"234050","863-TW","2018/07/12 19:19:19","新北市永和區保福路二段88巷18號","121.511511666667","25.0136366666667","6500400","永和區"
"234026","9371-KE","2018/07/12 19:19:23","新北市永和區安樂路144巷19號","121.514673333333","25.0001016666667","6500400","永和區"
"234011","9373-KE","2018/07/12 19:19:27","新北市永和區永平路218巷23號","121.510063333333","25.011135","6500400","永和區"
"249001","173-UM","2018/07/12 19:19:29","新北市八里區文昌路120號","121.409633333333","25.1578733333333","6502300","八里區"
"248008","095-VK","2018/07/12 19:19:23","新北市五股區中興路二段83巷26-6號","121.460023333333","25.0753","6501500","五股區"
"248020","225-UY","2018/07/12 19:19:24","新北市五股區凌雲路三段57號","121.425295","25.1250233333333","6501500","五股區"
"248012","247-BX","2018/07/12 19:19:20","新北市五股區中興路四段48巷16號","121.438601666667","25.0834283333333","6501500","五股區"
"248004","677-BX","2018/07/12 19:19:27","新北市五股區五福路85號","121.43241","25.0903416666667","6501500","五股區"
"248002","678-BX","2018/07/12 19:19:14","新北市五股區凌雲路一段158巷14-1號","121.447806666667","25.1035033333333","6501500","五股區"
"248010","682-TV","2018/07/12 19:19:15","新北市五股區水碓一路23號","121.430633333333","25.07134","6501500","五股區"
"234023","9380-KE","2018/07/12 19:19:16","新北市永和區竹林路124巷31號","121.518323333333","25.011215","6500400","永和區"
"234077","969-R7","2018/07/12 19:19:26","新北市永和區民族街44號","121.518348333333","24.9987916666667","6500400","永和區"
"234074","AAC-211","2018/07/12 19:19:27","新北市永和區竹林路98號","121.519563333333","25.0121516666667","6500400","永和區"
"234067","AAC-212","2018/07/12 19:19:14","新北市永和區保平路18巷10號","121.51224","25.0079033333333","6500400","永和區"
"234003","AAC-295","2018/07/12 19:19:09","新北市永和區永平路186-1號","121.510368333333","25.0092666666667","6500400","永和區"
"244019","403-UM","2018/07/12 19:19:20","新北市林口區四維路116號","121.377568333333","25.0779783333333","6501700","林口區"
"244023","483-VK","2018/07/12 19:19:16","新北市林口區民有街52號","121.372363333333","25.076855","6501700","林口區"
"244017","485-VK","2018/07/12 19:19:22","新北市林口區文化北路一段411-1號","121.364628333333","25.0764583333333","6501700","林口區"
"244011","657-BX","2018/07/12 19:19:19","新北市林口區中山路97巷14號","121.389538333333","25.0782","6501700","林口區"
"244025","837-TS","2018/07/12 19:19:26","新北市林口區文化北路一段542巷55弄1號","121.369341666667","25.078695","6501700","林口區"
"243010","267-VK","2018/07/12 19:19:33","新北市泰山區明志路一段494號","121.430376666667","25.0545933333333","6501600","泰山區"
"243013","AAD-798","2018/07/12 19:19:23","新北市泰山區明志路三段145巷11弄2號","121.425786666667","25.0397583333333","6501600","泰山區"
"243009","297-R6","2018/07/12 19:19:25","新北市泰山區明志路一段67號","121.433671666667","25.0646933333333","6501600","泰山區"
"243016","380-SR","2018/07/12 19:19:26","新北市泰山區明志路三段137號","121.425046666667","25.040315","6501600","泰山區"
"243015","421-VK","2018/07/12 19:19:18","新北市泰山區明志路二段6號","121.430048333333","25.053875","6501600","泰山區"
"243011","KEA-2215","2018/07/12 19:18:55","新北市泰山區中央路11巷4號","121.426408333333","25.0426883333333","6501600","泰山區"
"243012","646-TV","2018/07/12 19:19:18","新北市泰山區仁武街139巷8號","121.432215","25.05372","6501600","泰山區"
"243014","680-BX","2018/07/12 19:19:17","新北市泰山區泰林路二段196號","121.43353","25.0612016666667","6501600","泰山區"
"222002","016-RS","2018/07/12 19:19:24","新北市深坑區北深路一段177號","121.632596666667","25.0108766666667","6501800","深坑區"
"222003","436-BY","2018/07/12 19:19:30","新北市深坑區深南路204號","121.62666","25.0160516666667","6501800","深坑區"
"231041","002-UM","2018/07/12 19:19:15","新北市新店區溪園路247號","121.525446666667","24.9833033333333","6500600","新店區"
"231059","046-UY","2018/07/12 19:19:13","新北市新店區安和路二段166-9號","121.519203333333","24.9740483333333","6500600","新店區"
"231040","047-UY","2018/07/12 19:19:31","新北市新店區三民路73號","121.536143333333","24.971475","6500600","新店區"
"231044","106-UY","2018/07/12 19:19:21","新北市新店區寶慶街71號","121.541716666667","24.986595","6500600","新店區"
"231046","107-UY","2018/07/12 19:19:23","新北市新店區華城路12-1號","121.529158333333","24.9579366666667","6500600","新店區"
"231065","110-UY","2018/07/12 19:19:25","新北市新店區安祥路110巷51-1號","121.473575","24.9567166666667","6500600","新店區"
"231047","187-VK","2018/07/12 19:19:23","新北市新店區中興路二段57巷19號","121.545606666667","24.97087","6500600","新店區"
"231054","KEA-2219","2018/07/12 19:19:21","新北市新店區國校路39-1號","121.537955","24.95569","6500600","新店區"
"231057","256-BX","2018/07/12 18:50:09","新北市新店區花園一路一段2號","121.55289","24.9324266666667","6500600","新店區"
"231042","268-BY","2018/07/12 19:19:19","新北市新店區光明街102巷7弄6號","121.539808333333","24.9605483333333","6500600","新店區"
"231051","278-BY","2018/07/12 19:19:16","新北市新店區中央路133巷4號","121.530555","24.9736566666667","6500600","新店區"
"231050","AAD-862","2018/07/12 19:19:19","新北市新店區竹林路30號","121.552328333333","24.9513083333333","6500600","新店區"
"231058","3713-VJ","2018/07/12 19:19:28","新北市新店區北新路一段199號","121.540403333333","24.964805","6500600","新店區"
"231066","4716-K9","2018/07/12 19:19:24","新北市新店區安康路三段359巷12弄27號","121.48395","24.9492883333333","6500600","新店區"
"231056","4715-K9","2018/07/12 19:19:15","新北市新店區安業街2號","121.515203333333","24.9784933333333","6500600","新店區"
"231067","4772-VM","2018/07/12 19:19:16","新北市新店區安康路一段263巷34號","121.523928333333","24.9619133333333","6500600","新店區"
"231049","513-UM","2018/07/12 19:19:27","新北市新店區明德路64號","121.541606666667","24.9794183333333","6500600","新店區"
"231063","616-UM","2018/07/12 19:19:30","新北市新店區達觀路12號","121.505508333333","24.9405366666667","6500600","新店區"
"231061","619-UM","2018/07/12 19:19:16","新北市新店區安康路一段96號","121.527553333333","24.9622383333333","6500600","新店區"
"231064","719-UM","2018/07/12 19:19:19","新北市新店區安忠路57巷26弄22號","121.512626666667","24.9584033333333","6500600","新店區"
"231052","719-UY","2018/07/12 19:19:22","新北市新店區自強路153號","121.546008333333","24.9218433333333","6500600","新店區"
"231062","720-UM","2018/07/12 19:19:30","新北市新店區安康路一段183號","121.526658333333","24.9627366666667","6500600","新店區"
"231060","897-TW","2018/07/12 19:19:25","新北市新店區安康路二段130號","121.512653333333","24.9623716666667","6500600","新店區"
"231045","898-TW","2018/07/12 19:19:17","新北市新店區北宜路一段260號","121.545718333333","24.952735","6500600","新店區"
"231043","899-TW","2018/07/12 19:19:26","新北市新店區北新路二段137號","121.542828333333","24.975565","6500600","新店區"
"231055","AKT-0513","2018/07/12 19:19:18","新北市新店區柴埕路59號","121.51358","24.964955","6500600","新店區"
"241022","060-VK","2018/07/12 19:19:20","新北市三重區中正北路70號","121.486455","25.064635","6500200","三重區"
"241031","061-VK","2018/07/12 19:19:18","新北市三重區重新路四段97號","121.485771666667","25.05497","6500200","三重區"
"241017","063-VK","2018/07/12 19:19:23","新北市三重區大同北路158-2號","121.492111666667","25.06564","6500200","三重區"
"241026","066-VK","2018/07/12 19:19:23","新北市三重區泉州街84巷20號","121.495893333333","25.0545866666667","6500200","三重區"
"241009","267-UM","2018/07/12 19:19:23","新北市三重區溪尾街230巷42號","121.48627","25.0811633333333","6500200","三重區"
"241032","269-UM","2018/07/12 19:19:29","新北市三重區新生街72號","121.484308333333","25.05934","6500200","三重區"
"241007","398-BY","2018/07/12 19:19:10","新北市三重區慈愛街49號","121.486016666667","25.079085","6500200","三重區"
"241035","KEA-2210","2018/07/12 19:19:22","新北市三重區信義西街138號","121.495468333333","25.0643266666667","6500200","三重區"
"241025","413-TH","2018/07/12 19:19:12","新北市三重區中正北路406號","121.475315","25.0704416666667","6500200","三重區"
"241020","478-VK","2018/07/12 19:19:25","新北市三重區大智街183號","121.489545","25.073015","6500200","三重區"
"241030","480-VK","2018/07/12 19:19:21","新北市三重區新興路42號","121.491411666667","25.0533233333333","6500200","三重區"
"241006","AAD-863","2018/07/12 19:19:27","新北市三重區車路頭街137號","121.483976666667","25.0762233333333","6500200","三重區"
"241029","942-UM","2018/07/12 19:19:18","新北市三重區重安街31號","121.491181666667","25.0569983333333","6500200","三重區"
"235066","003-UY","2018/07/12 19:19:22","新北市中和區中和路102號","121.502686666667","24.9997483333333","6500300","中和區"
"235064","005-UY","2018/07/12 19:19:18","新北市中和區中和路40巷1號","121.499616666667","25.0012","6500300","中和區"
"235063","006-UY","2018/07/12 19:19:24","新北市中和區連城路249巷12弄1號","121.493888333333","24.9962216666667","6500300","中和區"
"235045","031-BX","2018/07/12 19:19:15","新北市中和區景新街423巷35弄23號","121.51386","24.990495","6500300","中和區"
"235056","096-UM","2018/07/12 19:19:30","新北市中和區中正路1171號","121.481321666667","25.0094766666667","6500300","中和區"
"235039","097-UM","2018/07/12 19:19:18","新北市中和區秀峰街121號","121.519993333333","24.9907216666667","6500300","中和區"
"235065","098-UM","2018/07/12 19:19:19","新北市中和區中山路二段64巷16弄2號","121.503245","25.005765","6500300","中和區"
"235040","150-BY","2018/07/12 19:19:29","新北市中和區宜安路121號","121.509925","24.9978333333333","6500300","中和區"
"235058","151-BY","2018/07/12 19:19:29","新北市中和區連城路469巷44弄19號","121.482361666667","24.9945783333333","6500300","中和區"
"235055","183-VK","2018/07/12 19:19:28","新北市中和區莒光路120巷15弄2號","121.471678333333","25.0012316666667","6500300","中和區"
"235038","185-VK","2018/07/12 19:19:31","新北市中和區立人街21號","121.521343333333","24.9940716666667","6500300","中和區"
"235049","186-VK","2018/07/12 19:19:25","新北市中和區景新街235號","121.508101666667","24.99449","6500300","中和區"
"235067","255-BX","2018/07/12 19:19:29","新北市中和區中正路803號","121.484883333333","25.0011016666667","6500300","中和區"
"235044","293-VK","2018/07/12 19:19:12","新北市中和區復興路306號","121.501286666667","24.9903183333333","6500300","中和區"
"235072","301-VK","2018/07/12 19:19:26","新北市中和區連城路263-2號","121.491565","24.9963033333333","6500300","中和區"
"235043","352-BY","2018/07/12 19:19:24","新北市中和區景平路424號","121.507646666667","24.9933033333333","6500300","中和區"
"235042","KEA-2878","2018/07/12 19:19:17","新北市中和區安樂路143巷2弄5號","121.514003333333","24.99775","6500300","中和區"
"235050","4979-A6","2018/07/12 19:19:16","新北市中和區復興路280巷18弄22號","121.501908333333","24.9922866666667","6500300","中和區"
"235069","4980-A6","2018/07/12 19:19:16","新北市中和區中山路二段181巷22號","121.501068333333","25.0019866666667","6500300","中和區"
"235070","558-UM","2018/07/12 19:19:19","新北市中和區中和路2號","121.49951","25.0024466666667","6500300","中和區"
"235054","640-BX","2018/07/12 19:19:22","新北市中和區國光街107巷2弄30號","121.469513333333","24.9992633333333","6500300","中和區"
"235060","647-TV","2018/07/12 19:19:11","新北市中和區中山路三段37巷47號","121.480088333333","25.0044516666667","6500300","中和區"
"235047","732-UM","2018/07/12 19:19:23","新北市中和區和平街54巷3弄2號","121.508748333333","24.9912083333333","6500300","中和區"
"235046","733-UM","2018/07/12 19:19:21","新北市中和區忠孝街2巷11弄2號","121.510408333333","24.9819516666667","6500300","中和區"
"235071","783-BX","2018/07/12 19:19:26","新北市中和區中正路637巷52弄1號","121.485478333333","24.9939","6500300","中和區"
"235057","801-TS","2018/07/12 19:19:16","新北市中和區員山路423巷12弄3號","121.480395","25.00325","6500300","中和區"
"235041","802-TS","2018/07/12 19:19:21","新北市中和區景安路2號","121.507855","24.99901","6500300","中和區"
"235052","805-TS","2018/07/12 19:19:19","新北市中和區華新街143巷33號","121.506431666667","24.9806133333333","6500300","中和區"
"235048","896-TW","2018/07/12 19:19:26","新北市中和區忠孝街39-12號","121.512015","24.9843466666667","6500300","中和區"
"235053","900-TW","2018/07/12 19:19:21","新北市中和區華安街17巷37-2號","121.467753333333","24.9983233333333","6500300","中和區"
"235051","157-BY","2018/07/12 19:19:23","新北市中和區和平街7-2號","121.50914","24.990325","6500300","中和區"
"235037","AAC-213","2018/07/12 19:19:27","新北市中和區秀朗路三段10巷37弄4號","121.524088333333","24.99583","6500300","中和區"
"235059","AAC-215","2018/07/12 19:19:21","新北市中和區圓通路286巷24號","121.491948333333","24.99142","6500300","中和區"
"220068","013-TV","2018/07/12 19:19:31","新北市板橋區三民路一段1巷39號","121.480323333333","25.024845","6500100","板橋區"
"220065","072-UY","2018/07/12 19:19:19","新北市板橋區國泰街76巷21號","121.46703","25.00711","6500100","板橋區"
"220086","073-UY","2018/07/12 19:19:29","新北市板橋區中正路216巷22號","121.45675","25.0184983333333","6500100","板橋區"
"220106","075-UY","2018/07/12 19:19:19","新北市板橋區雙十路三段60號","121.47076","25.031625","6500100","板橋區"
"220069","AAD-861","2018/07/12 19:19:22","新北市板橋區貴興路39號","121.457533333333","25.003695","6500100","板橋區"
"226004","312-R5","2018/07/12 19:19:21","新北市平溪區靜安路三段392巷3號","121.784805","25.0496066666667","6502400","平溪區"
"228003","097-TW","2018/07/12 19:19:23","新北市貢寮區和美里和美街22-1號","121.912765","25.082635","6502600","貢寮區"
"228001","212-TW","2018/07/12 19:19:24","新北市貢寮區真理里新港街10號","121.925496666667","25.054395","6502600","貢寮區"
"228002","663-BX","2018/07/12 19:19:31","新北市貢寮區龍門里復興街46-2號","121.928556666667","25.0300233333333","6502600","貢寮區"
"224010","AGQ-8101","2018/07/12 19:19:15","新北市瑞芳區基山街157號","121.843641666667","25.1080783333333","6501200","瑞芳區"
"224008","285-BY","2018/07/12 19:19:24","新北市瑞芳區一坑路299號","121.800958333333","25.108545","6501200","瑞芳區"
"227010","642-TC","2018/07/12 19:19:14","新北市雙溪區新基里新基北街40號","121.868538333333","25.0380416666667","6502500","雙溪區"
"227004","400-TW","2018/07/12 19:19:29","新北市雙溪區平林里梅竹蹊66-1號","121.86016","25.035815","6502500","雙溪區"
"253005","032-BX","2018/07/12 19:19:12","新北市石門區阿里荖8號","121.609205","25.280065","6502200","石門區"
"253006","295-VK","2018/07/12 19:19:12","新北市石門區楓林23-20號","121.537906666667","25.2905466666667","6502200","石門區"
"222001","KEA-2212","2018/07/12 19:19:14","新北市深坑區北深路二段103號","121.617483333333","25.0033583333333","6501800","深坑區"
"208002","KEA-2872","2018/07/12 19:19:30","新北市金山區中正路73號","121.633795","25.2217283333333","6502700","金山區"
"208003","665-BX","2018/07/12 19:19:19","新北市金山區中山路163號","121.638736666667","25.2205333333333","6502700","金山區"
"208001","761-BX","2018/07/12 19:19:22","新北市金山區中山路116號","121.639316666667","25.21982","6502700","金山區"
"251016","008-UM","2018/07/12 19:19:22","新北市淡水區下圭柔山119-51號","121.450721666667","25.2085116666667","6501000","淡水區"
"251001","011-UM","2018/07/12 19:19:28","新北市淡水區民權路92巷35-1號","121.461985","25.12682","6501000","淡水區"
"251013","KEA-2871","2018/07/12 19:19:27","新北市淡水區安子內12-1號","121.481555","25.2190816666667","6501000","淡水區"
"251014","180-VK","2018/07/12 19:19:18","新北市淡水區小中寮19-7號","121.484728333333","25.22961","6501000","淡水區"
"251015","181-VK","2018/07/12 19:19:18","新北市淡水區山子邊3號","121.483963333333","25.1842116666667","6501000","淡水區"
"251010","413-VK","2018/07/12 19:19:24","新北市淡水區沙崙路26號","121.421458333333","25.1813266666667","6501000","淡水區"
"251005","443-VK","2018/07/12 19:19:20","新北市淡水區水源街一段26號","121.443106666667","25.1722433333333","6501000","淡水區"
"251006","561-UM","2018/07/12 19:19:16","新北市淡水區大信街33號","121.441993333333","25.1773416666667","6501000","淡水區"
"251009","575-R6","2018/07/12 19:19:18","新北市淡水區中山路69號","121.442971666667","25.1704483333333","6501000","淡水區"
"251007","577-R6","2018/07/12 19:19:27","新北市淡水區民生路117巷10號","121.465003333333","25.13913","6501000","淡水區"
"251011","650-BX","2018/07/12 19:09:05","新北市淡水區中正東路二段143巷2弄1號","121.460746666667","25.1474216666667","6501000","淡水區"
"251003","673-BX","2018/07/12 19:19:27","新北市淡水區中山北路一段204號","121.44458","25.1795633333333","6501000","淡水區"
"207003","550-UM","2018/07/12 19:19:18","新北市萬里區大鵬里萬里加投79-3號","121.647305","25.212335","6502800","萬里區"
"207004","225-TW","2018/07/12 19:19:15","新北市萬里區萬里里成功新村44號","121.687745","25.1746316666667","6502800","萬里區"
"252002","178-VK","2018/07/12 19:19:24","新北市三芝區淡金路二段18-1號","121.502621666667","25.2595233333333","6502100","三芝區"
"252001","292-VK","2018/07/12 19:19:17","新北市三芝區長勤街9巷9弄1號","121.5017","25.2551766666667","6502100","三芝區"
"237004","KEA-2597","2018/07/12 19:19:13","新北市三峽區有木205-1號","121.438971666667","24.8515716666667","6500900","三峽區"
"237007","153-BY","2018/07/12 19:19:27","新北市三峽區二鬮路150號","121.359748333333","24.9075216666667","6500900","三峽區"
"237009","210-TH","2018/07/12 19:19:20","新北市三峽區信義街33號","121.370816666667","24.9352233333333","6500900","三峽區"
"237013","252-BX","2018/07/12 19:19:19","新北市三峽區光明路75巷26號","121.377746666667","24.9283933333333","6500900","三峽區"
"237012","275-BY","2018/07/12 19:19:19","新北市三峽區三樹路222巷236弄2號","121.390396666667","24.9431383333333","6500900","三峽區"
"237008","302-VK","2018/07/12 19:19:28","新北市三峽區大同路119巷7號","121.374511666667","24.9264516666667","6500900","三峽區"
"237014","433-BY","2018/07/12 19:19:25","新北市三峽區中山路257巷1號","121.362526666667","24.9373166666667","6500900","三峽區"
"237006","5529-G3","2018/07/12 19:19:18","新北市三峽區介壽路一段392號","121.383453333333","24.9308083333333","6500900","三峽區"
"237011","KEA-2596","2018/07/12 19:19:28","新北市三峽區中正路一段180號","121.372693333333","24.92835","6500900","三峽區"
"237016","649-BX","2018/07/12 19:19:18","新北市三峽區安坑40-2號","121.455418333333","24.93209","6500900","三峽區"
"237010","706-TV","2018/07/12 19:19:22","新北市三峽區復興路235號","121.368425","24.9390783333333","6500900","三峽區"
"237005","AKY-6261","2018/07/12 19:19:26","新北市三峽區隆恩街246-1號","121.357338333333","24.9410566666667","6500900","三峽區"
"236078","166-UM","2018/07/12 19:19:28","新北市土城區中央路四段321巷46號","121.41229","24.95103","6501300","土城區"
"236026","269-VK","2018/07/12 19:19:24","新北市土城區中正路67巷27號","121.444121666667","24.9766033333333","6501300","土城區"
"236014","270-VK","2018/07/12 19:19:24","新北市土城區廣福街6號","121.457298333333","24.9888666666667","6501300","土城區"
"236070","KEA-2877","2018/07/12 19:19:27","新北市土城區學成路152號","121.448323333333","24.9893866666667","6501300","土城區"
"236021","401-BY","2018/07/12 19:19:27","新北市土城區明峰街83號","121.468896666667","24.987285","6501300","土城區"
"236059","912-UM","2018/07/12 19:19:22","新北市土城區中央路二段324-8號","121.440278333333","24.972645","6501300","土城區"
"236049","913-UM","2018/07/12 19:19:25","新北市土城區明德路一段365-1號","121.453636666667","24.9790916666667","6501300","土城區"
"242038","442-UM","2018/07/12 19:19:31","新北市新莊區環河路636-7號","121.437305","25.01176","6500500","新莊區"
"242048","172-VK","2018/07/12 19:19:25","新北市新莊區後港一路3號","121.42414","25.02634","6500500","新莊區"
"242013","351-TH","2018/07/12 19:19:21","新北市新莊區新泰路357巷3弄57號","121.44202","25.039525","6500500","新莊區"
"238015","755-BX","2018/07/12 19:19:20","新北市樹林區備內街1巷37號","121.412386666667","24.9861933333333","6500700","樹林區"
"238023","601-UM","2018/07/12 19:19:25","新北市樹林區三興路51號","121.395501666667","25.014375","6500700","樹林區"
"238019","599-UM","2018/07/12 19:19:22","新北市樹林區鎮前街411巷1弄20號","121.415698333333","24.9831466666667","6500700","樹林區"
"238018","571-TV","2018/07/12 19:19:12","新北市樹林區中華路168號","121.415041666667","24.9803116666667","6500700","樹林區"
"238024","5061-A6","2018/07/12 19:19:21","新北市樹林區福德街47號","121.399651666667","24.9748566666667","6500700","樹林區"
"238022","KEA-2213","2018/07/12 19:19:21","新北市樹林區中山路二段230號","121.40914","24.9802266666667","6500700","樹林區"
"238021","KEA-2539","2018/07/12 19:19:24","新北市樹林區柑園街二段203巷9號","121.377935","24.9518066666667","6500700","樹林區"
"238025","303-VK","2018/07/12 19:19:25","新北市樹林區東興街3號","121.409468333333","24.9803","6500700","樹林區"
"238017","283-BY","2018/07/12 19:19:22","新北市樹林區光興街18號","121.412381666667","25.0029316666667","6500700","樹林區"
"238014","282-BY","2018/07/12 19:19:13","新北市樹林區千歲街57號","121.425666666667","24.9968016666667","6500700","樹林區"
"238026","172-UY","2018/07/12 19:19:20","新北市樹林區佳園路二段104號","121.390018333333","24.957695","6500700","樹林區"
"238016","169-UY","2018/07/12 19:19:29","新北市樹林區復興路464巷28號","121.412981666667","24.983695","6500700","樹林區"
"239007","AAC-297","2018/07/12 19:19:27","新北市鶯歌區大湖路326巷61弄1號","121.345961666667","24.9693716666667","6500800","鶯歌區"
"239006","891-R6","2018/07/12 19:19:13","新北市鶯歌區永昌街111號","121.339896666667","24.950325","6500800","鶯歌區"
"239008","527-UM","2018/07/12 19:19:23","新北市鶯歌區國際二路2巷2號","121.338975","24.9729","6500800","鶯歌區"
"239005","526-UM","2018/07/12 19:19:13","新北市鶯歌區中湖街315巷1號","121.346198333333","24.9780366666667","6500800","鶯歌區"
"239001","417-VK","2018/07/12 19:19:21","新北市鶯歌區建國路473號","121.33949","24.952245","6500800","鶯歌區"
"239003","360-BY","2018/07/12 19:19:26","新北市鶯歌區中正二路32號","121.351303333333","24.9514866666667","6500800","鶯歌區"
"239002","359-BY","2018/07/12 19:19:13","新北市鶯歌區湖山路54號","121.339601666667","24.9749533333333","6500800","鶯歌區"
"239004","193-VK","2018/07/12 19:19:28","新北市鶯歌區中正三路291巷20弄1號","121.32986","24.9353666666667","6500800","鶯歌區"
"221008","489-VK","2018/07/12 19:19:22","新北市汐止區康寧街342號","121.628073333333","25.0675066666667","6501100","汐止區"
"221036","130-UY","2018/07/12 19:19:30","新北市汐止區汐萬路一段256巷3號","121.652473333333","25.0745616666667","6501100","汐止區"
"221015","131-UY","2018/07/12 19:19:27","新北市汐止區康寧街901號","121.651711666667","25.0749483333333","6501100","汐止區"
"221010","269-BY","2018/07/12 19:19:24","新北市汐止區康寧街901號","121.651373333333","25.0749966666667","6501100","汐止區"
"221012","278-VK","2018/07/12 19:19:16","新北市汐止區汐萬路一段186號","121.652238333333","25.07205","6501100","汐止區"
"221023","279-VK","2018/07/12 19:19:19","新北市汐止區康寧街901號","121.650961666667","25.075235","6501100","汐止區"
"221027","281-BY","2018/07/12 19:19:26","新北市汐止區汐萬路一段312號","121.650675","25.0753733333333","6501100","汐止區"
"221033","297-VK","2018/07/12 19:19:31","新北市汐止區南勢街1巷1號","121.627076666667","25.0375083333333","6501100","汐止區"
"221029","298-VK","2018/07/12 19:19:17","新北市汐止區康寧街901號","121.651413333333","25.0749466666667","6501100","汐止區"
"221021","299-VK","2018/07/12 19:19:16","新北市汐止區康寧街901號","121.651473333333","25.075045","6501100","汐止區"
"221031","353-TW","2018/07/12 19:19:22","新北市汐止區汐萬路一段256巷3號","121.653361666667","25.0747483333333","6501100","汐止區"
"221025","623-UM","2018/07/12 19:19:25","新北市汐止區康寧街901號","121.65158","25.07498","6501100","汐止區"
"221038","646-BX","2018/07/12 19:19:08","新北市汐止區汐萬路一段312號","121.650633333333","25.075285","6501100","汐止區"
"221002","707-TV","2018/07/12 19:19:11","新北市汐止區大同路一段341號","121.638636666667","25.05949","6501100","汐止區"
"220079","145-BY","2018/07/12 19:19:16","新北市板橋區光正街45巷2弄18號","121.460961666667","25.0174","6500100","板橋區"
"220080","200-UY","2018/07/12 19:19:28","新北市板橋區大觀路二段19巷18號","121.447511666667","25.0031783333333","6500100","板橋區"
"220082","610-BX","2018/07/12 19:19:18","新北市板橋區金門街338號","121.428141666667","24.9846233333333","6500100","板橋區"
"220101","245-BX","2018/07/12 19:19:19","新北市板橋區莊敬路25巷4弄14號","121.473738333333","25.0271483333333","6500100","板橋區"
"220056","276-BY","2018/07/12 19:19:27","新北市板橋區信義路140號","121.45875","24.9921433333333","6500100","板橋區"
"220071","283-VK","2018/07/12 19:19:31","新北市板橋區大豐街46號","121.461548333333","25.0012833333333","6500100","板橋區"
"220094","285-UM","2018/07/12 19:19:16","新北市板橋區吳鳳路21巷2號","121.466921666667","25.03126","6500100","板橋區"
"220053","285-VK","2018/07/12 19:19:21","新北市板橋區永豐街146號","121.478138333333","25.0212483333333","6500100","板橋區"
"220083","286-VK","2018/07/12 19:19:18","新北市板橋區大觀路二段174巷166弄9號","121.442476666667","25.0031","6500100","板橋區"
"220081","287-VK","2018/07/12 19:19:25","新北市板橋區南雅西路一段61號","121.453458333333","25.0055216666667","6500100","板橋區"
"220090","288-VK","2018/07/12 19:19:15","新北市板橋區長江路一段106巷13弄33號","121.461311666667","25.0297583333333","6500100","板橋區"
"220061","293-UM","2018/07/12 19:19:26","新北市板橋區中山路二段318巷20弄39號","121.48122","25.0188733333333","6500100","板橋區"
"220084","296-UM","2018/07/12 19:19:22","新北市板橋區滿平街136巷10弄2號","121.427658333333","24.987045","6500100","板橋區"
"220075","303-R5","2018/07/12 19:19:11","新北市板橋區中正路275巷36號","121.454311666667","25.0184933333333","6500100","板橋區"
"220062","305-R5","2018/07/12 19:19:17","新北市板橋區三民路二段153巷30弄35號","121.481098333333","25.0145216666667","6500100","板橋區"
"220092","307-R5","2018/07/12 19:19:32","新北市板橋區文化路二段225巷72弄60-1號","121.468808333333","25.02987","6500100","板橋區"
"220098","317-R6","2018/07/12 19:19:25","新北市板橋區民有街92號","121.464866666667","25.02758","6500100","板橋區"
"220064","486-VK","2018/07/12 19:19:18","新北市板橋區縣民大道二段22號","121.464295","25.0137","6500100","板橋區"
"220088","491-VK","2018/07/12 19:19:18","新北市板橋區雙十路二段83-3號","121.475778333333","25.0273933333333","6500100","板橋區"
"220035","560-BX","2018/07/12 19:19:15","新北市板橋區中正路433巷11號","121.453726666667","25.02336","6500100","板橋區"
"220103","561-BX","2018/07/12 19:19:31","新北市板橋區介壽街42號","121.468626666667","25.019775","6500100","板橋區"
"220072","568-UM","2018/07/12 19:19:18","新北市板橋區金門街339-2號","121.429271666667","24.9856333333333","6500100","板橋區"
"220063","609-BX","2018/07/12 19:19:24","新北市板橋區三民路二段72號","121.479193333333","25.017135","6500100","板橋區"
"220091","637-BX","2018/07/12 19:19:18","新北市板橋區松柏街81號","121.476561666667","25.030775","6500100","板橋區"
"220057","686-BX","2018/07/12 19:19:27","新北市中和區壽德街26號","121.46676","24.994265","6500100","板橋區"
"220093","689-BX","2018/07/12 19:19:23","新北市板橋區文化路一段383號","121.46711","25.0217933333333","6500100","板橋區"
"220054","741-BX","2018/07/12 19:19:21","新北市板橋區校前街72號","121.461866666667","25.0033666666667","6500100","板橋區"
"220102","KEA-2699","2018/07/12 19:19:12","新北市板橋區文聖街205巷4號","121.47997","25.0264633333333","6500100","板橋區"
"220077","806-UM","2018/07/12 19:19:33","新北市板橋區僑中二街102巷1-4號","121.446041666667","25.008165","6500100","板橋區"
"220055","827-TW","2018/07/12 19:19:27","新北市板橋區館前東路156巷44號","121.464515","25.0065333333333","6500100","板橋區"
"220067","829-TW","2018/07/12 19:19:24","新北市板橋區長安街138巷7弄42號","121.473953333333","25.0089616666667","6500100","板橋區"
"220096","830-TW","2018/07/12 19:19:16","新北市板橋區大同街26巷24號","121.478231666667","25.0266016666667","6500100","板橋區"
"220089","833-TW","2018/07/12 19:19:19","新北市板橋區文化路一段419號","121.46768","25.02256","6500100","板橋區"
"220074","895-R6","2018/07/12 19:19:20","新北市板橋區中正路1巷14號","121.455231666667","25.0116383333333","6500100","板橋區"
"220073","985-R7","2018/07/12 19:19:25","新北市板橋區新生街79號","121.457811666667","25.0214383333333","6500100","板橋區"
"220097","AAC-210","2018/07/12 19:19:19","新北市板橋區幸福路60巷65號","121.460098333333","25.0216616666667","6500100","板橋區"
"220070","AAC-253","2018/07/12 19:19:28","新北市板橋區四川路一段273號","121.459561666667","25.0020566666667","6500100","板橋區"
"235068","KEA-2873","2018/07/12 19:19:19","新北市中和區圓通路158巷8-1號","121.497836666667","24.9962566666667","6500300","中和區"
"235061","KEA-2875","2018/07/12 19:19:07","新北市中和區員山路333號","121.481271666667","25.00134","6500300","中和區"
