"lineid","car","time","location","longitude","latitude","cityid","cityname"
"234046","148-BY","2018/07/12 19:39:15","新北市永和區永利路121號","121.524036666667","25.0026366666667","6500400","永和區"
"234007","207-UY","2018/07/12 19:39:26","新北市中和區中和路380號","121.510606666667","25.0021466666667","6500400","永和區"
"234081","298-R6","2018/07/12 19:39:17","新北市永和區國中路104巷10號","121.524746666667","25.0069033333333","6500400","永和區"
"234038","336-UY","2018/07/12 19:39:22","新北市永和區民樂街31巷4號","121.527798333333","25.001465","6500400","永和區"
"234064","337-UY","2018/07/12 19:39:25","新北市永和區秀朗路一段192巷6弄14號","121.519053333333","25.00224","6500400","永和區"
"234070","552-UM","2018/07/12 19:39:15","新北市永和區永和路二段235號","121.515645","25.01436","6500400","永和區"
"234086","553-UM","2018/07/12 19:39:25","新北市永和區國中路2號","121.524273333333","25.0041883333333","6500400","永和區"
"234017","745-BX","2018/07/12 19:39:16","新北市永和區永和路二段425巷70號","121.513568333333","25.0171483333333","6500400","永和區"
"234030","746-BX","2018/07/12 19:38:55","新北市永和區民生路2號","121.522555","24.9980483333333","6500400","永和區"
"234054","KEA-2590","2018/07/12 19:39:29","新北市永和區竹林路39巷18號","121.518758333333","25.0146533333333","6500400","永和區"
"234013","KEA-2591","2018/07/12 19:39:16","新北市永和區永平路258號","121.508188333333","25.01126","6500400","永和區"
"234061","AAD-866","2018/07/12 19:39:10","新北市永和區中正路456號","121.517511666667","25.0029166666667","6500400","永和區"
"234042","862-TW","2018/07/12 19:39:16","新北市永和區水源街33巷1號","121.510836666667","25.0044116666667","6500400","永和區"
"234050","863-TW","2018/07/12 19:39:23","新北市永和區保福路二段158巷1號","121.509085","25.0150783333333","6500400","永和區"
"234026","9371-KE","2018/07/12 19:39:23","新北市永和區中和路501巷8號","121.510553333333","25.002625","6500400","永和區"
"234011","9373-KE","2018/07/12 19:39:27","新北市永和區保生路55-1號","121.504525","25.01088","6500400","永和區"
"249004","303-UY","2018/07/12 19:39:15","新北市八里區博物館路31號","121.413533333333","25.16245","6502300","八里區"
"249002","305-UY","2018/07/12 19:39:28","新北市八里區頂寮二街46號","121.450473333333","25.1252666666667","6502300","八里區"
"249003","593-UM","2018/07/12 19:39:25","新北市八里區中華路二段530號","121.399313333333","25.1457233333333","6502300","八里區"
"248016","026-BX","2018/07/12 19:39:20","新北市五股區成泰路三段621號","121.452963333333","25.10384","6501500","五股區"
"248008","095-VK","2018/07/12 19:39:29","新北市五股區四維路118巷11號","121.469051666667","25.0742983333333","6501500","五股區"
"248020","225-UY","2018/07/12 19:39:24","新北市五股區中直路28-3號","121.423853333333","25.1122816666667","6501500","五股區"
"248012","247-BX","2018/07/12 19:39:20","新北市五股區成泰路一段241巷12號","121.436086666667","25.0810116666667","6501500","五股區"
"248014","261-SL","2018/07/12 19:39:25","新北市五股區五福路52巷3弄6號","121.433448333333","25.0900816666667","6501500","五股區"
"248004","677-BX","2018/07/12 19:39:27","新北市五股區成泰路二段38號","121.437115","25.0813166666667","6501500","五股區"
"248002","678-BX","2018/07/12 19:39:17","新北市五股區成泰路三段577巷73號","121.44992","25.1035583333333","6501500","五股區"
"248010","682-TV","2018/07/12 19:39:15","新北市五股區自強路111號","121.432335","25.0705683333333","6501500","五股區"
"234077","969-R7","2018/07/12 19:39:26","新北市永和區民權路1巷6-1號","121.520533333333","24.998375","6500400","永和區"
"234074","AAC-211","2018/07/12 19:39:27","新北市永和區竹林路223號","121.52079","25.0085083333333","6500400","永和區"
"234067","AAC-212","2018/07/12 19:39:26","新北市永和區永貞路351號","121.509176666667","25.0075383333333","6500400","永和區"
"234003","AAC-295","2018/07/12 19:39:29","新北市永和區自由街58號","121.513873333333","25.0059533333333","6500400","永和區"
"243010","267-VK","2018/07/12 19:39:21","新北市泰山區民生路66號","121.432086666667","25.0517733333333","6501600","泰山區"
"243013","AAD-798","2018/07/12 19:39:23","新北市泰山區應化街7號","121.42385","25.0437233333333","6501600","泰山區"
"243009","297-R6","2018/07/12 19:39:22","新北市泰山區美寧街60號","121.430963333333","25.0646166666667","6501600","泰山區"
"243016","380-SR","2018/07/12 19:39:26","新北市泰山區明志路三段427號","121.420896666667","25.0331233333333","6501600","泰山區"
"243015","421-VK","2018/07/12 19:39:18","新北市泰山區明志路二段239號","121.427353333333","25.0481383333333","6501600","泰山區"
"243011","KEA-2215","2018/07/12 19:39:15","新北市泰山區貴子路41-1號","121.429701666667","25.039995","6501600","泰山區"
"243012","646-TV","2018/07/12 19:39:18","新北市泰山區仁愛路100巷27號","121.433483333333","25.05511","6501600","泰山區"
"243014","680-BX","2018/07/12 19:39:16","新北市泰山區泰林路二段33-7號","121.435178333333","25.0563466666667","6501600","泰山區"
"222002","016-RS","2018/07/12 19:39:24","新北市深坑區北深路一段177號","121.63257","25.010865","6501800","深坑區"
"222003","436-BY","2018/07/12 19:39:30","新北市深坑區深南路51-1號","121.621276666667","25.0097716666667","6501800","深坑區"
"231041","002-UM","2018/07/12 19:39:15","新北市新店區中正路500號","121.533966666667","24.982155","6500600","新店區"
"231059","046-UY","2018/07/12 19:39:33","新北市新店區安和路三段57號","121.51798","24.9829533333333","6500600","新店區"
"231040","047-UY","2018/07/12 19:39:11","新北市新店區中正路75巷71號","121.543088333333","24.9688233333333","6500600","新店區"
"231044","106-UY","2018/07/12 19:39:26","新北市新店區北新路三段179號","121.541003333333","24.9842016666667","6500600","新店區"
"231046","107-UY","2018/07/12 19:39:23","新北市新店區自由街7號","121.53555","24.9750666666667","6500600","新店區"
"231065","110-UY","2018/07/12 19:39:25","新北市新店區安祥路109巷51號","121.476956666667","24.95971","6500600","新店區"
"231047","187-VK","2018/07/12 19:39:23","新北市新店區五峰路63巷8弄21號","121.547365","24.96935","6500600","新店區"
"231054","KEA-2219","2018/07/12 19:39:21","新北市新店區文中路45號","121.539516666667","24.9566983333333","6500600","新店區"
"231057","256-BX","2018/07/12 19:39:30","新北市新店區橘園一路11號","121.547958333333","24.9340016666667","6500600","新店區"
"231042","268-BY","2018/07/12 19:39:19","新北市新店區中興路一段203號","121.543655","24.9656633333333","6500600","新店區"
"231051","278-BY","2018/07/12 19:39:34","新北市新店區中央四街56號","121.527466666667","24.9750966666667","6500600","新店區"
"231050","AAD-862","2018/07/12 19:39:19","新北市新店區北宜路二段277號","121.55505","24.953735","6500600","新店區"
"231058","3713-VJ","2018/07/12 19:39:23","新北市新店區中正路137號","121.541688333333","24.9714283333333","6500600","新店區"
"231066","4716-K9","2018/07/12 19:39:24","新北市新店區安康路三段165巷2弄3號","121.489261666667","24.9513133333333","6500600","新店區"
"231056","4715-K9","2018/07/12 19:39:15","新北市新店區柴埕路59號","121.51347","24.9649116666667","6500600","新店區"
"231049","513-UM","2018/07/12 19:39:27","新北市新店區大豐路43號","121.540253333333","24.97982","6500600","新店區"
"231063","616-UM","2018/07/12 19:39:30","新北市新店區達觀路16號","121.503478333333","24.9401483333333","6500600","新店區"
"231061","619-UM","2018/07/12 19:39:16","新北市新店區安民街33號","121.51581","24.9653333333333","6500600","新店區"
"231064","719-UM","2018/07/12 19:39:18","新北市新店區安和路一段52巷2-1號","121.517658333333","24.966275","6500600","新店區"
"231052","719-UY","2018/07/12 19:39:22","新北市新店區新烏路二段386號","121.551336666667","24.9094633333333","6500600","新店區"
"231062","720-UM","2018/07/12 19:39:30","新北市新店區太平路57號","121.532573333333","24.9586283333333","6500600","新店區"
"231060","897-TW","2018/07/12 19:39:25","新北市新店區安康路二段139號","121.511835","24.9602883333333","6500600","新店區"
"231045","898-TW","2018/07/12 19:39:17","新北市新店區北宜路二段423-1號","121.56047","24.9543983333333","6500600","新店區"
"231043","899-TW","2018/07/12 19:39:26","新北市新店區中正路130號","121.54207","24.9713383333333","6500600","新店區"
"231055","AKT-0513","2018/07/12 19:39:18","新北市新店區力行路14巷16弄8號","121.539461666667","24.9655983333333","6500600","新店區"
"241011","013-R5","2018/07/12 19:39:15","新北市三重區秀江街202號","121.497455","25.0715783333333","6500200","三重區"
"241028","022-UY","2018/07/12 19:39:11","新北市三重區中正南路157號","121.49386","25.0561316666667","6500200","三重區"
"241008","059-VK","2018/07/12 19:39:21","新北市三重區永福街127號","121.478963333333","25.0770066666667","6500200","三重區"
"241022","060-VK","2018/07/12 19:39:20","新北市三重區三民街157巷34號","121.48443","25.0653816666667","6500200","三重區"
"241031","061-VK","2018/07/12 19:39:18","新北市三重區重新路四段248號","121.486065","25.053375","6500200","三重區"
"241015","062-VK","2018/07/12 19:39:13","新北市三重區福德北路34號","121.502061666667","25.0652166666667","6500200","三重區"
"241017","063-VK","2018/07/12 19:39:23","新北市三重區重陽路三段5巷30號","121.491221666667","25.0653766666667","6500200","三重區"
"241026","066-VK","2018/07/12 19:39:23","新北市三重區文化南路65巷22號","121.499248333333","25.0606866666667","6500200","三重區"
"241003","091-VK","2018/07/12 19:39:31","新北市三重區五華街93巷93號","121.494038333333","25.0850166666667","6500200","三重區"
"241009","267-UM","2018/07/12 19:39:23","新北市三重區三和路四段400巷34號","121.479858333333","25.0790666666667","6500200","三重區"
"241032","269-UM","2018/07/12 19:39:29","新北市三重區重陽路一段60巷38號","121.485105","25.0582066666667","6500200","三重區"
"241013","270-UM","2018/07/12 19:39:28","新北市三重區仁賢街7號","121.49593","25.0745483333333","6500200","三重區"
"241007","398-BY","2018/07/12 19:39:30","新北市三重區三和路四段125巷71號","121.487238333333","25.0784583333333","6500200","三重區"
"241035","KEA-2210","2018/07/12 19:39:24","新北市三重區正義北路63號","121.497475","25.0645616666667","6500200","三重區"
"241025","413-TH","2018/07/12 19:39:13","新北市三重區頂崁街166號","121.47765","25.0658083333333","6500200","三重區"
"241020","478-VK","2018/07/12 19:39:25","新北市三重區三和路四段20巷84號","121.48886","25.0733433333333","6500200","三重區"
"241030","480-VK","2018/07/12 19:39:21","新北市三重區新興路3號","121.492853333333","25.0531283333333","6500200","三重區"
"241014","543-UM","2018/07/12 19:39:14","新北市三重區長壽街196號","121.504218333333","25.069065","6500200","三重區"
"241001","547-UM","2018/07/12 19:39:27","新北市三重區仁愛街315巷51號","121.494228333333","25.0802166666667","6500200","三重區"
"241019","KEA-2593","2018/07/12 19:39:15","新北市三重區六張街194巷1弄1號","121.488526666667","25.06824","6500200","三重區"
"241006","AAD-863","2018/07/12 19:39:27","新北市三重區聯華街110號","121.48526","25.07509","6500200","三重區"
"241023","887-TS","2018/07/12 19:39:30","新北市三重區忠孝路三段99巷16號","121.479588333333","25.0642","6500200","三重區"
"241012","941-UM","2018/07/12 19:39:22","新北市三重區河邊北街256巷29號","121.500633333333","25.0759566666667","6500200","三重區"
"241029","942-UM","2018/07/12 19:39:24","新北市三重區同安街145號","121.493123333333","25.0560533333333","6500200","三重區"
"235066","003-UY","2018/07/12 19:39:22","新北市中和區中和路196巷9弄1號","121.505166666667","24.999195","6500300","中和區"
"235064","005-UY","2018/07/12 19:39:13","新北市中和區南山路127巷18弄1號","121.503623333333","24.997415","6500300","中和區"
"235063","006-UY","2018/07/12 19:39:26","新北市中和區安邦街3號","121.495861666667","24.9983466666667","6500300","中和區"
"235045","031-BX","2018/07/12 19:39:15","新北市中和區景新街499號","121.513951666667","24.9870283333333","6500300","中和區"
"235056","096-UM","2018/07/12 19:39:30","新北市中和區員山路581巷31弄22號","121.476575","25.01041","6500300","中和區"
"235039","097-UM","2018/07/12 19:39:18","新北市中和區景平路172號","121.517003333333","24.9926883333333","6500300","中和區"
"235065","098-UM","2018/07/12 19:39:19","新北市中和區永和路8巷1號","121.500153333333","25.0031533333333","6500300","中和區"
"235040","150-BY","2018/07/12 19:39:19","新北市中和區安和路43號","121.509626666667","24.9948833333333","6500300","中和區"
"235058","151-BY","2018/07/12 19:39:29","新北市中和區連城路374巷1號","121.481376666667","24.9953216666667","6500300","中和區"
"235055","183-VK","2018/07/12 19:39:27","新北市中和區中山路三段181巷18弄11號","121.472655","25.0048933333333","6500300","中和區"
"235038","185-VK","2018/07/12 19:39:11","新北市中和區自強路2號","121.52032","24.9961333333333","6500300","中和區"
"235049","186-VK","2018/07/12 19:39:25","新北市中和區明仁街1號","121.505606666667","24.9956616666667","6500300","中和區"
"235067","255-BX","2018/07/12 19:39:29","新北市中和區新生街186巷5弄1號","121.482993333333","24.99966","6500300","中和區"
"235044","293-VK","2018/07/12 19:39:12","新北市中和區興南路一段160號","121.508198333333","24.986715","6500300","中和區"
"235072","301-VK","2018/07/12 19:39:21","新北市中和區連城路281巷2弄13號","121.49024","24.995755","6500300","中和區"
"235043","352-BY","2018/07/12 19:39:24","新北市中和區興南路一段106號","121.509693333333","24.9889333333333","6500300","中和區"
"235042","KEA-2878","2018/07/12 19:39:17","新北市中和區景安路79巷37弄20號","121.507845","24.9962316666667","6500300","中和區"
"235050","4979-A6","2018/07/12 19:39:16","新北市中和區員山路36巷13號","121.484355","24.9911983333333","6500300","中和區"
"235070","558-UM","2018/07/12 19:39:25","新北市中和區連勝街34號","121.498133333333","24.99774","6500300","中和區"
"235054","640-BX","2018/07/12 19:39:22","新北市中和區國光街107巷4弄30號","121.469335","24.9989016666667","6500300","中和區"
"235060","647-TV","2018/07/12 19:39:31","新北市中和區中山路二段523巷20號","121.481613333333","25.00417","6500300","中和區"
"235047","732-UM","2018/07/12 19:39:23","新北市中和區南山路283巷11號","121.504488333333","24.9926066666667","6500300","中和區"
"235046","733-UM","2018/07/12 19:39:21","新北市中和區信義街115號","121.512061666667","24.9867883333333","6500300","中和區"
"235071","783-BX","2018/07/12 19:39:25","新北市中和區中正路839巷29號","121.483576666667","25.002355","6500300","中和區"
"235057","801-TS","2018/07/12 19:39:16","新北市中和區員山路249號","121.481371666667","24.9987083333333","6500300","中和區"
"235041","802-TS","2018/07/12 19:39:21","新北市中和區中和路456號","121.51217","25.00378","6500300","中和區"
"235052","805-TS","2018/07/12 19:39:22","新北市中和區華新街192巷2號","121.506851666667","24.9822716666667","6500300","中和區"
"235048","896-TW","2018/07/12 19:39:26","新北市中和區忠孝街2-8號","121.509191666667","24.9830216666667","6500300","中和區"
"235053","900-TW","2018/07/12 19:39:23","新北市中和區國光街215巷8弄5號","121.466495","25.0013683333333","6500300","中和區"
"235051","157-BY","2018/07/12 19:39:23","新北市中和區板南路132號","121.502456666667","24.9925783333333","6500300","中和區"
"235037","AAC-213","2018/07/12 19:39:27","新北市中和區秀朗路三段10巷21弄6號","121.525245","24.996165","6500300","中和區"
"235059","AAC-215","2018/07/12 19:39:21","新北市中和區圓通路307號","121.493346666667","24.9908833333333","6500300","中和區"
"220068","013-TV","2018/07/12 19:39:11","新北市板橋區中山路二段531巷17弄2號","121.48272","25.0223666666667","6500100","板橋區"
"220065","072-UY","2018/07/12 19:39:19","新北市板橋區國泰街29號","121.468863333333","25.006745","6500100","板橋區"
"220086","073-UY","2018/07/12 19:39:28","新北市板橋區林園街20號","121.454071666667","25.009895","6500100","板橋區"
"220106","075-UY","2018/07/12 19:39:30","新北市板橋區雙十路三段10巷1弄31號","121.471215","25.031705","6500100","板橋區"
"220069","AAD-861","2018/07/12 19:39:22","新北市板橋區貴興路106巷16弄2號","121.454781666667","25.0034783333333","6500100","板橋區"
"247004","337-TH","2018/07/12 19:39:27","新北市蘆洲區長安街98巷21號","121.463076666667","25.0819166666667","6501400","蘆洲區"
"247008","053-VK","2018/07/12 19:39:15","新北市蘆洲區中山一路171號","121.47499","25.0814516666667","6501400","蘆洲區"
"247002","002-UY","2018/07/12 19:39:30","新北市蘆洲區三民路599號","121.460803333333","25.0935683333333","6501400","蘆洲區"
"226004","312-R5","2018/07/12 19:39:19","新北市平溪區靜安路二段557號","121.749708333333","25.0252033333333","6502400","平溪區"
"228003","097-TW","2018/07/12 19:39:23","新北市貢寮區真理里美艷山街15-3號","121.923721666667","25.0679916666667","6502600","貢寮區"
"228001","212-TW","2018/07/12 19:39:24","新北市貢寮區真理里延平街47號","121.924506666667","25.0556266666667","6502600","貢寮區"
"224010","AGQ-8101","2018/07/12 19:31:35","新北市瑞芳區烏勢巷145號","121.847735","25.1089983333333","6501200","瑞芳區"
"224002","639-TC","2018/07/12 19:39:30","新北市瑞芳區民享新村12號","121.816666666667","25.1057066666667","6501200","瑞芳區"
"227010","642-TC","2018/07/12 19:39:14","新北市雙溪區新基里新基北街22號","121.867255","25.0389116666667","6502500","雙溪區"
"227004","400-TW","2018/07/12 19:39:29","新北市雙溪區雙溪里內挖路83號","121.863135","25.0369833333333","6502500","雙溪區"
"222001","KEA-2212","2018/07/12 19:39:14","新北市深坑區深坑街148號","121.613105","25.0013166666667","6501800","深坑區"
"208002","KEA-2872","2018/07/12 19:39:30","新北市金山區中山路313巷26號","121.635073333333","25.2230283333333","6502700","金山區"
"208003","665-BX","2018/07/12 19:39:19","新北市金山區仁愛路1巷1號","121.638551666667","25.2199766666667","6502700","金山區"
"208001","761-BX","2018/07/12 19:39:22","新北市金山區南勢湖9號","121.6215","25.2193766666667","6502700","金山區"
"251016","008-UM","2018/07/12 19:39:22","新北市淡水區下圭柔山119-51號","121.450721666667","25.2085116666667","6501000","淡水區"
"251001","011-UM","2018/07/12 19:39:28","新北市淡水區民權路41號","121.459755","25.1404666666667","6501000","淡水區"
"251013","KEA-2871","2018/07/12 19:39:27","新北市淡水區店子後9號","121.460086666667","25.2189716666667","6501000","淡水區"
"251014","180-VK","2018/07/12 19:39:18","新北市淡水區北勢子14號","121.47622","25.230685","6501000","淡水區"
"251015","181-VK","2018/07/12 19:39:18","新北市三芝區興華里車埕70-9號","121.493173333333","25.1941216666667","6501000","淡水區"
"251010","413-VK","2018/07/12 19:39:24","新北市淡水區新市五路二段75號","121.431383333333","25.198445","6501000","淡水區"
"251012","441-VK","2018/07/12 19:39:16","新北市淡水區中山北路三段156號","121.445565","25.1957533333333","6501000","淡水區"
"251008","442-VK","2018/07/12 19:39:25","新北市淡水區中正路32巷2號","121.43093","25.17535","6501000","淡水區"
"251005","443-VK","2018/07/12 19:39:20","新北市淡水區原德路108巷2號","121.443371666667","25.1735266666667","6501000","淡水區"
"251006","561-UM","2018/07/12 19:39:16","新北市淡水區中山北路一段207巷48號","121.442568333333","25.1792666666667","6501000","淡水區"
"251009","575-R6","2018/07/12 19:39:18","新北市淡水區中山北路一段198巷9號","121.445243333333","25.179325","6501000","淡水區"
"251007","577-R6","2018/07/12 19:39:27","新北市淡水區中正東路一段111巷26號","121.455275","25.1605283333333","6501000","淡水區"
"251011","650-BX","2018/07/12 19:39:25","新北市淡水區八勢路20號","121.460608333333","25.1535133333333","6501000","淡水區"
"207003","550-UM","2018/07/12 19:39:17","新北市萬里區大鵬里下社26號","121.648843333333","25.217265","6502800","萬里區"
"207004","225-TW","2018/07/12 19:39:15","新北市萬里區萬里里瑪鋉路21號","121.687268333333","25.1753533333333","6502800","萬里區"
"252002","178-VK","2018/07/12 19:39:25","新北市三芝區中正路一段36巷25號","121.504183333333","25.2587633333333","6502100","三芝區"
"252001","292-VK","2018/07/12 19:39:17","新北市三芝區公正街9號","121.4997","25.2575166666667","6502100","三芝區"
"237004","KEA-2597","2018/07/12 19:39:13","新北市三峽區有木3號","121.420851666667","24.8662933333333","6500900","三峽區"
"237007","153-BY","2018/07/12 19:39:27","新北市三峽區二鬮路136巷22弄35號","121.357263333333","24.910315","6500900","三峽區"
"237009","210-TH","2018/07/12 19:39:20","新北市三峽區中園街86巷1號","121.367733333333","24.9246683333333","6500900","三峽區"
"237013","252-BX","2018/07/12 19:39:13","新北市三峽區介壽路一段376號","121.382853333333","24.9306466666667","6500900","三峽區"
"237012","275-BY","2018/07/12 19:39:19","新北市三峽區介壽路一段50號","121.375658333333","24.93243","6500900","三峽區"
"237008","302-VK","2018/07/12 19:39:28","新北市三峽區永安街167巷7號","121.373695","24.9273733333333","6500900","三峽區"
"237014","433-BY","2018/07/12 19:39:25","新北市三峽區大利路14號","121.366718333333","24.91165","6500900","三峽區"
"237006","5529-G3","2018/07/12 19:39:18","新北市三峽區中正路一段336巷15弄2號","121.369916666667","24.9249366666667","6500900","三峽區"
"237016","649-BX","2018/07/12 19:39:11","新北市三峽區成福路251巷5號","121.427178333333","24.92433","6500900","三峽區"
"237005","AKY-6261","2018/07/12 19:39:26","新北市三峽區中山路219巷17弄2號","121.363261666667","24.9362283333333","6500900","三峽區"
"236042","107-UM","2018/07/12 19:39:21","新北市土城區裕民路254號","121.45451","24.9830016666667","6501300","土城區"
"236078","166-UM","2018/07/12 19:39:28","新北市土城區中州路51號","121.41277","24.95788","6501300","土城區"
"236030","253-BX","2018/07/12 19:39:17","新北市土城區福祥街71號","121.441183333333","24.9807266666667","6501300","土城區"
"236026","269-VK","2018/07/12 19:39:21","新北市土城區中央路二段61巷26號","121.443281666667","24.9786783333333","6501300","土城區"
"236038","271-VK","2018/07/12 19:39:16","新北市土城區青雲路269巷9號","121.459781666667","24.9805633333333","6501300","土城區"
"236070","KEA-2877","2018/07/12 19:39:27","新北市土城區明德路二段65號","121.451445","24.980885","6501300","土城區"
"236021","401-BY","2018/07/12 19:39:27","新北市土城區峰廷街14號","121.468836666667","24.9874933333333","6501300","土城區"
"236063","752-BX","2018/07/12 19:39:29","新北市土城區延平街65號","121.4678","24.9927483333333","6501300","土城區"
"236049","913-UM","2018/07/12 19:39:25","新北市土城區明德路一段51號","121.465273333333","24.9847766666667","6501300","土城區"
"236055","AAC-216","2018/07/12 19:39:14","新北市土城區學府路一段93號","121.456493333333","24.9879466666667","6501300","土城區"
"242029","612-BX","2018/07/12 19:39:21","新北市新莊區新泰路255巷83號","121.442296666667","25.039215","6500500","新莊區"
"242046","497-BY","2018/07/12 19:39:18","新北市新莊區裕民街19巷4號","121.419623333333","25.02518","6500500","新莊區"
"242038","442-UM","2018/07/12 19:39:31","新北市新莊區後港一路156巷22號","121.430668333333","25.0255983333333","6500500","新莊區"
"242036","415-TV","2018/07/12 19:39:21","新北市新莊區民安路181巷2弄9號","121.426533333333","25.0226883333333","6500500","新莊區"
"242023","362-BY","2018/07/12 19:39:17","新北市新莊區復興路三段58號","121.463236666667","25.0445166666667","6500500","新莊區"
"242031","135-UY","2018/07/12 19:39:25","新北市新莊區公園一路138號","121.44631","25.03813","6500500","新莊區"
"242048","172-VK","2018/07/12 19:39:05","新北市新莊區民安路37巷1號","121.423665","25.026965","6500500","新莊區"
"242011","173-VK","2018/07/12 19:38:39","新北市新莊區三和路12-21號","121.441938333333","25.0387616666667","6500500","新莊區"
"242004","176-VK","2018/07/12 19:39:26","新北市新莊區化成路29巷59號","121.462565","25.0439433333333","6500500","新莊區"
"242013","351-TH","2018/07/12 19:39:30","新北市新莊區中誠街121巷1號","121.449458333333","25.0473883333333","6500500","新莊區"
"238015","755-BX","2018/07/12 19:39:20","新北市樹林區日新街99號","121.421448333333","24.99005","6500700","樹林區"
"238023","601-UM","2018/07/12 19:39:25","新北市樹林區三福街154號","121.405173333333","25.0159183333333","6500700","樹林區"
"238024","5061-A6","2018/07/12 19:39:21","新北市樹林區中山路三段206號","121.383651666667","24.9668566666667","6500700","樹林區"
"238022","KEA-2213","2018/07/12 19:39:20","新北市樹林區名園街51巷6弄1號","121.420581666667","24.9783216666667","6500700","樹林區"
"238021","KEA-2539","2018/07/12 19:39:24","新北市樹林區佳園路三段145巷36-28號","121.389118333333","24.9491183333333","6500700","樹林區"
"238025","303-VK","2018/07/12 19:39:25","新北市樹林區中山路二段44號","121.41699","24.9847516666667","6500700","樹林區"
"238017","283-BY","2018/07/12 19:39:22","新北市樹林區保安街二段45巷40-2號","121.414088333333","25.00021","6500700","樹林區"
"238014","282-BY","2018/07/12 19:39:13","新北市樹林區千歲街30巷21號","121.426325","24.9961966666667","6500700","樹林區"
"238026","172-UY","2018/07/12 19:39:20","新北市樹林區佳園路二段15巷30號","121.394506666667","24.9626783333333","6500700","樹林區"
"239007","AAC-297","2018/07/12 19:37:27","新北市樹林區中山路三段210-2號","121.380648333333","24.9677583333333","6500800","鶯歌區"
"239006","891-R6","2018/07/12 19:39:13","新北市鶯歌區文化路72-6號","121.35484","24.9536283333333","6500800","鶯歌區"
"239002","359-BY","2018/07/12 19:39:33","新北市鶯歌區中山路300-2號","121.342935","24.9583483333333","6500800","鶯歌區"
"221008","489-VK","2018/07/12 19:39:23","新北市汐止區康寧街145號","121.621603333333","25.06668","6501100","汐止區"
"221036","130-UY","2018/07/12 19:39:30","新北市汐止區汐萬路一段312號","121.650651666667","25.07531","6501100","汐止區"
"221015","131-UY","2018/07/12 19:39:27","新北市汐止區康寧街901號","121.65099","25.0752566666667","6501100","汐止區"
"221010","269-BY","2018/07/12 19:39:24","新北市汐止區汐萬路一段411號","121.64918","25.0793616666667","6501100","汐止區"
"221012","278-VK","2018/07/12 19:39:16","新北市汐止區茄安路234號","121.678971666667","25.070435","6501100","汐止區"
"221023","279-VK","2018/07/12 19:39:19","新北市汐止區明峰街185號","121.62819","25.069615","6501100","汐止區"
"221032","280-BY","2018/07/12 19:39:16","新北市汐止區大同路二段171號","121.651646666667","25.0647283333333","6501100","汐止區"
"221027","281-BY","2018/07/12 19:39:26","新北市汐止區忠孝東路9號","121.658301666667","25.065905","6501100","汐止區"
"221033","297-VK","2018/07/12 19:39:31","台北市南港區舊莊街二段9號","121.624928333333","25.0375816666667","6501100","汐止區"
"221029","298-VK","2018/07/12 19:39:17","新北市汐止區康寧街901號","121.651415","25.0749466666667","6501100","汐止區"
"221021","299-VK","2018/07/12 19:39:16","新北市汐止區新台五路一段131號","121.652215","25.062065","6501100","汐止區"
"221031","353-TW","2018/07/12 19:39:21","新北市汐止區康寧街901號","121.65084","25.0752666666667","6501100","汐止區"
"221025","623-UM","2018/07/12 19:39:25","新北市汐止區福安街17號","121.662426666667","25.065315","6501100","汐止區"
"221038","646-BX","2018/07/12 19:39:28","新北市汐止區忠孝東路241號","121.66275","25.0673783333333","6501100","汐止區"
"220079","145-BY","2018/07/12 19:38:56","新北市板橋區建國街96號","121.45975","25.0173716666667","6500100","板橋區"
"220080","200-UY","2018/07/12 19:39:28","新北市板橋區大觀路二段153巷46弄16號","121.449063333333","24.9998066666667","6500100","板橋區"
"220082","610-BX","2018/07/12 19:39:18","新北市板橋區大觀路三段160巷36號","121.429991666667","24.9939933333333","6500100","板橋區"
"220101","245-BX","2018/07/12 19:39:19","新北市板橋區莊敬路209號","121.472043333333","25.0221683333333","6500100","板橋區"
"220056","276-BY","2018/07/12 19:39:21","新北市板橋區四川路二段47巷2弄1號","121.454078333333","24.9949283333333","6500100","板橋區"
"220071","283-VK","2018/07/12 19:39:31","新北市板橋區信義路107-1號","121.457568333333","24.9935233333333","6500100","板橋區"
"220094","285-UM","2018/07/12 19:39:28","新北市板橋區銘傳街78號","121.469218333333","25.0313966666667","6500100","板橋區"
"220053","285-VK","2018/07/12 19:39:21","新北市板橋區中山路二段253號","121.47738","25.0174716666667","6500100","板橋區"
"220083","286-VK","2018/07/12 19:39:16","新北市板橋區龍興街65巷48號","121.442618333333","25.001855","6500100","板橋區"
"220081","287-VK","2018/07/12 19:39:29","新北市板橋區大觀路一段29巷133弄2號","121.45031","25.005415","6500100","板橋區"
"220090","288-VK","2018/07/12 19:39:15","新北市板橋區長江路一段48巷1弄1號","121.458996666667","25.0288783333333","6500100","板橋區"
"220061","293-UM","2018/07/12 19:39:26","新北市板橋區中山路一段265巷11號","121.468618333333","25.0146966666667","6500100","板橋區"
"220084","296-UM","2018/07/12 19:39:22","新北市板橋區溪崑二街134號","121.425895","24.9877383333333","6500100","板橋區"
"220075","303-R5","2018/07/12 19:39:30","新北市板橋區中正路223號","121.45606","25.017775","6500100","板橋區"
"220062","305-R5","2018/07/12 19:39:15","新北市板橋區三民路二段29巷4號","121.481455","25.0180466666667","6500100","板橋區"
"220092","307-R5","2018/07/12 19:39:27","新北市板橋區文化路一段360號","121.468465","25.0237983333333","6500100","板橋區"
"220098","317-R6","2018/07/12 19:39:20","新北市板橋區四維路269巷64號","121.46072","25.0272033333333","6500100","板橋區"
"220064","486-VK","2018/07/12 19:39:18","新北市板橋區民權路45號","121.461858333333","25.0113616666667","6500100","板橋區"
"220088","491-VK","2018/07/12 19:39:22","新北市板橋區民治街22號","121.477728333333","25.0342633333333","6500100","板橋區"
"220035","560-BX","2018/07/12 19:39:15","新北市板橋區金華街85巷42號","121.45919","25.021405","6500100","板橋區"
"220103","561-BX","2018/07/12 19:39:31","新北市板橋區文化路一段294號","121.467693333333","25.0214433333333","6500100","板橋區"
"220072","568-UM","2018/07/12 19:39:18","新北市板橋區金門街215巷93號","121.433813333333","24.9887216666667","6500100","板橋區"
"220063","609-BX","2018/07/12 19:39:24","新北市板橋區中山路二段531巷32號","121.482896666667","25.0223183333333","6500100","板橋區"
"220091","637-BX","2018/07/12 19:39:18","新北市板橋區懷德街127巷19號","121.47943","25.0311966666667","6500100","板橋區"
"220057","686-BX","2018/07/12 19:39:27","新北市板橋區和平路安樂巷23號","121.46161","24.9936983333333","6500100","板橋區"
"220093","689-BX","2018/07/12 19:39:20","新北市板橋區長江路一段61號","121.459008333333","25.02946","6500100","板橋區"
"220054","741-BX","2018/07/12 19:39:28","新北市板橋區忠孝路239巷12號","121.466593333333","25.0032533333333","6500100","板橋區"
"220102","KEA-2699","2018/07/12 19:39:12","新北市板橋區文化路二段410巷8-1號","121.474261666667","25.0310883333333","6500100","板橋區"
"220077","806-UM","2018/07/12 19:39:15","新北市板橋區僑中一街150號","121.444783333333","25.0120733333333","6500100","板橋區"
"220055","827-TW","2018/07/12 19:39:17","新北市板橋區國慶路149巷13弄12-4號","121.460348333333","24.9970416666667","6500100","板橋區"
"220067","829-TW","2018/07/12 19:39:29","新北市板橋區漢生東路193巷53號","121.471758333333","25.011755","6500100","板橋區"
"220096","830-TW","2018/07/12 19:39:32","新北市板橋區民生路二段234巷51號","121.469641666667","25.0227216666667","6500100","板橋區"
"220089","833-TW","2018/07/12 19:39:19","新北市板橋區英士路13號","121.461928333333","25.0251283333333","6500100","板橋區"
"220074","895-R6","2018/07/12 19:39:20","新北市板橋區館前西路129號","121.45652","25.00762","6500100","板橋區"
"220073","985-R7","2018/07/12 19:39:23","新北市板橋區國光路49巷17號","121.45897","25.01882","6500100","板橋區"
"220097","AAC-210","2018/07/12 19:39:13","新北市板橋區幸福路30號","121.461686666667","25.02031","6500100","板橋區"
"220070","AAC-253","2018/07/12 19:39:28","新北市板橋區民族路107號","121.466815","25.0082333333333","6500100","板橋區"
"235068","KEA-2873","2018/07/12 19:39:08","新北市中和區永和路8巷21號","121.500918333333","25.0035766666667","6500300","中和區"
"235061","KEA-2875","2018/07/12 19:39:07","新北市中和區民安街2巷35弄1號","121.47988","25.001535","6500300","中和區"
