"lineid","car","time","location","longitude","latitude","cityid","cityname"
"234046","148-BY","2018/07/12 19:49:15","新北市永和區永利路248號","121.524176666667","25.0028733333333","6500400","永和區"
"234007","207-UY","2018/07/12 19:49:26","新北市中和區水源路102號","121.506105","25.0034533333333","6500400","永和區"
"234081","298-R6","2018/07/12 19:49:17","新北市永和區國中路4號","121.524315","25.004365","6500400","永和區"
"234038","336-UY","2018/07/12 19:49:22","新北市永和區成功路二段131號","121.526773333333","24.9982433333333","6500400","永和區"
"234064","337-UY","2018/07/12 19:49:25","新北市永和區中正路368巷6號","121.518026666667","25.00076","6500400","永和區"
"234070","552-UM","2018/07/12 19:49:15","新北市永和區竹林路88號","121.519443333333","25.012605","6500400","永和區"
"234086","553-UM","2018/07/12 19:49:25","新北市永和區中正路505號","121.516971666667","25.007025","6500400","永和區"
"234017","745-BX","2018/07/12 19:49:16","新北市永和區永和路二段297號","121.516026666667","25.0160633333333","6500400","永和區"
"234030","746-BX","2018/07/12 19:49:15","新北市永和區四維街103巷16號","121.523751666667","24.997135","6500400","永和區"
"234054","KEA-2590","2018/07/12 19:49:15","新北市永和區竹林路72巷4號","121.518941666667","25.0127683333333","6500400","永和區"
"234013","KEA-2591","2018/07/12 19:49:16","新北市永和區永平路298號","121.507361666667","25.01222","6500400","永和區"
"234061","AAD-866","2018/07/12 19:49:30","新北市永和區中正路226號","121.515976666667","24.9977133333333","6500400","永和區"
"234042","862-TW","2018/07/12 19:49:33","新北市永和區中和路305巷16弄20號","121.507145","25.0011433333333","6500400","永和區"
"234050","863-TW","2018/07/12 19:49:23","新北市永和區保安路79號","121.508605","25.014775","6500400","永和區"
"234026","9371-KE","2018/07/12 19:49:23","新北市永和區雙和街25巷7號","121.508923333333","25.0018683333333","6500400","永和區"
"234011","9373-KE","2018/07/12 19:49:27","新北市永和區仁愛路352巷94號","121.501175","25.008035","6500400","永和區"
"249001","173-UM","2018/07/12 19:49:17","新北市八里區中華路二段252號","121.405393333333","25.1496633333333","6502300","八里區"
"249004","303-UY","2018/07/12 19:49:15","新北市八里區仁愛路19號","121.413341666667","25.1609166666667","6502300","八里區"
"249002","305-UY","2018/07/12 19:49:28","新北市八里區頂寮五街17號","121.451433333333","25.126005","6502300","八里區"
"249003","593-UM","2018/07/12 19:49:25","新北市八里區華峰三街35號","121.39854","25.1453616666667","6502300","八里區"
"248016","026-BX","2018/07/12 19:49:20","新北市五股區成泰路四段18-2號","121.453663333333","25.10671","6501500","五股區"
"248008","095-VK","2018/07/12 19:49:23","新北市五股區四維路173號","121.467668333333","25.07515","6501500","五股區"
"248020","225-UY","2018/07/12 19:49:24","新北市五股區中直路37-3號","121.419793333333","25.1158433333333","6501500","五股區"
"248012","247-BX","2018/07/12 19:49:20","新北市五股區蓬萊路1-3號","121.434451666667","25.0796483333333","6501500","五股區"
"248014","261-SL","2018/07/12 19:49:25","新北市五股區五福路32巷7號","121.434401666667","25.0893566666667","6501500","五股區"
"248004","677-BX","2018/07/12 19:49:07","新北市五股區成泰路一段149-2號","121.435451666667","25.0733883333333","6501500","五股區"
"248002","678-BX","2018/07/12 19:49:14","新北市五股區成泰路四段15-6號","121.453256666667","25.10688","6501500","五股區"
"248010","682-TV","2018/07/12 19:49:15","新北市五股區登林路貿商巷1弄1號","121.430475","25.0695933333333","6501500","五股區"
"234077","969-R7","2018/07/12 19:49:26","新北市永和區中正路242巷2弄1號","121.516836666667","24.9980066666667","6500400","永和區"
"234074","AAC-211","2018/07/12 19:49:27","新北市永和區竹林路179巷18號","121.521381666667","25.0099016666667","6500400","永和區"
"234067","AAC-212","2018/07/12 19:49:14","新北市永和區中山路一段191巷15弄2-1號","121.509786666667","25.0079483333333","6500400","永和區"
"234003","AAC-295","2018/07/12 19:49:29","新北市永和區福和路313號","121.5161","25.00728","6500400","永和區"
"243010","267-VK","2018/07/12 19:49:21","新北市泰山區民生路33號","121.43074","25.0521766666667","6501600","泰山區"
"243013","AAD-798","2018/07/12 19:49:23","新北市泰山區應化街7號","121.423853333333","25.04372","6501600","泰山區"
"243009","297-R6","2018/07/12 19:49:22","新北市泰山區美寧街60號","121.43095","25.06461","6501600","泰山區"
"243016","380-SR","2018/07/12 19:49:26","新北市泰山區中山路三段114號","121.417998333333","25.0321166666667","6501600","泰山區"
"243015","421-VK","2018/07/12 19:49:18","新北市泰山區明志路二段214巷11號","121.426678333333","25.0488566666667","6501600","泰山區"
"243011","KEA-2215","2018/07/12 19:49:15","新北市泰山區明志路三段196巷21弄20號","121.422843333333","25.0385516666667","6501600","泰山區"
"243012","646-TV","2018/07/12 19:49:18","新北市泰山區全興路13號","121.432298333333","25.0589716666667","6501600","泰山區"
"243014","680-BX","2018/07/12 19:49:16","新北市泰山區泰林路二段33-7號","121.435175","25.0563916666667","6501600","泰山區"
"222002","016-RS","2018/07/12 19:49:24","新北市深坑區翠谷街17巷3弄9號","121.625276666667","25.0068516666667","6501800","深坑區"
"222003","436-BY","2018/07/12 19:49:30","新北市深坑區深南路51-1號","121.6213","25.0098183333333","6501800","深坑區"
"231041","002-UM","2018/07/12 19:49:15","新北市新店區中央路155號","121.529716666667","24.9727733333333","6500600","新店區"
"231059","046-UY","2018/07/12 19:49:32","新北市新店區安和路二段163號","121.51885","24.9742883333333","6500600","新店區"
"231040","047-UY","2018/07/12 19:49:31","新北市新店區中正路75巷71號","121.543205","24.9689033333333","6500600","新店區"
"231044","106-UY","2018/07/12 19:49:21","新北市新店區復興路66號","121.537841666667","24.9868533333333","6500600","新店區"
"231046","107-UY","2018/07/12 19:49:23","新北市新店區福園街10巷1號","121.532751666667","24.9728183333333","6500600","新店區"
"231065","110-UY","2018/07/12 19:49:28","新北市新店區安祥路109巷112號","121.47707","24.9586016666667","6500600","新店區"
"231047","187-VK","2018/07/12 19:49:23","新北市新店區中興路二段100巷1號","121.547663333333","24.97152","6500600","新店區"
"231054","KEA-2219","2018/07/12 19:49:21","新北市新店區光明街89號","121.538923333333","24.9609683333333","6500600","新店區"
"231057","256-BX","2018/07/12 19:49:30","新北市新店區花園二路三段19號","121.556656666667","24.931385","6500600","新店區"
"231042","268-BY","2018/07/12 19:48:39","新北市新店區中興路一段267號","121.544931666667","24.967535","6500600","新店區"
"231051","278-BY","2018/07/12 19:49:14","新北市新店區中央三街72號","121.526516666667","24.9751766666667","6500600","新店區"
"231050","AAD-862","2018/07/12 19:49:19","新北市新店區北宜路二段360號","121.563365","24.9535716666667","6500600","新店區"
"231058","3713-VJ","2018/07/12 19:49:23","新北市新店區安和路三段7號","121.518153333333","24.9804383333333","6500600","新店區"
"231066","4716-K9","2018/07/12 19:49:24","新北市新店區安康路二段311號","121.499893333333","24.9568633333333","6500600","新店區"
"231056","4715-K9","2018/07/12 19:49:15","新北市新店區中正路506號","121.533913333333","24.982785","6500600","新店區"
"231049","513-UM","2018/07/12 19:49:27","新北市新店區民權路88號","121.536951666667","24.98299","6500600","新店區"
"231063","616-UM","2018/07/12 19:49:29","新北市新店區車子路11號","121.503046666667","24.951975","6500600","新店區"
"231061","619-UM","2018/07/12 19:49:16","新北市新店區安民街153號","121.516585","24.969845","6500600","新店區"
"231064","719-UM","2018/07/12 19:49:18","新北市新店區安和路一段52巷2-1號","121.517758333333","24.9667266666667","6500600","新店區"
"231052","719-UY","2018/07/12 19:49:22","新北市新店區新烏路三段47號","121.554145","24.9044383333333","6500600","新店區"
"231062","720-UM","2018/07/12 19:49:30","新北市新店區永業路33巷2號","121.532821666667","24.9553966666667","6500600","新店區"
"231060","897-TW","2018/07/12 19:49:25","新北市新店區安康路二段199號","121.509173333333","24.95898","6500600","新店區"
"231045","898-TW","2018/07/12 19:49:17","新北市新店區北宜路二段382號","121.564433333333","24.9530666666667","6500600","新店區"
"231043","899-TW","2018/07/12 19:49:26","新北市新店區中正路263-2號","121.538468333333","24.9737983333333","6500600","新店區"
"231055","AKT-0513","2018/07/12 19:49:18","新北市新店區力行路12號","121.539403333333","24.9646183333333","6500600","新店區"
"241011","013-R5","2018/07/12 19:49:15","新北市三重區三和路二段173巷21號","121.498475","25.0699383333333","6500200","三重區"
"241028","022-UY","2018/07/12 19:49:31","新北市三重區中正南路113號","121.494133333333","25.0575983333333","6500200","三重區"
"241008","059-VK","2018/07/12 19:49:21","新北市三重區永福街90號","121.478771666667","25.0762033333333","6500200","三重區"
"241022","060-VK","2018/07/12 19:49:20","新北市三重區新北大道一段7號","121.489765","25.061365","6500200","三重區"
"241031","061-VK","2018/07/12 19:49:18","新北市三重區重新路四段250-1號","121.486031666667","25.053405","6500200","三重區"
"241015","062-VK","2018/07/12 19:49:13","新北市三重區重新路一段1號","121.503821666667","25.0642233333333","6500200","三重區"
"241017","063-VK","2018/07/12 19:49:23","新北市三重區重陽路三段5巷8弄16號","121.489576666667","25.0665316666667","6500200","三重區"
"241026","066-VK","2018/07/12 19:49:23","新北市三重區文化南路75巷1號","121.500316666667","25.0607066666667","6500200","三重區"
"241003","091-VK","2018/07/12 19:49:31","新北市三重區五華街128號","121.491671666667","25.0834566666667","6500200","三重區"
"241016","266-UM","2018/07/12 19:49:17","新北市三重區正義北路16巷31-5號","121.49634","25.062775","6500200","三重區"
"241009","267-UM","2018/07/12 19:49:23","新北市三重區三和路四段396巷22號","121.480286666667","25.0788866666667","6500200","三重區"
"241018","268-UM","2018/07/12 19:49:25","新北市三重區雙園街57巷25號","121.494578333333","25.0683933333333","6500200","三重區"
"241032","269-UM","2018/07/12 19:49:29","新北市三重區重陽路一段44巷57號","121.484633333333","25.0578333333333","6500200","三重區"
"241013","270-UM","2018/07/12 19:49:28","新北市三重區仁愛街112巷16號","121.494725","25.07391","6500200","三重區"
"241007","398-BY","2018/07/12 19:49:30","新北市三重區三和路四段135巷1-1號","121.484903333333","25.0780766666667","6500200","三重區"
"241035","KEA-2210","2018/07/12 19:49:25","新北市三重區文化北路6-3號","121.49948","25.0635633333333","6500200","三重區"
"241025","413-TH","2018/07/12 19:49:32","新北市三重區忠孝路三段52號","121.480618333333","25.065615","6500200","三重區"
"241020","478-VK","2018/07/12 19:49:25","新北市三重區三和路四段12號","121.491446666667","25.0739366666667","6500200","三重區"
"241030","480-VK","2018/07/12 19:49:29","新北市三重區集成路11號","121.488765","25.0519933333333","6500200","三重區"
"241014","543-UM","2018/07/12 19:49:14","新北市三重區長安街77號","121.501658333333","25.0673866666667","6500200","三重區"
"241001","547-UM","2018/07/12 19:49:27","新北市三重區仁愛街325號","121.492286666667","25.0794366666667","6500200","三重區"
"241019","KEA-2593","2018/07/12 19:49:15","新北市三重區自強路二段67巷17號","121.489408333333","25.07023","6500200","三重區"
"241006","AAD-863","2018/07/12 19:49:27","新北市三重區永福街279號","121.482388333333","25.074315","6500200","三重區"
"241023","887-TS","2018/07/12 19:49:24","新北市三重區頂崁街172號","121.47761","25.0659883333333","6500200","三重區"
"241012","941-UM","2018/07/12 19:49:22","新北市三重區仁福街64巷20號","121.497653333333","25.0751966666667","6500200","三重區"
"241029","942-UM","2018/07/12 19:49:18","新北市三重區光明路31-1號","121.491323333333","25.0583483333333","6500200","三重區"
"241033","AAC-255","2018/07/12 19:49:12","新北市三重區中興南街31-3號","121.470631666667","25.0439283333333","6500200","三重區"
"235066","003-UY","2018/07/12 19:49:22","新北市中和區南工路60號","121.506078333333","25.0017683333333","6500300","中和區"
"235063","006-UY","2018/07/12 19:49:24","新北市中和區連城路263巷27弄2號","121.492801666667","24.9945533333333","6500300","中和區"
"235045","031-BX","2018/07/12 19:49:22","新北市中和區景平路161-1號","121.512565","24.99256","6500300","中和區"
"235056","096-UM","2018/07/12 19:49:30","新北市中和區中山路三段118-1號","121.475195","25.0074983333333","6500300","中和區"
"235039","097-UM","2018/07/12 19:49:18","新北市中和區大勇街25巷36號","121.515901666667","24.993695","6500300","中和區"
"235065","098-UM","2018/07/12 19:49:19","新北市中和區莊敬路33巷3弄8號","121.499551666667","25.00624","6500300","中和區"
"235040","150-BY","2018/07/12 19:49:19","新北市中和區景安路79巷25號","121.507083333333","24.9965616666667","6500300","中和區"
"235058","151-BY","2018/07/12 19:49:29","新北市中和區員山路142巷18號","121.482163333333","24.9965466666667","6500300","中和區"
"235055","183-VK","2018/07/12 19:49:28","新北市中和區民生街35巷2弄2號","121.47036","25.0051466666667","6500300","中和區"
"235049","186-VK","2018/07/12 19:49:25","新北市中和區中興街28號","121.500865","24.99487","6500300","中和區"
"235067","255-BX","2018/07/12 19:49:29","新北市中和區新生街186巷1弄23號","121.483388333333","24.9988216666667","6500300","中和區"
"235044","293-VK","2018/07/12 19:49:32","新北市中和區南山路235號","121.503613333333","24.9931566666667","6500300","中和區"
"235043","352-BY","2018/07/12 19:49:24","新北市中和區興南路二段159巷7號","121.505411666667","24.9830566666667","6500300","中和區"
"235050","4979-A6","2018/07/12 19:49:16","新北市中和區景平路241巷84弄54號","121.506095","24.9924033333333","6500300","中和區"
"235069","4980-A6","2018/07/12 19:49:16","新北市中和區中正路637巷52弄1號","121.485458333333","24.993425","6500300","中和區"
"235070","558-UM","2018/07/12 19:49:19","新北市中和區景平路483號","121.500291666667","24.9975483333333","6500300","中和區"
"235054","640-BX","2018/07/12 19:49:22","新北市中和區莒光路131號","121.472581666667","25.0018583333333","6500300","中和區"
"235060","647-TV","2018/07/12 19:49:31","新北市中和區員山路390號","121.480605","25.0044766666667","6500300","中和區"
"235047","732-UM","2018/07/12 19:49:23","新北市中和區興南路一段86號","121.509798333333","24.9894033333333","6500300","中和區"
"235046","733-UM","2018/07/12 19:49:21","新北市中和區仁愛街47號","121.511125","24.988235","6500300","中和區"
"235071","783-BX","2018/07/12 19:49:26","新北市中和區中板路7-4號","121.48493","25.011115","6500300","中和區"
"235057","801-TS","2018/07/12 19:49:16","新北市中和區民樂路77號","121.484498333333","25.0012933333333","6500300","中和區"
"235041","802-TS","2018/07/12 19:49:21","新北市中和區永貞路239巷17號","121.512546666667","25.0031016666667","6500300","中和區"
"235052","805-TS","2018/07/12 19:49:18","新北市中和區華新街97號","121.508661666667","24.9829566666667","6500300","中和區"
"235048","896-TW","2018/07/12 19:49:26","新北市中和區興南路一段146號","121.508311666667","24.9870433333333","6500300","中和區"
"235053","900-TW","2018/07/12 19:49:21","新北市中和區國光街171巷1號","121.468328333333","25.0013366666667","6500300","中和區"
"235051","157-BY","2018/07/12 19:49:23","新北市中和區中興街180巷52弄3號","121.498466666667","24.9883333333333","6500300","中和區"
"235037","AAC-213","2018/07/12 19:49:27","新北市中和區秀朗路三段175巷2號","121.524448333333","24.9911616666667","6500300","中和區"
"235059","AAC-215","2018/07/12 19:49:21","新北市中和區圓通路305巷25弄10號","121.494913333333","24.9896366666667","6500300","中和區"
"220068","013-TV","2018/07/12 19:49:17","新北市板橋區光復街133巷33號","121.484185","25.0196033333333","6500100","板橋區"
"220065","072-UY","2018/07/12 19:49:19","新北市板橋區民族路239號","121.47001","25.0070583333333","6500100","板橋區"
"220106","075-UY","2018/07/12 19:49:30","新北市板橋區文化路二段604號","121.477038333333","25.0349733333333","6500100","板橋區"
"220069","AAD-861","2018/07/12 19:49:22","新北市板橋區貴興路89號","121.456535","25.0028283333333","6500100","板橋區"
"247014","546-UM","2018/07/12 19:49:29","新北市蘆洲區復興路30號","121.472296666667","25.0850866666667","6501400","蘆洲區"
"247004","337-TH","2018/07/12 19:49:27","新北市蘆洲區中原路69號","121.4586","25.081885","6501400","蘆洲區"
"247006","336-TH","2018/07/12 19:49:31","新北市蘆洲區永安南路二段34號","121.46702","25.07722","6501400","蘆洲區"
"247008","053-VK","2018/07/12 19:49:15","新北市蘆洲區中山一路1號","121.478545","25.08011","6501400","蘆洲區"
"247002","002-UY","2018/07/12 19:48:50","新北市蘆洲區永樂街38巷65號","121.458525","25.0904383333333","6501400","蘆洲區"
"226004","312-R5","2018/07/12 19:49:19","新北市平溪區石底里公園街18-3號","121.733228333333","25.0258466666667","6502400","平溪區"
"228003","097-TW","2018/07/12 19:49:23","新北市貢寮區真理里美艷山街3-1號","121.926241666667","25.0596133333333","6502600","貢寮區"
"228001","212-TW","2018/07/12 19:49:24","新北市貢寮區真理里新港街78號","121.927233333333","25.05579","6502600","貢寮區"
"224010","AGQ-8101","2018/07/12 19:49:15","新北市瑞芳區基山街211號","121.842583333333","25.1073366666667","6501200","瑞芳區"
"224002","639-TC","2018/07/12 19:49:20","新北市瑞芳區三爪子坑路333號","121.818756666667","25.1044233333333","6501200","瑞芳區"
"227010","642-TC","2018/07/12 19:49:14","新北市雙溪區新基里中華路86號","121.865876666667","25.0386316666667","6502500","雙溪區"
"227004","400-TW","2018/07/12 19:49:29","新北市雙溪區雙溪里內挖路47號","121.863321666667","25.0366066666667","6502500","雙溪區"
"222001","KEA-2212","2018/07/12 19:49:15","新北市深坑區北深路三段71號","121.606683333333","25.0013983333333","6501800","深坑區"
"208002","KEA-2872","2018/07/12 19:49:30","新北市金山區八德街14號","121.634891666667","25.2236416666667","6502700","金山區"
"208003","665-BX","2018/07/12 19:49:19","新北市金山區清泉里清水路41巷2號","121.629713333333","25.23292","6502700","金山區"
"208001","761-BX","2018/07/12 19:49:22","新北市金山區重和里六股林口20號","121.602968333333","25.218965","6502700","金山區"
"251016","008-UM","2018/07/12 19:49:22","新北市淡水區三塊厝3-2號","121.456163333333","25.2091133333333","6501000","淡水區"
"251001","011-UM","2018/07/12 19:49:29","新北市淡水區坪頂路27號","121.456308333333","25.161935","6501000","淡水區"
"251013","KEA-2871","2018/07/12 19:49:27","新北市淡水區頂田寮路109號","121.457523333333","25.21554","6501000","淡水區"
"251014","180-VK","2018/07/12 19:49:18","新北市淡水區番社前1-5號","121.468085","25.23603","6501000","淡水區"
"251015","181-VK","2018/07/12 19:49:18","新北市淡水區北新路三段40號","121.484378333333","25.1873366666667","6501000","淡水區"
"251010","413-VK","2018/07/12 19:49:24","新北市淡水區下圭柔山91-3號","121.43088","25.2096033333333","6501000","淡水區"
"251012","441-VK","2018/07/12 19:49:20","新北市淡水區淡金路三段66號","121.448223333333","25.19994","6501000","淡水區"
"251008","442-VK","2018/07/12 19:49:26","新北市淡水區中正路二段24巷2-1號","121.426773333333","25.176975","6501000","淡水區"
"251005","443-VK","2018/07/12 19:49:20","新北市淡水區中正東路49號","121.44651","25.1675","6501000","淡水區"
"251006","561-UM","2018/07/12 19:49:15","新北市淡水區水碓街15號","121.443468333333","25.1769633333333","6501000","淡水區"
"251009","575-R6","2018/07/12 19:49:18","新北市淡水區中正路36號","121.443791666667","25.1692483333333","6501000","淡水區"
"251007","577-R6","2018/07/12 19:49:32","新北市淡水區中正東路一段39-1號","121.45208","25.166295","6501000","淡水區"
"251011","650-BX","2018/07/12 19:49:25","新北市淡水區淡金路二段38號","121.451873333333","25.1815283333333","6501000","淡水區"
"251003","673-BX","2018/07/12 19:49:27","新北市淡水區中山北路三段138號","121.444816666667","25.1952616666667","6501000","淡水區"
"207003","550-UM","2018/07/12 19:49:17","新北市萬里區大鵬里萬里加投68號","121.642416666667","25.21476","6502800","萬里區"
"207004","225-TW","2018/07/12 19:49:15","新北市萬里區萬里里瑪鋉路170號","121.689988333333","25.1796966666667","6502800","萬里區"
"252002","178-VK","2018/07/12 19:49:24","新北市三芝區三民街33-1號","121.50463","25.2585466666667","6502100","三芝區"
"252001","292-VK","2018/07/12 19:49:17","新北市三芝區公正街9號","121.499735","25.2575083333333","6502100","三芝區"
"237004","KEA-2597","2018/07/12 19:49:33","新北市三峽區添福289號","121.377175","24.8893133333333","6500900","三峽區"
"237007","153-BY","2018/07/12 19:49:27","新北市三峽區二鬮路21號","121.362555","24.9108983333333","6500900","三峽區"
"237009","210-TH","2018/07/12 19:49:21","新北市三峽區清水街435號","121.368491666667","24.9255333333333","6500900","三峽區"
"237013","252-BX","2018/07/12 19:49:13","新北市三峽區橫溪路76號","121.397425","24.935265","6500900","三峽區"
"237012","275-BY","2018/07/12 19:49:19","新北市三峽區光明路1-11號","121.372776666667","24.9321783333333","6500900","三峽區"
"237008","302-VK","2018/07/12 19:49:28","新北市三峽區安溪路351號","121.369853333333","24.9261716666667","6500900","三峽區"
"237014","433-BY","2018/07/12 19:49:25","新北市三峽區添福14-39號","121.371843333333","24.9003216666667","6500900","三峽區"
"237006","5529-G3","2018/07/12 19:49:18","新北市三峽區中正路一段336巷15弄2號","121.369945","24.9249116666667","6500900","三峽區"
"237016","649-BX","2018/07/12 19:49:31","新北市三峽區成福路71號","121.41856","24.9292316666667","6500900","三峽區"
"237005","AKY-6261","2018/07/12 19:49:26","新北市三峽區民生街92號","121.3741","24.935665","6500900","三峽區"
"236042","107-UM","2018/07/12 19:49:21","新北市土城區裕民路233巷1號","121.454953333333","24.983585","6501300","土城區"
"236078","166-UM","2018/07/12 19:49:28","新北市土城區溪頭路131號","121.40972","24.9513266666667","6501300","土城區"
"236030","253-BX","2018/07/12 19:49:16","新北市土城區中央路一段286號","121.443668333333","24.9826133333333","6501300","土城區"
"236026","269-VK","2018/07/12 19:49:21","新北市土城區中央路二段61巷26號","121.443251666667","24.9787016666667","6501300","土城區"
"236038","271-VK","2018/07/12 19:49:17","新北市土城區國際路158巷7號","121.468563333333","24.97634","6501300","土城區"
"236070","KEA-2877","2018/07/12 19:49:27","新北市土城區中央路二段192巷5號","121.44126","24.9759216666667","6501300","土城區"
"236021","401-BY","2018/07/12 19:49:27","新北市土城區延吉街137巷12弄1號","121.470835","24.9855283333333","6501300","土城區"
"236063","752-BX","2018/07/12 19:49:29","新北市土城區延和路107號","121.467705","24.99029","6501300","土城區"
"236059","912-UM","2018/07/12 19:49:22","新北市土城區中央路一段186-2號","121.4455","24.98632","6501300","土城區"
"236049","913-UM","2018/07/12 19:49:29","新北市土城區青雲路234號","121.459015","24.9806816666667","6501300","土城區"
"236055","AAC-216","2018/07/12 19:49:13","新北市土城區延和路59號","121.466681666667","24.9896733333333","6501300","土城區"
"242058","986-R7","2018/07/12 19:49:27","新北市新莊區新莊路773號","121.441901666667","25.0327166666667","6500500","新莊區"
"242029","612-BX","2018/07/12 19:49:25","新北市新莊區中平路286號","121.444868333333","25.0510433333333","6500500","新莊區"
"242046","497-BY","2018/07/12 19:49:18","新北市新莊區裕民街19巷2弄1號","121.419586666667","25.0252666666667","6500500","新莊區"
"242038","442-UM","2018/07/12 19:49:15","新北市新莊區民安路299巷55弄2號","121.429413333333","25.0238816666667","6500500","新莊區"
"242036","415-TV","2018/07/12 19:49:26","新北市新莊區民安路207巷26號","121.427311666667","25.0235466666667","6500500","新莊區"
"242007","413-TV","2018/07/12 19:49:26","新北市新莊區思源路593巷6弄15號","121.458338333333","25.0599433333333","6500500","新莊區"
"242023","362-BY","2018/07/12 19:49:17","新北市新莊區化成路85號","121.46557","25.0464583333333","6500500","新莊區"
"242031","135-UY","2018/07/12 19:49:30","新北市新莊區忠孝街3號","121.443891666667","25.0347116666667","6500500","新莊區"
"242048","172-VK","2018/07/12 19:49:25","新北市新莊區建安街92巷21號","121.425633333333","25.02449","6500500","新莊區"
"242011","173-VK","2018/07/12 19:49:20","新北市新莊區中平路377巷17弄58號","121.442358333333","25.0516133333333","6500500","新莊區"
"242017","175-VK","2018/07/12 19:49:29","新北市新莊區中華路一段226號","121.452665","25.0430016666667","6500500","新莊區"
"242004","176-VK","2018/07/12 19:49:17","新北市新莊區化成路63巷24弄16號","121.462101666667","25.0460533333333","6500500","新莊區"
"242021","348-TH","2018/07/12 19:49:24","新北市新莊區建中街58號","121.448286666667","25.03718","6500500","新莊區"
"242013","351-TH","2018/07/12 19:49:22","新北市新莊區中誠街53巷38號","121.4513","25.0470116666667","6500500","新莊區"
"238023","601-UM","2018/07/12 19:49:25","新北市樹林區中正路755號","121.410351666667","25.0152216666667","6500700","樹林區"
"238022","KEA-2213","2018/07/12 19:49:20","新北市樹林區中華路176號","121.414296666667","24.9804216666667","6500700","樹林區"
"238021","KEA-2539","2018/07/12 19:49:24","新北市樹林區佳園路三段101巷62弄19號","121.393555","24.9492916666667","6500700","樹林區"
"239007","AAC-297","2018/07/12 19:49:27","新北市鶯歌區文化路427-5號","121.355198333333","24.948305","6500800","鶯歌區"
"239006","891-R6","2018/07/12 19:49:33","新北市鶯歌區文化路55號","121.359018333333","24.9554066666667","6500800","鶯歌區"
"221008","489-VK","2018/07/12 19:49:22","新北市汐止區康寧街83巷24號","121.620248333333","25.0670616666667","6501100","汐止區"
"221036","130-UY","2018/07/12 19:49:30","新北市汐止區汐萬路一段312號","121.650381666667","25.074965","6501100","汐止區"
"221015","131-UY","2018/07/12 19:49:27","新北市汐止區忠孝東路408號","121.665876666667","25.07115","6501100","汐止區"
"221010","269-BY","2018/07/12 19:49:24","新北市汐止區汐萬路一段418巷3號","121.649731666667","25.07844","6501100","汐止區"
"221012","278-VK","2018/07/12 19:49:16","新北市汐止區大同路三段400號","121.681805","25.0716716666667","6501100","汐止區"
"221023","279-VK","2018/07/12 19:49:19","新北市汐止區民族三街43號","121.62974","25.0699566666667","6501100","汐止區"
"221032","280-BY","2018/07/12 19:49:15","新北市汐止區橫科路403巷13號","121.624846666667","25.0476616666667","6501100","汐止區"
"221027","281-BY","2018/07/12 19:49:28","新北市汐止區大同路二段583號","121.663523333333","25.0701166666667","6501100","汐止區"
"221033","297-VK","2018/07/12 19:49:31","新北市汐止區東勢街76巷100-1號","121.63644","25.039","6501100","汐止區"
"221029","298-VK","2018/07/12 19:49:17","新北市汐止區汐萬路一段312號","121.65019","25.0755216666667","6501100","汐止區"
"221021","299-VK","2018/07/12 19:49:30","新北市汐止區莊敬街1號","121.657826666667","25.0616933333333","6501100","汐止區"
"221031","353-TW","2018/07/12 19:49:21","新北市汐止區福德二路54巷2弄1號","121.633821666667","25.0674116666667","6501100","汐止區"
"221035","622-UM","2018/07/12 19:49:14","新北市汐止區長江街13巷6弄1號","121.654735","25.0716783333333","6501100","汐止區"
"221025","623-UM","2018/07/12 19:49:25","新北市汐止區秀峰路81巷15弄4-1號","121.660811666667","25.06465","6501100","汐止區"
"221038","646-BX","2018/07/12 19:49:28","新北市汐止區忠孝東路411號","121.66573","25.0712866666667","6501100","汐止區"
"221018","753-BX","2018/07/12 19:49:14","新北市汐止區大同路二段527號","121.66178","25.0689966666667","6501100","汐止區"
"220079","145-BY","2018/07/12 19:49:25","新北市板橋區中正路135巷12弄19號","121.455348333333","25.01608","6500100","板橋區"
"220080","200-UY","2018/07/12 19:49:24","新北市板橋區大觀路二段67號","121.446651666667","25.0023516666667","6500100","板橋區"
"220082","610-BX","2018/07/12 19:49:25","新北市板橋區大觀路三段236-15號","121.429566666667","24.9921383333333","6500100","板橋區"
"220101","245-BX","2018/07/12 19:49:19","新北市板橋區縣民大道三段79巷13號","121.475068333333","25.0220483333333","6500100","板橋區"
"220056","276-BY","2018/07/12 19:49:21","新北市板橋區四川路二段99巷3號","121.452753333333","24.994505","6500100","板橋區"
"220071","283-VK","2018/07/12 19:49:31","新北市板橋區五權街32巷22號","121.464105","24.9928683333333","6500100","板橋區"
"220094","285-UM","2018/07/12 19:49:16","新北市板橋區長江路一段144號","121.460825","25.03016","6500100","板橋區"
"220053","285-VK","2018/07/12 19:49:21","新北市板橋區中山路二段60巷15號","121.474385","25.0151666666667","6500100","板橋區"
"220083","286-VK","2018/07/12 19:49:16","新北市板橋區僑中二街86號","121.446536666667","25.009505","6500100","板橋區"
"220081","287-VK","2018/07/12 19:49:29","新北市板橋區大觀路一段29巷17號","121.450173333333","25.007985","6500100","板橋區"
"220090","288-VK","2018/07/12 19:49:15","新北市板橋區龍泉街54巷8弄10號","121.457375","25.0268583333333","6500100","板橋區"
"220061","293-UM","2018/07/12 19:49:26","新北市板橋區中山路一段283巷2弄19號","121.470593333333","25.0151683333333","6500100","板橋區"
"220084","296-UM","2018/07/12 19:49:26","新北市板橋區滿平街84巷45弄3號","121.427123333333","24.9884433333333","6500100","板橋區"
"242019","281-VK","2018/07/12 19:49:23","新北市新莊區新泰路214號","121.446741666667","25.0388333333333","6500500","新莊區"
"220075","303-R5","2018/07/12 19:49:30","新北市板橋區金華街10巷48弄56號","121.459098333333","25.0201366666667","6500100","板橋區"
"220062","305-R5","2018/07/12 19:49:25","新北市板橋區光復街33巷17號","121.482056666667","25.0189716666667","6500100","板橋區"
"220092","307-R5","2018/07/12 19:49:27","新北市板橋區陽明街164巷10弄18號","121.464118333333","25.024055","6500100","板橋區"
"220098","317-R6","2018/07/12 19:49:20","新北市板橋區新海路404號","121.458591666667","25.0269033333333","6500100","板橋區"
"220064","486-VK","2018/07/12 19:49:22","新北市板橋區館前東路106號","121.462925","25.007515","6500100","板橋區"
"242034","280-VK","2018/07/12 19:49:31","新北市新莊區公園一路110號","121.444306666667","25.037645","6500500","新莊區"
"220088","491-VK","2018/07/12 19:49:17","新北市板橋區文聖街72-5號","121.477198333333","25.0305333333333","6500100","板橋區"
"220035","560-BX","2018/07/12 19:49:15","新北市板橋區新生街29巷2弄1號","121.45653","25.021585","6500100","板橋區"
"220103","561-BX","2018/07/12 19:49:17","新北市板橋區陽明街29巷2號","121.465286666667","25.02172","6500100","板橋區"
"220072","568-UM","2018/07/12 19:49:18","新北市板橋區金門街122號","121.432945","24.991495","6500100","板橋區"
"220063","609-BX","2018/07/12 19:49:24","新北市板橋區三民路一段131號","121.479285","25.0204066666667","6500100","板橋區"
"220091","637-BX","2018/07/12 19:49:18","新北市板橋區懷德街174巷12號","121.478925","25.029585","6500100","板橋區"
"220057","686-BX","2018/07/12 19:49:27","新北市板橋區廣權路2號","121.460243333333","24.9908016666667","6500100","板橋區"
"220093","689-BX","2018/07/12 19:49:20","新北市板橋區長江路二段299號","121.470596666667","25.0331583333333","6500100","板橋區"
"220054","741-BX","2018/07/12 19:49:29","新北市板橋區忠孝路忠義巷15弄35號","121.465623333333","25.004475","6500100","板橋區"
"220102","KEA-2699","2018/07/12 19:49:22","新北市板橋區松柏街50巷25號","121.475945","25.0297666666667","6500100","板橋區"
"220077","806-UM","2018/07/12 19:49:15","新北市板橋區僑中一街124巷19弄2號","121.446168333333","25.0142066666667","6500100","板橋區"
"220055","827-TW","2018/07/12 19:49:21","新北市板橋區國慶路167巷17號","121.461805","24.9972733333333","6500100","板橋區"
"220067","829-TW","2018/07/12 19:49:29","新北市板橋區長安街295號","121.47443","25.0119716666667","6500100","板橋區"
"220096","830-TW","2018/07/12 19:49:12","新北市板橋區民生路二段226巷46號","121.471608333333","25.0223216666667","6500100","板橋區"
"220089","833-TW","2018/07/12 19:49:19","新北市板橋區龍泉街94-4號","121.456628333333","25.025085","6500100","板橋區"
"220074","895-R6","2018/07/12 19:49:20","新北市板橋區文化路一段52巷10號","121.460655","25.0116333333333","6500100","板橋區"
"220073","985-R7","2018/07/12 19:49:29","新北市板橋區大仁街85號","121.453666666667","25.0160416666667","6500100","板橋區"
"220097","AAC-210","2018/07/12 19:49:13","新北市板橋區文化路一段285巷1弄2號","121.464233333333","25.018705","6500100","板橋區"
"220070","AAC-253","2018/07/12 19:49:28","新北市板橋區成都街43號","121.461255","25.0047716666667","6500100","板橋區"
"235068","KEA-2873","2018/07/12 19:49:08","新北市中和區福美路301巷25號","121.497678333333","25.00393","6500300","中和區"
"235061","KEA-2875","2018/07/12 19:49:06","新北市中和區員山路198號","121.481333333333","25.0005066666667","6500300","中和區"
