"lineid","car","time","location","longitude","latitude","cityid","cityname"
"234046","148-BY","2018/07/12 19:59:16","新北市永和區成功路一段69號","121.526983333333","25.003365","6500400","永和區"
"234007","207-UY","2018/07/12 19:59:26","新北市永和區中山路一段238號","121.50743","25.0077766666667","6500400","永和區"
"234081","298-R6","2018/07/12 19:59:24","新北市永和區永利路85-1號","121.521411666667","25.0033383333333","6500400","永和區"
"234038","336-UY","2018/07/12 19:59:22","新北市永和區成功路二段152-2號","121.526531666667","24.9966633333333","6500400","永和區"
"234064","337-UY","2018/07/12 19:59:25","新北市永和區中正路412巷2弄12號","121.518515","25.00186","6500400","永和區"
"234070","552-UM","2018/07/12 19:59:15","新北市永和區國光路37號","121.519221666667","25.00835","6500400","永和區"
"234086","553-UM","2018/07/12 19:59:25","新北市永和區福和路85號","121.522231666667","25.0077766666667","6500400","永和區"
"234017","745-BX","2018/07/12 19:59:16","新北市永和區文化路53號","121.514245","25.0150616666667","6500400","永和區"
"234030","746-BX","2018/07/12 19:59:21","新北市永和區民生路22巷3號","121.522173333333","24.9972783333333","6500400","永和區"
"234054","KEA-2590","2018/07/12 19:59:15","新北市永和區博愛街47巷2號","121.51959","25.01592","6500400","永和區"
"234013","KEA-2591","2018/07/12 19:59:16","新北市永和區保生路55號","121.504698333333","25.0105633333333","6500400","永和區"
"234061","AAD-866","2018/07/12 19:59:30","新北市永和區中正路283巷11號","121.516893333333","25.0005483333333","6500400","永和區"
"234042","862-TW","2018/07/12 19:59:16","新北市永和區中和路389巷13號","121.508081666667","25.0010116666667","6500400","永和區"
"234050","863-TW","2018/07/12 19:59:24","新北市永和區永平路247號","121.506588333333","25.0127816666667","6500400","永和區"
"234026","9371-KE","2018/07/12 19:59:25","新北市永和區水源街27巷3號","121.5112","25.0042733333333","6500400","永和區"
"234011","9373-KE","2018/07/12 19:59:27","新北市永和區仁愛路352巷124號","121.50025","25.00855","6500400","永和區"
"249005","172-UM","2018/07/12 19:59:17","新北市八里區楓林路3-3號","121.38237","25.1303533333333","6502300","八里區"
"249001","173-UM","2018/07/12 19:59:17","新北市八里區中華路二段310號","121.403843333333","25.1483416666667","6502300","八里區"
"249004","303-UY","2018/07/12 19:59:15","新北市八里區中華路一段333-1號","121.4133","25.1538266666667","6502300","八里區"
"249002","305-UY","2018/07/12 19:59:28","新北市八里區頂寮二街1號","121.450983333333","25.1238733333333","6502300","八里區"
"249003","593-UM","2018/07/12 19:59:25","新北市八里區中華路二段560巷3號","121.398641666667","25.1450566666667","6502300","八里區"
"248016","026-BX","2018/07/12 19:59:20","新北市五股區成泰路三段577巷80弄7號","121.449553333333","25.1043383333333","6501500","五股區"
"248008","095-VK","2018/07/12 19:59:23","新北市五股區中興路一段1巷13號","121.469558333333","25.0714466666667","6501500","五股區"
"248020","225-UY","2018/07/12 19:59:24","新北市五股區凌雲路三段60號","121.430221666667","25.110135","6501500","五股區"
"248012","247-BX","2018/07/12 19:59:20","新北市五股區民義路一段109號","121.43414","25.0864266666667","6501500","五股區"
"248014","261-SL","2018/07/12 19:59:25","新北市五股區五福路14巷8號","121.4348","25.088735","6501500","五股區"
"248004","677-BX","2018/07/12 19:59:27","新北市五股區成泰路一段32巷62號","121.435035","25.0669433333333","6501500","五股區"
"248002","678-BX","2018/07/12 19:59:34","新北市五股區成泰路三段487號","121.450706666667","25.0992833333333","6501500","五股區"
"248010","682-TV","2018/07/12 19:59:15","新北市五股區登林路49號","121.431131666667","25.069225","6501500","五股區"
"234077","969-R7","2018/07/12 19:59:26","新北市永和區智光街94號","121.516123333333","24.9969966666667","6500400","永和區"
"234074","AAC-211","2018/07/12 19:59:27","新北市永和區豫溪街191巷3弄1號","121.523286666667","25.0103983333333","6500400","永和區"
"234067","AAC-212","2018/07/12 19:59:14","新北市永和區中山路一段255巷20號","121.508356666667","25.0071033333333","6500400","永和區"
"234003","AAC-295","2018/07/12 19:59:29","新北市永和區永和路二段37號","121.514508333333","25.0106416666667","6500400","永和區"
"243010","267-VK","2018/07/12 19:59:21","新北市泰山區中華街14巷1號","121.427673333333","25.0523366666667","6501600","泰山區"
"243013","AAD-798","2018/07/12 19:59:22","新北市泰山區應化街7號","121.423853333333","25.0437216666667","6501600","泰山區"
"243009","297-R6","2018/07/12 19:59:22","新北市泰山區楓江路16巷23號","121.43405","25.0615266666667","6501600","泰山區"
"243016","380-SR","2018/07/12 19:59:26","新北市泰山區貴鳳街2號","121.421188333333","25.03108","6501600","泰山區"
"243015","421-VK","2018/07/12 19:59:18","新北市泰山區明志路二段194號","121.427481666667","25.04965","6501600","泰山區"
"243011","KEA-2215","2018/07/12 19:59:15","新北市泰山區明志路三段196巷54號","121.421568333333","25.0401466666667","6501600","泰山區"
"243012","646-TV","2018/07/12 19:59:28","新北市泰山區全興路81號","121.432951666667","25.0579933333333","6501600","泰山區"
"243014","680-BX","2018/07/12 19:59:17","新北市泰山區泰林路二段105號","121.434608333333","25.059055","6501600","泰山區"
"222002","016-RS","2018/07/12 19:59:24","新北市深坑區北深路二段81巷8弄1號","121.618358333333","25.00302","6501800","深坑區"
"222003","436-BY","2018/07/12 19:59:30","新北市深坑區埔新街14號","121.620765","25.0039216666667","6501800","深坑區"
"231041","002-UM","2018/07/12 19:59:15","新北市新店區中正路352號","121.535915","24.97553","6500600","新店區"
"231059","046-UY","2018/07/12 19:59:13","新北市新店區安和路一段15號","121.516895","24.9642033333333","6500600","新店區"
"231040","047-UY","2018/07/12 19:59:11","新北市新店區中正路61號","121.544158333333","24.9699633333333","6500600","新店區"
"231044","106-UY","2018/07/12 19:59:21","新北市新店區復興路38號","121.538985","24.9867466666667","6500600","新店區"
"231046","107-UY","2018/07/12 19:59:26","新北市新店區三民路159巷19弄1號","121.532798333333","24.9743183333333","6500600","新店區"
"231065","110-UY","2018/07/12 19:59:24","新北市新店區安祥路106-1號","121.478576666667","24.961935","6500600","新店區"
"231047","187-VK","2018/07/12 19:59:23","新北市新店區寶宏路3號","121.549153333333","24.97684","6500600","新店區"
"231054","KEA-2219","2018/07/12 19:59:21","新北市新店區光明街137號","121.539433333333","24.9620233333333","6500600","新店區"
"231057","256-BX","2018/07/12 19:59:30","新北市新店區花園二路一段11號","121.55549","24.9325216666667","6500600","新店區"
"231042","268-BY","2018/07/12 19:59:19","新北市新店區中正路7號","121.545826666667","24.9692033333333","6500600","新店區"
"231051","278-BY","2018/07/12 19:59:14","新北市新店區中央二街10號","121.52906","24.9731966666667","6500600","新店區"
"231050","AAD-862","2018/07/12 19:59:19","新北市新店區北宜路二段112號","121.556338333333","24.9537533333333","6500600","新店區"
"231056","4715-K9","2018/07/12 19:59:15","新北市新店區北新路二段200號","121.542898333333","24.9767","6500600","新店區"
"231067","4772-VM","2018/07/12 19:59:25","新北市新店區安康路一段144號","121.526468333333","24.9628683333333","6500600","新店區"
"231049","513-UM","2018/07/12 19:59:27","新北市新店區民族路11號","121.541608333333","24.97879","6500600","新店區"
"231063","616-UM","2018/07/12 19:59:30","新北市新店區車子路11號","121.502788333333","24.95103","6500600","新店區"
"231061","619-UM","2018/07/12 19:59:16","新北市新店區安民街306號","121.517605","24.9739166666667","6500600","新店區"
"231068","718-UY","2018/07/12 19:59:18","新北市新店區安一路一段1-1號","121.519203333333","24.9611633333333","6500600","新店區"
"231064","719-UM","2018/07/12 19:59:18","新北市新店區碧安街36號","121.517468333333","24.9690233333333","6500600","新店區"
"231052","719-UY","2018/07/12 19:59:22","新北市新店區新烏路三段290巷13號","121.548495","24.8974033333333","6500600","新店區"
"231062","720-UM","2018/07/12 19:59:30","新北市新店區華潭街51號","121.52892","24.9543066666667","6500600","新店區"
"231060","897-TW","2018/07/12 19:59:25","新北市新店區安康路二段393號","121.494418333333","24.9541866666667","6500600","新店區"
"231045","898-TW","2018/07/12 19:59:17","新北市新店區北宜路二段82-12號","121.554613333333","24.95352","6500600","新店區"
"231043","899-TW","2018/07/12 19:59:26","新北市新店區中正路263-2號","121.538373333333","24.9737","6500600","新店區"
"231055","AKT-0513","2018/07/12 19:59:18","新北市新店區中華路83巷67號","121.538331666667","24.9672783333333","6500600","新店區"
"241011","013-R5","2018/07/12 19:59:15","新北市三重區三和路二段165號","121.497938333333","25.069605","6500200","三重區"
"241028","022-UY","2018/07/12 19:59:31","新北市三重區重新路三段90號","121.493048333333","25.060795","6500200","三重區"
"241008","059-VK","2018/07/12 19:59:21","新北市三重區永福街179巷25號","121.478018333333","25.0748666666667","6500200","三重區"
"241022","060-VK","2018/07/12 19:59:20","新北市三重區新北大道一段11號","121.488656666667","25.060605","6500200","三重區"
"241031","061-VK","2018/07/12 19:59:18","新北市三重區重新路四段144巷30號","121.487133333333","25.0551483333333","6500200","三重區"
"241015","062-VK","2018/07/12 19:59:13","新北市三重區三和路二段27號","121.501101666667","25.06703","6500200","三重區"
"241017","063-VK","2018/07/12 19:59:23","新北市三重區重陽路四段2號","121.490355","25.06875","6500200","三重區"
"241026","066-VK","2018/07/12 19:59:23","新北市三重區仁慈街32號","121.502315","25.0631816666667","6500200","三重區"
"241003","091-VK","2018/07/12 19:59:31","新北市三重區仁愛街455號","121.489916666667","25.0817033333333","6500200","三重區"
"241005","262-UM","2018/07/12 19:59:17","新北市三重區溪尾街325巷32號","121.488661666667","25.0834983333333","6500200","三重區"
"241016","266-UM","2018/07/12 19:59:17","新北市三重區正義北路48巷3號","121.496978333333","25.06373","6500200","三重區"
"241009","267-UM","2018/07/12 19:59:23","新北市三重區三和路四段390巷10號","121.48155","25.0789716666667","6500200","三重區"
"241018","268-UM","2018/07/12 19:59:25","新北市三重區正義北路244巷24號","121.495295","25.0680333333333","6500200","三重區"
"241032","269-UM","2018/07/12 19:59:29","新北市三重區捷運路65號","121.483386666667","25.0555833333333","6500200","三重區"
"241013","270-UM","2018/07/12 19:59:27","新北市三重區三和路三段125巷33號","121.49398","25.0737066666667","6500200","三重區"
"241007","398-BY","2018/07/12 19:59:30","新北市三重區溪尾街154號","121.488853333333","25.07995","6500200","三重區"
"241035","KEA-2210","2018/07/12 19:59:22","新北市三重區大榮街9號","121.49826","25.063105","6500200","三重區"
"241025","413-TH","2018/07/12 19:59:12","新北市三重區頂崁街210巷16號","121.47652","25.0677116666667","6500200","三重區"
"241004","475-VK","2018/07/12 19:59:20","新北市三重區五華街74號","121.493395","25.082035","6500200","三重區"
"241020","478-VK","2018/07/12 19:59:25","新北市三重區大智街163號","121.489865","25.07239","6500200","三重區"
"241030","480-VK","2018/07/12 19:59:21","新北市三重區重新路四段248-1號","121.486185","25.0533983333333","6500200","三重區"
"241014","543-UM","2018/07/12 19:59:14","新北市三重區三和路二段156號","121.499476666667","25.068415","6500200","三重區"
"241001","547-UM","2018/07/12 19:59:31","新北市三重區福隆路56號","121.49273","25.0785616666667","6500200","三重區"
"241019","KEA-2593","2018/07/12 19:59:15","新北市三重區重陽路四段20號","121.490983333333","25.06924","6500200","三重區"
"241006","AAD-863","2018/07/12 19:59:27","新北市三重區力行路二段33巷10號","121.482483333333","25.07377","6500200","三重區"
"241023","887-TS","2018/07/12 19:59:23","新北市三重區大有街1-9號","121.477625","25.0660116666667","6500200","三重區"
"241012","941-UM","2018/07/12 19:59:22","新北市三重區仁厚街51號","121.500443333333","25.0765933333333","6500200","三重區"
"241029","942-UM","2018/07/12 19:59:18","新北市三重區重新路三段204號","121.490141666667","25.0582416666667","6500200","三重區"
"241033","AAC-255","2018/07/12 19:59:32","新北市三重區中興北街20號","121.46956","25.0484733333333","6500200","三重區"
"235066","003-UY","2018/07/12 19:59:22","新北市中和區中山路二段6號","121.50509","25.0057016666667","6500300","中和區"
"235056","096-UM","2018/07/12 19:59:30","新北市中和區中山路三段170巷8弄24號","121.473085","25.0076716666667","6500300","中和區"
"235039","097-UM","2018/07/12 19:59:18","新北市中和區景平路276-1號","121.513936666667","24.9925433333333","6500300","中和區"
"235065","098-UM","2018/07/12 19:59:19","新北市中和區福祥路58號","121.499413333333","25.0047766666667","6500300","中和區"
"235040","150-BY","2018/07/12 19:59:19","新北市中和區保健路24號","121.508421666667","24.997875","6500300","中和區"
"235058","151-BY","2018/07/12 19:59:29","新北市中和區員山路150巷2弄33號","121.481708333333","24.9976816666667","6500300","中和區"
"235049","186-VK","2018/07/12 19:59:25","新北市中和區南華路11號","121.502308333333","24.99555","6500300","中和區"
"235067","255-BX","2018/07/12 19:59:29","新北市中和區員山路148巷23弄6號","121.482255","24.9976083333333","6500300","中和區"
"235044","293-VK","2018/07/12 19:59:12","新北市中和區中正路93號","121.500185","24.9933983333333","6500300","中和區"
"235050","4979-A6","2018/07/12 19:59:16","新北市中和區景平路241巷64弄7號","121.507565","24.9924316666667","6500300","中和區"
"235069","4980-A6","2018/07/12 19:59:16","新北市中和區南山路4巷11號","121.50113","24.9987283333333","6500300","中和區"
"235070","558-UM","2018/07/12 19:59:19","新北市中和區圓通路227號","121.496455","24.9942283333333","6500300","中和區"
"235054","640-BX","2018/07/12 19:59:31","新北市中和區莒光路5號","121.471856666667","25.0060183333333","6500300","中和區"
"235046","733-UM","2018/07/12 19:59:21","新北市中和區興南路一段105巷20弄1號","121.51021","24.98573","6500300","中和區"
"235041","802-TS","2018/07/12 19:59:21","新北市中和區安和路43號","121.509631666667","24.99475","6500300","中和區"
"235052","805-TS","2018/07/12 19:59:18","新北市中和區華新街30巷20弄1-2號","121.506543333333","24.98397","6500300","中和區"
"235048","896-TW","2018/07/12 19:59:26","新北市中和區景新街385號","121.512511666667","24.9901016666667","6500300","中和區"
"235051","157-BY","2018/07/12 19:59:23","新北市中和區景安路247巷12號","121.504311666667","24.9905533333333","6500300","中和區"
"235037","AAC-213","2018/07/12 19:59:27","新北市中和區自立路99巷2號","121.522323333333","24.9947416666667","6500300","中和區"
"235059","AAC-215","2018/07/12 19:59:24","新北市中和區圓通路333號","121.491953333333","24.99047","6500300","中和區"
"220068","013-TV","2018/07/12 19:59:31","新北市板橋區光復街222號","121.485178333333","25.020925","6500100","板橋區"
"220065","072-UY","2018/07/12 19:59:22","新北市板橋區民族路69巷2弄1號","121.465696666667","25.0091433333333","6500100","板橋區"
"220106","075-UY","2018/07/12 19:59:30","新北市板橋區民治街71巷27號","121.480561666667","25.0328333333333","6500100","板橋區"
"220069","AAD-861","2018/07/12 19:59:22","新北市板橋區大明街25巷2弄23號","121.45748","25.0025183333333","6500100","板橋區"
"247024","893-R6","2018/07/12 19:59:28","新北市蘆洲區中正路299巷10號","121.465766666667","25.0879433333333","6501400","蘆洲區"
"247014","546-UM","2018/07/12 19:59:20","新北市蘆洲區成功路108號","121.472445","25.0822583333333","6501400","蘆洲區"
"247004","337-TH","2018/07/12 19:59:27","新北市蘆洲區長安街196號","121.458716666667","25.08401","6501400","蘆洲區"
"247006","336-TH","2018/07/12 19:59:31","新北市蘆洲區九芎街82號","121.466163333333","25.0794833333333","6501400","蘆洲區"
"247008","053-VK","2018/07/12 19:59:32","新北市蘆洲區中山一路61巷41號","121.477413333333","25.0805633333333","6501400","蘆洲區"
"247016","007-UY","2018/07/12 19:59:23","新北市蘆洲區光華路2號","121.469935","25.083585","6501400","蘆洲區"
"247002","002-UY","2018/07/12 19:59:30","新北市蘆洲區長安街272號","121.457328333333","25.08698","6501400","蘆洲區"
"247020","001-UY","2018/07/12 19:59:21","新北市蘆洲區民義街59號","121.47287","25.0899216666667","6501400","蘆洲區"
"228003","097-TW","2018/07/12 19:59:22","新北市貢寮區仁理村仁和路214號","121.923646666667","25.0531416666667","6502600","貢寮區"
"224010","AGQ-8101","2018/07/12 19:59:15","新北市瑞芳區輕便路300號","121.843513333333","25.1088366666667","6501200","瑞芳區"
"224002","639-TC","2018/07/12 19:59:25","新北市瑞芳區員山子路17-6號","121.823256666667","25.1022283333333","6501200","瑞芳區"
"227010","642-TC","2018/07/12 19:59:14","新北市雙溪區新基里新基南街25號","121.866241666667","25.038165","6502500","雙溪區"
"227004","400-TW","2018/07/12 19:59:30","新北市雙溪區雙溪里長安街16號","121.864971666667","25.0346933333333","6502500","雙溪區"
"222001","KEA-2212","2018/07/12 19:59:14","新北市深坑區北深路三段157-1號","121.601916666667","25.0031183333333","6501800","深坑區"
"208002","KEA-2872","2018/07/12 19:59:30","新北市金山區中正路149號","121.631736666667","25.2211583333333","6502700","金山區"
"208003","665-BX","2018/07/12 19:59:30","新北市金山區永興里濆水路10號","121.623911666667","25.2712616666667","6502700","金山區"
"208001","761-BX","2018/07/12 19:59:22","新北市金山區重和里茅埔頭15號","121.602023333333","25.21391","6502700","金山區"
"251016","008-UM","2018/07/12 19:59:26","新北市淡水區淡金路四段457號","121.451863333333","25.2230183333333","6501000","淡水區"
"251004","009-UM","2018/07/12 19:59:27","新北市淡水區民族路50巷2弄2號","121.461351666667","25.1358233333333","6501000","淡水區"
"251001","011-UM","2018/07/12 19:59:28","新北市淡水區淡金路二段599號","121.445958333333","25.1924683333333","6501000","淡水區"
"251013","KEA-2871","2018/07/12 19:59:27","新北市淡水區下圭柔山63-7號","121.451726666667","25.2061733333333","6501000","淡水區"
"251014","180-VK","2018/07/12 19:59:18","新北市淡水區石頭厝3-2號","121.45925","25.235255","6501000","淡水區"
"251015","181-VK","2018/07/12 19:59:18","新北市淡水區埤島80-7號","121.448875","25.18847","6501000","淡水區"
"251010","413-VK","2018/07/12 19:59:24","新北市淡水區下圭柔山91-4號","121.42898","25.20785","6501000","淡水區"
"251012","441-VK","2018/07/12 19:59:16","新北市淡水區下圭柔山93號","121.436018333333","25.20898","6501000","淡水區"
"251008","442-VK","2018/07/12 19:59:26","新北市淡水區淡海路72巷28弄1號","121.424328333333","25.1821866666667","6501000","淡水區"
"251005","443-VK","2018/07/12 19:59:20","新北市淡水區學府路136巷26號","121.451536666667","25.172675","6501000","淡水區"
"251006","561-UM","2018/07/12 19:59:16","新北市淡水區水碓街36號","121.44437","25.1772816666667","6501000","淡水區"
"251009","575-R6","2018/07/12 19:59:18","新北市淡水區英專路28巷20號","121.445865","25.16983","6501000","淡水區"
"251011","650-BX","2018/07/12 19:59:25","新北市淡水區崁頂55-3號","121.442315","25.1966783333333","6501000","淡水區"
"251003","673-BX","2018/07/12 19:59:28","新北市淡水區中山北路二段189巷15弄29號","121.443341666667","25.1841983333333","6501000","淡水區"
"207003","550-UM","2018/07/12 19:59:17","新北市萬里區磺潭里公館崙13號","121.640696666667","25.2135633333333","6502800","萬里區"
"207004","225-TW","2018/07/12 19:59:15","新北市萬里區北基里忠二街35號","121.685633333333","25.17574","6502800","萬里區"
"252002","178-VK","2018/07/12 19:59:24","新北市三芝區忠孝街116-3號","121.505485","25.2575233333333","6502100","三芝區"
"252001","292-VK","2018/07/12 19:59:17","新北市三芝區公正街9號","121.499751666667","25.2575133333333","6502100","三芝區"
"237004","KEA-2597","2018/07/12 19:59:13","新北市三峽區添福6號","121.372065","24.905765","6500900","三峽區"
"237007","153-BY","2018/07/12 19:59:27","新北市三峽區麻園46號","121.363718333333","24.9213383333333","6500900","三峽區"
"237009","210-TH","2018/07/12 19:59:20","新北市三峽區民族街28巷2-1號","121.3692","24.9309033333333","6500900","三峽區"
"237012","275-BY","2018/07/12 19:59:19","新北市三峽區中華路96號","121.371073333333","24.9281083333333","6500900","三峽區"
"237008","302-VK","2018/07/12 19:59:28","新北市三峽區中正路一段174巷4弄6號","121.37244","24.92886","6500900","三峽區"
"237014","433-BY","2018/07/12 19:59:25","新北市三峽區添福13-35號","121.374745","24.90829","6500900","三峽區"
"237006","5529-G3","2018/07/12 19:59:26","新北市三峽區中正路二段156號","121.366028333333","24.9159316666667","6500900","三峽區"
"237016","649-BX","2018/07/12 19:59:11","新北市三峽區溪東路137號","121.402591666667","24.934255","6500900","三峽區"
"237005","AKY-6261","2018/07/12 19:59:26","新北市三峽區民生街1巷19-15號","121.379393333333","24.9362283333333","6500900","三峽區"
"236042","107-UM","2018/07/12 19:59:21","新北市土城區學府路一段124-4號","121.45533","24.9874116666667","6501300","土城區"
"236078","166-UM","2018/07/12 19:59:28","新北市土城區福安街108號","121.417193333333","24.96391","6501300","土城區"
"236030","253-BX","2018/07/12 19:59:16","新北市土城區中央路一段252號","121.444243333333","24.9846466666667","6501300","土城區"
"236026","269-VK","2018/07/12 19:59:21","新北市土城區員林街1號","121.44241","24.9781716666667","6501300","土城區"
"236014","270-VK","2018/07/12 19:59:30","新北市土城區廣福街123號","121.456255","24.9928516666667","6501300","土城區"
"236038","271-VK","2018/07/12 19:59:16","新北市土城區國際路36巷2號","121.4659","24.9793283333333","6501300","土城區"
"236070","KEA-2877","2018/07/12 19:59:27","新北市土城區忠義路77號","121.44301","24.9651033333333","6501300","土城區"
"236021","401-BY","2018/07/12 19:59:27","新北市土城區延吉街111巷12弄15-3號","121.4716","24.9849316666667","6501300","土城區"
"236063","752-BX","2018/07/12 19:59:29","新北市土城區金城路三段73巷9弄1號","121.466196666667","24.9876183333333","6501300","土城區"
"236059","912-UM","2018/07/12 19:59:22","新北市土城區中央路一段275號","121.444595","24.9848016666667","6501300","土城區"
"236049","913-UM","2018/07/12 19:59:25","新北市土城區金城路三段188號","121.468313333333","24.98785","6501300","土城區"
"236055","AAC-216","2018/07/12 19:59:13","新北市土城區立德路35號","121.462265","24.9879616666667","6501300","土城區"
"242058","986-R7","2018/07/12 19:59:27","新北市新莊區八德街17號","121.425218333333","25.0226433333333","6500500","新莊區"
"242053","751-BX","2018/07/12 19:59:12","新北市新莊區西盛街418號","121.427235","25.0122066666667","6500500","新莊區"
"242025","613-BX","2018/07/12 19:59:27","新北市新莊區五工一路86號","121.461365","25.067405","6500500","新莊區"
"242029","612-BX","2018/07/12 19:59:21","新北市新莊區中榮街152巷18號","121.446063333333","25.0534616666667","6500500","新莊區"
"242046","497-BY","2018/07/12 19:59:18","新北市新莊區裕民街19巷2弄1號","121.41959","25.0252516666667","6500500","新莊區"
"242038","442-UM","2018/07/12 19:59:11","新北市新莊區民安路272號","121.427603333333","25.021405","6500500","新莊區"
"242056","440-UM","2018/07/12 19:59:18","新北市新莊區中正路347巷17弄6號","121.447383333333","25.0343666666667","6500500","新莊區"
"242036","415-TV","2018/07/12 19:59:26","新北市新莊區建安街27號","121.42891","25.0259316666667","6500500","新莊區"
"242007","413-TV","2018/07/12 19:59:26","新北市新莊區榮華路一段2號","121.457928333333","25.055885","6500500","新莊區"
"242044","400-BY","2018/07/12 19:59:18","新北市新莊區中正路742巷3弄11號","121.41298","25.02306","6500500","新莊區"
"242023","362-BY","2018/07/12 19:59:17","新北市新莊區化成路201號","121.465898333333","25.0507766666667","6500500","新莊區"
"242061","353-BY","2018/07/12 19:59:17","新北市新莊區瓊林路72-1號","121.445038333333","25.0286833333333","6500500","新莊區"
"242031","135-UY","2018/07/12 19:59:29","新北市新莊區忠孝街29巷32號","121.443613333333","25.036895","6500500","新莊區"
"242048","172-VK","2018/07/12 19:59:25","新北市新莊區富國路109巷2號","121.42382","25.0250883333333","6500500","新莊區"
"242011","173-VK","2018/07/12 19:59:20","新北市新莊區中港路531巷35號","121.449948333333","25.0513683333333","6500500","新莊區"
"242017","175-VK","2018/07/12 19:59:28","新北市新莊區中安街33號","121.452483333333","25.0459516666667","6500500","新莊區"
"242004","176-VK","2018/07/12 19:59:17","新北市新莊區化成路231號","121.46564","25.052515","6500500","新莊區"
"242015","346-TH","2018/07/12 19:59:31","新北市新莊區泰順街33巷9號","121.446041666667","25.0427333333333","6500500","新莊區"
"242021","348-TH","2018/07/12 19:59:15","新北市新莊區建中街32巷21號","121.44873","25.0381916666667","6500500","新莊區"
"242002","349-TH","2018/07/12 19:59:15","新北市新莊區中正路190號","121.44975","25.0355266666667","6500500","新莊區"
"242013","351-TH","2018/07/12 19:59:22","新北市新莊區中港路451號","121.452555","25.0484766666667","6500500","新莊區"
"238022","KEA-2213","2018/07/12 19:58:20","新北市樹林區中山路三段214號","121.380026666667","24.9678233333333","6500700","樹林區"
"238021","KEA-2539","2018/07/12 19:59:24","新北市樹林區佳園路三段99巷31-1號","121.390878333333","24.952255","6500700","樹林區"
"239007","AAC-297","2018/07/12 19:59:27","新北市鶯歌區二甲路12-2號","121.345825","24.9348583333333","6500800","鶯歌區"
"221008","489-VK","2018/07/12 19:59:22","新北市汐止區康寧街39號","121.61853","25.0668166666667","6501100","汐止區"
"221036","130-UY","2018/07/12 19:59:30","新北市汐止區新台五路二段85巷1號","121.664543333333","25.0670933333333","6501100","汐止區"
"221015","131-UY","2018/07/12 19:59:27","新北市汐止區建成路26號","121.664551666667","25.0726633333333","6501100","汐止區"
"221010","269-BY","2018/07/12 19:59:24","新北市汐止區連峰街225巷13號","121.644405","25.0809816666667","6501100","汐止區"
"221012","278-VK","2018/07/12 19:59:16","新北市汐止區大同路三段424號","121.682583333333","25.0723683333333","6501100","汐止區"
"221023","279-VK","2018/07/12 19:59:32","新北市汐止區明峰街200-1號","121.627746666667","25.0692683333333","6501100","汐止區"
"221032","280-BY","2018/07/12 19:59:15","新北市汐止區橫科路4巷1弄10號","121.617853333333","25.0507833333333","6501100","汐止區"
"221027","281-BY","2018/07/12 19:59:26","新北市汐止區中正路97號","121.660991666667","25.06945","6501100","汐止區"
"221033","297-VK","2018/07/12 19:59:11","新北市汐止區東勢街201巷32號","121.635101666667","25.0436066666667","6501100","汐止區"
"221029","298-VK","2018/07/12 19:59:17","新北市汐止區樟樹一路137巷26號","121.641013333333","25.0659883333333","6501100","汐止區"
"221021","299-VK","2018/07/12 19:59:16","新北市汐止區新台五路一段212-2號","121.655903333333","25.0627883333333","6501100","汐止區"
"221031","353-TW","2018/07/12 19:59:21","新北市汐止區福德一路245號","121.633856666667","25.06478","6501100","汐止區"
"221035","622-UM","2018/07/12 19:59:14","新北市汐止區長江街39巷5號","121.655508333333","25.0717333333333","6501100","汐止區"
"221025","623-UM","2018/07/12 19:59:25","新北市汐止區仁愛路77巷3號","121.66102","25.0633866666667","6501100","汐止區"
"221038","646-BX","2018/07/12 19:59:28","新北市汐止區忠孝東路486號","121.666233333333","25.074025","6501100","汐止區"
"221018","753-BX","2018/07/12 19:59:14","新北市汐止區茄苳路18號","121.664976666667","25.0707316666667","6501100","汐止區"
"220079","145-BY","2018/07/12 19:59:17","新北市板橋區南雅西路二段175巷7號","121.451623333333","25.01217","6500100","板橋區"
"220080","200-UY","2018/07/12 19:59:28","新北市板橋區大觀路二段167號","121.44534","25.00022","6500100","板橋區"
"220082","610-BX","2018/07/12 19:59:18","新北市板橋區大觀路三段100號","121.432638333333","24.99453","6500100","板橋區"
"220101","245-BX","2018/07/12 19:59:20","新北市板橋區萬板路118號","121.474973333333","25.0234316666667","6500100","板橋區"
"220071","283-VK","2018/07/12 19:59:31","新北市板橋區和平路174巷31號","121.464838333333","24.994335","6500100","板橋區"
"220094","285-UM","2018/07/12 19:59:26","新北市板橋區陽明街243號","121.4629","25.0244866666667","6500100","板橋區"
"220053","285-VK","2018/07/12 19:59:21","新北市板橋區中山路二段88號","121.475211666667","25.01629","6500100","板橋區"
"220083","286-VK","2018/07/12 19:59:24","新北市板橋區大觀路一段38巷156弄210號","121.44498","25.0106383333333","6500100","板橋區"
"220081","287-VK","2018/07/12 19:59:24","新北市板橋區僑中一街80巷3弄1號","121.447673333333","25.0121733333333","6500100","板橋區"
"220090","288-VK","2018/07/12 19:59:15","新北市板橋區新海路109巷1弄2號","121.460768333333","25.0223633333333","6500100","板橋區"
"220061","293-UM","2018/07/12 19:59:26","新北市板橋區觀光街90號","121.469416666667","25.0168966666667","6500100","板橋區"
"242019","281-VK","2018/07/12 19:59:23","新北市新莊區民生街15巷9號","121.45529","25.042615","6500500","新莊區"
"220092","307-R5","2018/07/12 19:59:27","新北市板橋區四維路259巷65號","121.460925","25.0268483333333","6500100","板橋區"
"220098","317-R6","2018/07/12 19:59:20","新北市板橋區新海路72巷58號","121.462101666667","25.0234183333333","6500100","板橋區"
"220064","486-VK","2018/07/12 19:59:19","新北市板橋區區運路8號","121.46513","25.0090966666667","6500100","板橋區"
"242034","280-VK","2018/07/12 19:59:31","新北市新莊區建中街94號","121.44677","25.0366133333333","6500500","新莊區"
"220088","491-VK","2018/07/12 19:59:21","新北市板橋區懷德街127巷1號","121.478853333333","25.0308866666667","6500100","板橋區"
"220035","560-BX","2018/07/12 19:59:15","新北市板橋區新生街37號","121.456685","25.0211166666667","6500100","板橋區"
"220103","561-BX","2018/07/12 19:59:31","新北市板橋區自由路22號","121.46554","25.0227266666667","6500100","板橋區"
"220072","568-UM","2018/07/12 19:59:27","新北市板橋區金門街107號","121.433226666667","24.9920666666667","6500100","板橋區"
"220063","609-BX","2018/07/12 19:59:24","新北市板橋區中山路二段113號","121.474773333333","25.0162266666667","6500100","板橋區"
"220091","637-BX","2018/07/12 19:59:18","新北市板橋區文聖街109號","121.477716666667","25.0293116666667","6500100","板橋區"
"220057","686-BX","2018/07/12 19:59:27","新北市板橋區四川路二段78號","121.452271666667","24.9947666666667","6500100","板橋區"
"220093","689-BX","2018/07/12 19:59:20","新北市板橋區長江路三段116號","121.475128333333","25.0342283333333","6500100","板橋區"
"220054","741-BX","2018/07/12 19:59:21","新北市板橋區忠孝路201巷76號","121.464748333333","25.0043716666667","6500100","板橋區"
"220102","KEA-2699","2018/07/12 19:59:29","新北市板橋區仁化街67號","121.475683333333","25.0317933333333","6500100","板橋區"
"220077","806-UM","2018/07/12 19:59:15","新北市五股區新五路二段118-1號","121.437491666667","25.07633","6500100","板橋區"
"220055","827-TW","2018/07/12 19:59:17","新北市板橋區仁愛路78號","121.460546666667","24.9994566666667","6500100","板橋區"
"220067","829-TW","2018/07/12 19:59:29","新北市板橋區漢生東路161巷3號","121.469593333333","25.0126366666667","6500100","板橋區"
"220096","830-TW","2018/07/12 19:59:32","新北市板橋區莒光路40巷18號","121.470213333333","25.0235133333333","6500100","板橋區"
"220089","833-TW","2018/07/12 19:59:19","新北市板橋區新海路385巷22弄12號","121.457748333333","25.0263183333333","6500100","板橋區"
"220074","895-R6","2018/07/12 19:59:20","新北市板橋區明德街15號","121.459835","25.010585","6500100","板橋區"
"220073","985-R7","2018/07/12 19:59:28","新北市板橋區南雅西路二段81號","121.452696666667","25.0102166666667","6500100","板橋區"
"220097","AAC-210","2018/07/12 19:59:33","新北市板橋區光正街16巷18號","121.463238333333","25.0175383333333","6500100","板橋區"
"220070","AAC-253","2018/07/12 19:59:28","新北市板橋區德興街31號","121.453511666667","24.9939516666667","6500100","板橋區"
"235068","KEA-2873","2018/07/12 19:59:17","新北市中和區福祥路83號","121.499025","25.0057766666667","6500300","中和區"
