"lineid","car","time","location","longitude","latitude","cityid","cityname"
"234046","148-BY","2018/07/12 20:09:15","新北市永和區得和路326號","121.52321","24.9996183333333","6500400","永和區"
"234007","207-UY","2018/07/12 20:09:26","新北市永和區仁愛路306巷23號","121.502833333333","25.0084416666667","6500400","永和區"
"234081","298-R6","2018/07/12 20:09:29","新北市永和區國中路23號","121.524446666667","25.0052033333333","6500400","永和區"
"234038","336-UY","2018/07/12 20:09:28","新北市永和區成功路一段47巷8號","121.527486666667","25.0040383333333","6500400","永和區"
"234064","337-UY","2018/07/12 20:09:25","新北市永和區永元路68號","121.522483333333","25.0015316666667","6500400","永和區"
"234070","552-UM","2018/07/12 20:09:30","新北市永和區福和路185號","121.51989","25.00742","6500400","永和區"
"234086","553-UM","2018/07/12 20:09:25","新北市永和區中正路575-1號","121.51682","25.008655","6500400","永和區"
"234017","745-BX","2018/07/12 20:09:16","新北市永和區文化路162號","121.51226","25.0153966666667","6500400","永和區"
"234030","746-BX","2018/07/12 20:09:15","新北市永和區民權路49巷5弄37號","121.521876666667","24.9979166666667","6500400","永和區"
"234054","KEA-2590","2018/07/12 20:09:15","新北市永和區博愛街15號","121.517185","25.0158116666667","6500400","永和區"
"234013","KEA-2591","2018/07/12 20:09:16","新北市永和區永貞路415號","121.5074","25.009345","6500400","永和區"
"234061","AAD-866","2018/07/12 20:09:29","新北市永和區中正路151巷14號","121.515573333333","24.9988","6500400","永和區"
"234042","862-TW","2018/07/12 20:09:16","新北市永和區雙和街14號","121.509538333333","25.0021","6500400","永和區"
"234050","863-TW","2018/07/12 20:09:23","新北市永和區新生路271巷2號","121.505381666667","25.0129966666667","6500400","永和區"
"234026","9371-KE","2018/07/12 20:09:23","新北市永和區保生路55號","121.504676666667","25.010705","6500400","永和區"
"234011","9373-KE","2018/07/12 20:09:27","新北市永和區仁愛路352巷124號","121.50016","25.008535","6500400","永和區"
"249005","172-UM","2018/07/12 20:09:17","新北市八里區下罟子47-1號","121.38397","25.1369316666667","6502300","八里區"
"249001","173-UM","2018/07/12 20:09:17","新北市八里區中華路二段326號","121.403306666667","25.1479166666667","6502300","八里區"
"249004","303-UY","2018/07/12 20:09:15","新北市八里區中山路一段398巷51弄22號","121.410591666667","25.1586166666667","6502300","八里區"
"249002","305-UY","2018/07/12 20:09:28","新北市五股區成泰路四段82號","121.456528333333","25.11128","6502300","八里區"
"249003","593-UM","2018/07/12 20:09:25","新北市八里區中山路二段540巷26號","121.397223333333","25.1468433333333","6502300","八里區"
"248016","026-BX","2018/07/12 20:09:20","新北市五股區成泰路三段577巷80弄71號","121.448941666667","25.1048733333333","6501500","五股區"
"248020","225-UY","2018/07/12 20:09:24","新北市五股區凌雲路二段38號","121.440235","25.10229","6501500","五股區"
"248012","247-BX","2018/07/12 20:09:23","新北市五股區六合街118號","121.430308333333","25.0908616666667","6501500","五股區"
"248014","261-SL","2018/07/12 20:09:25","新北市五股區成泰路三段83號","121.443915","25.0900883333333","6501500","五股區"
"248004","677-BX","2018/07/12 20:09:27","新北市五股區成泰路一段173-1號","121.435213333333","25.074825","6501500","五股區"
"248002","678-BX","2018/07/12 20:09:14","新北市五股區成泰路三段359號","121.448605","25.0957333333333","6501500","五股區"
"248010","682-TV","2018/07/12 20:09:15","新北市五股區成泰路一段7巷66號","121.432658333333","25.06788","6501500","五股區"
"234023","9380-KE","2018/07/12 20:09:16","新北市永和區中正路702巷18號","121.516488333333","25.01053","6500400","永和區"
"234077","969-R7","2018/07/12 20:09:26","新北市永和區民有街24巷11號","121.516286666667","24.9958666666667","6500400","永和區"
"234074","AAC-211","2018/07/12 20:09:27","新北市永和區豫溪街150巷2號","121.521815","25.0103916666667","6500400","永和區"
"234067","AAC-212","2018/07/12 20:09:14","新北市永和區永貞路358號","121.510283333333","25.006595","6500400","永和區"
"234003","AAC-295","2018/07/12 20:09:29","新北市永和區中正路626號","121.516966666667","25.0079583333333","6500400","永和區"
"243010","267-VK","2018/07/12 20:09:21","新北市泰山區明志路二段214巷18弄35號","121.426545","25.0501616666667","6501600","泰山區"
"243013","AAD-798","2018/07/12 20:09:23","新北市泰山區明志路三段74巷7號","121.42438","25.0417033333333","6501600","泰山區"
"243009","297-R6","2018/07/12 20:09:22","新北市泰山區泰林路二段116巷6弄2號","121.435268333333","25.05959","6501600","泰山區"
"243016","380-SR","2018/07/12 20:09:26","新北市泰山區新北大道六段458號","121.422725","25.0335566666667","6501600","泰山區"
"243015","421-VK","2018/07/12 20:09:19","新北市泰山區明志路一段326號","121.43135","25.059165","6501600","泰山區"
"243011","KEA-2215","2018/07/12 20:09:15","新北市泰山區貴陽街3號","121.42098","25.0336466666667","6501600","泰山區"
"243012","646-TV","2018/07/12 20:09:18","新北市泰山區楓江路48號","121.43513","25.06233","6501600","泰山區"
"243014","680-BX","2018/07/12 20:09:16","新北市泰山區明志路一段24號","121.433636666667","25.0655233333333","6501600","泰山區"
"222002","016-RS","2018/07/12 20:09:29","新北市深坑區北深路三段160號","121.602646666667","25.0032933333333","6501800","深坑區"
"222003","436-BY","2018/07/12 20:09:30","新北市深坑區埔新街65號","121.620156666667","25.00233","6501800","深坑區"
"231041","002-UM","2018/07/12 20:09:15","新北市新店區中正路460號","121.533981666667","24.9793783333333","6500600","新店區"
"231059","046-UY","2018/07/12 20:09:32","新北市新店區安成街24號","121.51022","24.9608516666667","6500600","新店區"
"231040","047-UY","2018/07/12 20:09:31","新北市新店區中正路110號","121.543011666667","24.970595","6500600","新店區"
"231044","106-UY","2018/07/12 20:09:21","新北市新店區寶慶街58巷2號","121.542056666667","24.986855","6500600","新店區"
"231065","110-UY","2018/07/12 20:09:24","新北市新店區安祥路106巷210號","121.474036666667","24.960525","6500600","新店區"
"231047","187-VK","2018/07/12 20:09:23","新北市新店區寶橋路59-1號","121.545081666667","24.9750916666667","6500600","新店區"
"231054","KEA-2219","2018/07/12 20:09:21","新北市新店區檳榔路40號","121.541553333333","24.9637516666667","6500600","新店區"
"231057","256-BX","2018/07/12 20:09:30","新北市新店區花園一路一段2號","121.553103333333","24.9325133333333","6500600","新店區"
"231042","268-BY","2018/07/12 20:09:19","新北市新店區中興路二段89號","121.547001666667","24.9713316666667","6500600","新店區"
"231051","278-BY","2018/07/12 20:09:34","新北市新店區中央五街3-2號","121.530406666667","24.97435","6500600","新店區"
"231050","AAD-862","2018/07/12 20:09:19","新北市新店區北新路一段90號","121.54194","24.96856","6500600","新店區"
"231066","4716-K9","2018/07/12 20:09:24","新北市新店區安德街60巷26號","121.511158333333","24.9641316666667","6500600","新店區"
"231056","4715-K9","2018/07/12 20:09:15","新北市新店區中正路275巷15號","121.537286666667","24.9737116666667","6500600","新店區"
"231067","4772-VM","2018/07/12 20:09:25","新北市新店區安康路一段35號","121.531751666667","24.9605133333333","6500600","新店區"
"231049","513-UM","2018/07/12 20:09:27","新北市新店區北新路二段139巷12弄2號","121.54223","24.9759933333333","6500600","新店區"
"231063","616-UM","2018/07/12 20:09:30","新北市新店區黎明路53巷1號","121.502335","24.9486733333333","6500600","新店區"
"231061","619-UM","2018/07/12 20:09:16","新北市新店區安興路83-8號","121.515228333333","24.9758083333333","6500600","新店區"
"231068","718-UY","2018/07/12 20:09:18","新北市新店區寶中路45號","121.54527","24.9789333333333","6500600","新店區"
"231064","719-UM","2018/07/12 20:09:18","新北市新店區安光路13-1號","121.513473333333","24.96375","6500600","新店區"
"231052","719-UY","2018/07/12 20:09:22","新北市新店區新烏路三段寶島巷2弄3號","121.551976666667","24.8987016666667","6500600","新店區"
"231062","720-UM","2018/07/12 20:09:30","新北市新店區安康路一段206號","121.524053333333","24.9635083333333","6500600","新店區"
"231060","897-TW","2018/07/12 20:09:25","新北市新店區安康路三段456號","121.484286666667","24.9511616666667","6500600","新店區"
"231045","898-TW","2018/07/12 20:09:17","新北市新店區北宜路一段121-3號","121.540313333333","24.9538683333333","6500600","新店區"
"231043","899-TW","2018/07/12 20:09:26","新北市新店區民族路188號","121.536826666667","24.9760466666667","6500600","新店區"
"231055","AKT-0513","2018/07/12 20:09:18","新北市新店區中華路42巷9號","121.540415","24.9686133333333","6500600","新店區"
"241011","013-R5","2018/07/12 20:09:15","新北市三重區仁愛街30號","121.496273333333","25.071665","6500200","三重區"
"241028","022-UY","2018/07/12 20:09:31","新北市三重區仁化街146號","121.494676666667","25.05759","6500200","三重區"
"241008","059-VK","2018/07/12 20:09:21","新北市三重區永福街197巷27號","121.478548333333","25.07438","6500200","三重區"
"241022","060-VK","2018/07/12 20:09:20","新北市三重區重陽路二段3號","121.486851666667","25.0618166666667","6500200","三重區"
"241031","061-VK","2018/07/12 20:09:18","新北市三重區過圳街9-1號","121.488751666667","25.0601116666667","6500200","三重區"
"241015","062-VK","2018/07/12 20:09:33","新北市三重區福德北路41號","121.502335","25.064845","6500200","三重區"
"241017","063-VK","2018/07/12 20:09:23","新北市三重區自強路一段165號","121.493098333333","25.0672033333333","6500200","三重區"
"241026","066-VK","2018/07/12 20:09:23","新北市三重區福德南路65巷1號","121.502386666667","25.0605316666667","6500200","三重區"
"241002","090-VK","2018/07/12 20:09:20","新北市三重區仁忠街57號","121.49469","25.08135","6500200","三重區"
"241003","091-VK","2018/07/12 20:09:31","新北市三重區富華街18號","121.489641666667","25.082485","6500200","三重區"
"241005","262-UM","2018/07/12 20:09:17","新北市三重區溪尾街327號","121.488448333333","25.0846433333333","6500200","三重區"
"241016","266-UM","2018/07/12 20:09:17","新北市三重區大同北路91號","121.494735","25.0636116666667","6500200","三重區"
"241009","267-UM","2018/07/12 20:09:23","新北市三重區永福街125巷5號","121.47858","25.077175","6500200","三重區"
"241018","268-UM","2018/07/12 20:09:25","新北市三重區正義北路256巷107號","121.493693333333","25.0679516666667","6500200","三重區"
"241032","269-UM","2018/07/12 20:09:29","新北市三重區捷運路67號","121.483335","25.0555233333333","6500200","三重區"
"241013","270-UM","2018/07/12 20:09:28","新北市三重區三和路三段151巷39號","121.493758333333","25.07425","6500200","三重區"
"241007","398-BY","2018/07/12 20:09:30","新北市三重區三和路四段111-31號","121.486773333333","25.077585","6500200","三重區"
"241035","KEA-2210","2018/07/12 20:09:22","新北市三重區平安街59號","121.497695","25.0641916666667","6500200","三重區"
"241025","413-TH","2018/07/12 20:09:32","新北市三重區中正北路342號","121.478286666667","25.0692683333333","6500200","三重區"
"241004","475-VK","2018/07/12 20:09:23","新北市三重區自強路四段100號","121.491301666667","25.07967","6500200","三重區"
"241020","478-VK","2018/07/12 20:09:25","新北市三重區大智街179巷19號","121.49059","25.0728333333333","6500200","三重區"
"241030","480-VK","2018/07/12 20:09:21","新北市三重區成功路145巷38號","121.487681666667","25.0532666666667","6500200","三重區"
"241014","543-UM","2018/07/12 20:09:14","新北市三重區安和路41號","121.50094","25.0693883333333","6500200","三重區"
"241001","547-UM","2018/07/12 20:09:27","新北市三重區三和路四段89巷28號","121.49025","25.076035","6500200","三重區"
"241019","KEA-2593","2018/07/12 20:09:15","新北市三重區自強路二段33巷45號","121.490705","25.0698466666667","6500200","三重區"
"241006","AAD-863","2018/07/12 20:09:27","新北市三重區力行路二段125號","121.48312","25.0765633333333","6500200","三重區"
"241023","887-TS","2018/07/12 20:09:23","新北市三重區三民街319號","121.477448333333","25.06901","6500200","三重區"
"241012","941-UM","2018/07/12 20:09:22","新北市三重區仁福街64巷32號","121.49752","25.0757366666667","6500200","三重區"
"241029","942-UM","2018/07/12 20:09:18","新北市三重區光明路32巷26號","121.491955","25.0587383333333","6500200","三重區"
"241033","AAC-255","2018/07/12 20:09:32","新北市三重區光復路一段61巷2號","121.472286666667","25.0493666666667","6500200","三重區"
"235066","003-UY","2018/07/12 20:09:22","新北市中和區水源路127巷2-1號","121.5081","25.0038433333333","6500300","中和區"
"235039","097-UM","2018/07/12 20:09:18","新北市中和區大勇街25巷9弄2號","121.51665","24.9932933333333","6500300","中和區"
"235065","098-UM","2018/07/12 20:09:19","新北市中和區永和路39巷4號","121.497851666667","25.0050233333333","6500300","中和區"
"247010","KEA-2869","2018/07/12 20:09:29","新北市蘆洲區集賢路406號","121.480083333333","25.0818316666667","6501400","蘆洲區"
"235050","4979-A6","2018/07/12 20:09:16","新北市中和區安樂路62號","121.512195","24.9932033333333","6500300","中和區"
"235069","4980-A6","2018/07/12 20:09:16","新北市中和區景新街52號","121.503895","24.9990516666667","6500300","中和區"
"235070","558-UM","2018/07/12 20:09:19","新北市中和區建六路22號","121.485545","25.0021616666667","6500300","中和區"
"235051","157-BY","2018/07/12 20:09:23","新北市中和區板南路187號","121.49991","24.992725","6500300","中和區"
"235037","AAC-213","2018/07/12 20:09:27","新北市中和區秀朗路三段177號","121.524291666667","24.991135","6500300","中和區"
"235059","AAC-215","2018/07/12 20:09:21","新北市中和區圓通路335巷33弄17號","121.493046666667","24.9889833333333","6500300","中和區"
"220068","013-TV","2018/07/12 20:09:32","新北市板橋區中山路二段304號","121.479858333333","25.0189833333333","6500100","板橋區"
"220106","075-UY","2018/07/12 20:09:30","新北市板橋區懷德街13號","121.476821666667","25.0330033333333","6500100","板橋區"
"220069","AAD-861","2018/07/12 20:09:22","新北市板橋區貴興路114號","121.455145","25.00209","6500100","板橋區"
"247024","893-R6","2018/07/12 20:09:28","新北市蘆洲區光明路88巷19號","121.463301666667","25.087125","6501400","蘆洲區"
"247014","546-UM","2018/07/12 20:09:20","新北市蘆洲區中山二路265巷8號","121.470188333333","25.079505","6501400","蘆洲區"
"247022","500-BY","2018/07/12 20:09:20","新北市蘆洲區三民路173號","121.471136666667","25.0872083333333","6501400","蘆洲區"
"247004","337-TH","2018/07/12 20:09:28","新北市蘆洲區長安街285巷28號","121.456816666667","25.0839083333333","6501400","蘆洲區"
"247006","336-TH","2018/07/12 20:09:11","新北市蘆洲區中山一路417號","121.468568333333","25.076695","6501400","蘆洲區"
"247018","057-VK","2018/07/12 20:09:17","新北市蘆洲區民族路314巷24號","121.477975","25.0904933333333","6501400","蘆洲區"
"247016","007-UY","2018/07/12 20:09:23","新北市蘆洲區和平路208號","121.46573","25.0821","6501400","蘆洲區"
"247002","002-UY","2018/07/12 20:07:10","新北市蘆洲區永康街2巷10號","121.459366666667","25.0862733333333","6501400","蘆洲區"
"247020","001-UY","2018/07/12 20:09:21","新北市蘆洲區民權路106巷5弄2-1號","121.474355","25.0890533333333","6501400","蘆洲區"
"224010","AGQ-8101","2018/07/12 20:09:15","新北市瑞芳區金光路372號","121.849211666667","25.1113133333333","6501200","瑞芳區"
"222001","KEA-2212","2018/07/12 20:09:14","新北市深坑區北深路三段191號","121.601223333333","25.0036433333333","6501800","深坑區"
"208002","KEA-2872","2018/07/12 20:09:30","新北市金山區中山路16號","121.64164","25.2174466666667","6502700","金山區"
"251016","008-UM","2018/07/12 20:09:26","新北市淡水區番子田20-2號","121.457778333333","25.2281933333333","6501000","淡水區"
"251004","009-UM","2018/07/12 20:09:32","新北市淡水區民族路31-22號","121.461756666667","25.1361916666667","6501000","淡水區"
"251001","011-UM","2018/07/12 20:09:28","新北市淡水區淡金路二段599號","121.445963333333","25.1924766666667","6501000","淡水區"
"251013","KEA-2871","2018/07/12 20:09:27","新北市淡水區奎柔山路307號","121.460718333333","25.2047433333333","6501000","淡水區"
"251014","180-VK","2018/07/12 20:09:18","新北市淡水區石頭厝1號","121.458733333333","25.235535","6501000","淡水區"
"251015","181-VK","2018/07/12 20:09:18","新北市淡水區埤島77-4號","121.449806666667","25.1908666666667","6501000","淡水區"
"251010","413-VK","2018/07/12 20:09:24","新北市淡水區新市二路二段8號","121.424901666667","25.19647","6501000","淡水區"
"251012","441-VK","2018/07/12 20:09:16","新北市淡水區淡金路三段260號","121.448963333333","25.2064983333333","6501000","淡水區"
"251008","442-VK","2018/07/12 20:09:25","新北市淡水區沙崙路131巷11號","121.421885","25.1829566666667","6501000","淡水區"
"251005","443-VK","2018/07/12 20:09:20","新北市淡水區學府路102巷66號","121.453533333333","25.171335","6501000","淡水區"
"251006","561-UM","2018/07/12 20:09:15","新北市淡水區北新路141巷60弄11號","121.448208333333","25.179655","6501000","淡水區"
"251009","575-R6","2018/07/12 20:09:18","新北市淡水區清水街1-5號","121.445261666667","25.1703583333333","6501000","淡水區"
"251011","650-BX","2018/07/12 20:09:25","新北市淡水區崁頂78-5號","121.42928","25.2073466666667","6501000","淡水區"
"251003","673-BX","2018/07/12 20:09:27","新北市淡水區中山北路二段189巷15弄31號","121.443423333333","25.1840716666667","6501000","淡水區"
"207003","550-UM","2018/07/12 20:09:17","新北市萬里區大鵬里萬里加投186號","121.642795","25.2156516666667","6502800","萬里區"
"207004","225-TW","2018/07/12 20:09:15","新北市萬里區北基里大勇路14號","121.681966666667","25.17668","6502800","萬里區"
"252002","178-VK","2018/07/12 20:09:24","新北市三芝區三民街8巷3號","121.50411","25.2583016666667","6502100","三芝區"
"252001","292-VK","2018/07/12 20:09:17","新北市三芝區公正街9號","121.499743333333","25.2575683333333","6502100","三芝區"
"237012","275-BY","2018/07/12 20:09:19","新北市三峽區中華路95號","121.37159","24.9291616666667","6500900","三峽區"
"237014","433-BY","2018/07/12 20:09:25","新北市三峽區介壽路一段19號","121.375478333333","24.9334833333333","6500900","三峽區"
"237006","5529-G3","2018/07/12 20:09:18","新北市三峽區嘉添87號","121.368905","24.9098666666667","6500900","三峽區"
"237016","649-BX","2018/07/12 20:09:31","新北市三峽區介壽路二段138巷1弄13-1號","121.396288333333","24.9339183333333","6500900","三峽區"
"237005","AKY-6261","2018/07/12 20:09:26","新北市三峽區三樹路46號","121.377766666667","24.9377683333333","6500900","三峽區"
"236042","107-UM","2018/07/12 20:09:21","新北市土城區學享街85號","121.452878333333","24.9860266666667","6501300","土城區"
"236078","166-UM","2018/07/12 20:09:28","新北市土城區中山路47號","121.420721666667","24.96289","6501300","土城區"
"236030","253-BX","2018/07/12 20:09:16","新北市土城區中央路一段164-2號","121.445808333333","24.9869516666667","6501300","土城區"
"236026","269-VK","2018/07/12 20:09:21","新北市土城區中央路一段285號","121.444466666667","24.9845816666667","6501300","土城區"
"236014","270-VK","2018/07/12 20:09:30","新北市土城區德興街135號","121.455143333333","24.9917933333333","6501300","土城區"
"236038","271-VK","2018/07/12 20:09:16","新北市土城區延吉街373巷10號","121.463986666667","24.9833366666667","6501300","土城區"
"236070","KEA-2877","2018/07/12 20:09:27","新北市土城區中央路三段147巷2弄16號","121.43186","24.964905","6501300","土城區"
"236021","401-BY","2018/07/12 20:09:27","新北市土城區和城路二段255巷82-1號","121.474471666667","24.9871983333333","6501300","土城區"
"236063","752-BX","2018/07/12 20:09:06","新北市土城區立德路135巷5弄2號","121.464993333333","24.9870133333333","6501300","土城區"
"236059","912-UM","2018/07/12 20:09:22","新北市土城區中央路二段252號","121.441695","24.9745283333333","6501300","土城區"
"236049","913-UM","2018/07/12 20:09:25","新北市土城區清水路259號","121.462833333333","24.9843016666667","6501300","土城區"
"236055","AAC-216","2018/07/12 20:09:34","新北市土城區中華路一段195號","121.443046666667","24.985365","6501300","土城區"
"242058","986-R7","2018/07/12 20:09:27","新北市新莊區八德街104號","121.42416","25.0212266666667","6500500","新莊區"
"242053","751-BX","2018/07/12 20:09:12","新北市新莊區西盛街380號","121.427915","25.0131283333333","6500500","新莊區"
"242027","615-BX","2018/07/12 20:09:19","新北市新莊區幸福路736號","121.448626666667","25.04922","6500500","新莊區"
"242025","613-BX","2018/07/12 20:09:27","新北市新莊區五工路68巷19號","121.458631666667","25.0646533333333","6500500","新莊區"
"242029","612-BX","2018/07/12 20:09:21","新北市新莊區中原路263號","121.448368333333","25.05448","6500500","新莊區"
"242042","566-BX","2018/07/12 20:09:16","新北市新莊區青山路一段200-4號","121.397776666667","25.0317633333333","6500500","新莊區"
"242046","497-BY","2018/07/12 20:09:18","新北市新莊區裕民街85巷11號","121.41914","25.0235566666667","6500500","新莊區"
"242038","442-UM","2018/07/12 20:09:12","新北市新莊區民安西路109號","121.426876666667","25.0183633333333","6500500","新莊區"
"242056","440-UM","2018/07/12 20:09:18","新北市新莊區新莊路649巷15弄13號","121.44557","25.0315433333333","6500500","新莊區"
"242036","415-TV","2018/07/12 20:09:26","新北市新莊區建安街9巷8號","121.42917","25.02648","6500500","新莊區"
"242007","413-TV","2018/07/12 20:09:28","新北市新莊區思源路421號","121.459331666667","25.0526516666667","6500500","新莊區"
"242044","400-BY","2018/07/12 20:09:18","新北市新莊區中正路895-34號","121.412313333333","25.0213933333333","6500500","新莊區"
"242023","362-BY","2018/07/12 20:09:17","新北市新莊區化成路562號","121.466196666667","25.05403","6500500","新莊區"
"242061","353-BY","2018/07/12 20:09:17","新北市新莊區瓊林路96-5號","121.443998333333","25.0271683333333","6500500","新莊區"
"242031","135-UY","2018/07/12 20:09:25","新北市新莊區義豐街35-1號","121.441145","25.0353583333333","6500500","新莊區"
"242048","172-VK","2018/07/12 20:09:25","新北市新莊區四維路152巷30號","121.421993333333","25.02253","6500500","新莊區"
"242011","173-VK","2018/07/12 20:09:19","新北市新莊區中信街63巷2弄5號","121.448816666667","25.0504716666667","6500500","新莊區"
"242017","175-VK","2018/07/12 20:09:28","新北市新莊區中港路340號","121.452016666667","25.04607","6500500","新莊區"
"242004","176-VK","2018/07/12 20:09:17","新北市新莊區化成路554巷18號","121.467156666667","25.05396","6500500","新莊區"
"242015","346-TH","2018/07/12 20:09:19","新北市新莊區中平路26巷51號","121.44725","25.04346","6500500","新莊區"
"242009","347-TH","2018/07/12 20:09:26","新北市新莊區昌盛街35巷3弄2號","121.45409","25.0505466666667","6500500","新莊區"
"242021","348-TH","2018/07/12 20:09:15","新北市新莊區中興街42號","121.449348333333","25.03698","6500500","新莊區"
"242002","349-TH","2018/07/12 20:09:15","新北市新莊區中正路145號","121.45951","25.0383333333333","6500500","新莊區"
"242013","351-TH","2018/07/12 20:09:22","新北市新莊區幸福路678巷5號","121.450595","25.0496966666667","6500500","新莊區"
"221008","489-VK","2018/07/12 20:09:22","台北市內湖區康樂街219號","121.622075","25.0764533333333","6501100","汐止區"
"221036","130-UY","2018/07/12 20:09:30","新北市汐止區新台五路二段41巷1號","121.66307","25.06659","6501100","汐止區"
"221015","131-UY","2018/07/12 20:09:31","新北市汐止區建成路48號","121.663843333333","25.07282","6501100","汐止區"
"221010","269-BY","2018/07/12 20:09:24","新北市汐止區八連路一段206號","121.641625","25.08081","6501100","汐止區"
"221012","278-VK","2018/07/12 20:09:16","新北市汐止區大同路三段425-1號","121.677391666667","25.0715466666667","6501100","汐止區"
"221023","279-VK","2018/07/12 20:09:19","新北市汐止區明峰街298巷10弄1號","121.625025","25.0688833333333","6501100","汐止區"
"221032","280-BY","2018/07/12 20:09:33","新北市汐止區弘道街9巷2弄1號","121.61696","25.0490316666667","6501100","汐止區"
"221027","281-BY","2018/07/12 20:09:26","新北市汐止區光明街28號","121.660186666667","25.0687333333333","6501100","汐止區"
"221033","297-VK","2018/07/12 20:09:31","新北市汐止區東勢街201巷102號","121.633673333333","25.0430083333333","6501100","汐止區"
"221029","298-VK","2018/07/12 20:09:17","新北市汐止區樟樹一路119巷10弄1號","121.641218333333","25.0646083333333","6501100","汐止區"
"221021","299-VK","2018/07/12 20:09:16","新北市汐止區連興街143號","121.654075","25.061545","6501100","汐止區"
"221031","353-TW","2018/07/12 20:09:21","新北市汐止區原興路76巷2號","121.632013333333","25.06636","6501100","汐止區"
"221035","622-UM","2018/07/12 20:09:14","新北市汐止區長江街67巷2弄1號","121.656746666667","25.0722683333333","6501100","汐止區"
"221025","623-UM","2018/07/12 20:09:33","新北市汐止區秀峰路72號","121.65991","25.064385","6501100","汐止區"
"221038","646-BX","2018/07/12 20:09:28","新北市汐止區大同路三段41號","121.666853333333","25.0764633333333","6501100","汐止區"
"221018","753-BX","2018/07/12 20:09:14","新北市汐止區茄福街35巷21號","121.673168333333","25.066585","6501100","汐止區"
"220101","245-BX","2018/07/12 20:09:19","新北市板橋區雙十路二段47巷2弄14號","121.475778333333","25.0265333333333","6500100","板橋區"
"220053","285-VK","2018/07/12 20:09:21","新北市板橋區懷仁街53-3號","121.476938333333","25.0190766666667","6500100","板橋區"
"220083","286-VK","2018/07/12 20:09:20","新北市板橋區僑中二街90巷15號","121.445568333333","25.0092683333333","6500100","板橋區"
"220081","287-VK","2018/07/12 20:09:24","新北市板橋區僑中一街124巷18弄22號","121.44699","25.0136216666667","6500100","板橋區"
"220061","293-UM","2018/07/12 20:09:26","新北市板橋區中山路一段152號","121.464363333333","25.01122","6500100","板橋區"
"242019","281-VK","2018/07/12 20:09:23","新北市新莊區思源路139號","121.45975","25.043805","6500500","新莊區"
"220092","307-R5","2018/07/12 20:09:27","新北市板橋區文化路一段83號","121.461261666667","25.0138916666667","6500100","板橋區"
"220064","486-VK","2018/07/12 20:09:20","新北市板橋區長安街331巷18-2號","121.474121666667","25.01244","6500100","板橋區"
"242034","280-VK","2018/07/12 20:09:31","新北市新莊區中正路318巷18號","121.446403333333","25.0359766666667","6500500","新莊區"
"220088","491-VK","2018/07/12 20:09:18","新北市板橋區民治街92號","121.479298333333","25.0318583333333","6500100","板橋區"
"220103","561-BX","2018/07/12 20:09:31","新北市板橋區陽明街88號","121.464258333333","25.0229333333333","6500100","板橋區"
"220093","689-BX","2018/07/12 20:09:28","新北市板橋區長江路一段142號","121.460721666667","25.0301266666667","6500100","板橋區"
"220102","KEA-2699","2018/07/12 20:09:32","新北市板橋區民治街126巷9號","121.477653333333","25.03136","6500100","板橋區"
"220055","827-TW","2018/07/12 20:09:30","新北市板橋區重慶路290巷38號","121.461783333333","24.99869","6500100","板橋區"
"220067","829-TW","2018/07/12 20:09:29","新北市板橋區中山路一段206巷4弄2號","121.470208333333","25.0131133333333","6500100","板橋區"
"220089","833-TW","2018/07/12 20:09:19","新北市板橋區互助街32號","121.46218","25.0272683333333","6500100","板橋區"
"220074","895-R6","2018/07/12 20:09:20","新北市板橋區館前西路102號","121.45715","25.00738","6500100","板橋區"
"220097","AAC-210","2018/07/12 20:09:13","新北市板橋區光正街31號","121.46218","25.017235","6500100","板橋區"
"220070","AAC-253","2018/07/12 20:09:28","新北市板橋區四川路二段245巷14號","121.451013333333","24.993065","6500100","板橋區"
"235068","KEA-2873","2018/07/12 20:09:19","新北市中和區勝利路35巷1弄27號","121.499916666667","25.007785","6500300","中和區"
