"lineid","car","time","location","longitude","latitude","cityid","cityname"
"234081","298-R6","2018/07/12 20:39:17","新北市永和區永貞路82號","121.520183333333","25.0050666666667","6500400","永和區"
"234064","337-UY","2018/07/12 20:39:25","新北市永和區永和路二段264號","121.516033333333","25.0151883333333","6500400","永和區"
"234030","746-BX","2018/07/12 20:39:35","新北市板橋區民生路二段120號","121.470548333333","25.0194633333333","6500400","永和區"
"234061","AAD-866","2018/07/12 20:39:29","新北市永和區秀朗路一段175號","121.516998333333","25.00364","6500400","永和區"
"234042","862-TW","2018/07/12 20:39:16","新北市永和區福和路352號","121.514788333333","25.0074283333333","6500400","永和區"
"234050","863-TW","2018/07/12 20:39:23","新北市永和區新生路36號","121.508103333333","25.0157666666667","6500400","永和區"
"249001","173-UM","2018/07/12 20:39:17","新北市八里區下罟子23號","121.377153333333","25.13875","6502300","八里區"
"249004","303-UY","2018/07/12 20:39:15","新北市八里區中山路一段155號","121.41271","25.1587083333333","6502300","八里區"
"249003","593-UM","2018/07/12 20:39:25","新北市八里區下罟子8-10號","121.383901666667","25.1446816666667","6502300","八里區"
"248004","677-BX","2018/07/12 20:39:27","新北市林口區汕頭32號","121.366695","25.1350583333333","6501500","五股區"
"234023","9380-KE","2018/07/12 20:39:16","新北市永和區光復街2巷16弄25號","121.517998333333","25.01637","6500400","永和區"
"234077","969-R7","2018/07/12 20:39:26","新北市三重區光復路二段143巷8-3號","121.47449","25.0600233333333","6500400","永和區"
"234074","AAC-211","2018/07/12 20:39:27","新北市永和區竹林路121號","121.52007","25.0114","6500400","永和區"
"234067","AAC-212","2018/07/12 20:39:16","新北市中和區保平路231號","121.507885","25.0044233333333","6500400","永和區"
"243016","380-SR","2018/07/12 20:39:26","新北市泰山區文程路2號","121.427736666667","25.0492966666667","6501600","泰山區"
"243011","KEA-2215","2018/07/12 20:39:15","新北市泰山區明志路二段250號","121.42697","25.0477266666667","6501600","泰山區"
"243012","646-TV","2018/07/12 20:39:18","新北市泰山區泰林路三段301巷51號","121.413555","25.0682316666667","6501600","泰山區"
"222002","016-RS","2018/07/12 20:39:24","新北市深坑區萬福路45號","121.599518333333","25.0068783333333","6501800","深坑區"
"222003","436-BY","2018/07/12 20:39:30","新北市深坑區文山路二段30巷31號","121.615596666667","24.9990066666667","6501800","深坑區"
"231041","002-UM","2018/07/12 20:39:15","新北市新店區中正路696號","121.534063333333","24.9905066666667","6500600","新店區"
"231059","046-UY","2018/07/12 20:39:16","新北市新店區僑信路132巷30號","121.50002","24.9455533333333","6500600","新店區"
"231040","047-UY","2018/07/12 20:39:11","新北市新店區中正路274號","121.538878333333","24.97363","6500600","新店區"
"231044","106-UY","2018/07/12 20:39:21","新北市新店區民權路90巷36號","121.536973333333","24.9849166666667","6500600","新店區"
"231065","110-UY","2018/07/12 20:39:25","新北市新店區安祥路102巷119號","121.4863","24.9643116666667","6500600","新店區"
"231047","187-VK","2018/07/12 20:39:23","新北市新店區寶慶街34號","121.543041666667","24.9868","6500600","新店區"
"231054","KEA-2219","2018/07/12 20:39:21","新北市新店區行政街45號","121.54303","24.9655683333333","6500600","新店區"
"231057","256-BX","2018/07/12 20:39:30","新北市新店區花園二路一段9-6號","121.556333333333","24.9328066666667","6500600","新店區"
"231042","268-BY","2018/07/12 20:39:19","新北市新店區寶橋路228號","121.551321666667","24.978855","6500600","新店區"
"231051","278-BY","2018/07/12 20:39:14","新北市新店區中央七街109號","121.525791666667","24.9776533333333","6500600","新店區"
"231050","AAD-862","2018/07/12 20:39:19","新北市新店區建國路10號","121.54001","24.9736016666667","6500600","新店區"
"231058","3713-VJ","2018/07/12 20:39:23","新北市新店區平等街19號","121.536781666667","24.97383","6500600","新店區"
"231066","4716-K9","2018/07/12 20:39:24","新北市新店區安民街365巷1弄8號","121.516436666667","24.9750483333333","6500600","新店區"
"231056","4715-K9","2018/07/12 20:39:15","新北市新店區中央七街61巷6號","121.52853","24.97642","6500600","新店區"
"231067","4772-VM","2018/07/12 20:39:25","新北市新店區安華路28-1號","121.519781666667","24.96083","6500600","新店區"
"231049","513-UM","2018/07/12 20:39:27","新北市新店區永業路81巷5弄2號","121.530345","24.9490066666667","6500600","新店區"
"231063","616-UM","2018/07/12 20:39:30","新北市新店區玫瑰路4-1號","121.493586666667","24.9514216666667","6500600","新店區"
"231061","619-UM","2018/07/12 20:39:16","新北市新店區新和街35號","121.51923","24.98495","6500600","新店區"
"231068","718-UY","2018/07/12 20:39:24","新北市新店區寶慶街38號","121.542936666667","24.9867283333333","6500600","新店區"
"231064","719-UM","2018/07/12 20:39:18","新北市新店區安和路三段173號","121.515871666667","24.98612","6500600","新店區"
"231052","719-UY","2018/07/12 20:39:22","新北市新店區廣興路7-10號","121.545831666667","24.911595","6500600","新店區"
"231062","720-UM","2018/07/12 20:39:30","新北市新店區安泰路60巷55弄125號","121.484558333333","24.9465383333333","6500600","新店區"
"231060","897-TW","2018/07/12 20:39:25","新北市新店區安康路三段738號","121.47381","24.94205","6500600","新店區"
"231045","898-TW","2018/07/12 20:39:17","新北市新店區長春路66號","121.551136666667","24.9580383333333","6500600","新店區"
"231043","899-TW","2018/07/12 20:39:26","新北市新店區建國路6-1號","121.539915","24.9734416666667","6500600","新店區"
"241011","013-R5","2018/07/12 20:39:28","新北市三重區龍濱路182號","121.50128","25.0729883333333","6500200","三重區"
"241028","022-UY","2018/07/12 20:39:31","新北市三重區大同南路50巷55號","121.497305","25.0600283333333","6500200","三重區"
"241008","059-VK","2018/07/12 20:39:21","新北市三重區永福街59號","121.48074","25.0778866666667","6500200","三重區"
"241022","060-VK","2018/07/12 20:39:20","新北市三重區中正北路20巷12號","121.487995","25.062435","6500200","三重區"
"241031","061-VK","2018/07/12 20:39:26","新北市三重區重陽路一段43巷32號","121.48835","25.058595","6500200","三重區"
"241015","062-VK","2018/07/12 20:39:13","新北市三重區文化北路103號","121.497876666667","25.068425","6500200","三重區"
"241017","063-VK","2018/07/12 20:39:23","新北市三重區安慶街245號","121.490748333333","25.0677333333333","6500200","三重區"
"241026","066-VK","2018/07/12 20:39:23","新北市三重區和平街1號","121.500081666667","25.062355","6500200","三重區"
"241002","090-VK","2018/07/12 20:39:20","新北市三重區仁義街167巷22號","121.497788333333","25.0820533333333","6500200","三重區"
"241005","262-UM","2018/07/12 20:39:17","新北市三重區碧華街442號","121.49292","25.085905","6500200","三重區"
"241016","266-UM","2018/07/12 20:39:16","新北市三重區長壽西街143-3號","121.494301666667","25.0666566666667","6500200","三重區"
"241009","267-UM","2018/07/12 20:39:23","新北市三重區永福街58巷3弄9號","121.481133333333","25.0776816666667","6500200","三重區"
"241018","268-UM","2018/07/12 20:39:34","新北市三重區重陽路三段115號","121.490843333333","25.0686466666667","6500200","三重區"
"241032","269-UM","2018/07/12 20:39:29","新北市三重區重陽路一段120巷48號","121.485081666667","25.060145","6500200","三重區"
"241013","270-UM","2018/07/12 20:39:27","新北市三重區三和路四段152號","121.488378333333","25.0757633333333","6500200","三重區"
"241007","398-BY","2018/07/12 20:39:30","新北市三重區仁美街2號","121.488676666667","25.0770333333333","6500200","三重區"
"241035","KEA-2210","2018/07/12 20:39:22","新北市三重區正義北路281-1號","121.495113333333","25.0703266666667","6500200","三重區"
"241025","413-TH","2018/07/12 20:39:32","新北市三重區忠孝路三段89號","121.479208333333","25.0649133333333","6500200","三重區"
"241004","475-VK","2018/07/12 20:39:20","新北市三重區仁愛街403號","121.491016666667","25.0808883333333","6500200","三重區"
"241020","478-VK","2018/07/12 20:39:25","新北市三重區忠孝路一段68號","121.490213333333","25.0720183333333","6500200","三重區"
"241030","480-VK","2018/07/12 20:39:21","新北市三重區成功路73巷12號","121.489398333333","25.0519316666667","6500200","三重區"
"241014","543-UM","2018/07/12 20:39:20","新北市三重區萬壽街8號","121.49917","25.0693816666667","6500200","三重區"
"241001","547-UM","2018/07/12 20:39:27","新北市三重區自強路三段110巷5號","121.486586666667","25.0746516666667","6500200","三重區"
"241019","KEA-2593","2018/07/12 20:39:15","新北市三重區重陽路四段114巷13號","121.491685","25.0707283333333","6500200","三重區"
"241006","AAD-863","2018/07/12 20:39:27","新北市三重區車路頭街139巷14號","121.4844","25.0761616666667","6500200","三重區"
"241023","887-TS","2018/07/12 20:39:23","新北市三重區自由街39巷14號","121.478471666667","25.066905","6500200","三重區"
"241012","941-UM","2018/07/12 20:39:22","新北市三重區秀江街2號","121.502708333333","25.0731066666667","6500200","三重區"
"241029","942-UM","2018/07/12 20:39:18","新北市三重區集美街126巷26號","121.490021666667","25.0539233333333","6500200","三重區"
"241033","AAC-255","2018/07/12 20:39:32","新北市三重區光復路二段87巷59號","121.475351666667","25.0583083333333","6500200","三重區"
"247010","KEA-2869","2018/07/12 20:39:29","新北市蘆洲區中山一路117號","121.476201666667","25.0814833333333","6501400","蘆洲區"
"235069","4980-A6","2018/07/12 20:39:16","新北市中和區中正路550號","121.487061666667","24.9945666666667","6500300","中和區"
"247024","893-R6","2018/07/12 20:39:28","新北市蘆洲區光榮路85號","121.461871666667","25.0886916666667","6501400","蘆洲區"
"247014","546-UM","2018/07/12 20:39:20","新北市蘆洲區成功路58號","121.472521666667","25.0802883333333","6501400","蘆洲區"
"247022","500-BY","2018/07/12 20:39:20","新北市蘆洲區中正路243巷7弄7號","121.467371666667","25.0861383333333","6501400","蘆洲區"
"247004","337-TH","2018/07/12 20:39:26","新北市蘆洲區長安街222號","121.45812","25.0849133333333","6501400","蘆洲區"
"247006","336-TH","2018/07/12 20:39:31","新北市蘆洲區和平路136-1號","121.466933333333","25.0807016666667","6501400","蘆洲區"
"247008","053-VK","2018/07/12 20:39:15","新北市蘆洲區永安北路2段8巷1-1號","121.480601666667","25.08071","6501400","蘆洲區"
"247016","007-UY","2018/07/12 20:39:23","新北市蘆洲區和平路30號","121.471056666667","25.0792333333333","6501400","蘆洲區"
"247002","002-UY","2018/07/12 20:38:50","新北市蘆洲區長安街375巷34號","121.455953333333","25.088225","6501400","蘆洲區"
"247020","001-UY","2018/07/12 20:39:21","新北市蘆洲區民族路426號","121.473698333333","25.091865","6501400","蘆洲區"
"222001","KEA-2212","2018/07/12 20:39:34","新北市深坑區北深路三段209號","121.60063","25.0038216666667","6501800","深坑區"
"251016","008-UM","2018/07/12 20:39:26","新北市淡水區後洲子8-2號","121.449675","25.2240216666667","6501000","淡水區"
"251001","011-UM","2018/07/12 20:39:28","新北市淡水區淡金路218-1號","121.460663333333","25.1676183333333","6501000","淡水區"
"251013","KEA-2871","2018/07/12 20:39:27","新北市淡水區番子厝16號","121.460148333333","25.2059816666667","6501000","淡水區"
"251014","180-VK","2018/07/12 20:39:18","新北市淡水區公埔子28-3號","121.465436666667","25.23261","6501000","淡水區"
"251015","181-VK","2018/07/12 20:39:18","新北市淡水區淡金路四段542巷17號","121.45274","25.22707","6501000","淡水區"
"251010","413-VK","2018/07/12 20:39:23","新北市淡水區沙崙路181巷1號","121.424015","25.18428","6501000","淡水區"
"251012","441-VK","2018/07/12 20:39:16","新北市淡水區興仁路99號","121.451661666667","25.2181016666667","6501000","淡水區"
"251006","561-UM","2018/07/12 20:39:16","新北市淡水區商工路184號","121.449978333333","25.1884833333333","6501000","淡水區"
"251009","575-R6","2018/07/12 20:39:18","新北市淡水區民權路187巷17號","121.460321666667","25.1335766666667","6501000","淡水區"
"251007","577-R6","2018/07/12 20:39:27","新北市淡水區忠愛街4號","121.459406666667","25.1712566666667","6501000","淡水區"
"251011","650-BX","2018/07/12 20:39:25","新北市淡水區新市一路一段361號","121.436241666667","25.186135","6501000","淡水區"
"251002","672-BX","2018/07/12 20:39:13","新北市淡水區中正路32號","121.443795","25.1692016666667","6501000","淡水區"
"251003","673-BX","2018/07/12 20:39:27","新北市淡水區新民街120巷19號","121.438296666667","25.1780233333333","6501000","淡水區"
"252002","178-VK","2018/07/12 20:39:24","新北市三芝區淡金路二段47-2號","121.50364","25.260525","6502100","三芝區"
"252001","292-VK","2018/07/12 20:39:17","新北市三芝區中山路一段87號","121.501176666667","25.2566133333333","6502100","三芝區"
"242058","986-R7","2018/07/12 20:39:27","新北市新莊區四維路149號","121.42264","25.0220883333333","6500500","新莊區"
"242053","751-BX","2018/07/12 20:39:32","新北市新莊區西盛街323巷9號","121.428623333333","25.014755","6500500","新莊區"
"242023","705-TV","2018/07/12 20:39:26","新北市新莊區化成路750號","121.465555","25.0577383333333","6500500","新莊區"
"242027","615-BX","2018/07/12 20:39:19","新北市新莊區思源路41號","121.459936666667","25.03985","6500500","新莊區"
"242025","613-BX","2018/07/12 20:39:27","新北市三重區疏洪西路399號","121.468776666667","25.0635666666667","6500500","新莊區"
"242029","612-BX","2018/07/12 20:39:21","新北市新莊區中華路一段236號","121.45265","25.043395","6500500","新莊區"
"242042","566-BX","2018/07/12 20:39:16","新北市新莊區中正路700-39號","121.417486666667","25.027715","6500500","新莊區"
"242046","497-BY","2018/07/12 20:39:18","新北市新莊區裕民街59號","121.418808333333","25.0244733333333","6500500","新莊區"
"242038","442-UM","2018/07/12 20:39:31","新北市新莊區新樹路168號","121.434615","25.0224216666667","6500500","新莊區"
"242051","441-UM","2018/07/12 20:39:25","新北市新莊區民安西路171號","121.426276666667","25.0159683333333","6500500","新莊區"
"242056","440-UM","2018/07/12 20:39:18","新北市新莊區瓊泰路94巷59號","121.444865","25.0294516666667","6500500","新莊區"
"242036","415-TV","2018/07/12 20:39:26","新北市新莊區建安街9巷3號","121.428961666667","25.0267116666667","6500500","新莊區"
"242007","413-TV","2018/07/12 20:39:26","新北市新莊區福壽街56巷1號","121.458545","25.0488583333333","6500500","新莊區"
"242044","400-BY","2018/07/12 20:39:18","新北市新莊區龍安路110號","121.418515","25.0204066666667","6500500","新莊區"
"242061","353-BY","2018/07/12 20:39:17","新北市新莊區新樹路258巷3號","121.432183333333","25.0156133333333","6500500","新莊區"
"242031","135-UY","2018/07/12 20:39:24","新北市新莊區中正路508巷1號","121.435666666667","25.032935","6500500","新莊區"
"242048","172-VK","2018/07/12 20:39:25","新北市新莊區中正路671號","121.426626666667","25.0301183333333","6500500","新莊區"
"242011","173-VK","2018/07/12 20:36:19","新北市新莊區中和街193號","121.447636666667","25.0523083333333","6500500","新莊區"
"242017","175-VK","2018/07/12 20:39:28","新北市新莊區中平路82巷7號","121.445226666667","25.0449116666667","6500500","新莊區"
"242015","346-TH","2018/07/12 20:39:19","新北市新莊區中和街6號","121.4486","25.042965","6500500","新莊區"
"242009","347-TH","2018/07/12 20:39:26","新北市新莊區福壽街99巷15弄7號","121.456826666667","25.0501916666667","6500500","新莊區"
"242021","348-TH","2018/07/12 20:39:15","新北市新莊區公園路130號","121.4521","25.0403283333333","6500500","新莊區"
"242002","349-TH","2018/07/12 20:39:15","新北市新莊區明中街39號","121.458078333333","25.0388366666667","6500500","新莊區"
"242013","351-TH","2018/07/12 20:39:22","新北市新莊區中和街175巷11號","121.447213333333","25.0506416666667","6500500","新莊區"
"221008","489-VK","2018/07/12 20:39:22","新北市汐止區康寧街627號","121.63734","25.0720316666667","6501100","汐止區"
"221036","130-UY","2018/07/12 20:39:30","新北市汐止區新昌路11號","121.662008333333","25.0673","6501100","汐止區"
"221015","131-UY","2018/07/12 20:39:27","新北市汐止區建成路52號","121.663746666667","25.0729","6501100","汐止區"
"221012","278-VK","2018/07/12 20:39:16","新北市汐止區保新街133-1號","121.688033333333","25.0704783333333","6501100","汐止區"
"221023","279-VK","2018/07/12 20:39:19","新北市汐止區民族二街30巷21號","121.633886666667","25.0717","6501100","汐止區"
"221032","280-BY","2018/07/12 20:39:15","新北市汐止區弘道街53巷30弄2號","121.618863333333","25.04993","6501100","汐止區"
"221027","281-BY","2018/07/12 20:39:26","新北市汐止區大同路二段567號","121.662873333333","25.069905","6501100","汐止區"
"221033","297-VK","2018/07/12 20:39:11","新北市汐止區合順街18巷8弄5號","121.620315","25.0418983333333","6501100","汐止區"
"221029","298-VK","2018/07/12 20:39:17","新北市汐止區大同路一段421號","121.642698333333","25.0611566666667","6501100","汐止區"
"221021","299-VK","2018/07/12 20:39:16","新北市汐止區水源路一段288號","121.654185","25.0581633333333","6501100","汐止區"
"221031","353-TW","2018/07/12 20:39:21","新北市汐止區中興路27巷22號","121.634061666667","25.0608283333333","6501100","汐止區"
"221035","622-UM","2018/07/12 20:39:34","新北市汐止區長江街101-5號","121.658731666667","25.0731866666667","6501100","汐止區"
"221025","623-UM","2018/07/12 20:39:25","新北市汐止區水源路二段175號","121.6578","25.0538666666667","6501100","汐止區"
"221038","646-BX","2018/07/12 20:39:28","新北市汐止區汐萬路一段227號","121.651828333333","25.0726566666667","6501100","汐止區"
"221002","707-TV","2018/07/12 20:39:31","新北市汐止區福德二路121號","121.631271666667","25.0652766666667","6501100","汐止區"
"221018","753-BX","2018/07/12 20:39:25","新北市汐止區中華街15號","121.6668","25.0709966666667","6501100","汐止區"
"220064","486-VK","2018/07/12 20:39:18","新北市林口區太平里180號","121.367366666667","25.1350433333333","6500100","板橋區"
"242034","280-VK","2018/07/12 20:39:31","新北市新莊區中正路401號","121.445296666667","25.034635","6500500","新莊區"
"220103","561-BX","2018/07/12 20:39:31","新北市板橋區漢生東路63巷1號","121.465845","25.0163416666667","6500100","板橋區"
"220070","AAC-253","2018/07/12 20:39:27","新北市八里區下罟子17號","121.379603333333","25.1429866666667","6500100","板橋區"
