"lineid","car","time","location","longitude","latitude","cityid","cityname"
"234064","337-UY","2018/07/12 20:49:25","新北市三重區光復路二段87巷63號","121.475785","25.0581933333333","6500400","永和區"
"248004","677-BX","2018/07/12 20:49:27","新北市八里區中山路三段409號","121.368571666667","25.1345533333333","6501500","五股區"
"234023","9380-KE","2018/07/12 20:49:16","新北市永和區竹林路25巷16號","121.517838333333","25.0148666666667","6500400","永和區"
"234077","969-R7","2018/07/12 20:49:26","新北市八里區荖阡坑路15-66號","121.398683333333","25.1405183333333","6500400","永和區"
"234074","AAC-211","2018/07/12 20:49:30","新北市永和區環河東路二段26號","121.522481666667","25.0128283333333","6500400","永和區"
"222002","016-RS","2018/07/12 20:49:24","新北市深坑區北深路三段93巷54號","121.603548333333","25.0012416666667","6501800","深坑區"
"222003","436-BY","2018/07/12 20:49:30","新北市深坑區文山路三段48-1號","121.609965","24.99852","6501800","深坑區"
"231059","046-UY","2018/07/12 20:49:32","新北市新店區僑信路120巷40號","121.499338333333","24.94595","6500600","新店區"
"231040","047-UY","2018/07/12 20:49:31","新北市新店區中正路270號","121.538953333333","24.97352","6500600","新店區"
"231044","106-UY","2018/07/12 20:49:21","新北市新店區中正路361號","121.535051666667","24.97629","6500600","新店區"
"231065","110-UY","2018/07/12 20:49:24","新北市新店區安祥路104巷6弄33號","121.482658333333","24.9629683333333","6500600","新店區"
"231047","187-VK","2018/07/12 20:49:23","新北市新店區寶元路二段1巷1號","121.550741666667","24.9840416666667","6500600","新店區"
"231054","KEA-2219","2018/07/12 20:49:21","新北市新店區北新路一段96巷23號","121.543023333333","24.96886","6500600","新店區"
"231057","256-BX","2018/07/12 20:49:30","新北市新店區新烏路一段7號","121.547286666667","24.95171","6500600","新店區"
"231042","268-BY","2018/07/12 20:49:19","新北市新店區寶高路120巷1號","121.554601666667","24.9760983333333","6500600","新店區"
"231051","278-BY","2018/07/12 20:48:54","新北市新店區溪園路245號","121.526326666667","24.9830666666667","6500600","新店區"
"231050","AAD-862","2018/07/12 20:49:19","新北市新店區三民路20巷36號","121.538176666667","24.971565","6500600","新店區"
"231058","3713-VJ","2018/07/12 20:49:23","新北市新店區中央路133巷15弄29號","121.531766666667","24.9748066666667","6500600","新店區"
"231066","4716-K9","2018/07/12 20:49:24","新北市新店區安民街365巷1弄8號","121.516398333333","24.9750933333333","6500600","新店區"
"231056","4715-K9","2018/07/12 20:49:15","新北市新店區安德街148巷31號","121.506386666667","24.9607933333333","6500600","新店區"
"231067","4772-VM","2018/07/12 20:49:25","新北市新店區安華路28-1號","121.519821666667","24.9608","6500600","新店區"
"231049","513-UM","2018/07/12 20:49:27","新北市新店區永業路81巷1弄1號","121.529635","24.949515","6500600","新店區"
"231063","616-UM","2018/07/12 20:49:30","新北市新店區富貴街11巷34號","121.49499","24.9483683333333","6500600","新店區"
"231061","619-UM","2018/07/12 20:49:16","新北市新店區新和街97號","121.52117","24.986595","6500600","新店區"
"231068","718-UY","2018/07/12 20:49:18","新北市新店區中興路三段220巷19號","121.544976666667","24.9832266666667","6500600","新店區"
"231064","719-UM","2018/07/12 20:49:18","新北市新店區安民街365巷3號","121.516228333333","24.9756533333333","6500600","新店區"
"231052","719-UY","2018/07/12 20:49:22","新北市新店區新烏路一段193號","121.547548333333","24.9314783333333","6500600","新店區"
"231062","720-UM","2018/07/12 20:49:30","新北市新店區和成街19巷45號","121.488416666667","24.945945","6500600","新店區"
"231060","897-TW","2018/07/12 20:49:25","新北市新店區安康路三段561巷2弄10號","121.476036666667","24.94423","6500600","新店區"
"231045","898-TW","2018/07/12 20:49:17","新北市新店區北新路一段2號","121.54084","24.9651366666667","6500600","新店區"
"231043","899-TW","2018/07/12 20:49:26","新北市新店區建國路86號","121.540446666667","24.9769866666667","6500600","新店區"
"241011","013-R5","2018/07/12 20:49:35","新北市三重區龍濱路235號","121.501645","25.0722716666667","6500200","三重區"
"241028","022-UY","2018/07/12 20:49:31","新北市三重區中正南路56號","121.4941","25.059805","6500200","三重區"
"241008","059-VK","2018/07/12 20:49:21","新北市三重區永福街72巷11號","121.479418333333","25.0767716666667","6500200","三重區"
"241022","060-VK","2018/07/12 20:49:20","新北市三重區過圳街27-5號","121.488068333333","25.0623566666667","6500200","三重區"
"241031","061-VK","2018/07/12 20:49:18","新北市三重區重陽路一段113巷2弄2號","121.487511666667","25.0599383333333","6500200","三重區"
"241015","062-VK","2018/07/12 20:49:13","新北市三重區自強路一段8號","121.498883333333","25.0683","6500200","三重區"
"241017","063-VK","2018/07/12 20:49:23","新北市三重區民生街15號","121.49172","25.0672216666667","6500200","三重區"
"241026","066-VK","2018/07/12 20:49:23","新北市三重區和平街3號","121.500181666667","25.0623683333333","6500200","三重區"
"241002","090-VK","2018/07/12 20:49:20","新北市三重區仁義街157巷83號","121.498925","25.0819083333333","6500200","三重區"
"241005","262-UM","2018/07/12 20:49:17","新北市三重區五華街141巷20號","121.491753333333","25.0852933333333","6500200","三重區"
"241016","266-UM","2018/07/12 20:49:17","新北市三重區自強路一段101號","121.495703333333","25.0663383333333","6500200","三重區"
"241009","267-UM","2018/07/12 20:49:23","新北市三重區仁愛街578號","121.48476","25.0812116666667","6500200","三重區"
"241018","268-UM","2018/07/12 20:49:25","新北市三重區正義北路239號","121.495785","25.0691716666667","6500200","三重區"
"241032","269-UM","2018/07/12 20:49:29","新北市三重區重陽路一段120巷48號","121.485036666667","25.0601483333333","6500200","三重區"
"241013","270-UM","2018/07/12 20:49:27","新北市三重區仁賢街12-1號","121.495631666667","25.0749016666667","6500200","三重區"
"241007","398-BY","2018/07/12 20:49:30","新北市三重區慈愛街8號","121.48452","25.078415","6500200","三重區"
"241035","KEA-2210","2018/07/12 20:49:22","新北市三重區文化北路248號","121.49734","25.069925","6500200","三重區"
"241025","413-TH","2018/07/12 20:49:12","新北市三重區貴陽街14號","121.484223333333","25.0618033333333","6500200","三重區"
"241004","475-VK","2018/07/12 20:49:19","新北市三重區分子尾街27號","121.489445","25.08122","6500200","三重區"
"241020","478-VK","2018/07/12 20:49:25","新北市三重區忠孝路一段101號","121.48953","25.0722116666667","6500200","三重區"
"241030","480-VK","2018/07/12 20:49:21","新北市三重區昌隆街26號","121.491975","25.052265","6500200","三重區"
"241014","543-UM","2018/07/12 20:49:14","新北市三重區萬全街71號","121.501393333333","25.0702866666667","6500200","三重區"
"241001","547-UM","2018/07/12 20:49:27","新北市三重區自強路三段97號","121.487631666667","25.0751616666667","6500200","三重區"
"241019","KEA-2593","2018/07/12 20:49:15","新北市三重區三張街33號","121.491626666667","25.0712366666667","6500200","三重區"
"241006","AAD-863","2018/07/12 20:49:27","新北市三重區車路頭街133號","121.48442","25.0761116666667","6500200","三重區"
"241023","887-TS","2018/07/12 20:49:23","新北市三重區忠孝路三段84巷1號","121.480268333333","25.0645766666667","6500200","三重區"
"241012","941-UM","2018/07/12 20:49:22","新北市三重區仁信街27號","121.501258333333","25.075545","6500200","三重區"
"241029","942-UM","2018/07/12 20:49:18","新北市三重區重安街18號","121.49032","25.05809","6500200","三重區"
"241033","AAC-255","2018/07/12 20:49:32","新北市三重區光復路二段1號","121.47237","25.0533333333333","6500200","三重區"
"247010","KEA-2869","2018/07/12 20:49:29","新北市蘆洲區鷺江街70號","121.477116666667","25.0837283333333","6501400","蘆洲區"
"235069","4980-A6","2018/07/12 20:49:16","新北市中和區員山路377號","121.481058333333","25.0023683333333","6500300","中和區"
"247024","893-R6","2018/07/12 20:49:28","新北市蘆洲區長樂路136號","121.462091666667","25.0901316666667","6501400","蘆洲區"
"247014","546-UM","2018/07/12 20:49:19","新北市蘆洲區三民路95號","121.47385","25.0849416666667","6501400","蘆洲區"
"247022","500-BY","2018/07/12 20:49:20","新北市蘆洲區三民路155號","121.471413333333","25.0868866666667","6501400","蘆洲區"
"247004","337-TH","2018/07/12 20:49:26","新北市蘆洲區長安街103號","121.461573333333","25.0808466666667","6501400","蘆洲區"
"247006","336-TH","2018/07/12 20:49:30","新北市蘆洲區永安南路二段58號","121.46545","25.0778166666667","6501400","蘆洲區"
"247016","007-UY","2018/07/12 20:49:23","新北市蘆洲區得勝街183號","121.470938333333","25.0826583333333","6501400","蘆洲區"
"247002","002-UY","2018/07/12 20:49:30","新北市蘆洲區長榮路309號","121.459938333333","25.086435","6501400","蘆洲區"
"247020","001-UY","2018/07/12 20:49:21","新北市蘆洲區仁愛街60號","121.471561666667","25.0937983333333","6501400","蘆洲區"
"222001","KEA-2212","2018/07/12 20:49:34","新北市深坑區北深路三段92號","121.607215","25.0016983333333","6501800","深坑區"
"251016","008-UM","2018/07/12 20:49:26","新北市淡水區淡金路四段469號","121.451735","25.22385","6501000","淡水區"
"251001","011-UM","2018/07/12 20:49:28","新北市淡水區淡金路一段69號","121.458833333333","25.1731033333333","6501000","淡水區"
"251013","KEA-2871","2018/07/12 20:49:27","新北市淡水區行忠路253號","121.459513333333","25.20121","6501000","淡水區"
"251014","180-VK","2018/07/12 20:49:18","新北市淡水區公埔子32-8號","121.461648333333","25.232375","6501000","淡水區"
"251015","181-VK","2018/07/12 20:49:18","新北市淡水區淡金路四段542巷17號","121.452738333333","25.2270683333333","6501000","淡水區"
"251010","413-VK","2018/07/12 20:49:23","新北市淡水區沙崙路145號","121.423293333333","25.1831966666667","6501000","淡水區"
"251012","441-VK","2018/07/12 20:49:16","新北市淡水區淡金路四段514號","121.452063333333","25.2256933333333","6501000","淡水區"
"251009","575-R6","2018/07/12 20:49:17","新北市淡水區民權路187巷17號","121.460436666667","25.1336316666667","6501000","淡水區"
"251007","577-R6","2018/07/12 20:49:27","新北市淡水區鄧公路33巷3號","121.451531666667","25.17106","6501000","淡水區"
"251011","650-BX","2018/07/12 20:49:25","新北市淡水區新市一路一段240號","121.433646666667","25.1865016666667","6501000","淡水區"
"251002","672-BX","2018/07/12 20:49:13","新北市淡水區中正東路6號","121.44694","25.1670333333333","6501000","淡水區"
"251003","673-BX","2018/07/12 20:49:27","新北市淡水區中山北路一段247巷102號","121.442106666667","25.1795466666667","6501000","淡水區"
"252002","178-VK","2018/07/12 20:49:24","新北市三芝區淡金路二段76-2號","121.50398","25.2610516666667","6502100","三芝區"
"242058","986-R7","2018/07/12 20:49:27","新北市新莊區四維路101號","121.423436666667","25.0235466666667","6500500","新莊區"
"242053","751-BX","2018/07/12 20:49:12","新北市新莊區西盛街324巷40號","121.426595","25.014925","6500500","新莊區"
"242023","705-TV","2018/07/12 20:49:27","新北市新莊區化成路547號","121.465118333333","25.0648833333333","6500500","新莊區"
"242027","615-BX","2018/07/12 20:49:19","新北市新莊區環河路48-7號","121.436628333333","25.00944","6500500","新莊區"
"242029","612-BX","2018/07/12 20:49:21","新北市新莊區瓊林路59-87號","121.442876666667","25.0249833333333","6500500","新莊區"
"242042","566-BX","2018/07/12 20:49:16","新北市新莊區天祥街15巷4號","121.417028333333","25.0275983333333","6500500","新莊區"
"242038","442-UM","2018/07/12 20:49:31","新北市新莊區瓊林路59-20號","121.440723333333","25.02154","6500500","新莊區"
"242051","441-UM","2018/07/12 20:49:14","新北市新莊區民安東路45號","121.429305","25.0209266666667","6500500","新莊區"
"242036","415-TV","2018/07/12 20:49:26","新北市新莊區中正路455-2號","121.442625","25.034","6500500","新莊區"
"242015","346-TH","2018/07/12 20:49:19","新北市新莊區瓊林路59-17號","121.442228333333","25.0247083333333","6500500","新莊區"
"242009","347-TH","2018/07/12 20:49:27","新北市新莊區昌盛街86號","121.456355","25.049865","6500500","新莊區"
"242002","349-TH","2018/07/12 20:49:15","新北市新莊區中港路五守新村10號","121.454715","25.03877","6500500","新莊區"
"242013","351-TH","2018/07/12 20:49:22","新北市新莊區新泰路528號","121.442033333333","25.047115","6500500","新莊區"
"221036","130-UY","2018/07/12 20:49:29","新北市汐止區忠孝東路282號","121.663733333333","25.068195","6501100","汐止區"
"221015","131-UY","2018/07/12 20:49:27","新北市汐止區大同路二段605號","121.664098333333","25.0706666666667","6501100","汐止區"
"221012","278-VK","2018/07/12 20:49:16","新北市汐止區大同路三段49號","121.667076666667","25.07679","6501100","汐止區"
"221027","281-BY","2018/07/12 20:49:26","新北市汐止區大同路二段375號","121.657418333333","25.067285","6501100","汐止區"
"221033","297-VK","2018/07/12 20:49:31","新北市汐止區合順街18巷8弄5號","121.620296666667","25.041865","6501100","汐止區"
"221029","298-VK","2018/07/12 20:49:17","新北市汐止區樟樹二路324號","121.64136","25.070115","6501100","汐止區"
"221035","622-UM","2018/07/12 20:49:34","新北市汐止區康寧街901號","121.65072","25.0753333333333","6501100","汐止區"
"221038","646-BX","2018/07/12 20:49:28","新北市汐止區汐萬路一段256巷3號","121.652076666667","25.0747366666667","6501100","汐止區"
"221002","707-TV","2018/07/12 20:49:31","新北市汐止區福德二路132巷3號","121.630671666667","25.065495","6501100","汐止區"
"221018","753-BX","2018/07/12 20:49:14","新北市汐止區大同路二段397號","121.658001666667","25.0672766666667","6501100","汐止區"
"220064","486-VK","2018/07/12 20:48:58","新北市八里區中山路三段409號","121.368443333333","25.134885","6500100","板橋區"
"242034","280-VK","2018/07/12 20:49:31","新北市新莊區新泰路65號","121.449496666667","25.03421","6500500","新莊區"
"220070","AAC-253","2018/07/12 20:49:27","新北市林口區汕頭32號","121.366325","25.134845","6500100","板橋區"
