"lineid","car","time","location","longitude","latitude","cityid","cityname"
"234077","969-R7","2018/07/12 21:49:26","新北市永和區福和路1號","121.526483333333","25.0097666666667","6500400","永和區"
"241017","063-VK","2018/07/12 21:49:23","新北市五股區中直路21號","121.421798333333","25.11172","6500200","三重區"
"241030","480-VK","2018/07/12 21:49:21","新北市八里區荖阡坑路16-8號","121.398491666667","25.1389416666667","6500200","三重區"
"241006","AAD-863","2018/07/12 21:49:27","新北市八里區下罟子30-35號","121.367968333333","25.1352166666667","6500200","三重區"
"247010","KEA-2869","2018/07/12 21:49:29","新北市八里區中山路三段382號","121.36857","25.1356633333333","6501400","蘆洲區"
"235010","733-UM","2018/07/12 21:35:14","新北市中和區員山路36巷13號","121.48415","24.9907816666667","6500300","中和區"
"251004","009-UM","2018/07/12 21:49:21","新北市淡水區民權路92巷35-1號","121.46199","25.1267966666667","6501000","淡水區"
"251001","011-UM","2018/07/12 21:49:28","新北市淡水區後洲路一段157號","121.427746666667","25.1985816666667","6501000","淡水區"
"251010","413-VK","2018/07/12 21:49:23","新北市淡水區中正路二段211號","121.426171666667","25.18912","6501000","淡水區"
"251012","441-VK","2018/07/12 21:49:16","新北市淡水區淡金路三段323號","121.44898","25.20599","6501000","淡水區"
"251008","442-VK","2018/07/12 21:49:25","新北市淡水區學府路104號","121.44987","25.1718066666667","6501000","淡水區"
"251005","443-VK","2018/07/12 21:49:20","新北市淡水區鄧公路30巷32弄2號","121.453633333333","25.1700083333333","6501000","淡水區"
"251006","561-UM","2018/07/12 21:49:15","新北市淡水區中正路11巷3號","121.437791666667","25.170765","6501000","淡水區"
"251009","575-R6","2018/07/12 21:49:17","新北市淡水區民族路35巷40號","121.46521","25.1369533333333","6501000","淡水區"
"251007","577-R6","2018/07/12 21:49:27","新北市淡水區水源街二段177巷76號","121.452206666667","25.1772516666667","6501000","淡水區"
"251011","650-BX","2018/07/12 21:49:25","新北市淡水區新民街322巷5弄6號","121.43642","25.18287","6501000","淡水區"
"251002","672-BX","2018/07/12 21:49:33","新北市淡水區大忠街159號","121.448291666667","25.1766333333333","6501000","淡水區"
"251003","673-BX","2018/07/12 21:49:27","新北市淡水區新春街88號","121.438773333333","25.1822966666667","6501000","淡水區"
"242038","442-UM","2018/07/12 21:49:11","新北市新莊區三和路18-21號","121.441283333333","25.0388583333333","6500500","新莊區"
"220056","276-BY","2018/07/12 21:26:10","新北市板橋區華東街1-9號","121.44811","24.9949383333333","6500100","板橋區"
"220064","486-VK","2018/07/12 21:33:16","新北市板橋區華東街1-10號","121.448398333333","24.9949766666667","6500100","板橋區"
"220070","AAC-253","2018/07/12 21:49:27","新北市板橋區華東街1-9號","121.448263333333","24.99485","6500100","板橋區"
