"lineid","car","time","location","longitude","latitude","cityid","cityname"
"241017","063-VK","2018/07/12 21:59:23","新北市林口區汕頭32號","121.366363333333","25.134925","6500200","三重區"
"241030","480-VK","2018/07/12 21:59:21","新北市五股區更洲路47-1號","121.456676666667","25.0793266666667","6500200","三重區"
"241006","AAD-863","2018/07/12 21:59:27","新北市五股區成泰路四段22巷6-4號","121.454","25.1050533333333","6500200","三重區"
"247010","KEA-2869","2018/07/12 21:58:49","新北市八里區中山路三段409號","121.368373333333","25.13485","6501400","蘆洲區"
"235010","733-UM","2018/07/12 21:35:14","新北市中和區員山路36巷13號","121.48415","24.9907816666667","6500300","中和區"
"251004","009-UM","2018/07/12 21:59:21","新北市淡水區自強路51號","121.459366666667","25.1298633333333","6501000","淡水區"
"251001","011-UM","2018/07/12 21:59:28","新北市淡水區新市三路一段306號","121.429006666667","25.1975233333333","6501000","淡水區"
"251010","413-VK","2018/07/12 21:59:23","新北市淡水區中正路二段211號","121.426161666667","25.189105","6501000","淡水區"
"251008","442-VK","2018/07/12 21:59:25","新北市淡水區學府路104號","121.449885","25.1718333333333","6501000","淡水區"
"251005","443-VK","2018/07/12 21:59:20","新北市淡水區鄧公路30巷32-2號","121.454573333333","25.16967","6501000","淡水區"
"251006","561-UM","2018/07/12 21:59:15","新北市淡水區中正路11巷3號","121.437798333333","25.17076","6501000","淡水區"
"251007","577-R6","2018/07/12 21:59:27","新北市淡水區北新路184巷48號","121.450485","25.1777716666667","6501000","淡水區"
"251011","650-BX","2018/07/12 21:59:25","新北市淡水區中山北路一段151號","121.443223333333","25.177345","6501000","淡水區"
"251003","673-BX","2018/07/12 21:59:27","新北市淡水區新春街81號","121.438766666667","25.182325","6501000","淡水區"
"242038","442-UM","2018/07/12 21:59:31","新北市新莊區三和路20-2號","121.439611666667","25.0388566666667","6500500","新莊區"
"220064","486-VK","2018/07/12 21:33:16","新北市板橋區華東街1-10號","121.448398333333","24.9949766666667","6500100","板橋區"
