"lineid","car","time","location","longitude","latitude","cityid","cityname"
"244022","483-VK","2018/12/27 10:21:31","新北市林口區仁愛路二段700號","121.369325","25.08085","6501700","林口區"
"222006","289-BY","2018/12/27 10:21:37","新北市深坑區王軍寮15號","121.614096666667","24.9818466666667","6501800","深坑區"
"231069","189-VK","2018/12/27 10:21:22","新北市新店區新潭路三段181號","121.508793333333","24.9053816666667","6500600","新店區"
"231008","192-VK","2018/12/27 10:21:27","新北市新店區廣興路5巷19號","121.545193333333","24.9149883333333","6500600","新店區"
"231007","515-UM","2018/12/27 10:21:20","新北市新店區薏仁坑路自強巷1號","121.497395","24.9577783333333","6500600","新店區"
"252007","AAC-283","2018/12/27 10:21:23","新北市三芝區新庄里番社后29-2號","121.501715","25.26986","6502100","三芝區"
"237001","159-UY","2018/12/27 10:21:17","新北市三峽區國學街37號","121.372763333333","24.9424616666667","6500900","三峽區"
