"lineid","car","time","location","longitude","latitude","cityid","cityname"
"244022","483-VK","2018/12/27 11:21:27","新北市林口區工四路45號","121.400601666667","25.0835483333333","6501700","林口區"
"231069","189-VK","2018/12/27 11:21:22","新北市新店區華潭街1巷1號","121.529678333333","24.94993","6500600","新店區"
"231008","192-VK","2018/12/27 11:21:27","新北市新店區頂石厝路53號","121.535241666667","24.9184016666667","6500600","新店區"
"235029","911-UM","2018/12/27 11:21:34","新北市中和區員山路36巷16-2號","121.485371666667","24.9916933333333","6500300","中和區"
"237001","159-UY","2018/12/27 11:21:17","桃園市桃園區富國路861巷173號","121.271696666667","25.0215283333333","6500900","三峽區"
