"lineid","car","time","location","longitude","latitude","cityid","cityname"
"244023","483-VK","2018/12/27 12:06:52","新北市林口區粉寮69號","121.405081666667","25.0907983333333","6501700","林口區"
"235005","802-TS","2018/12/27 12:11:33","新北市中和區和城路一段271巷1號","121.485601666667","24.9917033333333","6500300","中和區"
"235029","911-UM","2018/12/27 12:11:34","新北市中和區員山路36巷16-2號","121.485275","24.9917433333333","6500300","中和區"
"228005","097-TW","2018/12/27 12:11:24","新北市貢寮區福隆里東興街29-1號","121.949653333333","25.01811","6502600","貢寮區"
"228004","212-TW","2018/12/27 12:11:04","新北市貢寮區貢寮里長泰路18號","121.907541666667","25.0198683333333","6502600","貢寮區"
"207002","749-BX","2018/12/27 12:11:29","新北市萬里區中幅里中福路136號","121.674543333333","25.16633","6502800","萬里區"
