"lineid","car","time","location","longitude","latitude","cityid","cityname"
"234044","148-BY","2018/12/27 13:21:34","新北市永和區得和路373巷7號","121.524828333333","24.99996","6500400","永和區"
"234078","298-R6","2018/12/27 13:21:26","新北市永和區福和路7巷7號","121.525321666667","25.0077916666667","6500400","永和區"
"234036","336-UY","2018/12/27 13:21:30","新北市永和區民樂街47巷1號","121.52753","24.999095","6500400","永和區"
"234062","337-UY","2018/12/27 13:21:34","新北市永和區永元路17巷6弄1號","121.521375","25.000825","6500400","永和區"
"234084","338-UY","2018/12/27 13:21:25","新北市永和區永安街4巷2號","121.518831666667","25.00574","6500400","永和區"
"234068","552-UM","2018/12/27 13:21:32","新北市永和區豫溪街55號","121.517215","25.0099116666667","6500400","永和區"
"234015","745-BX","2018/12/27 13:21:21","新北市永和區環河西路一段95巷5號","121.512025","25.0176766666667","6500400","永和區"
"234028","746-BX","2018/12/27 13:21:26","新北市永和區厚德街50號","121.524885","24.99882","6500400","永和區"
"234052","KEA-2590","2018/12/27 13:21:24","新北市永和區中興街12號","121.515701666667","25.0119383333333","6500400","永和區"
"234005","839-RS","2018/12/27 13:21:25","新北市永和區保生路1號","121.506613333333","25.00725","6500400","永和區"
"234012","KEA-2591","2018/12/27 13:21:19","新北市永和區信義路21號","121.514045","25.0121733333333","6500400","永和區"
"234060","AAD-866","2018/12/27 13:21:20","新北市永和區秀朗路一段175號","121.517068333333","25.00371","6500400","永和區"
"234040","862-TW","2018/12/27 13:21:31","新北市永和區保平路177巷5弄1號","121.50987","25.0048683333333","6500400","永和區"
"234048","863-TW","2018/12/27 13:21:20","新北市永和區仁愛路104巷10號","121.512118333333","25.01372","6500400","永和區"
"234025","9371-KE","2018/12/27 13:21:31","新北市永和區豫溪街28巷19號","121.515065","25.0090133333333","6500400","永和區"
"234010","9373-KE","2018/12/27 13:21:31","新北市永和區光復街31-1號","121.516646666667","25.0179283333333","6500400","永和區"
"248013","025-BX","2018/12/27 13:21:35","新北市五股區自強路68號","121.433238333333","25.0734933333333","6501500","五股區"
"248015","026-BX","2018/12/27 13:21:23","新北市五股區西雲路293號","121.449528333333","25.0992116666667","6501500","五股區"
"248005","077-UY","2018/12/27 13:21:25","新北市五股區中興路一段136號","121.465031666667","25.0737383333333","6501500","五股區"
"248007","095-VK","2018/12/27 13:21:28","新北市五股區更洲路32巷8弄14號","121.459251666667","25.0796483333333","6501500","五股區"
"248017","225-UY","2018/12/27 13:21:37","新北市五股區御史路138-1號","121.433153333333","25.09892","6501500","五股區"
"248011","247-BX","2018/12/27 13:21:24","新北市五股區御成路10號","121.441848333333","25.0911583333333","6501500","五股區"
"248003","677-BX","2018/12/27 13:21:36","新北市五股區成泰路二段153號","121.439296666667","25.08584","6501500","五股區"
"248009","682-TV","2018/12/27 13:21:23","新北市五股區成泰路一段193號","121.43495","25.0766","6501500","五股區"
"234022","9380-KE","2018/12/27 13:21:30","新北市永和區竹林路91巷21弄11號","121.520808333333","25.0124533333333","6500400","永和區"
"234076","969-R7","2018/12/27 13:21:26","新北市永和區民有街23巷1號","121.516946666667","24.99643","6500400","永和區"
"234072","AAC-211","2018/12/27 13:21:38","新北市永和區竹林路46號","121.517698333333","25.01424","6500400","永和區"
"234066","AAC-212","2018/12/27 13:21:21","新北市永和區保平路50巷6號","121.511161666667","25.0073466666667","6500400","永和區"
"234001","AAC-295","2018/12/27 13:21:35","新北市永和區保福路一段43號","121.512623333333","25.0093983333333","6500400","永和區"
"244003","248-BX","2018/12/27 13:21:30","新北市林口區嘉寶里89-1號","121.33291","25.12064","6501700","林口區"
"243005","AAD-798","2018/12/27 13:21:32","新北市泰山區明志路三段206巷3號","121.423316666667","25.0379483333333","6501600","泰山區"
"231002","002-UM","2018/12/27 13:21:33","新北市新店區安華路28-1號","121.519698333333","24.9607433333333","6500600","新店區"
"231028","046-UY","2018/12/27 13:21:30","新北市新店區安華路28-1號","121.51958","24.9609083333333","6500600","新店區"
"231001","047-UY","2018/12/27 13:21:34","新北市新店區安華路28-1號","121.519223333333","24.9609133333333","6500600","新店區"
"231005","106-UY","2018/12/27 13:21:26","新北市新店區安華路28-1號","121.519581666667","24.96087","6500600","新店區"
"231010","107-UY","2018/12/27 13:21:27","新北市新店區安康路一段52巷1號","121.529856666667","24.9613016666667","6500600","新店區"
"231021","108-UY","2018/12/27 13:21:36","新北市新店區安康路一段20號","121.530956666667","24.9610433333333","6500600","新店區"
"231011","187-VK","2018/12/27 13:21:31","新北市新店區安一路一段1-1號","121.5198","24.9621433333333","6500600","新店區"
"231023","188-VK","2018/12/27 13:21:28","新北市新店區安一路一段1-1號","121.519785","24.961915","6500600","新店區"
"231026","256-BX","2018/12/27 13:21:28","新北市新店區安一路一段1-1號","121.51963","24.9611583333333","6500600","新店區"
"231003","268-BY","2018/12/27 13:21:30","新北市新店區安一路一段1-1號","121.519703333333","24.9611666666667","6500600","新店區"
"231018","278-BY","2018/12/27 13:21:22","新北市新店區環河路111-10號","121.530643333333","24.9706","6500600","新店區"
"231017","AAD-862","2018/12/27 13:21:30","新北市新店區秀山路72號","121.531283333333","24.960935","6500600","新店區"
"231038","3712-VJ","2018/12/27 13:21:26","新北市新店區安華路28-1號","121.519326666667","24.9607283333333","6500600","新店區"
"231027","3713-VJ","2018/12/27 13:21:33","新北市新店區安康路一段50-1號","121.529565","24.96141","6500600","新店區"
"231037","4716-K9","2018/12/27 13:21:21","新北市新店區安華路28-1號","121.519631666667","24.96064","6500600","新店區"
"231025","4715-K9","2018/12/27 13:21:25","新北市新店區中央七街61巷3號","121.528383333333","24.976585","6500600","新店區"
"231036","512-UM","2018/12/27 13:21:26","新北市新店區安康路二段397巷2-1號","121.494458333333","24.95377","6500600","新店區"
"231013","513-UM","2018/12/27 13:21:24","新北市新店區安康路一段238號","121.521925","24.96378","6500600","新店區"
"231006","617-UM","2018/12/27 13:21:28","新北市新店區安華路28-1號","121.519511666667","24.9609366666667","6500600","新店區"
"231030","619-UM","2018/12/27 13:21:34","新北市新店區安一路一段1-1號","121.519536666667","24.9612033333333","6500600","新店區"
"231034","641-BX","2018/12/27 13:21:23","新北市新店區安華路28-1號","121.51961","24.9605583333333","6500600","新店區"
"231035","719-UM","2018/12/27 13:21:31","新北市新店區安一路一段1-1號","121.519556666667","24.9614966666667","6500600","新店區"
"231031","720-UM","2018/12/27 13:21:32","新北市新店區安一路一段1-1號","121.519411666667","24.9614266666667","6500600","新店區"
"231029","897-TW","2018/12/27 13:21:35","新北市新店區安華路28-1號","121.519671666667","24.9607916666667","6500600","新店區"
"231004","899-TW","2018/12/27 13:21:24","新北市新店區安一路一段1-1號","121.519271666667","24.9610616666667","6500600","新店區"
"231024","AKT-0513","2018/12/27 13:21:36","新北市新店區中正路130號","121.542153333333","24.9715066666667","6500600","新店區"
"235030","003-UY","2018/12/27 13:21:34","新北市中和區中山路二段120號","121.502633333333","25.0038183333333","6500300","中和區"
"235028","005-UY","2018/12/27 13:21:28","新北市中和區圓通路167巷27號","121.498375","24.9943033333333","6500300","中和區"
"235027","006-UY","2018/12/27 13:21:27","新北市中和區中正路589巷9號","121.485815","24.9940266666667","6500300","中和區"
"235020","096-UM","2018/12/27 13:21:20","新北市中和區連城路469巷79弄14號","121.483728333333","24.9937033333333","6500300","中和區"
"235003","097-UM","2018/12/27 13:21:29","新北市中和區安平路59號","121.509638333333","24.9949583333333","6500300","中和區"
"235004","150-BY","2018/12/27 13:21:23","新北市中和區安平路59號","121.509776666667","24.9951483333333","6500300","中和區"
"235022","151-BY","2018/12/27 13:21:40","新北市中和區圓通路369巷156弄20號","121.488651666667","24.9818883333333","6500300","中和區"
"235019","183-VK","2018/12/27 13:21:20","新北市中和區員山路72-2號","121.48121","24.993605","6500300","中和區"
"235002","185-VK","2018/12/27 13:21:24","新北市中和區大智街109巷5號","121.523233333333","24.9925333333333","6500300","中和區"
"235013","186-VK","2018/12/27 13:21:26","新北市中和區中正路250號","121.495706666667","24.99402","6500300","中和區"
"235036","301-VK","2018/12/27 13:21:27","新北市中和區中正路432巷34號","121.490968333333","24.9959066666667","6500300","中和區"
"235006","KEA-2878","2018/12/27 13:21:38","新北市中和區大仁街20巷59號","121.51992","24.9936533333333","6500300","中和區"
"235014","4979-A6","2018/12/27 13:21:32","新北市中和區捷運路61巷9號","121.509255","24.98939","6500300","中和區"
"235033","4980-A6","2018/12/27 13:21:34","新北市中和區連城路237-1號","121.493846666667","24.9974583333333","6500300","中和區"
"235034","558-UM","2018/12/27 13:21:36","新北市中和區圓通路78號","121.500031666667","24.997135","6500300","中和區"
"235009","565-BX","2018/12/27 13:21:34","新北市中和區景安路212號","121.503941666667","24.9907816666667","6500300","中和區"
"235018","640-BX","2018/12/27 13:21:25","新北市中和區民享街86巷26號","121.473368333333","25.0006766666667","6500300","中和區"
"235024","647-TV","2018/12/27 13:21:32","新北市中和區員山路168號","121.481316666667","24.9997933333333","6500300","中和區"
"235035","783-BX","2018/12/27 13:21:33","新北市中和區中板路18巷1弄32號","121.483245","25.01269","6500300","中和區"
"235026","800-TS","2018/12/27 13:21:34","新北市中和區景平路999巷2號","121.495385","25.00597","6500300","中和區"
"235021","801-TS","2018/12/27 13:21:34","新北市中和區民享街97巷6號","121.475051666667","24.999495","6500300","中和區"
"235005","802-TS","2018/12/27 13:21:33","新北市永和區中和路381號","121.508505","24.99995","6500300","中和區"
"235016","805-TS","2018/12/27 13:21:36","新北市中和區興南路二段96號","121.504996666667","24.9840933333333","6500300","中和區"
"235012","896-TW","2018/12/27 13:21:34","新北市中和區員山路36巷16-2號","121.48502","24.9919983333333","6500300","中和區"
"235017","900-TW","2018/12/27 13:21:27","新北市中和區員山路36巷16-2號","121.484978333333","24.991975","6500300","中和區"
"235029","911-UM","2018/12/27 13:21:34","新北市中和區莊敬路49巷20弄24號","121.502808333333","25.0057866666667","6500300","中和區"
"235015","157-BY","2018/12/27 13:21:26","新北市中和區華新街150號","121.50784","24.9824216666667","6500300","中和區"
"235001","AAC-213","2018/12/27 13:21:35","新北市中和區景平路151巷37號","121.51466","24.9907483333333","6500300","中和區"
"235023","AAC-215","2018/12/27 13:21:35","新北市中和區員山路36巷16-3號","121.484933333333","24.991525","6500300","中和區"
"220013","072-UY","2018/12/27 13:21:34","新北市板橋區華東街1-9號","121.448161666667","24.9949583333333","6500100","板橋區"
"247009","336-TH","2018/12/27 13:21:24","新北市五股區中興路三段2巷10號","121.449011666667","25.0809866666667","6501400","蘆洲區"
"247021","001-UY","2018/12/27 13:21:22","新北市五股區中興路三段163號","121.449031666667","25.080805","6501400","蘆洲區"
"228005","097-TW","2018/12/27 13:21:24","新北市貢寮區美豐里丹裡街36-1號","121.910736666667","25.0596683333333","6502600","貢寮區"
"228004","212-TW","2018/12/27 13:21:36","新北市貢寮區吉林里內寮街23號","121.902068333333","24.9855383333333","6502600","貢寮區"
"253003","6232-TK","2018/12/27 13:21:33","新北市石門區內石門81號","121.56668","25.265655","6502200","石門區"
"253004","6251-TK","2018/12/27 13:21:26","新北市石門區竹子湖6號","121.615838333333","25.2615466666667","6502200","石門區"
"253002","637-UY","2018/12/27 13:21:24","新北市石門區豬槽潭2-1號","121.555356666667","25.2666433333333","6502200","石門區"
"253001","KEC-0718","2018/12/27 13:21:31","新北市石門區下員坑33-6號","121.519361666667","25.2831583333333","6502200","石門區"
"207002","749-BX","2018/12/27 13:21:28","新北市萬里區崁腳里崁腳路166號","121.645056666667","25.1558516666667","6502800","萬里區"
"207001","662-BX","2018/12/27 13:21:31","新北市萬里區龜吼里新墾丁路35-1號","121.679558333333","25.1944383333333","6502800","萬里區"
"252005","AAC-283","2018/12/27 13:21:37","新北市三芝區福德里土地公埔65號","121.518178333333","25.2267833333333","6502100","三芝區"
"247007","KED-0683","2018/12/27 13:21:19","新北市五股區中興路三段2巷10號","121.449008333333","25.0808716666667","6501400","蘆洲區"
"221032","280-BY","2018/12/27 13:21:22","新北市汐止區大同路二段184巷15號","121.653968333333","25.0636416666667","6501100","汐止區"
"221033","647-BX","2018/12/27 13:21:38","新北市汐止區光復街7巷31號","121.64046","25.0593066666667","6501100","汐止區"
"220030","610-BX","2018/12/27 13:21:21","新北市板橋區華東街1-10號","121.448281666667","24.9949516666667","6500100","板橋區"
"220043","285-UM","2018/12/27 13:21:30","新北市板橋區民生路二段161巷3號","121.470225","25.019815","6500100","板橋區"
"220023","303-R5","2018/12/27 13:21:25","新北市板橋區華東街1-10號","121.44824","24.9949716666667","6500100","板橋區"
"220010","305-R5","2018/12/27 13:21:00","新北市板橋區民生路二段120號","121.470426666667","25.0197233333333","6500100","板橋區"
"220003","630-UY","2018/12/27 13:21:40","新北市板橋區華東街1-9號","121.448195","24.994935","6500100","板橋區"
"220025","687-BX","2018/12/27 13:21:20","新北市板橋區華東街1-10號","121.44856","24.9950066666667","6500100","板橋區"
"220022","895-R6","2018/12/27 13:21:26","新北市板橋區華東街1-10號","121.44824","24.9950083333333","6500100","板橋區"
"220012","AAC-253","2018/12/27 13:21:22","新北市板橋區華東街1-8號","121.447836666667","24.994825","6500100","板橋區"
"235032","KEA-2873","2018/12/27 13:21:23","新北市中和區員山路36巷16-3號","121.485136666667","24.991195","6500300","中和區"
"235025","KEA-2875","2018/12/27 13:21:28","新北市中和區民享街97巷16號","121.475251666667","24.99977","6500300","中和區"
"235011","KEA-2876","2018/12/27 13:21:15","新北市中和區中正路303號","121.492873333333","24.9937916666667","6500300","中和區"
