"lineid","car","time","location","longitude","latitude","cityid","cityname"
"234044","148-BY","2018/12/27 13:29:34","新北市永和區秀朗路二段96號","121.52377","25.0016783333333","6500400","永和區"
"234078","298-R6","2018/12/27 13:29:26","新北市永和區林森路6號","121.526585","25.0057083333333","6500400","永和區"
"234036","336-UY","2018/12/27 13:29:30","新北市永和區民樂街33巷1號","121.527603333333","25.0012833333333","6500400","永和區"
"234062","337-UY","2018/12/27 13:29:35","新北市永和區秀朗路二段24巷21號","121.520445","25.0020783333333","6500400","永和區"
"234084","338-UY","2018/12/27 13:29:38","新北市永和區林森路92號","121.52312","25.00357","6500400","永和區"
"234068","552-UM","2018/12/27 13:29:32","新北市永和區警光街12號","121.519703333333","25.009585","6500400","永和區"
"234015","745-BX","2018/12/27 13:29:21","新北市永和區環河西路一段1號","121.515281666667","25.018095","6500400","永和區"
"234028","746-BX","2018/12/27 13:29:26","新北市永和區民生路69號","121.522615","24.9971916666667","6500400","永和區"
"234052","KEA-2590","2018/12/27 13:29:24","新北市永和區永和路二段159號","121.515291666667","25.01297","6500400","永和區"
"234005","839-RS","2018/12/27 13:29:25","新北市永和區中山路一段320號","121.506543333333","25.0069116666667","6500400","永和區"
"234012","KEA-2591","2018/12/27 13:29:39","新北市永和區中山路一段98-2號","121.511515","25.0108716666667","6500400","永和區"
"234060","AAD-866","2018/12/27 13:29:20","新北市永和區中正路419號","121.517108333333","25.0049983333333","6500400","永和區"
"234040","862-TW","2018/12/27 13:29:31","新北市永和區中和路601號","121.512313333333","25.00447","6500400","永和區"
"234048","863-TW","2018/12/27 13:29:21","新北市永和區信義路122號","121.512426666667","25.014755","6500400","永和區"
"234025","9371-KE","2018/12/27 13:29:31","新北市永和區豫溪街52巷4號","121.515791666667","25.0096066666667","6500400","永和區"
"234010","9373-KE","2018/12/27 13:29:32","新北市永和區仁愛路141巷3弄3號","121.51177","25.01247","6500400","永和區"
"248013","025-BX","2018/12/27 13:29:30","新北市五股區明德路7巷1號","121.435108333333","25.0709983333333","6501500","五股區"
"248015","026-BX","2018/12/27 13:29:35","新北市五股區凌雲路一段83巷20號","121.45013","25.1006766666667","6501500","五股區"
"248005","077-UY","2018/12/27 13:29:37","新北市五股區四維路52號","121.467321666667","25.0721483333333","6501500","五股區"
"248007","095-VK","2018/12/27 13:29:28","新北市五股區四維路185巷60號","121.462605","25.07803","6501500","五股區"
"248017","225-UY","2018/12/27 13:29:18","新北市五股區御史路269號","121.421873333333","25.1061783333333","6501500","五股區"
"248011","247-BX","2018/12/27 13:29:24","新北市五股區御史路8號","121.442211666667","25.09039","6501500","五股區"
"248003","677-BX","2018/12/27 13:29:22","新北市五股區工商路146-3號","121.43459","25.0867833333333","6501500","五股區"
"248009","682-TV","2018/12/27 13:29:23","新北市五股區水碓路16巷4號","121.43382","25.0727033333333","6501500","五股區"
"234022","9380-KE","2018/12/27 13:29:30","新北市永和區竹林路91巷70號","121.522046666667","25.0136616666667","6500400","永和區"
"234076","969-R7","2018/12/27 13:29:06","新北市永和區民治街82號","121.517475","24.9984583333333","6500400","永和區"
"234072","AAC-211","2018/12/27 13:29:38","新北市永和區永和路二段37號","121.514623333333","25.010585","6500400","永和區"
"234066","AAC-212","2018/12/27 13:29:38","新北市永和區保平路176號","121.51081","25.0067083333333","6500400","永和區"
"234001","AAC-295","2018/12/27 13:29:35","新北市永和區永和路一段107號","121.51387","25.0079083333333","6500400","永和區"
"244003","248-BX","2018/12/27 13:29:30","新北市林口區瑞平里12鄰40-1號","121.336405","25.118065","6501700","林口區"
"243005","AAD-798","2018/12/27 13:25:43","新北市泰山區明志路三段206巷3號","121.423315","25.0379516666667","6501600","泰山區"
"243004","646-TV","2018/12/27 13:29:30","新北市泰山區黎明路25號","121.421925","25.0606466666667","6501600","泰山區"
"231002","002-UM","2018/12/27 13:29:33","新北市新店區環河路62號","121.537008333333","24.9626116666667","6500600","新店區"
"231028","046-UY","2018/12/27 13:29:30","新北市新店區安華路28-1號","121.51972","24.9609016666667","6500600","新店區"
"231001","047-UY","2018/12/27 13:29:34","新北市新店區安康路一段3-1號","121.535651666667","24.96107","6500600","新店區"
"231005","106-UY","2018/12/27 13:29:26","新北市新店區環河路2號","121.538493333333","24.9617666666667","6500600","新店區"
"231010","107-UY","2018/12/27 13:29:27","新北市新店區中央路13號","121.533383333333","24.9784633333333","6500600","新店區"
"231021","108-UY","2018/12/27 13:29:36","新北市新店區永興路21號","121.544241666667","24.9388016666667","6500600","新店區"
"231011","187-VK","2018/12/27 13:29:31","新北市新店區北新路一段91號","121.538761666667","24.9617516666667","6500600","新店區"
"231023","188-VK","2018/12/27 13:29:28","新北市新店區北新路一段35號","121.537963333333","24.9591266666667","6500600","新店區"
"231026","256-BX","2018/12/27 13:29:28","新北市新店區安康路一段42號","121.530908333333","24.9610483333333","6500600","新店區"
"231003","268-BY","2018/12/27 13:29:30","新北市新店區秀山路66號","121.530795","24.9609933333333","6500600","新店區"
"231018","278-BY","2018/12/27 13:29:22","新北市新店區中央路39號","121.532911666667","24.9776433333333","6500600","新店區"
"231017","AAD-862","2018/12/27 13:29:30","新北市新店區北宜路二段30巷5弄5號","121.548495","24.9507616666667","6500600","新店區"
"231038","3712-VJ","2018/12/27 13:29:26","新北市新店區安華路28-1號","121.519391666667","24.9607183333333","6500600","新店區"
"231027","3713-VJ","2018/12/27 13:29:33","新北市新店區環河路19巷36號","121.537611666667","24.96","6500600","新店區"
"231037","4716-K9","2018/12/27 13:29:21","新北市新店區安豐路45號","121.500166666667","24.9550916666667","6500600","新店區"
"231025","4715-K9","2018/12/27 13:29:25","新北市新店區中央五街37號","121.52853","24.9750366666667","6500600","新店區"
"231036","512-UM","2018/12/27 13:29:26","新北市新店區建業路90號","121.479695","24.955395","6500600","新店區"
"231013","513-UM","2018/12/27 13:29:25","新北市新店區中央路135號","121.530341666667","24.973795","6500600","新店區"
"231006","617-UM","2018/12/27 13:29:28","新北市新店區安華路28-1號","121.51968","24.9610133333333","6500600","新店區"
"231030","619-UM","2018/12/27 13:29:34","新北市新店區安一路一段1-1號","121.519553333333","24.961095","6500600","新店區"
"231034","641-BX","2018/12/27 13:29:23","新北市新店區安華路28-1號","121.519516666667","24.9605716666667","6500600","新店區"
"231035","719-UM","2018/12/27 13:29:31","新北市新店區安一路一段1-1號","121.51954","24.9614883333333","6500600","新店區"
"231031","720-UM","2018/12/27 13:29:38","新北市新店區安豐路58號","121.498901666667","24.954245","6500600","新店區"
"231029","897-TW","2018/12/27 13:29:35","新北市新店區安華路28-1號","121.519686666667","24.96059","6500600","新店區"
"231004","899-TW","2018/12/27 13:29:24","新北市新店區安康路一段355-10號","121.520445","24.9638216666667","6500600","新店區"
"231024","AKT-0513","2018/12/27 13:29:36","新北市新店區中正路228號","121.540048333333","24.97281","6500600","新店區"
"235030","003-UY","2018/12/27 13:29:34","新北市中和區中山路二段120號","121.502798333333","25.0036983333333","6500300","中和區"
"235028","005-UY","2018/12/27 13:29:28","新北市中和區連城路139巷6號","121.49602","24.99851","6500300","中和區"
"235027","006-UY","2018/12/27 13:29:21","新北市中和區連城路347巷23號","121.488508333333","24.99524","6500300","中和區"
"235020","096-UM","2018/12/27 13:29:20","新北市中和區新民街93號","121.480915","25.008365","6500300","中和區"
"235003","097-UM","2018/12/27 13:29:29","新北市中和區大勇街27巷5號","121.517118333333","24.9935933333333","6500300","中和區"
"235004","150-BY","2018/12/27 13:29:24","新北市中和區安平路59號","121.509485","24.9952366666667","6500300","中和區"
"235022","151-BY","2018/12/27 13:29:40","新北市中和區圓通路369巷133號","121.490531666667","24.9823083333333","6500300","中和區"
"235019","183-VK","2018/12/27 13:29:40","新北市中和區莒光路80號","121.472313333333","25.0028216666667","6500300","中和區"
"235002","185-VK","2018/12/27 13:29:24","新北市中和區秀朗路三段128巷17弄27號","121.523056666667","24.9934","6500300","中和區"
"235013","186-VK","2018/12/27 13:29:26","新北市中和區景安路125號","121.50576","24.9961383333333","6500300","中和區"
"235008","293-VK","2018/12/27 13:29:21","新北市中和區復興路301巷7號","121.501546666667","24.9899333333333","6500300","中和區"
"235036","301-VK","2018/12/27 13:29:27","新北市中和區連城路168-3號","121.493623333333","24.997405","6500300","中和區"
"235006","KEA-2878","2018/12/27 13:29:38","新北市中和區自立路56巷4號","121.523181666667","24.9917866666667","6500300","中和區"
"235014","4979-A6","2018/12/27 13:29:32","新北市中和區景新街362巷3號","121.512018333333","24.9901066666667","6500300","中和區"
"235033","4980-A6","2018/12/27 13:29:34","新北市中和區連城路127巷19-10號","121.496776666667","24.9981566666667","6500300","中和區"
"235034","558-UM","2018/12/27 13:29:36","新北市中和區景平路429-1號","121.501391666667","24.995455","6500300","中和區"
"235009","565-BX","2018/12/27 13:29:34","新北市中和區南山路236巷36弄5號","121.504036666667","24.9884066666667","6500300","中和區"
"235018","640-BX","2018/12/27 13:29:25","新北市中和區民享街91-8號","121.474531666667","25.000965","6500300","中和區"
"235024","647-TV","2018/12/27 13:29:32","新北市中和區員山路475號","121.480208333333","25.004945","6500300","中和區"
"235035","783-BX","2018/12/27 13:29:33","新北市中和區中板路42號","121.482848333333","25.01224","6500300","中和區"
"235026","800-TS","2018/12/27 13:29:34","新北市中和區景平路722-2號","121.496668333333","25.0031283333333","6500300","中和區"
"235021","801-TS","2018/12/27 13:29:34","新北市中和區民安街42巷24號","121.47962","25.0009016666667","6500300","中和區"
"235005","802-TS","2018/12/27 13:29:33","新北市中和區中和路326號","121.509676666667","25.0009983333333","6500300","中和區"
"235016","805-TS","2018/12/27 13:29:36","新北市中和區興南路二段96號","121.505008333333","24.9840283333333","6500300","中和區"
"235012","896-TW","2018/12/27 13:29:34","新北市中和區中正路501號","121.488823333333","24.9935616666667","6500300","中和區"
"235017","900-TW","2018/12/27 13:29:27","新北市土城區金城路三段257號","121.471796666667","24.9900833333333","6500300","中和區"
"235029","911-UM","2018/12/27 13:29:34","新北市中和區莊敬路49巷20弄24號","121.502843333333","25.005725","6500300","中和區"
"235015","157-BY","2018/12/27 13:29:26","新北市中和區興南路二段142巷18-9號","121.502676666667","24.9843733333333","6500300","中和區"
"235001","AAC-213","2018/12/27 13:29:23","新北市中和區景德街72號","121.5168","24.991605","6500300","中和區"
"235023","AAC-215","2018/12/27 13:29:35","新北市中和區員山路36巷16-3號","121.484905","24.991505","6500300","中和區"
"220013","072-UY","2018/12/27 13:29:34","新北市板橋區縣民大道一段288號","121.461023333333","25.0103183333333","6500100","板橋區"
"220034","073-UY","2018/12/27 13:29:33","新北市板橋區華東街1-10號","121.44826","24.9950733333333","6500100","板橋區"
"220017","AAD-861","2018/12/27 13:29:32","新北市板橋區華東街1-10號","121.44839","24.9951666666667","6500100","板橋區"
"247009","336-TH","2018/12/27 13:29:24","新北市五股區中興路三段2巷10號","121.449076666667","25.0809666666667","6501400","蘆洲區"
"247021","001-UY","2018/12/27 13:29:22","新北市五股區中興路三段163號","121.449241666667","25.080695","6501400","蘆洲區"
"228005","097-TW","2018/12/27 13:29:24","新北市貢寮區美豐里文秀坑8號","121.902578333333","25.0504266666667","6502600","貢寮區"
"228004","212-TW","2018/12/27 13:29:24","新北市貢寮區龍崗里石壁坑街17號","121.910385","24.9894683333333","6502600","貢寮區"
"253003","6232-TK","2018/12/27 13:29:33","新北市石門區內石門85號","121.568708333333","25.26488","6502200","石門區"
"253004","6251-TK","2018/12/27 13:26:26","新北市石門區竹子湖13號","121.617008333333","25.2561066666667","6502200","石門區"
"253002","637-UY","2018/12/27 13:29:24","新北市石門區九芎林8號","121.564416666667","25.26513","6502200","石門區"
"253001","KEC-0718","2018/12/27 13:29:31","新北市石門區白沙灣別墅38號","121.509046666667","25.2789683333333","6502200","石門區"
"207002","749-BX","2018/12/27 13:29:28","新北市萬里區崁腳里崁腳路166號","121.645058333333","25.155835","6502800","萬里區"
"207001","662-BX","2018/12/27 13:28:11","新北市萬里區龜吼里石角路19-1號","121.684091666667","25.1918783333333","6502800","萬里區"
"252005","AAC-283","2018/12/27 13:29:37","新北市三芝區圓山里八連溪頭8-1號","121.52829","25.220685","6502100","三芝區"
"247007","KED-0683","2018/12/27 13:29:39","新北市五股區新五路二段258號","121.440895","25.0822333333333","6501400","蘆洲區"
"221032","280-BY","2018/12/27 13:29:22","新北市汐止區龍安路28巷10號","121.654833333333","25.0642316666667","6501100","汐止區"
"221033","647-BX","2018/12/27 13:28:38","台北市文山區新光路二段74巷3號","121.592691666667","24.9926016666667","6501100","汐止區"
"220027","145-BY","2018/12/27 13:25:41","","0","0","6500100","板橋區"
"220028","200-UY","2018/12/27 13:29:31","新北市板橋區華東街1-9號","121.448088333333","24.99494","6500100","板橋區"
"220030","610-BX","2018/12/27 13:29:21","新北市板橋區華東街1-10號","121.448266666667","24.9949516666667","6500100","板橋區"
"220004","276-BY","2018/12/27 13:29:30","新北市板橋區華東街1-9號","121.44814","24.994975","6500100","板橋區"
"220019","283-VK","2018/12/27 13:29:28","新北市板橋區華東街1-9號","121.448091666667","24.9949366666667","6500100","板橋區"
"220043","285-UM","2018/12/27 13:29:30","新北市板橋區民生路二段120號","121.470326666667","25.0198416666667","6500100","板橋區"
"220031","286-VK","2018/12/27 13:29:32","新北市板橋區華東街1-10號","121.44842","24.9950766666667","6500100","板橋區"
"220029","287-VK","2018/12/27 13:29:21","新北市板橋區華東街1-10號","121.448275","24.99504","6500100","板橋區"
"220032","296-UM","2018/12/27 13:29:21","新北市板橋區華東街1-9號","121.448135","24.9950166666667","6500100","板橋區"
"220023","303-R5","2018/12/27 13:29:25","新北市板橋區華東街1-9號","121.448218333333","24.9949683333333","6500100","板橋區"
"220010","305-R5","2018/12/27 13:29:40","新北市板橋區民生路二段120號","121.470455","25.01972","6500100","板橋區"
"220104","560-BX","2018/12/27 13:29:20","新北市板橋區南雅南路二段18號","121.454656666667","25.00365","6500100","板橋區"
"220052","561-BX","2018/12/27 13:29:18","新北市板橋區民生路二段161巷5號","121.470275","25.019795","6500100","板橋區"
"220003","630-UY","2018/12/27 13:29:40","新北市板橋區四川路二段140巷6號","121.449606666667","24.9932716666667","6500100","板橋區"
"220005","686-BX","2018/12/27 13:29:29","新北市板橋區華東街1-10號","121.448241666667","24.9949583333333","6500100","板橋區"
"220025","687-BX","2018/12/27 13:29:20","新北市板橋區大觀路二段265巷7-7號","121.443951666667","24.9946516666667","6500100","板橋區"
"220022","895-R6","2018/12/27 13:29:26","新北市板橋區華東街1-10號","121.448218333333","24.9950416666667","6500100","板橋區"
"220021","985-R7","2018/12/27 13:29:21","新北市板橋區四川路二段140巷2號","121.449756666667","24.9931733333333","6500100","板橋區"
"220012","AAC-253","2018/12/27 13:29:22","新北市板橋區南雅南路二段120-2號","121.45235","24.9997483333333","6500100","板橋區"
"235032","KEA-2873","2018/12/27 13:29:23","新北市中和區圓通路293-1號","121.494915","24.9926016666667","6500300","中和區"
"235025","KEA-2875","2018/12/27 13:29:28","新北市中和區民享街90巷12號","121.474063333333","25.0002016666667","6500300","中和區"
"235011","KEA-2876","2018/12/27 13:29:15","新北市中和區南山路493號","121.507911666667","24.9879583333333","6500300","中和區"
