"lineid","car","time","location","longitude","latitude","cityid","cityname"
"234044","148-BY","2018/12/27 13:59:34","新北市永和區林森路65號","121.524188333333","25.004005","6500400","永和區"
"234078","298-R6","2018/12/27 13:59:38","新北市永和區林森路112巷12弄2號","121.522503333333","25.0044083333333","6500400","永和區"
"234036","336-UY","2018/12/27 13:59:30","新北市永和區成功路二段140號","121.52648","24.9972283333333","6500400","永和區"
"234062","337-UY","2018/12/27 13:59:40","新北市永和區中正路368巷1弄33號","121.518871666667","25.00105","6500400","永和區"
"234084","338-UY","2018/12/27 13:59:25","新北市永和區福和路10巷2號","121.524733333333","25.008675","6500400","永和區"
"234068","552-UM","2018/12/27 13:59:32","新北市永和區福和路224號","121.519168333333","25.0079816666667","6500400","永和區"
"234015","745-BX","2018/12/27 13:59:21","新北市永和區文化路108號","121.513453333333","25.0152783333333","6500400","永和區"
"234028","746-BX","2018/12/27 13:59:26","新北市永和區民生路47巷25號","121.524683333333","24.9977383333333","6500400","永和區"
"234052","KEA-2590","2018/12/27 13:59:24","新北市永和區竹林路39巷42弄1號","121.520151666667","25.0151516666667","6500400","永和區"
"234005","839-RS","2018/12/27 13:59:25","新北市中和區中和路370號","121.510656666667","25.0019616666667","6500400","永和區"
"234012","KEA-2591","2018/12/27 13:59:39","新北市永和區保生路55號","121.504688333333","25.0106433333333","6500400","永和區"
"234060","AAD-866","2018/12/27 13:59:20","新北市永和區安樂路100巷28號","121.51556","24.9987816666667","6500400","永和區"
"234040","862-TW","2018/12/27 13:59:31","新北市永和區雙和街17巷21號","121.508906666667","25.0013166666667","6500400","永和區"
"234048","863-TW","2018/12/27 13:59:20","新北市永和區保安路214號","121.507446666667","25.0137133333333","6500400","永和區"
"234010","9373-KE","2018/12/27 13:59:31","新北市永和區仁愛路352巷112弄13號","121.50097","25.00861","6500400","永和區"
"248015","026-BX","2018/12/27 13:59:23","新北市五股區成泰路三段543巷12弄11號","121.451311666667","25.1024333333333","6501500","五股區"
"248007","095-VK","2018/12/27 13:59:28","新北市五股區中興路一段128巷57號","121.465705","25.0753816666667","6501500","五股區"
"248017","225-UY","2018/12/27 13:59:37","新北市五股區民義路二段22巷2號","121.420173333333","25.0968966666667","6501500","五股區"
"248011","247-BX","2018/12/27 13:59:24","新北市五股區成泰路二段195巷1號","121.440296666667","25.0873666666667","6501500","五股區"
"248003","677-BX","2018/12/27 13:59:22","新北市五股區民義路三段1號","121.402533333333","25.1143916666667","6501500","五股區"
"248009","682-TV","2018/12/27 13:59:23","新北市五股區水碓一路23號","121.430641666667","25.07127","6501500","五股區"
"234022","9380-KE","2018/12/27 13:59:30","新北市永和區永和路二段233號","121.515568333333","25.0141383333333","6500400","永和區"
"234076","969-R7","2018/12/27 13:59:26","新北市永和區民權路58巷2弄2號","121.51981","24.9983","6500400","永和區"
"234072","AAC-211","2018/12/27 13:59:38","新北市永和區豫溪街187巷1號","121.522486666667","25.0104166666667","6500400","永和區"
"234066","AAC-212","2018/12/27 13:59:38","新北市永和區永貞路376號","121.509723333333","25.00703","6500400","永和區"
"234001","AAC-295","2018/12/27 13:59:35","新北市永和區福和路345號","121.51533","25.00713","6500400","永和區"
"244003","248-BX","2018/12/27 13:59:30","新北市林口區太平里12鄰2號","121.361483333333","25.1329183333333","6501700","林口區"
"243005","AAD-798","2018/12/27 13:59:32","新北市泰山區明志路三段247號","121.423466666667","25.037555","6501600","泰山區"
"243001","297-R6","2018/12/27 13:59:37","新北市泰山區泰林路二段332-1號","121.429706666667","25.0632666666667","6501600","泰山區"
"243008","KEA-2801","2018/12/27 13:59:28","新北市泰山區明志路二段137號","121.427728333333","25.0506533333333","6501600","泰山區"
"243007","421-VK","2018/12/27 13:59:40","新北市泰山區明志路一段239號","121.432376666667","25.06083","6501600","泰山區"
"243003","KEA-2215","2018/12/27 13:59:35","新北市泰山區明志路二段320巷2弄7號","121.42607","25.0465833333333","6501600","泰山區"
"243002","KEA-2216","2018/12/27 13:59:15","新北市泰山區辭修路24號","121.42912","25.05837","6501600","泰山區"
"243004","646-TV","2018/12/27 13:59:30","新北市泰山區同義街13巷29號","121.432166666667","25.0572616666667","6501600","泰山區"
"243006","680-BX","2018/12/27 13:59:36","新北市泰山區黎明路23號","121.42096","25.0626633333333","6501600","泰山區"
"231002","002-UM","2018/12/27 13:59:33","新北市新店區中正路636號","121.533918333333","24.9891166666667","6500600","新店區"
"231028","046-UY","2018/12/27 13:59:30","新北市新店區安和路三段7號","121.518126666667","24.9805116666667","6500600","新店區"
"231001","047-UY","2018/12/27 13:59:34","新北市新店區三民路24號","121.537091666667","24.9709916666667","6500600","新店區"
"231005","106-UY","2018/12/27 13:59:26","新北市新店區中興路三段202號","121.543801666667","24.9819866666667","6500600","新店區"
"231010","107-UY","2018/12/27 13:59:27","新北市新店區環河路66號","121.536815","24.9629416666667","6500600","新店區"
"231021","108-UY","2018/12/27 13:59:36","新北市新店區自強路23巷1號","121.546066666667","24.9265966666667","6500600","新店區"
"231011","187-VK","2018/12/27 13:59:31","新北市新店區中興路二段57巷18號","121.545715","24.97086","6500600","新店區"
"231023","188-VK","2018/12/27 13:59:28","新北市新店區文中路45號","121.539626666667","24.956765","6500600","新店區"
"231026","256-BX","2018/12/27 13:59:28","新北市新店區環河路182-3號","121.533696666667","24.97013","6500600","新店區"
"231003","268-BY","2018/12/27 13:59:30","新北市新店區光明街138巷13弄1號","121.540323333333","24.9610966666667","6500600","新店區"
"231018","278-BY","2018/12/27 13:59:22","新北市新店區中央路133巷27弄1號","121.531711666667","24.9732216666667","6500600","新店區"
"231017","AAD-862","2018/12/27 13:59:30","新北市新店區郵政路1巷6號","121.557366666667","24.9521383333333","6500600","新店區"
"231038","3712-VJ","2018/12/27 13:59:25","新北市新店區安華路30巷1號","121.519643333333","24.9592866666667","6500600","新店區"
"231027","3713-VJ","2018/12/27 13:59:32","新北市新店區北宜路一段39巷20號","121.538886666667","24.958355","6500600","新店區"
"231037","4716-K9","2018/12/27 13:59:41","新北市新店區安康路三段355巷30號","121.484931666667","24.949515","6500600","新店區"
"231025","4715-K9","2018/12/27 13:59:25","新北市新店區中正路328巷42弄6號","121.538375","24.9761633333333","6500600","新店區"
"231036","512-UM","2018/12/27 13:59:26","新北市新店區安祥路110巷27號","121.473463333333","24.956305","6500600","新店區"
"231013","513-UM","2018/12/27 13:59:24","新北市新店區明德路66號","121.541583333333","24.9795383333333","6500600","新店區"
"231006","617-UM","2018/12/27 13:59:28","新北市新店區北宜路二段197號","121.552891666667","24.953295","6500600","新店區"
"231030","619-UM","2018/12/27 13:59:34","新北市新店區安康路一段244-1號","121.52132","24.9638983333333","6500600","新店區"
"231034","641-BX","2018/12/27 13:59:29","新北市新店區達觀路27-1號","121.503721666667","24.9383283333333","6500600","新店區"
"231035","719-UM","2018/12/27 13:59:31","新北市新店區安康路二段85巷17號","121.514443333333","24.9617316666667","6500600","新店區"
"231031","720-UM","2018/12/27 13:59:32","新北市新店區莒光路44巷21弄11-6號","121.518411666667","24.9523066666667","6500600","新店區"
"231029","897-TW","2018/12/27 13:59:35","新北市新店區安康路二段115號","121.512535","24.961695","6500600","新店區"
"231004","899-TW","2018/12/27 13:59:24","新北市新店區北新路二段137號","121.542845","24.9755516666667","6500600","新店區"
"231024","AKT-0513","2018/12/27 13:59:36","新北市新店區北新路一段189號","121.54024","24.964565","6500600","新店區"
"235030","003-UY","2018/12/27 13:59:34","新北市中和區中山路二段131巷5弄3號","121.502851666667","25.0028783333333","6500300","中和區"
"235028","005-UY","2018/12/27 13:59:28","新北市中和區泰和街30巷29號","121.498801666667","25.0014183333333","6500300","中和區"
"235027","006-UY","2018/12/27 13:59:41","新北市中和區中正路488-3號","121.488953333333","24.9942316666667","6500300","中和區"
"235020","096-UM","2018/12/27 13:59:20","新北市中和區中正路1230號","121.479268333333","25.01102","6500300","中和區"
"235003","097-UM","2018/12/27 13:59:29","新北市中和區秀朗路三段177號","121.524306666667","24.990945","6500300","中和區"
"235004","150-BY","2018/12/27 13:59:23","新北市中和區保健路46巷2號","121.509715","24.997075","6500300","中和區"
"235022","151-BY","2018/12/27 13:59:30","新北市中和區連城路428巷13號","121.47981","24.9955166666667","6500300","中和區"
"235019","183-VK","2018/12/27 13:59:40","新北市中和區德光路18號","121.471086666667","25.004495","6500300","中和區"
"235002","185-VK","2018/12/27 13:59:24","新北市中和區立人街20號","121.519091666667","24.9942133333333","6500300","中和區"
"235013","186-VK","2018/12/27 13:59:26","新北市中和區明仁街14號","121.506198333333","24.99549","6500300","中和區"
"235031","255-BX","2018/12/27 13:59:23","新北市中和區新生街176巷22號","121.482663333333","24.999995","6500300","中和區"
"235008","293-VK","2018/12/27 13:59:21","新北市中和區中興街161巷4弄1號","121.500556666667","24.990915","6500300","中和區"
"235036","301-VK","2018/12/27 13:59:27","新北市中和區中山路二段122號","121.502546666667","25.0035666666667","6500300","中和區"
"235006","KEA-2878","2018/12/27 13:59:38","新北市中和區秀朗路三段60巷68號","121.523963333333","24.9948883333333","6500300","中和區"
"247005","KED-0682","2018/12/27 13:59:30","新北市蘆洲區永安南路二段50號","121.466086666667","25.07758","6501400","蘆洲區"
"235014","4979-A6","2018/12/27 13:59:32","新北市中和區華新街50巷8號","121.507653333333","24.98394","6500300","中和區"
"235033","4980-A6","2018/12/27 13:59:34","新北市中和區圓通路109巷1弄4號","121.499938333333","24.9964066666667","6500300","中和區"
"235034","558-UM","2018/12/27 13:59:36","新北市中和區安和路189號","121.505995","24.998255","6500300","中和區"
"235009","565-BX","2018/12/27 13:59:34","新北市中和區景新街467巷20弄20號","121.514308333333","24.9878733333333","6500300","中和區"
"235018","640-BX","2018/12/27 13:59:25","新北市中和區民享街83號","121.474238333333","25.001725","6500300","中和區"
"235024","647-TV","2018/12/27 13:59:32","新北市中和區民治街25巷2號","121.475426666667","25.0017583333333","6500300","中和區"
"235010","733-UM","2018/12/27 13:59:28","新北市中和區興南路一段135巷22弄4號","121.509108333333","24.9869166666667","6500300","中和區"
"235035","783-BX","2018/12/27 13:59:33","新北市中和區立德街26巷5弄17號","121.48985","25.0076566666667","6500300","中和區"
"235026","800-TS","2018/12/27 13:59:34","新北市中和區中山路二段344號","121.493586666667","25.0026016666667","6500300","中和區"
"235021","801-TS","2018/12/27 13:59:33","新北市中和區民利街98號","121.477653333333","24.9978033333333","6500300","中和區"
"235005","802-TS","2018/12/27 13:59:33","新北市中和區永貞路239巷10號","121.512771666667","25.0034316666667","6500300","中和區"
"235016","805-TS","2018/12/27 13:59:36","新北市中和區興南路二段341號","121.501683333333","24.981","6500300","中和區"
"235012","896-TW","2018/12/27 13:59:34","新北市中和區華新街33號","121.507706666667","24.9847283333333","6500300","中和區"
"235017","900-TW","2018/12/27 13:59:27","新北市中和區和平路200巷23號","121.464808333333","24.9948566666667","6500300","中和區"
"235029","911-UM","2018/12/27 13:59:34","新北市中和區勝利路35巷3弄2號","121.499095","25.00711","6500300","中和區"
"235015","157-BY","2018/12/27 13:59:26","新北市中和區忠孝街31巷27號","121.509928333333","24.9842083333333","6500300","中和區"
"235001","AAC-213","2018/12/27 13:59:23","新北市中和區秀朗路三段10巷37弄1號","121.524191666667","24.9961","6500300","中和區"
"235023","AAC-215","2018/12/27 13:59:35","新北市中和區圓通路367巷20弄23號","121.491341666667","24.9882966666667","6500300","中和區"
"220013","072-UY","2018/12/27 13:59:34","新北市板橋區漢生東路342號","121.471781666667","25.0074366666667","6500100","板橋區"
"220034","073-UY","2018/12/27 13:59:38","新北市板橋區中正路236巷27號","121.457155","25.019245","6500100","板橋區"
"220105","075-UY","2018/12/27 13:59:22","新北市板橋區雙十路三段10巷1號","121.471961666667","25.0307483333333","6500100","板橋區"
"220017","AAD-861","2018/12/27 13:59:32","新北市板橋區貴興路25號","121.45773","25.0043116666667","6500100","板橋區"
"247001","893-R6","2018/12/27 13:59:37","新北市蘆洲區永平街32巷62弄2號","121.460015","25.0928233333333","6501400","蘆洲區"
"247015","546-UM","2018/12/27 13:59:39","新北市蘆洲區光華路44號","121.468785","25.08304","6501400","蘆洲區"
"247009","336-TH","2018/12/27 13:59:24","新北市蘆洲區集賢路224巷24號","121.481676666667","25.0872166666667","6501400","蘆洲區"
"247019","057-VK","2018/12/27 13:59:31","新北市蘆洲區民族路422巷22號","121.474008333333","25.0924616666667","6501400","蘆洲區"
"247013","053-VK","2018/12/27 13:59:24","新北市蘆洲區中正路169號","121.468973333333","25.0851716666667","6501400","蘆洲區"
"247017","007-UY","2018/12/27 13:59:37","新北市蘆洲區民族路327巷81弄1號","121.47539","25.08943","6501400","蘆洲區"
"247003","002-UY","2018/12/27 13:59:34","新北市蘆洲區中華街6號","121.463543333333","25.0816733333333","6501400","蘆洲區"
"247021","001-UY","2018/12/27 13:59:22","新北市蘆洲區中正路261號","121.46748","25.0873383333333","6501400","蘆洲區"
"228005","097-TW","2018/12/27 13:58:24","新北市貢寮區美豐里雞母嶺街52-1號","121.888658333333","25.0682016666667","6502600","貢寮區"
"228004","212-TW","2018/12/27 13:59:24","新北市貢寮區龍崗里嵩陽街40號","121.906276666667","25.0159166666667","6502600","貢寮區"
"253003","6232-TK","2018/12/27 13:59:33","新北市石門區尖子鹿15-1號","121.576016666667","25.27957","6502200","石門區"
"253004","6251-TK","2018/12/27 13:59:26","新北市石門區小坑37-1號","121.597151666667","25.266815","6502200","石門區"
"253002","637-UY","2018/12/27 13:57:24","新北市石門區尖山湖21-1號","121.556548333333","25.2493583333333","6502200","石門區"
"253001","KEC-0718","2018/12/27 13:59:31","新北市石門區八甲71-3號","121.530243333333","25.2693283333333","6502200","石門區"
"207002","749-BX","2018/12/27 13:59:28","新北市萬里區溪底里富士坪路21-5號","121.629395","25.14941","6502800","萬里區"
"207001","662-BX","2018/12/27 13:59:31","新北市萬里區磺潭里清水18-5號","121.63981","25.1994516666667","6502800","萬里區"
"252005","AAC-283","2018/12/27 13:59:37","新北市三芝區橫山里橫山51-1號","121.533766666667","25.2554066666667","6502100","三芝區"
"236068","105-UM","2018/12/27 13:59:28","新北市土城區青雲路322巷2弄4號","121.458188333333","24.9772816666667","6501300","土城區"
"236040","KED-0685","2018/12/27 13:59:25","新北市土城區城林路6巷80號","121.438538333333","24.9798066666667","6501300","土城區"
"236074","166-UM","2018/12/27 13:59:29","新北市土城區永寧路32巷10弄23號","121.428881666667","24.9610566666667","6501300","土城區"
"236029","253-BX","2018/12/27 13:59:40","新北市土城區城林路6巷80號","121.438598333333","24.9797716666667","6501300","土城區"
"236024","269-VK","2018/12/27 13:59:31","新北市土城區承天路35-3號","121.437575","24.96472","6501300","土城區"
"236012","270-VK","2018/12/27 13:59:36","新北市土城區學府路一段230號","121.452015","24.9849566666667","6501300","土城區"
"236032","271-VK","2018/12/27 13:59:30","新北市土城區城林路6巷80號","121.438511666667","24.9798083333333","6501300","土城區"
"247007","KED-0683","2018/12/27 13:59:39","新北市蘆洲區永安北路二段12巷1號","121.481313333333","25.0807433333333","6501400","蘆洲區"
"236017","401-BY","2018/12/27 13:59:25","新北市土城區城林路6巷80號","121.438545","24.979685","6501300","土城區"
"236057","912-UM","2018/12/27 13:59:39","新北市土城區中央路三段244巷5號","121.427816666667","24.9642183333333","6501300","土城區"
"236060","915-UM","2018/12/27 13:59:21","新北市土城區城林路6巷80號","121.438388333333","24.97979","6501300","土城區"
"236054","AAC-216","2018/12/27 13:59:39","新北市土城區城林路6巷80號","121.438741666667","24.97973","6501300","土城區"
"221033","647-BX","2018/12/27 13:59:38","新北市新店區安忠路205巷8號","121.510198333333","24.9551933333333","6501100","汐止區"
"220027","145-BY","2018/12/27 13:59:36","新北市板橋區大智街40號","121.455021666667","25.01524","6500100","板橋區"
"220028","200-UY","2018/12/27 13:59:31","新北市板橋區大觀路二段265巷60弄1號","121.442833333333","24.997995","6500100","板橋區"
"220030","610-BX","2018/12/27 13:59:21","新北市板橋區溪崑一街126號","121.429188333333","24.9882183333333","6500100","板橋區"
"220004","276-BY","2018/12/27 13:59:30","新北市板橋區信義路91-2號","121.457343333333","24.99379","6500100","板橋區"
"220020","277-BY","2018/12/27 13:59:28","新北市板橋區大觀路三段50巷63號","121.431776666667","24.996165","6500100","板橋區"
"220050","280-UM","2018/12/27 13:59:39","新北市板橋區民生路二段226巷46號","121.47177","25.0222616666667","6500100","板橋區"
"220019","283-VK","2018/12/27 13:59:28","新北市板橋區重慶路245巷61號","121.465565","25.0010783333333","6500100","板橋區"
"220043","285-UM","2018/12/27 13:59:30","新北市板橋區吳鳳路81巷52號","121.465173333333","25.030765","6500100","板橋區"
"220001","285-VK","2018/12/27 13:59:21","新北市板橋區永豐街123號","121.474511666667","25.0197","6500100","板橋區"
"220031","286-VK","2018/12/27 13:59:33","新北市板橋區龍興街101巷10號","121.444005","25.0033283333333","6500100","板橋區"
"220029","287-VK","2018/12/27 13:59:21","新北市板橋區光華街19巷4號","121.45376","25.0121616666667","6500100","板橋區"
"220039","288-VK","2018/12/27 13:59:33","新北市板橋區裕民街54號","121.461448333333","25.0286983333333","6500100","板橋區"
"220009","293-UM","2018/12/27 13:59:33","新北市板橋區中山路二段288巷2弄3號","121.479715","25.0182333333333","6500100","板橋區"
"220032","296-UM","2018/12/27 13:59:21","新北市板橋區大觀路三段52號","121.43238","24.9959816666667","6500100","板橋區"
"220023","303-R5","2018/12/27 13:59:25","新北市板橋區館前西路158-8號","121.454413333333","25.0088133333333","6500100","板橋區"
"220010","305-R5","2018/12/27 13:59:20","新北市板橋區三民路二段245巷67號","121.480988333333","25.012585","6500100","板橋區"
"220041","307-R5","2018/12/27 13:59:20","新北市板橋區文化路二段225巷72弄74號","121.468893333333","25.0300233333333","6500100","板橋區"
"220047","317-R6","2018/12/27 13:59:39","新北市板橋區民生路二段226巷30號","121.471136666667","25.022055","6500100","板橋區"
"220038","487-VK","2018/12/27 13:59:37","新北市板橋區文化路二段359號","121.472906666667","25.0308066666667","6500100","板橋區"
"220104","560-BX","2018/12/27 13:59:40","新北市板橋區中正路325巷23號","121.454186666667","25.01965","6500100","板橋區"
"220052","561-BX","2018/12/27 13:59:38","新北市板橋區介壽街17號","121.467736666667","25.0201416666667","6500100","板橋區"
"220011","609-BX","2018/12/27 13:59:29","新北市板橋區中山路二段242號","121.478485","25.0182083333333","6500100","板橋區"
"220003","630-UY","2018/12/27 13:59:40","新北市板橋區中山路一段143號","121.464391666667","25.0115716666667","6500100","板橋區"
"220040","637-BX","2018/12/27 13:59:38","新北市板橋區大同街23號","121.47751","25.0270183333333","6500100","板橋區"
"220005","686-BX","2018/12/27 13:59:33","新北市板橋區重慶路182號","121.462501666667","25.003465","6500100","板橋區"
"220025","687-BX","2018/12/27 13:59:40","新北市板橋區大觀路二段345號","121.441006666667","24.9983583333333","6500100","板橋區"
"220042","689-BX","2018/12/27 13:59:27","新北市板橋區民生路三段107號","121.466598333333","25.0252633333333","6500100","板橋區"
"220002","741-BX","2018/12/27 13:59:42","新北市板橋區重慶路89巷3號","121.462233333333","25.006445","6500100","板橋區"
"220051","KEA-2699","2018/12/27 13:59:29","新北市板橋區田單街44號","121.482696666667","25.027685","6500100","板橋區"
"220014","829-TW","2018/12/27 13:59:39","新北市板橋區三民路二段正隆巷12弄6號","121.478123333333","25.013055","6500100","板橋區"
"220016","830-TW","2018/12/27 13:59:35","新北市板橋區中山路二段465巷13號","121.481398333333","25.02098","6500100","板橋區"
"220037","833-TW","2018/12/27 13:59:40","新北市板橋區莊敬路38號","121.472798333333","25.0270283333333","6500100","板橋區"
"220022","895-R6","2018/12/27 13:59:26","新北市板橋區南雅南路一段60-1號","121.45546","25.00531","6500100","板橋區"
"220021","985-R7","2018/12/27 13:59:21","新北市板橋區館前西路209號","121.454973333333","25.0084066666667","6500100","板橋區"
"220046","AAC-210","2018/12/27 13:59:25","新北市板橋區新海路135巷33號","121.460008333333","25.02284","6500100","板橋區"
"220012","AAC-253","2018/12/27 13:59:22","新北市板橋區板新路91號","121.473103333333","25.0138383333333","6500100","板橋區"
"235032","KEA-2873","2018/12/27 13:59:23","新北市中和區安邦街83號","121.496846666667","24.9966016666667","6500300","中和區"
"235025","KEA-2875","2018/12/27 13:59:28","新北市中和區員山路356號","121.481048333333","25.0037","6500300","中和區"
"235011","KEA-2876","2018/12/27 13:59:16","新北市中和區興南路二段54巷2-4號","121.506165","24.9854583333333","6500300","中和區"
