"lineid","car","time","location","longitude","latitude","cityid","cityname"
"234044","148-BY","2018/12/27 14:19:34","新北市永和區永元路126號","121.522768333333","25.0029066666667","6500400","永和區"
"234078","298-R6","2018/12/27 14:19:32","新北市永和區國中路132巷3號","121.523608333333","25.00709","6500400","永和區"
"234036","336-UY","2018/12/27 14:19:30","新北市永和區成功路一段95號","121.526901666667","25.0026816666667","6500400","永和區"
"234062","337-UY","2018/12/27 14:19:35","新北市永和區得和路128號","121.518943333333","25.0001733333333","6500400","永和區"
"234084","338-UY","2018/12/27 14:19:25","新北市永和區永和路二段207號","121.515475","25.013825","6500400","永和區"
"234068","552-UM","2018/12/27 14:19:32","新北市永和區永利路25號","121.518235","25.0060883333333","6500400","永和區"
"234028","746-BX","2018/12/27 14:19:26","新北市永和區民權路49巷21號","121.521113333333","24.9973983333333","6500400","永和區"
"234052","KEA-2590","2018/12/27 14:19:27","新北市永和區永和路二段302號","121.516415","25.0158116666667","6500400","永和區"
"234005","839-RS","2018/12/27 14:19:25","新北市永和區永貞路372號","121.510018333333","25.0067533333333","6500400","永和區"
"234012","KEA-2591","2018/12/27 14:19:18","新北市永和區保生路24號","121.506516666667","25.0075466666667","6500400","永和區"
"234060","AAD-866","2018/12/27 14:19:20","新北市永和區得和路2號","121.51485","25.000735","6500400","永和區"
"234040","862-TW","2018/12/27 14:19:31","新北市永和區安樂路220號","121.514951666667","25.0022916666667","6500400","永和區"
"234048","863-TW","2018/12/27 14:19:21","新北市永和區保安路2號","121.510828333333","25.0174366666667","6500400","永和區"
"234025","9371-KE","2018/12/27 14:19:31","新北市永和區安樂路144巷6號","121.514623333333","25.0001033333333","6500400","永和區"
"248013","025-BX","2018/12/27 14:19:22","新北市五股區民義路一段101-3號","121.434008333333","25.086255","6501500","五股區"
"248015","026-BX","2018/12/27 14:19:26","新北市五股區凌雲路一段30號","121.452088333333","25.1006583333333","6501500","五股區"
"248007","095-VK","2018/12/27 14:19:28","新北市五股區中興路二段37巷24號","121.460656666667","25.0751533333333","6501500","五股區"
"248017","225-UY","2018/12/27 14:19:38","新北市五股區壟路12-1號","121.415555","25.0883533333333","6501500","五股區"
"248011","247-BX","2018/12/27 14:19:24","新北市五股區工商路83號","121.4379","25.0848316666667","6501500","五股區"
"248003","677-BX","2018/12/27 14:19:22","新北市五股區五福路53號","121.43303","25.08975","6501500","五股區"
"248009","682-TV","2018/12/27 14:19:23","新北市五股區水碓一路23號","121.430586666667","25.0713183333333","6501500","五股區"
"234022","9380-KE","2018/12/27 14:19:30","新北市永和區文化路29號","121.514925","25.015","6500400","永和區"
"234076","969-R7","2018/12/27 14:19:26","新北市永和區民族街81巷58號","121.520025","24.9965316666667","6500400","永和區"
"234072","AAC-211","2018/12/27 14:19:38","新北市永和區竹林路119巷30弄13號","121.522811666667","25.01166","6500400","永和區"
"234066","AAC-212","2018/12/27 14:19:18","新北市永和區保平路268巷14號","121.50793","25.006055","6500400","永和區"
"234001","AAC-295","2018/12/27 14:19:35","新北市永和區中正路523號","121.516838333333","25.0075166666667","6500400","永和區"
"243005","AAD-798","2018/12/27 14:19:32","新北市泰山區明志路三段145巷53弄1號","121.426656666667","25.0393433333333","6501600","泰山區"
"243001","297-R6","2018/12/27 14:19:37","新北市泰山區和平街13巷68號","121.434451666667","25.0664166666667","6501600","泰山區"
"243008","KEA-2801","2018/12/27 14:19:28","新北市泰山區明志路三段159號","121.42472","25.03969","6501600","泰山區"
"243007","421-VK","2018/12/27 14:19:41","新北市泰山區明志路二段17號","121.429996666667","25.053475","6501600","泰山區"
"243003","KEA-2215","2018/12/27 14:19:34","新北市泰山區貴子路72號","121.42702","25.0414133333333","6501600","泰山區"
"243002","KEA-2216","2018/12/27 14:19:43","新北市泰山區明志路二段9號","121.430273333333","25.05357","6501600","泰山區"
"243004","646-TV","2018/12/27 14:19:30","新北市泰山區仁義路220巷6號","121.432766666667","25.053925","6501600","泰山區"
"243006","680-BX","2018/12/27 14:19:35","新北市泰山區泰林路二段125號","121.434226666667","25.05969","6501600","泰山區"
"231002","002-UM","2018/12/27 14:19:33","新北市新店區中央路226號","121.52962","24.9728266666667","6500600","新店區"
"231028","046-UY","2018/12/27 14:19:30","新北市新店區安和路二段216號","121.51777","24.97555","6500600","新店區"
"231001","047-UY","2018/12/27 14:19:34","新北市新店區北新路一段96巷23號","121.54301","24.9688333333333","6500600","新店區"
"231005","106-UY","2018/12/27 14:19:26","新北市新店區中興路三段219-1號","121.543488333333","24.9823083333333","6500600","新店區"
"231021","108-UY","2018/12/27 14:19:36","新北市新店區桂山路35號","121.55955","24.9029716666667","6500600","新店區"
"231011","187-VK","2018/12/27 14:19:31","新北市新店區五峰路63巷8弄44號","121.548018333333","24.9685983333333","6500600","新店區"
"231023","188-VK","2018/12/27 14:19:38","新北市新店區光明街138巷13弄1號","121.54033","24.9611366666667","6500600","新店區"
"231003","268-BY","2018/12/27 14:19:30","新北市新店區中興路一段191號","121.543223333333","24.9649633333333","6500600","新店區"
"231018","278-BY","2018/12/27 14:19:22","新北市新店區中央四街5-1號","121.530143333333","24.97386","6500600","新店區"
"231017","AAD-862","2018/12/27 14:19:30","新北市新店區北宜路三段62號","121.575","24.9512883333333","6500600","新店區"
"231038","3712-VJ","2018/12/27 14:19:25","新北市新店區溪洲路6巷10號","121.533966666667","24.9616066666667","6500600","新店區"
"231027","3713-VJ","2018/12/27 14:19:32","新北市新店區光明街286巷2號","121.540606666667","24.9638633333333","6500600","新店區"
"231037","4716-K9","2018/12/27 14:19:21","新北市新店區安康路二段341巷38號","121.496665","24.9543466666667","6500600","新店區"
"231036","512-UM","2018/12/27 14:19:37","新北市新店區安祥路109巷29號","121.4764","24.959415","6500600","新店區"
"231013","513-UM","2018/12/27 14:19:36","新北市新店區大豐路72號","121.539018333333","24.97942","6500600","新店區"
"231006","617-UM","2018/12/27 14:19:28","新北市新店區北宜路二段599號","121.568101666667","24.95563","6500600","新店區"
"231030","619-UM","2018/12/27 14:19:34","新北市新店區安民街3巷1號","121.514551666667","24.9641383333333","6500600","新店區"
"231034","641-BX","2018/12/27 14:19:23","新北市新店區車子路11號","121.503061666667","24.9520516666667","6500600","新店區"
"231035","719-UM","2018/12/27 14:19:31","新北市新店區光華街8巷28號","121.518146666667","24.9698233333333","6500600","新店區"
"231031","720-UM","2018/12/27 14:19:32","新北市新店區碧潭路3號","121.534866666667","24.9563216666667","6500600","新店區"
"231029","897-TW","2018/12/27 14:19:35","新北市新店區安康路二段161號","121.510271666667","24.959385","6500600","新店區"
"231004","899-TW","2018/12/27 14:19:24","新北市新店區中正路151號","121.54135","24.9717483333333","6500600","新店區"
"231024","AKT-0513","2018/12/27 14:19:36","新北市新店區柴埕路59號","121.513475","24.96491","6500600","新店區"
"235030","003-UY","2018/12/27 14:19:34","新北市中和區中和路102號","121.502668333333","24.99969","6500300","中和區"
"235028","005-UY","2018/12/27 14:19:28","新北市中和區連城路2號","121.49931","25.0023666666667","6500300","中和區"
"235027","006-UY","2018/12/27 14:19:21","新北市中和區連勝街121巷9號","121.495401666667","24.994485","6500300","中和區"
"235020","096-UM","2018/12/27 14:19:40","新北市中和區員山路478號","121.479828333333","25.0067483333333","6500300","中和區"
"235003","097-UM","2018/12/27 14:19:29","新北市中和區秀峰街103巷4弄2號","121.520525","24.99009","6500300","中和區"
"235004","150-BY","2018/12/27 14:19:23","新北市中和區保健路106巷44號","121.511263333333","24.994625","6500300","中和區"
"235022","151-BY","2018/12/27 14:19:40","新北市中和區中正路637巷52弄3號","121.485263333333","24.9937533333333","6500300","中和區"
"235019","183-VK","2018/12/27 14:19:40","新北市中和區中山路三段181巷2號","121.472836666667","25.0060216666667","6500300","中和區"
"235002","185-VK","2018/12/27 14:19:24","新北市中和區大仁街10巷53號","121.520063333333","24.992505","6500300","中和區"
"235013","186-VK","2018/12/27 14:19:42","新北市中和區景新街289號","121.50986","24.9933383333333","6500300","中和區"
"235031","255-BX","2018/12/27 14:19:23","新北市中和區連城路280號","121.484403333333","24.996295","6500300","中和區"
"235008","293-VK","2018/12/27 14:19:41","新北市中和區復興路308號","121.50121","24.990305","6500300","中和區"
"235036","301-VK","2018/12/27 14:19:27","新北市中和區莊敬路33巷32號","121.499995","25.0059083333333","6500300","中和區"
"235006","KEA-2878","2018/12/27 14:19:38","新北市中和區安樂路143巷2弄5號","121.514063333333","24.9977983333333","6500300","中和區"
"247011","KEA-2869","2018/12/27 14:19:38","新北市蘆洲區民權路40號","121.476198333333","25.086585","6501400","蘆洲區"
"247005","KED-0682","2018/12/27 14:19:30","新北市蘆洲區九芎街90巷16-1號","121.465415","25.0806566666667","6501400","蘆洲區"
"235014","4979-A6","2018/12/27 14:19:32","新北市中和區景安路208巷4號","121.503785","24.99112","6500300","中和區"
"235033","4980-A6","2018/12/27 14:19:34","新北市中和區景平路736巷3弄1號","121.497183333333","25.0037083333333","6500300","中和區"
"235034","558-UM","2018/12/27 14:19:35","新北市中和區連城路71號","121.497355","25.00114","6500300","中和區"
"235009","565-BX","2018/12/27 14:19:34","新北市中和區景新街423巷33弄45號","121.51367","24.9902433333333","6500300","中和區"
"235018","640-BX","2018/12/27 14:19:25","新北市中和區國光街107巷2弄18號","121.469816666667","24.99963","6500300","中和區"
"235024","647-TV","2018/12/27 14:19:32","新北市中和區新生街114巷12號","121.482925","25.0024016666667","6500300","中和區"
"235010","733-UM","2018/12/27 14:19:28","新北市中和區華新街162號","121.507425","24.9822666666667","6500300","中和區"
"235035","783-BX","2018/12/27 14:19:33","新北市中和區立言街48號","121.488286666667","25.006705","6500300","中和區"
"235026","800-TS","2018/12/27 14:19:34","新北市中和區橋安街19號","121.492626666667","25.0041016666667","6500300","中和區"
"235021","801-TS","2018/12/27 14:19:33","新北市中和區員山路423巷15號","121.480413333333","25.0027433333333","6500300","中和區"
"235005","802-TS","2018/12/27 14:19:33","新北市中和區安平路155號","121.512323333333","24.9982383333333","6500300","中和區"
"235016","805-TS","2018/12/27 14:19:35","新北市中和區興南路二段142巷19弄58號","121.502416666667","24.983355","6500300","中和區"
"235012","896-TW","2018/12/27 14:19:34","新北市中和區華新街109巷1-3號","121.5091","24.9822683333333","6500300","中和區"
"235017","900-TW","2018/12/27 14:19:27","新北市中和區華安街16-2號","121.466318333333","24.9981783333333","6500300","中和區"
"235029","911-UM","2018/12/27 14:19:34","新北市中和區中山路二段64巷16弄3號","121.503255","25.0059816666667","6500300","中和區"
"235015","157-BY","2018/12/27 14:19:26","新北市中和區南山路325號","121.5052","24.9911933333333","6500300","中和區"
"235001","AAC-213","2018/12/27 14:19:23","新北市中和區秀朗路三段10巷14弄100號","121.523268333333","24.996595","6500300","中和區"
"235023","AAC-215","2018/12/27 14:19:35","新北市中和區圓通路286巷7號","121.49152","24.9914133333333","6500300","中和區"
"220013","072-UY","2018/12/27 14:19:34","新北市板橋區國泰街76巷32號","121.467113333333","25.0071233333333","6500100","板橋區"
"220034","073-UY","2018/12/27 14:19:36","新北市板橋區中正路250巷24號","121.456501666667","25.019405","6500100","板橋區"
"220105","075-UY","2018/12/27 14:19:22","新北市板橋區文化路二段437號","121.474726666667","25.03338","6500100","板橋區"
"220017","AAD-861","2018/12/27 14:19:32","新北市板橋區大明街20巷29弄9號","121.458223333333","25.0035383333333","6500100","板橋區"
"247001","893-R6","2018/12/27 14:19:37","新北市蘆洲區永樂街77號","121.456095","25.08869","6501400","蘆洲區"
"247015","546-UM","2018/12/27 14:19:19","新北市蘆洲區中正路185巷31弄34號","121.466985","25.08342","6501400","蘆洲區"
"247009","336-TH","2018/12/27 14:19:24","新北市蘆洲區三民路26巷26弄3號","121.477793333333","25.0829516666667","6501400","蘆洲區"
"247019","057-VK","2018/12/27 14:19:31","新北市蘆洲區民族路426巷6號","121.473801666667","25.0919783333333","6501400","蘆洲區"
"247013","053-VK","2018/12/27 14:19:24","新北市蘆洲區中山一路247號","121.47313","25.080465","6501400","蘆洲區"
"247017","007-UY","2018/12/27 14:19:37","新北市蘆洲區民權路94號","121.474221666667","25.0879466666667","6501400","蘆洲區"
"247003","002-UY","2018/12/27 14:19:34","新北市蘆洲區長安街172巷5號","121.459326666667","25.0834316666667","6501400","蘆洲區"
"247021","001-UY","2018/12/27 14:19:22","新北市蘆洲區民族路409號","121.468978333333","25.0898183333333","6501400","蘆洲區"
"228005","097-TW","2018/12/27 14:19:24","新北市貢寮區美豐里土地公嶺54號","121.894533333333","25.0650683333333","6502600","貢寮區"
"228004","212-TW","2018/12/27 14:19:37","新北市貢寮區雙玉里田寮洋街39-3號","121.925528333333","25.0139733333333","6502600","貢寮區"
"253003","6232-TK","2018/12/27 14:19:33","新北市石門區尖子鹿31-1號","121.579363333333","25.266935","6502200","石門區"
"253004","6251-TK","2018/12/27 14:19:26","新北市石門區阿里磅26號","121.589158333333","25.2571583333333","6502200","石門區"
"253002","637-UY","2018/12/27 14:19:24","新北市石門區大溪墘8-1號","121.551048333333","25.2761666666667","6502200","石門區"
"253001","KEC-0718","2018/12/27 14:19:31","新北市石門區崁子腳65-1號","121.532265","25.286005","6502200","石門區"
"207002","749-BX","2018/12/27 14:19:08","新北市萬里區溪底里溪底路13號","121.614115","25.1495283333333","6502800","萬里區"
"207001","662-BX","2018/12/27 14:19:31","新北市萬里區磺潭里清水18號","121.637786666667","25.1976983333333","6502800","萬里區"
"252005","AAC-283","2018/12/27 14:19:37","新北市三芝區橫山里大坑27號","121.526091666667","25.255085","6502100","三芝區"
"236068","105-UM","2018/12/27 14:19:28","新北市土城區明德路一段68-1號","121.465516666667","24.9830433333333","6501300","土城區"
"236040","KED-0685","2018/12/27 14:19:25","新北市土城區裕民路3巷32號","121.44859","24.98653","6501300","土城區"
"236074","166-UM","2018/12/27 14:19:29","新北市土城區中央路三段281巷23弄19號","121.42635","24.9615666666667","6501300","土城區"
"236029","253-BX","2018/12/27 14:19:40","新北市土城區順風路66號","121.440378333333","24.9775216666667","6501300","土城區"
"236024","269-VK","2018/12/27 14:19:31","新北市土城區承天路67號","121.439466666667","24.963635","6501300","土城區"
"236012","270-VK","2018/12/27 14:19:36","新北市土城區青雲路39巷7號","121.460305","24.9874566666667","6501300","土城區"
"236032","271-VK","2018/12/27 14:19:30","新北市土城區青雲路483巷9號","121.459386666667","24.9736533333333","6501300","土城區"
"247007","KED-0683","2018/12/27 14:19:39","新北市蘆洲區信義路32號","121.474488333333","25.0792883333333","6501400","蘆洲區"
"236017","401-BY","2018/12/27 14:19:25","新北市土城區金城路二段392號","121.463646666667","24.98569","6501300","土城區"
"236057","912-UM","2018/12/27 14:19:39","新北市土城區中央路四段273號","121.412798333333","24.9543433333333","6501300","土城區"
"236045","913-UM","2018/12/27 14:19:29","新北市土城區明德路一段375-3號","121.454506666667","24.9783333333333","6501300","土城區"
"236060","915-UM","2018/12/27 14:19:27","新北市土城區延壽路44巷12號","121.471016666667","24.99225","6501300","土城區"
"236054","AAC-216","2018/12/27 14:19:41","新北市土城區中華路二段243號","121.437421666667","24.9725666666667","6501300","土城區"
"221033","647-BX","2018/12/27 14:19:38","新北市汐止區橫科路52巷9弄5號","121.619513333333","25.0502033333333","6501100","汐止區"
"220027","145-BY","2018/12/27 14:19:36","新北市板橋區公館街84號","121.461065","25.015125","6500100","板橋區"
"220028","200-UY","2018/12/27 14:19:30","新北市板橋區大觀路二段19巷44號","121.448063333333","25.00308","6500100","板橋區"
"220030","610-BX","2018/12/27 14:19:37","新北市板橋區滿平街84巷153號","121.426941666667","24.98645","6500100","板橋區"
"220004","276-BY","2018/12/27 14:19:30","新北市板橋區信義路233-5號","121.459878333333","24.991205","6500100","板橋區"
"220020","277-BY","2018/12/27 14:19:24","新北市板橋區金門街290號","121.428966666667","24.9857566666667","6500100","板橋區"
"220050","280-UM","2018/12/27 14:19:39","新北市板橋區縣民大道三段127巷25號","121.476876666667","25.0237766666667","6500100","板橋區"
"220019","283-VK","2018/12/27 14:19:28","新北市板橋區重慶路265號","121.463295","25.0001483333333","6500100","板橋區"
"220043","285-UM","2018/12/27 14:19:30","新北市板橋區吳鳳路50巷12號","121.468943333333","25.0301916666667","6500100","板橋區"
"220001","285-VK","2018/12/27 14:19:21","新北市板橋區富山街18巷13號","121.478238333333","25.0227033333333","6500100","板橋區"
"220031","286-VK","2018/12/27 14:19:32","新北市板橋區龍興街73巷25號","121.442843333333","25.0025583333333","6500100","板橋區"
"220029","287-VK","2018/12/27 14:19:21","新北市板橋區南雅西路一段37號","121.453868333333","25.0045766666667","6500100","板橋區"
"220039","288-VK","2018/12/27 14:19:33","新北市板橋區裕民街72號","121.460938333333","25.028415","6500100","板橋區"
"220009","293-UM","2018/12/27 14:19:28","新北市板橋區中山路一段275號","121.469125","25.0136133333333","6500100","板橋區"
"220032","296-UM","2018/12/27 14:19:41","新北市板橋區滿平街136巷7弄1號","121.428018333333","24.987325","6500100","板橋區"
"220023","303-R5","2018/12/27 14:19:24","新北市板橋區南雅東路1-22號","121.4545","25.0052483333333","6500100","板橋區"
"220010","305-R5","2018/12/27 14:19:24","新北市板橋區三民路二段153巷18號","121.480251666667","25.014955","6500100","板橋區"
"220041","307-R5","2018/12/27 14:18:53","新北市板橋區光武街2巷59-1號","121.468985","25.0259766666667","6500100","板橋區"
"220047","317-R6","2018/12/27 14:19:39","新北市板橋區自由路51巷9-3號","121.46503","25.0234666666667","6500100","板橋區"
"220038","487-VK","2018/12/27 14:19:37","新北市板橋區中正路216巷150弄9號","121.460876666667","25.0190966666667","6500100","板橋區"
"220104","560-BX","2018/12/27 14:19:40","新北市板橋區中正路360巷41號","121.455743333333","25.023165","6500100","板橋區"
"220052","561-BX","2018/12/27 14:19:25","新北市板橋區文化路一段369-1號","121.466888333333","25.0211716666667","6500100","板橋區"
"220011","609-BX","2018/12/27 14:19:29","新北市板橋區三民路二段203-4號","121.479078333333","25.0135333333333","6500100","板橋區"
"220003","630-UY","2018/12/27 14:19:20","新北市板橋區新民街39號","121.464086666667","25.0106683333333","6500100","板橋區"
"220040","637-BX","2018/12/27 14:19:39","新北市板橋區縣民大道247巷33號","121.482015","25.0266483333333","6500100","板橋區"
"220005","686-BX","2018/12/27 14:19:29","新北市中和區壽德街26號","121.466591666667","24.9941533333333","6500100","板橋區"
"220025","687-BX","2018/12/27 14:19:20","新北市板橋區龍興街24號","121.443003333333","25.000265","6500100","板橋區"
"220042","689-BX","2018/12/27 14:19:22","新北市板橋區英士路51號","121.46096","25.0245083333333","6500100","板橋區"
"220002","741-BX","2018/12/27 14:19:26","新北市板橋區光明街45號","121.461491666667","25.0027083333333","6500100","板橋區"
"220051","KEA-2699","2018/12/27 14:19:29","新北市板橋區雙十路二段130巷2弄19號","121.474601666667","25.0288883333333","6500100","板橋區"
"220014","829-TW","2018/12/27 14:19:36","新北市板橋區長安街138巷3弄37號","121.473866666667","25.00977","6500100","板橋區"
"220016","830-TW","2018/12/27 14:19:35","新北市板橋區林森街1巷1號","121.482138333333","25.024275","6500100","板橋區"
"220037","833-TW","2018/12/27 14:19:31","新北市板橋區莊敬路2號","121.474","25.0286883333333","6500100","板橋區"
"220022","895-R6","2018/12/27 14:19:26","新北市板橋區北門街60號","121.456576666667","25.0113466666667","6500100","板橋區"
"220021","985-R7","2018/12/27 14:19:40","新北市板橋區中正路233號","121.456","25.017965","6500100","板橋區"
"220046","AAC-210","2018/12/27 14:19:37","新北市板橋區幸福路32巷3號","121.461475","25.0205966666667","6500100","板橋區"
"220012","AAC-253","2018/12/27 14:19:29","新北市板橋區中山路一段48號","121.460746666667","25.0089633333333","6500100","板橋區"
"235032","KEA-2873","2018/12/27 14:19:22","新北市中和區景平路493巷2-4號","121.499865","24.997685","6500300","中和區"
"235025","KEA-2875","2018/12/27 14:19:28","新北市中和區民利街14巷5弄2號","121.480591666667","24.9996066666667","6500300","中和區"
"235011","KEA-2876","2018/12/27 14:19:15","新北市中和區和平街54巷5弄1號","121.508845","24.99127","6500300","中和區"
