"lineid","car","time","location","longitude","latitude","cityid","cityname"
"234044","148-BY","2018/12/27 14:29:34","新北市中和區環河西路三段123號","121.488861666667","25.0112966666667","6500400","永和區"
"234078","298-R6","2018/12/27 14:29:26","新北市永和區永亨路66號","121.520863333333","25.0058766666667","6500400","永和區"
"234062","337-UY","2018/12/27 14:29:34","新北市永和區中正路417號","121.517071666667","25.0048383333333","6500400","永和區"
"234068","552-UM","2018/12/27 14:29:32","新北市永和區永寧街20號","121.520133333333","25.0069666666667","6500400","永和區"
"234028","746-BX","2018/12/27 14:29:26","新北市永和區民權路84號","121.519945","24.9969566666667","6500400","永和區"
"234052","KEA-2590","2018/12/27 14:29:24","新北市永和區光復街31-1號","121.516403333333","25.0178516666667","6500400","永和區"
"234005","839-RS","2018/12/27 14:29:25","新北市永和區中正路634號","121.516918333333","25.0081383333333","6500400","永和區"
"234012","KEA-2591","2018/12/27 14:29:39","新北市永和區保生路55號","121.504711666667","25.010645","6500400","永和區"
"234060","AAD-866","2018/12/27 14:29:20","新北市永和區秀安街19號","121.516255","25.0037583333333","6500400","永和區"
"234040","862-TW","2018/12/27 14:29:31","新北市永和區安樂路348號","121.514423333333","25.0064783333333","6500400","永和區"
"234048","863-TW","2018/12/27 14:29:41","新北市永和區新生路84號","121.507423333333","25.0149816666667","6500400","永和區"
"234025","9371-KE","2018/12/27 14:29:31","新北市永和區中正路5號","121.513818333333","24.9956016666667","6500400","永和區"
"248013","025-BX","2018/12/27 14:29:41","新北市五股區民義路一段161號","121.432518333333","25.0875133333333","6501500","五股區"
"248015","026-BX","2018/12/27 14:29:23","新北市五股區成泰路四段30號","121.455118333333","25.1084233333333","6501500","五股區"
"248007","095-VK","2018/12/27 14:29:28","新北市五股區中興路一段147號","121.465221666667","25.07355","6501500","五股區"
"248017","225-UY","2018/12/27 14:28:18","新北市五股區外寮路15號","121.416983333333","25.0788183333333","6501500","五股區"
"248011","247-BX","2018/12/27 14:29:40","新北市五股區蓬萊路24號","121.43416","25.0798216666667","6501500","五股區"
"248003","677-BX","2018/12/27 14:29:22","新北市五股區五福路16號","121.434285","25.0886016666667","6501500","五股區"
"248009","682-TV","2018/12/27 14:29:23","新北市五股區水碓一路23號","121.43061","25.07129","6501500","五股區"
"234072","AAC-211","2018/12/27 14:29:38","新北市永和區環河東路一段124號","121.52067","25.0154083333333","6500400","永和區"
"234001","AAC-295","2018/12/27 14:29:35","新北市永和區大新街3號","121.514463333333","25.008635","6500400","永和區"
"243005","AAD-798","2018/12/27 14:29:32","新北市泰山區貴子路9巷6-1號","121.425473333333","25.0422566666667","6501600","泰山區"
"243001","297-R6","2018/12/27 14:29:37","新北市泰山區半山雅42號","121.430753333333","25.0675966666667","6501600","泰山區"
"243008","KEA-2801","2018/12/27 14:29:28","新北市泰山區明志路三段227號","121.423766666667","25.038015","6501600","泰山區"
"243007","421-VK","2018/12/27 14:29:30","新北市泰山區文程路25號","121.428755","25.0494116666667","6501600","泰山區"
"243003","KEA-2215","2018/12/27 14:29:34","新北市泰山區貴子路67巷1號","121.430625","25.039785","6501600","泰山區"
"243002","KEA-2216","2018/12/27 14:29:22","新北市泰山區民生路10號","121.429976666667","25.052635","6501600","泰山區"
"243004","646-TV","2018/12/27 14:29:30","新北市泰山區全興路85號","121.433153333333","25.0577183333333","6501600","泰山區"
"243006","680-BX","2018/12/27 14:29:36","新北市泰山區仁愛路6巷63號","121.431811666667","25.0534583333333","6501600","泰山區"
"231002","002-UM","2018/12/27 14:29:33","新北市新店區中央路31號","121.532906666667","24.97785","6500600","新店區"
"231028","046-UY","2018/12/27 14:29:30","新北市新店區安和路一段45號","121.517338333333","24.96577","6500600","新店區"
"231001","047-UY","2018/12/27 14:29:34","新北市新店區北新路一段96巷23號","121.543043333333","24.9688416666667","6500600","新店區"
"231005","106-UY","2018/12/27 14:29:26","新北市新店區北新路三段63號","121.541791666667","24.9808883333333","6500600","新店區"
"231021","108-UY","2018/12/27 14:29:36","新北市新店區桂山路81巷1號","121.567468333333","24.89931","6500600","新店區"
"231011","187-VK","2018/12/27 14:29:31","新北市新店區中興路二段100巷1號","121.547643333333","24.9715233333333","6500600","新店區"
"231023","188-VK","2018/12/27 14:29:28","新北市新店區光明街185號","121.53992","24.9631816666667","6500600","新店區"
"231003","268-BY","2018/12/27 14:29:30","新北市新店區中興路一段267-3號","121.545076666667","24.96783","6500600","新店區"
"231018","278-BY","2018/12/27 14:29:22","新北市新店區中央路216-1號","121.529856666667","24.9732516666667","6500600","新店區"
"231017","AAD-862","2018/12/27 14:29:30","新北市新店區北宜路三段221號","121.592365","24.9532083333333","6500600","新店區"
"231038","3712-VJ","2018/12/27 14:29:25","新北市新店區溪洲路8巷22號","121.53348","24.9618716666667","6500600","新店區"
"231027","3713-VJ","2018/12/27 14:29:37","新北市新店區北新路二段228巷1號","121.542983333333","24.977535","6500600","新店區"
"231037","4716-K9","2018/12/27 14:29:21","新北市新店區車子路67號","121.503731666667","24.9513716666667","6500600","新店區"
"231036","512-UM","2018/12/27 14:29:28","新北市新店區安祥路109巷143號","121.477418333333","24.9584433333333","6500600","新店區"
"231013","513-UM","2018/12/27 14:29:24","新北市新店區民權路108-2號","121.536121666667","24.9835333333333","6500600","新店區"
"231006","617-UM","2018/12/27 14:29:28","新北市新店區北宜路二段401號","121.559813333333","24.954485","6500600","新店區"
"231030","619-UM","2018/12/27 14:29:34","新北市新店區安民街79號","121.516305","24.96767","6500600","新店區"
"231034","641-BX","2018/12/27 14:29:23","新北市新店區車子路11號","121.503036666667","24.952055","6500600","新店區"
"231035","719-UM","2018/12/27 14:29:31","新北市新店區安民街26號","121.515711666667","24.9649233333333","6500600","新店區"
"231031","720-UM","2018/12/27 14:29:31","新北市新店區溪洲路187-2號","121.528975","24.9648216666667","6500600","新店區"
"231029","897-TW","2018/12/27 14:29:35","新北市新店區安康路二段382號","121.500426666667","24.9570283333333","6500600","新店區"
"231004","899-TW","2018/12/27 14:29:24","新北市新店區中正路282號","121.538566666667","24.9738366666667","6500600","新店區"
"231024","AKT-0513","2018/12/27 14:29:36","新北市新店區中華路83巷67號","121.53818","24.96719","6500600","新店區"
"235030","003-UY","2018/12/27 14:29:34","新北市中和區景新街43號","121.504163333333","24.9992433333333","6500300","中和區"
"235028","005-UY","2018/12/27 14:29:28","新北市中和區景新街132巷21號","121.504443333333","24.9975916666667","6500300","中和區"
"235027","006-UY","2018/12/27 14:29:21","新北市中和區連城路203巷10弄27號","121.495175","24.9965566666667","6500300","中和區"
"235020","096-UM","2018/12/27 14:29:40","新北市中和區員山路514巷1號","121.479321666667","25.009605","6500300","中和區"
"235003","097-UM","2018/12/27 14:29:29","新北市中和區秀峰街103巷7弄4號","121.519463333333","24.9890366666667","6500300","中和區"
"235004","150-BY","2018/12/27 14:29:04","新北市中和區宜安路23巷28號","121.512025","24.9949466666667","6500300","中和區"
"235022","151-BY","2018/12/27 14:29:22","新北市中和區員山路124巷21號","121.482306666667","24.9960516666667","6500300","中和區"
"235019","183-VK","2018/12/27 14:29:40","新北市中和區民生街13巷13號","121.471636666667","25.0052016666667","6500300","中和區"
"235002","185-VK","2018/12/27 14:29:24","新北市中和區自立路99巷1號","121.521986666667","24.9948","6500300","中和區"
"235013","186-VK","2018/12/27 14:29:31","新北市中和區安平路29號","121.509291666667","24.9943883333333","6500300","中和區"
"235031","255-BX","2018/12/27 14:29:23","新北市中和區新生街186巷5弄1號","121.482838333333","24.99956","6500300","中和區"
"235008","293-VK","2018/12/27 14:29:41","新北市中和區捷運路100-1號","121.505953333333","24.9913933333333","6500300","中和區"
"235036","301-VK","2018/12/27 14:29:27","新北市中和區保平路340巷18號","121.506075","25.0045083333333","6500300","中和區"
"235006","KEA-2878","2018/12/27 14:29:38","新北市中和區中和路350巷8弄16號","121.510275","25.0001283333333","6500300","中和區"
"247011","KEA-2869","2018/12/27 14:29:38","新北市蘆洲區民族路193號","121.478505","25.0890383333333","6501400","蘆洲區"
"247005","KED-0682","2018/12/27 14:29:34","新北市蘆洲區中華街79號","121.461856666667","25.0801683333333","6501400","蘆洲區"
"235014","4979-A6","2018/12/27 14:29:32","新北市中和區中正路458號","121.490591666667","24.9942016666667","6500300","中和區"
"235033","4980-A6","2018/12/27 14:29:34","新北市中和區連城路134巷18號","121.495225","25.0001266666667","6500300","中和區"
"235034","558-UM","2018/12/27 14:29:35","新北市中和區圓通路2號","121.501993333333","24.9981033333333","6500300","中和區"
"235009","565-BX","2018/12/27 14:29:34","新北市中和區景新街493號","121.513838333333","24.9871066666667","6500300","中和區"
"235018","640-BX","2018/12/27 14:29:25","新北市中和區國光街112巷22弄3號","121.469786666667","25.002435","6500300","中和區"
"235024","647-TV","2018/12/27 14:29:32","新北市中和區員山路314巷7弄4號","121.482166666667","25.0031133333333","6500300","中和區"
"235010","733-UM","2018/12/27 14:29:28","新北市中和區忠孝街37巷49號","121.5107","24.9845316666667","6500300","中和區"
"235035","783-BX","2018/12/27 14:29:33","新北市中和區連城路521號","121.482006666667","24.9953433333333","6500300","中和區"
"235026","800-TS","2018/12/27 14:29:34","新北市中和區中山路二段488-2號","121.487335","25.00489","6500300","中和區"
"235021","801-TS","2018/12/27 14:29:33","新北市中和區員山路473號","121.480301666667","25.0048616666667","6500300","中和區"
"235005","802-TS","2018/12/27 14:29:33","新北市中和區景安路50號","121.506505","24.99821","6500300","中和區"
"235016","805-TS","2018/12/27 14:29:35","新北市中和區華新街143巷19號","121.50662","24.9809566666667","6500300","中和區"
"235012","896-TW","2018/12/27 14:29:34","新北市中和區忠孝街60巷2弄2號","121.511661666667","24.9837183333333","6500300","中和區"
"235017","900-TW","2018/12/27 14:29:27","新北市中和區民德路197號","121.469008333333","24.99825","6500300","中和區"
"235029","911-UM","2018/12/27 14:29:34","新北市中和區福美路270號","121.498016666667","25.00513","6500300","中和區"
"235015","157-BY","2018/12/27 14:29:26","新北市中和區中興街123號","121.499948333333","24.991805","6500300","中和區"
"235001","AAC-213","2018/12/27 14:29:32","新北市中和區秀朗路三段10巷29弄11號","121.52507","24.9959616666667","6500300","中和區"
"235023","AAC-215","2018/12/27 14:29:35","新北市中和區圓通路252-3號","121.493561666667","24.991255","6500300","中和區"
"220013","072-UY","2018/12/27 14:29:34","新北市板橋區實踐路93巷75號","121.467186666667","25.0052983333333","6500100","板橋區"
"220034","073-UY","2018/12/27 14:29:38","新北市板橋區國光路178號","121.46073","25.018335","6500100","板橋區"
"220105","075-UY","2018/12/27 14:29:22","新北市板橋區文化路二段548巷25號","121.476718333333","25.0338133333333","6500100","板橋區"
"220017","AAD-861","2018/12/27 14:29:32","新北市板橋區縣民大道一段64巷27號","121.456063333333","25.0032816666667","6500100","板橋區"
"247001","893-R6","2018/12/27 14:29:37","新北市蘆洲區永樂街38巷33弄46號","121.456933333333","25.0898333333333","6501400","蘆洲區"
"247015","546-UM","2018/12/27 14:29:39","新北市蘆洲區中正路185巷68弄31號","121.466028333333","25.08566","6501400","蘆洲區"
"247009","336-TH","2018/12/27 14:29:24","新北市蘆洲區鷺江街28號","121.478126666667","25.0824483333333","6501400","蘆洲區"
"247019","057-VK","2018/12/27 14:29:31","新北市蘆洲區仁愛街102-7號","121.46986","25.0949216666667","6501400","蘆洲區"
"247013","053-VK","2018/12/27 14:29:24","新北市蘆洲區中山二路130號","121.471708333333","25.0816233333333","6501400","蘆洲區"
"247017","007-UY","2018/12/27 14:29:37","新北市蘆洲區民族路336巷46號","121.478263333333","25.0914766666667","6501400","蘆洲區"
"247003","002-UY","2018/12/27 14:29:36","新北市蘆洲區長安街220巷4號","121.458588333333","25.0846116666667","6501400","蘆洲區"
"247021","001-UY","2018/12/27 14:29:22","新北市蘆洲區三民路128巷29-3號","121.470153333333","25.08923","6501400","蘆洲區"
"228005","097-TW","2018/12/27 14:29:24","新北市貢寮區美豐里巫里岸9-1號","121.901968333333","25.070075","6502600","貢寮區"
"228004","212-TW","2018/12/27 14:29:24","新北市貢寮區雙玉里田寮洋街33-1號","121.932183333333","25.013875","6502600","貢寮區"
"253003","6232-TK","2018/12/27 14:29:33","新北市石門區尖子鹿33號","121.583208333333","25.26359","6502200","石門區"
"253004","6251-TK","2018/12/27 14:29:26","新北市石門區內阿里磅47號","121.580651666667","25.2383916666667","6502200","石門區"
"253002","637-UY","2018/12/27 14:29:34","新北市石門區七股14號","121.547725","25.267895","6502200","石門區"
"253001","KEC-0718","2018/12/27 14:29:31","新北市石門區崁子腳36-1號","121.53902","25.27105","6502200","石門區"
"207002","749-BX","2018/12/27 14:25:36","新北市萬里區溪底里福德坑路2號","121.6252","25.1561166666667","6502800","萬里區"
"207001","662-BX","2018/12/27 14:29:31","新北市萬里區磺潭里清水12號","121.640085","25.199725","6502800","萬里區"
"252005","AAC-283","2018/12/27 14:29:37","新北市三芝區埔坪里埔頭坑85號","121.507481666667","25.25433","6502100","三芝區"
"236068","105-UM","2018/12/27 14:29:28","新北市土城區永豐路255巷27弄45號","121.477028333333","24.9736733333333","6501300","土城區"
"236040","KED-0685","2018/12/27 14:29:25","新北市土城區學成路99巷11號","121.450056666667","24.9882866666667","6501300","土城區"
"236074","166-UM","2018/12/27 14:29:31","新北市土城區大暖路57-1號","121.422311666667","24.958505","6501300","土城區"
"236029","253-BX","2018/12/27 14:29:39","新北市土城區水源街30號","121.440908333333","24.975565","6501300","土城區"
"236024","269-VK","2018/12/27 14:29:30","新北市土城區承天路67號","121.4395","24.9635683333333","6501300","土城區"
"236012","270-VK","2018/12/27 14:29:36","新北市土城區青雲路39巷7號","121.460376666667","24.9875183333333","6501300","土城區"
"236032","271-VK","2018/12/27 14:29:30","新北市土城區明德路一段323號","121.458903333333","24.9766916666667","6501300","土城區"
"247007","KED-0683","2018/12/27 14:29:39","新北市蘆洲區民生街8號","121.475671666667","25.07912","6501400","蘆洲區"
"236017","401-BY","2018/12/27 14:29:25","新北市土城區永豐路202巷14號","121.466206666667","24.9834666666667","6501300","土城區"
"236057","912-UM","2018/12/27 14:29:39","新北市土城區中央路四段187號","121.414878333333","24.956565","6501300","土城區"
"236045","913-UM","2018/12/27 14:29:30","新北市土城區青雲路412號","121.458826666667","24.9725433333333","6501300","土城區"
"236060","915-UM","2018/12/27 14:29:21","新北市土城區延壽路109巷21號","121.468336666667","24.9932766666667","6501300","土城區"
"236054","AAC-216","2018/12/27 14:29:39","新北市土城區福祥街101巷1號","121.440985","24.9817533333333","6501300","土城區"
"221033","647-BX","2018/12/27 14:29:38","新北市汐止區大同路一段312號","121.637228333333","25.0587666666667","6501100","汐止區"
"220027","145-BY","2018/12/27 14:29:41","新北市板橋區民權路202巷13弄38號","121.458503333333","25.016435","6500100","板橋區"
"220028","200-UY","2018/12/27 14:29:31","新北市板橋區大觀路二段37巷64號","121.449516666667","25.0022366666667","6500100","板橋區"
"220030","610-BX","2018/12/27 14:29:21","新北市板橋區金門街365號","121.428405","24.9847166666667","6500100","板橋區"
"220004","276-BY","2018/12/27 14:29:30","新北市板橋區信義路209號","121.459375","24.991625","6500100","板橋區"
"220020","277-BY","2018/12/27 14:29:25","新北市板橋區金門街226號","121.430826666667","24.98765","6500100","板橋區"
"220050","280-UM","2018/12/27 14:29:39","新北市板橋區莊敬路220巷29弄3號","121.472818333333","25.0205083333333","6500100","板橋區"
"220019","283-VK","2018/12/27 14:29:28","新北市板橋區忠孝路48巷9弄2號","121.461278333333","25.0000366666667","6500100","板橋區"
"220043","285-UM","2018/12/27 14:29:29","新北市板橋區銘傳街86號","121.469353333333","25.0314566666667","6500100","板橋區"
"220001","285-VK","2018/12/27 14:29:21","新北市板橋區永豐街181號","121.476021666667","25.0207066666667","6500100","板橋區"
"220031","286-VK","2018/12/27 14:29:30","新北市板橋區龍興街71巷2號","121.443666666667","25.0019616666667","6500100","板橋區"
"220029","287-VK","2018/12/27 14:29:21","新北市板橋區大觀路一段75巷37號","121.448893333333","25.004165","6500100","板橋區"
"220039","288-VK","2018/12/27 14:29:40","新北市板橋區長江路一段48巷2弄1號","121.458996666667","25.0287816666667","6500100","板橋區"
"220009","293-UM","2018/12/27 14:29:40","新北市板橋區漢生東路113巷6弄2號","121.46766","25.0152833333333","6500100","板橋區"
"220032","296-UM","2018/12/27 14:29:21","新北市板橋區滿平街84巷94號","121.4264","24.98693","6500100","板橋區"
"220023","303-R5","2018/12/27 14:29:37","新北市板橋區中正路305巷28弄1號","121.454268333333","25.0185766666667","6500100","板橋區"
"220010","305-R5","2018/12/27 14:29:20","新北市板橋區三民路二段123巷29號","121.480531666667","25.0156816666667","6500100","板橋區"
"220041","307-R5","2018/12/27 14:29:18","新北市板橋區陽明街164巷17號","121.464193333333","25.0245283333333","6500100","板橋區"
"220047","317-R6","2018/12/27 14:29:39","新北市板橋區民有街91號","121.464645","25.0276016666667","6500100","板橋區"
"220038","487-VK","2018/12/27 14:29:37","新北市板橋區英士路18號","121.461925","25.025295","6500100","板橋區"
"220104","560-BX","2018/12/27 14:29:28","新北市板橋區中正路399巷17號","121.453033333333","25.0226866666667","6500100","板橋區"
"220052","561-BX","2018/12/27 14:29:38","新北市板橋區陽明街23巷8弄24號","121.465186666667","25.0208233333333","6500100","板橋區"
"220011","609-BX","2018/12/27 14:29:29","新北市板橋區三民路二段251號","121.478956666667","25.0122383333333","6500100","板橋區"
"220003","630-UY","2018/12/27 14:29:20","新北市板橋區館前東路156巷30號","121.464273333333","25.0068283333333","6500100","板橋區"
"220040","637-BX","2018/12/27 14:29:18","新北市板橋區文聖街70號","121.477265","25.0303333333333","6500100","板橋區"
"220005","686-BX","2018/12/27 14:29:29","新北市板橋區和平路92號","121.461803333333","24.9946783333333","6500100","板橋區"
"220025","687-BX","2018/12/27 14:29:40","新北市板橋區大觀路二段123號","121.445935","25.0013533333333","6500100","板橋區"
"220042","689-BX","2018/12/27 14:29:42","新北市板橋區新海路393號","121.458823333333","25.0264533333333","6500100","板橋區"
"220002","741-BX","2018/12/27 14:29:26","新北市板橋區忠孝路239巷39號","121.467246666667","25.0036266666667","6500100","板橋區"
"220051","KEA-2699","2018/12/27 14:29:29","新北市板橋區松柏街36巷5號","121.475288333333","25.0297733333333","6500100","板橋區"
"220014","829-TW","2018/12/27 14:29:30","新北市板橋區漢生東路313巷17號","121.472435","25.008365","6500100","板橋區"
"220016","830-TW","2018/12/27 14:29:35","新北市板橋區中山路二段519號","121.483076666667","25.0211733333333","6500100","板橋區"
"220037","833-TW","2018/12/27 14:29:40","新北市板橋區縣民大道三段153號","121.478495","25.0238816666667","6500100","板橋區"
"220022","895-R6","2018/12/27 14:29:26","新北市板橋區大東街24號","121.456573333333","25.0089366666667","6500100","板橋區"
"220021","985-R7","2018/12/27 14:29:21","新北市板橋區瑞安街2號","121.454295","25.0233433333333","6500100","板橋區"
"220046","AAC-210","2018/12/27 14:29:25","新北市板橋區文化路一段299-1號","121.464671666667","25.0192533333333","6500100","板橋區"
"220012","AAC-253","2018/12/27 14:29:42","新北市板橋區中山路一段50-3號","121.46095","25.0092666666667","6500100","板橋區"
"235032","KEA-2873","2018/12/27 14:29:23","新北市中和區中山路二段191號","121.500108333333","25.0027333333333","6500300","中和區"
"235025","KEA-2875","2018/12/27 14:29:34","新北市中和區員山路226巷11弄2號","121.48212","25.0001066666667","6500300","中和區"
"235011","KEA-2876","2018/12/27 14:29:15","新北市中和區景平路241巷66號","121.507723333333","24.99228","6500300","中和區"
