"lineid","car","time","location","longitude","latitude","cityid","cityname"
"234048","863-TW","2018/12/27 15:49:40","新北市八里區中華路三段47-1號","121.395165","25.1414616666667","6500400","永和區"
"243014","680-BX","2018/12/27 15:34:03","新北市泰山區黎明路25號","121.422121666667","25.06066","6501600","泰山區"
"231046","107-UY","2018/12/27 15:49:40","新北市新店區安華路28-1號","121.519675","24.9609833333333","6500600","新店區"
"231021","108-UY","2018/12/27 15:49:36","新北市新店區新烏路一段123-1號","121.545406666667","24.93731","6500600","新店區"
"231011","187-VK","2018/12/27 15:49:38","新北市新店區中興路三段161號","121.544135","24.9803116666667","6500600","新店區"
"231023","188-VK","2018/12/27 15:49:28","新北市新店區中央一街22號","121.527993333333","24.9729983333333","6500600","新店區"
"231026","256-BX","2018/12/27 15:49:22","新北市新店區中正路397號","121.534435","24.9774083333333","6500600","新店區"
"231003","268-BY","2018/12/27 15:49:30","新北市新店區寶興路60巷4號","121.549865","24.97185","6500600","新店區"
"231018","278-BY","2018/12/27 15:49:42","新北市新店區中正路663巷1弄2號","121.53293","24.9900316666667","6500600","新店區"
"231017","AAD-862","2018/12/27 15:49:30","新北市新店區中華路83巷4弄20號","121.538286666667","24.968905","6500600","新店區"
"231038","3712-VJ","2018/12/27 15:49:25","新北市新店區安康路二段226號","121.50952","24.9592583333333","6500600","新店區"
"231037","4716-K9","2018/12/27 15:49:21","新北市新店區安興路112號","121.514658333333","24.977635","6500600","新店區"
"231013","513-UM","2018/12/27 15:49:24","新北市新店區永業路81巷3弄1號","121.529861666667","24.9492733333333","6500600","新店區"
"231030","619-UM","2018/12/27 15:49:34","新北市新店區永安街60號","121.518913333333","24.9868383333333","6500600","新店區"
"231034","641-BX","2018/12/27 15:49:23","新北市新店區吉祥街6巷1號","121.49765","24.9455766666667","6500600","新店區"
"231035","719-UM","2018/12/27 15:49:31","新北市新店區安興路83-3號","121.515323333333","24.975455","6500600","新店區"
"231031","720-UM","2018/12/27 15:49:31","新北市新店區雙城路60巷40號","121.49287","24.946195","6500600","新店區"
"241011","013-R5","2018/12/27 15:49:41","新北市三重區文化北路137號","121.497745","25.0691933333333","6500200","三重區"
"241028","022-UY","2018/12/27 15:49:38","新北市三重區中正南路115號","121.494118333333","25.05742","6500200","三重區"
"241008","059-VK","2018/12/27 15:49:31","新北市三重區重新路四段121號","121.484971666667","25.0519766666667","6500200","三重區"
"241022","060-VK","2018/12/27 15:49:32","新北市三重區新北大道一段250號","121.479921666667","25.0611983333333","6500200","三重區"
"241015","062-VK","2018/12/27 15:49:39","新北市三重區重新路四段121號","121.485148333333","25.0520366666667","6500200","三重區"
"241017","063-VK","2018/12/27 15:49:30","新北市三重區大仁街13號","121.491741666667","25.0642733333333","6500200","三重區"
"241024","065-VK","2018/12/27 15:49:36","新北市三重區重新路四段121號","121.48486","25.0525583333333","6500200","三重區"
"241002","090-VK","2018/12/27 15:49:30","新北市三重區重新路四段121號","121.484753333333","25.0517816666667","6500200","三重區"
"241003","091-VK","2018/12/27 15:49:36","新北市三重區環河北路300號","121.500855","25.0794166666667","6500200","三重區"
"241005","262-UM","2018/12/27 15:49:15","新北市三重區正義南路183號","121.499236666667","25.05643","6500200","三重區"
"241016","266-UM","2018/12/27 15:49:29","新北市三重區重新路四段121號","121.485175","25.0520133333333","6500200","三重區"
"241018","268-UM","2018/12/27 15:49:29","新北市三重區重新路四段121號","121.484781666667","25.05205","6500200","三重區"
"241014","270-UM","2018/12/27 15:49:42","新北市三重區正義北路307號","121.494363333333","25.0711716666667","6500200","三重區"
"241025","271-UM","2018/12/27 15:49:24","新北市三重區名源街29巷2號","121.480023333333","25.06084","6500200","三重區"
"241007","398-BY","2018/12/27 15:49:29","新北市三重區忠孝路三段56-1號","121.480565","25.065435","6500200","三重區"
"241004","475-VK","2018/12/27 15:49:36","新北市三重區重新路四段121號","121.484946666667","25.0518783333333","6500200","三重區"
"241020","478-VK","2018/12/27 15:49:41","新北市三重區忠孝路二段48號","121.485108333333","25.0703716666667","6500200","三重區"
"241013","543-UM","2018/12/27 15:49:29","新北市三重區三和路三段26號","121.496486666667","25.0703833333333","6500200","三重區"
"241001","547-UM","2018/12/27 15:49:37","新北市三重區重新路四段121號","121.484835","25.0522433333333","6500200","三重區"
"241006","AAD-863","2018/12/27 15:49:28","新北市三重區重新路四段121號","121.484703333333","25.0520583333333","6500200","三重區"
"241026","743-BX","2018/12/27 15:49:38","新北市三重區環河南路261號","121.490315","25.0500016666667","6500200","三重區"
"241023","887-TS","2018/12/27 15:49:42","新北市三重區三民街190巷10號","121.480903333333","25.0647983333333","6500200","三重區"
"241012","941-UM","2018/12/27 15:49:25","新北市三重區文化北路69號","121.498541666667","25.0665916666667","6500200","三重區"
"241029","942-UM","2018/12/27 15:49:34","新北市三重區大同南路246號","121.496963333333","25.0557833333333","6500200","三重區"
"235033","4980-A6","2018/12/27 15:49:34","新北市中和區連城路469巷70弄24號","121.482581666667","24.9939066666667","6500300","中和區"
"235023","AAC-215","2018/12/27 15:49:35","新北市中和區員山路66-4號","121.481833333333","24.99188","6500300","中和區"
"227004","642-TC","2018/12/27 15:49:40","新北市雙溪區平林里外平林44號","121.852916666667","25.0363166666667","6502500","雙溪區"
"227010","400-TW","2018/12/27 15:49:39","新北市雙溪區牡丹里中正路58巷30號","121.866175","25.0419166666667","6502500","雙溪區"
"236068","105-UM","2018/12/27 15:49:27","新北市土城區福安街1號","121.420321666667","24.9651083333333","6501300","土城區"
"236040","KED-0685","2018/12/27 15:49:25","新北市土城區中華路二段237號","121.437443333333","24.972725","6501300","土城區"
"236074","166-UM","2018/12/27 15:49:29","新北市土城區福安街55巷9號","121.418801666667","24.9639383333333","6501300","土城區"
"236024","269-VK","2018/12/27 15:49:30","新北市土城區裕生路83巷29弄1號","121.448135","24.9838933333333","6501300","土城區"
"236012","270-VK","2018/12/27 15:49:36","新北市土城區四川路10號","121.45556","24.9960916666667","6501300","土城區"
"236017","401-BY","2018/12/27 15:49:29","新北市土城區延吉街23巷17號","121.47397","24.987415","6501300","土城區"
"236057","912-UM","2018/12/27 15:49:39","新北市土城區中央路一段251-1號","121.445226666667","24.98571","6501300","土城區"
"236045","913-UM","2018/12/27 15:49:33","新北市土城區金城路三段77號","121.466641666667","24.9871683333333","6501300","土城區"
"236060","915-UM","2018/12/27 15:49:21","新北市土城區光明街1號","121.442093333333","24.9749516666667","6501300","土城區"
"236054","AAC-216","2018/12/27 15:49:38","新北市土城區中華路一段277號","121.440011666667","24.9801366666667","6501300","土城區"
"238002","755-BX","2018/12/27 15:49:18","新北市樹林區樹德街136巷13弄8號","121.419648333333","24.9931183333333","6500700","樹林區"
"238010","601-UM","2018/12/27 15:49:40","新北市樹林區福興街31號","121.404258333333","25.015655","6500700","樹林區"
"238006","599-UM","2018/12/27 15:49:26","新北市樹林區忠孝街101巷2弄1號","121.42485","24.9810483333333","6500700","樹林區"
"238011","5061-A6","2018/12/27 15:49:38","新北市樹林區山佳街57號","121.392928333333","24.9724933333333","6500700","樹林區"
"238009","KEA-2213","2018/12/27 15:49:36","新北市樹林區太順街62巷3弄32號","121.41655","24.97925","6500700","樹林區"
"238008","KEA-2539","2018/12/27 15:49:34","新北市樹林區柑園街二段149巷2號","121.382295","24.9536916666667","6500700","樹林區"
"238012","303-VK","2018/12/27 15:49:34","新北市樹林區保安二街84巷1號","121.423168333333","24.995505","6500700","樹林區"
"238004","283-BY","2018/12/27 15:49:36","新北市樹林區光華街14巷2號","121.41345","25.0032333333333","6500700","樹林區"
"238001","282-BY","2018/12/27 15:49:23","新北市樹林區千歲街4號","121.424945","24.995595","6500700","樹林區"
"238007","268-VK","2018/12/27 15:49:30","新北市樹林區三俊街199巷10-10號","121.420183333333","25.016595","6500700","樹林區"
"238013","172-UY","2018/12/27 15:49:29","新北市樹林區佳園路一段4號","121.39274","24.97153","6500700","樹林區"
"238003","169-UY","2018/12/27 15:46:18","新北市樹林區復興路335巷5號","121.418256666667","24.9879683333333","6500700","樹林區"
"220004","276-BY","2018/12/27 15:49:29","新北市樹林區八德街1022號","121.391043333333","24.9684516666667","6500100","板橋區"
"220029","287-VK","2018/12/27 15:49:41","新北市樹林區中山路三段214號","121.379895","24.96766","6500100","板橋區"
"220012","AAC-253","2018/12/27 15:49:21","新北市板橋區溪城路85號","121.426895","24.9834583333333","6500100","板橋區"
