"lineid","car","time","location","longitude","latitude","cityid","cityname"
"234048","863-TW","2018/12/27 16:09:41","新北市中和區勝利路2號","121.498251666667","25.0084133333333","6500400","永和區"
"243009","297-R6","2018/12/27 16:09:37","新北市泰山區黎明路25號","121.421866666667","25.0609433333333","6501600","泰山區"
"231046","107-UY","2018/12/27 16:09:40","新北市新店區灣潭路2-4號","121.536538333333","24.9499916666667","6500600","新店區"
"231021","108-UY","2018/12/27 16:09:36","新北市新店區光明街115號","121.539003333333","24.9615033333333","6500600","新店區"
"231011","187-VK","2018/12/27 16:09:10","新北市新店區柴埕路52巷3號","121.511823333333","24.9644133333333","6500600","新店區"
"231026","256-BX","2018/12/27 16:09:22","新北市新店區民生路45-1號","121.53191","24.98542","6500600","新店區"
"231018","278-BY","2018/12/27 16:09:22","新北市新店區中正路694巷15號","121.535361666667","24.9908633333333","6500600","新店區"
"231035","719-UM","2018/12/27 16:09:11","新北市新店區薏仁坑路2-1號","121.500623333333","24.95804","6500600","新店區"
"241011","013-R5","2018/12/27 16:09:41","新北市三重區三和路三段98號","121.49424","25.07208","6500200","三重區"
"241028","022-UY","2018/12/27 16:09:38","新北市三重區正義南路107號","121.498206666667","25.0585283333333","6500200","三重區"
"241008","059-VK","2018/12/27 16:09:32","新北市三重區永福街123號","121.479066666667","25.0770266666667","6500200","三重區"
"241022","060-VK","2018/12/27 16:09:32","新北市三重區新北大道一段9號","121.489381666667","25.0613","6500200","三重區"
"241031","061-VK","2018/12/27 16:09:27","新北市三重區重新路四段121號","121.485043333333","25.052355","6500200","三重區"
"241015","062-VK","2018/12/27 16:09:39","新北市三重區環河南路35號","121.503105","25.061165","6500200","三重區"
"241017","063-VK","2018/12/27 16:09:29","新北市三重區大同北路148巷40號","121.490853333333","25.0646783333333","6500200","三重區"
"241024","065-VK","2018/12/27 16:09:36","新北市三重區中正北路145巷22號","121.484663333333","25.06794","6500200","三重區"
"241002","090-VK","2018/12/27 16:09:30","新北市三重區仁義街91號","121.499658333333","25.0797516666667","6500200","三重區"
"241003","091-VK","2018/12/27 16:09:36","新北市三重區仁義街220巷6號","121.495143333333","25.0840133333333","6500200","三重區"
"241005","262-UM","2018/12/27 16:09:35","新北市三重區溪尾街300-2號","121.48738","25.0837533333333","6500200","三重區"
"241016","266-UM","2018/12/27 16:09:29","新北市三重區中正北路9號","121.492715","25.061455","6500200","三重區"
"241009","267-UM","2018/12/27 16:09:27","新北市三重區力行路二段96號","121.481983333333","25.07462","6500200","三重區"
"241018","268-UM","2018/12/27 16:09:30","新北市三重區大仁街1號","121.491661666667","25.06353","6500200","三重區"
"241013","270-UM","2018/12/27 16:09:21","新北市三重區三和路三段41號","121.495611666667","25.0713233333333","6500200","三重區"
"241025","271-UM","2018/12/27 16:09:24","新北市三重區忠孝路三段40巷10號","121.482025","25.06637","6500200","三重區"
"241007","398-BY","2018/12/27 16:09:29","新北市三重區慈愛街8號","121.484461666667","25.078435","6500200","三重區"
"241004","475-VK","2018/12/27 16:09:36","新北市三重區泉州街96巷6號","121.495235","25.0538066666667","6500200","三重區"
"241020","478-VK","2018/12/27 16:09:34","新北市三重區大勇街1號","121.483766666667","25.0712966666667","6500200","三重區"
"241014","543-UM","2018/12/27 16:09:29","新北市三重區河邊北街168號","121.503088333333","25.07304","6500200","三重區"
"241001","547-UM","2018/12/27 16:09:43","新北市三重區捷運路36號","121.482971666667","25.0548233333333","6500200","三重區"
"241019","KEA-2593","2018/12/27 16:09:39","新北市三重區重陽路三段180號","121.490101666667","25.0680566666667","6500200","三重區"
"241006","AAD-863","2018/12/27 16:09:28","新北市三重區力行路二段122號","121.482055","25.07496","6500200","三重區"
"241026","743-BX","2018/12/27 16:09:38","新北市三重區正義南路15-2號","121.498008333333","25.0614116666667","6500200","三重區"
"241023","887-TS","2018/12/27 16:09:22","新北市三重區力行路一段58巷1號","121.484413333333","25.0689183333333","6500200","三重區"
"241012","941-UM","2018/12/27 16:09:25","新北市三重區文化北路132巷6號","121.498075","25.066505","6500200","三重區"
"241029","942-UM","2018/12/27 16:09:34","新北市三重區同安街26-1號","121.496148333333","25.0567533333333","6500200","三重區"
"235026","800-TS","2018/12/27 16:09:34","新北市中和區立業路83巷15號","121.491285","25.0067766666667","6500300","中和區"
"224007","275-VK","2018/12/27 16:09:34","新北市瑞芳區粗坑口路66號","121.761303333333","25.09894","6501200","瑞芳區"
"227004","642-TC","2018/12/27 16:09:40","新北市雙溪區上林里內平林47號","121.833306666667","25.0304116666667","6502500","雙溪區"
"227010","400-TW","2018/12/27 16:09:39","新北市雙溪區三港里雙澳路75號","121.88355","25.0539483333333","6502500","雙溪區"
"251013","KEA-2871","2018/12/27 16:09:37","新北市淡水區中山北路一段94號","121.442415","25.1763716666667","6501000","淡水區"
"251008","181-VK","2018/12/27 16:09:41","新北市淡水區中正路342號","121.434845","25.17375","6501000","淡水區"
"236040","KED-0685","2018/12/27 16:09:25","新北市土城區中華路二段1號","121.439666666667","24.9792816666667","6501300","土城區"
"247008","KED-0683","2018/12/27 15:56:31","新北市五股區中興路三段163號","121.449183333333","25.0806966666667","6501400","蘆洲區"
"236057","912-UM","2018/12/27 16:09:39","新北市土城區中央路三段62號","121.436726666667","24.96734","6501300","土城區"
"238002","755-BX","2018/12/27 16:09:42","新北市樹林區文化街112巷25號","121.417128333333","24.9904066666667","6500700","樹林區"
"238010","601-UM","2018/12/27 16:09:40","新北市樹林區三福街85巷11號","121.407273333333","25.01558","6500700","樹林區"
"238006","599-UM","2018/12/27 16:09:26","新北市樹林區東陽街3號","121.412756666667","24.9821783333333","6500700","樹林區"
"238018","571-TV","2018/12/27 16:01:19","新北市樹林區育德街78-1號","121.388001666667","24.9680233333333","6500700","樹林區"
"238011","5061-A6","2018/12/27 16:09:38","新北市樹林區育德街78號","121.387796666667","24.9684316666667","6500700","樹林區"
"238009","KEA-2213","2018/12/27 16:09:36","新北市樹林區國凱街82號","121.421285","24.9793533333333","6500700","樹林區"
"238025","303-VK","2018/12/27 16:08:41","新北市樹林區中正路22-1號","121.427766666667","24.9995033333333","6500700","樹林區"
"238004","283-BY","2018/12/27 16:09:33","新北市樹林區中正路433-1號","121.41502","25.008105","6500700","樹林區"
"238001","282-BY","2018/12/27 16:09:43","新北市樹林區千歲街61巷2號","121.426535","24.9979533333333","6500700","樹林區"
"238007","268-VK","2018/12/27 16:09:30","新北市樹林區三龍街146號","121.416906666667","25.0183016666667","6500700","樹林區"
"238013","172-UY","2018/12/27 16:09:29","新北市樹林區八德街618號","121.397168333333","24.9699133333333","6500700","樹林區"
"238003","169-UY","2018/12/27 15:46:18","新北市樹林區復興路335巷5號","121.418256666667","24.9879683333333","6500700","樹林區"
"220012","AAC-253","2018/12/27 16:09:42","新北市樹林區中山路三段210-2號","121.381025","24.96595","6500100","板橋區"
