"lineid","car","time","location","longitude","latitude","cityid","cityname"
"234026","9371-KE","2018/12/27 17:49:42","新北市永和區中山路一段117巷2號","121.510945","25.0102166666667","6500400","永和區"
"249005","172-UM","2018/12/27 17:49:35","新北市八里區荖阡坑路41-2號","121.402318333333","25.1323033333333","6502300","八里區"
"249001","173-UM","2018/12/27 17:49:38","新北市八里區龍米路二段125巷5號","121.446575","25.1446883333333","6502300","八里區"
"249004","303-UY","2018/12/27 17:49:41","新北市八里區中華路一段309巷12-1號","121.416485","25.1540816666667","6502300","八里區"
"249002","305-UY","2018/12/27 17:49:42","新北市八里區龍形五街37巷3-1號","121.44869","25.1326116666667","6502300","八里區"
"249003","593-UM","2018/12/27 17:49:37","新北市八里區中山路二段123號","121.405518333333","25.1518616666667","6502300","八里區"
"232011","375-UM","2018/12/27 17:49:43","新北市坪林區北宜路八段166號","121.70729","24.9344533333333","6502000","坪林區"
"244007","080-UY","2018/12/27 17:49:29","新北市林口區林口路199號","121.387535","25.0826716666667","6501700","林口區"
"244019","402-UM","2018/12/27 17:49:28","新北市林口區忠孝路552巷17-1號","121.374136666667","25.0671783333333","6501700","林口區"
"244013","KEA-2802","2018/12/27 17:49:33","新北市林口區中正路438號","121.383851666667","25.077745","6501700","林口區"
"244023","483-VK","2018/12/27 17:49:28","新北市林口區東湖路62號","121.387486666667","25.074145","6501700","林口區"
"244017","485-VK","2018/12/27 17:49:42","新北市林口區文化二路一段260巷1-1號","121.371323333333","25.0732333333333","6501700","林口區"
"244009","656-BX","2018/12/27 17:49:39","新北市林口區林口路303號","121.385571666667","25.0850483333333","6501700","林口區"
"244011","701-TV","2018/12/27 17:49:41","新北市林口區仁愛路一段663號","121.388016666667","25.0766283333333","6501700","林口區"
"244025","837-TS","2018/12/27 17:49:36","新北市林口區文化三路一段225巷13號","121.361961666667","25.0713933333333","6501700","林口區"
"244021","838-TS","2018/12/27 17:49:36","新北市林口區仁愛路一段211巷10號","121.398045","25.0739166666667","6501700","林口區"
"222003","436-BY","2018/12/27 17:49:40","新北市深坑區阿柔洋60-1號","121.608631666667","24.998525","6501800","深坑區"
"222002","659-BX","2018/12/27 17:49:31","新北市深坑區平埔街22巷17弄1號","121.614868333333","25.0008566666667","6501800","深坑區"
"231046","107-UY","2018/12/27 17:49:40","新北市新店區下石厝路11-5號","121.531166666667","24.9291316666667","6500600","新店區"
"221035","KEA-2785","2018/12/27 17:49:39","新北市汐止區汐萬路一段276號","121.650883333333","25.074055","6501100","汐止區"
"251014","742-BX","2018/12/27 17:49:43","新北市淡水區公埔子16-6號","121.481008333333","25.22459","6501000","淡水區"
"241016","266-UM","2018/12/27 17:49:29","新北市三重區新北大道一段1號","121.491371666667","25.061345","6500200","三重區"
"241024","KEA-2210","2018/12/27 17:49:40","新北市三重區車路頭街60號","121.483673333333","25.0724833333333","6500200","三重區"
"235063","006-UY","2018/12/27 17:49:39","新北市中和區員山路36巷16-3號","121.485058333333","24.9913483333333","6500300","中和區"
"247012","KEA-2869","2018/12/27 17:49:31","新北市蘆洲區復興路45號","121.475266666667","25.0869183333333","6501400","蘆洲區"
"247006","KED-0682","2018/12/27 17:49:37","新北市蘆洲區九芎街141號","121.465373333333","25.0792283333333","6501400","蘆洲區"
"235065","911-UM","2018/12/27 17:49:39","新北市中和區新生街287號","121.483781666667","24.9973716666667","6500300","中和區"
"247002","893-R6","2018/12/27 17:49:38","新北市蘆洲區永平街32巷33弄7號","121.459145","25.0920833333333","6501400","蘆洲區"
"247016","546-UM","2018/12/27 17:49:39","新北市蘆洲區中正路185巷68弄1號","121.466581666667","25.084485","6501400","蘆洲區"
"247024","500-BY","2018/12/27 17:49:44","新北市蘆洲區光榮路61巷26號","121.461166666667","25.0893516666667","6501400","蘆洲區"
"247010","336-TH","2018/12/27 17:49:31","新北市蘆洲區民族路52號","121.476921666667","25.08457","6501400","蘆洲區"
"247012","335-TH","2018/12/27 17:28:15","新北市五股區中興路三段3-6號","121.449956666667","25.0791266666667","6501400","蘆洲區"
"247020","057-VK","2018/12/27 17:49:42","新北市蘆洲區民義街71巷31號","121.472081666667","25.091095","6501400","蘆洲區"
"247014","053-VK","2018/12/27 17:49:29","新北市蘆洲區保和街71號","121.469428333333","25.08607","6501400","蘆洲區"
"247018","007-UY","2018/12/27 17:49:35","新北市蘆洲區復興路231號","121.480033333333","25.08991","6501400","蘆洲區"
"247004","002-UY","2018/12/27 17:49:41","新北市蘆洲區長榮路166號","121.46106","25.0849833333333","6501400","蘆洲區"
"247022","001-UY","2018/12/27 17:49:26","新北市蘆洲區中正路470號","121.462391666667","25.0952216666667","6501400","蘆洲區"
"226004","312-R5","2018/12/27 17:49:29","新北市平溪區石底里公園街18-3號","121.733405","25.0259133333333","6502400","平溪區"
"228003","097-TW","2018/12/27 17:49:41","新北市貢寮區真理里延平街147號","121.925063333333","25.0578633333333","6502600","貢寮區"
"228001","212-TW","2018/12/27 17:49:30","新北市貢寮區真理里新港街26巷28-6號","121.92769","25.0554066666667","6502600","貢寮區"
"228002","585-TW","2018/12/27 17:49:37","新北市貢寮區福隆里龜壽谷街12號","121.95607","25.0062616666667","6502600","貢寮區"
"224006","676-BX","2018/12/27 17:49:45","新北市瑞芳區傑魚坑路183號","121.78846","25.1082866666667","6501200","瑞芳區"
"224008","285-BY","2018/12/27 17:49:33","新北市瑞芳區明燈路一段184號","121.81842","25.1081183333333","6501200","瑞芳區"
"224009","273-VK","2018/12/27 17:49:44","新北市瑞芳區山尖路2號","121.854745","25.11606","6501200","瑞芳區"
"224005","271-BY","2018/12/27 17:49:32","新北市瑞芳區瑞濱路5-1號","121.827168333333","25.1216633333333","6501200","瑞芳區"
"253006","032-BX","2018/12/27 17:49:33","新北市石門區中山路64號","121.567271666667","25.2908783333333","6502200","石門區"
"208001","761-BX","2018/12/27 17:49:32","新北市金山區磺清路135號","121.639328333333","25.2276533333333","6502700","金山區"
"251009","008-UM","2018/12/27 17:49:32","新北市淡水區長興街29號","121.444013333333","25.1711633333333","6501000","淡水區"
"251004","009-UM","2018/12/27 17:49:26","新北市淡水區民權路20號","121.45943","25.137835","6501000","淡水區"
"251005","010-UM","2018/12/27 17:49:42","新北市淡水區學府路102巷4號","121.45051","25.1719283333333","6501000","淡水區"
"251001","011-UM","2018/12/27 17:49:40","新北市淡水區民權路92巷35-1號","121.462231666667","25.1266066666667","6501000","淡水區"
"251002","012-UM","2018/12/27 17:49:36","新北市淡水區中山路56號","121.443935","25.1704133333333","6501000","淡水區"
"251013","KEA-2871","2018/12/27 17:49:37","新北市淡水區泉洲厝31號","121.479608333333","25.191055","6501000","淡水區"
"251016","179-VK","2018/12/27 17:39:55","新北市淡水區埤島39-15號","121.452733333333","25.1958366666667","6501000","淡水區"
"251008","181-VK","2018/12/27 17:49:22","新北市淡水區八勢路一段133號","121.46701","25.1578116666667","6501000","淡水區"
"251015","182-VK","2018/12/27 17:49:33","新北市淡水區興福寮15號","121.492741666667","25.1652833333333","6501000","淡水區"
"251010","413-VK","2018/12/27 17:49:40","新北市淡水區淡海路300號","121.418131666667","25.1880683333333","6501000","淡水區"
"251012","441-VK","2018/12/27 17:49:38","新北市淡水區北新路二段13號","121.475965","25.185625","6501000","淡水區"
"251007","442-VK","2018/12/27 17:49:33","新北市淡水區民生路16巷20號","121.461436666667","25.1374833333333","6501000","淡水區"
"251006","561-UM","2018/12/27 17:49:35","新北市淡水區大信街1巷25號","121.440305","25.1767333333333","6501000","淡水區"
"251011","650-BX","2018/12/27 17:48:54","新北市淡水區吳(仔)厝70號","121.479578333333","25.14965","6501000","淡水區"
"251003","673-BX","2018/12/27 17:49:29","新北市淡水區大忠街5巷2號","121.443088333333","25.17634","6501000","淡水區"
"207003","550-UM","2018/12/27 17:49:40","新北市萬里區野柳里東澳路66號","121.692705","25.2009116666667","6502800","萬里區"
"207004","225-TW","2018/12/27 17:49:36","新北市萬里區萬里里瑪鋉頂街61號","121.68837","25.18045","6502800","萬里區"
"252002","178-VK","2018/12/27 17:49:31","新北市三芝區智成街57號","121.504308333333","25.2561833333333","6502100","三芝區"
"252001","292-VK","2018/12/27 17:49:36","新北市三芝區中興街一段30號","121.497713333333","25.2578066666667","6502100","三芝區"
"237004","KEA-2597","2018/12/27 17:49:27","新北市三峽區中山路138號","121.365253333333","24.93609","6500900","三峽區"
"237009","210-TH","2018/12/27 17:49:39","新北市三峽區大勇路27號","121.367205","24.9363166666667","6500900","三峽區"
"237013","252-BX","2018/12/27 17:49:31","新北市三峽區愛國路32-25號","121.374448333333","24.933195","6500900","三峽區"
"237012","275-BY","2018/12/27 17:49:39","新北市三峽區大勇路10號","121.367005","24.9384166666667","6500900","三峽區"
"237014","433-BY","2018/12/27 17:49:44","新北市三峽區文化路160號","121.369988333333","24.936125","6500900","三峽區"
"237006","5529-G3","2018/12/27 17:49:38","新北市三峽區介壽路二段30號","121.390866666667","24.9352116666667","6500900","三峽區"
"237011","KEA-2596","2018/12/27 17:49:43","新北市三峽區中華路138號","121.370755","24.92708","6500900","三峽區"
"237016","649-BX","2018/12/27 17:49:31","新北市三峽區白雞149-2號","121.40011","24.9055133333333","6500900","三峽區"
"237010","706-TV","2018/12/27 17:49:43","新北市三峽區文化路212-7號","121.368358333333","24.93593","6500900","三峽區"
"237005","AKY-6261","2018/12/27 17:49:31","新北市三峽區中山路365-1號","121.358051666667","24.9367116666667","6500900","三峽區"
"236070","105-UM","2018/12/27 17:49:29","新北市土城區青雲路629號","121.460041666667","24.9686183333333","6501300","土城區"
"236042","KED-0685","2018/12/27 17:49:41","新北市土城區城林路6巷80號","121.43849","24.97971","6501300","土城區"
"236078","166-UM","2018/12/27 17:49:36","新北市土城區中華路二段178號","121.437446666667","24.9718433333333","6501300","土城區"
"236030","253-BX","2018/12/27 17:49:43","新北市土城區城林路6巷80號","121.438771666667","24.979635","6501300","土城區"
"236014","270-VK","2018/12/27 17:49:33","新北市土城區城林路6巷80號","121.438538333333","24.9795983333333","6501300","土城區"
"236038","271-VK","2018/12/27 17:49:31","新北市土城區城林路6巷80號","121.438468333333","24.9797833333333","6501300","土城區"
"247008","KED-0683","2018/12/27 17:49:36","新北市蘆洲區中山一路206號","121.473411666667","25.0807166666667","6501400","蘆洲區"
"236021","401-BY","2018/12/27 17:49:28","新北市土城區城林路6巷80號","121.438486666667","24.9797633333333","6501300","土城區"
"236059","912-UM","2018/12/27 17:49:34","新北市土城區中華路二段178號","121.437443333333","24.9718066666667","6501300","土城區"
"236049","913-UM","2018/12/27 17:49:33","新北市土城區城林路6巷80號","121.43859","24.9796966666667","6501300","土城區"
"236055","AAC-216","2018/12/27 17:49:29","新北市土城區城林路6巷80號","121.438558333333","24.979585","6501300","土城區"
"242036","AAC-296","2018/12/27 17:49:32","新北市新莊區建福路59巷14號","121.427465","25.0274766666667","6500500","新莊區"
"242058","986-R7","2018/12/27 17:49:26","新北市新莊區中正路722-1號","121.416063333333","25.024795","6500500","新莊區"
"242056","751-BX","2018/12/27 17:49:36","新北市新莊區瓊林路40巷29號","121.446633333333","25.0301216666667","6500500","新莊區"
"242027","615-BX","2018/12/27 17:49:33","新北市新莊區福壽街173號","121.458041666667","25.0538616666667","6500500","新莊區"
"242025","613-BX","2018/12/27 17:49:31","新北市三重區新北大道二段65號","121.469416666667","25.0612783333333","6500500","新莊區"
"242029","612-BX","2018/12/27 17:49:29","新北市新莊區復興路一段31號","121.44637","25.0418483333333","6500500","新莊區"
"242044","566-BX","2018/12/27 17:49:33","新北市新莊區中正路871巷9弄29號","121.419401666667","25.0269816666667","6500500","新莊區"
"242048","497-BY","2018/12/27 17:49:34","新北市新莊區萬安街62號","121.4209","25.0235566666667","6500500","新莊區"
"242021","442-UM","2018/12/27 17:49:29","新北市新莊區永寧街30巷2號","121.452835","25.0389116666667","6500500","新莊區"
"242053","441-UM","2018/12/27 17:49:25","新北市新莊區民安西路470-1號","121.431721666667","25.0078633333333","6500500","新莊區"
"242002","440-UM","2018/12/27 17:49:41","新北市新莊區景德路140號","121.451025","25.034165","6500500","新莊區"
"242039","415-TV","2018/12/27 17:49:23","新北市新莊區富國路202號","121.424773333333","25.0241183333333","6500500","新莊區"
"242009","413-TV","2018/12/27 17:49:26","新北市新莊區昌平街2號","121.454861666667","25.0523416666667","6500500","新莊區"
"242046","400-BY","2018/12/27 17:49:36","新北市新莊區建國一路50號","121.434108333333","25.0310883333333","6500500","新莊區"
"242023","362-BY","2018/12/27 17:49:39","新北市新莊區福樂街78號","121.457663333333","25.0467116666667","6500500","新莊區"
"242061","353-BY","2018/12/27 17:49:41","新北市新莊區瓊林南路269號","121.434443333333","25.00725","6500500","新莊區"
"242034","135-UY","2018/12/27 17:49:37","新北市新莊區新莊路692號","121.440676666667","25.0328516666667","6500500","新莊區"
"242051","172-VK","2018/12/27 17:49:32","新北市新莊區西盛街245巷20號","121.428846666667","25.0160683333333","6500500","新莊區"
"242013","173-VK","2018/12/27 17:49:41","新北市新莊區中誠街166巷8號","121.448053333333","25.047835","6500500","新莊區"
"242007","176-VK","2018/12/27 17:49:40","新北市新莊區福樂街156巷12弄20號","121.456861666667","25.0487","6500500","新莊區"
"242017","346-TH","2018/12/27 17:49:40","新北市新莊區永安街21號","121.452011666667","25.0447566666667","6500500","新莊區"
"242011","347-TH","2018/12/27 17:49:26","新北市新莊區中港路689號","121.450723333333","25.0566466666667","6500500","新莊區"
"242031","348-TH","2018/12/27 17:49:43","新北市新莊區新泰路321巷15號","121.443935","25.0412683333333","6500500","新莊區"
"242004","349-TH","2018/12/27 17:49:28","新北市新莊區自立街244號","121.45857","25.045465","6500500","新莊區"
"242015","351-TH","2018/12/27 17:49:37","新北市新莊區新泰路462號","121.443303333333","25.04481","6500500","新莊區"
"238015","755-BX","2018/12/27 17:49:44","新北市樹林區復興路141號","121.421346666667","24.99267","6500700","樹林區"
"238023","601-UM","2018/12/27 17:49:40","新北市樹林區龍興街33號","121.40316","25.0159233333333","6500700","樹林區"
"238019","599-UM","2018/12/27 17:49:26","新北市樹林區太平路163號","121.418666666667","24.9792733333333","6500700","樹林區"
"238024","5061-A6","2018/12/27 17:49:38","新北市樹林區育德街78號","121.387716666667","24.9683316666667","6500700","樹林區"
"238022","KEA-2213","2018/12/27 17:49:35","新北市樹林區太順街86巷11號","121.416638333333","24.9784933333333","6500700","樹林區"
"238021","KEA-2539","2018/12/27 17:49:42","新北市樹林區柑園街一段1-8號","121.405903333333","24.9618383333333","6500700","樹林區"
"238025","303-VK","2018/12/27 17:49:34","新北市樹林區俊興街209-3號","121.417498333333","25.0140516666667","6500700","樹林區"
"238017","283-BY","2018/12/27 17:49:33","新北市樹林區三德街45號","121.4161","25.0137866666667","6500700","樹林區"
"238014","282-BY","2018/12/27 17:49:43","新北市樹林區保安街一段289巷1-2號","121.417986666667","24.997185","6500700","樹林區"
"238020","268-VK","2018/12/27 17:49:30","新北市樹林區俊英街170-2號","121.426371666667","25.0072383333333","6500700","樹林區"
"238026","172-UY","2018/12/27 17:49:29","新北市樹林區新興街21號","121.400383333333","24.9727116666667","6500700","樹林區"
"238016","169-UY","2018/12/27 17:46:40","新北市樹林區復興路323號","121.418201666667","24.98836","6500700","樹林區"
"239007","AAC-297","2018/12/27 17:49:31","新北市鶯歌區永樂街34號","121.34209","24.9540166666667","6500800","鶯歌區"
"239006","891-R6","2018/12/27 17:49:36","新北市鶯歌區永和街56巷4號","121.333666666667","24.96779","6500800","鶯歌區"
"239008","527-UM","2018/12/27 17:49:28","新北市鶯歌區大湖路700巷22弄3號","121.333686666667","24.9770233333333","6500800","鶯歌區"
"239005","526-UM","2018/12/27 17:38:16","桃園市桃園區大原路88號","121.319758333333","24.9756883333333","6500800","鶯歌區"
"239001","417-VK","2018/12/27 17:49:42","新北市鶯歌區中正三路387號","121.32667","24.9344783333333","6500800","鶯歌區"
"239003","360-BY","2018/12/27 17:49:35","新北市鶯歌區鶯桃路295巷22號","121.334413333333","24.959505","6500800","鶯歌區"
"239002","359-BY","2018/12/27 17:49:39","新北市鶯歌區育賢街8號","121.34463","24.9546","6500800","鶯歌區"
"239004","193-VK","2018/12/27 17:49:35","新北市鶯歌區文化路288號","121.35278","24.9469283333333","6500800","鶯歌區"
"221008","489-VK","2018/12/27 17:49:27","新北市汐止區康寧街901號","121.6514","25.0750533333333","6501100","汐止區"
"221036","130-UY","2018/12/27 17:49:35","新北市汐止區大同路一段515巷40號","121.644656666667","25.0625983333333","6501100","汐止區"
"221015","131-UY","2018/12/27 17:49:33","新北市汐止區汐萬路一段191號","121.652465","25.0716316666667","6501100","汐止區"
"221010","269-BY","2018/12/27 17:49:44","新北市汐止區汐萬路二段66巷3弄11號","121.649261666667","25.0823983333333","6501100","汐止區"
"221012","278-VK","2018/12/27 17:49:33","新北市汐止區汐萬路一段191號","121.652495","25.0715916666667","6501100","汐止區"
"221023","279-VK","2018/12/27 17:49:39","新北市汐止區民族二街9號","121.634921666667","25.0708966666667","6501100","汐止區"
"221032","280-BY","2018/12/27 17:49:35","新北市汐止區連峰街1巷1號","121.646408333333","25.0759666666667","6501100","汐止區"
"221027","281-BY","2018/12/27 17:49:26","新北市汐止區汐萬路一段310號","121.650368333333","25.0749133333333","6501100","汐止區"
"221029","298-VK","2018/12/27 17:49:34","新北市汐止區康寧街901號","121.65172","25.0749666666667","6501100","汐止區"
"221021","299-VK","2018/12/27 17:49:40","新北市汐止區汐萬路一段125號","121.654023333333","25.07121","6501100","汐止區"
"221031","353-TW","2018/12/27 17:49:31","新北市汐止區中興路96巷1-3號","121.63519","25.06254","6501100","汐止區"
"221025","623-UM","2018/12/27 17:49:23","新北市汐止區大同路二段187巷1號","121.6517","25.06453","6501100","汐止區"
"221038","646-BX","2018/12/27 17:49:33","新北市汐止區汐萬路一段310號","121.650325","25.0747916666667","6501100","汐止區"
"221033","647-BX","2018/12/27 17:49:36","新北市汐止區汐萬路一段39號","121.655328333333","25.0686333333333","6501100","汐止區"
"221002","707-TV","2018/12/27 17:49:34","新北市汐止區康寧街901號","121.65147","25.0750533333333","6501100","汐止區"
"221018","753-BX","2018/12/27 17:49:37","新北市汐止區汐萬路一段160號","121.652601666667","25.0714383333333","6501100","汐止區"
"242042","281-VK","2018/12/27 17:49:45","新北市泰山區新北大道六段365號","121.422465","25.032955","6500500","新莊區"
"242019","280-VK","2018/12/27 17:49:36","新北市新莊區民樂街79號","121.457963333333","25.0427966666667","6500500","新莊區"
"235061","KEA-2875","2018/12/27 17:20:30","新北市中和區員山路36巷16-2號","121.485343333333","24.9917316666667","6500300","中和區"
