"lineid","car","time","location","longitude","latitude","cityid","cityname"
"234081","298-R6","2018/12/27 18:28:37","新北市永和區環河東路二段90號","121.524395","25.0106283333333","6500400","永和區"
"234070","552-UM","2018/12/27 18:29:31","新北市永和區福和路1號","121.525515","25.0095","6500400","永和區"
"234007","839-RS","2018/12/27 18:28:58","新北市永和區環河西路二段229巷1號","121.501326666667","25.00996","6500400","永和區"
"234013","KEA-2591","2018/12/27 18:28:49","新北市永和區光復街33巷7號","121.51583","25.018095","6500400","永和區"
"234042","862-TW","2018/12/27 18:29:32","新北市永和區福和路1號","121.525681666667","25.009465","6500400","永和區"
"234026","9371-KE","2018/12/27 18:29:02","新北市永和區永貞路417巷4號","121.506835","25.0092233333333","6500400","永和區"
"234011","9373-KE","2018/12/27 18:29:16","新北市永和區保福路二段156號","121.5092","25.0150066666667","6500400","永和區"
"249005","172-UM","2018/12/27 18:28:55","新北市八里區中華路三段43號","121.395861666667","25.14244","6502300","八里區"
"249001","173-UM","2018/12/27 18:29:01","新北市八里區龍米路一段152號","121.452875","25.1258883333333","6502300","八里區"
"249004","303-UY","2018/12/27 18:29:01","新北市八里區忠四街9號","121.42495","25.1608233333333","6502300","八里區"
"249002","305-UY","2018/12/27 18:29:22","新北市八里區龍形三街26號","121.447978333333","25.1315383333333","6502300","八里區"
"248014","025-BX","2018/12/27 18:29:31","新北市五股區自強路99號","121.432265","25.0711383333333","6501500","五股區"
"248016","026-BX","2018/12/27 18:29:42","新北市五股區凌雲路一段109巷17號","121.449793333333","25.1007733333333","6501500","五股區"
"248006","077-UY","2018/12/27 18:29:38","新北市五股區四維路25號","121.467123333333","25.0705716666667","6501500","五股區"
"248008","095-VK","2018/12/27 18:29:11","新北市五股區四維路185巷42弄1號","121.463666666667","25.0768333333333","6501500","五股區"
"248020","225-UY","2018/12/27 18:28:36","新北市五股區孝義路55巷5號","121.451826666667","25.1135016666667","6501500","五股區"
"248012","247-BX","2018/12/27 18:29:34","新北市五股區御成路145號","121.440888333333","25.0943666666667","6501500","五股區"
"248004","677-BX","2018/12/27 18:28:59","新北市五股區工商路146-1號","121.434465","25.0868366666667","6501500","五股區"
"248010","682-TV","2018/12/27 18:29:24","新北市五股區明德路8號","121.433345","25.0717066666667","6501500","五股區"
"244007","080-UY","2018/12/27 18:29:09","新北市林口區後湖13號","121.387873333333","25.098035","6501700","林口區"
"244019","402-UM","2018/12/27 18:29:08","新北市林口區忠孝路164號","121.377233333333","25.068155","6501700","林口區"
"244013","KEA-2802","2018/12/27 18:29:33","新北市林口區文化一路二段100巷17弄16號","121.382885","25.0790316666667","6501700","林口區"
"244023","483-VK","2018/12/27 18:28:46","新北市林口區仁愛路二段80號","121.384495","25.0754833333333","6501700","林口區"
"244017","485-VK","2018/12/27 18:29:02","新北市林口區八德路78號","121.365475","25.0655366666667","6501700","林口區"
"244009","656-BX","2018/12/27 18:28:59","新北市林口區中山路576-8號","121.376503333333","25.0852166666667","6501700","林口區"
"244011","701-TV","2018/12/27 18:28:21","新北市林口區林口路25號","121.391181666667","25.07821","6501700","林口區"
"244025","837-TS","2018/12/27 18:28:16","新北市林口區南勢六街51號","121.355835","25.0715183333333","6501700","林口區"
"244021","838-TS","2018/12/27 18:29:16","新北市林口區自強一街11號","121.39797","25.078545","6501700","林口區"
"243013","AAD-798","2018/12/27 18:26:20","新北市泰山區明志路三段206巷3號","121.423271666667","25.0379266666667","6501600","泰山區"
"222003","436-BY","2018/12/27 18:26:20","新北市深坑區旺耽路13號","121.62997","25.0055866666667","6501800","深坑區"
"222002","659-BX","2018/12/27 18:28:56","新北市深坑區雲鄉路147號","121.621968333333","24.9982966666667","6501800","深坑區"
"231041","002-UM","2018/12/27 18:29:32","新北市新店區安華路28-1號","121.51957","24.9607383333333","6500600","新店區"
"231059","046-UY","2018/12/27 18:28:42","新北市新店區安華路28-1號","121.519498333333","24.9608383333333","6500600","新店區"
"231040","047-UY","2018/12/27 18:29:24","新北市新店區安華路28-1號","121.519191666667","24.96089","6500600","新店區"
"231044","106-UY","2018/12/27 18:29:08","新北市新店區安華路28-1號","121.519605","24.9608083333333","6500600","新店區"
"231046","107-UY","2018/12/27 18:28:40","新北市新店區直潭七街60號","121.532248333333","24.93978","6500600","新店區"
"231052","108-UY","2018/12/27 18:28:00","新北市新店區北宜路一段129號","121.54066","24.9532083333333","6500600","新店區"
"231047","187-VK","2018/12/27 18:28:23","新北市新店區安一路一段1-1號","121.51959","24.96109","6500600","新店區"
"231054","188-VK","2018/12/27 18:29:14","新北市新店區安一路一段1-1號","121.519668333333","24.96134","6500600","新店區"
"221035","KEA-2785","2018/12/27 18:27:59","新北市汐止區大同路二段179號","121.652053333333","25.064225","6501100","汐止區"
"231057","256-BX","2018/12/27 18:29:31","新北市新店區環河路17號","121.537473333333","24.9614033333333","6500600","新店區"
"231042","268-BY","2018/12/27 18:29:35","新北市新店區安一路一段1-1號","121.519645","24.9611216666667","6500600","新店區"
"231051","278-BY","2018/12/27 18:29:10","新北市新店區安一路一段1-1號","121.519458333333","24.9611083333333","6500600","新店區"
"231050","AAD-862","2018/12/27 18:29:36","新北市新店區安華路28-1號","121.519678333333","24.9608383333333","6500600","新店區"
"231058","3713-VJ","2018/12/27 18:28:38","新北市新店區環河路19巷7弄2號","121.537585","24.960505","6500600","新店區"
"231066","4716-K9","2018/12/27 18:28:16","新北市新店區安一路一段1-1號","121.519426666667","24.961085","6500600","新店區"
"231056","4715-K9","2018/12/27 18:29:24","新北市新店區二十張路66號","121.536613333333","24.9800116666667","6500600","新店區"
"231067","4772-VM","2018/12/27 18:29:33","新北市新店區安華路1-1號","121.519213333333","24.9605333333333","6500600","新店區"
"231065","512-UM","2018/12/27 18:29:29","新北市新店區安一路一段1-1號","121.519361666667","24.961225","6500600","新店區"
"231049","513-UM","2018/12/27 18:29:13","新北市新店區安一路一段1-1號","121.519566666667","24.9610733333333","6500600","新店區"
"231045","617-UM","2018/12/27 18:29:02","新北市新店區安華路28-1號","121.519406666667","24.9608933333333","6500600","新店區"
"231061","619-UM","2018/12/27 18:29:36","新北市新店區安華路28-1號","121.51947","24.9608166666667","6500600","新店區"
"231063","641-BX","2018/12/27 18:29:18","新北市新店區安華路1-1號","121.519516666667","24.9604633333333","6500600","新店區"
"231064","719-UM","2018/12/27 18:29:21","新北市新店區安一路一段1-1號","121.519501666667","24.9611616666667","6500600","新店區"
"231062","720-UM","2018/12/27 18:28:26","新北市新店區安一路一段1-1號","121.519343333333","24.9612733333333","6500600","新店區"
"231060","897-TW","2018/12/27 18:29:22","新北市新店區安華路28-1號","121.519455","24.96069","6500600","新店區"
"231043","899-TW","2018/12/27 18:27:56","新北市新店區安華路28-1號","121.51912","24.9608633333333","6500600","新店區"
"231055","AKT-0513","2018/12/27 18:27:09","新北市新店區中正路154巷6號","121.54184","24.9720166666667","6500600","新店區"
"251014","742-BX","2018/12/27 18:28:43","新北市淡水區南平28號","121.492876666667","25.2150466666667","6501000","淡水區"
"235066","003-UY","2018/12/27 18:29:35","新北市中和區中山路二段120號","121.50289","25.0037716666667","6500300","中和區"
"235064","005-UY","2018/12/27 18:29:16","新北市中和區連城路139巷56號","121.496775","24.9972266666667","6500300","中和區"
"235063","006-UY","2018/12/27 18:29:19","新北市中和區連城路389巷9號","121.48658","24.9951833333333","6500300","中和區"
"235056","096-UM","2018/12/27 18:27:36","新北市中和區員山路611巷5弄1號","121.477915","25.0112166666667","6500300","中和區"
"235039","097-UM","2018/12/27 18:28:42","新北市中和區安平路192-1號","121.513291666667","24.9992766666667","6500300","中和區"
"235040","150-BY","2018/12/27 18:28:53","新北市中和區安平路59號","121.509611666667","24.99505","6500300","中和區"
"235058","151-BY","2018/12/27 18:29:25","新北市中和區圓通路369巷30弄50號","121.488553333333","24.9844233333333","6500300","中和區"
"235055","183-VK","2018/12/27 18:29:31","新北市中和區中山路三段209號","121.471891666667","25.006245","6500300","中和區"
"235038","185-VK","2018/12/27 18:29:24","新北市中和區立人街53號","121.520406666667","24.9941483333333","6500300","中和區"
"235049","186-VK","2018/12/27 18:28:40","新北市中和區景安路142號","121.505001666667","24.9940083333333","6500300","中和區"
"235067","255-BX","2018/12/27 18:28:07","新北市中和區新生街175號","121.483678333333","25.0007","6500300","中和區"
"235008","293-VK","2018/12/27 18:28:08","新北市中和區復興路325號","121.500706666667","24.9901366666667","6500300","中和區"
"235072","301-VK","2018/12/27 18:28:46","新北市中和區景平路666號","121.497243333333","25.0007816666667","6500300","中和區"
"235042","KEA-2878","2018/12/27 18:29:01","新北市中和區秀朗路三段173-2號","121.524483333333","24.9913183333333","6500300","中和區"
"247012","KEA-2869","2018/12/27 18:29:10","新北市八里區中山路三段112號","121.388175","25.1467783333333","6501400","蘆洲區"
"235050","4979-A6","2018/12/27 18:29:00","新北市中和區景新街362巷5號","121.512016666667","24.9901016666667","6500300","中和區"
"235069","4980-A6","2018/12/27 18:29:04","新北市中和區連城路127巷19-10號","121.496845","24.998075","6500300","中和區"
"235070","558-UM","2018/12/27 18:29:31","新北市中和區景新街133號","121.505861666667","24.99726","6500300","中和區"
"235045","565-BX","2018/12/27 18:29:34","新北市中和區南山路236巷36弄5號","121.504133333333","24.98826","6500300","中和區"
"235054","640-BX","2018/12/27 18:29:32","新北市中和區民享街86巷1號","121.474483333333","25.0008866666667","6500300","中和區"
"235060","647-TV","2018/12/27 18:25:30","新北市中和區員山路469巷1號","121.480371666667","25.0046416666667","6500300","中和區"
"235046","733-UM","2018/12/27 18:28:29","新北市中和區板南路150號","121.50201","24.992615","6500300","中和區"
"235062","800-TS","2018/12/27 18:29:00","新北市中和區中山路二段312巷49號","121.49502","25.0043716666667","6500300","中和區"
"235057","801-TS","2018/12/27 18:29:03","新北市中和區民安街42巷12號","121.479863333333","25.000685","6500300","中和區"
"235041","802-TS","2018/12/27 18:29:30","新北市中和區景安路119號","121.505786666667","24.996345","6500300","中和區"
"235052","805-TS","2018/12/27 18:29:22","新北市中和區興南路二段133號","121.505213333333","24.98414","6500300","中和區"
"235048","896-TW","2018/12/27 18:28:34","新北市中和區中正路81號","121.500766666667","24.9935383333333","6500300","中和區"
"235053","900-TW","2018/12/27 18:28:50","新北市土城區金城路三段257號","121.471816666667","24.9900333333333","6500300","中和區"
"235065","911-UM","2018/12/27 18:28:58","新北市中和區莊敬路49巷20弄32號","121.503148333333","25.0050416666667","6500300","中和區"
"235051","157-BY","2018/12/27 18:29:34","新北市中和區興南路二段142巷25弄18號","121.502733333333","24.9841333333333","6500300","中和區"
"235037","AAC-213","2018/12/27 18:29:23","新北市中和區景德街76號","121.516611666667","24.9915633333333","6500300","中和區"
"220065","072-UY","2018/12/27 18:29:26","新北市板橋區南雅南路二段11-5號","121.453916666667","25.0024183333333","6500100","板橋區"
"220086","073-UY","2018/12/27 18:29:27","新北市板橋區南雅南路二段146號","121.451668333333","24.9962083333333","6500100","板橋區"
"226004","312-R5","2018/12/27 18:29:29","新北市平溪區白石里白石腳211號","121.728196666667","25.0226833333333","6502400","平溪區"
"228003","097-TW","2018/12/27 18:29:01","新北市貢寮區和美里和美街43-1號","121.91421","25.0912616666667","6502600","貢寮區"
"228001","212-TW","2018/12/27 18:28:10","新北市貢寮區仁理村仁義街8號","121.92375","25.0520833333333","6502600","貢寮區"
"228002","585-TW","2018/12/27 18:29:16","新北市貢寮區福連里福連街1號","121.98823","25.0180933333333","6502600","貢寮區"
"224006","676-BX","2018/12/27 18:29:17","新北市瑞芳區明燈路二段55號","121.810993333333","25.107975","6501200","瑞芳區"
"224008","285-BY","2018/12/27 18:28:57","新北市瑞芳區岳王路1巷50號","121.80578","25.110495","6501200","瑞芳區"
"224007","275-VK","2018/12/27 18:28:30","新北市瑞芳區大埔路吉慶公園城8號","121.765285","25.100405","6501200","瑞芳區"
"224009","273-VK","2018/12/27 18:29:04","新北市瑞芳區祈堂路239號","121.856316666667","25.1090616666667","6501200","瑞芳區"
"224005","271-BY","2018/12/27 18:28:53","新北市瑞芳區台電新村4號","121.818688333333","25.1260716666667","6501200","瑞芳區"
"227004","642-TC","2018/12/27 18:29:19","新北市雙溪區魚行里坤溪21-1號","121.87052","25.0278616666667","6502500","雙溪區"
"227010","400-TW","2018/12/27 18:29:20","新北市雙溪區牡丹里牡丹159-1號","121.850935","25.0590966666667","6502500","雙溪區"
"253006","032-BX","2018/12/27 18:28:13","新北市石門區公地20-1號","121.54576","25.2901633333333","6502200","石門區"
"253005","295-VK","2018/12/27 18:29:24","新北市石門區老崩山10-7號","121.552513333333","25.29095","6502200","石門區"
"222001","KEA-2212","2018/12/27 18:29:22","新北市深坑區北深路一段201巷1號","121.630358333333","25.0088633333333","6501800","深坑區"
"208002","KEA-2872","2018/12/27 18:19:03","新北市金山區清泉里清水路60巷5號","121.632035","25.2350483333333","6502700","金山區"
"208003","665-BX","2018/12/27 18:29:03","新北市金山區中山路190巷2號","121.637931666667","25.2214933333333","6502700","金山區"
"208001","761-BX","2018/12/27 18:29:32","新北市金山區文化二路6號","121.636813333333","25.224605","6502700","金山區"
"251004","009-UM","2018/12/27 18:28:46","新北市淡水區民族路29巷3弄11號","121.463726666667","25.1370466666667","6501000","淡水區"
"251001","011-UM","2018/12/27 18:29:00","新北市淡水區自強路122巷1號","121.464501666667","25.1330616666667","6501000","淡水區"
"251002","012-UM","2018/12/27 18:29:32","新北市淡水區竿蓁二街17號","121.453286666667","25.1627866666667","6501000","淡水區"
"251013","KEA-2871","2018/12/27 18:28:57","新北市淡水區椿子林20-1號","121.481698333333","25.2040066666667","6501000","淡水區"
"251016","179-VK","2018/12/27 18:29:00","新北市淡水區下圭柔山114號","121.446125","25.2111383333333","6501000","淡水區"
"251008","181-VK","2018/12/27 18:28:43","新北市淡水區北投子87-2號","121.467538333333","25.177965","6501000","淡水區"
"251015","182-VK","2018/12/27 18:29:13","新北市淡水區興福寮88巷179號","121.486011666667","25.1667233333333","6501000","淡水區"
"251010","413-VK","2018/12/27 18:28:40","新北市淡水區沙崙路181巷1號","121.424175","25.18419","6501000","淡水區"
"251012","441-VK","2018/12/27 18:28:38","新北市淡水區北新路一段159號","121.458791666667","25.182255","6501000","淡水區"
"251006","561-UM","2018/12/27 18:29:35","新北市淡水區新生街51巷20號","121.440651666667","25.1754416666667","6501000","淡水區"
"251011","650-BX","2018/12/27 18:28:34","新北市淡水區中正東路40號","121.450108333333","25.165275","6501000","淡水區"
"251003","673-BX","2018/12/27 18:29:10","新北市淡水區北新路169巷14號","121.449696666667","25.1800783333333","6501000","淡水區"
"207003","550-UM","2018/12/27 18:29:17","新北市萬里區野柳里港東路162-15號","121.690486666667","25.2040933333333","6502800","萬里區"
"207004","225-TW","2018/12/27 18:27:16","新北市萬里區中幅里中福路57-4號","121.680355","25.17236","6502800","萬里區"
"252002","178-VK","2018/12/27 18:29:30","新北市三芝區中山路二段38號","121.502998333333","25.2551266666667","6502100","三芝區"
"252003","249-BX","2018/12/27 18:29:20","新北市三芝區後厝里北勢子45-18號","121.4679","25.2502666666667","6502100","三芝區"
"252001","292-VK","2018/12/27 18:29:16","新北市三芝區中興街二段2號","121.498353333333","25.2565766666667","6502100","三芝區"
"237004","KEA-2597","2018/12/27 18:28:50","新北市三峽區五寮81號","121.359546666667","24.8587566666667","6500900","三峽區"
"237007","153-BY","2018/12/27 18:29:27","新北市三峽區中正路三段170巷34號","121.3527","24.90454","6500900","三峽區"
"237009","210-TH","2018/12/27 18:27:59","新北市三峽區中山路138號","121.365251666667","24.9362083333333","6500900","三峽區"
"237013","252-BX","2018/12/27 18:26:11","新北市三峽區永安街9巷21號","121.37581","24.9293266666667","6500900","三峽區"
"237012","275-BY","2018/12/27 18:29:19","新北市三峽區三樹路60號","121.377881666667","24.9380983333333","6500900","三峽區"
"237008","302-VK","2018/12/27 18:29:25","新北市三峽區白雞68-159號","121.390125","24.90863","6500900","三峽區"
"237014","433-BY","2018/12/27 18:28:23","新北市三峽區文化路41號","121.37241","24.936105","6500900","三峽區"
"237006","5529-G3","2018/12/27 18:29:34","新北市三峽區溪東路372號","121.413641666667","24.92797","6500900","三峽區"
"237011","KEA-2596","2018/12/27 18:28:02","新北市三峽區溪東路303號","121.40943","24.9310016666667","6500900","三峽區"
"237016","649-BX","2018/12/27 18:28:51","新北市三峽區竹崙路149號","121.434111666667","24.9078583333333","6500900","三峽區"
"237010","706-TV","2018/12/27 18:29:23","新北市三峽區復興路489號","121.360971666667","24.9382516666667","6500900","三峽區"
"237005","AKY-6261","2018/12/27 18:28:50","新北市三峽區民權街65號","121.369616666667","24.933215","6500900","三峽區"
"236070","105-UM","2018/12/27 18:27:09","新北市土城區永豐路255巷12號","121.475363333333","24.9731633333333","6501300","土城區"
"236042","KED-0685","2018/12/27 18:28:56","新北市土城區裕民路67巷4弄8號","121.449978333333","24.9877933333333","6501300","土城區"
"236078","166-UM","2018/12/27 18:28:40","新北市土城區大暖路20巷2號","121.423555","24.95992","6501300","土城區"
"236030","253-BX","2018/12/27 18:28:23","新北市土城區福仁街50巷9號","121.439413333333","24.975275","6501300","土城區"
"236026","269-VK","2018/12/27 18:25:39","新北市土城區南天母路81號","121.446975","24.95656","6501300","土城區"
"236014","270-VK","2018/12/27 18:29:13","新北市土城區青雲路39巷7號","121.460273333333","24.9873966666667","6501300","土城區"
"236038","271-VK","2018/12/27 18:25:32","新北市土城區青雲路451巷23號","121.460041666667","24.974815","6501300","土城區"
"236021","401-BY","2018/12/27 18:29:28","新北市土城區永豐路202巷14號","121.466305","24.9833866666667","6501300","土城區"
"236059","912-UM","2018/12/27 18:28:34","新北市土城區中央路四段176號","121.416515","24.9578933333333","6501300","土城區"
"236049","913-UM","2018/12/27 18:28:53","新北市土城區青雲路384號","121.458776666667","24.9731533333333","6501300","土城區"
"236063","915-UM","2018/12/27 18:28:32","新北市土城區延壽路109巷11號","121.468383333333","24.9932483333333","6501300","土城區"
"236055","AAC-216","2018/12/27 18:28:40","新北市土城區中華路一段261號","121.44045","24.9806516666667","6501300","土城區"
"242058","986-R7","2018/12/27 18:28:45","新北市新莊區新北大道七段842號","121.413726666667","25.0236616666667","6500500","新莊區"
"242025","613-BX","2018/12/27 18:29:31","新北市新莊區五工五路15號","121.454795","25.0621083333333","6500500","新莊區"
"242044","566-BX","2018/12/27 18:28:32","新北市新莊區新北大道七段850號","121.413821666667","25.0235416666667","6500500","新莊區"
"242053","441-UM","2018/12/27 18:28:25","新北市新莊區樹新路120巷45號","121.430106666667","24.9960116666667","6500500","新莊區"
"242009","413-TV","2018/12/27 18:28:26","新北市新莊區新泰路357巷1弄2號","121.44262","25.0413083333333","6500500","新莊區"
"242046","400-BY","2018/12/27 18:28:29","新北市新莊區中正路801號","121.421301666667","25.02824","6500500","新莊區"
"242061","353-BY","2018/12/27 18:22:49","新北市新莊區新樹路79號","121.437785","25.0275216666667","6500500","新莊區"
"242011","347-TH","2018/12/27 18:28:06","新北市新莊區中榮街47號","121.449575","25.0527466666667","6500500","新莊區"
"242031","348-TH","2018/12/27 18:27:03","新北市新莊區新泰路277巷43弄1號","121.444166666667","25.040125","6500500","新莊區"
"238015","755-BX","2018/12/27 18:29:28","新北市樹林區大安路530號","121.413815","24.9862866666667","6500700","樹林區"
"238023","601-UM","2018/12/27 18:29:20","新北市樹林區三福街114號","121.406443333333","25.0163816666667","6500700","樹林區"
"238019","599-UM","2018/12/27 18:25:46","新北市樹林區中華路130號","121.417411666667","24.9803466666667","6500700","樹林區"
"238024","5061-A6","2018/12/27 18:25:18","新北市樹林區育英街2巷11號","121.423066666667","24.98942","6500700","樹林區"
"238025","303-VK","2018/12/27 18:29:14","新北市樹林區中山路二段131號","121.407336666667","24.979535","6500700","樹林區"
"238017","283-BY","2018/12/27 18:28:32","新北市樹林區保安街二段219號","121.4131","25.0041766666667","6500700","樹林區"
"238014","282-BY","2018/12/27 18:29:22","新北市樹林區中山路三段214號","121.380096666667","24.96796","6500700","樹林區"
"238020","268-VK","2018/12/27 18:27:30","新北市樹林區中正路698號","121.409343333333","25.0174","6500700","樹林區"
"238026","172-UY","2018/12/27 18:29:29","新北市樹林區佳園路一段75巷102號","121.39656","24.9704166666667","6500700","樹林區"
"238016","169-UY","2018/12/27 18:28:45","新北市樹林區中山路二段34號","121.41731","24.985135","6500700","樹林區"
"239007","AAC-297","2018/12/27 18:29:11","新北市鶯歌區中正一路461-2號","121.3634","24.95659","6500800","鶯歌區"
"239006","891-R6","2018/12/27 18:28:45","新北市鶯歌區德昌街112號","121.33195","24.960515","6500800","鶯歌區"
"239008","527-UM","2018/12/27 18:29:28","新北市鶯歌區國際一路179號","121.336255","24.9764883333333","6500800","鶯歌區"
"239005","526-UM","2018/12/27 18:26:17","新北市鶯歌區鶯桃路658巷37弄6號","121.329943333333","24.969965","6500800","鶯歌區"
"239001","417-VK","2018/12/27 18:29:02","新北市鶯歌區國中街178號","121.338236666667","24.93919","6500800","鶯歌區"
"239003","360-BY","2018/12/27 18:27:15","新北市鶯歌區永和街61號","121.332798333333","24.967595","6500800","鶯歌區"
"239004","193-VK","2018/12/27 18:29:15","新北市鶯歌區尖山路173巷1-2號","121.34505","24.94745","6500800","鶯歌區"
"221008","489-VK","2018/12/27 18:28:47","新北市汐止區康寧街901號","121.65147","25.075075","6501100","汐止區"
"221036","130-UY","2018/12/27 18:28:34","新北市汐止區南昌街35號","121.662858333333","25.0689533333333","6501100","汐止區"
"221015","131-UY","2018/12/27 18:27:33","新北市汐止區鄉長路二段23巷10號","121.667458333333","25.08289","6501100","汐止區"
"221010","269-BY","2018/12/27 18:26:18","新北市汐止區汐萬路35號","121.644251666667","25.0915783333333","6501100","汐止區"
"221012","278-VK","2018/12/27 18:29:34","新北市汐止區保長路37巷8號","121.673096666667","25.0795666666667","6501100","汐止區"
"221023","279-VK","2018/12/27 18:28:39","新北市汐止區中興路197號","121.629878333333","25.0676866666667","6501100","汐止區"
"221032","280-BY","2018/12/27 18:29:15","新北市汐止區民權街二段109巷34號","121.619983333333","25.046185","6501100","汐止區"
"221027","281-BY","2018/12/27 18:28:27","新北市汐止區和平街46巷17號","121.66252","25.071885","6501100","汐止區"
"221029","298-VK","2018/12/27 18:28:54","新北市汐止區樟樹一路276號","121.642801666667","25.069145","6501100","汐止區"
"221021","299-VK","2018/12/27 18:29:20","新北市汐止區連興街120號","121.653671666667","25.06246","6501100","汐止區"
"221031","353-TW","2018/12/27 18:28:44","新北市汐止區中興路150巷1號","121.63252","25.064685","6501100","汐止區"
"221025","623-UM","2018/12/27 18:28:23","新北市汐止區仁愛路124號","121.663045","25.0637183333333","6501100","汐止區"
"221038","646-BX","2018/12/27 18:29:08","新北市汐止區新昌路85號","121.663985","25.0692266666667","6501100","汐止區"
"221033","647-BX","2018/12/27 18:28:51","新北市汐止區宜興街53號","121.62262","25.0426433333333","6501100","汐止區"
"221002","707-TV","2018/12/27 18:27:34","新北市汐止區福德一路173號","121.635963333333","25.066135","6501100","汐止區"
"221018","753-BX","2018/12/27 18:28:37","新北市汐止區茄苳路181號","121.67007","25.0692016666667","6501100","汐止區"
"220079","145-BY","2018/12/27 18:29:28","","0","0","6500100","板橋區"
"220082","610-BX","2018/12/27 18:29:13","新北市板橋區華東街1-9號","121.448255","24.9949233333333","6500100","板橋區"
"224002","257-TC","2018/12/27 18:28:19","新北市瑞芳區正貿新村20號","121.81331","25.10585","6501200","瑞芳區"
"220056","276-BY","2018/12/27 18:28:39","新北市板橋區華東街1-9號","121.448175","24.9949016666667","6500100","板橋區"
"220071","283-VK","2018/12/27 18:28:54","新北市板橋區華東街1-9號","121.44812","24.994865","6500100","板橋區"
"220094","285-UM","2018/12/27 18:28:32","新北市板橋區民生路二段161巷5號","121.470178333333","25.0197583333333","6500100","板橋區"
"220084","296-UM","2018/12/27 18:29:19","新北市板橋區華東街1-9號","121.448195","24.99492","6500100","板橋區"
"242042","281-VK","2018/12/27 18:29:33","新北市新莊區天祥街96號","121.415048333333","25.02957","6500500","新莊區"
"220088","491-VK","2018/12/27 18:29:17","新北市板橋區民生路二段161巷1號","121.469988333333","25.0201116666667","6500100","板橋區"
"220035","560-BX","2018/12/27 18:29:07","新北市板橋區南雅西路一段5巷5號","121.454733333333","25.003905","6500100","板橋區"
"220055","630-UY","2018/12/27 18:29:31","新北市板橋區四川路二段140巷16弄23號","121.448391666667","24.994075","6500100","板橋區"
"220054","741-BX","2018/12/27 18:28:29","新北市板橋區華東街1-9號","121.448133333333","24.9949216666667","6500100","板橋區"
"220074","895-R6","2018/12/27 18:26:42","新北市板橋區華東街1-9號","121.44818","24.994965","6500100","板橋區"
"220073","985-R7","2018/12/27 18:28:18","新北市板橋區四川路二段橋頭6號","121.448361666667","24.9939916666667","6500100","板橋區"
"220062","AAC-253","2018/12/27 18:29:28","新北市板橋區南雅南路二段120-24號","121.451731666667","24.9988133333333","6500100","板橋區"
"235068","KEA-2873","2018/12/27 18:28:44","新北市中和區圓通路284號","121.491501666667","24.9906","6500300","中和區"
"235061","KEA-2875","2018/12/27 18:29:00","新北市中和區民享街88巷1號","121.474453333333","25.0006033333333","6500300","中和區"
"235047","KEA-2876","2018/12/27 18:29:30","新北市中和區南山路493號","121.507931666667","24.9878966666667","6500300","中和區"
