"lineid","car","time","location","longitude","latitude","cityid","cityname"
"234046","148-BY","2018/12/27 19:49:41","新北市永和區永利路175號","121.525526666667","25.003485","6500400","永和區"
"234081","298-R6","2018/12/27 19:49:37","新北市永和區永亨路98號","121.52298","25.004845","6500400","永和區"
"234038","336-UY","2018/12/27 19:49:44","新北市永和區秀朗路二段281號","121.526196666667","24.9981833333333","6500400","永和區"
"234064","337-UY","2018/12/27 19:49:38","新北市永和區中正路368巷2號","121.517903333333","25.0008","6500400","永和區"
"234086","338-UY","2018/12/27 19:49:38","新北市永和區中正路608號","121.516996666667","25.0071483333333","6500400","永和區"
"234070","552-UM","2018/12/27 19:49:31","新北市永和區竹林路101號","121.51971","25.0119783333333","6500400","永和區"
"234017","745-BX","2018/12/27 19:49:41","新北市永和區永和路二段310號","121.516228333333","25.01607","6500400","永和區"
"234030","746-BX","2018/12/27 19:49:32","新北市永和區民生路67巷46號","121.525091666667","24.9974833333333","6500400","永和區"
"234054","KEA-2590","2018/12/27 19:49:31","新北市永和區竹林路75巷25弄8號","121.520176666667","25.014375","6500400","永和區"
"234007","839-RS","2018/12/27 19:49:38","新北市中和區保平路372號","121.506215","25.0033516666667","6500400","永和區"
"234013","KEA-2591","2018/12/27 19:49:31","新北市永和區仁愛路241號","121.5089","25.0119033333333","6500400","永和區"
"234061","AAD-866","2018/12/27 19:49:43","新北市永和區中正路94號","121.514221666667","24.9953533333333","6500400","永和區"
"234042","862-TW","2018/12/27 19:49:45","新北市永和區中和路389巷17號","121.508045","25.0011533333333","6500400","永和區"
"234050","863-TW","2018/12/27 19:49:40","新北市永和區保安路79號","121.50865","25.0147766666667","6500400","永和區"
"234026","9371-KE","2018/12/27 19:49:42","新北市永和區雙和街25巷4號","121.508876666667","25.0018766666667","6500400","永和區"
"234011","9373-KE","2018/12/27 19:49:36","新北市永和區仁愛路352巷112弄26號","121.501865","25.0086866666667","6500400","永和區"
"249001","173-UM","2018/12/27 19:49:42","新北市八里區中華路二段252號","121.405366666667","25.1496716666667","6502300","八里區"
"249004","303-UY","2018/12/27 19:49:40","新北市八里區仁愛路79號","121.411686666667","25.1598683333333","6502300","八里區"
"249002","305-UY","2018/12/27 19:49:42","新北市八里區頂寮五街22號","121.451233333333","25.1262466666667","6502300","八里區"
"249003","593-UM","2018/12/27 19:49:45","新北市八里區華峰三街78號","121.398281666667","25.1454316666667","6502300","八里區"
"248014","025-BX","2018/12/27 19:49:31","新北市五股區五福路32巷26號","121.435108333333","25.08967","6501500","五股區"
"248016","026-BX","2018/12/27 19:49:42","新北市五股區成泰路三段577巷80弄7號","121.449516666667","25.104275","6501500","五股區"
"248008","095-VK","2018/12/27 19:49:31","新北市蘆洲區中山二路320號","121.468423333333","25.07656","6501500","五股區"
"248020","225-UY","2018/12/27 19:49:36","新北市五股區中直路53號","121.419441666667","25.1170633333333","6501500","五股區"
"248012","247-BX","2018/12/27 19:49:40","新北市五股區蓬萊路24號","121.434208333333","25.0797283333333","6501500","五股區"
"248004","677-BX","2018/12/27 19:49:39","新北市五股區成泰路一段167號","121.435256666667","25.0745016666667","6501500","五股區"
"248002","678-BX","2018/12/27 19:49:33","新北市五股區成泰路四段15-4號","121.4529","25.1070966666667","6501500","五股區"
"248010","682-TV","2018/12/27 19:49:44","新北市五股區登林路76-5號","121.430553333333","25.069365","6501500","五股區"
"234077","969-R7","2018/12/27 19:49:38","新北市永和區智光街48號","121.516995","24.99794","6500400","永和區"
"234074","AAC-211","2018/12/27 19:49:30","新北市永和區竹林路213巷18號","121.521748333333","25.0088833333333","6500400","永和區"
"234067","AAC-212","2018/12/27 19:49:41","新北市永和區永貞路412號","121.508956666667","25.0079166666667","6500400","永和區"
"234003","AAC-295","2018/12/27 19:49:41","新北市永和區福和路316-2號","121.515963333333","25.007325","6500400","永和區"
"244011","657-BX","2018/12/27 19:49:36","新北市林口區中正路264巷13號","121.388845","25.0781316666667","6501700","林口區"
"243013","AAD-798","2018/12/27 19:49:48","新北市泰山區應化街7號","121.42389","25.0437083333333","6501600","泰山區"
"243009","297-R6","2018/12/27 19:49:34","新北市泰山區美寧街60號","121.431","25.0646533333333","6501600","泰山區"
"243016","KEA-2801","2018/12/27 19:49:34","新北市泰山區明志路三段513號","121.421493333333","25.0319116666667","6501600","泰山區"
"243015","421-VK","2018/12/27 19:49:44","新北市泰山區明志路二段214巷9號","121.426816666667","25.0488516666667","6501600","泰山區"
"243011","KEA-2215","2018/12/27 19:49:26","新北市泰山區明志路三段196巷21弄17號","121.422666666667","25.038525","6501600","泰山區"
"243010","KEA-2216","2018/12/27 19:49:36","新北市泰山區民生路33號","121.430655","25.0521783333333","6501600","泰山區"
"243004","646-TV","2018/12/27 19:49:32","新北市泰山區全興路13號","121.432355","25.05899","6501600","泰山區"
"243014","680-BX","2018/12/27 19:49:35","新北市泰山區泰林路二段33-8號","121.435176666667","25.0564666666667","6501600","泰山區"
"222003","436-BY","2018/12/27 19:49:39","新北市深坑區深南路51-1號","121.621275","25.0097066666667","6501800","深坑區"
"222002","659-BX","2018/12/27 19:49:31","新北市深坑區北深路一段288號","121.628138333333","25.00774","6501800","深坑區"
"231041","002-UM","2018/12/27 19:49:32","新北市新店區中央路155號","121.529706666667","24.972685","6500600","新店區"
"231059","046-UY","2018/12/27 19:49:42","新北市新店區安和路二段166-10號","121.519166666667","24.974045","6500600","新店區"
"231040","047-UY","2018/12/27 19:49:44","新北市新店區中正路75巷71號","121.543155","24.968835","6500600","新店區"
"231044","106-UY","2018/12/27 19:49:28","新北市新店區復興路31號","121.53876","24.9866233333333","6500600","新店區"
"231046","107-UY","2018/12/27 19:49:40","新北市新店區三民路159巷19弄46號","121.532176666667","24.9731933333333","6500600","新店區"
"231052","108-UY","2018/12/27 19:49:40","新北市新店區新烏路三段338號","121.54664","24.8959683333333","6500600","新店區"
"231047","187-VK","2018/12/27 19:49:42","新北市新店區中興路二段100巷1號","121.54765","24.971495","6500600","新店區"
"231054","188-VK","2018/12/27 19:49:34","新北市新店區光明街89號","121.53887","24.9609683333333","6500600","新店區"
"221035","KEA-2785","2018/12/27 19:49:39","新北市汐止區長江街11號","121.654733333333","25.0711883333333","6501100","汐止區"
"231057","256-BX","2018/12/27 19:49:37","新北市新店區花園二路三段15號","121.555951666667","24.931705","6500600","新店區"
"231042","268-BY","2018/12/27 19:49:35","新北市新店區中興路一段267-3號","121.545055","24.967795","6500600","新店區"
"231051","278-BY","2018/12/27 19:49:30","新北市新店區中央三街68號","121.526641666667","24.975075","6500600","新店區"
"231050","AAD-862","2018/12/27 19:49:36","新北市新店區北宜路二段581巷1號","121.565881666667","24.9540183333333","6500600","新店區"
"231058","3713-VJ","2018/12/27 19:49:38","新北市新店區中華路83巷67號","121.538323333333","24.9673416666667","6500600","新店區"
"231066","4716-K9","2018/12/27 19:49:36","新北市新店區安康路三段165巷2-1號","121.489595","24.9516","6500600","新店區"
"231056","4715-K9","2018/12/27 19:49:33","新北市新店區民權路42巷59弄12號","121.538095","24.9834266666667","6500600","新店區"
"231067","4772-VM","2018/12/27 19:49:33","新北市新店區安康路一段203號","121.526","24.96296","6500600","新店區"
"231065","512-UM","2018/12/27 19:49:29","新北市新店區安祥路109巷151弄12號","121.478121666667","24.9589316666667","6500600","新店區"
"231049","513-UM","2018/12/27 19:49:41","新北市新店區民權路88-5號","121.536226666667","24.9834783333333","6500600","新店區"
"231045","617-UM","2018/12/27 19:49:42","新北市新店區中生路66號","121.564698333333","24.9523933333333","6500600","新店區"
"231061","619-UM","2018/12/27 19:49:36","新北市新店區安民街158號","121.516743333333","24.9702483333333","6500600","新店區"
"231063","641-BX","2018/12/27 19:49:38","新北市新店區車子路11號","121.502963333333","24.9519983333333","6500600","新店區"
"231068","718-UY","2018/12/27 19:49:33","新北市新店區安一路一段1-1號","121.519376666667","24.9610216666667","6500600","新店區"
"231064","719-UM","2018/12/27 19:49:21","新北市新店區光華街8巷23號","121.517996666667","24.96989","6500600","新店區"
"231062","720-UM","2018/12/27 19:49:26","新北市新店區永業路94號","121.530746666667","24.9511533333333","6500600","新店區"
"231060","897-TW","2018/12/27 19:49:42","新北市新店區安康路二段161號","121.51018","24.9593483333333","6500600","新店區"
"231043","899-TW","2018/12/27 19:49:36","新北市新店區中正路263-1號","121.538591666667","24.9736916666667","6500600","新店區"
"231055","AKT-0513","2018/12/27 19:49:30","新北市新店區中華路83巷67號","121.538355","24.9673333333333","6500600","新店區"
"241011","013-R5","2018/12/27 19:49:38","新北市三重區介壽路39巷6號","121.498898333333","25.0700583333333","6500200","三重區"
"241028","022-UY","2018/12/27 19:49:38","新北市三重區中正南路117號","121.493998333333","25.0572283333333","6500200","三重區"
"241008","059-VK","2018/12/27 19:49:28","新北市三重區永福街96號","121.478903333333","25.075945","6500200","三重區"
"241022","060-VK","2018/12/27 19:49:33","新北市三重區新北大道一段11號","121.488646666667","25.0605866666667","6500200","三重區"
"241031","061-VK","2018/12/27 19:49:39","新北市三重區重新路四段246號","121.485703333333","25.0535333333333","6500200","三重區"
"241015","062-VK","2018/12/27 19:49:29","新北市三重區重新路一段1號","121.503806666667","25.0642666666667","6500200","三重區"
"241017","063-VK","2018/12/27 19:49:29","新北市三重區重陽路三段27巷3號","121.489678333333","25.0665166666667","6500200","三重區"
"241024","065-VK","2018/12/27 19:49:36","新北市三重區國道路一段58巷20號","121.481135","25.072045","6500200","三重區"
"241003","091-VK","2018/12/27 19:49:29","新北市三重區五華街91號","121.491988333333","25.0835783333333","6500200","三重區"
"251014","742-BX","2018/12/27 19:49:43","新北市淡水區番社前1-7號","121.468348333333","25.236475","6501000","淡水區"
"241016","266-UM","2018/12/27 19:49:28","新北市三重區正德街43號","121.49572","25.0627183333333","6500200","三重區"
"241009","267-UM","2018/12/27 19:49:27","新北市三重區三和路四段402號","121.481253333333","25.0795883333333","6500200","三重區"
"241018","268-UM","2018/12/27 19:49:29","新北市三重區雙園街57巷34弄18號","121.494086666667","25.0682783333333","6500200","三重區"
"241032","269-UM","2018/12/27 19:49:37","新北市三重區重陽路一段68號","121.48659","25.0587116666667","6500200","三重區"
"241013","270-UM","2018/12/27 19:49:28","新北市三重區仁愛街92巷13號","121.494765","25.07388","6500200","三重區"
"241025","271-UM","2018/12/27 19:49:45","新北市三重區忠孝路三段52號","121.48069","25.065615","6500200","三重區"
"241007","398-BY","2018/12/27 19:49:28","新北市三重區三和路四段135巷2號","121.484638333333","25.0780733333333","6500200","三重區"
"241035","462-BY","2018/12/27 19:49:42","新北市三重區文化北路8號","121.499283333333","25.0635433333333","6500200","三重區"
"241020","478-VK","2018/12/27 19:49:34","新北市三重區三和路四段20巷16-2號","121.490461666667","25.0733316666667","6500200","三重區"
"241030","480-VK","2018/12/27 19:49:32","新北市三重區環河南路254巷22號","121.490248333333","25.0509533333333","6500200","三重區"
"241014","543-UM","2018/12/27 19:49:29","新北市三重區長安街82號","121.501481666667","25.06752","6500200","三重區"
"241001","547-UM","2018/12/27 19:49:42","新北市三重區仁愛街327巷85號","121.494058333333","25.080545","6500200","三重區"
"241019","KEA-2593","2018/12/27 19:49:34","新北市三重區自強路二段74巷23-1號","121.487925","25.0697466666667","6500200","三重區"
"241006","AAD-863","2018/12/27 19:49:47","新北市三重區力行路二段76巷1弄2號","121.481463333333","25.0736183333333","6500200","三重區"
"241026","743-BX","2018/12/27 19:49:38","新北市三重區文化南路42號","121.500385","25.0601133333333","6500200","三重區"
"241023","887-TS","2018/12/27 19:49:42","新北市三重區大有街1-9號","121.477585","25.066005","6500200","三重區"
"241012","941-UM","2018/12/27 19:49:45","新北市三重區仁興街41號","121.499128333333","25.0758233333333","6500200","三重區"
"241029","942-UM","2018/12/27 19:49:33","新北市三重區光明路29號","121.49125","25.0584383333333","6500200","三重區"
"235066","003-UY","2018/12/27 19:49:35","新北市中和區南工路52號","121.505966666667","25.0014733333333","6500300","中和區"
"235063","006-UY","2018/12/27 19:49:39","新北市中和區連城路263巷16號","121.49255","24.994875","6500300","中和區"
"235056","096-UM","2018/12/27 19:49:36","新北市中和區中山路三段136巷23號","121.473818333333","25.0075233333333","6500300","中和區"
"235039","097-UM","2018/12/27 19:49:41","新北市中和區大勇街27巷29號","121.516218333333","24.9938483333333","6500300","中和區"
"235040","150-BY","2018/12/27 19:49:32","新北市中和區安和路43號","121.509623333333","24.9949033333333","6500300","中和區"
"235058","151-BY","2018/12/27 19:49:25","新北市中和區員山路146-3號","121.481208333333","24.99696","6500300","中和區"
"235055","183-VK","2018/12/27 19:49:31","新北市中和區中山路三段181巷18弄9號","121.47278","25.0048783333333","6500300","中和區"
"235038","185-VK","2018/12/27 19:49:44","新北市中和區自立路6號","121.522448333333","24.9965983333333","6500300","中和區"
"235049","186-VK","2018/12/27 19:49:40","新北市中和區景平路385巷71號","121.501271666667","24.9942683333333","6500300","中和區"
"235067","255-BX","2018/12/27 19:49:44","新北市中和區新生街186巷1弄28號","121.483326666667","24.9985216666667","6500300","中和區"
"235044","293-VK","2018/12/27 19:49:28","新北市中和區南山路216號","121.50626","24.9903466666667","6500300","中和區"
"235042","KEA-2878","2018/12/27 19:49:41","新北市中和區宜安路134號","121.509833333333","24.99832","6500300","中和區"
"235050","4979-A6","2018/12/27 19:49:40","新北市中和區景平路241巷84弄54號","121.506095","24.9923883333333","6500300","中和區"
"235069","4980-A6","2018/12/27 19:49:44","新北市中和區中正路637巷60弄61號","121.48545","24.9925983333333","6500300","中和區"
"235070","558-UM","2018/12/27 19:49:31","新北市中和區圓通路171號","121.497561666667","24.995255","6500300","中和區"
"235054","640-BX","2018/12/27 19:49:34","新北市中和區莒光路147號","121.472653333333","25.00125","6500300","中和區"
"235060","647-TV","2018/12/27 19:49:44","新北市中和區新生街30巷3號","121.482951666667","25.0038616666667","6500300","中和區"
"235046","733-UM","2018/12/27 19:49:29","新北市中和區仁愛街85號","121.51162","24.987115","6500300","中和區"
"235071","783-BX","2018/12/27 19:49:35","新北市中和區中板路5巷9號","121.485216666667","25.0106716666667","6500300","中和區"
"235057","801-TS","2018/12/27 19:49:42","新北市中和區員山路212號","121.481285","25.0008483333333","6500300","中和區"
"235041","802-TS","2018/12/27 19:49:30","新北市中和區永貞路221號","121.51364","25.0035133333333","6500300","中和區"
"235052","805-TS","2018/12/27 19:49:42","新北市中和區華新街142號","121.507866666667","24.9825733333333","6500300","中和區"
"235048","896-TW","2018/12/27 19:49:34","新北市中和區興南路一段129號","121.50899","24.9876833333333","6500300","中和區"
"235053","900-TW","2018/12/27 19:49:30","新北市中和區國光街191號","121.467371666667","25.0017466666667","6500300","中和區"
"235065","911-UM","2018/12/27 19:49:38","新北市中和區中山路二段187號","121.500436666667","25.0027166666667","6500300","中和區"
"235051","157-BY","2018/12/27 19:49:34","新北市中和區中興街180巷52弄1號","121.498648333333","24.9883633333333","6500300","中和區"
"235037","AAC-213","2018/12/27 19:49:36","新北市中和區自立路54號","121.52326","24.992075","6500300","中和區"
"235059","AAC-215","2018/12/27 19:49:32","新北市中和區圓通路305巷15弄1號","121.494206666667","24.9895733333333","6500300","中和區"
"220065","072-UY","2018/12/27 19:49:26","新北市板橋區民族路276巷1弄1號","121.46993","25.006665","6500100","板橋區"
"220086","073-UY","2018/12/27 19:49:27","新北市板橋區僑中一街124巷70-5號","121.449875","25.01656","6500100","板橋區"
"220106","075-UY","2018/12/27 19:49:45","新北市板橋區民治街96巷15號","121.47855","25.032105","6500100","板橋區"
"220069","AAD-861","2018/12/27 19:49:40","新北市板橋區大明街20巷19弄23號","121.45753","25.00303","6500100","板橋區"
"247002","893-R6","2018/12/27 19:49:32","新北市蘆洲區永樂街38巷71號","121.458596666667","25.09063","6501400","蘆洲區"
"247014","053-VK","2018/12/27 19:49:40","新北市蘆洲區中央路91號","121.47268","25.084215","6501400","蘆洲區"
"247004","002-UY","2018/12/27 19:49:38","新北市蘆洲區中原路47號","121.459351666667","25.0822483333333","6501400","蘆洲區"
"226004","312-R5","2018/12/27 19:49:29","新北市平溪區靜安路三段392巷3號","121.784466666667","25.0495483333333","6502400","平溪區"
"228003","097-TW","2018/12/27 19:49:41","新北市貢寮區真理里美艷山街2-2號","121.927456666667","25.0599316666667","6502600","貢寮區"
"228001","212-TW","2018/12/27 19:49:30","新北市貢寮區真理里新港街56號","121.92595","25.0565033333333","6502600","貢寮區"
"224010","AGQ-8101","2018/12/27 19:49:33","新北市瑞芳區基山街171號","121.843243333333","25.1079683333333","6501200","瑞芳區"
"227004","642-TC","2018/12/27 19:49:39","新北市雙溪區雙溪里內挖路36號","121.863218333333","25.0366983333333","6502500","雙溪區"
"227010","400-TW","2018/12/27 19:49:39","新北市雙溪區新基里朝陽街18號","121.865883333333","25.03869","6502500","雙溪區"
"222001","KEA-2212","2018/12/27 19:49:41","新北市深坑區北深路三段108號","121.606838333333","25.0016033333333","6501800","深坑區"
"208002","KEA-2872","2018/12/27 19:49:43","新北市金山區中華路364號","121.633321666667","25.2243633333333","6502700","金山區"
"208003","665-BX","2018/12/27 19:49:43","新北市金山區海興路112-1號","121.63115","25.23865","6502700","金山區"
"208001","761-BX","2018/12/27 19:49:41","新北市金山區重和里六股林口10號","121.599116666667","25.2116216666667","6502700","金山區"
"251009","008-UM","2018/12/27 19:49:31","新北市淡水區中正路32號","121.443845","25.1692016666667","6501000","淡水區"
"251001","011-UM","2018/12/27 19:49:40","新北市淡水區中正東路二段37號","121.459233333333","25.1562733333333","6501000","淡水區"
"251013","KEA-2871","2018/12/27 19:49:37","新北市淡水區頂田寮2-1號","121.460866666667","25.2127766666667","6501000","淡水區"
"251016","179-VK","2018/12/27 19:49:40","新北市淡水區下圭柔山121-12號","121.454978333333","25.2094233333333","6501000","淡水區"
"251008","181-VK","2018/12/27 19:49:42","新北市淡水區中正路一段22巷16號","121.426975","25.176825","6501000","淡水區"
"251015","182-VK","2018/12/27 19:49:33","新北市淡水區商工路350號","121.46794","25.1854166666667","6501000","淡水區"
"251010","413-VK","2018/12/27 19:49:40","新北市淡水區下圭柔山91-3號","121.431041666667","25.209905","6501000","淡水區"
"251012","441-VK","2018/12/27 19:49:38","新北市淡水區淡金路三段70巷1號","121.448278333333","25.2005933333333","6501000","淡水區"
"251007","442-VK","2018/12/27 19:49:33","新北市淡水區中正東路一段3巷23號","121.451548333333","25.1652416666667","6501000","淡水區"
"251005","443-VK","2018/12/27 19:49:20","新北市淡水區中山路90巷1號","121.442685","25.1708416666667","6501000","淡水區"
"251006","561-UM","2018/12/27 19:49:35","新北市淡水區水碓街3號","121.44307","25.1768516666667","6501000","淡水區"
"251011","650-BX","2018/12/27 19:49:31","新北市淡水區商工路141號","121.446956666667","25.1883233333333","6501000","淡水區"
"251003","673-BX","2018/12/27 19:49:29","新北市淡水區崁頂75-2號","121.436661666667","25.2033866666667","6501000","淡水區"
"207003","550-UM","2018/12/27 19:49:39","新北市萬里區大鵬里萬里加投198號","121.642821666667","25.21611","6502800","萬里區"
"207004","225-TW","2018/12/27 19:49:36","新北市萬里區萬里里瑪鋉路170號","121.689841666667","25.1798166666667","6502800","萬里區"
"252002","178-VK","2018/12/27 19:49:30","新北市三芝區三民街33-1號","121.5046","25.2585383333333","6502100","三芝區"
"252001","292-VK","2018/12/27 19:49:36","新北市三芝區公正街66號","121.499781666667","25.2574716666667","6502100","三芝區"
"237004","KEA-2597","2018/12/27 19:49:44","新北市三峽區添福263號","121.375526666667","24.893555","6500900","三峽區"
"237007","153-BY","2018/12/27 19:49:27","新北市三峽區二鬮路17-2號","121.363165","24.9125716666667","6500900","三峽區"
"237009","210-TH","2018/12/27 19:49:39","新北市三峽區中園街84號","121.367765","24.92479","6500900","三峽區"
"237013","252-BX","2018/12/27 19:49:31","新北市三峽區橫溪路73號","121.397528333333","24.9353583333333","6500900","三峽區"
"237012","275-BY","2018/12/27 19:49:38","新北市三峽區中華路5-1號","121.374635","24.9327516666667","6500900","三峽區"
"237008","302-VK","2018/12/27 19:49:44","新北市三峽區永安街167巷1號","121.37344","24.9273066666667","6500900","三峽區"
"237014","433-BY","2018/12/27 19:49:44","新北市三峽區添福2-7號","121.371025","24.9080766666667","6500900","三峽區"
"237006","5529-G3","2018/12/27 19:49:37","新北市三峽區中正路一段336巷15弄2號","121.370108333333","24.9249616666667","6500900","三峽區"
"237016","649-BX","2018/12/27 19:49:31","新北市三峽區溪東路307號","121.409738333333","24.9308433333333","6500900","三峽區"
"237010","706-TV","2018/12/27 19:49:43","新北市三峽區復興路30-4號","121.37416","24.9362766666667","6500900","三峽區"
"237005","AKY-6261","2018/12/27 19:49:41","新北市三峽區長泰街18巷1號","121.379071666667","24.931715","6500900","三峽區"
"236070","105-UM","2018/12/27 19:49:41","新北市土城區中央路二段346巷12-2號","121.439618333333","24.9722133333333","6501300","土城區"
"236042","KED-0685","2018/12/27 19:49:41","新北市土城區裕民路195巷14號","121.454706666667","24.9837416666667","6501300","土城區"
"236078","166-UM","2018/12/27 19:49:35","新北市土城區中央路四段464號","121.410008333333","24.950475","6501300","土城區"
"236030","253-BX","2018/12/27 19:49:43","新北市土城區中央路一段294號","121.443296666667","24.9823883333333","6501300","土城區"
"236026","269-VK","2018/12/27 19:49:39","新北市土城區中央路二段61巷26號","121.443301666667","24.9786466666667","6501300","土城區"
"247008","KED-0683","2018/12/27 19:49:39","新北市蘆洲區中山一路31號","121.479138333333","25.0808833333333","6501400","蘆洲區"
"236021","401-BY","2018/12/27 19:49:48","新北市土城區延吉街137巷2弄2號","121.47076","24.986055","6501300","土城區"
"236059","912-UM","2018/12/27 19:49:34","新北市土城區中央路一段179號","121.446258333333","24.98733","6501300","土城區"
"236049","913-UM","2018/12/27 19:49:32","新北市土城區清水路144號","121.459008333333","24.9813633333333","6501300","土城區"
"236063","915-UM","2018/12/27 19:49:32","新北市土城區金城路三段163巷16號","121.468885","24.9891833333333","6501300","土城區"
"236055","AAC-216","2018/12/27 19:49:49","新北市土城區延和路123號","121.468618333333","24.9904416666667","6501300","土城區"
"242036","AAC-296","2018/12/27 19:49:30","新北市新莊區建安街103號","121.426681666667","25.0242216666667","6500500","新莊區"
"242056","751-BX","2018/12/27 19:49:36","新北市新莊區新泰路35號","121.44962","25.03317","6500500","新莊區"
"242029","612-BX","2018/12/27 19:49:34","新北市新莊區幸福路846號","121.444473333333","25.0489983333333","6500500","新莊區"
"242048","497-BY","2018/12/27 19:49:34","新北市新莊區建安街76巷5弄15號","121.425568333333","25.02498","6500500","新莊區"
"242021","442-UM","2018/12/27 19:49:45","新北市新莊區中正路453號","121.442888333333","25.0340716666667","6500500","新莊區"
"242002","440-UM","2018/12/27 19:49:38","新北市新莊區新泰路2-11號","121.450166666667","25.0325316666667","6500500","新莊區"
"242039","415-TV","2018/12/27 19:49:43","新北市新莊區民安路299巷49號","121.429615","25.0234916666667","6500500","新莊區"
"242023","362-BY","2018/12/27 19:49:44","新北市新莊區化成路69號","121.465546666667","25.045985","6500500","新莊區"
"242061","353-BY","2018/12/27 19:49:40","新北市新莊區中正路473-1號","121.441963333333","25.0329766666667","6500500","新莊區"
"242034","135-UY","2018/12/27 19:49:37","新北市新莊區新泰路199巷19號","121.445555","25.0377366666667","6500500","新莊區"
"242051","172-VK","2018/12/27 19:49:34","新北市新莊區民安路288號","121.42798","25.0216166666667","6500500","新莊區"
"242013","173-VK","2018/12/27 19:49:41","新北市新莊區中泰街51號","121.450223333333","25.0468333333333","6500500","新莊區"
"242007","176-VK","2018/12/27 19:49:39","新北市新莊區思源路593巷6弄23號","121.457646666667","25.0598133333333","6500500","新莊區"
"242031","348-TH","2018/12/27 19:49:38","新北市新莊區公園一路112號","121.444526666667","25.03782","6500500","新莊區"
"242004","349-TH","2018/12/27 19:49:42","新北市新莊區化成路63巷24弄31號","121.462331666667","25.045995","6500500","新莊區"
"238015","755-BX","2018/12/27 19:49:34","新北市樹林區大安路593號","121.411625","24.9830616666667","6500700","樹林區"
"238023","601-UM","2018/12/27 19:49:39","新北市樹林區中正路415號","121.417278333333","25.0074316666667","6500700","樹林區"
"238019","599-UM","2018/12/27 19:49:46","新北市樹林區中山路三段210-2號","121.380656666667","24.9665633333333","6500700","樹林區"
"238022","KEA-2213","2018/12/27 19:49:35","新北市樹林區國凱街70號","121.4209","24.9789733333333","6500700","樹林區"
"238021","KEA-2539","2018/12/27 19:49:40","新北市樹林區佳園路三段111號","121.386836666667","24.9509483333333","6500700","樹林區"
"238025","303-VK","2018/12/27 19:49:34","新北市樹林區中山路二段160-1號","121.412143333333","24.982835","6500700","樹林區"
"238017","283-BY","2018/12/27 19:49:32","新北市樹林區保安街二段109號","121.415543333333","25.00139","6500700","樹林區"
"238014","282-BY","2018/12/27 19:49:42","新北市樹林區千歲街70巷1弄2號","121.426798333333","24.9971166666667","6500700","樹林區"
"238026","172-UY","2018/12/27 19:49:29","新北市樹林區佳園路二段41號","121.391618333333","24.9625066666667","6500700","樹林區"
"239006","891-R6","2018/12/27 19:49:36","新北市鶯歌區永昌街1號","121.34321","24.94975","6500800","鶯歌區"
"239004","193-VK","2018/12/27 19:49:35","新北市鶯歌區二甲路13-16號","121.345456666667","24.9351066666667","6500800","鶯歌區"
"221008","489-VK","2018/12/27 19:49:46","新北市汐止區康寧街83巷28號","121.620705","25.06726","6501100","汐止區"
"221036","130-UY","2018/12/27 19:49:35","新北市汐止區新台五路二段91號","121.665125","25.0672183333333","6501100","汐止區"
"221015","131-UY","2018/12/27 19:49:33","新北市汐止區忠孝東路428號","121.666058333333","25.0719","6501100","汐止區"
"221010","269-BY","2018/12/27 19:49:46","新北市汐止區八連路一段13號","121.647741666667","25.0806666666667","6501100","汐止區"
"221012","278-VK","2018/12/27 19:49:33","新北市汐止區保長路273巷1號","121.681005","25.0741333333333","6501100","汐止區"
"221023","279-VK","2018/12/27 19:49:39","新北市汐止區民族六街6巷2號","121.62972","25.06982","6501100","汐止區"
"221027","281-BY","2018/12/27 19:49:46","新北市汐止區中正路9號","121.662975","25.0701266666667","6501100","汐止區"
"221029","298-VK","2018/12/27 19:49:34","新北市汐止區康寧街901號","121.651463333333","25.0749916666667","6501100","汐止區"
"221021","299-VK","2018/12/27 19:49:40","新北市汐止區新興路85巷6號","121.65819","25.0613416666667","6501100","汐止區"
"221031","353-TW","2018/12/27 19:49:39","新北市汐止區福德二路55巷1弄5號","121.634176666667","25.0668933333333","6501100","汐止區"
"221025","623-UM","2018/12/27 19:49:42","新北市汐止區秀峰路81巷21號","121.660985","25.0647016666667","6501100","汐止區"
"221038","646-BX","2018/12/27 19:49:32","新北市汐止區忠孝東路357號","121.66565","25.0706516666667","6501100","汐止區"
"221033","647-BX","2018/12/27 19:49:36","新北市汐止區東勢街76巷100-1號","121.636441666667","25.0388983333333","6501100","汐止區"
"221002","707-TV","2018/12/27 19:49:34","新北市汐止區大同路一段219巷27號","121.63324","25.0583783333333","6501100","汐止區"
"221018","753-BX","2018/12/27 19:49:37","新北市汐止區汐萬路一段271號","121.650596666667","25.07434","6501100","汐止區"
"220079","145-BY","2018/12/27 19:49:28","新北市板橋區復興街26號","121.458061666667","25.0172633333333","6500100","板橋區"
"220080","200-UY","2018/12/27 19:49:44","新北市板橋區大觀路二段69巷10號","121.446991666667","25.002215","6500100","板橋區"
"220082","610-BX","2018/12/27 19:49:42","新北市板橋區存德街11號","121.429936666667","24.99185","6500100","板橋區"
"224002","257-TC","2018/12/27 19:49:39","新北市瑞芳區民享新村23號","121.817163333333","25.1054716666667","6501200","瑞芳區"
"220056","276-BY","2018/12/27 19:49:39","新北市板橋區信義路1巷26弄23號","121.458295","24.9966233333333","6500100","板橋區"
"220072","277-BY","2018/12/27 19:49:36","新北市板橋區金門街122號","121.432906666667","24.9914866666667","6500100","板橋區"
"220101","280-UM","2018/12/27 19:49:34","新北市板橋區雙十路一段44巷36號","121.477393333333","25.0248733333333","6500100","板橋區"
"220071","283-VK","2018/12/27 19:49:34","新北市板橋區和平路174巷21號","121.464596666667","24.9946066666667","6500100","板橋區"
"220094","285-UM","2018/12/27 19:49:41","新北市板橋區文德路5號","121.462765","25.0243833333333","6500100","板橋區"
"220053","285-VK","2018/12/27 19:49:39","新北市板橋區中山路二段90巷16號","121.475535","25.0158533333333","6500100","板橋區"
"220083","286-VK","2018/12/27 19:49:43","新北市板橋區僑中三街38號","121.445446666667","25.0051516666667","6500100","板橋區"
"220081","287-VK","2018/12/27 19:49:46","新北市板橋區大觀路一段29巷4弄2號","121.45019","25.0078416666667","6500100","板橋區"
"220090","288-VK","2018/12/27 19:49:27","新北市板橋區龍泉街71號","121.456498333333","25.0253616666667","6500100","板橋區"
"220061","293-UM","2018/12/27 19:49:38","新北市板橋區觀光街61號","121.470416666667","25.0163133333333","6500100","板橋區"
"220084","296-UM","2018/12/27 19:49:39","新北市板橋區溪崑二街124巷5號","121.42567","24.988225","6500100","板橋區"
"220075","303-R5","2018/12/27 19:49:45","新北市板橋區金華街10巷48弄5號","121.457211666667","25.0198783333333","6500100","板橋區"
"220062","305-R5","2018/12/27 19:49:34","新北市板橋區光復街33巷17號","121.482048333333","25.018965","6500100","板橋區"
"220092","307-R5","2018/12/27 19:47:18","新北市板橋區新海路135巷1號","121.460688333333","25.0234666666667","6500100","板橋區"
"220098","317-R6","2018/12/27 19:49:35","新北市板橋區四維路269巷55號","121.460981666667","25.0271683333333","6500100","板橋區"
"220089","487-VK","2018/12/27 19:49:47","新北市板橋區四維路227號","121.463901666667","25.0273116666667","6500100","板橋區"
"220088","491-VK","2018/12/27 19:49:37","新北市板橋區懷德街162號","121.479025","25.0305583333333","6500100","板橋區"
"220035","560-BX","2018/12/27 19:49:46","新北市板橋區金華街10巷15號","121.456346666667","25.0202783333333","6500100","板橋區"
"220103","561-BX","2018/12/27 19:49:37","新北市板橋區英士路60號","121.460843333333","25.0248333333333","6500100","板橋區"
"220063","609-BX","2018/12/27 19:49:42","新北市板橋區三民路一段44號","121.479305","25.0227916666667","6500100","板橋區"
"220055","630-UY","2018/12/27 19:49:31","新北市板橋區國慶路149巷29弄2號","121.460781666667","24.99769","6500100","板橋區"
"220091","637-BX","2018/12/27 19:49:42","新北市板橋區文聖街149巷32號","121.47988","25.0287583333333","6500100","板橋區"
"220057","686-BX","2018/12/27 19:49:39","新北市板橋區廣權路12號","121.46067","24.9912533333333","6500100","板橋區"
"220077","687-BX","2018/12/27 19:49:45","新北市板橋區僑中二街92巷1號","121.446288333333","25.00866","6500100","板橋區"
"220093","689-BX","2018/12/27 19:49:43","新北市板橋區民治街57巷32-1號","121.481273333333","25.0361816666667","6500100","板橋區"
"220054","741-BX","2018/12/27 19:49:29","新北市板橋區實踐路93巷36號","121.465465","25.005085","6500100","板橋區"
"220102","KEA-2699","2018/12/27 19:49:45","新北市板橋區仁化街42巷25號","121.475666666667","25.0308916666667","6500100","板橋區"
"220067","829-TW","2018/12/27 19:49:39","新北市板橋區長安街331巷19弄13號","121.473465","25.0121833333333","6500100","板橋區"
"220068","830-TW","2018/12/27 19:49:38","新北市板橋區光復街192巷11號","121.4864","25.0200633333333","6500100","板橋區"
"220074","895-R6","2018/12/27 19:49:42","新北市板橋區東門街1號","121.458096666667","25.008795","6500100","板橋區"
"220073","985-R7","2018/12/27 19:49:43","新北市板橋區中正路170號","121.456561666667","25.01722","6500100","板橋區"
"220097","AAC-210","2018/12/27 19:49:44","新北市板橋區光正街25號","121.462425","25.017195","6500100","板橋區"
"220062","AAC-253","2018/12/27 19:49:28","新北市板橋區民族路83號","121.465641666667","25.00852","6500100","板橋區"
"235068","KEA-2873","2018/12/27 19:49:44","新北市中和區莊敬路16巷15弄9號","121.500543333333","25.0039283333333","6500300","中和區"
"235047","KEA-2876","2018/12/27 19:49:30","新北市中和區興南路一段75號","121.510128333333","24.98921","6500300","中和區"
