"lineid","car","time","location","longitude","latitude","cityid","cityname"
"234046","148-BY","2018/12/27 20:09:48","新北市永和區得和路402號","121.52562","24.9991866666667","6500400","永和區"
"234081","298-R6","2018/12/27 20:09:37","新北市永和區國中路29號","121.524548333333","25.00536","6500400","永和區"
"234038","336-UY","2018/12/27 20:09:44","新北市永和區成功路一段47巷8號","121.527576666667","25.003985","6500400","永和區"
"234064","337-UY","2018/12/27 20:09:33","新北市永和區永利路96號","121.520903333333","25.0035566666667","6500400","永和區"
"234086","338-UY","2018/12/27 20:09:38","新北市永和區中正路625號","121.515693333333","25.0099433333333","6500400","永和區"
"234070","552-UM","2018/12/27 20:09:31","新北市永和區中正路638號","121.5169","25.0081933333333","6500400","永和區"
"234017","745-BX","2018/12/27 20:09:41","新北市永和區文化路91號","121.513426666667","25.0152233333333","6500400","永和區"
"234030","746-BX","2018/12/27 20:09:32","新北市永和區民權路1巷34號","121.521951666667","24.9979533333333","6500400","永和區"
"234054","KEA-2590","2018/12/27 20:09:31","新北市永和區博愛街29號","121.518276666667","25.0157933333333","6500400","永和區"
"234007","839-RS","2018/12/27 20:09:38","新北市永和區保順路37巷7號","121.50321","25.010205","6500400","永和區"
"234013","KEA-2591","2018/12/27 20:09:29","新北市永和區仁愛路273號","121.506001666667","25.0098666666667","6500400","永和區"
"234061","AAD-866","2018/12/27 20:09:43","新北市永和區中正路151巷8弄2號","121.515971666667","24.99863","6500400","永和區"
"234042","862-TW","2018/12/27 20:09:35","新北市永和區雙和街41號","121.50885","25.002465","6500400","永和區"
"234050","863-TW","2018/12/27 20:09:40","新北市永和區新生路192號","121.505803333333","25.0135266666667","6500400","永和區"
"234026","9371-KE","2018/12/27 20:09:42","新北市永和區保生路55-1號","121.50469","25.01137","6500400","永和區"
"234011","9373-KE","2018/12/27 20:09:36","新北市永和區仁愛路352巷124號","121.500176666667","25.008515","6500400","永和區"
"249005","172-UM","2018/12/27 20:09:35","新北市八里區下罟子46號","121.384881666667","25.1364433333333","6502300","八里區"
"249001","173-UM","2018/12/27 20:09:42","新北市八里區中華路二段326號","121.403246666667","25.14799","6502300","八里區"
"249004","303-UY","2018/12/27 20:09:40","新北市八里區中山路一段332號","121.412698333333","25.1590583333333","6502300","八里區"
"249002","305-UY","2018/12/27 20:09:42","新北市八里區龍米路一段30巷8號","121.457081666667","25.1167783333333","6502300","八里區"
"249003","593-UM","2018/12/27 20:09:45","新北市八里區中山路二段540巷28號","121.397183333333","25.1470466666667","6502300","八里區"
"248014","025-BX","2018/12/27 20:09:31","新北市五股區天乙路102-22號","121.448488333333","25.1070733333333","6501500","五股區"
"248016","026-BX","2018/12/27 20:09:42","新北市五股區凌雲路一段158巷57弄1號","121.447111666667","25.1044633333333","6501500","五股區"
"248008","095-VK","2018/12/27 20:09:48","新北市五股區中興路一段1巷12弄1號","121.469463333333","25.0714433333333","6501500","五股區"
"248020","225-UY","2018/12/27 20:09:36","新北市五股區凌雲路二段25號","121.441195","25.10214","6501500","五股區"
"248012","247-BX","2018/12/27 20:09:39","新北市五股區六合街118號","121.430313333333","25.0907966666667","6501500","五股區"
"248004","677-BX","2018/12/27 20:09:39","新北市五股區成泰路一段142號","121.435013333333","25.0759016666667","6501500","五股區"
"248002","678-BX","2018/12/27 20:02:01","新北市五股區成泰路三段350號","121.450551666667","25.098515","6501500","五股區"
"248010","682-TV","2018/12/27 20:09:44","新北市五股區成泰路一段7巷66號","121.432561666667","25.067945","6501500","五股區"
"234023","9380-KE","2018/12/27 20:09:42","新北市永和區永和路二段159號","121.51519","25.0129066666667","6500400","永和區"
"234077","969-R7","2018/12/27 20:09:38","新北市永和區民享街23巷5弄8號","121.51611","24.995705","6500400","永和區"
"234074","AAC-211","2018/12/27 20:09:31","新北市永和區豫溪街150巷2號","121.521873333333","25.01039","6500400","永和區"
"234067","AAC-212","2018/12/27 20:09:41","新北市永和區保平路214巷10弄2號","121.509286666667","25.00651","6500400","永和區"
"234003","AAC-295","2018/12/27 20:09:39","新北市永和區中正路628號","121.516983333333","25.007975","6500400","永和區"
"243013","AAD-798","2018/12/27 20:09:28","新北市泰山區明志路三段74巷7號","121.424378333333","25.0417233333333","6501600","泰山區"
"243009","297-R6","2018/12/27 20:09:34","新北市泰山區泰林路二段127號","121.43426","25.059755","6501600","泰山區"
"243016","KEA-2801","2018/12/27 20:09:34","新北市泰山區明志路三段405號","121.421198333333","25.0340016666667","6501600","泰山區"
"243015","421-VK","2018/12/27 20:09:44","新北市泰山區明志路一段260號","121.432146666667","25.0604716666667","6501600","泰山區"
"243011","KEA-2215","2018/12/27 20:09:26","新北市新莊區丹鳳街36號","121.42161","25.029575","6501600","泰山區"
"243010","KEA-2216","2018/12/27 20:09:36","新北市泰山區明志路二段214巷16弄41號","121.42665","25.0503766666667","6501600","泰山區"
"243004","646-TV","2018/12/27 20:09:43","新北市泰山區楓江路62號","121.436835","25.06337","6501600","泰山區"
"243014","680-BX","2018/12/27 20:09:35","新北市泰山區明志路一段187號","121.432971666667","25.0619616666667","6501600","泰山區"
"222003","436-BY","2018/12/27 20:09:39","新北市深坑區埔新街62號","121.620113333333","25.00246","6501800","深坑區"
"222002","659-BX","2018/12/27 20:09:31","新北市深坑區北深路三段38號","121.608911666667","25.0012033333333","6501800","深坑區"
"231041","002-UM","2018/12/27 20:09:31","新北市新店區中正路460號","121.533993333333","24.9793416666667","6500600","新店區"
"231059","046-UY","2018/12/27 20:09:42","新北市新店區安成街28-1號","121.510163333333","24.9609766666667","6500600","新店區"
"231040","047-UY","2018/12/27 20:09:44","新北市新店區中正路106號","121.543113333333","24.970595","6500600","新店區"
"231044","106-UY","2018/12/27 20:09:28","新北市新店區寶慶街58巷2號","121.542115","24.986765","6500600","新店區"
"231052","108-UY","2018/12/27 20:09:40","新北市新店區新烏路三段286號","121.54982","24.8982533333333","6500600","新店區"
"231047","187-VK","2018/12/27 20:09:42","新北市新店區寶橋路59-1號","121.545106666667","24.9750633333333","6500600","新店區"
"231054","188-VK","2018/12/27 20:09:34","新北市新店區檳榔路41巷2號","121.54285","24.963265","6500600","新店區"
"221035","KEA-2785","2018/12/27 20:09:39","新北市汐止區長江街67巷2弄1號","121.656728333333","25.072285","6501100","汐止區"
"231057","256-BX","2018/12/27 20:09:37","新北市新店區百齡一路12號","121.553123333333","24.9324366666667","6500600","新店區"
"231042","268-BY","2018/12/27 20:09:35","新北市新店區中興路二段99巷1號","121.547146666667","24.9716083333333","6500600","新店區"
"231051","278-BY","2018/12/27 20:09:30","新北市新店區中央路153號","121.529901666667","24.973065","6500600","新店區"
"231050","AAD-862","2018/12/27 20:09:36","新北市新店區北新路一段90號","121.541903333333","24.9686466666667","6500600","新店區"
"231056","4715-K9","2018/12/27 20:09:33","新北市新店區中正路275巷35號","121.536648333333","24.9726883333333","6500600","新店區"
"231067","4772-VM","2018/12/27 20:09:33","新北市新店區溪洲路6巷40號","121.533675","24.962895","6500600","新店區"
"231065","512-UM","2018/12/27 20:09:29","新北市新店區安祥路106巷96號","121.474308333333","24.9594566666667","6500600","新店區"
"231049","513-UM","2018/12/27 20:09:33","新北市新店區明德路38號","121.541398333333","24.9779233333333","6500600","新店區"
"231045","617-UM","2018/12/27 20:09:42","新北市新店區北宜路一段123號","121.540393333333","24.9535433333333","6500600","新店區"
"231061","619-UM","2018/12/27 20:09:36","新北市新店區安興路81號","121.515441666667","24.97551","6500600","新店區"
"231063","641-BX","2018/12/27 20:09:38","新北市新店區黎明路52巷1號","121.502293333333","24.948605","6500600","新店區"
"231068","718-UY","2018/12/27 20:09:33","新北市新店區中興路三段88號","121.54526","24.9788866666667","6500600","新店區"
"231064","719-UM","2018/12/27 19:59:41","新北市新店區安民街5號","121.5153","24.9643216666667","6500600","新店區"
"231062","720-UM","2018/12/27 20:09:46","新北市新店區安康路二段109號","121.512585","24.9618783333333","6500600","新店區"
"231060","897-TW","2018/12/27 20:09:42","新北市新店區安康路三段434號","121.485133333333","24.95149","6500600","新店區"
"231043","899-TW","2018/12/27 20:09:36","新北市新店區民族路110號","121.537685","24.977025","6500600","新店區"
"231055","AKT-0513","2018/12/27 20:09:30","新北市新店區北新路一段305號","121.541186666667","24.9677616666667","6500600","新店區"
"241011","013-R5","2018/12/27 20:09:37","新北市三重區三和路三段45-1號","121.495383333333","25.0714016666667","6500200","三重區"
"241028","022-UY","2018/12/27 20:09:38","新北市三重區仁化街137號","121.494678333333","25.0575233333333","6500200","三重區"
"241008","059-VK","2018/12/27 20:09:28","新北市三重區永福街197巷15號","121.47904","25.0742516666667","6500200","三重區"
"241022","060-VK","2018/12/27 20:09:33","新北市三重區重陽路二段11號","121.486936666667","25.06211","6500200","三重區"
"241031","061-VK","2018/12/27 20:09:39","新北市三重區過圳街9-1號","121.488746666667","25.060095","6500200","三重區"
"241015","062-VK","2018/12/27 20:09:49","新北市三重區福德北路45號","121.502323333333","25.0649766666667","6500200","三重區"
"241017","063-VK","2018/12/27 20:09:29","新北市三重區自強路一段236號","121.493173333333","25.0670266666667","6500200","三重區"
"241024","065-VK","2018/12/27 20:09:36","新北市三重區中正北路165巷37號","121.479901666667","25.0702883333333","6500200","三重區"
"241002","090-VK","2018/12/27 20:09:30","新北市三重區仁忠街51號","121.494918333333","25.0815366666667","6500200","三重區"
"241003","091-VK","2018/12/27 20:09:28","新北市三重區仁愛街476號","121.489643333333","25.0823666666667","6500200","三重區"
"251014","742-BX","2018/12/27 20:09:43","新北市淡水區石頭厝1號","121.458735","25.235515","6501000","淡水區"
"241005","262-UM","2018/12/27 20:09:35","新北市三重區溪尾街327號","121.48838","25.084845","6500200","三重區"
"241016","266-UM","2018/12/27 20:09:40","新北市三重區大同北路97-3號","121.49435","25.06356","6500200","三重區"
"241009","267-UM","2018/12/27 20:09:47","新北市三重區三和路四段177-1號","121.482768333333","25.07879","6500200","三重區"
"241018","268-UM","2018/12/27 20:09:49","新北市三重區自強路一段236號","121.493156666667","25.0671633333333","6500200","三重區"
"241032","269-UM","2018/12/27 20:09:37","新北市三重區捷運路65號","121.483403333333","25.0556316666667","6500200","三重區"
"241013","270-UM","2018/12/27 20:09:28","新北市三重區三和路三段151巷39號","121.493696666667","25.0742616666667","6500200","三重區"
"241025","271-UM","2018/12/27 20:09:48","新北市三重區中正北路416號","121.47523","25.0707316666667","6500200","三重區"
"241007","398-BY","2018/12/27 20:09:48","新北市三重區三和路四段111-10號","121.486528333333","25.0776533333333","6500200","三重區"
"241035","462-BY","2018/12/27 20:09:42","新北市三重區平安街5號","121.498868333333","25.06428","6500200","三重區"
"241004","475-VK","2018/12/27 20:09:39","新北市三重區自強路四段100號","121.491308333333","25.0797266666667","6500200","三重區"
"241020","478-VK","2018/12/27 20:09:34","新北市三重區後竹圍街2巷2號","121.491895","25.0734933333333","6500200","三重區"
"241030","480-VK","2018/12/27 20:09:32","新北市三重區成功路145巷32號","121.487551666667","25.0532466666667","6500200","三重區"
"241014","543-UM","2018/12/27 20:09:29","新北市三重區安和路38號","121.500821666667","25.0692816666667","6500200","三重區"
"241001","547-UM","2018/12/27 20:09:42","新北市三重區溪尾街29號","121.491465","25.0754533333333","6500200","三重區"
"241019","KEA-2593","2018/12/27 20:09:34","新北市三重區自強路二段33巷30號","121.490286666667","25.0697933333333","6500200","三重區"
"241006","AAD-863","2018/12/27 20:09:47","新北市三重區車路頭街135-1號","121.48428","25.0761633333333","6500200","三重區"
"241026","743-BX","2018/12/27 20:09:38","新北市三重區福德南路65巷2號","121.502246666667","25.0604683333333","6500200","三重區"
"241023","887-TS","2018/12/27 20:09:42","新北市三重區頂崁街225號","121.477048333333","25.0680566666667","6500200","三重區"
"241012","941-UM","2018/12/27 20:09:45","新北市三重區仁興街70號","121.498643333333","25.0763616666667","6500200","三重區"
"241029","942-UM","2018/12/27 20:09:33","新北市三重區光明路32巷28號","121.491988333333","25.0587666666667","6500200","三重區"
"235066","003-UY","2018/12/27 20:09:35","新北市中和區水源路136巷3號","121.508008333333","25.00313","6500300","中和區"
"235039","097-UM","2018/12/27 20:09:41","新北市中和區大勇街34號","121.517316666667","24.9933816666667","6500300","中和區"
"235040","150-BY","2018/12/27 20:09:12","新北市中和區保健路44巷6號","121.509163333333","24.9972033333333","6500300","中和區"
"235044","293-VK","2018/12/27 20:09:48","新北市中和區中興街178號","121.49983","24.991055","6500300","中和區"
"247012","KEA-2869","2018/12/27 20:09:37","新北市蘆洲區民族路266號","121.478766666667","25.0889633333333","6501400","蘆洲區"
"247006","KED-0682","2018/12/27 20:09:32","新北市蘆洲區中山二路288號","121.46883","25.0775716666667","6501400","蘆洲區"
"235050","4979-A6","2018/12/27 20:09:44","新北市中和區安樂路1號","121.511488333333","24.9918133333333","6500300","中和區"
"235069","4980-A6","2018/12/27 20:09:44","新北市中和區景新街34巷18弄1號","121.503386666667","24.9984533333333","6500300","中和區"
"235054","640-BX","2018/12/27 20:09:34","新北市板橋區民生路三段246號","121.464403333333","25.0305066666667","6500300","中和區"
"235046","733-UM","2018/12/27 20:09:29","新北市中和區忠孝街31巷16號","121.510166666667","24.9840116666667","6500300","中和區"
"235065","911-UM","2018/12/27 20:09:38","新北市中和區福祥路85巷7號","121.498545","25.0056083333333","6500300","中和區"
"235051","157-BY","2018/12/27 20:09:34","新北市中和區復興路280號","121.502371666667","24.9904766666667","6500300","中和區"
"235059","AAC-215","2018/12/27 20:09:32","新北市中和區圓通路335巷33弄33號","121.493613333333","24.98884","6500300","中和區"
"220065","072-UY","2018/12/27 20:09:46","新北市板橋區縣民大道三段264-1號","121.478223333333","25.0232083333333","6500100","板橋區"
"220086","073-UY","2018/12/27 20:09:47","新北市八里區中山路三段216號","121.378441666667","25.1421316666667","6500100","板橋區"
"220106","075-UY","2018/12/27 20:09:45","新北市板橋區民治街135號","121.477708333333","25.0307616666667","6500100","板橋區"
"247002","893-R6","2018/12/27 20:09:32","新北市蘆洲區永康街2巷2號","121.459386666667","25.0861133333333","6501400","蘆洲區"
"247024","500-BY","2018/12/27 20:09:43","新北市蘆洲區光明路102號","121.463408333333","25.0880316666667","6501400","蘆洲區"
"247010","336-TH","2018/12/27 20:09:33","新北市蘆洲區中山一路74巷55號","121.479978333333","25.081655","6501400","蘆洲區"
"247020","057-VK","2018/12/27 20:09:38","新北市蘆洲區民權路106巷5弄7號","121.474223333333","25.0891416666667","6501400","蘆洲區"
"247014","053-VK","2018/12/27 20:09:39","新北市蘆洲區中山二路265巷13號","121.470521666667","25.0796183333333","6501400","蘆洲區"
"247018","007-UY","2018/12/27 20:09:26","新北市蘆洲區民族路314巷23號","121.478046666667","25.0907133333333","6501400","蘆洲區"
"247004","002-UY","2018/12/27 20:09:38","新北市蘆洲區永安南路二段328巷17弄13號","121.456021666667","25.083885","6501400","蘆洲區"
"247022","001-UY","2018/12/27 20:09:46","新北市蘆洲區三民路171巷11號","121.470735","25.087005","6501400","蘆洲區"
"226004","312-R5","2018/12/27 20:09:29","新北市平溪區十分里十分街66巷2號","121.775743333333","25.0421183333333","6502400","平溪區"
"224010","AGQ-8101","2018/12/27 20:09:45","新北市瑞芳區輕便路55號","121.845083333333","25.110275","6501200","瑞芳區"
"222001","KEA-2212","2018/12/27 20:09:41","新北市深坑區北深路三段187號","121.601268333333","25.0037","6501800","深坑區"
"208002","KEA-2872","2018/12/27 20:09:43","新北市金山區南勢湖66號","121.6164","25.2147033333333","6502700","金山區"
"251009","008-UM","2018/12/27 20:09:31","新北市淡水區清水街22號","121.44492","25.17037","6501000","淡水區"
"251001","011-UM","2018/12/27 20:09:40","新北市淡水區淡金路二段15號","121.446306666667","25.1891833333333","6501000","淡水區"
"251013","KEA-2871","2018/12/27 20:09:37","新北市淡水區奎柔山路476號","121.46425","25.2047983333333","6501000","淡水區"
"251016","179-VK","2018/12/27 20:09:40","新北市淡水區番子田25-5號","121.456598333333","25.2295333333333","6501000","淡水區"
"251008","181-VK","2018/12/27 20:09:42","新北市淡水區沙崙路156巷20號","121.424016666667","25.1822033333333","6501000","淡水區"
"251015","182-VK","2018/12/27 20:09:33","新北市淡水區埤島6-10號","121.446151666667","25.1942283333333","6501000","淡水區"
"251010","413-VK","2018/12/27 20:09:40","新北市淡水區中正路二段375號","121.424031666667","25.1912216666667","6501000","淡水區"
"251012","441-VK","2018/12/27 20:09:38","新北市淡水區淡金路三段345號","121.448801666667","25.2066516666667","6501000","淡水區"
"251005","443-VK","2018/12/27 20:09:40","新北市淡水區學府路104號","121.44991","25.17192","6501000","淡水區"
"251006","561-UM","2018/12/27 20:09:35","新北市淡水區北新路141巷29號","121.448253333333","25.1795966666667","6501000","淡水區"
"251003","673-BX","2018/12/27 20:09:29","新北市淡水區中山北路二段189巷15弄31號","121.443421666667","25.183975","6501000","淡水區"
"207003","550-UM","2018/12/27 20:09:39","新北市萬里區大鵬里萬里加投172號","121.643223333333","25.2157616666667","6502800","萬里區"
"207004","225-TW","2018/12/27 20:09:36","新北市萬里區北基里愛三街11號","121.681808333333","25.1766983333333","6502800","萬里區"
"252002","178-VK","2018/12/27 20:09:30","新北市三芝區中正路一段72號","121.50395","25.2576733333333","6502100","三芝區"
"252001","292-VK","2018/12/27 20:09:36","新北市三芝區公正街9號","121.499685","25.2575433333333","6502100","三芝區"
"237009","210-TH","2018/12/27 20:09:39","新北市三峽區民族街76號","121.369498333333","24.9298883333333","6500900","三峽區"
"237008","302-VK","2018/12/27 20:09:44","新北市三峽區中正路一段174巷4弄29號","121.372856666667","24.929345","6500900","三峽區"
"237006","5529-G3","2018/12/27 20:09:37","新北市三峽區中正路二段285號","121.36598","24.9111883333333","6500900","三峽區"
"237016","649-BX","2018/12/27 20:09:31","新北市三峽區介壽路二段138巷1弄42-2號","121.397883333333","24.9327916666667","6500900","三峽區"
"237005","AKY-6261","2018/12/27 20:09:30","新北市三峽區三樹路98巷74弄15號","121.384561666667","24.9386516666667","6500900","三峽區"
"236070","105-UM","2018/12/27 20:09:49","新北市土城區中央路三段175號","121.431471666667","24.9653766666667","6501300","土城區"
"236042","KED-0685","2018/12/27 20:09:41","新北市土城區學成路2號","121.453531666667","24.9863116666667","6501300","土城區"
"236078","166-UM","2018/12/27 20:09:42","新北市土城區福安街27號","121.419548333333","24.9648516666667","6501300","土城區"
"236030","253-BX","2018/12/27 20:09:43","新北市土城區中央路一段120號","121.446353333333","24.9881","6501300","土城區"
"236026","269-VK","2018/12/27 20:09:39","新北市土城區中央路一段222號","121.44488","24.98535","6501300","土城區"
"236014","270-VK","2018/12/27 20:09:33","新北市土城區德興街133號","121.455053333333","24.99178","6501300","土城區"
"247008","KED-0683","2018/12/27 20:09:39","新北市蘆洲區中山一路97巷32弄6號","121.475525","25.0811383333333","6501400","蘆洲區"
"236021","401-BY","2018/12/27 20:09:28","新北市土城區延吉街25號","121.472363333333","24.9883916666667","6501300","土城區"
"236059","912-UM","2018/12/27 20:09:34","新北市土城區光明街4號","121.441798333333","24.9745466666667","6501300","土城區"
"236049","913-UM","2018/12/27 20:09:32","新北市土城區清水路148號","121.459286666667","24.9814716666667","6501300","土城區"
"242036","AAC-296","2018/12/27 20:09:29","新北市新莊區民安路207巷30-7號","121.428091666667","25.0241683333333","6500500","新莊區"
"242058","986-R7","2018/12/27 20:09:45","新北市新莊區八德街125號","121.424","25.0206383333333","6500500","新莊區"
"242056","751-BX","2018/12/27 20:09:36","新北市新莊區新莊路649巷15弄32號","121.445551666667","25.03147","6500500","新莊區"
"242027","615-BX","2018/12/27 20:09:42","新北市新莊區中平路377巷1-15號","121.444131666667","25.0519383333333","6500500","新莊區"
"242025","613-BX","2018/12/27 20:09:41","新北市五股區五權二路7號","121.454738333333","25.0646666666667","6500500","新莊區"
"242029","612-BX","2018/12/27 20:09:34","新北市新莊區中原路321號","121.446785","25.0543233333333","6500500","新莊區"
"242044","566-BX","2018/12/27 20:09:35","新北市新莊區中正路929巷7弄22號","121.411621666667","25.0200466666667","6500500","新莊區"
"242048","497-BY","2018/12/27 20:09:34","新北市新莊區四維路152巷15號","121.422263333333","25.0229366666667","6500500","新莊區"
"242021","442-UM","2018/12/27 20:09:45","新北市新莊區建中街46號","121.448501666667","25.0374583333333","6500500","新莊區"
"242053","441-UM","2018/12/27 20:09:45","新北市新莊區西盛街387巷34弄3號","121.428666666667","25.0129916666667","6500500","新莊區"
"242002","440-UM","2018/12/27 20:09:38","新北市新莊區登龍路3號","121.456555","25.0367416666667","6500500","新莊區"
"242039","415-TV","2018/12/27 20:09:43","新北市新莊區民安西路111巷9號","121.42714","25.018105","6500500","新莊區"
"242009","413-TV","2018/12/27 20:09:41","新北市新莊區昌平街14號","121.45492","25.0527233333333","6500500","新莊區"
"242046","400-BY","2018/12/27 20:09:36","新北市新莊區裕民街85巷11號","121.419168333333","25.023425","6500500","新莊區"
"242023","362-BY","2018/12/27 20:09:30","新北市新莊區化成路562號","121.466181666667","25.0540616666667","6500500","新莊區"
"242061","353-BY","2018/12/27 20:09:40","新北市新莊區瓊林路瓊英巷4弄2號","121.443628333333","25.0273766666667","6500500","新莊區"
"242034","135-UY","2018/12/27 20:09:37","新北市新莊區中正路320號","121.44613","25.0348666666667","6500500","新莊區"
"242051","172-VK","2018/12/27 20:09:35","新北市新莊區民安西路172巷4弄5號","121.425463333333","25.0161633333333","6500500","新莊區"
"242013","173-VK","2018/12/27 20:09:43","新北市新莊區中港路483巷24號","121.45116","25.0497116666667","6500500","新莊區"
"242007","176-VK","2018/12/27 20:09:40","新北市新莊區思源路419巷1弄3號","121.459465","25.0523733333333","6500500","新莊區"
"242017","346-TH","2018/12/27 20:09:47","新北市新莊區中港路411號","121.452171666667","25.0473516666667","6500500","新莊區"
"242011","347-TH","2018/12/27 20:09:30","新北市新莊區中信街54號","121.449191666667","25.0508883333333","6500500","新莊區"
"242031","348-TH","2018/12/27 20:09:38","新北市新莊區忠孝街29巷34號","121.443613333333","25.0370083333333","6500500","新莊區"
"242004","349-TH","2018/12/27 20:09:45","新北市新莊區頭興街1-3號","121.464201666667","25.0534966666667","6500500","新莊區"
"242015","351-TH","2018/12/27 20:09:36","新北市新莊區中平路26巷28號","121.445958333333","25.0432916666667","6500500","新莊區"
"238021","KEA-2539","2018/12/27 20:09:30","新北市樹林區佳園路二段30號","121.391545","24.962415","6500700","樹林區"
"221008","489-VK","2018/12/27 20:09:27","台北市內湖區康樂街204號","121.621328333333","25.0762033333333","6501100","汐止區"
"221036","130-UY","2018/12/27 20:09:35","新北市汐止區仁愛路143號","121.663383333333","25.0642966666667","6501100","汐止區"
"221015","131-UY","2018/12/27 20:09:33","新北市汐止區建成路35號","121.66385","25.07272","6501100","汐止區"
"221010","269-BY","2018/12/27 20:09:44","新北市汐止區八連路一段338號","121.640188333333","25.08792","6501100","汐止區"
"221012","278-VK","2018/12/27 20:09:33","新北市汐止區汐平路二段62號","121.697133333333","25.0617733333333","6501100","汐止區"
"221023","279-VK","2018/12/27 20:09:39","新北市汐止區明峰街298巷7弄2號","121.624973333333","25.068855","6501100","汐止區"
"221032","280-BY","2018/12/27 20:09:35","新北市汐止區弘道街9巷4弄2號","121.617065","25.0491533333333","6501100","汐止區"
"221027","281-BY","2018/12/27 20:09:46","新北市汐止區光明街25號","121.660241666667","25.06852","6501100","汐止區"
"221029","298-VK","2018/12/27 20:09:34","新北市汐止區樟樹一路119巷10弄1號","121.641143333333","25.06463","6501100","汐止區"
"221021","299-VK","2018/12/27 20:09:40","新北市汐止區連興街146號","121.654083333333","25.0614166666667","6501100","汐止區"
"221031","353-TW","2018/12/27 20:09:41","新北市汐止區原興路72號","121.63245","25.0659966666667","6501100","汐止區"
"221025","623-UM","2018/12/27 20:09:42","新北市汐止區秀峰路77號","121.659931666667","25.0642866666667","6501100","汐止區"
"221038","646-BX","2018/12/27 20:09:32","新北市汐止區大同路三段66-3號","121.668155","25.0770866666667","6501100","汐止區"
"221033","647-BX","2018/12/27 20:09:36","新北市汐止區東勢街201巷104號","121.633513333333","25.04283","6501100","汐止區"
"221002","707-TV","2018/12/27 20:09:34","新北市汐止區中興路62號","121.635265","25.0612566666667","6501100","汐止區"
"221018","753-BX","2018/12/27 20:09:37","新北市汐止區茄福街35巷37號","121.673411666667","25.0661866666667","6501100","汐止區"
"224002","257-TC","2018/12/27 20:09:39","新北市瑞芳區蛇子形路7號","121.825976666667","25.1049416666667","6501200","瑞芳區"
"220056","276-BY","2018/12/27 20:09:39","新北市板橋區四川路二段99-11號","121.452033333333","24.9945833333333","6500100","板橋區"
"220101","280-UM","2018/12/27 20:09:34","新北市板橋區雙十路一段44巷36號","121.477433333333","25.0249883333333","6500100","板橋區"
"220083","286-VK","2018/12/27 20:09:43","新北市板橋區僑中二街88巷36號","121.444605","25.00965","6500100","板橋區"
"220081","287-VK","2018/12/27 20:09:46","新北市板橋區僑中一街124巷18弄20號","121.446955","25.01362","6500100","板橋區"
"220061","293-UM","2018/12/27 20:09:30","新北市板橋區四川路一段212號","121.459406666667","25.0020433333333","6500100","板橋區"
"242042","281-VK","2018/12/27 20:09:44","新北市新莊區青山路一段179-1號","121.400176666667","25.0302883333333","6500500","新莊區"
"220092","307-R5","2018/12/27 20:08:24","新北市板橋區民權路182號","121.459213333333","25.0135016666667","6500100","板橋區"
"220098","317-R6","2018/12/27 20:09:35","新北市板橋區長江路二段311巷18-1號","121.470325","25.0359416666667","6500100","板橋區"
"242019","280-VK","2018/12/27 20:09:28","新北市新莊區民樂街61號","121.457821666667","25.0417516666667","6500500","新莊區"
"220103","561-BX","2018/12/27 20:09:40","新北市板橋區漢生東路63巷28號","121.466938333333","25.0171883333333","6500100","板橋區"
"220055","630-UY","2018/12/27 20:09:31","新北市板橋區仁愛路76巷3弄1號","121.460668333333","24.9991133333333","6500100","板橋區"
"220057","686-BX","2018/12/27 20:09:39","新北市板橋區四川路二段245巷10號","121.450796666667","24.9932216666667","6500100","板橋區"
"220074","895-R6","2018/12/27 20:09:42","新北市板橋區縣民大道一段285號","121.460661666667","25.0100766666667","6500100","板橋區"
"220073","985-R7","2018/12/27 20:09:43","新北市板橋區館前西路162號","121.452823333333","25.0085433333333","6500100","板橋區"
"220062","AAC-253","2018/12/27 20:09:28","新北市板橋區長安街331巷28號","121.473886666667","25.0126283333333","6500100","板橋區"
"235068","KEA-2873","2018/12/27 20:09:44","新北市中和區福祥路72號","121.499286666667","25.0054533333333","6500300","中和區"
