"lineid","car","time","location","longitude","latitude","cityid","cityname"
"234081","298-R6","2018/12/27 20:19:37","新北市永和區福和路7巷10弄7號","121.524798333333","25.00755","6500400","永和區"
"234038","336-UY","2018/12/27 20:19:44","新北市永和區成功路一段82號","121.526795","25.003065","6500400","永和區"
"234064","337-UY","2018/12/27 20:19:33","新北市永和區得和路168號","121.519503333333","25.0001266666667","6500400","永和區"
"234086","338-UY","2018/12/27 20:19:44","新北市永和區永和路二段277號","121.515985","25.015655","6500400","永和區"
"234070","552-UM","2018/12/27 20:19:31","新北市永和區永安街7巷2號","121.518833333333","25.0062166666667","6500400","永和區"
"234017","745-BX","2018/12/27 20:19:41","新北市永和區仁愛路54號","121.513843333333","25.0133733333333","6500400","永和區"
"234030","746-BX","2018/12/27 20:19:33","新北市中和區立人街14巷77號","121.518165","24.9956016666667","6500400","永和區"
"234054","KEA-2590","2018/12/27 20:19:31","新北市永和區光復街2巷16弄1號","121.517048333333","25.0164083333333","6500400","永和區"
"234007","839-RS","2018/12/27 20:19:38","新北市永和區環河西路二段219號","121.501326666667","25.0101866666667","6500400","永和區"
"234013","KEA-2591","2018/12/27 20:19:29","新北市永和區保生路5巷1號","121.506145","25.00701","6500400","永和區"
"234061","AAD-866","2018/12/27 20:19:47","新北市永和區安樂路146-1號","121.514216666667","25.0003833333333","6500400","永和區"
"234042","862-TW","2018/12/27 20:19:32","新北市中和區中安街166號","121.510846666667","25.0001","6500400","永和區"
"234050","863-TW","2018/12/27 20:19:40","新北市永和區保安路6號","121.510578333333","25.017505","6500400","永和區"
"249005","172-UM","2018/12/27 20:19:34","新北市八里區下罟子2-13號","121.388368333333","25.1412666666667","6502300","八里區"
"249001","173-UM","2018/12/27 20:19:42","新北市八里區中華路二段538-1號","121.399051666667","25.1450566666667","6502300","八里區"
"249004","303-UY","2018/12/27 20:19:40","新北市八里區中山路一段129巷19-1號","121.413913333333","25.158645","6502300","八里區"
"249002","305-UY","2018/12/27 20:19:42","新北市八里區龍米路一段263-2號","121.449808333333","25.1369783333333","6502300","八里區"
"249003","593-UM","2018/12/27 20:19:45","新北市八里區中山路二段447巷19號","121.397235","25.1453866666667","6502300","八里區"
"248012","247-BX","2018/12/27 20:19:34","新北市五股區民義路一段206號","121.430536666667","25.0891633333333","6501500","五股區"
"248004","677-BX","2018/12/27 20:19:39","新北市五股區中興路四段23號","121.43886","25.0826616666667","6501500","五股區"
"248002","678-BX","2018/12/27 20:02:01","新北市五股區成泰路三段350號","121.450551666667","25.098515","6501500","五股區"
"248010","682-TV","2018/12/27 20:19:44","新北市泰山區楓江路119號","121.438861666667","25.0646833333333","6501500","五股區"
"234023","9380-KE","2018/12/27 20:19:42","新北市永和區勵行街4號","121.516006666667","25.0144066666667","6500400","永和區"
"234077","969-R7","2018/12/27 20:19:38","新北市永和區中正路102號","121.514398333333","24.99582","6500400","永和區"
"234074","AAC-211","2018/12/27 20:19:30","新北市永和區豫溪街160巷2號","121.523145","25.00951","6500400","永和區"
"234067","AAC-212","2018/12/27 20:19:41","新北市永和區保平路236巷7弄16號","121.508113333333","25.005775","6500400","永和區"
"234003","AAC-295","2018/12/27 20:19:44","新北市永和區自強街2號","121.514081666667","25.0080616666667","6500400","永和區"
"243013","AAD-798","2018/12/27 20:19:28","新北市泰山區新民路14巷1號","121.426633333333","25.04458","6501600","泰山區"
"243009","297-R6","2018/12/27 20:19:34","新北市泰山區福泰街35號","121.433246666667","25.060015","6501600","泰山區"
"243016","KEA-2801","2018/12/27 20:19:35","新北市泰山區明志路三段1號","121.424856666667","25.04345","6501600","泰山區"
"243015","421-VK","2018/12/27 20:19:44","新北市泰山區仁德路86號","121.43316","25.0563966666667","6501600","泰山區"
"243011","KEA-2215","2018/12/27 20:19:46","新北市泰山區壽山路134巷18號","121.4184","25.031","6501600","泰山區"
"243010","KEA-2216","2018/12/27 20:19:36","新北市泰山區明志路二段255巷14號","121.42791","25.0473216666667","6501600","泰山區"
"243012","646-TV","2018/12/27 20:19:32","新北市泰山區楓江路48號","121.435353333333","25.06255","6501600","泰山區"
"243014","680-BX","2018/12/27 20:19:35","新北市泰山區泰林路二段461號","121.425551666667","25.0640283333333","6501600","泰山區"
"222003","436-BY","2018/12/27 20:19:39","新北市深坑區文化街43號","121.6176","25.0018683333333","6501800","深坑區"
"222002","659-BX","2018/12/27 20:19:31","新北市深坑區萬福路18號","121.602311666667","25.008395","6501800","深坑區"
"231041","002-UM","2018/12/27 20:19:31","新北市新店區民權路72號","121.538115","24.982975","6500600","新店區"
"231059","046-UY","2018/12/27 20:19:42","新北市新店區安德街64號","121.510625","24.9618883333333","6500600","新店區"
"231040","047-UY","2018/12/27 20:19:44","新北市新店區北新路一段142號","121.542765","24.9706966666667","6500600","新店區"
"231044","106-UY","2018/12/27 20:19:39","新北市新店區北新路三段99號","121.54149","24.9819433333333","6500600","新店區"
"231052","108-UY","2018/12/27 20:19:40","新北市新店區松林路2號","121.546738333333","24.9110483333333","6500600","新店區"
"231047","187-VK","2018/12/27 20:19:42","新北市新店區寶橋路98號","121.546883333333","24.975865","6500600","新店區"
"231054","188-VK","2018/12/27 20:19:34","新北市新店區檳榔路174號","121.544123333333","24.9620116666667","6500600","新店區"
"221035","KEA-2785","2018/12/27 20:19:39","新北市汐止區長江街101-5號","121.658686666667","25.0731966666667","6501100","汐止區"
"231057","256-BX","2018/12/27 20:19:37","新北市新店區花園十二路1號","121.554768333333","24.9347666666667","6500600","新店區"
"231042","268-BY","2018/12/27 20:19:35","新北市新店區中興路二段173號","121.548123333333","24.9732066666667","6500600","新店區"
"231051","278-BY","2018/12/27 20:19:30","新北市新店區中央六街72號","121.527185","24.97622","6500600","新店區"
"231050","AAD-862","2018/12/27 20:19:36","新北市新店區博愛街6巷1號","121.54107","24.97326","6500600","新店區"
"231066","4716-K9","2018/12/27 20:19:36","新北市新店區柴埕路52巷1-2號","121.512045","24.965145","6500600","新店區"
"231056","4715-K9","2018/12/27 20:19:33","新北市新店區中正路316號","121.53717","24.9747033333333","6500600","新店區"
"231067","4772-VM","2018/12/27 20:19:33","新北市新店區安康路一段132號","121.526716666667","24.96279","6500600","新店區"
"231065","512-UM","2018/12/27 20:19:49","新北市新店區安祥路104巷6弄36號","121.483153333333","24.96293","6500600","新店區"
"231049","513-UM","2018/12/27 20:19:13","新北市新店區北新路二段97巷10弄2號","121.542256666667","24.9744816666667","6500600","新店區"
"231045","617-UM","2018/12/27 20:19:42","新北市新店區新坡一街102號","121.547795","24.9639916666667","6500600","新店區"
"231061","619-UM","2018/12/27 20:19:36","新北市新店區安興路33-1號","121.515843333333","24.9704366666667","6500600","新店區"
"231063","641-BX","2018/12/27 20:19:38","新北市新店區車子路1-1號","121.504743333333","24.9577716666667","6500600","新店區"
"231068","718-UY","2018/12/27 20:19:33","新北市新店區寶安街36號","121.542013333333","24.9824733333333","6500600","新店區"
"231064","719-UM","2018/12/27 20:19:21","新北市新店區安利街32號","121.51904","24.9748483333333","6500600","新店區"
"231062","720-UM","2018/12/27 20:19:26","新北市新店區安泰路7巷16號","121.485661666667","24.95098","6500600","新店區"
"231060","897-TW","2018/12/27 20:19:42","新北市新店區錦秀路11巷94弄2號","121.480213333333","24.942455","6500600","新店區"
"231043","899-TW","2018/12/27 20:19:36","新北市新店區建國路133號","121.539383333333","24.9781916666667","6500600","新店區"
"231055","AKT-0513","2018/12/27 20:19:30","新北市新店區安康路一段88號","121.528036666667","24.9619433333333","6500600","新店區"
"241011","013-R5","2018/12/27 20:19:37","新北市三重區龍濱路277號","121.50132","25.0732366666667","6500200","三重區"
"241028","022-UY","2018/12/27 20:19:38","新北市三重區大同南路128號","121.496335","25.058295","6500200","三重區"
"241008","059-VK","2018/12/27 20:19:48","新北市三重區永福街172號","121.480911666667","25.0743916666667","6500200","三重區"
"241022","060-VK","2018/12/27 20:19:33","新北市三重區新北大道一段32號","121.48825","25.06145","6500200","三重區"
"241031","061-VK","2018/12/27 20:19:39","新北市三重區三寧街15號","121.489488333333","25.0597383333333","6500200","三重區"
"241015","062-VK","2018/12/27 20:19:29","新北市三重區重新路一段128號","121.500218333333","25.0630416666667","6500200","三重區"
"241017","063-VK","2018/12/27 20:19:29","新北市三重區自強路一段151號","121.493833333333","25.066925","6500200","三重區"
"241024","065-VK","2018/12/27 20:19:36","新北市三重區中正北路252號","121.481476666667","25.068135","6500200","三重區"
"241002","090-VK","2018/12/27 20:19:30","新北市三重區仁義街101巷40號","121.499086666667","25.080775","6500200","三重區"
"241003","091-VK","2018/12/27 20:19:28","新北市三重區富華街55-4號","121.49115","25.0834566666667","6500200","三重區"
"251014","742-BX","2018/12/27 20:19:43","新北市淡水區石頭厝1號","121.458735","25.235515","6501000","淡水區"
"241005","262-UM","2018/12/27 20:19:35","新北市三重區仁愛街475號","121.489253333333","25.0822616666667","6500200","三重區"
"241016","266-UM","2018/12/27 20:19:48","新北市三重區大同北路91號","121.494601666667","25.06356","6500200","三重區"
"241009","267-UM","2018/12/27 20:19:46","新北市三重區三和路四段382巷109號","121.480051666667","25.07821","6500200","三重區"
"241018","268-UM","2018/12/27 20:19:42","新北市三重區自強路一段236號","121.493246666667","25.0670766666667","6500200","三重區"
"241032","269-UM","2018/12/27 20:19:37","新北市三重區捷運路19巷6弄21號","121.484226666667","25.0569516666667","6500200","三重區"
"241013","270-UM","2018/12/27 20:19:48","新北市三重區三和路三段167巷25號","121.49285","25.0743033333333","6500200","三重區"
"241025","271-UM","2018/12/27 20:19:45","新北市三重區自由街18巷19號","121.479018333333","25.0664816666667","6500200","三重區"
"241007","398-BY","2018/12/27 20:19:28","新北市三重區三和路四段117巷43號","121.486775","25.0780083333333","6500200","三重區"
"241035","462-BY","2018/12/27 20:19:42","新北市三重區正義北路33巷48號","121.499015","25.0638966666667","6500200","三重區"
"241004","475-VK","2018/12/27 20:19:48","新北市三重區仁愛街376號","121.491238333333","25.0806883333333","6500200","三重區"
"241020","478-VK","2018/12/27 20:19:34","新北市三重區三和路三段170巷18號","121.492118333333","25.0728583333333","6500200","三重區"
"241030","480-VK","2018/12/27 20:19:32","新北市三重區集美街89巷23號","121.488335","25.0526616666667","6500200","三重區"
"241014","543-UM","2018/12/27 20:19:29","新北市三重區長樂街133-13號","121.503158333333","25.06982","6500200","三重區"
"241001","547-UM","2018/12/27 20:19:42","新北市三重區自強路四段3巷38號","121.490035","25.076625","6500200","三重區"
"241019","KEA-2593","2018/12/27 20:19:34","新北市三重區忠孝路一段68號","121.49008","25.0718816666667","6500200","三重區"
"241006","AAD-863","2018/12/27 20:19:27","新北市三重區車路頭街139巷12號","121.484255","25.076215","6500200","三重區"
"241026","743-BX","2018/12/27 20:19:38","新北市三重區福德南路23號","121.502713333333","25.062865","6500200","三重區"
"241023","887-TS","2018/12/27 20:19:41","新北市三重區忠孝路三段99巷11號","121.480116666667","25.064535","6500200","三重區"
"241012","941-UM","2018/12/27 20:19:45","新北市三重區河邊北街375號","121.501735","25.0763933333333","6500200","三重區"
"241029","942-UM","2018/12/27 20:19:33","新北市三重區集美街225號","121.492091666667","25.0551183333333","6500200","三重區"
"235066","003-UY","2018/12/27 20:19:35","新北市中和區保平路342號","121.506651666667","25.00417","6500300","中和區"
"235039","097-UM","2018/12/27 20:19:41","新北市中和區大勇街29巷12-1號","121.515891666667","24.9945233333333","6500300","中和區"
"247012","KEA-2869","2018/12/27 20:19:37","新北市蘆洲區中興街15巷12號","121.480423333333","25.0874133333333","6501400","蘆洲區"
"247006","KED-0682","2018/12/27 20:19:32","新北市蘆洲區九芎街136號","121.465028333333","25.079085","6501400","蘆洲區"
"235050","4979-A6","2018/12/27 20:19:40","新北市中和區景安路177巷8號","121.50576","24.9939966666667","6500300","中和區"
"235069","4980-A6","2018/12/27 20:19:44","新北市中和區圓通路135號","121.499151666667","24.9960033333333","6500300","中和區"
"235054","640-BX","2018/12/27 20:18:54","新北市五股區中直路21號","121.421733333333","25.1117","6500300","中和區"
"235065","911-UM","2018/12/27 20:19:38","新北市中和區永和路59號","121.496996666667","25.0054766666667","6500300","中和區"
"235059","AAC-215","2018/12/27 20:19:32","新北市中和區圓通路399號","121.489445","24.989135","6500300","中和區"
"220065","072-UY","2018/12/27 20:18:06","新北市五股區成泰路一段98巷102號","121.450055","25.07836","6500100","板橋區"
"220086","073-UY","2018/12/27 20:19:27","新北市林口區太平里180號","121.366833333333","25.134975","6500100","板橋區"
"247002","893-R6","2018/12/27 20:19:32","新北市蘆洲區長安街313巷6弄11號","121.456721666667","25.0865766666667","6501400","蘆洲區"
"247016","546-UM","2018/12/27 20:19:29","新北市蘆洲區光華路132巷39號","121.465806666667","25.083855","6501400","蘆洲區"
"247024","500-BY","2018/12/27 20:19:43","新北市蘆洲區光榮路120巷8弄39號","121.464528333333","25.088005","6501400","蘆洲區"
"247010","336-TH","2018/12/27 20:19:33","新北市蘆洲區信義路222巷32弄16號","121.480463333333","25.0847333333333","6501400","蘆洲區"
"247020","057-VK","2018/12/27 20:19:38","新北市蘆洲區仁愛街59號","121.47186","25.0933383333333","6501400","蘆洲區"
"247014","053-VK","2018/12/27 20:19:39","新北市蘆洲區中山二路137巷19號","121.47228","25.0810383333333","6501400","蘆洲區"
"247004","002-UY","2018/12/27 20:19:38","新北市蘆洲區永康街1巷13號","121.459606666667","25.0856833333333","6501400","蘆洲區"
"247022","001-UY","2018/12/27 20:19:45","新北市蘆洲區三民路249號","121.46867","25.0892133333333","6501400","蘆洲區"
"224010","AGQ-8101","2018/12/27 20:19:33","新北市瑞芳區山尖路174號","121.847741666667","25.111885","6501200","瑞芳區"
"222001","KEA-2212","2018/12/27 20:19:41","新北市深坑區北深路三段253號","121.599196666667","25.004365","6501800","深坑區"
"208002","KEA-2872","2018/12/27 20:19:43","新北市金山區環金路159號","121.634","25.2178216666667","6502700","金山區"
"251001","011-UM","2018/12/27 20:19:40","新北市淡水區淡金路二段15號","121.446288333333","25.1892466666667","6501000","淡水區"
"251002","012-UM","2018/12/27 20:19:31","新北市淡水區中正路224號","121.439375","25.1704133333333","6501000","淡水區"
"251013","KEA-2871","2018/12/27 20:19:37","新北市淡水區奎柔山路752巷31號","121.474578333333","25.2056916666667","6501000","淡水區"
"251016","179-VK","2018/12/27 20:19:40","新北市淡水區淡金路五段20號","121.453145","25.232435","6501000","淡水區"
"251008","181-VK","2018/12/27 20:19:42","新北市淡水區淡海路180巷18弄1號","121.421298333333","25.1846016666667","6501000","淡水區"
"251015","182-VK","2018/12/27 20:19:33","新北市淡水區淡金路四段542巷17號","121.452735","25.2270716666667","6501000","淡水區"
"251010","413-VK","2018/12/27 20:19:40","新北市淡水區新民街一段132號","121.42782","25.1888116666667","6501000","淡水區"
"251012","441-VK","2018/12/27 20:19:38","新北市淡水區淡金路三段426號","121.450463333333","25.2119883333333","6501000","淡水區"
"251006","561-UM","2018/12/27 20:19:35","新北市淡水區北新路169巷2號","121.450351666667","25.1795133333333","6501000","淡水區"
"251003","673-BX","2018/12/27 20:19:29","新北市淡水區中山北路一段196號","121.444541666667","25.1794283333333","6501000","淡水區"
"207004","225-TW","2018/12/27 20:19:36","新北市萬里區北基里仁二街1號","121.68252","25.175535","6502800","萬里區"
"252002","178-VK","2018/12/27 20:19:30","新北市三芝區中正路一段24號","121.503065","25.2586316666667","6502100","三芝區"
"252001","292-VK","2018/12/27 20:19:36","新北市三芝區中山路一段14號","121.500695","25.2580366666667","6502100","三芝區"
"237006","5529-G3","2018/12/27 20:19:37","新北市三峽區中正路二段122號","121.36638","24.91714","6500900","三峽區"
"236070","105-UM","2018/12/27 20:19:29","新北市土城區三民路25號","121.420203333333","24.9636016666667","6501300","土城區"
"236042","KED-0685","2018/12/27 20:19:41","新北市土城區裕民路94號","121.450385","24.98705","6501300","土城區"
"236030","253-BX","2018/12/27 20:19:43","新北市土城區學成路128巷11號","121.449491666667","24.990005","6501300","土城區"
"236026","269-VK","2018/12/27 20:19:39","新北市土城區中央路一段249巷8號","121.445761666667","24.9855083333333","6501300","土城區"
"236014","270-VK","2018/12/27 20:19:33","新北市土城區廣明街90巷21號","121.455366666667","24.9945333333333","6501300","土城區"
"247008","KED-0683","2018/12/27 20:19:39","新北市蘆洲區集賢路300號","121.481645","25.0851883333333","6501400","蘆洲區"
"236059","912-UM","2018/12/27 20:19:34","新北市土城區大安路30號","121.432796666667","24.966645","6501300","土城區"
"242036","AAC-296","2018/12/27 20:15:29","新北市新莊區民安路207巷30-7號","121.428091666667","25.0241683333333","6500500","新莊區"
"242058","986-R7","2018/12/27 20:19:45","新北市新莊區龍安路266巷4號","121.421616666667","25.0191233333333","6500500","新莊區"
"242056","751-BX","2018/12/27 20:19:36","新北市新莊區豐年街28巷27號","121.445231666667","25.032315","6500500","新莊區"
"242027","615-BX","2018/12/27 20:19:42","新北市新莊區幸福路813號","121.445691666667","25.049025","6500500","新莊區"
"242025","613-BX","2018/12/27 20:18:41","新北市五股區五工路149號","121.44881","25.0706266666667","6500500","新莊區"
"242029","612-BX","2018/12/27 20:19:34","新北市新莊區中原路191號","121.452018333333","25.0542533333333","6500500","新莊區"
"242044","566-BX","2018/12/27 20:19:35","新北市新莊區中正路893巷1-14號","121.412958333333","25.02137","6500500","新莊區"
"242048","497-BY","2018/12/27 20:19:34","新北市新莊區四維路212巷4弄8號","121.421211666667","25.0205816666667","6500500","新莊區"
"242021","442-UM","2018/12/27 20:19:45","新北市新莊區新泰路157號","121.447815","25.0369266666667","6500500","新莊區"
"242053","441-UM","2018/12/27 20:19:49","新北市新莊區西盛街388巷11號","121.427153333333","25.01294","6500500","新莊區"
"242002","440-UM","2018/12/27 20:19:38","新北市三重區重新路五段629號","121.467733333333","25.0440916666667","6500500","新莊區"
"242039","415-TV","2018/12/27 20:19:43","新北市新莊區龍安路435號","121.42409","25.01883","6500500","新莊區"
"242009","413-TV","2018/12/27 20:19:35","新北市新莊區昌隆街58巷1弄2號","121.454936666667","25.0505666666667","6500500","新莊區"
"242046","400-BY","2018/12/27 20:19:42","新北市新莊區中正路新生巷46號","121.41719","25.023335","6500500","新莊區"
"242023","362-BY","2018/12/27 20:19:30","新北市新莊區化成路383號","121.465328333333","25.058265","6500500","新莊區"
"242061","353-BY","2018/12/27 20:19:40","新北市新莊區新樹路172-13號","121.434611666667","25.0217333333333","6500500","新莊區"
"242034","135-UY","2018/12/27 20:19:37","新北市新莊區建中街90巷12號","121.44688","25.0375933333333","6500500","新莊區"
"242051","172-VK","2018/12/27 20:19:34","新北市新莊區民安西路205號","121.42612","25.01485","6500500","新莊區"
"242013","173-VK","2018/12/27 20:19:41","新北市新莊區幸福路710巷1弄12號","121.449131666667","25.0496366666667","6500500","新莊區"
"242007","176-VK","2018/12/27 20:19:39","新北市新莊區福壽街94巷17號","121.45923","25.0501266666667","6500500","新莊區"
"242017","346-TH","2018/12/27 20:19:47","新北市新莊區中港一街50號","121.450455","25.045485","6500500","新莊區"
"242011","347-TH","2018/12/27 20:19:30","新北市新莊區中信街39號","121.450301666667","25.0507333333333","6500500","新莊區"
"242031","348-TH","2018/12/27 20:19:38","新北市新莊區中正路400號","121.441725","25.033935","6500500","新莊區"
"242004","349-TH","2018/12/27 20:19:28","新北市新莊區頭前路15巷12號","121.468056666667","25.0519166666667","6500500","新莊區"
"242015","351-TH","2018/12/27 20:19:36","新北市新莊區中和街31巷22號","121.44714","25.0438666666667","6500500","新莊區"
"221008","489-VK","2018/12/27 20:19:46","台北市內湖區康樂街14號","121.617831666667","25.0679916666667","6501100","汐止區"
"221036","130-UY","2018/12/27 20:19:35","新北市汐止區福安街37巷3號","121.663051666667","25.0649816666667","6501100","汐止區"
"221015","131-UY","2018/12/27 20:19:33","新北市汐止區建成路142巷19弄11號","121.66196","25.0737866666667","6501100","汐止區"
"221010","269-BY","2018/12/27 20:19:43","新北市汐止區八連路二段616號","121.625016666667","25.11","6501100","汐止區"
"221012","278-VK","2018/12/27 20:19:33","新北市汐止區保新街158號","121.689018333333","25.068","6501100","汐止區"
"221023","279-VK","2018/12/27 20:19:39","新北市汐止區明峰街198號","121.627788333333","25.069475","6501100","汐止區"
"221032","280-BY","2018/12/27 20:19:35","新北市汐止區弘道街39號","121.617856666667","25.0486633333333","6501100","汐止區"
"221027","281-BY","2018/12/27 20:19:39","新北市汐止區大同路二段359號","121.657168333333","25.0672683333333","6501100","汐止區"
"221029","298-VK","2018/12/27 20:19:34","新北市汐止區樟樹一路99巷7弄2號","121.641096666667","25.0636233333333","6501100","汐止區"
"221021","299-VK","2018/12/27 20:19:40","新北市汐止區水源路一段272號","121.65414","25.0586283333333","6501100","汐止區"
"221031","353-TW","2018/12/27 20:19:44","新北市汐止區中興路108號","121.633471666667","25.0637833333333","6501100","汐止區"
"221025","623-UM","2018/12/27 20:19:42","新北市汐止區水源路二段34號","121.65496","25.0572333333333","6501100","汐止區"
"221038","646-BX","2018/12/27 20:19:32","新北市汐止區忠孝東路442號","121.666183333333","25.0725","6501100","汐止區"
"221033","647-BX","2018/12/27 20:19:36","新北市汐止區東勢街102號","121.63373","25.0416266666667","6501100","汐止區"
"221002","707-TV","2018/12/27 20:19:34","新北市汐止區福德三路26號","121.636906666667","25.0694383333333","6501100","汐止區"
"221018","753-BX","2018/12/27 20:19:37","新北市汐止區茄安路168號","121.675733333333","25.06913","6501100","汐止區"
"220083","286-VK","2018/12/27 20:19:43","新北市板橋區大觀路一段38巷156弄147號","121.443878333333","25.0091083333333","6500100","板橋區"
"220081","287-VK","2018/12/27 20:19:26","新北市板橋區僑中一街80巷5弄7號","121.447453333333","25.0125","6500100","板橋區"
"220061","293-UM","2018/12/27 20:19:30","新北市板橋區文華街26號","121.457326666667","25.0007333333333","6500100","板橋區"
"242042","281-VK","2018/12/27 20:19:44","新北市新莊區壽山路67號","121.409745","25.032675","6500500","新莊區"
"220092","307-R5","2018/12/27 20:08:24","新北市板橋區民權路182號","121.459213333333","25.0135016666667","6500100","板橋區"
"220098","317-R6","2018/12/27 20:19:35","新北市五股區凌雲路三段17-2號","121.430366666667","25.10836","6500100","板橋區"
"242019","280-VK","2018/12/27 20:19:28","新北市新莊區博愛路6巷2號","121.456328333333","25.0433583333333","6500500","新莊區"
"220055","630-UY","2018/12/27 20:19:31","新北市板橋區重慶路290巷9號","121.461231666667","24.9986183333333","6500100","板橋區"
"220074","895-R6","2018/12/27 20:19:42","新北市板橋區館前西路121號","121.456791666667","25.0074866666667","6500100","板橋區"
"220062","AAC-253","2018/12/27 20:19:28","新北市板橋區文化路二段652號","121.47809","25.0378166666667","6500100","板橋區"
"235068","KEA-2873","2018/12/27 20:19:47","新北市中和區勝利路35巷1弄26號","121.499963333333","25.0076666666667","6500300","中和區"
