"lineid","car","time","location","longitude","latitude","cityid","cityname"
"234081","298-R6","2018/12/27 20:28:57","新北市永和區永貞路25號","121.521051666667","25.00692","6500400","永和區"
"234064","337-UY","2018/12/27 20:29:13","新北市永和區中正路397號","121.517215","25.00412","6500400","永和區"
"234070","552-UM","2018/12/27 20:29:11","新北市永和區永寧街50號","121.519795","25.006945","6500400","永和區"
"234030","746-BX","2018/12/27 20:29:11","新北市永和區民族街81巷58號","121.520078333333","24.9963916666667","6500400","永和區"
"234054","KEA-2590","2018/12/27 20:29:16","新北市永和區光復街60巷25號","121.517963333333","25.0174716666667","6500400","永和區"
"234013","KEA-2591","2018/12/27 20:29:08","新北市永和區仁愛路301號","121.50381","25.0081133333333","6500400","永和區"
"234061","AAD-866","2018/12/27 20:29:16","新北市永和區得和路13巷5號","121.515478333333","25.0011133333333","6500400","永和區"
"234042","862-TW","2018/12/27 20:29:12","新北市永和區安樂路250號","121.514636666667","25.003645","6500400","永和區"
"234050","863-TW","2018/12/27 20:29:00","新北市永和區新生路99號","121.508003333333","25.0154616666667","6500400","永和區"
"249005","172-UM","2018/12/27 20:29:15","新北市八里區中山路三段309號","121.379795","25.13818","6502300","八里區"
"249001","173-UM","2018/12/27 20:29:02","新北市八里區中山路三段131號","121.388533333333","25.142455","6502300","八里區"
"249004","303-UY","2018/12/27 20:29:00","新北市八里區中山路一段278號","121.413918333333","25.159695","6502300","八里區"
"249002","305-UY","2018/12/27 20:29:02","新北市八里區龍米路二段125巷13號","121.445896666667","25.1454916666667","6502300","八里區"
"249003","593-UM","2018/12/27 20:29:05","新北市八里區華峰一街30號","121.398856666667","25.1465483333333","6502300","八里區"
"248002","678-BX","2018/12/27 20:28:53","新北市五股區成泰路三段77巷6號","121.443351666667","25.0902283333333","6501500","五股區"
"234023","9380-KE","2018/12/27 20:29:02","新北市永和區博愛街32巷17-1號","121.518863333333","25.0152733333333","6500400","永和區"
"234074","AAC-211","2018/12/27 20:29:17","新北市永和區豫溪街191巷7弄18號","121.523333333333","25.0109583333333","6500400","永和區"
"234067","AAC-212","2018/12/27 20:29:01","新北市永和區保平路292巷42號","121.507515","25.0053166666667","6500400","永和區"
"234003","AAC-295","2018/12/27 20:28:59","新北市永和區中正路618-1號","121.517061666667","25.0077483333333","6500400","永和區"
"243013","AAD-798","2018/12/27 20:29:08","新北市泰山區貴子路9巷6號","121.425531666667","25.042175","6501600","泰山區"
"243009","297-R6","2018/12/27 20:29:14","新北市泰山區忠孝街16巷8號","121.428265","25.0650383333333","6501600","泰山區"
"243016","KEA-2801","2018/12/27 20:29:14","新北市泰山區明志路二段274-1號","121.426681666667","25.046815","6501600","泰山區"
"243015","421-VK","2018/12/27 20:29:04","新北市泰山區泰林路二段183號","121.43347","25.06106","6501600","泰山區"
"243011","KEA-2215","2018/12/27 20:29:06","新北市泰山區台麗街2號","121.424241666667","25.0383383333333","6501600","泰山區"
"243010","KEA-2216","2018/12/27 20:28:56","新北市泰山區民生路17巷49號","121.42939","25.051305","6501600","泰山區"
"243012","646-TV","2018/12/27 20:29:12","新北市泰山區忠孝街19巷3號","121.42741","25.0657416666667","6501600","泰山區"
"243014","680-BX","2018/12/27 20:29:15","新北市泰山區橫窠雅10-17號","121.414736666667","25.0672783333333","6501600","泰山區"
"222003","436-BY","2018/12/27 20:29:00","新北市深坑區深坑街49號","121.615406666667","25.001695","6501800","深坑區"
"222002","659-BX","2018/12/27 20:29:10","新北市深坑區萬福路16巷35號","121.608461666667","25.00876","6501800","深坑區"
"231041","002-UM","2018/12/27 20:29:11","新北市新店區中正路501-2號","121.533681666667","24.9837566666667","6500600","新店區"
"231059","046-UY","2018/12/27 20:29:02","新北市新店區安德街153號","121.508281666667","24.959745","6500600","新店區"
"231040","047-UY","2018/12/27 20:29:04","新北市新店區三民路115號","121.534988333333","24.9722083333333","6500600","新店區"
"231044","106-UY","2018/12/27 20:29:08","新北市新店區建國路140號","121.538866666667","24.9789616666667","6500600","新店區"
"231052","108-UY","2018/12/27 20:29:00","新北市新店區松林路38號","121.546293333333","24.9102366666667","6500600","新店區"
"231047","187-VK","2018/12/27 20:29:02","新北市新店區寶慶街58巷21-1號","121.542028333333","24.9873333333333","6500600","新店區"
"231054","188-VK","2018/12/27 20:29:14","新北市新店區檳榔路55號","121.54323","24.96277","6500600","新店區"
"221035","KEA-2785","2018/12/27 20:28:59","新北市汐止區長江街101-5號","121.658655","25.0732083333333","6501100","汐止區"
"231057","256-BX","2018/12/27 20:29:17","新北市新店區花園五路二段3號","121.553653333333","24.9341183333333","6500600","新店區"
"231042","268-BY","2018/12/27 20:29:15","新北市新店區寶橋路205巷2號","121.548405","24.97725","6500600","新店區"
"231051","278-BY","2018/12/27 20:29:10","新北市新店區中央七街60號","121.527928333333","24.9762583333333","6500600","新店區"
"231050","AAD-862","2018/12/27 20:29:16","新北市新店區建興街9巷1號","121.539878333333","24.976315","6500600","新店區"
"231058","3713-VJ","2018/12/27 20:29:05","新北市新店區中正路356號","121.535648333333","24.9757083333333","6500600","新店區"
"231066","4716-K9","2018/12/27 20:29:16","新北市新店區安興路56號","121.516548333333","24.974925","6500600","新店區"
"231056","4715-K9","2018/12/27 20:29:12","新北市新店區中央路9號","121.533365","24.9785833333333","6500600","新店區"
"231067","4772-VM","2018/12/27 20:29:13","新北市新店區安華路28-1號","121.51975","24.9608083333333","6500600","新店區"
"231065","512-UM","2018/12/27 20:29:09","新北市新店區安祥路102巷42弄79號","121.486521666667","24.9631583333333","6500600","新店區"
"231049","513-UM","2018/12/27 20:29:13","新北市新店區北新路一段169號","121.53999","24.9639583333333","6500600","新店區"
"231045","617-UM","2018/12/27 20:29:02","新北市新店區新坡一街85號","121.548945","24.9645083333333","6500600","新店區"
"231061","619-UM","2018/12/27 20:29:16","新北市新店區安興路141號","121.516505","24.9792733333333","6500600","新店區"
"231063","641-BX","2018/12/27 20:28:58","新北市新店區安康路三段51號","121.492558333333","24.95242","6500600","新店區"
"231068","718-UY","2018/12/27 20:29:12","新北市新店區中興路三段226號","121.543438333333","24.9829866666667","6500600","新店區"
"231064","719-UM","2018/12/27 20:29:01","新北市新店區新和街59巷2號","121.520036666667","24.9856216666667","6500600","新店區"
"231062","720-UM","2018/12/27 20:29:06","新北市新店區安泰路7巷16號","121.485641666667","24.9508816666667","6500600","新店區"
"231060","897-TW","2018/12/27 20:29:02","新北市新店區錦秀路53號","121.47911","24.9434083333333","6500600","新店區"
"231043","899-TW","2018/12/27 20:29:00","新北市新店區民族路14-1號","121.541446666667","24.9789016666667","6500600","新店區"
"241011","013-R5","2018/12/27 20:28:57","新北市三重區龍門路80號","121.497106666667","25.0726366666667","6500200","三重區"
"241028","022-UY","2018/12/27 20:29:18","新北市三重區光興街85號","121.49759","25.0600166666667","6500200","三重區"
"241008","059-VK","2018/12/27 20:29:08","新北市三重區下竹圍街42-1號","121.481","25.0748483333333","6500200","三重區"
"241022","060-VK","2018/12/27 20:29:13","新北市三重區民生街61巷18弄2號","121.48784","25.0630683333333","6500200","三重區"
"241031","061-VK","2018/12/27 20:29:19","新北市三重區三寧街15號","121.489495","25.05973","6500200","三重區"
"241015","062-VK","2018/12/27 20:29:16","新北市三重區長元西街1號","121.498796666667","25.0656183333333","6500200","三重區"
"241017","063-VK","2018/12/27 20:29:09","新北市三重區自強路一段290號","121.491505","25.0682383333333","6500200","三重區"
"241024","065-VK","2018/12/27 20:29:16","新北市三重區忠孝路三段15巷28號","121.480421666667","25.0677966666667","6500200","三重區"
"241002","090-VK","2018/12/27 20:29:12","新北市三重區五華街21巷43號","121.496521666667","25.0816033333333","6500200","三重區"
"241003","091-VK","2018/12/27 20:29:09","新北市三重區富華街192號","121.493076666667","25.0849066666667","6500200","三重區"
"251014","742-BX","2018/12/27 20:29:03","新北市淡水區石頭厝12-1號","121.460576666667","25.2360983333333","6501000","淡水區"
"241005","262-UM","2018/12/27 20:29:15","新北市三重區碧華街317號","121.491011666667","25.084185","6500200","三重區"
"241016","266-UM","2018/12/27 20:29:08","新北市三重區正義北路81號","121.497113333333","25.064925","6500200","三重區"
"241009","267-UM","2018/12/27 20:29:06","新北市三重區永福街22號","121.48269","25.0782183333333","6500200","三重區"
"241018","268-UM","2018/12/27 20:29:09","新北市三重區正義北路220號","121.496316666667","25.0675883333333","6500200","三重區"
"241032","269-UM","2018/12/27 20:29:17","新北市三重區重陽路一段120巷48號","121.48499","25.0601883333333","6500200","三重區"
"241013","270-UM","2018/12/27 20:29:08","新北市三重區溪尾街5巷4號","121.492023333333","25.07444","6500200","三重區"
"241025","271-UM","2018/12/27 20:29:06","新北市三重區頂崁街210巷27號","121.475773333333","25.0681716666667","6500200","三重區"
"241007","398-BY","2018/12/27 20:29:08","新北市三重區自強路四段51號","121.48982","25.0779566666667","6500200","三重區"
"241035","462-BY","2018/12/27 20:29:02","新北市三重區正義北路92號","121.49702","25.0647716666667","6500200","三重區"
"241004","475-VK","2018/12/27 20:29:08","新北市三重區溪尾街206號","121.488116666667","25.0812066666667","6500200","三重區"
"241020","478-VK","2018/12/27 20:29:14","新北市三重區重陽路四段146號","121.492765","25.0718383333333","6500200","三重區"
"241030","480-VK","2018/12/27 20:29:12","新北市三重區成功路60號","121.488708333333","25.0509133333333","6500200","三重區"
"241014","543-UM","2018/12/27 20:29:09","新北市三重區龍濱路64號","121.502423333333","25.0692483333333","6500200","三重區"
"241001","547-UM","2018/12/27 20:29:02","新北市三重區福隆路12號","121.49022","25.0774","6500200","三重區"
"241019","KEA-2593","2018/12/27 20:29:14","新北市三重區重陽路四段77號","121.492575","25.0708633333333","6500200","三重區"
"241006","AAD-863","2018/12/27 20:29:07","新北市三重區車路頭街139巷12號","121.484256666667","25.0761933333333","6500200","三重區"
"241026","743-BX","2018/12/27 20:28:58","新北市三重區福德南路8巷17號","121.503556666667","25.0635316666667","6500200","三重區"
"241023","887-TS","2018/12/27 20:29:01","新北市三重區自由街19號","121.479795","25.0665816666667","6500200","三重區"
"241012","941-UM","2018/12/27 20:29:05","新北市三重區龍濱路172號","121.501368333333","25.0727816666667","6500200","三重區"
"241029","942-UM","2018/12/27 20:29:13","新北市三重區集美街210-3號","121.491203333333","25.0544066666667","6500200","三重區"
"247012","KEA-2869","2018/12/27 20:29:17","新北市蘆洲區民族路193號","121.478573333333","25.0890783333333","6501400","蘆洲區"
"247006","KED-0682","2018/12/27 20:29:13","新北市蘆洲區和平路121巷14弄38號","121.466128333333","25.0801633333333","6501400","蘆洲區"
"235050","4979-A6","2018/12/27 20:29:00","新北市中和區景新街162號","121.505783333333","24.9971516666667","6500300","中和區"
"235069","4980-A6","2018/12/27 20:29:04","新北市中和區中正路454號","121.490785","24.9942383333333","6500300","中和區"
"235065","911-UM","2018/12/27 20:28:38","新北市中和區永和路128巷27號","121.497906666667","25.006745","6500300","中和區"
"235059","AAC-215","2018/12/27 20:29:12","新北市中和區員山路32號","121.481106666667","24.9876616666667","6500300","中和區"
"220086","073-UY","2018/12/27 20:28:06","新北市八里區荖阡坑路34號","121.402256666667","25.1287266666667","6500100","板橋區"
"247002","893-R6","2018/12/27 20:29:13","新北市蘆洲區長安街361巷24號","121.456093333333","25.08765","6501400","蘆洲區"
"247016","546-UM","2018/12/27 20:29:09","新北市蘆洲區光華路96號","121.467461666667","25.082655","6501400","蘆洲區"
"247024","500-BY","2018/12/27 20:29:03","新北市蘆洲區光復路70巷25號","121.464786666667","25.08503","6501400","蘆洲區"
"247010","336-TH","2018/12/27 20:29:13","新北市蘆洲區信義路222巷38號","121.480941666667","25.0854583333333","6501400","蘆洲區"
"247020","057-VK","2018/12/27 20:29:18","新北市蘆洲區仁愛街161巷33-4號","121.468993333333","25.0942116666667","6501400","蘆洲區"
"247014","053-VK","2018/12/27 20:29:15","新北市蘆洲區中山二路130號","121.471791666667","25.0816366666667","6501400","蘆洲區"
"247018","007-UY","2018/12/27 20:29:17","新北市蘆洲區民族路396號","121.474958333333","25.0913183333333","6501400","蘆洲區"
"247004","002-UY","2018/12/27 20:29:03","新北市蘆洲區永康街39號","121.457321666667","25.0852116666667","6501400","蘆洲區"
"247022","001-UY","2018/12/27 20:29:05","新北市蘆洲區中正路245號","121.467988333333","25.0866883333333","6501400","蘆洲區"
"222001","KEA-2212","2018/12/27 20:29:02","新北市深坑區北深路三段329號","121.597281666667","25.005005","6501800","深坑區"
"251001","011-UM","2018/12/27 20:29:14","新北市淡水區淡金路二段81號","121.45147","25.1814333333333","6501000","淡水區"
"251002","012-UM","2018/12/27 20:29:11","新北市淡水區中正路90-3號","121.442405","25.1696016666667","6501000","淡水區"
"251013","KEA-2871","2018/12/27 20:29:17","新北市淡水區後坑子6號","121.463433333333","25.2066416666667","6501000","淡水區"
"251016","179-VK","2018/12/27 20:29:00","新北市淡水區新埔子11-7號","121.447425","25.2285233333333","6501000","淡水區"
"251008","181-VK","2018/12/27 20:29:02","新北市淡水區淡海路189巷25號","121.419566666667","25.18456","6501000","淡水區"
"251015","182-VK","2018/12/27 20:28:53","新北市淡水區淡金路四段542巷17號","121.452766666667","25.2270516666667","6501000","淡水區"
"251010","413-VK","2018/12/27 20:29:20","新北市淡水區沙崙路181巷15號","121.423971666667","25.1843383333333","6501000","淡水區"
"251012","441-VK","2018/12/27 20:28:58","新北市淡水區興仁路108號","121.4517","25.2181733333333","6501000","淡水區"
"251006","561-UM","2018/12/27 20:29:15","新北市淡水區商工路329號","121.464021666667","25.1859483333333","6501000","淡水區"
"251003","673-BX","2018/12/27 20:29:09","新北市淡水區新生街108巷2號","121.440143333333","25.1747333333333","6501000","淡水區"
"252002","178-VK","2018/12/27 20:29:10","新北市三芝區淡金路二段47-2號","121.503695","25.2605016666667","6502100","三芝區"
"252001","292-VK","2018/12/27 20:29:16","新北市三芝區中山路一段35號","121.500648333333","25.2579483333333","6502100","三芝區"
"236042","KED-0685","2018/12/27 20:29:01","新北市土城區城林路6巷75號","121.437615","24.97896","6501300","土城區"
"247008","KED-0683","2018/12/27 20:29:19","新北市蘆洲區永安北路二段76巷12-1號","121.483171666667","25.0850733333333","6501400","蘆洲區"
"242036","AAC-296","2018/12/27 20:15:29","新北市新莊區民安路207巷30-7號","121.428091666667","25.0241683333333","6500500","新莊區"
"242058","986-R7","2018/12/27 20:29:05","新北市新莊區四維路201號","121.421985","25.0206016666667","6500500","新莊區"
"242056","751-BX","2018/12/27 20:29:16","新北市新莊區瓊泰路146號","121.44322","25.0322733333333","6500500","新莊區"
"242027","615-BX","2018/12/27 20:29:02","新北市新莊區幸福路588號","121.453653333333","25.0492933333333","6500500","新莊區"
"242025","613-BX","2018/12/27 20:29:01","新北市新莊區五工三路60號","121.459551666667","25.0644566666667","6500500","新莊區"
"242029","612-BX","2018/12/27 20:29:16","新北市新莊區昌平街1號","121.454848333333","25.051335","6500500","新莊區"
"242044","566-BX","2018/12/27 20:29:15","新北市新莊區中正路新建巷27號","121.414246666667","25.02207","6500500","新莊區"
"242048","497-BY","2018/12/27 20:29:16","新北市新莊區龍安路252-5號","121.42101","25.0190316666667","6500500","新莊區"
"242021","442-UM","2018/12/27 20:29:05","新北市新莊區和興街35號","121.447193333333","25.039745","6500500","新莊區"
"242053","441-UM","2018/12/27 20:29:07","新北市新莊區民安西路229巷7弄3號","121.426455","25.0144366666667","6500500","新莊區"
"242002","440-UM","2018/12/27 20:28:58","新北市新莊區中正路11號","121.464101666667","25.0411233333333","6500500","新莊區"
"242039","415-TV","2018/12/27 20:29:03","新北市新莊區成功街6巷2號","121.425738333333","25.02184","6500500","新莊區"
"242009","413-TV","2018/12/27 20:29:13","新北市新莊區昌隆街94號","121.456143333333","25.0507483333333","6500500","新莊區"
"242046","400-BY","2018/12/27 20:29:16","新北市新莊區裕民街72巷15號","121.417925","25.0242116666667","6500500","新莊區"
"242023","362-BY","2018/12/27 20:29:10","新北市新莊區化成路547號","121.465056666667","25.0646866666667","6500500","新莊區"
"242061","353-BY","2018/12/27 20:29:00","新北市新莊區民安路322號","121.428896666667","25.0219616666667","6500500","新莊區"
"242034","135-UY","2018/12/27 20:29:17","新北市新莊區中正路332號","121.44576","25.0348533333333","6500500","新莊區"
"242051","172-VK","2018/12/27 20:28:54","新北市新莊區民安西路189巷23號","121.426983333333","25.0153833333333","6500500","新莊區"
"242013","173-VK","2018/12/27 20:29:01","新北市新莊區中平路270巷7弄29號","121.446051666667","25.050975","6500500","新莊區"
"242007","176-VK","2018/12/27 20:29:19","新北市新莊區思源路243號","121.459731666667","25.0469016666667","6500500","新莊區"
"242017","346-TH","2018/12/27 20:29:07","新北市新莊區中港二街96號","121.449221666667","25.0457733333333","6500500","新莊區"
"242011","347-TH","2018/12/27 20:29:10","新北市新莊區中義街5號","121.45145","25.0511433333333","6500500","新莊區"
"242031","348-TH","2018/12/27 20:28:57","新北市新莊區中正路418號","121.441071666667","25.033795","6500500","新莊區"
"242004","349-TH","2018/12/27 20:28:48","新北市新莊區化成路746巷32號","121.467026666667","25.0580883333333","6500500","新莊區"
"242015","351-TH","2018/12/27 20:29:16","新北市新莊區中平路46巷32號","121.446015","25.0438333333333","6500500","新莊區"
"221008","489-VK","2018/12/27 20:29:07","新北市汐止區康寧街115號","121.620811666667","25.06646","6501100","汐止區"
"221036","130-UY","2018/12/27 20:29:15","新北市汐止區新台五路二段78-2號","121.662053333333","25.065865","6501100","汐止區"
"221015","131-UY","2018/12/27 20:29:13","新北市汐止區建成路146號","121.662263333333","25.0734033333333","6501100","汐止區"
"221010","269-BY","2018/12/27 20:29:03","新北市汐止區八連路二段36巷14號","121.636958333333","25.09444","6501100","汐止區"
"221012","278-VK","2018/12/27 20:29:14","新北市汐止區大同路三段241號","121.672693333333","25.0766566666667","6501100","汐止區"
"221023","279-VK","2018/12/27 20:29:19","新北市汐止區湖東街22號","121.634383333333","25.07228","6501100","汐止區"
"221032","280-BY","2018/12/27 20:29:15","新北市汐止區民權街二段58號","121.619408333333","25.0487483333333","6501100","汐止區"
"221027","281-BY","2018/12/27 20:29:07","新北市汐止區中正路226號","121.65807","25.0688766666667","6501100","汐止區"
"221029","298-VK","2018/12/27 20:29:14","新北市汐止區樟樹一路129巷34弄13號","121.640431666667","25.0650666666667","6501100","汐止區"
"221021","299-VK","2018/12/27 20:29:00","新北市汐止區水源路一段288號","121.654123333333","25.0581683333333","6501100","汐止區"
"221031","353-TW","2018/12/27 20:29:11","新北市汐止區中興路110巷34號","121.634286666667","25.06465","6501100","汐止區"
"221025","623-UM","2018/12/27 20:29:02","新北市汐止區水源路二段88巷1弄2號","121.656283333333","25.0558516666667","6501100","汐止區"
"221038","646-BX","2018/12/27 20:29:12","新北市汐止區水源路一段56-1號","121.657238333333","25.065405","6501100","汐止區"
"221033","647-BX","2018/12/27 20:29:16","新北市汐止區林森街73巷5號","121.62351","25.040935","6501100","汐止區"
"221002","707-TV","2018/12/27 20:29:14","新北市汐止區福德二路47號","121.634313333333","25.067275","6501100","汐止區"
"221018","753-BX","2018/12/27 20:28:57","新北市汐止區茄苳路225巷11弄12號","121.67118","25.0696066666667","6501100","汐止區"
"220083","286-VK","2018/12/27 20:29:17","新北市板橋區僑中二街102巷51號","121.444175","25.0085216666667","6500100","板橋區"
"242042","281-VK","2018/12/27 20:29:04","新北市新莊區天祥街54巷1弄1號","121.416576666667","25.0292133333333","6500500","新莊區"
"220092","307-R5","2018/12/27 20:08:24","新北市板橋區民權路182號","121.459213333333","25.0135016666667","6500100","板橋區"
"220098","317-R6","2018/12/27 20:29:14","新北市八里區中山路三段382號","121.368501666667","25.1361316666667","6500100","板橋區"
"242019","280-VK","2018/12/27 20:29:08","新北市新莊區銘德街33號","121.458405","25.0437216666667","6500500","新莊區"
"220062","AAC-253","2018/12/27 20:28:08","新北市五股區中直路17-4號","121.422416666667","25.1114866666667","6500100","板橋區"
