"lineid","car","time","location","longitude","latitude","cityid","cityname"
"234081","298-R6","2018/12/27 20:39:17","新北市永和區永利路69號","121.519726666667","25.0048183333333","6500400","永和區"
"234064","337-UY","2018/12/27 20:39:13","新北市永和區永利路69號","121.519646666667","25.004785","6500400","永和區"
"234061","AAD-866","2018/12/27 20:39:10","新北市永和區秀安街17號","121.516093333333","25.00364","6500400","永和區"
"234042","862-TW","2018/12/27 20:39:12","新北市永和區安樂路348號","121.51447","25.006475","6500400","永和區"
"234050","863-TW","2018/12/27 20:39:00","新北市永和區保安路132號","121.508788333333","25.0152933333333","6500400","永和區"
"249001","173-UM","2018/12/27 20:39:02","新北市八里區中山路三段382號","121.368645","25.136085","6502300","八里區"
"249004","303-UY","2018/12/27 20:39:00","新北市八里區中山路一段326號","121.41284","25.1590683333333","6502300","八里區"
"234023","9380-KE","2018/12/27 20:39:02","新北市永和區竹林路23號","121.517275","25.01465","6500400","永和區"
"234074","AAC-211","2018/12/27 20:39:11","新北市永和區竹林路117-1號","121.520096666667","25.0114933333333","6500400","永和區"
"243011","KEA-2215","2018/12/27 20:39:06","新北市泰山區公園路46號","121.428633333333","25.0544966666667","6501600","泰山區"
"243010","KEA-2216","2018/12/27 20:39:15","新北市泰山區橫窠雅2號","121.402421666667","25.0732966666667","6501600","泰山區"
"222003","436-BY","2018/12/27 20:39:08","新北市深坑區阿柔洋25-1號","121.613135","24.9990533333333","6501800","深坑區"
"222002","659-BX","2018/12/27 20:39:10","新北市深坑區萬福路47號","121.599596666667","25.006895","6501800","深坑區"
"231041","002-UM","2018/12/27 20:39:11","新北市新店區中正路695巷2號","121.53399","24.99058","6500600","新店區"
"231059","046-UY","2018/12/27 20:39:02","新北市新店區僑信路2巷2號","121.499863333333","24.9536716666667","6500600","新店區"
"231040","047-UY","2018/12/27 20:39:04","新北市新店區中正路265巷21號","121.537731666667","24.9731566666667","6500600","新店區"
"231044","106-UY","2018/12/27 20:39:08","新北市新店區建國路291巷1號","121.536996666667","24.985605","6500600","新店區"
"231052","108-UY","2018/12/27 20:39:00","新北市新店區新烏路二段202號","121.547668333333","24.9164","6500600","新店區"
"231047","187-VK","2018/12/27 20:39:07","新北市新店區寶慶街12-1號","121.54336","24.9867166666667","6500600","新店區"
"231054","188-VK","2018/12/27 20:39:19","新北市新店區行政街17巷7號","121.542868333333","24.9672166666667","6500600","新店區"
"221035","KEA-2785","2018/12/27 20:38:59","新北市汐止區長江街101-5號","121.658663333333","25.0731966666667","6501100","汐止區"
"231057","256-BX","2018/12/27 20:38:57","新北市新店區花園六路二段9-2號","121.555683333333","24.9328883333333","6500600","新店區"
"231042","268-BY","2018/12/27 20:39:15","新北市新店區寶橋路230號","121.551568333333","24.9788133333333","6500600","新店區"
"231051","278-BY","2018/12/27 20:39:10","新北市新店區中央八街86號","121.52698","24.977345","6500600","新店區"
"231050","AAD-862","2018/12/27 20:39:16","新北市新店區建國路8-1號","121.539975","24.9735433333333","6500600","新店區"
"231058","3713-VJ","2018/12/27 20:39:05","新北市新店區中正路307巷17號","121.535833333333","24.9735566666667","6500600","新店區"
"231066","4716-K9","2018/12/27 20:39:16","新北市新店區安興路112號","121.514638333333","24.9776416666667","6500600","新店區"
"231056","4715-K9","2018/12/27 20:39:12","新北市新店區溪園路509號","121.52396","24.9769633333333","6500600","新店區"
"231067","4772-VM","2018/12/27 20:39:13","新北市新店區安華路28-1號","121.519751666667","24.9608016666667","6500600","新店區"
"231065","512-UM","2018/12/27 20:39:08","新北市新店區安祥路102巷117號","121.48635","24.9642383333333","6500600","新店區"
"231049","513-UM","2018/12/27 20:39:13","新北市新店區永業路81巷60號","121.529223333333","24.9480883333333","6500600","新店區"
"231045","617-UM","2018/12/27 20:39:02","新北市新店區長春路213號","121.559628333333","24.962055","6500600","新店區"
"231061","619-UM","2018/12/27 20:39:16","新北市新店區新和街34號","121.51923","24.98486","6500600","新店區"
"231063","641-BX","2018/12/27 20:38:58","新北市新店區玫瑰路4-1號","121.493553333333","24.951405","6500600","新店區"
"231068","718-UY","2018/12/27 20:39:12","新北市新店區寶慶街35巷3弄1號","121.543138333333","24.9860716666667","6500600","新店區"
"231064","719-UM","2018/12/27 20:39:01","新北市新店區安和路三段173號","121.515805","24.9861316666667","6500600","新店區"
"231062","720-UM","2018/12/27 20:39:06","新北市新店區安泰路60巷55弄107號","121.48458","24.9461883333333","6500600","新店區"
"231060","897-TW","2018/12/27 20:39:02","新北市新店區安康路三段740號","121.473853333333","24.9419366666667","6500600","新店區"
"231043","899-TW","2018/12/27 20:39:16","新北市新店區博愛街13巷21號","121.540183333333","24.9737483333333","6500600","新店區"
"241011","013-R5","2018/12/27 20:39:17","新北市三重區龍門路122號","121.497913333333","25.0729416666667","6500200","三重區"
"241028","022-UY","2018/12/27 20:39:18","新北市三重區光興街93號","121.49732","25.0599533333333","6500200","三重區"
"241008","059-VK","2018/12/27 20:39:08","新北市三重區下竹圍街36號","121.481006666667","25.0749683333333","6500200","三重區"
"241022","060-VK","2018/12/27 20:39:13","新北市三重區新北大道一段42號","121.487995","25.06156","6500200","三重區"
"241031","061-VK","2018/12/27 20:38:59","新北市三重區重陽路一段113巷1弄42號","121.488193333333","25.058745","6500200","三重區"
"241015","062-VK","2018/12/27 20:39:09","新北市三重區文化北路103號","121.497848333333","25.0684066666667","6500200","三重區"
"241017","063-VK","2018/12/27 20:39:09","新北市三重區大同北路273號","121.490828333333","25.0673883333333","6500200","三重區"
"241024","065-VK","2018/12/27 20:39:16","新北市三重區忠孝路三段34號","121.481321666667","25.0665733333333","6500200","三重區"
"241002","090-VK","2018/12/27 20:39:10","新北市三重區仁義街167巷38弄4號","121.49868","25.0827733333333","6500200","三重區"
"241003","091-VK","2018/12/27 20:39:09","新北市三重區集賢路87-1號","121.493621666667","25.0868283333333","6500200","三重區"
"251014","742-BX","2018/12/27 20:39:12","新北市淡水區公埔子29號","121.463378333333","25.2326733333333","6501000","淡水區"
"241005","262-UM","2018/12/27 20:39:15","新北市三重區五華街141巷49號","121.493041666667","25.0861883333333","6500200","三重區"
"241016","266-UM","2018/12/27 20:39:08","新北市三重區長壽西街143-1號","121.49465","25.0665433333333","6500200","三重區"
"241009","267-UM","2018/12/27 20:39:06","新北市三重區三和路四段420號","121.480518333333","25.0800733333333","6500200","三重區"
"241018","268-UM","2018/12/27 20:39:09","新北市三重區自強路一段207號","121.491518333333","25.0683566666667","6500200","三重區"
"241032","269-UM","2018/12/27 20:39:17","新北市三重區興華街73號","121.48495","25.0602166666667","6500200","三重區"
"241013","270-UM","2018/12/27 20:39:18","新北市三重區仁愛街112巷8號","121.49488","25.0742033333333","6500200","三重區"
"241025","271-UM","2018/12/27 20:39:06","新北市三重區頂崁街210巷27號","121.475773333333","25.06815","6500200","三重區"
"241007","398-BY","2018/12/27 20:39:08","新北市三重區自強路四段4號","121.488353333333","25.0761066666667","6500200","三重區"
"241035","462-BY","2018/12/27 20:39:02","新北市三重區正義北路332號","121.49462","25.0707083333333","6500200","三重區"
"241004","475-VK","2018/12/27 20:39:08","新北市三重區仁愛街403號","121.490965","25.0810633333333","6500200","三重區"
"241020","478-VK","2018/12/27 20:39:14","新北市三重區忠孝路一段101號","121.489446666667","25.07214","6500200","三重區"
"241030","480-VK","2018/12/27 20:39:12","新北市三重區成功路73巷18號","121.489331666667","25.0520266666667","6500200","三重區"
"241014","543-UM","2018/12/27 20:39:09","新北市三重區三和路二段95號","121.499713333333","25.0686216666667","6500200","三重區"
"241001","547-UM","2018/12/27 20:39:02","新北市三重區自強路三段110巷3號","121.486638333333","25.0748583333333","6500200","三重區"
"241019","KEA-2593","2018/12/27 20:39:16","新北市三重區大智街139號","121.490708333333","25.07096","6500200","三重區"
"241006","AAD-863","2018/12/27 20:39:07","新北市三重區車路頭街139巷14號","121.484321666667","25.0762483333333","6500200","三重區"
"241026","743-BX","2018/12/27 20:38:58","新北市三重區和平街1號","121.500115","25.0623516666667","6500200","三重區"
"241023","887-TS","2018/12/27 20:39:01","新北市三重區自由街37巷1號","121.478825","25.06697","6500200","三重區"
"241012","941-UM","2018/12/27 20:39:04","新北市三重區秀江街26號","121.502486666667","25.0729866666667","6500200","三重區"
"241029","942-UM","2018/12/27 20:39:13","新北市三重區集美街126巷24號","121.489935","25.0538316666667","6500200","三重區"
"247012","KEA-2869","2018/12/27 20:39:17","新北市蘆洲區民族路236巷56號","121.481738333333","25.0889433333333","6501400","蘆洲區"
"247006","KED-0682","2018/12/27 20:39:13","新北市蘆洲區和平路136-1號","121.466948333333","25.0807383333333","6501400","蘆洲區"
"235069","4980-A6","2018/12/27 20:39:04","新北市中和區連城路347巷16弄15號","121.488061666667","24.9949233333333","6500300","中和區"
"220086","073-UY","2018/12/27 20:39:06","新北市新莊區立信三街35巷19號","121.44221","25.0511333333333","6500100","板橋區"
"247002","893-R6","2018/12/27 20:39:13","新北市蘆洲區長安街375巷35號","121.455498333333","25.08804","6501400","蘆洲區"
"247016","546-UM","2018/12/27 20:39:09","新北市蘆洲區中山二路264號","121.469163333333","25.0786816666667","6501400","蘆洲區"
"247024","500-BY","2018/12/27 20:39:03","新北市蘆洲區長樂路41號","121.463191666667","25.0858216666667","6501400","蘆洲區"
"247020","057-VK","2018/12/27 20:38:58","新北市蘆洲區民族路331號","121.473796666667","25.09173","6501400","蘆洲區"
"247014","053-VK","2018/12/27 20:38:59","新北市蘆洲區中山一路245號","121.473285","25.0804283333333","6501400","蘆洲區"
"247004","002-UY","2018/12/27 20:38:58","新北市蘆洲區長安街297號","121.458101666667","25.0848733333333","6501400","蘆洲區"
"247022","001-UY","2018/12/27 20:39:13","新北市蘆洲區中正路239號","121.467626666667","25.0865766666667","6501400","蘆洲區"
"222001","KEA-2212","2018/12/27 20:39:01","新北市深坑區北深路三段232號","121.600726666667","25.0041033333333","6501800","深坑區"
"251001","011-UM","2018/12/27 20:39:00","新北市淡水區淡金路218號","121.460265","25.167015","6501000","淡水區"
"251002","012-UM","2018/12/27 20:39:11","新北市淡水區中正路38-1號","121.443736666667","25.1692516666667","6501000","淡水區"
"251013","KEA-2871","2018/12/27 20:39:17","新北市淡水區下圭柔山28巷7弄10號","121.45796","25.204165","6501000","淡水區"
"251016","179-VK","2018/12/27 20:38:59","新北市淡水區後洲子8-2號","121.44957","25.2240166666667","6501000","淡水區"
"251015","182-VK","2018/12/27 20:39:13","新北市淡水區淡金路四段542巷17號","121.452766666667","25.2270666666667","6501000","淡水區"
"251010","413-VK","2018/12/27 20:39:00","新北市淡水區沙崙路181巷15號","121.423945","25.1843583333333","6501000","淡水區"
"251012","441-VK","2018/12/27 20:38:58","新北市淡水區興仁路108號","121.451668333333","25.2181566666667","6501000","淡水區"
"251007","442-VK","2018/12/27 20:39:13","新北市淡水區忠愛街3-1號","121.458081666667","25.1715633333333","6501000","淡水區"
"251006","561-UM","2018/12/27 20:39:15","新北市淡水區商工路190號","121.450521666667","25.1882733333333","6501000","淡水區"
"251003","673-BX","2018/12/27 20:39:09","新北市淡水區新民街120巷52號","121.43872","25.1783216666667","6501000","淡水區"
"252002","178-VK","2018/12/27 20:39:10","新北市三芝區淡金路二段81號","121.503778333333","25.2606016666667","6502100","三芝區"
"252001","292-VK","2018/12/27 20:39:16","新北市三芝區中山路一段97號","121.501333333333","25.2568366666667","6502100","三芝區"
"247008","KED-0683","2018/12/27 20:39:18","新北市蘆洲區集賢路269巷10號","121.48154","25.0835483333333","6501400","蘆洲區"
"242036","AAC-296","2018/12/27 20:15:29","新北市新莊區民安路207巷30-7號","121.428091666667","25.0241683333333","6500500","新莊區"
"242058","986-R7","2018/12/27 20:39:05","新北市新莊區四維路117號","121.423163333333","25.0232166666667","6500500","新莊區"
"242056","751-BX","2018/12/27 20:39:16","新北市新莊區瓊泰路64號","121.443288333333","25.0287366666667","6500500","新莊區"
"242027","615-BX","2018/12/27 20:39:14","新北市新莊區思源路305號","121.459841666667","25.0488566666667","6500500","新莊區"
"242025","613-BX","2018/12/27 20:39:01","新北市三重區重光街107-1號","121.466453333333","25.06471","6500500","新莊區"
"242029","612-BX","2018/12/27 20:39:14","新北市新莊區中華路二段81號","121.452781666667","25.0478883333333","6500500","新莊區"
"242044","566-BX","2018/12/27 20:39:15","新北市新莊區中正路新生巷85弄1號","121.417125","25.021745","6500500","新莊區"
"242048","497-BY","2018/12/27 20:39:14","新北市新莊區中正路700號","121.41874","25.0277833333333","6500500","新莊區"
"242021","442-UM","2018/12/27 20:39:05","新北市新莊區公園路80號","121.450198333333","25.039605","6500500","新莊區"
"242053","441-UM","2018/12/27 20:39:13","新北市新莊區西盛街324巷14號","121.427468333333","25.0147583333333","6500500","新莊區"
"242002","440-UM","2018/12/27 20:39:18","新北市新莊區明中街12-19號","121.458183333333","25.03883","6500500","新莊區"
"242039","415-TV","2018/12/27 20:39:11","新北市新莊區民安路399號","121.432578333333","25.0229683333333","6500500","新莊區"
"242009","413-TV","2018/12/27 20:39:13","新北市新莊區昌隆街104號","121.456788333333","25.05079","6500500","新莊區"
"242046","400-BY","2018/12/27 20:39:16","新北市新莊區富國路22巷19號","121.418423333333","25.0257483333333","6500500","新莊區"
"242023","362-BY","2018/12/27 20:39:10","新北市新莊區化成路500號","121.466136666667","25.052355","6500500","新莊區"
"242061","353-BY","2018/12/27 20:39:00","新北市新莊區新樹路258巷3號","121.432205","25.0155616666667","6500500","新莊區"
"242034","135-UY","2018/12/27 20:39:12","新北市新莊區中正路427-2號","121.44373","25.0342383333333","6500500","新莊區"
"242051","172-VK","2018/12/27 20:39:14","新北市新莊區民安西路143號","121.426303333333","25.016835","6500500","新莊區"
"242013","173-VK","2018/12/27 20:39:01","新北市新莊區中和街155巷24弄79號","121.44624","25.0514316666667","6500500","新莊區"
"242007","176-VK","2018/12/27 20:39:02","新北市新莊區思源路287巷20號","121.458661666667","25.04827","6500500","新莊區"
"242017","346-TH","2018/12/27 20:39:16","新北市新莊區中港三街102號","121.44853","25.0460916666667","6500500","新莊區"
"242011","347-TH","2018/12/27 20:39:10","新北市新莊區中榮街102號","121.447273333333","25.0529616666667","6500500","新莊區"
"242031","348-TH","2018/12/27 20:39:18","新北市泰山區新生路181號","121.435605","25.0394233333333","6500500","新莊區"
"242004","349-TH","2018/12/27 20:39:08","新北市新莊區福德二街1號","121.46305","25.0571283333333","6500500","新莊區"
"242015","351-TH","2018/12/27 20:38:56","新北市新莊區中和街32號","121.448195","25.0438883333333","6500500","新莊區"
"221008","489-VK","2018/12/27 20:39:06","新北市汐止區康寧街511號","121.633083333333","25.0686016666667","6501100","汐止區"
"221036","130-UY","2018/12/27 20:39:15","新北市汐止區新昌路88號","121.663956666667","25.0690783333333","6501100","汐止區"
"221015","131-UY","2018/12/27 20:39:13","新北市汐止區建成路48號","121.663875","25.0729083333333","6501100","汐止區"
"221023","279-VK","2018/12/27 20:38:59","新北市汐止區民族二街7-1號","121.63508","25.07169","6501100","汐止區"
"221032","280-BY","2018/12/27 20:39:15","新北市汐止區橫科路52巷14弄1號","121.618718333333","25.0500883333333","6501100","汐止區"
"221027","281-BY","2018/12/27 20:39:06","新北市汐止區大同路二段563-1號","121.662835","25.0698766666667","6501100","汐止區"
"221029","298-VK","2018/12/27 20:39:17","新北市汐止區大同路一段515巷6號","121.645431666667","25.0625883333333","6501100","汐止區"
"221021","299-VK","2018/12/27 20:39:00","新北市汐止區水源路一段282巷3號","121.654003333333","25.0581116666667","6501100","汐止區"
"221025","623-UM","2018/12/27 20:39:02","新北市汐止區水源路二段185號","121.657766666667","25.053535","6501100","汐止區"
"221038","646-BX","2018/12/27 20:39:12","新北市汐止區汐萬路一段256巷3號","121.652461666667","25.0746266666667","6501100","汐止區"
"221033","647-BX","2018/12/27 20:39:16","新北市汐止區合順街18巷8弄5號","121.620345","25.0419316666667","6501100","汐止區"
"221002","707-TV","2018/12/27 20:39:14","新北市汐止區福德二路140號","121.630711666667","25.06522","6501100","汐止區"
"221018","753-BX","2018/12/27 20:39:17","新北市汐止區茄苳路59號","121.666573333333","25.0707766666667","6501100","汐止區"
"220083","286-VK","2018/12/27 20:39:03","新北市板橋區僑中二街108巷1號","121.445815","25.0072566666667","6500100","板橋區"
"242042","281-VK","2018/12/27 20:39:04","新北市新莊區中正路694巷3弄8號","121.418098333333","25.0282083333333","6500500","新莊區"
"220098","317-R6","2018/12/27 20:39:14","新北市林口區太平里180號","121.368435","25.134305","6500100","板橋區"
"242019","280-VK","2018/12/27 20:39:17","新北市新莊區銘德街55號","121.456956666667","25.0435966666667","6500500","新莊區"
"220062","AAC-253","2018/12/27 20:39:08","新北市八里區下罟子30-35號","121.367535","25.13516","6500100","板橋區"
