"lineid","car","time","location","longitude","latitude","cityid","cityname"
"231047","187-VK","2018/12/27 21:29:02","新北市新店區薏仁坑路2-2號","121.5013","24.95846","6500600","新店區"
"231063","641-BX","2018/12/27 21:28:59","新北市新店區富貴街18巷16號","121.493296666667","24.94812","6500600","新店區"
"231060","897-TW","2018/12/27 21:29:02","新北市新店區薏仁坑路自強巷6號","121.496776666667","24.9584816666667","6500600","新店區"
"241017","063-VK","2018/12/27 21:29:09","新北市三重區中正北路25巷2號","121.493193333333","25.0626833333333","6500200","三重區"
"241024","065-VK","2018/12/27 21:29:16","新北市三重區中正北路145巷8弄2號","121.484103333333","25.06778","6500200","三重區"
"251014","742-BX","2018/12/27 21:29:03","新北市淡水區六塊厝2-1號","121.450126666667","25.240445","6501000","淡水區"
"241005","262-UM","2018/12/27 21:29:15","新北市三重區仁華街118巷6號","121.485711666667","25.0830333333333","6500200","三重區"
"241016","266-UM","2018/12/27 21:29:08","新北市三重區信義西街142號","121.495565","25.0640616666667","6500200","三重區"
"241007","398-BY","2018/12/27 21:29:08","新北市三重區正義北路124號","121.496893333333","25.065505","6500200","三重區"
"241019","KEA-2593","2018/12/27 21:29:14","新北市五股區五工一路106號","121.457243333333","25.07037","6500200","三重區"
"247012","KEA-2869","2018/12/27 21:29:17","新北市蘆洲區環堤大道206號","121.457366666667","25.0918633333333","6501400","蘆洲區"
"247002","893-R6","2018/12/27 21:27:32","新北市五股區中直路15-2號","121.423201666667","25.1111233333333","6501400","蘆洲區"
"251009","008-UM","2018/12/27 21:29:08","新北市淡水區民族路33巷16-8號","121.463401666667","25.1359716666667","6501000","淡水區"
"251001","011-UM","2018/12/27 21:29:00","新北市淡水區新市二路三段18號","121.432685","25.1937233333333","6501000","淡水區"
"251002","012-UM","2018/12/27 21:29:11","新北市淡水區學府路172巷21號","121.448263333333","25.1748983333333","6501000","淡水區"
"251013","KEA-2871","2018/12/27 21:29:17","新北市淡水區埤島57-1號","121.461206666667","25.1970033333333","6501000","淡水區"
"251016","179-VK","2018/12/27 21:29:06","新北市淡水區前洲子20號","121.44101","25.2194266666667","6501000","淡水區"
"251010","413-VK","2018/12/27 21:29:20","新北市淡水區沙崙路25巷21號","121.420495","25.182475","6501000","淡水區"
"251012","441-VK","2018/12/27 21:29:18","新北市淡水區石頭埔2號","121.45273","25.23447","6501000","淡水區"
"251007","442-VK","2018/12/27 21:29:13","新北市淡水區下圭柔山91-4號","121.430086666667","25.2090166666667","6501000","淡水區"
"251005","443-VK","2018/12/27 21:08:40","新北市淡水區博愛街61號","121.446868333333","25.168925","6501000","淡水區"
"251006","561-UM","2018/12/27 21:29:15","新北市淡水區公明街75號","121.443881666667","25.1684466666667","6501000","淡水區"
"251011","650-BX","2018/12/27 21:29:10","新北市淡水區新民街166號","121.436875","25.1786233333333","6501000","淡水區"
"251003","673-BX","2018/12/27 21:29:09","新北市淡水區崁頂15-5號","121.438963333333","25.185885","6501000","淡水區"
"247008","KED-0683","2018/12/27 21:28:59","新北市五股區中興路二段182巷15弄13號","121.457106666667","25.0812883333333","6501400","蘆洲區"
"242007","176-VK","2018/12/27 21:28:59","新北市八里區荖阡坑路18號","121.398445","25.1381966666667","6500500","新莊區"
"220062","AAC-253","2018/12/27 21:29:08","新北市板橋區華東街1-10號","121.448376666667","24.994935","6500100","板橋區"
