"lineid","car","time","location","longitude","latitude","cityid","cityname"
"247012","KEA-2869","2018/12/27 22:19:17","新北市五股區新五路二段372巷20號","121.447673333333","25.0848816666667","6501400","蘆洲區"
"251004","180-VK","2018/12/27 22:19:12","新北市淡水區民族路33號","121.462291666667","25.1357883333333","6501000","淡水區"
"251010","413-VK","2018/12/27 22:19:20","新北市淡水區沙崙路200號","121.424698333333","25.18393","6501000","淡水區"
"251007","442-VK","2018/12/27 22:19:13","新北市淡水區北新路180號","121.449491666667","25.1787533333333","6501000","淡水區"
"251011","650-BX","2018/12/27 22:19:10","新北市淡水區水碓街7號","121.443181666667","25.1771233333333","6501000","淡水區"
"247007","KED-0683","2018/12/27 22:18:59","新北市五股區中興路三段2巷10號","121.448893333333","25.0811633333333","6501400","蘆洲區"
