"lineid","car","time","location","longitude","latitude","cityid","cityname"
"248005","653-BX","2018/03/22 08:28:53","新北市五股區明德路12巷8號","121.433513333333","25.0719533333333","6501500","五股區"
"232001","290-BY","2018/03/22 08:29:48","新北市坪林區大粗坑6-1號","121.730761666667","24.9488566666667","6502000","坪林區"
"232014","291-BY","2018/03/22 08:29:39","新北市坪林區北宜路七段338號","121.696936666667","24.9349066666667","6502000","坪林區"
"244012","069-UM","2018/03/22 08:29:41","新北市林口區中山路267號","121.385248333333","25.07929","6501700","林口區"
"244006","080-UY","2018/03/22 08:29:53","新北市林口區湖北里45號","121.384436666667","25.0946616666667","6501700","林口區"
"244003","248-BX","2018/03/22 08:29:54","新北市林口區下福里18鄰26號","121.310965","25.1120216666667","6501700","林口區"
"244024","742-UY","2018/03/22 08:29:40","新北市林口區忠孝三路32號","121.360603333333","25.0695233333333","6501700","林口區"
"244022","483-VK","2018/03/22 08:29:41","新北市林口區隆林街87號","121.385913333333","25.07511","6501700","林口區"
"244016","485-VK","2018/03/22 08:29:42","新北市林口區文化二路一段262-8號","121.37176","25.0735316666667","6501700","林口區"
"244009","656-BX","2018/03/22 08:29:46","新北市林口區中北三街55號","121.3848","25.0857416666667","6501700","林口區"
"244018","657-BX","2018/03/22 08:29:37","新北市林口區公園路159號","121.370598333333","25.0713683333333","6501700","林口區"
"244010","701-TV","2018/03/22 08:29:36","新北市林口區中正路260號","121.389641666667","25.077755","6501700","林口區"
"244020","838-TS","2018/03/22 08:29:43","新北市林口區自強一街109號","121.400698333333","25.0765716666667","6501700","林口區"
"222006","289-BY","2018/03/22 08:29:34","新北市深坑區萬福路169號","121.61377","25.0150866666667","6501800","深坑區"
"231069","189-VK","2018/03/22 08:29:45","新北市新店區新潭路二段2號","121.528148333333","24.926675","6500600","新店區"
"231008","192-VK","2018/03/22 08:29:34","新北市新店區新烏路一段231號","121.549468333333","24.9307716666667","6500600","新店區"
"235001","611-BX","2018/03/22 08:29:45","新北市中和區中山路二段523巷32弄7號","121.481608333333","25.003705","6500300","中和區"
"226005","5620-A6","2018/03/22 08:29:40","新北市平溪區南山里六分6號","121.796425","25.0491016666667","6502400","平溪區"
"226002","7418-A5","2018/03/22 08:29:41","新北市平溪區東勢里芊蓁林49號","121.751708333333","25.011055","6502400","平溪區"
"226003","AGD-0702","2018/03/22 08:29:39","新北市平溪區靜安路三段392巷3號","121.783906666667","25.04942","6502400","平溪區"
"223006","022-BY","2018/03/22 08:29:40","新北市深坑區文山路一段1號","121.646981666667","25.0083516666667","6501900","石碇區"
"223001","205-TH","2018/03/22 08:29:56","新北市石碇區北宜路六段小金瓜寮巷2-1號","121.65588","24.935665","6501900","石碇區"
"223008","406-TH","2018/03/22 08:29:37","新北市石碇區十八重溪13號","121.67791","25.0112683333333","6501900","石碇區"
"223001","592-UM","2018/03/22 08:29:55","新北市石碇區北宜路六段直潭巷26號","121.659966666667","24.93453","6501900","石碇區"
"223004","660-BX","2018/03/22 08:29:47","新北市石碇區碇坪路一段135號","121.673445","24.9815033333333","6501900","石碇區"
"223005","677-TV","2018/03/22 08:29:42","新北市石碇區碇坪路一段208號","121.671925","24.9818683333333","6501900","石碇區"
"252004","249-BX","2018/03/22 08:29:42","新北市三芝區興華里楓子林45-6號","121.501293333333","25.2046566666667","6502100","三芝區"
"252007","AAC-283","2018/03/22 08:29:43","新北市三芝區蘭陽街13-1號","121.473573333333","25.2424633333333","6502100","三芝區"
"237001","159-UY","2018/03/22 08:29:47","新北市三峽區大德路70號","121.377333333333","24.94308","6500900","三峽區"
"236009","165-UM","2018/03/22 08:29:55","新北市土城區石門路54號","121.456901666667","24.9593016666667","6501300","土城區"
"236003","339-SR","2018/03/22 08:29:42","新北市土城區龍泉路66-2號","121.41545","24.9412133333333","6501300","土城區"
"236005","498-BY","2018/03/22 08:29:43","新北市土城區中央路四段35-3號","121.422895","24.961895","6501300","土城區"
"242033","AAC-296","2018/03/22 08:29:49","新北市新莊區中正路377巷2號","121.446226666667","25.034435","6500500","新莊區"
"242057","986-R7","2018/03/22 08:29:55","新北市新莊區新北大道七段556號","121.4122","25.0288666666667","6500500","新莊區"
"242052","751-BX","2018/03/22 08:29:41","新北市新莊區民安西路468-1號","121.431673333333","25.00788","6500500","新莊區"
"242028","705-TV","2018/03/22 08:29:46","新北市新莊區中平路202號","121.444733333333","25.0487866666667","6500500","新莊區"
"242026","615-BX","2018/03/22 08:29:46","新北市新莊區思源路423號","121.459843333333","25.0526933333333","6500500","新莊區"
"242024","613-BX","2018/03/22 08:29:45","新北市新莊區化成路531巷50號","121.462031666667","25.0635566666667","6500500","新莊區"
"242040","566-BX","2018/03/22 08:29:41","新北市新莊區中正路696號","121.418831666667","25.0280433333333","6500500","新莊區"
"242045","497-BY","2018/03/22 08:29:54","新北市新莊區福營路205號","121.430741666667","25.0304833333333","6500500","新莊區"
"242049","441-UM","2018/03/22 08:29:44","新北市新莊區民本街23巷17號","121.429045","25.0197883333333","6500500","新莊區"
"242055","440-UM","2018/03/22 08:29:55","新北市新莊區豐年街55-7號","121.446468333333","25.030905","6500500","新莊區"
"242035","415-TV","2018/03/22 08:29:44","新北市新莊區後港一路65巷9弄2號","121.42628","25.027125","6500500","新莊區"
"242006","413-TV","2018/03/22 08:29:54","新北市新莊區中華路二段245號","121.452118333333","25.053785","6500500","新莊區"
"242043","400-BY","2018/03/22 08:29:50","新北市新莊區中正路726-13號","121.415251666667","25.0238783333333","6500500","新莊區"
"242022","362-BY","2018/03/22 08:29:53","新北市新莊區化成路160號","121.465475","25.0452783333333","6500500","新莊區"
"242059","353-BY","2018/03/22 08:29:37","新北市新莊區新樹路287號","121.433978333333","25.0203266666667","6500500","新莊區"
"242008","132-UY","2018/03/22 08:29:40","新北市新莊區中華路二段306號","121.45298","25.0539483333333","6500500","新莊區"
"242038","133-UY","2018/03/22 08:29:57","新北市新莊區民安西路24巷20弄1號","121.425918333333","25.0205583333333","6500500","新莊區"
"242030","135-UY","2018/03/22 08:29:52","新北市新莊區新泰路277巷40號","121.443866666667","25.0401716666667","6500500","新莊區"
"242047","172-VK","2018/03/22 08:29:29","新北市新莊區萬安街12-1號","121.421356666667","25.0248516666667","6500500","新莊區"
"242016","175-VK","2018/03/22 08:29:49","新北市新莊區永樂街62號","121.451096666667","25.0450083333333","6500500","新莊區"
"242003","176-VK","2018/03/22 08:29:46","新北市新莊區自由街34號","121.455793333333","25.0465316666667","6500500","新莊區"
"242014","346-TH","2018/03/22 08:29:44","新北市新莊區中平路152巷48號","121.446908333333","25.04729","6500500","新莊區"
"242020","348-TH","2018/03/22 08:29:39","新北市新莊區建興街67號","121.449826666667","25.037985","6500500","新莊區"
"242001","349-TH","2018/03/22 08:29:55","新北市新莊區新莊路100號","121.45641","25.0361033333333","6500500","新莊區"
"242018","350-TH","2018/03/22 08:29:45","新北市新莊區民樂街15巷1號","121.457663333333","25.0399816666667","6500500","新莊區"
"242012","351-TH","2018/03/22 08:29:43","新北市新莊區中泰街82號","121.449741666667","25.0468116666667","6500500","新莊區"
"220064","282-UM","2018/03/22 08:29:52","新北市八里區中山路三段390號","121.36818","25.13527","6500100","板橋區"
"242010","281-VK","2018/03/22 08:29:51","新北市新莊區中信街94巷9號","121.448403333333","25.05369","6500500","新莊區"
