"lineid","car","time","location","longitude","latitude","cityid","cityname"
"248005","653-BX","2018/03/22 09:29:21","新北市五股區登林路貿商巷1弄6號","121.429481666667","25.0699633333333","6501500","五股區"
"244012","069-UM","2018/03/22 09:29:21","新北市林口區文化一路一段133號","121.373718333333","25.0718033333333","6501700","林口區"
"244006","080-UY","2018/03/22 09:29:13","新北市林口區後湖2號","121.389143333333","25.097185","6501700","林口區"
"244022","483-VK","2018/03/22 09:29:21","新北市林口區四維路156號","121.380858333333","25.0757583333333","6501700","林口區"
"244016","485-VK","2018/03/22 09:29:21","新北市林口區公園路87號","121.368598333333","25.0695066666667","6501700","林口區"
"244008","656-BX","2018/03/22 09:29:26","新北市林口區竹林路330巷3號","121.391628333333","25.083115","6501700","林口區"
"244018","657-BX","2018/03/22 09:29:17","新北市林口區忠孝路646巷11號","121.379063333333","25.0673516666667","6501700","林口區"
"244010","701-TV","2018/03/22 09:29:16","新北市林口區中正路365號","121.387476666667","25.0776666666667","6501700","林口區"
"222006","289-BY","2018/03/22 09:29:14","新北市深坑區昇高坑路15號","121.624351666667","25.0005483333333","6501800","深坑區"
"231069","189-VK","2018/03/22 09:29:25","新北市新店區新潭路三段215巷25號","121.508115","24.9040833333333","6500600","新店區"
"231008","192-VK","2018/03/22 09:29:14","新北市新店區平廣路一段111號","121.528596666667","24.8963366666667","6500600","新店區"
"223001","205-TH","2018/03/22 09:29:16","新北市石碇區北宜路五段20號","121.6309","24.9565966666667","6501900","石碇區"
"223008","406-TH","2018/03/22 09:25:57","新北市石碇區南勢坑2-3號","121.699288333333","24.9901816666667","6501900","石碇區"
"223001","592-UM","2018/03/22 09:29:28","新北市石碇區北宜路五段2號","121.627783333333","24.9547333333333","6501900","石碇區"
"223004","660-BX","2018/03/22 09:29:27","新北市石碇區碇坪路二段9號","121.679916666667","24.9755383333333","6501900","石碇區"
"223005","677-TV","2018/03/22 09:24:53","新北市石碇區碇坪路二段35號","121.684771666667","24.97669","6501900","石碇區"
"252004","249-BX","2018/03/22 09:29:22","新北市三芝區福德里大水堀31號","121.51048","25.2159233333333","6502100","三芝區"
"252007","AAC-283","2018/03/22 09:29:23","新北市三芝區新庄里新庄子85號","121.510773333333","25.270635","6502100","三芝區"
"236009","165-UM","2018/03/22 09:29:15","新北市土城區民安街26巷1號","121.421176666667","24.96512","6501300","土城區"
"236003","339-SR","2018/03/22 09:29:22","新北市土城區福仁街50巷1號","121.439686666667","24.9750866666667","6501300","土城區"
"236005","498-BY","2018/03/22 09:29:23","新北市土城區承天路62巷5-1號","121.439941666667","24.9608633333333","6501300","土城區"
"242033","AAC-296","2018/03/22 09:29:12","新北市新莊區建中街118號","121.445618333333","25.036565","6500500","新莊區"
"242057","986-R7","2018/03/22 09:29:26","新北市新莊區四維路225號","121.421475","25.01972","6500500","新莊區"
"242040","566-BX","2018/03/22 09:29:20","新北市新莊區天祥街47巷5號","121.416506666667","25.0285516666667","6500500","新莊區"
"242055","440-UM","2018/03/22 09:29:15","新北市新莊區新莊路713巷35號","121.444111666667","25.0319733333333","6500500","新莊區"
"242035","415-TV","2018/03/22 09:29:24","新北市新莊區建國一路136號","121.434698333333","25.0283716666667","6500500","新莊區"
"242043","400-BY","2018/03/22 09:29:15","新北市新莊區龍安路20號","121.414435","25.0223966666667","6500500","新莊區"
"242022","362-BY","2018/03/22 09:29:13","新北市三重區頂崁街23號","121.476575","25.0561233333333","6500500","新莊區"
"242059","353-BY","2018/03/22 09:29:21","新北市新莊區新樹路168號","121.434886666667","25.0223133333333","6500500","新莊區"
"242008","132-UY","2018/03/22 09:29:20","新北市新莊區幸福路553號","121.454526666667","25.0492583333333","6500500","新莊區"
"242038","133-UY","2018/03/22 09:29:17","新北市新莊區民安路432-3號","121.43428","25.022455","6500500","新莊區"
"242030","135-UY","2018/03/22 09:29:17","新北市新莊區義豐街3號","121.441001666667","25.0345483333333","6500500","新莊區"
"242047","172-VK","2018/03/22 09:29:17","新北市新莊區中正路596號","121.42685","25.0301533333333","6500500","新莊區"
"242003","176-VK","2018/03/22 09:29:26","新北市新莊區頭前路15巷14號","121.467835","25.0516966666667","6500500","新莊區"
"242001","349-TH","2018/03/22 09:29:06","新北市新莊區明中街11號","121.458715","25.0383183333333","6500500","新莊區"
