"lineid","car","time","location","longitude","latitude","cityid","cityname"
"248005","653-BX","2018/03/22 10:09:41","新北市五股區更洲路47-1號","121.456736666667","25.0793066666667","6501500","五股區"
"244022","483-VK","2018/03/22 10:09:41","新北市林口區文化三路一段555巷88-1號","121.368776666667","25.0767083333333","6501700","林口區"
"244018","657-BX","2018/03/22 10:09:37","新北市林口區四維路130號","121.379155","25.0770866666667","6501700","林口區"
"222006","289-BY","2018/03/22 10:09:34","新北市深坑區王軍寮7-5號","121.614531666667","24.9840566666667","6501800","深坑區"
"231069","189-VK","2018/03/22 10:09:45","新北市新店區新潭路三段215巷25號","121.50817","24.9040633333333","6500600","新店區"
"231008","192-VK","2018/03/22 10:09:34","新北市新店區平廣路一段83號","121.53121","24.8990566666667","6500600","新店區"
"252004","249-BX","2018/03/22 10:09:42","新北市三芝區福德里埔尾2-1號","121.501673333333","25.24787","6502100","三芝區"
"252007","AAC-283","2018/03/22 10:09:43","新北市三芝區古庄里古庄101-2號","121.49401","25.26957","6502100","三芝區"
"237001","159-UY","2018/03/22 10:09:47","新北市三峽區國學街28號","121.373128333333","24.94205","6500900","三峽區"
"236005","498-BY","2018/03/22 10:09:43","新北市土城區亞洲路32巷23號","121.434861666667","24.9749366666667","6501300","土城區"
"242022","362-BY","2018/03/22 10:09:33","新北市五股區凌雲路三段24巷21-26號","121.43336","25.107585","6500500","新莊區"
"242038","133-UY","2018/03/22 10:09:37","新北市八里區商港路105巷15號","121.391535","25.1493183333333","6500500","新莊區"
