"lineid","car","time","location","longitude","latitude","cityid","cityname"
"234078","298-R6","2018/03/22 12:19:19","新北市永和區福和路1號","121.526593333333","25.0100666666667","6500400","永和區"
"234036","336-UY","2018/03/22 12:19:29","新北市永和區福和路1號","121.526423333333","25.01028","6500400","永和區"
"243007","380-SR","2018/03/22 12:08:07","新北市泰山區黎明路25號","121.422511666667","25.0613566666667","6501600","泰山區"
"235031","255-BX","2018/03/22 12:09:12","新北市中和區和城路一段271巷1號","121.485408333333","24.9918383333333","6500300","中和區"
"228005","097-TW","2018/03/22 12:19:25","新北市貢寮區福連里香蘭街26-2號","121.98445","25.0213066666667","6502600","貢寮區"
"228004","212-TW","2018/03/22 12:19:32","新北市貢寮區貢寮里長泰路17-2號","121.891935","25.02109","6502600","貢寮區"
