"lineid","car","time","location","longitude","latitude","cityid","cityname"
"234044","148-BY","2018/03/22 13:19:31","新北市永和區得和路375號","121.524721666667","24.9996333333333","6500400","永和區"
"234005","207-UY","2018/03/22 13:19:35","新北市永和區中山路一段320號","121.506723333333","25.006995","6500400","永和區"
"234078","298-R6","2018/03/22 13:19:36","新北市永和區福和路7巷11弄8號","121.525546666667","25.0074933333333","6500400","永和區"
"234036","336-UY","2018/03/22 13:19:29","新北市永和區民樂街59巷2號","121.527448333333","24.9982516666667","6500400","永和區"
"234062","337-UY","2018/03/22 13:19:38","新北市永和區永元路17巷6弄2號","121.52134","25.0006833333333","6500400","永和區"
"234084","338-UY","2018/03/22 13:19:28","新北市永和區永利路74號","121.520368333333","25.0042866666667","6500400","永和區"
"234068","552-UM","2018/03/22 13:19:25","新北市永和區豫溪街74巷7弄9號","121.517748333333","25.00994","6500400","永和區"
"234015","745-BX","2018/03/22 13:19:32","新北市永和區文化路90巷34號","121.51353","25.0163416666667","6500400","永和區"
"234028","746-BX","2018/03/22 13:19:27","新北市永和區厚德街60號","121.524361666667","24.9988283333333","6500400","永和區"
"234052","KEA-2590","2018/03/22 13:19:20","新北市永和區中興街18號","121.515975","25.0118983333333","6500400","永和區"
"234012","KEA-2591","2018/03/22 13:19:32","新北市永和區信義路50號","121.513193333333","25.01249","6500400","永和區"
"234060","AAD-866","2018/03/22 13:19:36","新北市永和區秀朗路一段175號","121.517081666667","25.0036966666667","6500400","永和區"
"234040","862-TW","2018/03/22 13:19:23","新北市永和區保平路151巷3號","121.510101666667","25.0056266666667","6500400","永和區"
"234048","863-TW","2018/03/22 13:19:23","新北市永和區仁愛路104巷7弄19號","121.511216666667","25.0139133333333","6500400","永和區"
"234025","9371-KE","2018/03/22 13:19:16","新北市永和區豫溪街28巷9號","121.515241666667","25.0094266666667","6500400","永和區"
"234010","9373-KE","2018/03/22 13:19:26","新北市永和區忠孝街34巷12弄1號","121.514613333333","25.016685","6500400","永和區"
"248013","025-BX","2018/03/22 13:19:32","新北市五股區自強路45號","121.43339","25.073675","6501500","五股區"
"248015","026-BX","2018/03/22 13:19:22","新北市五股區成泰路三段477巷9號","121.449918333333","25.0988883333333","6501500","五股區"
"248005","077-UY","2018/03/22 13:19:16","新北市五股區中興路一段142-2號","121.464773333333","25.0737916666667","6501500","五股區"
"248007","095-VK","2018/03/22 13:19:20","新北市五股區更洲路32巷8弄14號","121.459253333333","25.0796366666667","6501500","五股區"
"248017","225-UY","2018/03/22 13:19:21","新北市五股區御史路126號","121.436355","25.09734","6501500","五股區"
"248011","247-BX","2018/03/22 13:19:37","新北市五股區御史路1巷101弄4號","121.440866666667","25.091205","6501500","五股區"
"248003","677-BX","2018/03/22 13:19:23","新北市五股區成泰路二段175號","121.439565","25.0861516666667","6501500","五股區"
"248001","678-BX","2018/03/22 13:19:29","新北市五股區西雲路66號","121.443618333333","25.091625","6501500","五股區"
"248009","682-TV","2018/03/22 13:19:28","新北市五股區成泰路一段139巷2弄2號","121.435076666667","25.0729733333333","6501500","五股區"
"234022","9380-KE","2018/03/22 13:19:28","新北市永和區竹林路109巷5號","121.520191666667","25.01196","6500400","永和區"
"234076","969-R7","2018/03/22 13:19:34","新北市永和區民有街25巷2號","121.517325","24.9960166666667","6500400","永和區"
"234072","AAC-211","2018/03/22 13:19:25","新北市永和區竹林路50號","121.517688333333","25.0141483333333","6500400","永和區"
"234066","AAC-212","2018/03/22 13:19:22","新北市永和區保平路30巷12號","121.511711666667","25.0077083333333","6500400","永和區"
"234001","AAC-295","2018/03/22 13:19:29","新北市永和區中山路一段127號","121.510703333333","25.0099766666667","6500400","永和區"
"244003","248-BX","2018/03/22 13:19:23","新北市林口區寶斗厝坑39號","121.335798333333","25.11901","6501700","林口區"
"243005","646-TV","2018/03/22 13:19:24","新北市泰山區錢厝坑13號","121.414306666667","25.0410316666667","6501600","泰山區"
"231002","002-UM","2018/03/22 13:19:32","新北市新店區安華路28-1號","121.519605","24.9607916666667","6500600","新店區"
"231025","0293-UT","2018/03/22 13:19:20","新北市新店區安康路一段3-1號","121.534873333333","24.9608583333333","6500600","新店區"
"231028","046-UY","2018/03/22 13:19:28","新北市新店區安華路28-1號","121.519556666667","24.960885","6500600","新店區"
"231030","047-UY","2018/03/22 13:19:33","新北市新店區安華路28-1號","121.51905","24.9609383333333","6500600","新店區"
"231029","106-UY","2018/03/22 13:19:32","新北市新店區安華路28-1號","121.519708333333","24.9608","6500600","新店區"
"231018","107-UY","2018/03/22 13:19:28","新北市新店區安康路一段24巷2號","121.532965","24.9603633333333","6500600","新店區"
"231047","108-UY","2018/03/22 13:19:34","新北市新店區光明街129號","121.5392","24.9619833333333","6500600","新店區"
"231021","187-VK","2018/03/22 13:19:27","新北市新店區環河路29巷1號","121.536715","24.9612716666667","6500600","新店區"
"231017","KEA-2219","2018/03/22 13:19:32","新北市新店區安康路一段102號","121.527393333333","24.962415","6500600","新店區"
"231026","256-BX","2018/03/22 13:19:16","新北市新店區安華路28-1號","121.519766666667","24.9611366666667","6500600","新店區"
"231010","278-BY","2018/03/22 13:19:28","新北市新店區環河路29巷1號","121.536746666667","24.9613466666667","6500600","新店區"
"231023","AAD-862","2018/03/22 13:19:18","新北市新店區安康路一段226號","121.523613333333","24.9635616666667","6500600","新店區"
"231027","3712-VJ","2018/03/22 13:19:20","新北市新店區安康路一段222-1號","121.52289","24.9636833333333","6500600","新店區"
"231024","4716-K9","2018/03/22 13:19:21","新北市新店區北新路一段98號","121.542018333333","24.9688483333333","6500600","新店區"
"231038","4715-K9","2018/03/22 13:19:19","新北市新店區安華路1-1號","121.519283333333","24.9605266666667","6500600","新店區"
"231036","512-UM","2018/03/22 13:18:55","新北市新店區安康路二段360號","121.501915","24.9574733333333","6500600","新店區"
"231035","513-UM","2018/03/22 13:19:30","新北市新店區安華路28-1號","121.519566666667","24.9611266666667","6500600","新店區"
"231006","617-UM","2018/03/22 13:19:25","新北市新店區安華路28-1號","121.519418333333","24.9609","6500600","新店區"
"231001","619-UM","2018/03/22 13:19:23","新北市新店區安華路28-1號","121.51941","24.96078","6500600","新店區"
"231003","641-BX","2018/03/22 13:19:31","新北市新店區安華路1-1號","121.519498333333","24.9604583333333","6500600","新店區"
"231034","645-TV","2018/03/22 13:19:23","新北市新店區安華路1-1號","121.519323333333","24.9605416666667","6500600","新店區"
"231013","719-UM","2018/03/22 13:19:28","新北市新店區安康路一段164-1號","121.526045","24.9629916666667","6500600","新店區"
"231031","720-UM","2018/03/22 13:19:27","新北市新店區安忠路205巷8號","121.510018333333","24.9553333333333","6500600","新店區"
"231005","897-TW","2018/03/22 13:19:32","新北市新店區北新路一段100號","121.542238333333","24.9695133333333","6500600","新店區"
"231004","899-TW","2018/03/22 13:19:34","新北市新店區安華路28-1號","121.518946666667","24.9609316666667","6500600","新店區"
"231037","AKT-0513","2018/03/22 13:19:29","新北市新店區安華路1-1號","121.519361666667","24.9605483333333","6500600","新店區"
"235030","003-UY","2018/03/22 13:19:21","新北市中和區水源路2號","121.502783333333","25.0035733333333","6500300","中和區"
"235028","005-UY","2018/03/22 13:19:23","新北市中和區中興街118巷8號","121.499976666667","24.9934616666667","6500300","中和區"
"235027","006-UY","2018/03/22 13:19:35","新北市中和區中正路637巷52弄1號","121.485428333333","24.9934933333333","6500300","中和區"
"235020","096-UM","2018/03/22 13:19:28","新北市中和區連城路469巷50號","121.483478333333","24.99447","6500300","中和區"
"235003","097-UM","2018/03/22 13:19:32","新北市中和區中正路248號","121.49577","24.9939633333333","6500300","中和區"
"235029","098-UM","2018/03/22 13:19:27","新北市中和區莊敬路49巷20弄20號","121.50267","25.0057916666667","6500300","中和區"
"235004","150-BY","2018/03/22 13:13:32","新北市中和區圓通路252巷36弄1號","121.492186666667","24.99321","6500300","中和區"
"235022","151-BY","2018/03/22 13:19:19","新北市中和區圓通路290號","121.490638333333","24.9894766666667","6500300","中和區"
"235019","183-VK","2018/03/22 13:19:18","新北市中和區員山路36巷16-2號","121.48537","24.9917016666667","6500300","中和區"
"235002","185-VK","2018/03/22 13:19:33","新北市中和區秀朗路三段128巷17弄6號","121.52416","24.99351","6500300","中和區"
"235013","186-VK","2018/03/22 13:19:28","新北市中和區員山路36巷13號","121.484383333333","24.9911283333333","6500300","中和區"
"235031","255-BX","2018/03/22 13:19:26","新北市中和區新生街232號","121.483968333333","24.9981633333333","6500300","中和區"
"235008","293-VK","2018/03/22 13:19:20","新北市中和區員山路36巷16-2號","121.485225","24.99169","6500300","中和區"
"235036","301-VK","2018/03/22 13:19:27","新北市中和區連城路265巷1號","121.49137","24.9964266666667","6500300","中和區"
"235007","352-BY","2018/03/22 13:19:38","新北市中和區景平路377號","121.504095","24.9933966666667","6500300","中和區"
"235025","378-QA","2018/03/22 13:19:19","新北市中和區民德路197-2號","121.46864","24.99902","6500300","中和區"
"235035","269-TV","2018/03/22 13:19:26","新北市中和區永和路335-1號","121.484873333333","25.0114366666667","6500300","中和區"
"235014","4979-A6","2018/03/22 13:19:39","新北市中和區捷運路189號","121.505445","24.99131","6500300","中和區"
"235033","4980-A6","2018/03/22 13:19:17","新北市中和區錦和路107號","121.490245","24.995265","6500300","中和區"
"235006","551-UM","2018/03/22 13:19:17","新北市中和區景平路159巷31號","121.513045","24.9912366666667","6500300","中和區"
"235034","558-UM","2018/03/22 13:19:20","新北市中和區圓通路207號","121.497218333333","24.9944783333333","6500300","中和區"
"235009","565-BX","2018/03/22 13:19:36","新北市中和區復興路263巷12號","121.502658333333","24.98974","6500300","中和區"
"235018","640-BX","2018/03/22 13:19:34","新北市中和區民享街86巷26號","121.47337","25.0006633333333","6500300","中和區"
"235011","732-UM","2018/03/22 13:19:31","新北市中和區南山路300號","121.507891666667","24.9871116666667","6500300","中和區"
"235026","800-TS","2018/03/22 13:19:17","新北市中和區橋和路270號","121.495676666667","25.0065766666667","6500300","中和區"
"235021","801-TS","2018/03/22 13:19:24","新北市中和區民利街28-3號","121.480053333333","24.9991","6500300","中和區"
"235005","802-TS","2018/03/22 13:19:23","新北市中和區圓通路141巷48弄15號","121.49826","24.9937683333333","6500300","中和區"
"235017","900-TW","2018/03/22 13:19:25","新北市中和區員山路36巷16-3號","121.484931666667","24.9917333333333","6500300","中和區"
"235017","911-UM","2018/03/22 13:19:27","新北市中和區連城路89巷1-1號","121.496858333333","24.9999433333333","6500300","中和區"
"235015","157-BY","2018/03/22 13:19:33","新北市中和區忠孝街60巷2弄4號","121.511595","24.9837066666667","6500300","中和區"
"235001","AAC-213","2018/03/22 13:19:25","新北市中和區景德街59號","121.517416666667","24.9914216666667","6500300","中和區"
"235023","AAC-215","2018/03/22 13:01:17","新北市中和區員山路36巷16-3號","121.48504","24.99141","6500300","中和區"
"228005","097-TW","2018/03/22 13:19:25","新北市貢寮區美豐里丹裡街56號","121.90514","25.0586883333333","6502600","貢寮區"
"228004","212-TW","2018/03/22 13:19:32","新北市貢寮區吉林里內寮街35號","121.899453333333","24.98021","6502600","貢寮區"
"253001","4710-YM","2018/03/22 13:19:32","新北市石門區楓林6-1號","121.537716666667","25.2952933333333","6502200","石門區"
"253003","6232-TK","2018/03/22 13:19:22","新北市石門區石崩山27-2號","121.564823333333","25.2799216666667","6502200","石門區"
"253002","637-UY","2018/03/22 13:19:27","新北市石門區大溪墘9號","121.553518333333","25.2729333333333","6502200","石門區"
"253004","8270-PC","2018/03/22 13:19:38","新北市石門區阿里荖33-1號","121.60632","25.2814483333333","6502200","石門區"
"207002","749-BX","2018/03/22 13:19:32","新北市萬里區崁腳里崁腳路166號","121.645045","25.15589","6502800","萬里區"
"207001","662-BX","2018/03/22 13:19:29","新北市萬里區龜吼里玉田路21號","121.680511666667","25.194215","6502800","萬里區"
"252005","AAC-283","2018/03/22 13:19:18","新北市三芝區福德里土地公埔65號","121.518608333333","25.2269183333333","6502100","三芝區"
"236005","498-BY","2018/03/22 13:19:29","新北市土城區大安路138巷8號","121.433785","24.9709616666667","6501300","土城區"
"242047","172-VK","2018/03/22 13:19:24","新北市新莊區龍安路72號","121.416631666667","25.0202483333333","6500500","新莊區"
"221032","280-BY","2018/03/22 13:19:20","新北市汐止區龍安路44號","121.654195","25.0635116666667","6501100","汐止區"
"220030","610-BX","2018/03/22 13:19:32","新北市板橋區華東街1-10號","121.448268333333","24.9949333333333","6500100","板橋區"
"220014","829-TW","2018/03/22 13:19:00","新北市板橋區民生路二段161巷3號","121.470256666667","25.0197833333333","6500100","板橋區"
