"lineid","car","time","location","longitude","latitude","cityid","cityname"
"234044","148-BY","2018/03/22 13:59:42","新北市永和區成功路一段2號","121.526981666667","25.0056166666667","6500400","永和區"
"234005","207-UY","2018/03/22 13:59:35","新北市中和區中和路380號","121.510621666667","25.002135","6500400","永和區"
"234078","298-R6","2018/03/22 13:59:39","新北市永和區國中路10號","121.524263333333","25.0048216666667","6500400","永和區"
"234036","336-UY","2018/03/22 13:59:29","新北市永和區成功路二段179-1號","121.5266","24.996605","6500400","永和區"
"234062","337-UY","2018/03/22 13:59:38","新北市永和區中正路412巷20弄27號","121.519148333333","25.0012683333333","6500400","永和區"
"234084","338-UY","2018/03/22 13:59:31","新北市永和區福和路81號","121.522366666667","25.0079416666667","6500400","永和區"
"234068","552-UM","2018/03/22 13:59:24","新北市永和區國光路39號","121.519185","25.00832","6500400","永和區"
"234015","745-BX","2018/03/22 13:59:38","新北市永和區文化路85號","121.513586666667","25.015145","6500400","永和區"
"234028","746-BX","2018/03/22 13:59:41","新北市永和區民生路67巷50號","121.525316666667","24.9975066666667","6500400","永和區"
"234052","KEA-2590","2018/03/22 13:59:40","新北市永和區竹林路39巷42弄1號","121.520148333333","25.0152166666667","6500400","永和區"
"234012","KEA-2591","2018/03/22 13:59:27","新北市永和區保生路55號","121.504705","25.0106316666667","6500400","永和區"
"234060","AAD-866","2018/03/22 13:59:36","新北市永和區中正路151巷14號","121.51564","24.9988133333333","6500400","永和區"
"234040","862-TW","2018/03/22 13:59:38","新北市永和區中和路421巷12號","121.50873","25.0011366666667","6500400","永和區"
"234048","863-TW","2018/03/22 13:59:43","新北市永和區保安路153號","121.506733333333","25.01284","6500400","永和區"
"234025","9371-KE","2018/03/22 13:59:43","新北市永和區安樂路467號","121.514278333333","25.0054366666667","6500400","永和區"
"234010","9373-KE","2018/03/22 13:59:40","新北市永和區仁愛路352巷106號","121.500686666667","25.00802","6500400","永和區"
"248015","026-BX","2018/03/22 13:59:42","新北市五股區成泰路三段543巷12弄11號","121.451331666667","25.102415","6501500","五股區"
"248007","095-VK","2018/03/22 13:59:40","新北市五股區中興路一段124號","121.465573333333","25.0735083333333","6501500","五股區"
"248017","225-UY","2018/03/22 13:59:41","新北市五股區民義路一段312-22號","121.422431666667","25.0954583333333","6501500","五股區"
"248011","247-BX","2018/03/22 13:59:37","新北市五股區成泰路二段195巷1號","121.440328333333","25.0873666666667","6501500","五股區"
"248003","677-BX","2018/03/22 13:59:43","新北市五股區民義路二段26號","121.41963","25.09721","6501500","五股區"
"248001","678-BX","2018/03/22 13:59:29","新北市五股區凌雲路一段156巷1號","121.448918333333","25.102705","6501500","五股區"
"248009","682-TV","2018/03/22 13:59:28","新北市五股區水碓一路23號","121.430633333333","25.0713516666667","6501500","五股區"
"234022","9380-KE","2018/03/22 13:59:34","新北市永和區中正路662巷27號","121.517785","25.0088","6500400","永和區"
"234076","969-R7","2018/03/22 13:59:34","新北市永和區民權路58巷3號","121.51967","24.9982866666667","6500400","永和區"
"234072","AAC-211","2018/03/22 13:59:24","新北市永和區豫溪街185號","121.522486666667","25.0103766666667","6500400","永和區"
"234066","AAC-212","2018/03/22 13:59:42","新北市永和區永貞路313號","121.509976666667","25.0065466666667","6500400","永和區"
"234001","AAC-295","2018/03/22 13:59:29","新北市永和區福和路316-1號","121.516025","25.007345","6500400","永和區"
"244003","248-BX","2018/03/22 13:59:23","新北市八里區中山路三段382號","121.368686666667","25.1358866666667","6501700","林口區"
"243004","AAD-798","2018/03/22 13:59:33","新北市泰山區仁德路114號","121.432813333333","25.057015","6501600","泰山區"
"243007","380-SR","2018/03/22 13:59:32","新北市泰山區美寧街3號","121.430095","25.0634183333333","6501600","泰山區"
"243006","421-VK","2018/03/22 13:59:28","新北市泰山區黎明路23-1號","121.421353333333","25.0612966666667","6501600","泰山區"
"243002","KEA-2215","2018/03/22 13:59:33","新北市泰山區辭修路22號","121.429096666667","25.0581816666667","6501600","泰山區"
"243001","KEA-2216","2018/03/22 13:59:42","新北市泰山區泰林路二段260號","121.43175","25.0622816666667","6501600","泰山區"
"243005","646-TV","2018/03/22 13:59:38","新北市泰山區明志路三段341巷5弄15號","121.423315","25.0355283333333","6501600","泰山區"
"243008","680-BX","2018/03/22 13:59:35","新北市泰山區明志路二段137號","121.427633333333","25.0506983333333","6501600","泰山區"
"231002","002-UM","2018/03/22 13:59:31","新北市新店區復興路108-11號","121.532905","24.9910033333333","6500600","新店區"
"231025","0293-UT","2018/03/22 13:59:40","新北市新店區中正路275巷33號","121.536848333333","24.97295","6500600","新店區"
"231028","046-UY","2018/03/22 13:59:28","新北市新店區安和路三段118號","121.51691","24.9855266666667","6500600","新店區"
"231030","047-UY","2018/03/22 13:59:33","新北市新店區安興路7-1號","121.515061666667","24.9685033333333","6500600","新店區"
"231029","106-UY","2018/03/22 13:59:32","新北市新店區安光路2號","121.514213333333","24.963465","6500600","新店區"
"231018","107-UY","2018/03/22 13:59:28","新北市新店區中央路97號","121.5311","24.9750883333333","6500600","新店區"
"231011","108-UY","2018/03/22 13:59:39","新北市新店區中興路一段282號","121.545878333333","24.968335","6500600","新店區"
"231021","187-VK","2018/03/22 13:59:27","新北市新店區屈尺路83-2號","121.544546666667","24.9220983333333","6500600","新店區"
"231017","KEA-2219","2018/03/22 13:59:32","新北市新店區郵政路3巷2號","121.55734","24.951895","6500600","新店區"
"231026","256-BX","2018/03/22 13:59:36","新北市新店區安康路一段9-2號","121.533871666667","24.9607083333333","6500600","新店區"
"231023","AAD-862","2018/03/22 13:59:38","新北市新店區文中路43號","121.539686666667","24.9568633333333","6500600","新店區"
"231027","3712-VJ","2018/03/22 13:59:39","新北市新店區北宜路一段39巷20號","121.538796666667","24.9583916666667","6500600","新店區"
"231024","4716-K9","2018/03/22 13:59:42","新北市新店區力行路12號","121.539425","24.9646333333333","6500600","新店區"
"231038","4715-K9","2018/03/22 13:59:39","新北市新店區溪洲路101-1號","121.531823333333","24.9624966666667","6500600","新店區"
"231036","512-UM","2018/03/22 13:59:46","新北市新店區安祥路110巷47號","121.473253333333","24.9568933333333","6500600","新店區"
"231035","513-UM","2018/03/22 13:59:30","新北市新店區安康路二段85號","121.51348","24.96285","6500600","新店區"
"231006","617-UM","2018/03/22 13:59:26","新北市新店區北宜路二段219號","121.553351666667","24.9534583333333","6500600","新店區"
"231001","619-UM","2018/03/22 13:59:43","新北市新店區三民路24號","121.537218333333","24.9710066666667","6500600","新店區"
"231003","641-BX","2018/03/22 13:59:31","新北市新店區中興路一段24-2號","121.538526666667","24.9583416666667","6500600","新店區"
"231034","645-TV","2018/03/22 13:59:43","新北市新店區達觀路16號","121.503448333333","24.94045","6500600","新店區"
"231013","719-UM","2018/03/22 13:59:28","新北市新店區明德路64號","121.541578333333","24.9794383333333","6500600","新店區"
"231031","720-UM","2018/03/22 13:59:38","新北市新店區太平路28巷36號","121.533263333333","24.9591916666667","6500600","新店區"
"231005","897-TW","2018/03/22 13:59:32","新北市新店區寶中路51號","121.546775","24.9801683333333","6500600","新店區"
"231004","899-TW","2018/03/22 13:59:34","新北市新店區北新路二段109號","121.542881666667","24.9747216666667","6500600","新店區"
"231037","AKT-0513","2018/03/22 13:59:29","新北市新店區安康路三段207巷3號","121.487923333333","24.9512683333333","6500600","新店區"
"235030","003-UY","2018/03/22 13:59:41","新北市中和區中山路二段131巷5弄4號","121.502915","25.0028666666667","6500300","中和區"
"235028","005-UY","2018/03/22 13:59:43","新北市中和區泰和街48號","121.499091666667","24.9997633333333","6500300","中和區"
"235027","006-UY","2018/03/22 13:59:35","新北市中和區中正路546號","121.487243333333","24.99459","6500300","中和區"
"235020","096-UM","2018/03/22 13:59:28","新北市中和區員山路570號","121.478991666667","25.01114","6500300","中和區"
"235003","097-UM","2018/03/22 13:59:32","新北市中和區大智街34巷4號","121.521325","24.99187","6500300","中和區"
"235029","098-UM","2018/03/22 13:59:27","新北市中和區福祥路129號","121.498555","25.0071283333333","6500300","中和區"
"235004","150-BY","2018/03/22 13:56:32","新北市中和區保健路50巷2號","121.510355","24.9969133333333","6500300","中和區"
"235022","151-BY","2018/03/22 13:59:39","新北市中和區員山路75號","121.48067","24.9941283333333","6500300","中和區"
"235019","183-VK","2018/03/22 13:59:38","新北市中和區中山路三段229巷31號","121.46993","25.0059833333333","6500300","中和區"
"235002","185-VK","2018/03/22 13:59:41","新北市中和區大仁街19巷4號","121.517541666667","24.9932","6500300","中和區"
"235013","186-VK","2018/03/22 13:59:28","新北市中和區景新街206號","121.506506666667","24.9955416666667","6500300","中和區"
"235031","255-BX","2018/03/22 13:58:06","新北市中和區新生街174號","121.483693333333","25.0000033333333","6500300","中和區"
"235008","293-VK","2018/03/22 13:59:40","新北市中和區中興街161巷8弄1號","121.501038333333","24.9909216666667","6500300","中和區"
"235036","301-VK","2018/03/22 13:59:27","新北市中和區中山路二段181號","121.501058333333","25.0027683333333","6500300","中和區"
"235007","352-BY","2018/03/22 13:59:38","新北市中和區秀朗路三段107號","121.526475","24.9946683333333","6500300","中和區"
"235032","377-QA","2018/03/22 13:59:26","新北市中和區安邦街83號","121.496863333333","24.9966116666667","6500300","中和區"
"235025","378-QA","2018/03/22 13:59:39","新北市中和區民有街22-3號","121.475675","25.0052116666667","6500300","中和區"
"235035","269-TV","2018/03/22 13:59:25","新北市中和區中山路二段482巷39號","121.490438333333","25.0067583333333","6500300","中和區"
"235014","4979-A6","2018/03/22 13:59:39","新北市中和區華新街50巷3號","121.507716666667","24.9839383333333","6500300","中和區"
"235033","4980-A6","2018/03/22 13:59:37","新北市中和區景平路459巷1弄1號","121.500458333333","24.9964266666667","6500300","中和區"
"235006","551-UM","2018/03/22 13:59:37","新北市中和區秀朗路三段24-1號","121.52619","24.996315","6500300","中和區"
"235034","558-UM","2018/03/22 13:59:40","新北市中和區安和路189號","121.506195","24.9981683333333","6500300","中和區"
"235009","565-BX","2018/03/22 13:59:36","新北市中和區景新街467巷20弄166號","121.514445","24.98773","6500300","中和區"
"235018","640-BX","2018/03/22 13:59:34","新北市中和區民享街3號","121.473886666667","25.00577","6500300","中和區"
"235024","647-TV","2018/03/22 13:59:31","新北市中和區民治街7巷1-1號","121.475048333333","25.0047916666667","6500300","中和區"
"235011","732-UM","2018/03/22 13:59:30","新北市中和區興南路二段74巷8號","121.505246666667","24.9847233333333","6500300","中和區"
"235010","733-UM","2018/03/22 13:59:32","新北市中和區興南路一段135巷20號","121.509325","24.986975","6500300","中和區"
"235026","800-TS","2018/03/22 13:59:37","新北市中和區中山路二段346號","121.493218333333","25.0024516666667","6500300","中和區"
"235021","801-TS","2018/03/22 13:59:44","新北市中和區民利街56號","121.479023333333","24.9988016666667","6500300","中和區"
"235005","802-TS","2018/03/22 13:59:43","新北市中和區中安街58號","121.512725","25.002315","6500300","中和區"
"235016","805-TS","2018/03/22 13:59:35","新北市中和區興南路二段131-10號","121.504056666667","24.98075","6500300","中和區"
"235012","896-TW","2018/03/22 13:59:43","新北市中和區華新街35號","121.507758333333","24.9846833333333","6500300","中和區"
"235017","900-TW","2018/03/22 13:59:45","新北市中和區壽德街18-1號","121.46609","24.9949083333333","6500300","中和區"
"235017","911-UM","2018/03/22 13:59:27","新北市中和區中山路二段228號","121.499","25.0029883333333","6500300","中和區"
"235015","157-BY","2018/03/22 13:59:33","新北市中和區忠孝街13號","121.51003","24.9828066666667","6500300","中和區"
"235001","AAC-213","2018/03/22 13:59:25","新北市中和區秀朗路三段10巷37弄1號","121.524191666667","24.99605","6500300","中和區"
"235023","AAC-215","2018/03/22 13:59:34","新北市中和區圓通路296巷4弄1號","121.487958333333","24.9894683333333","6500300","中和區"
"220034","073-UY","2018/03/22 13:59:38","新北市板橋區中正路170號","121.456466666667","25.0170683333333","6500100","板橋區"
"247013","546-UM","2018/03/22 13:59:40","新北市蘆洲區中正路102號","121.469695","25.0844366666667","6501400","蘆洲區"
"247009","341-TH","2018/03/22 13:59:32","新北市蘆洲區集賢路224巷13號","121.481941666667","25.0867916666667","6501400","蘆洲區"
"247011","339-TH","2018/03/22 13:59:35","新北市蘆洲區民族路152號","121.479558333333","25.0860583333333","6501400","蘆洲區"
"247005","336-TH","2018/03/22 13:59:27","新北市蘆洲區永安南路二段50號","121.466096666667","25.0776233333333","6501400","蘆洲區"
"247003","335-TH","2018/03/22 13:59:38","新北市蘆洲區長榮路39號","121.463211666667","25.0825633333333","6501400","蘆洲區"
"247017","057-VK","2018/03/22 13:57:00","新北市蘆洲區民族路263巷24號","121.475771666667","25.0898833333333","6501400","蘆洲區"
"247007","056-VK","2018/03/22 13:59:31","新北市蘆洲區重陽一街3號","121.48176","25.0814383333333","6501400","蘆洲區"
"247015","007-UY","2018/03/22 13:59:35","新北市蘆洲區光華路40號","121.469026666667","25.08317","6501400","蘆洲區"
"247001","002-UY","2018/03/22 13:59:33","新北市蘆洲區永平街32巷70號","121.460393333333","25.0934133333333","6501400","蘆洲區"
"247019","001-UY","2018/03/22 13:59:33","新北市蘆洲區民族路422巷50號","121.473648333333","25.0930433333333","6501400","蘆洲區"
"228005","097-TW","2018/03/22 13:54:05","新北市貢寮區美豐里雞母嶺街52-1號","121.88884","25.0681416666667","6502600","貢寮區"
"228004","212-TW","2018/03/22 13:59:32","新北市貢寮區龍崗里嵩陽街35-1號","121.906695","25.01752","6502600","貢寮區"
"253001","4710-YM","2018/03/22 13:59:32","新北市石門區下員坑49號","121.517853333333","25.2732733333333","6502200","石門區"
"253003","6232-TK","2018/03/22 13:59:42","新北市石門區尖子鹿8-1號","121.575228333333","25.2799616666667","6502200","石門區"
"253002","637-UY","2018/03/22 13:59:27","新北市石門區七股33-1號","121.552725","25.2612883333333","6502200","石門區"
"253004","8270-PC","2018/03/22 13:59:38","新北市石門區草埔尾27-1號","121.60378","25.2645383333333","6502200","石門區"
"207002","749-BX","2018/03/22 13:59:32","新北市萬里區溪底里富士坪路21號","121.627761666667","25.1489733333333","6502800","萬里區"
"207001","662-BX","2018/03/22 13:59:29","新北市萬里區磺潭里清水18號","121.637871666667","25.1976866666667","6502800","萬里區"
"252005","AAC-283","2018/03/22 13:59:39","新北市三芝區橫山里大坑70-3號","121.533828333333","25.2544183333333","6502100","三芝區"
"236066","105-UM","2018/03/22 13:59:42","新北市土城區金城路二段58號","121.452321666667","24.9795683333333","6501300","土城區"
"236040","107-UM","2018/03/22 13:59:43","新北市土城區城林路6巷80號","121.438218333333","24.9797116666667","6501300","土城區"
"236076","166-UM","2018/03/22 13:59:42","新北市土城區永寧路35號","121.430103333333","24.962115","6501300","土城區"
"236028","253-BX","2018/03/22 13:59:39","新北市土城區中央路三段59號","121.438865","24.9695666666667","6501300","土城區"
"236024","269-VK","2018/03/22 13:59:27","新北市土城區中央路二段276-1號","121.44082","24.9743616666667","6501300","土城區"
"236012","270-VK","2018/03/22 13:59:30","新北市土城區中央路二段61巷56號","121.44467","24.978345","6501300","土城區"
"236033","271-VK","2018/03/22 13:59:30","新北市土城區員福街50號","121.44063","24.9790266666667","6501300","土城區"
"236018","401-BY","2018/03/22 13:59:33","新北市土城區亞洲路46巷22號","121.434786666667","24.9748816666667","6501300","土城區"
"236005","498-BY","2018/03/22 13:59:29","新北市土城區中央路一段260號","121.444235","24.98424","6501300","土城區"
"236056","912-UM","2018/03/22 13:59:31","新北市土城區中央路三段188號","121.430471666667","24.964945","6501300","土城區"
"236047","913-UM","2018/03/22 13:59:44","新北市土城區學士路123號","121.446298333333","24.97584","6501300","土城區"
"236060","915-UM","2018/03/22 13:59:32","新北市土城區中央路二段276-1號","121.440805","24.9743283333333","6501300","土城區"
"236052","AAC-216","2018/03/22 13:59:40","新北市土城區亞洲路58巷5弄6號","121.434025","24.9742116666667","6501300","土城區"
"220027","145-BY","2018/03/22 13:59:36","新北市板橋區民權路202巷5弄5號","121.459691666667","25.01465","6500100","板橋區"
"220028","200-UY","2018/03/22 13:59:33","新北市板橋區大觀路二段力行3巷1-1號","121.445961666667","24.995625","6500100","板橋區"
"220105","KEA-2550","2018/03/22 13:59:29","新北市板橋區莊敬路66號","121.471696666667","25.0254866666667","6500100","板橋區"
"220030","610-BX","2018/03/22 13:59:32","新北市板橋區滿平街76號","121.427483333333","24.9892133333333","6500100","板橋區"
"220050","245-BX","2018/03/22 13:59:39","新北市板橋區文化路二段182巷3弄2號","121.471521666667","25.027115","6500100","板橋區"
"220003","256-TC","2018/03/22 13:59:40","新北市板橋區中山路一段158巷14-3號","121.466185","25.0115","6500100","板橋區"
"220004","276-BY","2018/03/22 13:59:45","新北市板橋區信義路148號","121.458908333333","24.9917516666667","6500100","板橋區"
"220020","277-BY","2018/03/22 13:59:35","新北市板橋區篤行路一段29號","121.431986666667","24.9945216666667","6500100","板橋區"
"220043","280-UM","2018/03/22 13:59:39","新北市板橋區文化路二段37號","121.468855","25.0249133333333","6500100","板橋區"
"220012","282-UM","2018/03/22 13:59:46","新北市板橋區縣民大道二段122號","121.467523333333","25.015705","6500100","板橋區"
"220019","283-VK","2018/03/22 13:59:36","新北市板橋區忠孝路153號","121.463581666667","25.0024316666667","6500100","板橋區"
"220001","285-VK","2018/03/22 13:59:33","新北市板橋區中山路二段89巷31號","121.473738333333","25.0168566666667","6500100","板橋區"
"220031","286-VK","2018/03/22 13:59:30","新北市板橋區大觀路一段38巷176號","121.441653333333","25.0046733333333","6500100","板橋區"
"220029","287-VK","2018/03/22 13:59:43","新北市板橋區光華街19巷80號","121.452546666667","25.0118333333333","6500100","板橋區"
"220039","288-VK","2018/03/22 13:59:24","新北市板橋區四維路177巷2弄2號","121.46413","25.026295","6500100","板橋區"
"220009","293-UM","2018/03/22 13:59:35","新北市板橋區永豐街120巷2弄2號","121.476546666667","25.020525","6500100","板橋區"
"220032","296-UM","2018/03/22 13:59:27","新北市板橋區龍興街2號","121.44271","24.9993316666667","6500100","板橋區"
"220023","303-R5","2018/03/22 13:59:45","新北市板橋區館前西路261號","121.454025","25.0087366666667","6500100","板橋區"
"220010","305-R5","2018/03/22 13:59:30","新北市板橋區三民路二段245巷4弄10號","121.480945","25.011825","6500100","板橋區"
"220041","307-R5","2018/03/22 13:59:34","新北市板橋區文化路一段104巷1弄5號","121.465248333333","25.0179783333333","6500100","板橋區"
"220047","317-R6","2018/03/22 13:59:38","新北市板橋區民有街31號","121.465946666667","25.0253716666667","6500100","板橋區"
"220004","461-BY","2018/03/22 13:59:39","新北市板橋區中正路1巷14號","121.455298333333","25.0116183333333","6500100","板橋區"
"220038","487-VK","2018/03/22 13:59:32","新北市板橋區文化路二段294號","121.471893333333","25.029365","6500100","板橋區"
"220037","491-VK","2018/03/22 13:59:40","新北市板橋區民生路二段120號","121.470403333333","25.020095","6500100","板橋區"
"220104","560-BX","2018/03/22 13:59:40","新北市板橋區中正路375巷27號","121.453775","25.020165","6500100","板橋區"
"220052","561-BX","2018/03/22 13:59:43","新北市板橋區縣民大道二段279號","121.469953333333","25.017925","6500100","板橋區"
"220013","568-UM","2018/03/22 13:59:33","新北市板橋區漢生東路344號","121.471991666667","25.0075183333333","6500100","板橋區"
"220011","609-BX","2018/03/22 13:59:39","新北市板橋區中山路二段135號","121.475165","25.0165233333333","6500100","板橋區"
"220040","637-BX","2018/03/22 13:59:39","新北市板橋區雙十路二段47巷38號","121.475195","25.025665","6500100","板橋區"
"220005","686-BX","2018/03/22 13:59:28","新北市板橋區館前東路80號","121.461696666667","25.0073266666667","6500100","板橋區"
"220025","687-BX","2018/03/22 13:59:33","新北市板橋區大觀路二段431-1號","121.441255","24.9947316666667","6500100","板橋區"
"220042","689-BX","2018/03/22 13:59:29","新北市板橋區民生路三段20號","121.467465","25.0244366666667","6500100","板橋區"
"220002","741-BX","2018/03/22 13:59:29","新北市板橋區景福路1號","121.460736666667","25.0054033333333","6500100","板橋區"
"220051","KEA-2699","2018/03/22 13:59:25","新北市板橋區萬板路706號","121.481623333333","25.027295","6500100","板橋區"
"220014","829-TW","2018/03/22 13:59:39","新北市板橋區三民路二段正隆巷12弄17-3號","121.477523333333","25.0135316666667","6500100","板橋區"
"220016","830-TW","2018/03/22 13:59:40","新北市板橋區中山路二段443巷68號","121.481146666667","25.0219716666667","6500100","板橋區"
"220045","831-TW","2018/03/22 13:59:36","新北市板橋區莒光路103號","121.47264","25.0240666666667","6500100","板橋區"
"220022","895-R6","2018/03/22 13:59:33","新北市板橋區館前西路156-1號","121.45507","25.0085683333333","6500100","板橋區"
"220021","985-R7","2018/03/22 13:59:33","新北市板橋區館前西路209號","121.454988333333","25.0083683333333","6500100","板橋區"
"220046","AAC-210","2018/03/22 13:59:34","新北市板橋區四維路137巷25號","121.463956666667","25.0247933333333","6500100","板橋區"
"220018","AAC-253","2018/03/22 13:59:26","新北市板橋區四川路一段337號","121.4585","25.0001166666667","6500100","板橋區"
