"lineid","car","time","location","longitude","latitude","cityid","cityname"
"234044","148-BY","2018/03/22 14:09:42","新北市永和區得和路395號","121.525396666667","24.9992533333333","6500400","永和區"
"234005","207-UY","2018/03/22 14:09:35","新北市中和區中和路298號","121.508706666667","24.999835","6500400","永和區"
"234078","298-R6","2018/03/22 14:09:39","新北市永和區永亨路107號","121.523325","25.0047933333333","6500400","永和區"
"234036","336-UY","2018/03/22 14:09:29","新北市永和區成功路一段47巷1號","121.52724","25.004095","6500400","永和區"
"234062","337-UY","2018/03/22 14:09:38","新北市永和區永利路152號","121.522481666667","25.0026866666667","6500400","永和區"
"234084","338-UY","2018/03/22 14:09:28","新北市永和區中正路557號","121.516735","25.0083616666667","6500400","永和區"
"234068","552-UM","2018/03/22 14:09:24","新北市永和區福和路247號","121.518158333333","25.0075","6500400","永和區"
"234015","745-BX","2018/03/22 14:09:32","新北市永和區文化路38號","121.514916666667","25.0151716666667","6500400","永和區"
"234028","746-BX","2018/03/22 14:09:35","新北市永和區民生路22巷15號","121.521641666667","24.9971433333333","6500400","永和區"
"234052","KEA-2590","2018/03/22 14:09:40","新北市永和區博愛街31巷2號","121.518463333333","25.0158683333333","6500400","永和區"
"234012","KEA-2591","2018/03/22 14:09:40","新北市永和區中山路一段214號","121.50827","25.0085466666667","6500400","永和區"
"234060","AAD-866","2018/03/22 14:09:36","新北市中和區安平路222號","121.514053333333","25.0000733333333","6500400","永和區"
"234040","862-TW","2018/03/22 14:09:40","新北市永和區雙和街41號","121.508886666667","25.0024633333333","6500400","永和區"
"234048","863-TW","2018/03/22 14:09:43","新北市永和區環河西路二段95號","121.506458333333","25.0149083333333","6500400","永和區"
"234025","9371-KE","2018/03/22 14:09:36","新北市永和區安樂路272巷9弄7號","121.515111666667","25.0046116666667","6500400","永和區"
"234010","9373-KE","2018/03/22 14:09:26","新北市永和區環河西路二段245-1號","121.500565","25.009135","6500400","永和區"
"248015","026-BX","2018/03/22 14:09:42","新北市五股區成泰路三段543巷54號","121.449646666667","25.103055","6501500","五股區"
"248007","095-VK","2018/03/22 14:09:40","新北市五股區中興路一段118巷22號","121.466045","25.074495","6501500","五股區"
"248017","225-UY","2018/03/22 14:09:41","新北市五股區民義路一段224號","121.429403333333","25.0908033333333","6501500","五股區"
"248011","247-BX","2018/03/22 14:09:37","新北市五股區工商路38號","121.439406666667","25.083745","6501500","五股區"
"248003","677-BX","2018/03/22 14:09:43","新北市五股區六合街3號","121.431921666667","25.0886116666667","6501500","五股區"
"248001","678-BX","2018/03/22 14:09:29","新北市五股區成泰路三段577巷50號","121.450813333333","25.103255","6501500","五股區"
"248009","682-TV","2018/03/22 14:09:28","新北市五股區水碓一路23號","121.430633333333","25.0713016666667","6501500","五股區"
"234022","9380-KE","2018/03/22 14:09:28","新北市永和區永和路二段168號","121.515466666667","25.01306","6500400","永和區"
"234076","969-R7","2018/03/22 14:09:34","新北市永和區民族街67巷20號","121.519603333333","24.9971466666667","6500400","永和區"
"234072","AAC-211","2018/03/22 14:09:24","新北市永和區豫溪街160巷2號","121.523271666667","25.00955","6500400","永和區"
"234066","AAC-212","2018/03/22 14:09:42","新北市永和區保平路236巷6號","121.508728333333","25.00611","6500400","永和區"
"234001","AAC-295","2018/03/22 14:09:29","新北市永和區永和路二段8號","121.51451","25.0101666666667","6500400","永和區"
"244003","248-BX","2018/03/22 14:09:23","新北市林口區嘉溪雅坑5-8號","121.344765","25.1004983333333","6501700","林口區"
"243004","AAD-798","2018/03/22 14:09:33","新北市泰山區辭修路36巷1弄5號","121.428301666667","25.058125","6501600","泰山區"
"243003","297-R6","2018/03/22 14:09:40","新北市泰山區明志路二段372巷2號","121.425395","25.045045","6501600","泰山區"
"243007","380-SR","2018/03/22 14:09:32","新北市泰山區明志路一段393號","121.430798333333","25.057505","6501600","泰山區"
"243006","421-VK","2018/03/22 14:09:28","新北市泰山區泰林路二段429號","121.42635","25.064135","6501600","泰山區"
"243002","KEA-2215","2018/03/22 14:09:33","新北市泰山區明志路一段483巷1弄1號","121.43109","25.05547","6501600","泰山區"
"243001","KEA-2216","2018/03/22 14:09:42","新北市泰山區楓樹街15巷1-2號","121.43504","25.0630466666667","6501600","泰山區"
"243005","646-TV","2018/03/22 14:09:38","新北市泰山區台麗街13巷1號","121.42457","25.0382733333333","6501600","泰山區"
"243008","680-BX","2018/03/22 14:09:35","新北市泰山區明志路二段331號","121.425675","25.0448116666667","6501600","泰山區"
"231002","002-UM","2018/03/22 14:09:34","新北市新店區中正路542-10號","121.533731666667","24.9848816666667","6500600","新店區"
"231025","0293-UT","2018/03/22 14:09:40","新北市新店區中正路328巷42弄8號","121.538418333333","24.9760666666667","6500600","新店區"
"231028","046-UY","2018/03/22 14:09:28","新北市新店區安業街2號","121.515591666667","24.9789133333333","6500600","新店區"
"231030","047-UY","2018/03/22 14:09:33","新北市新店區安民街65巷21-2號","121.515238333333","24.9674933333333","6500600","新店區"
"231029","106-UY","2018/03/22 14:09:32","新北市新店區安康路二段161號","121.510275","24.9593733333333","6500600","新店區"
"231018","107-UY","2018/03/22 14:09:28","新北市新店區中央五街15號","121.529623333333","24.97435","6500600","新店區"
"231011","108-UY","2018/03/22 14:09:39","新北市新店區五峰路63巷8弄74號","121.547955","24.9684783333333","6500600","新店區"
"231021","187-VK","2018/03/22 14:09:27","新北市新店區新烏路三段1號","121.551651666667","24.9072283333333","6500600","新店區"
"231017","KEA-2219","2018/03/22 14:09:32","新北市新店區北宜路二段150-2號","121.557998333333","24.9540466666667","6500600","新店區"
"231023","AAD-862","2018/03/22 14:09:38","新北市新店區文中路37號","121.539185","24.9568816666667","6500600","新店區"
"231027","3712-VJ","2018/03/22 14:09:39","新北市新店區光明街138巷13弄5號","121.540186666667","24.9614583333333","6500600","新店區"
"231038","4715-K9","2018/03/22 14:09:39","新北市新店區溪洲路101-1號","121.531828333333","24.9625033333333","6500600","新店區"
"231036","512-UM","2018/03/22 14:09:26","新北市新店區安祥路109巷3弄42號","121.476746666667","24.9605583333333","6500600","新店區"
"231035","513-UM","2018/03/22 14:09:30","新北市新店區安和路一段52巷2-1號","121.517708333333","24.9663116666667","6500600","新店區"
"231006","617-UM","2018/03/22 14:09:46","新北市新店區北宜路二段208號","121.559348333333","24.9543166666667","6500600","新店區"
"231001","619-UM","2018/03/22 14:09:43","新北市新店區中華路52號","121.539595","24.9685833333333","6500600","新店區"
"231003","641-BX","2018/03/22 14:09:42","新北市新店區中興路一段194號","121.543468333333","24.9651733333333","6500600","新店區"
"231034","645-TV","2018/03/22 14:09:23","新北市新店區黎明路3號","121.503516666667","24.95245","6500600","新店區"
"231013","719-UM","2018/03/22 14:09:43","新北市新店區北新路三段65巷34弄1號","121.540035","24.9812883333333","6500600","新店區"
"231031","720-UM","2018/03/22 14:00:47","新北市新店區太平路16號","121.533858333333","24.9582983333333","6500600","新店區"
"231005","897-TW","2018/03/22 14:09:32","新北市新店區中興路三段304號","121.542333333333","24.9852866666667","6500600","新店區"
"231004","899-TW","2018/03/22 14:09:34","新北市新店區北新路二段216號","121.542875","24.9769933333333","6500600","新店區"
"231037","AKT-0513","2018/03/22 14:09:29","新北市新店區安康路二段341巷36號","121.496746666667","24.95437","6500600","新店區"
"235030","003-UY","2018/03/22 14:09:41","新北市中和區廣福路36號","121.504475","25.0023366666667","6500300","中和區"
"235028","005-UY","2018/03/22 14:09:43","新北市中和區泰和街38巷29號","121.49855","25.00113","6500300","中和區"
"235027","006-UY","2018/03/22 14:09:35","新北市中和區連勝街177巷3號","121.493805","24.9968066666667","6500300","中和區"
"235020","096-UM","2018/03/22 14:09:28","新北市中和區中正路1173號","121.480783333333","25.0098666666667","6500300","中和區"
"235003","097-UM","2018/03/22 14:09:32","新北市中和區景平路3號","121.523701666667","24.9902766666667","6500300","中和區"
"235029","098-UM","2018/03/22 14:09:27","新北市中和區中山路二段116巷5弄7號","121.502288333333","25.0040516666667","6500300","中和區"
"235004","150-BY","2018/03/22 14:09:37","新北市中和區宜安路117號","121.51002","24.9978333333333","6500300","中和區"
"235022","151-BY","2018/03/22 14:09:39","新北市中和區員山路143巷14-3號","121.480396666667","24.9961116666667","6500300","中和區"
"235019","183-VK","2018/03/22 14:09:38","新北市中和區德光路132號","121.46807","25.0032633333333","6500300","中和區"
"235002","185-VK","2018/03/22 14:09:17","新北市中和區大仁街10巷21號","121.518813333333","24.992565","6500300","中和區"
"235013","186-VK","2018/03/22 14:09:28","新北市中和區景新街235號","121.50809","24.9945616666667","6500300","中和區"
"235031","255-BX","2018/03/22 14:09:26","新北市中和區新生街174號","121.483636666667","24.9999766666667","6500300","中和區"
"235008","293-VK","2018/03/22 14:09:40","新北市中和區中興街222-6號","121.500665","24.9896233333333","6500300","中和區"
"235036","301-VK","2018/03/22 14:09:27","新北市中和區莊敬路33巷20號","121.500245","25.005465","6500300","中和區"
"235007","352-BY","2018/03/22 14:09:38","新北市中和區景平路120號","121.51929","24.9916983333333","6500300","中和區"
"235032","377-QA","2018/03/22 14:09:26","新北市中和區圓通路158巷2號","121.49768","24.9961283333333","6500300","中和區"
"235025","378-QA","2018/03/22 14:09:39","新北市中和區員山路167號","121.481046666667","24.9968433333333","6500300","中和區"
"235035","269-TV","2018/03/22 14:09:45","新北市中和區立德街98巷68號","121.488368333333","25.0085266666667","6500300","中和區"
"235014","4979-A6","2018/03/22 14:09:39","新北市中和區復興路280巷36弄8號","121.501756666667","24.9920683333333","6500300","中和區"
"235033","4980-A6","2018/03/22 14:09:37","新北市中和區中和路217巷1弄9號","121.503583333333","25.0003933333333","6500300","中和區"
"235006","551-UM","2018/03/22 14:09:37","新北市中和區自立路16巷8號","121.521361666667","24.9935883333333","6500300","中和區"
"235034","558-UM","2018/03/22 14:09:40","新北市中和區枋寮街2號","121.502558333333","24.9998116666667","6500300","中和區"
"235009","565-BX","2018/03/22 14:09:36","新北市中和區景新街467巷35弄7號","121.514343333333","24.9890116666667","6500300","中和區"
"235018","640-BX","2018/03/22 14:09:34","新北市中和區國光街107巷4弄14-4號","121.470051666667","24.9994266666667","6500300","中和區"
"235024","647-TV","2018/03/22 14:09:30","新北市中和區中山路三段113號","121.474643333333","25.006115","6500300","中和區"
"235011","732-UM","2018/03/22 14:09:33","新北市中和區興南路一段58號","121.510895","24.99052","6500300","中和區"
"235010","733-UM","2018/03/22 14:09:28","新北市中和區忠孝街1巷7號","121.508693333333","24.9834783333333","6500300","中和區"
"235026","800-TS","2018/03/22 14:09:37","新北市中和區中山路二段380巷2號","121.490945","25.0043533333333","6500300","中和區"
"235021","801-TS","2018/03/22 14:09:44","新北市中和區民利街48號","121.479381666667","24.9987883333333","6500300","中和區"
"235005","802-TS","2018/03/22 14:09:43","新北市中和區中安街178巷13弄1號","121.51029","24.9986883333333","6500300","中和區"
"235016","805-TS","2018/03/22 14:09:35","新北市中和區興南路二段114巷21弄2號","121.503675","24.9844483333333","6500300","中和區"
"235012","896-TW","2018/03/22 14:09:23","新北市中和區華新街143巷55弄30號","121.507793333333","24.9803333333333","6500300","中和區"
"235017","900-TW","2018/03/22 14:09:24","新北市中和區民德路274號","121.467615","24.9965433333333","6500300","中和區"
"235017","911-UM","2018/03/22 14:09:27","新北市中和區中山路二段2巷45弄44號","121.501798333333","25.00641","6500300","中和區"
"235015","157-BY","2018/03/22 14:09:33","新北市中和區景新街410巷18號","121.512393333333","24.9890833333333","6500300","中和區"
"235001","AAC-213","2018/03/22 14:09:26","新北市中和區秀朗路三段93號","121.526596666667","24.995245","6500300","中和區"
"235023","AAC-215","2018/03/22 14:09:34","新北市中和區圓通路367巷2號","121.491245","24.9894083333333","6500300","中和區"
"220034","073-UY","2018/03/22 14:09:44","新北市板橋區中正路236巷67號","121.458718333333","25.0195216666667","6500100","板橋區"
"220017","AAD-861","2018/03/22 14:09:36","新北市板橋區貴興路8號","121.45771","25.0043983333333","6500100","板橋區"
"247023","893-R6","2018/03/22 14:09:25","新北市蘆洲區光榮路112號","121.464656666667","25.0887983333333","6501400","蘆洲區"
"247013","546-UM","2018/03/22 14:09:40","新北市蘆洲區忠孝路92號","121.471421666667","25.08584","6501400","蘆洲區"
"247021","500-BY","2018/03/22 14:09:37","新北市蘆洲區三民路142號","121.470578333333","25.0877933333333","6501400","蘆洲區"
"247011","339-TH","2018/03/22 14:09:35","新北市蘆洲區信義路252號","121.478316666667","25.0865666666667","6501400","蘆洲區"
"247005","336-TH","2018/03/22 14:09:27","新北市蘆洲區九芎街58號","121.467183333333","25.0788483333333","6501400","蘆洲區"
"247003","335-TH","2018/03/22 14:09:38","新北市蘆洲區中華街6巷26號","121.462833333333","25.0821583333333","6501400","蘆洲區"
"247017","057-VK","2018/03/22 14:09:40","新北市蘆洲區民族路227巷18號","121.47701","25.0891283333333","6501400","蘆洲區"
"247007","056-VK","2018/03/22 14:09:31","新北市蘆洲區中山一路293-1號","121.471585","25.07922","6501400","蘆洲區"
"247015","007-UY","2018/03/22 14:09:35","新北市蘆洲區中正路185巷19號","121.46748","25.084825","6501400","蘆洲區"
"247001","002-UY","2018/03/22 14:09:33","新北市蘆洲區永平街55號","121.45767","25.0914283333333","6501400","蘆洲區"
"247019","001-UY","2018/03/22 14:09:33","新北市蘆洲區民族路426巷48號","121.472956666667","25.0934216666667","6501400","蘆洲區"
"228005","097-TW","2018/03/22 14:09:45","新北市貢寮區美豐里土地公嶺23號","121.888608333333","25.0610233333333","6502600","貢寮區"
"228004","212-TW","2018/03/22 14:09:32","新北市貢寮區雙玉里下雙溪街7號","121.914258333333","25.0155783333333","6502600","貢寮區"
"253001","4710-YM","2018/03/22 14:09:32","新北市石門區八甲75-1號","121.529966666667","25.2635516666667","6502200","石門區"
"253003","6232-TK","2018/03/22 14:09:42","新北市石門區尖子鹿54-2號","121.581893333333","25.2734166666667","6502200","石門區"
"253002","637-UY","2018/03/22 14:09:27","新北市石門區大丘田51號","121.550171666667","25.271745","6502200","石門區"
"253004","8270-PC","2018/03/22 14:09:24","新北市石門區小坑40號","121.599016666667","25.2653333333333","6502200","石門區"
"207002","749-BX","2018/03/22 14:09:32","新北市萬里區溪底里瑞泉路9號","121.603355","25.14404","6502800","萬里區"
"207001","662-BX","2018/03/22 14:09:29","新北市萬里區磺潭里清水18號","121.63798","25.1976","6502800","萬里區"
"252005","AAC-283","2018/03/22 14:09:39","新北市三芝區橫山里橫山23-6號","121.540631666667","25.26272","6502100","三芝區"
"236066","105-UM","2018/03/22 14:09:42","新北市土城區明德路一段130號","121.463631666667","24.9791416666667","6501300","土城區"
"236040","107-UM","2018/03/22 14:09:23","新北市土城區中央路一段289-1號","121.444275","24.9842466666667","6501300","土城區"
"236076","166-UM","2018/03/22 14:09:42","新北市土城區永和街5號","121.434613333333","24.96506","6501300","土城區"
"236028","253-BX","2018/03/22 14:09:39","新北市土城區興城路79號","121.439931666667","24.9707316666667","6501300","土城區"
"236024","269-VK","2018/03/22 14:09:27","新北市土城區承天路18號","121.439361666667","24.96354","6501300","土城區"
"236012","270-VK","2018/03/22 14:09:30","新北市土城區青雲路39巷7號","121.460316666667","24.9875316666667","6501300","土城區"
"236033","271-VK","2018/03/22 14:09:30","新北市土城區青雲路449-1號","121.458866666667","24.9747483333333","6501300","土城區"
"236018","401-BY","2018/03/22 14:09:33","新北市土城區中央路二段280號","121.440643333333","24.97404","6501300","土城區"
"236005","498-BY","2018/03/22 14:09:29","新北市土城區中華路一段10-1號","121.448036666667","24.9906933333333","6501300","土城區"
"236056","912-UM","2018/03/22 14:09:31","新北市土城區中央路四段88號","121.418711666667","24.9593666666667","6501300","土城區"
"236047","913-UM","2018/03/22 14:09:24","新北市土城區明德路一段365-1號","121.453565","24.97905","6501300","土城區"
"236060","915-UM","2018/03/22 14:09:32","新北市土城區金城路二段208號","121.455243333333","24.9820483333333","6501300","土城區"
"236052","AAC-216","2018/03/22 14:09:40","新北市土城區中華路二段100號","121.438095","24.9744033333333","6501300","土城區"
"220027","145-BY","2018/03/22 14:09:36","新北市板橋區民權路202巷12弄1號","121.460581666667","25.0157166666667","6500100","板橋區"
"220028","200-UY","2018/03/22 14:09:38","新北市板橋區大觀路二段3巷3號","121.447475","25.0038066666667","6500100","板橋區"
"220105","KEA-2550","2018/03/22 14:09:29","新北市板橋區文化路二段263巷20號","121.471181666667","25.0297733333333","6500100","板橋區"
"220030","610-BX","2018/03/22 14:09:32","新北市板橋區溪北路49號","121.427695","24.9900366666667","6500100","板橋區"
"220050","245-BX","2018/03/22 14:09:39","新北市板橋區民生路二段177號","121.469605","25.020195","6500100","板橋區"
"220003","256-TC","2018/03/22 14:09:42","新北市板橋區新民街13號","121.463961666667","25.0098916666667","6500100","板橋區"
"220004","276-BY","2018/03/22 14:09:25","新北市板橋區信義路150巷16號","121.458235","24.9918033333333","6500100","板橋區"
"220020","277-BY","2018/03/22 14:09:41","新北市板橋區金門街369巷81號","121.428446666667","24.9826716666667","6500100","板橋區"
"220043","280-UM","2018/03/22 14:09:44","新北市板橋區光武街151號","121.465473333333","25.02943","6500100","板橋區"
"220012","282-UM","2018/03/22 14:09:31","新北市板橋區民生路一段55號","121.475228333333","25.012815","6500100","板橋區"
"220019","283-VK","2018/03/22 14:09:39","新北市板橋區重慶路327巷17號","121.464586666667","24.9986583333333","6500100","板橋區"
"220001","285-VK","2018/03/22 14:09:43","新北市板橋區懷仁街14巷17號","121.475698333333","25.0195566666667","6500100","板橋區"
"220031","286-VK","2018/03/22 14:09:29","新北市板橋區大觀路二段174巷173弄2號","121.441768333333","25.003735","6500100","板橋區"
"220029","287-VK","2018/03/22 14:09:34","新北市板橋區南雅西路二段156巷47號","121.4524","25.012885","6500100","板橋區"
"220039","288-VK","2018/03/22 14:09:44","新北市板橋區四維路291巷6號","121.462078333333","25.0282833333333","6500100","板橋區"
"220009","293-UM","2018/03/22 14:09:35","新北市板橋區中山路二段311號","121.478891666667","25.0184566666667","6500100","板橋區"
"220032","296-UM","2018/03/22 14:09:39","新北市板橋區溪崑一街45號","121.430186666667","24.9910633333333","6500100","板橋區"
"220023","303-R5","2018/03/22 14:09:24","新北市板橋區北門街61號","121.456008333333","25.011945","6500100","板橋區"
"220010","305-R5","2018/03/22 14:09:30","新北市板橋區三民路二段209號","121.479275","25.012945","6500100","板橋區"
"220041","307-R5","2018/03/22 14:09:34","新北市板橋區文化路二段225巷60弄46號","121.469143333333","25.0294983333333","6500100","板橋區"
"220047","317-R6","2018/03/22 14:09:38","新北市板橋區自由路51巷7號","121.465111666667","25.0234133333333","6500100","板橋區"
"220004","461-BY","2018/03/22 14:09:39","新北市板橋區公館街18號","121.457041666667","25.01238","6500100","板橋區"
"220038","487-VK","2018/03/22 14:09:39","新北市板橋區文化路二段389號","121.473616666667","25.0315066666667","6500100","板橋區"
"220037","491-VK","2018/03/22 14:09:40","新北市板橋區莊敬路48-2號","121.472693333333","25.0270583333333","6500100","板橋區"
"220104","560-BX","2018/03/22 14:09:40","新北市板橋區瑞安街31巷1號","121.45567","25.0227983333333","6500100","板橋區"
"220052","561-BX","2018/03/22 14:09:43","新北市板橋區文化路一段188巷9弄31號","121.468906666667","25.0192483333333","6500100","板橋區"
"220013","568-UM","2018/03/22 14:09:33","新北市板橋區民族路219巷7號","121.469335","25.0079383333333","6500100","板橋區"
"220011","609-BX","2018/03/22 14:09:39","新北市板橋區三民路二段67號","121.479481666667","25.01713","6500100","板橋區"
"220040","637-BX","2018/03/22 14:09:39","新北市板橋區縣民大道三段245巷17號","121.480861666667","25.0264633333333","6500100","板橋區"
"220005","686-BX","2018/03/22 14:09:35","新北市板橋區重慶路237號","121.463015","25.0008133333333","6500100","板橋區"
"220025","687-BX","2018/03/22 14:09:33","新北市板橋區大觀路一段38巷1號","121.443551666667","25.00436","6500100","板橋區"
"220042","689-BX","2018/03/22 14:09:29","新北市板橋區民生路三段257號","121.46431","25.0292633333333","6500100","板橋區"
"220002","741-BX","2018/03/22 14:09:29","新北市板橋區重慶路89巷53號","121.463415","25.00655","6500100","板橋區"
"220051","KEA-2699","2018/03/22 14:09:45","新北市板橋區田單街51號","121.48261","25.027945","6500100","板橋區"
"220014","829-TW","2018/03/22 14:09:39","新北市板橋區民享街116巷2弄13號","121.477421666667","25.0154133333333","6500100","板橋區"
"220016","830-TW","2018/03/22 14:09:40","新北市板橋區翠華街6巷1弄3號","121.480921666667","25.02403","6500100","板橋區"
"220045","831-TW","2018/03/22 14:09:36","新北市板橋區雙十路二段47巷6號","121.476181666667","25.026105","6500100","板橋區"
"220022","895-R6","2018/03/22 14:09:33","新北市板橋區後菜園街54號","121.456061666667","25.010115","6500100","板橋區"
"220021","985-R7","2018/03/22 14:09:33","新北市板橋區中正路157號","121.456575","25.0160383333333","6500100","板橋區"
"220046","AAC-210","2018/03/22 14:09:34","新北市板橋區英士路151號","121.460061666667","25.0239916666667","6500100","板橋區"
"220018","AAC-253","2018/03/22 14:09:26","新北市板橋區忠孝路41-1號","121.461228333333","25.0020266666667","6500100","板橋區"
