"lineid","car","time","location","longitude","latitude","cityid","cityname"
"234005","207-UY","2018/03/22 14:49:35","新北市永和區安樂路208-1號","121.515008333333","25.0021016666667","6500400","永和區"
"234025","9371-KE","2018/03/22 14:49:36","新北市永和區雙和街25巷5號","121.508941666667","25.0018683333333","6500400","永和區"
"248013","025-BX","2018/03/22 14:49:19","新北市五股區五福路14巷29號","121.435456666667","25.0889816666667","6501500","五股區"
"248015","026-BX","2018/03/22 14:49:22","新北市五股區成泰路三段577巷80弄54號","121.449735","25.1051066666667","6501500","五股區"
"248007","095-VK","2018/03/22 14:49:20","新北市五股區四維路140號","121.468241666667","25.0752666666667","6501500","五股區"
"248017","225-UY","2018/03/22 14:25:41","新北市五股區壟路16號","121.415386666667","25.08563","6501500","五股區"
"248011","247-BX","2018/03/22 14:49:37","新北市五股區六合街89號","121.430421666667","25.0896016666667","6501500","五股區"
"248003","677-BX","2018/03/22 14:49:22","新北市五股區成泰路一段106-1號","121.435705","25.0717716666667","6501500","五股區"
"248001","678-BX","2018/03/22 14:49:29","新北市五股區成泰路三段101-1號","121.444103333333","25.09042","6501500","五股區"
"248009","682-TV","2018/03/22 14:49:28","新北市五股區成泰路一段87號","121.434865","25.0687933333333","6501500","五股區"
"244003","248-BX","2018/03/22 14:49:23","新北市林口區竹林路266號","121.38964","25.080775","6501700","林口區"
"243004","AAD-798","2018/03/22 14:49:33","新北市泰山區楓江路110號","121.438436666667","25.0639716666667","6501600","泰山區"
"243003","297-R6","2018/03/22 14:49:40","新北市泰山區明志路三段166號","121.424303333333","25.03935","6501600","泰山區"
"243007","380-SR","2018/03/22 14:49:32","新北市泰山區明志路二段214巷16弄11號","121.426838333333","25.0495766666667","6501600","泰山區"
"243006","421-VK","2018/03/22 14:49:28","新北市泰山區明志路一段180號","121.433091666667","25.062375","6501600","泰山區"
"243002","KEA-2215","2018/03/22 14:49:33","新北市泰山區明志路二段246巷4號","121.426411666667","25.0484583333333","6501600","泰山區"
"243001","KEA-2216","2018/03/22 14:49:34","新北市泰山區泰林路二段118號","121.434595","25.0593366666667","6501600","泰山區"
"243005","646-TV","2018/03/22 14:49:21","新北市泰山區新民路12號","121.426385","25.044805","6501600","泰山區"
"243008","680-BX","2018/03/22 14:49:35","新北市泰山區新北大道六段282號","121.42559","25.03555","6501600","泰山區"
"231002","002-UM","2018/03/22 14:49:31","新北市新店區民權路88號","121.536795","24.98297","6500600","新店區"
"231025","0293-UT","2018/03/22 14:49:20","新北市新店區民族路161號","121.537656666667","24.9767133333333","6500600","新店區"
"231028","046-UY","2018/03/22 14:49:30","新北市新店區安德街167號","121.508525","24.9592633333333","6500600","新店區"
"231030","047-UY","2018/03/22 14:49:33","新北市新店區安民街298號","121.517636666667","24.9736716666667","6500600","新店區"
"231029","106-UY","2018/03/22 14:49:32","新北市新店區錦秀路11巷96弄2號","121.480085","24.9420916666667","6500600","新店區"
"231018","107-UY","2018/03/22 14:49:28","新北市新店區中央路153號","121.529936666667","24.9730483333333","6500600","新店區"
"231011","108-UY","2018/03/22 14:49:19","新北市新店區寶橋路85巷5弄3號","121.54594","24.9756216666667","6500600","新店區"
"231021","187-VK","2018/03/22 14:49:27","新北市新店區永福路54號","121.558163333333","24.9286233333333","6500600","新店區"
"231017","KEA-2219","2018/03/22 14:49:32","新北市新店區北宜路三段100號","121.579211666667","24.950705","6500600","新店區"
"231026","256-BX","2018/03/22 14:49:21","新北市新店區安康路一段156號","121.526193333333","24.962975","6500600","新店區"
"231023","AAD-862","2018/03/22 14:49:38","新北市新店區檳榔路105號","121.544571666667","24.9617916666667","6500600","新店區"
"231027","3712-VJ","2018/03/22 14:49:19","新北市新店區安和路三段4巷3號","121.519875","24.98094","6500600","新店區"
"231024","4716-K9","2018/03/22 14:49:21","新北市新店區力行路14巷16弄2號","121.539098333333","24.9654433333333","6500600","新店區"
"231036","512-UM","2018/03/22 14:49:26","新北市新店區安祥路106巷226號","121.473705","24.9598983333333","6500600","新店區"
"231035","513-UM","2018/03/22 14:49:30","新北市新店區安樂街12號","121.520743333333","24.9733983333333","6500600","新店區"
"231006","617-UM","2018/03/22 14:49:34","新北市新店區北宜路一段140巷3號","121.539891666667","24.9546416666667","6500600","新店區"
"231001","619-UM","2018/03/22 14:49:23","新北市新店區三民路121號","121.534811666667","24.9723583333333","6500600","新店區"
"231003","641-BX","2018/03/22 14:49:37","新北市新店區中興路一段298號","121.546131666667","24.9695183333333","6500600","新店區"
"231034","645-TV","2018/03/22 14:49:23","新北市新店區玫瑰路4-1號","121.493601666667","24.9513666666667","6500600","新店區"
"231039","718-UY","2018/03/22 14:49:19","新北市新店區安康路一段355號","121.519818333333","24.9630166666667","6500600","新店區"
"231013","719-UM","2018/03/22 14:49:28","新北市新店區北新路二段59巷1號","121.542558333333","24.9729733333333","6500600","新店區"
"231005","897-TW","2018/03/22 14:49:32","新北市新店區復興路68號","121.537783333333","24.9868633333333","6500600","新店區"
"231004","899-TW","2018/03/22 14:49:34","新北市新店區民族路161號","121.53768","24.9769216666667","6500600","新店區"
"231037","AKT-0513","2018/03/22 14:49:29","新北市新店區柴埕路60巷7-2號","121.50882","24.9648583333333","6500600","新店區"
"235030","003-UY","2018/03/22 14:49:21","新北市中和區南工路60號","121.506118333333","25.0017516666667","6500300","中和區"
"235020","096-UM","2018/03/22 14:49:28","新北市中和區民富街4號","121.477","25.0059666666667","6500300","中和區"
"235003","097-UM","2018/03/22 14:49:32","新北市中和區安平路186號","121.512995","24.9990166666667","6500300","中和區"
"235029","098-UM","2018/03/22 14:49:27","新北市中和區福美路242號","121.498696666667","25.0051916666667","6500300","中和區"
"235004","150-BY","2018/03/22 14:49:32","新北市中和區景安路79巷37弄25號","121.507653333333","24.9965383333333","6500300","中和區"
"235022","151-BY","2018/03/22 14:49:39","新北市中和區員山路173號","121.48118","24.9970333333333","6500300","中和區"
"235019","183-VK","2018/03/22 14:49:38","新北市中和區民生街53號","121.469646666667","25.0050683333333","6500300","中和區"
"235002","185-VK","2018/03/22 14:49:32","新北市中和區立人街69巷3號","121.519951666667","24.9938616666667","6500300","中和區"
"235013","186-VK","2018/03/22 14:49:28","新北市中和區中興街2號","121.501213333333","24.9952816666667","6500300","中和區"
"235008","293-VK","2018/03/22 14:49:40","新北市中和區南山路269號","121.503973333333","24.9925416666667","6500300","中和區"
"235007","352-BY","2018/03/22 14:49:38","新北市中和區景平路336號","121.511816666667","24.9928616666667","6500300","中和區"
"235032","377-QA","2018/03/22 14:49:07","新北市中和區福祥路90巷1號","121.499333333333","25.0056133333333","6500300","中和區"
"235035","269-TV","2018/03/22 14:49:25","新北市中和區建一路92號","121.488053333333","25.0010233333333","6500300","中和區"
"235014","4979-A6","2018/03/22 14:49:39","新北市中和區景平路329巷1弄5號","121.506093333333","24.9926333333333","6500300","中和區"
"235034","558-UM","2018/03/22 14:49:20","新北市中和區連勝街45號","121.498095","24.997535","6500300","中和區"
"235018","640-BX","2018/03/22 14:49:34","新北市中和區莒光路220號","121.47013","24.9961416666667","6500300","中和區"
"235024","647-TV","2018/03/22 14:49:30","新北市中和區新生街33-1號","121.483268333333","25.003545","6500300","中和區"
"235011","732-UM","2018/03/22 14:49:30","新北市中和區和平街82號","121.507698333333","24.99115","6500300","中和區"
"235010","733-UM","2018/03/22 14:49:28","新北市中和區仁愛街43號","121.511056666667","24.988435","6500300","中和區"
"235026","800-TS","2018/03/22 14:49:37","新北市中和區中山路二段365號","121.487758333333","25.0047333333333","6500300","中和區"
"235021","801-TS","2018/03/22 14:49:24","新北市中和區員山路325-4號","121.481223333333","25.00086","6500300","中和區"
"235016","805-TS","2018/03/22 14:49:35","新北市中和區華新街30巷14號","121.506923333333","24.984325","6500300","中和區"
"235012","896-TW","2018/03/22 14:49:32","新北市中和區忠孝街142號","121.512465","24.9871466666667","6500300","中和區"
"235017","900-TW","2018/03/22 14:49:25","新北市中和區國光街215巷4弄1號","121.466355","25.0017283333333","6500300","中和區"
"235015","157-BY","2018/03/22 14:49:33","新北市中和區中興街180巷33號","121.498311666667","24.9891216666667","6500300","中和區"
"235001","AAC-213","2018/03/22 14:49:25","新北市中和區自立路64號","121.523813333333","24.991345","6500300","中和區"
"235023","AAC-215","2018/03/22 14:49:34","新北市中和區圓通路335巷3弄20號","121.493508333333","24.990285","6500300","中和區"
"220017","AAD-861","2018/03/22 14:49:36","新北市板橋區南雅南路二段11-29號","121.454008333333","25.0015133333333","6500100","板橋區"
"247013","546-UM","2018/03/22 14:49:20","新北市蘆洲區得勝街50-1號","121.473111666667","25.0836416666667","6501400","蘆洲區"
"247021","500-BY","2018/03/22 14:49:32","新北市蘆洲區中正路434巷5-1號","121.463728333333","25.0945483333333","6501400","蘆洲區"
"247015","007-UY","2018/03/22 14:49:35","新北市蘆洲區正和街96巷37號","121.467515","25.0815366666667","6501400","蘆洲區"
"247001","002-UY","2018/03/22 14:49:33","新北市蘆洲區長安街246巷37號","121.458768333333","25.086605","6501400","蘆洲區"
"247019","001-UY","2018/03/22 14:49:32","新北市蘆洲區民義街70號","121.473126666667","25.0898766666667","6501400","蘆洲區"
"228005","097-TW","2018/03/22 14:49:32","新北市貢寮區美豐里丹裡街65號","121.909043333333","25.0589016666667","6502600","貢寮區"
"228004","212-TW","2018/03/22 14:49:32","新北市貢寮區福隆里裕隆街5號","121.946128333333","25.0159416666667","6502600","貢寮區"
"253001","4710-YM","2018/03/22 14:49:32","新北市石門區崁子腳35-2號","121.539905","25.2696466666667","6502200","石門區"
"253003","6232-TK","2018/03/22 14:49:22","新北市石門區尖子鹿101-1號","121.58008","25.2924416666667","6502200","石門區"
"253002","637-UY","2018/03/22 14:49:36","新北市石門區崁子腳28-2號","121.540023333333","25.289055","6502200","石門區"
"253004","8270-PC","2018/03/22 14:49:30","新北市石門區內阿里磅25號","121.591481666667","25.2434233333333","6502200","石門區"
"207002","749-BX","2018/03/22 14:49:32","新北市萬里區崁腳里崁腳路73號","121.647613333333","25.1596066666667","6502800","萬里區"
"207001","662-BX","2018/03/22 14:49:29","新北市萬里區雙興里麗水路3-2號","121.652636666667","25.18276","6502800","萬里區"
"236066","105-UM","2018/03/22 14:49:22","新北市土城區明德路一段76號","121.465041666667","24.9801616666667","6501300","土城區"
"236040","107-UM","2018/03/22 14:49:23","新北市土城區裕民路136巷7號","121.451415","24.9858233333333","6501300","土城區"
"236076","166-UM","2018/03/22 14:49:40","新北市土城區中央路四段185巷23號","121.41566","24.9557716666667","6501300","土城區"
"236028","253-BX","2018/03/22 14:49:39","新北市土城區忠義路26巷25號","121.439633333333","24.969575","6501300","土城區"
"236024","269-VK","2018/03/22 14:49:27","新北市土城區慶安街46號","121.441228333333","24.9732816666667","6501300","土城區"
"236012","270-VK","2018/03/22 14:49:30","新北市土城區金城路二段356號","121.461358333333","24.9850066666667","6501300","土城區"
"236033","271-VK","2018/03/22 14:49:33","新北市土城區仁愛路25-1號","121.462646666667","24.9783816666667","6501300","土城區"
"236018","401-BY","2018/03/22 14:49:33","新北市土城區延安街13號","121.467478333333","24.9858166666667","6501300","土城區"
"236056","912-UM","2018/03/22 14:49:31","新北市土城區中央路三段157號","121.43203","24.9653233333333","6501300","土城區"
"236047","913-UM","2018/03/22 14:49:24","新北市土城區青雲路13號","121.460253333333","24.9893733333333","6501300","土城區"
"236060","915-UM","2018/03/22 14:49:32","新北市土城區延和路191-1號","121.469396666667","24.9902216666667","6501300","土城區"
"236052","AAC-216","2018/03/22 14:49:20","新北市土城區裕民路173號","121.453346666667","24.98505","6501300","土城區"
"238012","303-VK","2018/03/22 14:49:22","新北市樹林區育德街78號","121.387481666667","24.9684566666667","6500700","樹林區"
"220027","145-BY","2018/03/22 14:49:39","新北市板橋區建國街54巷3號","121.459076666667","25.01687","6500100","板橋區"
"220028","200-UY","2018/03/22 14:49:33","新北市板橋區大觀路二段163巷23號","121.446661666667","25.0001033333333","6500100","板橋區"
"220105","KEA-2550","2018/03/22 14:49:29","新北市板橋區民治街57巷32-1號","121.480178333333","25.0340683333333","6500100","板橋區"
"220030","610-BX","2018/03/22 14:49:32","新北市板橋區溪崑一街92號","121.429025","24.989435","6500100","板橋區"
"220050","245-BX","2018/03/22 14:49:39","新北市板橋區縣民大道三段93巷28號","121.474825","25.0225033333333","6500100","板橋區"
"220003","256-TC","2018/03/22 14:49:27","新北市板橋區仁愛路62巷19號","121.460096666667","24.9980366666667","6500100","板橋區"
"220020","277-BY","2018/03/22 14:49:34","新北市板橋區金門街215巷79號","121.434103333333","24.989315","6500100","板橋區"
"220043","280-UM","2018/03/22 14:49:34","新北市板橋區溪頭街72號","121.458408333333","25.02951","6500100","板橋區"
"220012","282-UM","2018/03/22 14:49:31","新北市板橋區公園街54號","121.462123333333","25.0078933333333","6500100","板橋區"
"220019","283-VK","2018/03/22 14:49:36","新北市板橋區五權街30巷14號","121.464303333333","24.993295","6500100","板橋區"
"220001","285-VK","2018/03/22 14:49:33","新北市板橋區中山路二段60巷9號","121.47428","25.0153033333333","6500100","板橋區"
"220031","286-VK","2018/03/22 14:49:29","新北市板橋區僑中二街10巷15-3號","121.446285","25.0109883333333","6500100","板橋區"
"220029","287-VK","2018/03/22 14:49:23","新北市板橋區大觀路一段26號","121.45003","25.0086033333333","6500100","板橋區"
"220039","288-VK","2018/03/22 14:49:24","新北市板橋區新海路431巷20號","121.45768","25.0268933333333","6500100","板橋區"
"220009","293-UM","2018/03/22 14:49:35","新北市板橋區觀光街1巷1號","121.472145","25.0155083333333","6500100","板橋區"
"220032","296-UM","2018/03/22 14:49:27","新北市板橋區溪崑二街112巷30號","121.425745","24.98923","6500100","板橋區"
"220023","303-R5","2018/03/22 14:49:24","新北市板橋區大勇街2號","121.45579","25.0177533333333","6500100","板橋區"
"220010","305-R5","2018/03/22 14:49:30","新北市板橋區中山路二段416巷54弄11號","121.482333333333","25.0193033333333","6500100","板橋區"
"220041","307-R5","2018/03/22 14:49:34","新北市板橋區四維路259巷35號","121.46175","25.02734","6500100","板橋區"
"220047","317-R6","2018/03/22 14:49:18","新北市板橋區四維路269巷78號","121.460143333333","25.0269483333333","6500100","板橋區"
"220004","461-BY","2018/03/22 14:49:39","新北市板橋區中正路101號","121.456533333333","25.01469","6500100","板橋區"
"220038","487-VK","2018/03/22 14:49:33","新北市板橋區龍泉街101-4號","121.457046666667","25.0243816666667","6500100","板橋區"
"220037","491-VK","2018/03/22 14:49:40","新北市板橋區民治街15-1號","121.477688333333","25.034385","6500100","板橋區"
"220104","560-BX","2018/03/22 14:49:20","新北市板橋區新生街29巷2弄1號","121.456518333333","25.0215583333333","6500100","板橋區"
"220052","561-BX","2018/03/22 14:49:23","新北市板橋區陽明街46-5號","121.465523333333","25.0220466666667","6500100","板橋區"
"220013","568-UM","2018/03/22 14:49:33","新北市板橋區民族路276巷1弄1號","121.46988","25.00663","6500100","板橋區"
"220011","609-BX","2018/03/22 14:49:26","新北市板橋區三民路一段31巷11號","121.479736666667","25.02316","6500100","板橋區"
"220040","637-BX","2018/03/22 14:49:39","新北市板橋區懷德街127巷38-3號","121.48013","25.0315566666667","6500100","板橋區"
"220005","686-BX","2018/03/22 14:49:28","新北市板橋區和平路安樂巷36號","121.461615","24.9934483333333","6500100","板橋區"
"220025","687-BX","2018/03/22 14:49:34","新北市板橋區僑中二街124巷2號","121.445316666667","25.0053283333333","6500100","板橋區"
"220042","689-BX","2018/03/22 14:49:29","新北市板橋區長江路一段357號","121.461451666667","25.0305283333333","6500100","板橋區"
"220002","741-BX","2018/03/22 14:49:29","新北市板橋區國泰街75巷28弄66號","121.467165","25.0045966666667","6500100","板橋區"
"220051","KEA-2699","2018/03/22 14:49:25","新北市板橋區松柏街57-4號","121.475696666667","25.0303466666667","6500100","板橋區"
"220014","829-TW","2018/03/22 14:49:20","新北市板橋區長安街138巷1弄5號","121.473021666667","25.0097233333333","6500100","板橋區"
"220016","830-TW","2018/03/22 14:49:35","新北市板橋區中山路二段光榮巷30弄15號","121.484488333333","25.0203033333333","6500100","板橋區"
"220045","831-TW","2018/03/22 14:49:36","新北市板橋區莊敬路146巷18號","121.470381666667","25.0226716666667","6500100","板橋區"
"220022","895-R6","2018/03/22 14:49:33","新北市板橋區文化路一段46巷16號","121.46027","25.0114633333333","6500100","板橋區"
"220021","985-R7","2018/03/22 14:49:33","新北市板橋區大仁街89-1號","121.453475","25.0160833333333","6500100","板橋區"
"220046","AAC-210","2018/03/22 14:49:34","新北市板橋區文化路一段285巷2號","121.464541666667","25.0190316666667","6500100","板橋區"
"220018","AAC-253","2018/03/22 14:49:26","新北市板橋區民族路213號","121.469366666667","25.0073383333333","6500100","板橋區"
