"lineid","car","time","location","longitude","latitude","cityid","cityname"
"248007","095-VK","2018/03/22 15:09:20","新北市五股區中興路一段1巷20號","121.469815","25.0710066666667","6501500","五股區"
"248003","677-BX","2018/03/22 15:09:22","新北市五股區成泰路一段110-3號","121.435611666667","25.0721166666667","6501500","五股區"
"244003","248-BX","2018/03/22 15:09:23","新北市林口區竹林路265號","121.389631666667","25.0807383333333","6501700","林口區"
"243003","297-R6","2018/03/22 15:09:20","新北市泰山區新北大道六段313巷20號","121.424181666667","25.0333066666667","6501600","泰山區"
"243007","380-SR","2018/03/22 15:09:13","新北市泰山區仁德路105號","121.43305","25.056195","6501600","泰山區"
"243006","421-VK","2018/03/22 15:09:08","新北市泰山區黎明里35號","121.411198333333","25.0701316666667","6501600","泰山區"
"243001","KEA-2216","2018/03/22 15:09:22","新北市泰山區泰林路二段542巷1弄25號","121.42275","25.0640233333333","6501600","泰山區"
"243005","646-TV","2018/03/22 15:09:18","新北市泰山區泰林路二段608號","121.421196666667","25.0638433333333","6501600","泰山區"
"243008","680-BX","2018/03/22 15:09:15","新北市泰山區新生路28號","121.429135","25.04451","6501600","泰山區"
"231002","002-UM","2018/03/22 15:09:25","新北市新店區中正路543-2號","121.533538333333","24.9872066666667","6500600","新店區"
"231025","0293-UT","2018/03/22 15:09:20","新北市新店區建國路218號","121.537958333333","24.9811383333333","6500600","新店區"
"231028","046-UY","2018/03/22 15:09:28","新北市新店區僑信路104號","121.500068333333","24.94717","6500600","新店區"
"231030","047-UY","2018/03/22 15:09:13","新北市新店區安民街341-1號","121.51683","24.9748483333333","6500600","新店區"
"231029","106-UY","2018/03/22 15:09:12","新北市新店區安康路三段738號","121.47386","24.942015","6500600","新店區"
"231018","107-UY","2018/03/22 15:09:28","新北市新店區溪園路457號","121.525056666667","24.97749","6500600","新店區"
"231011","108-UY","2018/03/22 15:09:19","新北市新店區寶元路一段65號","121.542211666667","24.9858133333333","6500600","新店區"
"231021","187-VK","2018/03/22 15:09:07","新北市新店區湖興路131-1號","121.562605","24.9369516666667","6500600","新店區"
"231017","KEA-2219","2018/03/22 15:05:32","新北市新店區明山路5號","121.563141666667","24.9551933333333","6500600","新店區"
"231026","256-BX","2018/03/22 15:09:21","新北市新店區建安街15巷1號","121.539758333333","24.9754466666667","6500600","新店區"
"231023","AAD-862","2018/03/22 15:09:18","新北市新店區檳榔路124號","121.543855","24.9620816666667","6500600","新店區"
"231024","4716-K9","2018/03/22 15:09:21","新北市新店區中華路45號","121.54014","24.9677766666667","6500600","新店區"
"231036","512-UM","2018/03/22 15:09:26","新北市新店區安祥路102巷133號","121.486605","24.9647066666667","6500600","新店區"
"231035","513-UM","2018/03/22 15:09:10","新北市新店區安和路三段173號","121.515845","24.9861733333333","6500600","新店區"
"231006","617-UM","2018/03/22 15:09:25","新北市新店區新坡一街18巷5弄23號","121.550748333333","24.9618633333333","6500600","新店區"
"231001","619-UM","2018/03/22 15:09:31","新北市新店區中正路162號","121.541355","24.9718966666667","6500600","新店區"
"231003","641-BX","2018/03/22 15:09:11","新北市新店區寶橋路194號","121.550601666667","24.978405","6500600","新店區"
"231034","645-TV","2018/03/22 15:09:23","新北市新店區玫瑰路4-1號","121.493551666667","24.951355","6500600","新店區"
"231039","718-UY","2018/03/22 15:09:19","新北市新店區中興路三段226號","121.543375","24.9831533333333","6500600","新店區"
"231005","897-TW","2018/03/22 15:09:32","新北市新店區北新路三段147-2號","121.541266666667","24.9835083333333","6500600","新店區"
"231004","899-TW","2018/03/22 15:09:14","新北市新店區建國路40號","121.54057","24.974845","6500600","新店區"
"231037","AKT-0513","2018/03/22 15:09:29","新北市新店區安興路56號","121.516528333333","24.9749983333333","6500600","新店區"
"235030","003-UY","2018/03/22 15:09:21","新北市中和區水源路111號","121.507765","25.00316","6500300","中和區"
"235020","096-UM","2018/03/22 15:09:28","新北市中和區中山路三段146號","121.473513333333","25.006835","6500300","中和區"
"235003","097-UM","2018/03/22 15:09:12","新北市中和區宜安路52巷1號","121.512038333333","24.99692","6500300","中和區"
"235029","098-UM","2018/03/22 15:09:27","新北市中和區橋和路292號","121.496793333333","25.0069183333333","6500300","中和區"
"235004","150-BY","2018/03/22 15:09:12","新北市中和區景安路79巷27號","121.507215","24.9966416666667","6500300","中和區"
"235007","352-BY","2018/03/22 15:09:17","新北市中和區興南路二段159巷12號","121.505203333333","24.9831966666667","6500300","中和區"
"235035","269-TV","2018/03/22 15:09:25","新北市中和區中正路880號","121.483838333333","25.0066166666667","6500300","中和區"
"235014","4979-A6","2018/03/22 15:09:19","新北市中和區景新街270號","121.510735","24.9924783333333","6500300","中和區"
"235033","4980-A6","2018/03/22 15:09:27","新北市中和區景新街64巷7弄6號","121.504083333333","24.9985933333333","6500300","中和區"
"235034","558-UM","2018/03/22 15:09:20","新北市中和區中正路342號","121.494053333333","24.9943933333333","6500300","中和區"
"235018","640-BX","2018/03/22 15:09:14","新北市中和區民享街35巷8弄15號","121.474638333333","25.003545","6500300","中和區"
"235012","896-TW","2018/03/22 15:09:23","新北市中和區興南路一段152號","121.50835","24.98697","6500300","中和區"
"235015","157-BY","2018/03/22 15:09:13","新北市中和區捷運路129號","121.507133333333","24.9906633333333","6500300","中和區"
"235001","AAC-213","2018/03/22 15:09:25","新北市中和區景平路4號","121.524135","24.990525","6500300","中和區"
"235023","AAC-215","2018/03/22 15:09:13","新北市中和區圓通路335巷33弄11號","121.493135","24.9891616666667","6500300","中和區"
"220017","AAD-861","2018/03/22 15:09:16","新北市板橋區大明街20巷19弄7號","121.458193333333","25.003225","6500100","板橋區"
"228004","212-TW","2018/03/22 15:09:13","新北市貢寮區雙玉里田寮洋街17號","121.921855","25.0248433333333","6502600","貢寮區"
"253001","4710-YM","2018/03/22 15:09:32","新北市石門區中央路35-1號","121.568333333333","25.2940333333333","6502200","石門區"
"253003","6232-TK","2018/03/22 15:09:22","新北市石門區小坑9號","121.594485","25.289155","6502200","石門區"
"253002","637-UY","2018/03/22 15:09:27","新北市石門區尖子鹿77號","121.572028333333","25.2962016666667","6502200","石門區"
"253004","8270-PC","2018/03/22 15:09:18","新北市石門區茂林社區3-1號","121.59203","25.2710316666667","6502200","石門區"
"207002","749-BX","2018/03/22 15:09:12","新北市萬里區崁腳里內中福路12-2號","121.661253333333","25.1639133333333","6502800","萬里區"
"207001","662-BX","2018/03/22 15:09:29","新北市萬里區磺潭里員潭路1-1號","121.646538333333","25.20249","6502800","萬里區"
"236066","105-UM","2018/03/22 15:09:22","新北市土城區裕民路10號","121.447491666667","24.988795","6501300","土城區"
"236040","107-UM","2018/03/22 15:09:23","新北市土城區裕民路263-1號","121.455145","24.98253","6501300","土城區"
"236076","166-UM","2018/03/22 15:09:22","新北市土城區中州路3巷43號","121.41334","24.9563333333333","6501300","土城區"
"236028","253-BX","2018/03/22 15:09:19","新北市土城區福祥街22號","121.440906666667","24.98006","6501300","土城區"
"236024","269-VK","2018/03/22 15:09:27","新北市土城區中央路二段177巷7號","121.443156666667","24.9762833333333","6501300","土城區"
"236012","270-VK","2018/03/22 15:07:10","新北市土城區學府路一段5-1號","121.458786666667","24.9884383333333","6501300","土城區"
"236033","271-VK","2018/03/22 15:09:10","新北市土城區明德路一段219號","121.463223333333","24.9785383333333","6501300","土城區"
"236018","401-BY","2018/03/22 15:09:13","新北市土城區延峰街11號","121.468771666667","24.98636","6501300","土城區"
"236056","912-UM","2018/03/22 15:09:31","新北市土城區金城路二段236號","121.456745","24.98294","6501300","土城區"
"236047","913-UM","2018/03/22 15:09:24","新北市土城區清水路22號","121.454373333333","24.98003","6501300","土城區"
"236060","915-UM","2018/03/22 15:09:12","新北市土城區延平街22號","121.468323333333","24.9912216666667","6501300","土城區"
"236052","AAC-216","2018/03/22 15:09:20","新北市土城區學府路一段163號","121.453118333333","24.98577","6501300","土城區"
"238002","755-BX","2018/03/22 15:09:13","新北市樹林區八德街600號","121.39746","24.97026","6500700","樹林區"
"238010","601-UM","2018/03/22 15:09:15","新北市樹林區中華路190-6號","121.410128333333","24.9805916666667","6500700","樹林區"
"238006","599-UM","2018/03/22 15:09:28","新北市樹林區太平路247巷28號","121.420666666667","24.97546","6500700","樹林區"
"238005","571-TV","2018/03/22 15:09:10","新北市板橋區溪城路90-2號","121.42926","24.9800333333333","6500700","樹林區"
"238011","5061-A6","2018/03/22 15:09:13","新北市樹林區鎮前街93號","121.42479","24.9896916666667","6500700","樹林區"
"238009","KEA-2213","2018/03/22 15:09:24","新北市樹林區太平路269號","121.41959","24.973135","6500700","樹林區"
"238008","KEA-2539","2018/03/22 15:09:25","新北市樹林區西圳街一段165巷20弄11號","121.395641666667","24.9601633333333","6500700","樹林區"
"238012","303-VK","2018/03/22 15:09:22","新北市樹林區中華路190-6號","121.410628333333","24.9808516666667","6500700","樹林區"
"238001","283-BY","2018/03/22 15:09:16","新北市樹林區福德街3號","121.401631666667","24.9755933333333","6500700","樹林區"
"238001","282-BY","2018/03/22 15:09:22","新北市樹林區中山路三段37號","121.40124","24.9753533333333","6500700","樹林區"
"238007","268-VK","2018/03/22 15:09:20","新北市樹林區中山路三段204號","121.386741666667","24.9682166666667","6500700","樹林區"
"238013","172-UY","2018/03/22 15:09:12","新北市樹林區東順街113號","121.407543333333","24.975325","6500700","樹林區"
"238003","169-UY","2018/03/22 15:09:22","新北市樹林區中山路三段125-1號","121.397358333333","24.9731833333333","6500700","樹林區"
"220050","245-BX","2018/03/22 15:09:19","新北市板橋區莒光路171巷1弄18-4號","121.474543333333","25.0246733333333","6500100","板橋區"
"220003","256-TC","2018/03/22 15:09:20","新北市板橋區國慶路149巷37弄4號","121.460688333333","24.9980566666667","6500100","板橋區"
"220020","277-BY","2018/03/22 15:09:14","新北市板橋區金門街109巷27號","121.43386","24.991505","6500100","板橋區"
"220012","282-UM","2018/03/22 15:09:11","新北市板橋區漢生東路193巷23-4號","121.470891666667","25.0121783333333","6500100","板橋區"
"220031","286-VK","2018/03/22 15:09:10","新北市板橋區僑中二街102巷16號","121.445468333333","25.00843","6500100","板橋區"
"220029","287-VK","2018/03/22 15:09:23","新北市板橋區僑中一街80巷7弄11號","121.447305","25.0127583333333","6500100","板橋區"
"220039","288-VK","2018/03/22 15:09:24","新北市板橋區幸福路32巷4弄5-3號","121.46111","25.0213966666667","6500100","板橋區"
"220009","293-UM","2018/03/22 15:09:15","新北市板橋區中山路一段2號","121.459766666667","25.00752","6500100","板橋區"
"220032","296-UM","2018/03/22 15:09:27","新北市新莊區中正路457巷15號","121.442273333333","25.0333833333333","6500100","板橋區"
"220041","307-R5","2018/03/22 15:09:14","新北市板橋區文化路一段141號","121.462001666667","25.015735","6500100","板橋區"
"220047","317-R6","2018/03/22 15:09:18","新北市板橋區新海路72巷5弄16號","121.461911666667","25.0225683333333","6500100","板橋區"
"220038","487-VK","2018/03/22 15:09:28","新北市板橋區新海路390號","121.458965","25.0263766666667","6500100","板橋區"
"220037","491-VK","2018/03/22 15:09:20","新北市板橋區懷德街78巷1號","121.478303333333","25.031565","6500100","板橋區"
"220052","561-BX","2018/03/22 15:09:23","新北市板橋區陽明街249號","121.462821666667","25.025085","6500100","板橋區"
"220011","609-BX","2018/03/22 15:09:19","新北市板橋區中山路二段418號","121.483073333333","25.0210133333333","6500100","板橋區"
"220025","687-BX","2018/03/22 15:09:29","新北市板橋區僑中一街124巷23號","121.446206666667","25.0143433333333","6500100","板橋區"
"220042","689-BX","2018/03/22 15:09:29","新北市板橋區民治街57巷32-1號","121.48078","25.03565","6500100","板橋區"
"220051","KEA-2699","2018/03/22 15:09:25","新北市板橋區仁化街93號","121.476328333333","25.0320683333333","6500100","板橋區"
"220014","829-TW","2018/03/22 15:09:20","新北市板橋區中山路一段256號","121.471521666667","25.0146666666667","6500100","板橋區"
"220016","830-TW","2018/03/22 15:09:21","新北市板橋區光復街215號","121.484673333333","25.021295","6500100","板橋區"
"220045","831-TW","2018/03/22 15:09:16","新北市板橋區莒光路79巷2-1號","121.471973333333","25.02432","6500100","板橋區"
"220046","AAC-210","2018/03/22 15:09:14","新北市板橋區光正街40號","121.461928333333","25.01737","6500100","板橋區"
"220018","AAC-253","2018/03/22 15:09:25","新北市板橋區成都街47號","121.461371666667","25.00493","6500100","板橋區"
