"lineid","car","time","location","longitude","latitude","cityid","cityname"
"243001","KEA-2216","2018/03/22 15:29:41","新北市泰山區泰林路三段772巷17號","121.401323333333","25.0737616666667","6501600","泰山區"
"231002","002-UM","2018/03/22 15:29:32","新北市新店區環河路152號","121.535185","24.9669416666667","6500600","新店區"
"231025","0293-UT","2018/03/22 15:29:40","新北市新店區中央路238號","121.529243333333","24.9723716666667","6500600","新店區"
"231028","046-UY","2018/03/22 15:29:28","新北市新店區僑信路58號","121.499306666667","24.9497216666667","6500600","新店區"
"231030","047-UY","2018/03/22 15:29:33","新北市新店區永安街56巷49號","121.519603333333","24.985245","6500600","新店區"
"231029","106-UY","2018/03/22 15:29:12","新北市新店區安泰路60巷32號","121.482295","24.946445","6500600","新店區"
"231018","107-UY","2018/03/22 15:29:28","新北市新店區民生路181號","121.52855","24.9786916666667","6500600","新店區"
"231011","108-UY","2018/03/22 15:29:39","新北市新店區寶元路一段93巷4號","121.543905","24.98525","6500600","新店區"
"231021","187-VK","2018/03/22 15:29:27","新北市新店區新烏路一段223號","121.549368333333","24.930995","6500600","新店區"
"231017","KEA-2219","2018/03/22 15:29:12","新北市新店區明山路45號","121.563796666667","24.9560133333333","6500600","新店區"
"231026","256-BX","2018/03/22 15:29:41","新北市新店區三民路117巷5弄2號","121.534118333333","24.9711366666667","6500600","新店區"
"231023","AAD-862","2018/03/22 15:29:38","新北市新店區北新路一段96巷23號","121.542781666667","24.968795","6500600","新店區"
"231036","512-UM","2018/03/22 15:29:26","新北市新店區安祥路69巷54弄38號","121.483105","24.9585366666667","6500600","新店區"
"231035","513-UM","2018/03/22 15:29:30","新北市新店區安興路96-1號","121.515035","24.9764683333333","6500600","新店區"
"231003","641-BX","2018/03/22 15:29:31","新北市新店區寶高路116號","121.554546666667","24.9761166666667","6500600","新店區"
"231034","645-TV","2018/03/22 15:29:43","新北市新店區富貴街14巷1號","121.49404","24.94894","6500600","新店區"
"231039","718-UY","2018/03/22 15:29:39","新北市新店區寶元路一段101號","121.543736666667","24.9849233333333","6500600","新店區"
"231013","719-UM","2018/03/22 15:29:34","新北市新店區永業路81巷1弄1-1號","121.529436666667","24.94944","6500600","新店區"
"231005","897-TW","2018/03/22 15:29:32","新北市新店區建國路293巷2號","121.537081666667","24.98588","6500600","新店區"
"231004","899-TW","2018/03/22 15:29:34","新北市新店區民族路195號","121.537258333333","24.9761466666667","6500600","新店區"
"231037","AKT-0513","2018/03/22 15:29:29","新北市新店區安民街339號","121.516898333333","24.974895","6500600","新店區"
"241028","022-UY","2018/03/22 15:29:36","新北市三重區重新路四段121號","121.484736666667","25.0525283333333","6500200","三重區"
"241017","063-VK","2018/03/22 15:29:34","新北市三重區重新路四段121號","121.48477","25.0519183333333","6500200","三重區"
"241014","543-UM","2018/03/22 15:29:32","新北市三重區重新路四段121號","121.485091666667","25.0520166666667","6500200","三重區"
"241023","545-UM","2018/03/22 15:29:34","新北市三重區重新路四段121號","121.484835","25.0526166666667","6500200","三重區"
"241029","942-UM","2018/03/22 15:29:33","新北市三重區重新路四段121號","121.485016666667","25.0519233333333","6500200","三重區"
"241033","AAC-255","2018/03/22 15:29:25","新北市三重區重新路四段121號","121.482578333333","25.050895","6500200","三重區"
"235014","4979-A6","2018/03/22 15:29:42","新北市中和區景平路385巷9弄13號","121.502215","24.994175","6500300","中和區"
"235033","4980-A6","2018/03/22 15:29:37","新北市中和區連城路347巷16弄13號","121.48817","24.9949316666667","6500300","中和區"
"235023","AAC-215","2018/03/22 15:29:34","新北市中和區員山路30-3號","121.483833333333","24.987815","6500300","中和區"
"227004","400-TW","2018/03/22 15:29:31","新北市雙溪區三貂里定福路1-2號","121.850631666667","25.0632433333333","6502500","雙溪區"
"253001","4710-YM","2018/03/22 15:29:31","新北市石門區小坑9號","121.593808333333","25.28854","6502200","石門區"
"253003","6232-TK","2018/03/22 15:29:42","新北市石門區小坑9號","121.594355","25.2883466666667","6502200","石門區"
"236066","105-UM","2018/03/22 15:29:42","新北市土城區學士路130號","121.447931666667","24.97788","6501300","土城區"
"236040","107-UM","2018/03/22 15:29:23","新北市土城區學成路22巷3號","121.453473333333","24.9873733333333","6501300","土城區"
"236076","166-UM","2018/03/22 15:29:42","新北市土城區中央路四段410巷3號","121.411366666667","24.953895","6501300","土城區"
"236028","253-BX","2018/03/22 15:29:39","新北市土城區中央路一段260巷26號","121.442928333333","24.984675","6501300","土城區"
"236024","269-VK","2018/03/22 15:29:27","新北市土城區中央路一段325號","121.443771666667","24.98323","6501300","土城區"
"236012","270-VK","2018/03/22 15:29:30","新北市土城區廣明街14號","121.455878333333","24.9920783333333","6501300","土城區"
"236033","271-VK","2018/03/22 15:29:41","新北市土城區延吉街296巷1弄1號","121.464418333333","24.9842616666667","6501300","土城區"
"236018","401-BY","2018/03/22 15:29:43","新北市土城區金城路三段198號","121.468515","24.988015","6501300","土城區"
"236056","912-UM","2018/03/22 15:29:31","新北市土城區中央路二段314號","121.440405","24.973015","6501300","土城區"
"236047","913-UM","2018/03/22 15:29:44","新北市土城區明德路一段186號","121.462166666667","24.9780333333333","6501300","土城區"
"236060","915-UM","2018/03/22 15:29:35","新北市土城區金城路三段73巷9弄15號","121.465803333333","24.9873266666667","6501300","土城區"
"236052","AAC-216","2018/03/22 15:29:40","新北市土城區延和路64號","121.465808333333","24.9891133333333","6501300","土城區"
"238002","755-BX","2018/03/22 15:29:33","新北市樹林區復興路196號","121.419958333333","24.9909816666667","6500700","樹林區"
"238010","601-UM","2018/03/22 15:29:35","新北市樹林區三福街2號","121.409155","25.0169616666667","6500700","樹林區"
"238006","599-UM","2018/03/22 15:29:28","新北市樹林區太順街36號","121.418988333333","24.9799066666667","6500700","樹林區"
"238005","571-TV","2018/03/22 15:29:30","新北市樹林區保安街一段18-3號","121.427466666667","24.9933233333333","6500700","樹林區"
"238011","5061-A6","2018/03/22 15:29:33","新北市樹林區太平路82號","121.419101666667","24.9802283333333","6500700","樹林區"
"238009","KEA-2213","2018/03/22 15:29:24","新北市樹林區忠孝街20號","121.423423333333","24.9822716666667","6500700","樹林區"
"238008","KEA-2539","2018/03/22 15:29:25","新北市樹林區西圳街一段123號","121.398271666667","24.9641083333333","6500700","樹林區"
"238012","303-VK","2018/03/22 15:29:44","新北市樹林區中山路一段205號","121.421123333333","24.9874083333333","6500700","樹林區"
"238001","283-BY","2018/03/22 15:29:36","新北市樹林區保安街二段333巷2號","121.412276666667","25.0075833333333","6500700","樹林區"
"238001","282-BY","2018/03/22 15:29:42","新北市樹林區中正路45巷3號","121.426863333333","24.9992933333333","6500700","樹林區"
"238007","268-VK","2018/03/22 15:29:39","新北市樹林區中山路三段204號","121.386741666667","24.9682166666667","6500700","樹林區"
"238013","172-UY","2018/03/22 15:29:32","新北市樹林區新興街19巷36弄25號","121.402566666667","24.972975","6500700","樹林區"
"238003","169-UY","2018/03/22 15:29:42","新北市樹林區長壽街28巷4弄11號","121.423628333333","24.9943116666667","6500700","樹林區"
"220050","245-BX","2018/03/22 15:29:38","新北市板橋區漢生東路83巷1號","121.466366666667","25.0159183333333","6500100","板橋區"
"220032","296-UM","2018/03/22 15:29:27","新北市八里區中山路三段380號","121.368856666667","25.1363016666667","6500100","板橋區"
"220038","487-VK","2018/03/22 15:29:33","新北市板橋區陽明街162號","121.463403333333","25.024425","6500100","板橋區"
"220052","561-BX","2018/03/22 15:29:43","新北市板橋區漢生東路43巷28號","121.466475","25.017545","6500100","板橋區"
"220011","609-BX","2018/03/22 15:29:39","新北市板橋區中山路二段112號","121.475926666667","25.016705","6500100","板橋區"
"220025","687-BX","2018/03/22 15:29:13","新北市五股區成泰路三段320號","121.450711666667","25.096835","6500100","板橋區"
"220042","689-BX","2018/03/22 15:29:34","新北市板橋區新海路466號","121.457653333333","25.0284666666667","6500100","板橋區"
"220051","KEA-2699","2018/03/22 15:29:25","新北市板橋區文化路一段309-1號","121.465933333333","25.0200066666667","6500100","板橋區"
"220018","AAC-253","2018/03/22 15:29:25","新北市板橋區四川路二段245巷49號","121.452035","24.992525","6500100","板橋區"
