"lineid","car","time","location","longitude","latitude","cityid","cityname"
"234007","207-UY","2018/03/22 18:19:25","新北市永和區仁愛路306巷71號","121.50206","25.0089516666667","6500400","永和區"
"234013","KEA-2591","2018/03/22 17:59:04","新北市永和區福和路1號","121.526085","25.0093766666667","6500400","永和區"
"234026","9371-KE","2018/03/22 18:19:20","新北市永和區豫溪街28巷15號","121.515153333333","25.0092783333333","6500400","永和區"
"234011","9373-KE","2018/03/22 18:19:10","新北市永和區環河東路二段50號","121.523208333333","25.01191","6500400","永和區"
"249005","172-UM","2018/03/22 18:19:21","新北市八里區荖阡坑路15-1號","121.400625","25.1400966666667","6502300","八里區"
"249001","173-UM","2018/03/22 18:19:21","新北市八里區龍米路一段123號","121.452383333333","25.126465","6502300","八里區"
"249004","303-UY","2018/03/22 18:19:06","新北市八里區龍米路二段232巷1弄8號","121.430633333333","25.159545","6502300","八里區"
"249002","305-UY","2018/03/22 18:19:24","新北市八里區龍形二街10號","121.450543333333","25.132535","6502300","八里區"
"248014","025-BX","2018/03/22 18:19:20","新北市五股區自強路20號","121.434345","25.0742233333333","6501500","五股區"
"248016","026-BX","2018/03/22 18:19:21","新北市五股區西雲路293號","121.449381666667","25.0992266666667","6501500","五股區"
"248006","077-UY","2018/03/22 18:19:24","新北市五股區中興路一段169號","121.464535","25.0737566666667","6501500","五股區"
"248008","095-VK","2018/03/22 18:19:29","新北市五股區更洲路32巷8弄17號","121.4593","25.0796283333333","6501500","五股區"
"248020","225-UY","2018/03/22 18:19:11","新北市五股區孝義路47巷22號","121.450896666667","25.109355","6501500","五股區"
"248012","247-BX","2018/03/22 18:19:16","新北市五股區御史路1巷17號","121.441163333333","25.0905133333333","6501500","五股區"
"248004","677-BX","2018/03/22 18:19:24","新北市五股區成泰路二段101號","121.438306666667","25.0842216666667","6501500","五股區"
"248002","678-BX","2018/03/22 18:19:17","新北市五股區西雲路50號","121.44354","25.091","6501500","五股區"
"248010","682-TV","2018/03/22 18:19:12","新北市五股區成泰路一段165號","121.43523","25.074455","6501500","五股區"
"232011","375-UM","2018/03/22 18:19:11","新北市坪林區坪雙路一段21號","121.712931666667","24.94126","6502000","坪林區"
"244013","069-UM","2018/03/22 18:19:10","新北市林口區中山路142巷2號","121.391585","25.0791133333333","6501700","林口區"
"244007","080-UY","2018/03/22 18:19:25","新北市林口區林口路226號","121.386851666667","25.0838566666667","6501700","林口區"
"244025","742-UY","2018/03/22 18:19:25","新北市林口區南勢七街11號","121.355323333333","25.06925","6501700","林口區"
"244023","483-VK","2018/03/22 18:19:06","新北市林口區仁愛路二段8號","121.385843333333","25.0763433333333","6501700","林口區"
"244017","485-VK","2018/03/22 18:19:25","新北市林口區八德路20巷1號","121.368251666667","25.0670783333333","6501700","林口區"
"244009","656-BX","2018/03/22 18:19:09","新北市林口區文林三街43號","121.375565","25.0869333333333","6501700","林口區"
"244019","657-BX","2018/03/22 18:19:22","新北市林口區忠孝路561巷13號","121.373133333333","25.0687433333333","6501700","林口區"
"244011","701-TV","2018/03/22 18:19:27","新北市林口區中正路74巷5弄2號","121.394578333333","25.0780483333333","6501700","林口區"
"244021","838-TS","2018/03/22 18:19:26","新北市林口區自強一街53號","121.399396666667","25.0774866666667","6501700","林口區"
"243013","646-TV","2018/03/22 18:19:07","新北市泰山區錢厝坑13號","121.414903333333","25.0405766666667","6501600","泰山區"
"222003","436-BY","2018/03/22 18:19:16","新北市深坑區旺耽路67號","121.626298333333","25.00306","6501800","深坑區"
"222002","659-BX","2018/03/22 18:19:11","新北市深坑區雲鄉路1號","121.620978333333","25.0001666666667","6501800","深坑區"
"231059","046-UY","2018/03/22 18:19:16","新北市新店區安華路28-1號","121.519595","24.9608633333333","6500600","新店區"
"231060","106-UY","2018/03/22 18:19:12","新北市新店區安華路28-1號","121.519613333333","24.9608283333333","6500600","新店區"
"231047","108-UY","2018/03/22 18:19:19","新北市新店區安華路28-1號","121.519915","24.9610416666667","6500600","新店區"
"231052","187-VK","2018/03/22 18:19:13","新北市新店區安康路一段164-1號","121.525908333333","24.9630216666667","6500600","新店區"
"231050","KEA-2219","2018/03/22 18:19:22","新北市新店區安華路28-1號","121.519895","24.961265","6500600","新店區"
"221015","KEA-2785","2018/03/22 18:19:18","新北市汐止區鄉長路二段23巷1號","121.667168333333","25.0825333333333","6501100","汐止區"
"231057","256-BX","2018/03/22 18:19:25","新北市新店區安華路28-1號","121.519761666667","24.96108","6500600","新店區"
"231046","278-BY","2018/03/22 18:19:15","新北市新店區直潭七街60號","121.532268333333","24.93983","6500600","新店區"
"231054","AAD-862","2018/03/22 18:19:10","新北市新店區安華路28-1號","121.519913333333","24.9611233333333","6500600","新店區"
"231058","3712-VJ","2018/03/22 18:19:08","新北市新店區安康路一段17號","121.533088333333","24.9603466666667","6500600","新店區"
"231056","3713-VJ","2018/03/22 18:19:13","新北市新店區中央路57號","121.532818333333","24.9773733333333","6500600","新店區"
"231055","4716-K9","2018/03/22 18:19:21","新北市新店區環河路1-1號","121.538","24.9615633333333","6500600","新店區"
"231067","4772-VM","2018/03/22 18:19:07","新北市新店區安華路28-1號","121.519328333333","24.9607333333333","6500600","新店區"
"231065","512-UM","2018/03/22 18:19:21","新北市新店區安華路28-1號","121.51941","24.96133","6500600","新店區"
"231064","513-UM","2018/03/22 18:19:06","新北市新店區安華路28-1號","121.51971","24.9611416666667","6500600","新店區"
"231045","617-UM","2018/03/22 18:19:12","新北市新店區安華路28-1號","121.51951","24.9609883333333","6500600","新店區"
"231040","619-UM","2018/03/22 18:19:08","新北市新店區安華路28-1號","121.519645","24.9607533333333","6500600","新店區"
"231003","641-BX","2018/03/22 18:19:18","新北市新店區安華路28-1號","121.519543333333","24.9605733333333","6500600","新店區"
"231063","645-TV","2018/03/22 18:19:05","新北市新店區安華路28-1號","121.51937","24.9607166666667","6500600","新店區"
"231049","719-UM","2018/03/22 18:19:18","新北市新店區安華路28-1號","121.519518333333","24.9611483333333","6500600","新店區"
"231062","720-UM","2018/03/22 18:19:12","新北市新店區安華路28-1號","121.519446666667","24.961475","6500600","新店區"
"231044","897-TW","2018/03/22 18:19:27","新北市新店區安華路28-1號","121.51972","24.9608233333333","6500600","新店區"
"231043","899-TW","2018/03/22 18:19:11","新北市新店區安華路28-1號","121.519515","24.9612033333333","6500600","新店區"
"231066","AKT-0513","2018/03/22 18:19:17","新北市新店區安華路28-1號","121.519513333333","24.9605716666667","6500600","新店區"
"235066","003-UY","2018/03/22 18:19:21","新北市中和區中山路二段121號","121.502713333333","25.00359","6500300","中和區"
"235064","005-UY","2018/03/22 18:19:15","新北市中和區圓通路167巷8號","121.498035","24.9949933333333","6500300","中和區"
"235063","006-UY","2018/03/22 18:19:18","新北市中和區中正路589巷3號","121.485826666667","24.9941933333333","6500300","中和區"
"235056","096-UM","2018/03/22 18:19:14","新北市中和區中山路二段570號","121.483061666667","25.00512","6500300","中和區"
"235039","097-UM","2018/03/22 18:19:19","新北市中和區中正路275號","121.49547","24.9937016666667","6500300","中和區"
"235065","098-UM","2018/03/22 18:19:14","新北市中和區莊敬路49巷18號","121.501703333333","25.00611","6500300","中和區"
"235040","150-BY","2018/03/22 18:14:42","新北市中和區中正路305號","121.492248333333","24.9935566666667","6500300","中和區"
"235058","151-BY","2018/03/22 18:19:09","新北市中和區圓通路367巷17號","121.492393333333","24.9869333333333","6500300","中和區"
"235055","183-VK","2018/03/22 18:19:12","新北市中和區和城路一段271巷1號","121.485391666667","24.9917733333333","6500300","中和區"
"235038","185-VK","2018/03/22 18:19:13","新北市中和區秀朗路三段128巷12弄1號","121.524631666667","24.9927916666667","6500300","中和區"
"235049","186-VK","2018/03/22 18:19:24","新北市中和區中正路637巷52弄1號","121.48546","24.9934683333333","6500300","中和區"
"235044","293-VK","2018/03/22 18:19:19","新北市中和區錦和路350-1號","121.490513333333","24.993595","6500300","中和區"
"235072","301-VK","2018/03/22 18:19:23","新北市中和區錦和路156號","121.489798333333","24.9960183333333","6500300","中和區"
"235043","352-BY","2018/03/22 18:19:21","新北市中和區景平路377號","121.504125","24.9933766666667","6500300","中和區"
"235068","377-QA","2018/03/22 18:19:15","新北市中和區員山路36巷16-2號","121.485255","24.9912283333333","6500300","中和區"
"235061","378-QA","2018/03/22 18:19:28","新北市中和區國光街215巷26號","121.467141666667","25.00028","6500300","中和區"
"235050","4979-A6","2018/03/22 18:19:09","新北市中和區捷運路61巷5號","121.508816666667","24.9894566666667","6500300","中和區"
"235069","4980-A6","2018/03/22 18:19:28","新北市中和區錦和路180號","121.490023333333","24.99544","6500300","中和區"
"235042","551-UM","2018/03/22 18:19:08","新北市中和區大仁街20巷25弄29號","121.519081666667","24.99359","6500300","中和區"
"235070","558-UM","2018/03/22 18:19:23","新北市中和區圓通路176-1號","121.497193333333","24.9945333333333","6500300","中和區"
"235045","565-BX","2018/03/22 18:19:24","新北市中和區景安路200巷1弄2號","121.503728333333","24.9915016666667","6500300","中和區"
"235054","640-BX","2018/03/22 18:19:21","新北市中和區莒光路203號","121.472563333333","24.9988833333333","6500300","中和區"
"235047","732-UM","2018/03/22 18:19:16","新北市中和區復興路291號","121.501841666667","24.99026","6500300","中和區"
"235046","733-UM","2018/03/22 18:19:08","新北市中和區員山路36巷13號","121.484145","24.990845","6500300","中和區"
"235062","800-TS","2018/03/22 18:19:22","新北市中和區景平路999巷2號","121.495341666667","25.006015","6500300","中和區"
"235057","801-TS","2018/03/22 18:19:17","新北市中和區員山路261號","121.481315","24.99916","6500300","中和區"
"235041","802-TS","2018/03/22 18:19:13","新北市中和區中正路2-1號","121.503125","24.9936","6500300","中和區"
"235052","805-TS","2018/03/22 18:19:28","新北市中和區捷運路100-1號","121.506176666667","24.99124","6500300","中和區"
"235048","896-TW","2018/03/22 18:19:14","新北市中和區錦和路350-1號","121.490086666667","24.9935566666667","6500300","中和區"
"235053","900-TW","2018/03/22 18:19:20","新北市中和區中正路637巷52弄1號","121.485513333333","24.9933466666667","6500300","中和區"
"235051","157-BY","2018/03/22 18:19:16","新北市中和區信義街107號","121.51203","24.986995","6500300","中和區"
"235037","AAC-213","2018/03/22 18:19:23","新北市中和區景德街52號","121.517513333333","24.9914483333333","6500300","中和區"
"226004","312-R5","2018/03/22 18:19:21","新北市平溪區靜安路二段16號","121.707783333333","25.018655","6502400","平溪區"
"228003","097-TW","2018/03/22 18:19:07","新北市貢寮區真理里美艷山街49號","121.923255","25.0693316666667","6502600","貢寮區"
"228001","212-TW","2018/03/22 18:19:26","新北市貢寮區真理里新港街26巷55弄2-1號","121.92739","25.0528766666667","6502600","貢寮區"
"228002","585-TW","2018/03/22 18:19:15","新北市貢寮區福連里馬崗街1號","121.99821","25.0162533333333","6502600","貢寮區"
"224010","AGQ-8101","2018/03/22 18:00:20","新北市瑞芳區烏勢巷145號","121.84758","25.1087333333333","6501200","瑞芳區"
"224006","676-BX","2018/03/22 18:19:11","新北市瑞芳區民權街3-2號","121.808033333333","25.1074933333333","6501200","瑞芳區"
"224002","639-TC","2018/03/22 18:19:26","新北市瑞芳區三爪子坑路149巷22-14號","121.811688333333","25.1059","6501200","瑞芳區"
"224008","285-BY","2018/03/22 18:19:27","新北市瑞芳區逢甲路84號","121.809753333333","25.10872","6501200","瑞芳區"
"224009","273-VK","2018/03/22 18:19:27","新北市瑞芳區金光路162號","121.855495","25.1066116666667","6501200","瑞芳區"
"224005","271-BY","2018/03/22 18:19:07","新北市瑞芳區建基新村5-1號","121.811911666667","25.1310733333333","6501200","瑞芳區"
"227010","642-TC","2018/03/22 18:19:09","新北市雙溪區牡丹里牡丹73號","121.851693333333","25.0593483333333","6502500","雙溪區"
"227004","400-TW","2018/03/22 18:19:08","新北市雙溪區共和里中山路2號","121.863781666667","25.0338166666667","6502500","雙溪區"
"253005","032-BX","2018/03/22 18:19:24","新北市石門區中央路4-1號","121.565378333333","25.29133","6502200","石門區"
"253006","295-VK","2018/03/22 18:19:09","新北市石門區老梅路78號","121.54701","25.28919","6502200","石門區"
"222001","KEA-2212","2018/03/22 18:19:14","新北市深坑區北深路二段66號","121.61901","25.0041333333333","6501800","深坑區"
"208002","KEA-2872","2018/03/22 18:19:07","新北市金山區清泉里清水路60巷20號","121.635123333333","25.2336333333333","6502700","金山區"
"208003","665-BX","2018/03/22 18:19:17","新北市金山區民生路51巷1-2號","121.64189","25.219985","6502700","金山區"
"208001","761-BX","2018/03/22 18:19:15","新北市金山區民生路51巷1-2號","121.64178","25.2188716666667","6502700","金山區"
"251004","009-UM","2018/03/22 18:19:21","新北市淡水區民族路110巷12弄3號","121.462126666667","25.13574","6501000","淡水區"
"251005","010-UM","2018/03/22 18:19:24","新北市淡水區水源街一段122巷37號","121.447146666667","25.17048","6501000","淡水區"
"251001","011-UM","2018/03/22 18:19:25","新北市淡水區自強路303號","121.461963333333","25.1317333333333","6501000","淡水區"
"251013","179-VK","2018/03/22 18:19:22","新北市淡水區行忠路782號","121.472728333333","25.1996066666667","6501000","淡水區"
"251014","180-VK","2018/03/22 18:19:21","新北市淡水區南平18號","121.491613333333","25.2193733333333","6501000","淡水區"
"251008","181-VK","2018/03/22 18:19:21","新北市淡水區淡金路12-1號","121.458021666667","25.1603466666667","6501000","淡水區"
"251015","182-VK","2018/03/22 18:19:21","新北市淡水區興福寮88巷1號","121.485195","25.1648066666667","6501000","淡水區"
"251012","441-VK","2018/03/22 18:19:10","新北市淡水區北新路二段77-5號","121.480531666667","25.18558","6501000","淡水區"
"251016","442-VK","2018/03/22 18:19:12","新北市淡水區淡金路三段224號","121.448918333333","25.2048283333333","6501000","淡水區"
"251006","561-UM","2018/03/22 18:19:15","新北市淡水區新民街76巷24號","121.439131666667","25.1770383333333","6501000","淡水區"
"251011","650-BX","2018/03/22 18:19:25","新北市淡水區坪頂路41號","121.45723","25.16227","6501000","淡水區"
"251002","672-BX","2018/03/22 18:19:25","新北市淡水區中正東路一段38號","121.45264","25.1622216666667","6501000","淡水區"
"251010","673-BX","2018/03/22 18:19:19","新北市淡水區淡海路199號","121.420313333333","25.1848016666667","6501000","淡水區"
"251003","766-UM","2018/03/22 18:19:14","新北市淡水區北新路137號","121.449393333333","25.1789283333333","6501000","淡水區"
"207003","550-UM","2018/03/22 18:19:19","新北市萬里區野柳里港東路6-4號","121.686718333333","25.2033333333333","6502800","萬里區"
"207004","225-TW","2018/03/22 18:19:17","新北市萬里區中幅里中福路39-2號","121.676895","25.1658233333333","6502800","萬里區"
"252002","178-VK","2018/03/22 18:19:14","新北市三芝區中山路二段39號","121.50296","25.255135","6502100","三芝區"
"252003","249-BX","2018/03/22 18:19:11","新北市三芝區錫板里南勢崗5-5號","121.480751666667","25.26315","6502100","三芝區"
"252001","292-VK","2018/03/22 18:19:20","新北市三芝區中興街二段2號","121.498438333333","25.2567266666667","6502100","三芝區"
"237004","KEA-2597","2018/03/22 18:19:19","新北市三峽區大埔路216號","121.372921666667","24.8932133333333","6500900","三峽區"
"237007","153-BY","2018/03/22 18:19:08","新北市三峽區中正路二段447號","121.362501666667","24.9067883333333","6500900","三峽區"
"237009","210-TH","2018/03/22 18:19:27","新北市三峽區大勇路36巷36號","121.365721666667","24.9370883333333","6500900","三峽區"
"237013","252-BX","2018/03/22 18:19:24","新北市三峽區介壽路一段207號","121.37864","24.9305383333333","6500900","三峽區"
"237012","275-BY","2018/03/22 18:19:11","新北市三峽區民生街1巷5-42號","121.378885","24.935285","6500900","三峽區"
"237008","302-VK","2018/03/22 18:19:13","新北市三峽區白雞68-31號","121.392433333333","24.909095","6500900","三峽區"
"237014","433-BY","2018/03/22 18:19:19","新北市三峽區復興路110巷1弄24號","121.372188333333","24.9384416666667","6500900","三峽區"
"237006","5529-G3","2018/03/22 18:19:12","新北市三峽區溪東路235號","121.40654","24.93267","6500900","三峽區"
"237011","KEA-2596","2018/03/22 18:19:12","新北市三峽區溪東路321號","121.410465","24.9302666666667","6500900","三峽區"
"237010","706-TV","2018/03/22 18:19:12","新北市三峽區民族街17-1號","121.36949","24.9306483333333","6500900","三峽區"
"237005","AKY-6261","2018/03/22 18:19:21","新北市三峽區清水街330號","121.37149","24.9339916666667","6500900","三峽區"
"236071","105-UM","2018/03/22 18:19:15","新北市土城區明德路一段86號","121.464871666667","24.9798333333333","6501300","土城區"
"236042","107-UM","2018/03/22 18:19:18","新北市土城區裕生路21巷6弄4號","121.448691666667","24.9869683333333","6501300","土城區"
"236078","166-UM","2018/03/22 18:19:08","新北市土城區永安街86巷1號","121.431546666667","24.9638133333333","6501300","土城區"
"236030","253-BX","2018/03/22 18:19:09","新北市土城區順風路30號","121.44006","24.9770933333333","6501300","土城區"
"236026","269-VK","2018/03/22 18:19:04","新北市土城區承天路18號","121.439491666667","24.9635233333333","6501300","土城區"
"236014","270-VK","2018/03/22 18:19:24","新北市土城區青雲路39巷7號","121.460271666667","24.9873416666667","6501300","土城區"
"236037","271-VK","2018/03/22 18:19:23","新北市土城區青雲路451巷8弄19號","121.459513333333","24.9739716666667","6501300","土城區"
"236021","401-BY","2018/03/22 18:19:13","新北市土城區明德路二段8巷2號","121.452186666667","24.9803633333333","6501300","土城區"
"236058","912-UM","2018/03/22 18:19:12","新北市土城區中央路四段241號","121.413243333333","24.9549983333333","6501300","土城區"
"236051","913-UM","2018/03/22 18:19:22","新北市土城區明德路一段361-3號","121.456076666667","24.9777866666667","6501300","土城區"
"236062","915-UM","2018/03/22 18:19:12","新北市土城區金城路三段207巷11號","121.470145","24.9899366666667","6501300","土城區"
"236053","AAC-216","2018/03/22 18:19:17","新北市土城區中華路二段100號","121.438126666667","24.974395","6501300","土城區"
"242058","986-R7","2018/03/22 18:19:10","新北市新莊區新北大道七段842號","121.413696666667","25.0236816666667","6500500","新莊區"
"242053","751-BX","2018/03/22 18:19:21","新北市新莊區民安西路468號","121.431511666667","25.008025","6500500","新莊區"
"242029","705-TV","2018/03/22 18:19:18","新北市新莊區幸福路908號","121.442856666667","25.049005","6500500","新莊區"
"242027","615-BX","2018/03/22 18:19:28","新北市新莊區幸福路834號","121.445266666667","25.0491333333333","6500500","新莊區"
"242025","613-BX","2018/03/22 18:19:20","新北市新莊區五權一路12巷12號","121.457276666667","25.0644883333333","6500500","新莊區"
"242042","566-BX","2018/03/22 18:19:23","新北市新莊區天祥街96號","121.415075","25.0296266666667","6500500","新莊區"
"242046","497-BY","2018/03/22 18:19:07","新北市新莊區中正路829巷21號","121.421185","25.0276183333333","6500500","新莊區"
"242051","441-UM","2018/03/22 18:19:15","新北市新莊區民安東路11號","121.427881666667","25.0210216666667","6500500","新莊區"
"242056","440-UM","2018/03/22 18:19:23","新北市新莊區瓊林路13-8號","121.448141666667","25.0302083333333","6500500","新莊區"
"242007","413-TV","2018/03/22 18:19:08","新北市新莊區中華路二段9號","121.453783333333","25.0455866666667","6500500","新莊區"
"242044","400-BY","2018/03/22 18:19:19","新北市新莊區新北大道七段367號","121.412455","25.026625","6500500","新莊區"
"242061","353-BY","2018/03/22 18:19:15","新北市新莊區新樹路69-4號","121.438735","25.02974","6500500","新莊區"
"242009","132-UY","2018/03/22 18:19:24","新北市新莊區幸福路600號","121.453063333333","25.0494566666667","6500500","新莊區"
"242039","133-UY","2018/03/22 18:19:15","新北市新莊區民安東路176號","121.433028333333","25.0204516666667","6500500","新莊區"
"242031","135-UY","2018/03/22 18:19:24","新北市新莊區新泰路277巷43弄12號","121.443546666667","25.0398816666667","6500500","新莊區"
"242015","346-TH","2018/03/22 18:19:12","新北市新莊區中平路1號","121.444626666667","25.0428366666667","6500500","新莊區"
"242021","348-TH","2018/03/22 18:19:23","新北市新莊區新興街16號","121.450766666667","25.036375","6500500","新莊區"
"242002","349-TH","2018/03/22 18:19:11","新北市新莊區環漢路二段385號","121.451176666667","25.032615","6500500","新莊區"
"238015","755-BX","2018/03/22 18:19:25","新北市樹林區文化街112巷2號","121.416898333333","24.9901516666667","6500700","樹林區"
"238023","601-UM","2018/03/22 18:19:15","新北市樹林區忠愛街15號","121.408018333333","25.0155583333333","6500700","樹林區"
"238019","599-UM","2018/03/22 18:19:08","新北市樹林區中華路190號","121.412021666667","24.9805633333333","6500700","樹林區"
"238018","571-TV","2018/03/22 18:19:13","新北市樹林區保安街一段18-3號","121.427573333333","24.993535","6500700","樹林區"
"238024","5061-A6","2018/03/22 18:19:13","新北市樹林區中山路一段276號","121.420555","24.9869583333333","6500700","樹林區"
"238021","KEA-2217","2018/03/22 18:19:21","新北市樹林區柑園街一段33巷21號","121.40489","24.95787","6500700","樹林區"
"238025","303-VK","2018/03/22 18:19:23","新北市樹林區保安街一段342號","121.417895","24.99808","6500700","樹林區"
"238017","283-BY","2018/03/22 18:19:19","新北市樹林區保安街二段333巷2號","121.41246","25.0076566666667","6500700","樹林區"
"238020","268-VK","2018/03/22 18:19:19","新北市樹林區中山路三段204號","121.386741666667","24.9682166666667","6500700","樹林區"
"238026","172-UY","2018/03/22 18:19:19","新北市樹林區佳園路一段75巷100號","121.396466666667","24.9704816666667","6500700","樹林區"
"238016","169-UY","2018/03/22 18:19:17","新北市樹林區文化街23號","121.419241666667","24.98767","6500700","樹林區"
"239007","AAC-297","2018/03/22 18:19:14","新北市鶯歌區育英街53號","121.347113333333","24.95269","6500800","鶯歌區"
"239006","891-R6","2018/03/22 18:19:24","新北市鶯歌區德昌街140巷28號","121.332285","24.9614716666667","6500800","鶯歌區"
"239008","527-UM","2018/03/22 18:19:16","新北市鶯歌區朝陽街2號","121.336238333333","24.9765683333333","6500800","鶯歌區"
"239005","526-UM","2018/03/22 18:19:24","新北市鶯歌區鶯桃路668巷73號","121.329838333333","24.9717133333333","6500800","鶯歌區"
"239001","417-VK","2018/03/22 18:19:11","新北市鶯歌區國中街195號","121.33829","24.9391883333333","6500800","鶯歌區"
"239003","360-BY","2018/03/22 18:19:20","新北市鶯歌區福安街58號","121.335645","24.9652616666667","6500800","鶯歌區"
"239002","359-BY","2018/03/22 18:19:15","新北市鶯歌區建國路156號","121.350705","24.9537866666667","6500800","鶯歌區"
"239004","193-VK","2018/03/22 18:19:19","新北市鶯歌區尖山路166巷36-1號","121.344948333333","24.9490933333333","6500800","鶯歌區"
"221008","489-VK","2018/03/22 18:19:21","新北市汐止區康寧街777-1號","121.645041666667","25.0758583333333","6501100","汐止區"
"221036","130-UY","2018/03/22 18:19:22","新北市汐止區長興街一段6號","121.669676666667","25.0785066666667","6501100","汐止區"
"221010","269-BY","2018/03/22 18:19:15","新北市汐止區祥雲街18巷9號","121.646755","25.0896116666667","6501100","汐止區"
"221012","278-VK","2018/03/22 18:19:12","新北市汐止區保長路35巷15弄5號","121.673046666667","25.0802816666667","6501100","汐止區"
"221023","279-VK","2018/03/22 18:19:10","新北市汐止區中興路244號","121.629505","25.0681466666667","6501100","汐止區"
"221032","280-BY","2018/03/22 18:19:20","新北市汐止區力行街41號","121.616708333333","25.04998","6501100","汐止區"
"221027","281-BY","2018/03/22 18:19:22","新北市汐止區和平街6巷5弄2號","121.66359","25.07174","6501100","汐止區"
"221029","298-VK","2018/03/22 18:19:06","新北市汐止區康寧街901號","121.65111","25.0751583333333","6501100","汐止區"
"221031","353-TW","2018/03/22 18:19:26","新北市汐止區光復街8巷1號","121.6387","25.058085","6501100","汐止區"
"221035","622-UM","2018/03/22 18:19:16","新北市汐止區大同路二段179號","121.651886666667","25.0642033333333","6501100","汐止區"
"221038","646-BX","2018/03/22 18:19:16","新北市汐止區忠孝東路303號","121.664185","25.06896","6501100","汐止區"
"221033","647-BX","2018/03/22 18:19:08","新北市汐止區宜興街35巷2號","121.622393333333","25.042375","6501100","汐止區"
"221002","707-TV","2018/03/22 18:19:14","新北市汐止區福德一路201巷32號","121.635836666667","25.0648633333333","6501100","汐止區"
"221018","753-BX","2018/03/22 18:19:16","新北市汐止區茄苳路118號","121.668068333333","25.0702733333333","6501100","汐止區"
"242011","281-VK","2018/03/22 18:19:24","新北市新莊區中港路中慶巷27弄13號","121.450085","25.053255","6500500","新莊區"
