"lineid","car","time","location","longitude","latitude","cityid","cityname"
"234046","148-BY","2018/03/22 20:09:00","新北市永和區得和路382-1號","121.524916666667","24.9992483333333","6500400","永和區"
"234007","207-UY","2018/03/22 20:09:04","新北市永和區保生路48巷16號","121.506535","25.00872","6500400","永和區"
"234081","298-R6","2018/03/22 20:08:58","新北市永和區永亨路98號","121.523071666667","25.00485","6500400","永和區"
"234038","336-UY","2018/03/22 20:09:08","新北市永和區成功路一段47巷8號","121.527515","25.0040433333333","6500400","永和區"
"234064","337-UY","2018/03/22 20:09:04","新北市永和區秀朗路二段48號","121.521586666667","25.0022283333333","6500400","永和區"
"234086","338-UY","2018/03/22 20:09:05","新北市永和區中正路652號","121.516943333333","25.0084866666667","6500400","永和區"
"234070","552-UM","2018/03/22 20:09:01","新北市永和區福和路213號","121.519181666667","25.00749","6500400","永和區"
"234017","745-BX","2018/03/22 20:09:09","新北市永和區文化路86號","121.513918333333","25.0151966666667","6500400","永和區"
"234030","746-BX","2018/03/22 20:09:01","新北市永和區民權路49巷37號","121.521968333333","24.9975883333333","6500400","永和區"
"234054","KEA-2590","2018/03/22 20:08:58","新北市永和區博愛街15號","121.517228333333","25.0158266666667","6500400","永和區"
"234013","KEA-2591","2018/03/22 20:08:52","新北市永和區中山路一段214號","121.508371666667","25.0084733333333","6500400","永和區"
"234061","AAD-866","2018/03/22 20:08:54","新北市永和區中正路151巷5弄2-1號","121.515643333333","24.9987716666667","6500400","永和區"
"234042","862-TW","2018/03/22 20:09:04","新北市永和區雙和街43號","121.50893","25.00283","6500400","永和區"
"234050","863-TW","2018/03/22 20:09:08","新北市永和區保安路292號","121.505146666667","25.0119016666667","6500400","永和區"
"234011","9373-KE","2018/03/22 20:09:10","新北市永和區仁愛路352巷124號","121.500173333333","25.0085183333333","6500400","永和區"
"249005","172-UM","2018/03/22 20:09:01","新北市八里區下罟子50號","121.382725","25.1391933333333","6502300","八里區"
"249001","173-UM","2018/03/22 20:08:54","新北市八里區中華路二段310號","121.403828333333","25.1484","6502300","八里區"
"249004","303-UY","2018/03/22 20:08:57","新北市八里區中山路一段398巷51弄10號","121.41087","25.15886","6502300","八里區"
"249002","305-UY","2018/03/22 20:09:04","新北市五股區成泰路四段24-5號","121.453495","25.1069816666667","6502300","八里區"
"249003","593-UM","2018/03/22 20:09:08","新北市八里區中山路二段540巷9弄2號","121.396921666667","25.1470966666667","6502300","八里區"
"248014","025-BX","2018/03/22 20:08:53","新北市五股區成泰路三段64號","121.442958333333","25.0893666666667","6501500","五股區"
"248016","026-BX","2018/03/22 20:09:09","新北市五股區成泰路三段577巷150號","121.447811666667","25.1043516666667","6501500","五股區"
"248008","095-VK","2018/03/22 20:09:09","新北市五股區中興路一段1巷31-1號","121.469433333333","25.0700133333333","6501500","五股區"
"248012","247-BX","2018/03/22 20:08:56","新北市五股區民義路一段216號","121.430415","25.0895766666667","6501500","五股區"
"248004","677-BX","2018/03/22 20:09:04","新北市五股區成泰路一段130-1號","121.435178333333","25.0749583333333","6501500","五股區"
"248002","678-BX","2018/03/22 20:08:56","新北市五股區成泰路三段277號","121.447076666667","25.0941366666667","6501500","五股區"
"248010","682-TV","2018/03/22 20:09:12","新北市五股區成泰路一段7巷44號","121.432501666667","25.0671666666667","6501500","五股區"
"234023","9380-KE","2018/03/22 20:08:52","新北市永和區中正路654巷32號","121.517801666667","25.008505","6500400","永和區"
"234077","969-R7","2018/03/22 20:09:01","新北市永和區智光街115號","121.515591666667","24.996115","6500400","永和區"
"234074","AAC-211","2018/03/22 20:09:13","新北市永和區豫溪街163號","121.521505","25.0103933333333","6500400","永和區"
"234067","AAC-212","2018/03/22 20:09:07","新北市永和區保平路145號","121.510018333333","25.0059783333333","6500400","永和區"
"234003","AAC-295","2018/03/22 20:09:08","新北市永和區中正路535號","121.516886666667","25.007885","6500400","永和區"
"243012","AAD-798","2018/03/22 20:09:03","新北市泰山區楓江路46巷3號","121.435286666667","25.062125","6501600","泰山區"
"243011","297-R6","2018/03/22 20:08:59","新北市泰山區明志路三段346號","121.421908333333","25.03519","6501600","泰山區"
"243015","380-SR","2018/03/22 20:09:03","新北市泰山區明志路一段453-1號","121.430688333333","25.05634","6501600","泰山區"
"243014","421-VK","2018/03/22 20:09:03","新北市泰山區明志路一段24號","121.43361","25.0655033333333","6501600","泰山區"
"243010","KEA-2215","2018/03/22 20:09:01","新北市泰山區明志路二段136巷1號","121.42703","25.05117","6501600","泰山區"
"243009","KEA-2216","2018/03/22 20:09:06","新北市泰山區泰林路二段116巷2弄1號","121.435008333333","25.0594616666667","6501600","泰山區"
"243013","646-TV","2018/03/22 20:08:59","新北市泰山區民國街18號","121.42568","25.043365","6501600","泰山區"
"243016","680-BX","2018/03/22 20:09:10","新北市泰山區新北大道六段347號","121.42293","25.0334233333333","6501600","泰山區"
"222003","436-BY","2018/03/22 20:08:59","新北市深坑區埔新街65號","121.62021","25.0024033333333","6501800","深坑區"
"222002","659-BX","2018/03/22 20:09:11","新北市深坑區北深路三段22號","121.609303333333","25.0011066666667","6501800","深坑區"
"231041","002-UM","2018/03/22 20:09:02","新北市新店區中正路460號","121.534015","24.9793866666667","6500600","新店區"
"231059","046-UY","2018/03/22 20:08:55","新北市新店區安德街33-1號","121.511318333333","24.9625166666667","6500600","新店區"
"231061","047-UY","2018/03/22 20:08:51","新北市新店區安興路32號","121.515766666667","24.9703683333333","6500600","新店區"
"231060","106-UY","2018/03/22 20:09:05","新北市新店區安康路三段351號","121.485078333333","24.9514166666667","6500600","新店區"
"231051","107-UY","2018/03/22 20:08:59","新北市新店區中央六街5號","121.530333333333","24.974475","6500600","新店區"
"231047","108-UY","2018/03/22 20:09:05","新北市新店區永華街61號","121.54474","24.975475","6500600","新店區"
"231052","187-VK","2018/03/22 20:08:52","新北市新店區新烏路三段寶島巷4號","121.55096","24.8991733333333","6500600","新店區"
"231050","KEA-2219","2018/03/22 20:09:02","新北市新店區北新路一段96巷23號","121.542895","24.96877","6500600","新店區"
"221015","KEA-2785","2018/03/22 20:08:58","新北市汐止區建成路13號","121.664556666667","25.0725866666667","6501100","汐止區"
"231057","256-BX","2018/03/22 20:09:05","新北市新店區花園一路一段2號","121.553158333333","24.93242","6500600","新店區"
"231054","AAD-862","2018/03/22 20:09:10","新北市新店區檳榔路9號","121.541045","24.964785","6500600","新店區"
"231056","3713-VJ","2018/03/22 20:08:53","新北市新店區北新路二段59巷1號","121.542323333333","24.9729383333333","6500600","新店區"
"231055","4716-K9","2018/03/22 20:09:01","新北市新店區中華路44號","121.539961666667","24.9683466666667","6500600","新店區"
"231067","4772-VM","2018/03/22 20:09:07","新北市新店區溪洲路30號","121.533383333333","24.9610333333333","6500600","新店區"
"231065","512-UM","2018/03/22 20:09:01","新北市新店區安祥路106巷94號","121.474305","24.9595","6500600","新店區"
"231064","513-UM","2018/03/22 20:09:06","新北市新店區安光路13號","121.513408333333","24.963855","6500600","新店區"
"231045","617-UM","2018/03/22 20:08:52","新北市新店區北宜路一段154號","121.540305","24.953745","6500600","新店區"
"231040","619-UM","2018/03/22 20:09:08","新北市新店區中正路104號","121.543193333333","24.9705466666667","6500600","新店區"
"231042","641-BX","2018/03/22 20:08:58","新北市新店區寶橋路78巷19號","121.547463333333","24.9747066666667","6500600","新店區"
"231063","645-TV","2018/03/22 20:09:05","新北市新店區黎明路55巷1號","121.502403333333","24.9482783333333","6500600","新店區"
"231068","718-UY","2018/03/22 20:09:00","新北市新店區中興路三段88號","121.545468333333","24.9786366666667","6500600","新店區"
"231049","719-UM","2018/03/22 20:09:06","新北市新店區北新路二段121巷15弄1號","121.542246666667","24.97472","6500600","新店區"
"231062","720-UM","2018/03/22 20:08:51","新北市新店區安康路二段356號","121.50219","24.9574616666667","6500600","新店區"
"231044","897-TW","2018/03/22 20:09:07","新北市新店區寶慶街58巷6號","121.542085","24.9870333333333","6500600","新店區"
"231043","899-TW","2018/03/22 20:09:11","新北市新店區民族路186號","121.53687","24.9760783333333","6500600","新店區"
"241011","013-R5","2018/03/22 20:08:59","新北市三重區三和路三段39號","121.495776666667","25.0712416666667","6500200","三重區"
"241028","022-UY","2018/03/22 20:09:06","新北市三重區仁化街137號","121.494663333333","25.0575166666667","6500200","三重區"
"241008","059-VK","2018/03/22 20:09:02","新北市三重區永福街197巷37弄3號","121.478268333333","25.0744016666667","6500200","三重區"
"241009","060-VK","2018/03/22 20:08:56","新北市三重區永福街115號","121.479128333333","25.0771183333333","6500200","三重區"
"241031","061-VK","2018/03/22 20:09:06","新北市三重區過圳街9-1號","121.488781666667","25.0602066666667","6500200","三重區"
"241015","062-VK","2018/03/22 20:09:04","新北市三重區福德北路45號","121.502276666667","25.0649566666667","6500200","三重區"
"241017","063-VK","2018/03/22 20:08:54","新北市三重區大同北路221巷50號","121.492565","25.0665833333333","6500200","三重區"
"241024","065-VK","2018/03/22 20:08:54","新北市三重區中正北路286號","121.480451666667","25.06862","6500200","三重區"
"241026","066-VK","2018/03/22 20:09:11","新北市三重區福德南路37號","121.502891666667","25.0623866666667","6500200","三重區"
"241002","090-VK","2018/03/22 20:09:09","新北市三重區仁忠街41號","121.495398333333","25.081715","6500200","三重區"
"241003","091-VK","2018/03/22 20:09:02","新北市三重區分子尾街45號","121.48921","25.0820666666667","6500200","三重區"
"241019","156-TC","2018/03/22 20:09:03","新北市三重區自強路二段33巷23號","121.490306666667","25.0697233333333","6500200","三重區"
"241005","262-UM","2018/03/22 20:09:07","新北市三重區溪尾街340號","121.488421666667","25.0850916666667","6500200","三重區"
"241016","265-UM","2018/03/22 20:09:11","新北市三重區大同北路91號","121.494795","25.0635733333333","6500200","三重區"
"241022","267-UM","2018/03/22 20:09:11","新北市三重區新北大道一段42號","121.487976666667","25.0613883333333","6500200","三重區"
"241018","268-UM","2018/03/22 20:09:00","新北市三重區正義北路256巷128號","121.493191666667","25.067745","6500200","三重區"
"241032","269-UM","2018/03/22 20:09:09","新北市三重區捷運路65號","121.483415","25.0555583333333","6500200","三重區"
"241013","270-UM","2018/03/22 20:09:04","新北市三重區三和路三段139巷25號","121.493655","25.07394","6500200","三重區"
"241007","398-BY","2018/03/22 20:09:01","新北市三重區仁美街48號","121.487191666667","25.0778416666667","6500200","三重區"
"241020","413-TH","2018/03/22 20:08:58","新北市三重區三和路三段121號","121.492793333333","25.0731383333333","6500200","三重區"
"241035","462-BY","2018/03/22 20:09:02","新北市三重區平安街13號","121.498653333333","25.0642983333333","6500200","三重區"
"241004","475-VK","2018/03/22 20:08:59","新北市三重區自強路四段107號","121.491538333333","25.0799083333333","6500200","三重區"
"241001","478-VK","2018/03/22 20:08:55","新北市三重區溪尾街16號","121.491386666667","25.0754033333333","6500200","三重區"
"241030","480-VK","2018/03/22 20:09:09","新北市三重區成功路145巷37號","121.48783","25.0532816666667","6500200","三重區"
"241014","543-UM","2018/03/22 20:09:11","新北市三重區安和路39號","121.501146666667","25.0693816666667","6500200","三重區"
"241023","545-UM","2018/03/22 20:08:54","新北市三重區頂崁街220巷2號","121.476925","25.0680583333333","6500200","三重區"
"241006","AAD-863","2018/03/22 20:09:11","新北市三重區車路頭街135-1號","121.484315","25.07614","6500200","三重區"
"241025","887-TS","2018/03/22 20:09:14","新北市三重區中正北路428巷37號","121.474526666667","25.0691816666667","6500200","三重區"
"241012","941-UM","2018/03/22 20:09:11","新北市三重區仁福街64巷35號","121.497703333333","25.0757916666667","6500200","三重區"
"241029","942-UM","2018/03/22 20:09:05","新北市三重區光明路32巷24號","121.49188","25.0587333333333","6500200","三重區"
"241033","AAC-255","2018/03/22 20:09:10","新北市三重區光復路一段70號","121.472001666667","25.049345","6500200","三重區"
"235066","003-UY","2018/03/22 20:09:00","新北市中和區水源路154巷2號","121.508088333333","25.0033233333333","6500300","中和區"
"235039","097-UM","2018/03/22 20:08:59","新北市中和區大勇街29巷23弄1號","121.515433333333","24.9946266666667","6500300","中和區"
"235065","098-UM","2018/03/22 20:08:54","新北市中和區永和路90巷2弄14號","121.497781666667","25.005525","6500300","中和區"
"235040","150-BY","2018/03/22 20:08:55","新北市中和區宜安路92巷7號","121.510845","24.99797","6500300","中和區"
"235068","377-QA","2018/03/22 20:08:55","新北市中和區福美路256巷16弄18號","121.498536666667","25.0060716666667","6500300","中和區"
"235050","4979-A6","2018/03/22 20:09:09","新北市中和區安樂路1號","121.511636666667","24.9918033333333","6500300","中和區"
"235069","4980-A6","2018/03/22 20:08:28","新北市中和區景新街132巷8-4號","121.504628333333","24.998105","6500300","中和區"
"235070","558-UM","2018/03/22 20:09:02","新北市中和區中正路418號","121.491821666667","24.9942816666667","6500300","中和區"
"235052","805-TS","2018/03/22 20:09:08","新北市中和區忠孝街22號","121.510406666667","24.9828416666667","6500300","中和區"
"235048","896-TW","2018/03/22 20:08:54","新北市新店區安和路三段140號","121.516161666667","24.986055","6500300","中和區"
"235051","157-BY","2018/03/22 20:09:01","新北市中和區景安路233號","121.504168333333","24.9910883333333","6500300","中和區"
"235037","AAC-213","2018/03/22 20:09:03","新北市中和區立人街67號","121.52001","24.9942583333333","6500300","中和區"
"235059","AAC-215","2018/03/22 20:09:03","新北市中和區圓通路335巷37弄8號","121.493801666667","24.9890366666667","6500300","中和區"
"220069","AAD-861","2018/03/22 20:09:09","新北市板橋區大明街20巷19弄13號","121.457928333333","25.0031883333333","6500100","板橋區"
"247024","893-R6","2018/03/22 20:08:51","新北市蘆洲區光明路112號","121.463596666667","25.08818","6501400","蘆洲區"
"247014","546-UM","2018/03/22 20:09:05","新北市蘆洲區中山二路265巷33弄2號","121.471125","25.07958","6501400","蘆洲區"
"247022","500-BY","2018/03/22 20:09:06","新北市蘆洲區三民路201號","121.470335","25.0877566666667","6501400","蘆洲區"
"247010","341-TH","2018/03/22 20:08:54","新北市蘆洲區集賢路406號","121.479975","25.081725","6501400","蘆洲區"
"247012","339-TH","2018/03/22 20:09:06","新北市蘆洲區民族路266號","121.478823333333","25.088885","6501400","蘆洲區"
"247006","336-TH","2018/03/22 20:08:53","新北市蘆洲區中山二路300巷1號","121.468481666667","25.0767566666667","6501400","蘆洲區"
"247004","335-TH","2018/03/22 20:08:57","新北市蘆洲區長安街285巷24號","121.456998333333","25.0839833333333","6501400","蘆洲區"
"247018","057-VK","2018/03/22 20:08:53","新北市蘆洲區民族路314巷1號","121.477268333333","25.0901733333333","6501400","蘆洲區"
"247008","056-VK","2018/03/22 20:09:00","新北市蘆洲區中山一路135巷6弄20號","121.475036666667","25.0811466666667","6501400","蘆洲區"
"247016","007-UY","2018/03/22 20:08:54","新北市蘆洲區光華路134號","121.466336666667","25.0823633333333","6501400","蘆洲區"
"247002","002-UY","2018/03/22 20:09:09","新北市蘆洲區永康街6號","121.459285","25.0860333333333","6501400","蘆洲區"
"247020","001-UY","2018/03/22 20:08:54","新北市蘆洲區民權路106巷5弄22號","121.474291666667","25.0891883333333","6501400","蘆洲區"
"224010","AGQ-8101","2018/03/22 20:09:00","新北市瑞芳區輕便路280-1號","121.844051666667","25.109205","6501200","瑞芳區"
"224007","275-VK","2018/03/22 19:49:51","新北市瑞芳區大寮路356-1號","121.784586666667","25.103505","6501200","瑞芳區"
"222001","KEA-2212","2018/03/22 20:08:54","新北市深坑區北深路三段191號","121.601218333333","25.0036916666667","6501800","深坑區"
"208002","KEA-2872","2018/03/22 20:09:07","新北市金山區中正路145號","121.631951666667","25.2212583333333","6502700","金山區"
"208003","665-BX","2018/03/22 20:08:53","新北市金山區永興里跳石4號","121.633695","25.2544733333333","6502700","金山區"
"251009","008-UM","2018/03/22 20:08:57","新北市淡水區清水街1號","121.445171666667","25.1703383333333","6501000","淡水區"
"251004","009-UM","2018/03/22 19:43:36","新北市淡水區中正東路二段163號","121.459606666667","25.1457416666667","6501000","淡水區"
"251013","179-VK","2018/03/22 20:09:01","新北市淡水區奎柔山路295號","121.459466666667","25.2052583333333","6501000","淡水區"
"251014","180-VK","2018/03/22 20:08:58","新北市淡水區石頭厝3號","121.458688333333","25.2355566666667","6501000","淡水區"
"251008","181-VK","2018/03/22 20:09:02","新北市淡水區淡海路72巷33弄2號","121.424455","25.1827066666667","6501000","淡水區"
"251015","182-VK","2018/03/22 20:09:01","新北市淡水區埤島3-23號","121.447418333333","25.1895716666667","6501000","淡水區"
"251012","441-VK","2018/03/22 20:09:10","新北市淡水區下圭柔山56-11號","121.447371666667","25.2046116666667","6501000","淡水區"
"251016","442-VK","2018/03/22 20:09:08","新北市淡水區番子田18-11號","121.455805","25.2303433333333","6501000","淡水區"
"251006","561-UM","2018/03/22 20:09:03","新北市淡水區北新路141巷30號","121.448623333333","25.17967","6501000","淡水區"
"251002","672-BX","2018/03/22 20:09:05","新北市淡水區中正路288號","121.437653333333","25.1719416666667","6501000","淡水區"
"251010","673-BX","2018/03/22 20:08:59","新北市淡水區新市三路一段306號","121.4291","25.1975616666667","6501000","淡水區"
"251003","766-UM","2018/03/22 20:08:54","新北市淡水區中山北路二段189巷15弄29號","121.443358333333","25.18419","6501000","淡水區"
"207003","550-UM","2018/03/22 20:08:59","新北市萬里區大鵬里萬里加投186號","121.642828333333","25.215655","6502800","萬里區"
"207004","225-TW","2018/03/22 20:08:57","新北市萬里區北基里仁一街30號","121.682461666667","25.1766716666667","6502800","萬里區"
"252002","178-VK","2018/03/22 20:09:00","新北市三芝區三民街8巷3號","121.50412","25.2583183333333","6502100","三芝區"
"252001","292-VK","2018/03/22 20:09:00","新北市三芝區公正街66號","121.499786666667","25.2574633333333","6502100","三芝區"
"237012","275-BY","2018/03/22 20:09:11","新北市三峽區中華路48巷16號","121.371096666667","24.93014","6500900","三峽區"
"237014","433-BY","2018/03/22 20:08:59","新北市三峽區中正路一段284號","121.371723333333","24.9261616666667","6500900","三峽區"
"237006","5529-G3","2018/03/22 20:09:12","新北市三峽區中正路二段299巷2號","121.366706666667","24.911035","6500900","三峽區"
"237005","AKY-6261","2018/03/22 20:09:01","新北市三峽區三樹路98巷58號","121.383816666667","24.9383166666667","6500900","三峽區"
"236071","105-UM","2018/03/22 20:08:55","新北市土城區中央路三段147巷2弄13號","121.432045","24.9648533333333","6501300","土城區"
"236042","107-UM","2018/03/22 20:08:58","新北市土城區學成路22巷2弄2號","121.453121666667","24.987075","6501300","土城區"
"236078","166-UM","2018/03/22 20:09:08","新北市土城區民族街22巷4號","121.41935","24.963355","6501300","土城區"
"236030","253-BX","2018/03/22 20:09:09","新北市土城區中央路一段116號","121.446436666667","24.9880983333333","6501300","土城區"
"236026","269-VK","2018/03/22 20:09:03","新北市土城區明德路二段102巷25號","121.445611666667","24.984985","6501300","土城區"
"236014","270-VK","2018/03/22 20:09:04","新北市土城區廣明街2號","121.45604","24.991735","6501300","土城區"
"236037","271-VK","2018/03/22 20:08:49","新北市土城區延吉街296巷3號","121.4644","24.9845633333333","6501300","土城區"
"236021","401-BY","2018/03/22 20:08:52","新北市土城區延吉街111巷12弄15-3號","121.471595","24.9849133333333","6501300","土城區"
"236051","913-UM","2018/03/22 20:08:54","新北市土城區清水路340號","121.464228333333","24.98587","6501300","土城區"
"236053","AAC-216","2018/03/22 20:08:57","新北市土城區中華路一段195號","121.443176666667","24.985485","6501300","土城區"
"242034","AAC-296","2018/03/22 20:08:52","新北市新莊區中正路318巷17號","121.446285","25.0360766666667","6500500","新莊區"
"242058","986-R7","2018/03/22 20:08:56","新北市新莊區龍安路355號","121.423061666667","25.01898","6500500","新莊區"
"242053","751-BX","2018/03/22 20:08:59","新北市新莊區西盛街395巷22弄6號","121.428288333333","25.0128416666667","6500500","新莊區"
"242029","705-TV","2018/03/22 20:09:00","新北市新莊區中原路319-2號","121.44672","25.054425","6500500","新莊區"
"242027","615-BX","2018/03/22 20:09:09","新北市新莊區幸福路741號","121.448695","25.0491466666667","6500500","新莊區"
"242025","613-BX","2018/03/22 20:09:00","新北市新莊區中環路二段447號","121.441908333333","25.045435","6500500","新莊區"
"242042","566-BX","2018/03/22 20:08:58","新北市新莊區青山路一段195號","121.398256666667","25.0313916666667","6500500","新莊區"
"242046","497-BY","2018/03/22 20:09:06","新北市新莊區裕民街85巷22弄1號","121.419453333333","25.0229316666667","6500500","新莊區"
"242051","441-UM","2018/03/22 20:08:55","新北市新莊區民安西路150巷19號","121.42528","25.0165266666667","6500500","新莊區"
"242056","440-UM","2018/03/22 20:09:07","新北市新莊區新莊路649巷15弄1號","121.445031666667","25.03149","6500500","新莊區"
"242036","415-TV","2018/03/22 20:09:02","新北市新莊區建安街9巷16號","121.429586666667","25.026705","6500500","新莊區"
"242007","413-TV","2018/03/22 20:09:08","新北市新莊區思源路453巷1號","121.45923","25.0533883333333","6500500","新莊區"
"242044","400-BY","2018/03/22 20:09:12","新北市新莊區中正路895-50號","121.411895","25.021765","6500500","新莊區"
"242023","362-BY","2018/03/22 20:09:05","新北市新莊區化成路602號","121.466166666667","25.0544916666667","6500500","新莊區"
"242061","353-BY","2018/03/22 20:09:13","新北市新莊區瓊林路瓊英巷5號","121.443621666667","25.0273683333333","6500500","新莊區"
"242009","132-UY","2018/03/22 20:09:03","新北市新莊區昌盛街35巷1弄2號","121.45406","25.05037","6500500","新莊區"
"242039","133-UY","2018/03/22 20:09:14","新北市新莊區民安西路122號","121.42675","25.0184116666667","6500500","新莊區"
"242031","135-UY","2018/03/22 20:08:57","新北市新莊區中正路455-1號","121.442663333333","25.0340816666667","6500500","新莊區"
"242048","172-VK","2018/03/22 20:08:52","新北市新莊區四維路182巷2弄10號","121.422238333333","25.02227","6500500","新莊區"
"242017","175-VK","2018/03/22 20:09:13","新北市新莊區中港路360-1號","121.452103333333","25.04682","6500500","新莊區"
"242004","176-VK","2018/03/22 20:09:03","新北市新莊區頭興街11巷3號","121.461916666667","25.0534383333333","6500500","新莊區"
"242015","346-TH","2018/03/22 20:09:04","新北市新莊區中平路26巷44號","121.44679","25.043255","6500500","新莊區"
"242021","348-TH","2018/03/22 20:09:03","新北市新莊區建中街48巷9號","121.448251666667","25.037745","6500500","新莊區"
"242002","349-TH","2018/03/22 20:08:51","新北市新莊區中正路145號","121.459518333333","25.0382583333333","6500500","新莊區"
"242019","350-TH","2018/03/22 20:09:08","新北市新莊區博愛路1巷2號","121.45651","25.0427533333333","6500500","新莊區"
"242013","351-TH","2018/03/22 20:09:03","新北市新莊區幸福路710巷5弄2號","121.449698333333","25.0497116666667","6500500","新莊區"
"238021","KEA-2217","2018/03/22 20:09:07","新北市樹林區田尾街162號","121.402918333333","24.9511966666667","6500700","樹林區"
"238020","268-VK","2018/03/22 20:08:55","新北市樹林區中山路三段204號","121.386741666667","24.9682166666667","6500700","樹林區"
"221008","489-VK","2018/03/22 20:09:01","台北市內湖區康樂街164號","121.61947","25.07321","6501100","汐止區"
"221036","130-UY","2018/03/22 20:09:02","新北市汐止區新台五路二段102號","121.662515","25.0659666666667","6501100","汐止區"
"221010","269-BY","2018/03/22 20:09:04","新北市汐止區八連路一段217號","121.640556666667","25.0818716666667","6501100","汐止區"
"221012","278-VK","2018/03/22 20:09:12","新北市汐止區汐平路二段15號","121.69588","25.0642633333333","6501100","汐止區"
"221023","279-VK","2018/03/22 20:09:10","新北市汐止區明峰街298巷7弄2號","121.624871666667","25.0691583333333","6501100","汐止區"
"221032","280-BY","2018/03/22 20:09:00","新北市汐止區弘道街10號","121.616973333333","25.0485416666667","6501100","汐止區"
"221027","281-BY","2018/03/22 20:09:02","新北市汐止區民生街12號","121.660078333333","25.06913","6501100","汐止區"
"221029","298-VK","2018/03/22 20:09:06","新北市汐止區樟樹一路123巷17號","121.641258333333","25.0646266666667","6501100","汐止區"
"221021","299-VK","2018/03/22 20:09:01","新北市汐止區連興街150號","121.654096666667","25.06136","6501100","汐止區"
"221031","353-TW","2018/03/22 20:09:06","新北市汐止區福德二路108號","121.632108333333","25.0659316666667","6501100","汐止區"
"221035","622-UM","2018/03/22 20:09:03","新北市汐止區長江街67巷2弄13號","121.657041666667","25.0724933333333","6501100","汐止區"
"221038","646-BX","2018/03/22 20:08:55","新北市汐止區大同路三段66號","121.66804","25.07711","6501100","汐止區"
"221033","647-BX","2018/03/22 20:09:08","新北市汐止區東勢街201巷104號","121.633555","25.04292","6501100","汐止區"
"221002","707-TV","2018/03/22 20:08:54","新北市汐止區大同路一段219巷27號","121.633291666667","25.05833","6501100","汐止區"
"221018","753-BX","2018/03/22 20:08:55","新北市汐止區茄福街35巷33號","121.673368333333","25.06634","6501100","汐止區"
"220080","200-UY","2018/03/22 20:09:12","新北市板橋區大觀路二段187巷25號","121.446136666667","24.9992533333333","6500100","板橋區"
"220101","245-BX","2018/03/22 20:09:04","新北市板橋區雙十路二段47巷2弄25號","121.475091666667","25.02694","6500100","板橋區"
"220055","256-TC","2018/03/22 20:09:05","新北市板橋區仁愛路86巷13弄1號","121.461095","24.998925","6500100","板橋區"
"220089","267-BY","2018/03/22 20:09:03","新北市板橋區四維路174-1號","121.464598333333","25.02639","6500100","板橋區"
"220072","277-BY","2018/03/22 20:09:08","新北市板橋區金門街109巷25號","121.433838333333","24.9916466666667","6500100","板橋區"
"220064","282-UM","2018/03/22 20:09:00","新北市板橋區館前東路132號","121.464025","25.00772","6500100","板橋區"
"220071","283-VK","2018/03/22 20:08:57","新北市板橋區四川路一段387號","121.457755","24.9986266666667","6500100","板橋區"
"220053","285-VK","2018/03/22 20:09:02","新北市板橋區懷仁街91號","121.477518333333","25.0182083333333","6500100","板橋區"
"220083","286-VK","2018/03/22 20:09:05","新北市板橋區僑中二街92巷1號","121.446255","25.00888","6500100","板橋區"
"220081","287-VK","2018/03/22 20:09:09","新北市板橋區僑中一街124巷18弄40號","121.447705","25.013555","6500100","板橋區"
"220061","293-UM","2018/03/22 20:08:55","新北市板橋區中山路一段156號","121.465123333333","25.01167","6500100","板橋區"
"242011","281-VK","2018/03/22 20:09:05","新北市新莊區中和街204巷7弄6號","121.448406666667","25.0505633333333","6500500","新莊區"
"220092","307-R5","2018/03/22 20:09:11","新北市板橋區文化路一段45巷11號","121.460195","25.013965","6500100","板橋區"
"220098","317-R6","2018/03/22 20:08:46","新北市板橋區新海路72巷6號","121.462308333333","25.0219366666667","6500100","板橋區"
"220088","491-VK","2018/03/22 20:09:04","新北市板橋區懷德街59號","121.477385","25.0325133333333","6500100","板橋區"
"220103","561-BX","2018/03/22 20:09:11","新北市板橋區自由路26巷7-3號","121.466011666667","25.022705","6500100","板橋區"
"220057","686-BX","2018/03/22 20:09:08","新北市板橋區四川路二段78號","121.45222","24.9947233333333","6500100","板橋區"
"220077","687-BX","2018/03/22 20:09:01","新北市新莊區新北大道四段261號","121.442445","25.0561416666667","6500100","板橋區"
"220093","689-BX","2018/03/22 20:09:01","新北市板橋區長江路二段112號","121.465431666667","25.0315033333333","6500100","板橋區"
"220102","KEA-2699","2018/03/22 20:09:06","新北市板橋區懷德街56號","121.477416666667","25.0324033333333","6500100","板橋區"
"220067","829-TW","2018/03/22 20:09:05","新北市板橋區中山路一段206巷68號","121.472073333333","25.0132183333333","6500100","板橋區"
"220068","830-TW","2018/03/22 20:08:59","新北市板橋區中山路二段337號","121.47945","25.0188883333333","6500100","板橋區"
"220074","895-R6","2018/03/22 20:09:01","新北市板橋區館前西路97號","121.45704","25.00733","6500100","板橋區"
"220097","AAC-210","2018/03/22 20:09:05","新北市板橋區文化路一段221巷26號","121.4628","25.0178783333333","6500100","板橋區"
"220070","AAC-253","2018/03/22 20:09:13","新北市板橋區德興街29號","121.45345","24.9939933333333","6500100","板橋區"
