"lineid","car","time","location","longitude","latitude","cityid","cityname"
"249004","303-UY","2018/03/22 20:49:36","新北市八里區中山路二段210巷128號","121.403136666667","25.154485","6502300","八里區"
"234074","AAC-211","2018/03/22 20:49:39","新北市永和區環河東路二段30號","121.52258","25.012695","6500400","永和區"
"222003","436-BY","2018/03/22 20:49:40","新北市深坑區文山路三段48-1號","121.609906666667","24.998505","6501800","深坑區"
"222002","659-BX","2018/03/22 20:49:51","新北市深坑區北深路三段93巷73號","121.603375","25.0012283333333","6501800","深坑區"
"231059","046-UY","2018/03/22 20:49:36","新北市新店區僑信路120巷21號","121.49941","24.9458683333333","6500600","新店區"
"231061","047-UY","2018/03/22 20:49:51","新北市新店區新和街93巷2號","121.521068333333","24.98658","6500600","新店區"
"231060","106-UY","2018/03/22 20:49:45","新北市新店區安康路三段635-1號","121.47088","24.9398666666667","6500600","新店區"
"231051","107-UY","2018/03/22 20:49:39","新北市新店區民生路156巷25號","121.528415","24.9812316666667","6500600","新店區"
"231047","108-UY","2018/03/22 20:49:38","新北市新店區寶元路二段1巷1號","121.550733333333","24.9840333333333","6500600","新店區"
"231052","187-VK","2018/03/22 20:49:33","新北市新店區新烏路一段245-3號","121.548266666667","24.9304716666667","6500600","新店區"
"231050","KEA-2219","2018/03/22 20:49:42","新北市新店區三民路20巷12號","121.537845","24.9709383333333","6500600","新店區"
"221015","KEA-2785","2018/03/22 20:49:38","新北市汐止區大同路二段609號","121.664121666667","25.0707216666667","6501100","汐止區"
"231057","256-BX","2018/03/22 20:49:45","新北市新店區新烏路一段123-1號","121.544823333333","24.9376033333333","6500600","新店區"
"231054","AAD-862","2018/03/22 20:49:50","新北市新店區北新路一段126巷27號","121.543263333333","24.9694916666667","6500600","新店區"
"231058","3712-VJ","2018/03/22 20:49:47","新北市新店區安和路三段4巷3號","121.518625","24.9808816666667","6500600","新店區"
"231056","3713-VJ","2018/03/22 20:49:33","新北市新店區中央七街61巷5號","121.528338333333","24.9765316666667","6500600","新店區"
"231067","4772-VM","2018/03/22 20:49:47","新北市新店區安華路28-1號","121.519861666667","24.9607883333333","6500600","新店區"
"231065","512-UM","2018/03/22 20:49:41","新北市新店區安祥路104巷6弄24號","121.482366666667","24.9624966666667","6500600","新店區"
"231064","513-UM","2018/03/22 20:49:46","新北市新店區安民街379巷10號","121.51603","24.976305","6500600","新店區"
"231045","617-UM","2018/03/22 20:49:52","新北市新店區北新路一段211號","121.540393333333","24.9651133333333","6500600","新店區"
"231040","619-UM","2018/03/22 20:49:48","新北市新店區中正路270號","121.538966666667","24.9736133333333","6500600","新店區"
"231042","641-BX","2018/03/22 20:49:38","新北市新店區寶興路60巷4號","121.549786666667","24.9718816666667","6500600","新店區"
"231063","645-TV","2018/03/22 20:49:45","新北市新店區如意街7-4號","121.495115","24.9485533333333","6500600","新店區"
"231068","718-UY","2018/03/22 20:49:41","新北市新店區寶元路二段11號","121.546075","24.9824166666667","6500600","新店區"
"231049","719-UM","2018/03/22 20:49:38","新北市新店區安康路二段70號","121.514516666667","24.9636066666667","6500600","新店區"
"231062","720-UM","2018/03/22 20:49:51","新北市新店區裕合街143號","121.489141666667","24.9490816666667","6500600","新店區"
"231044","897-TW","2018/03/22 20:49:47","新北市新店區建國路130號","121.539101666667","24.97874","6500600","新店區"
"231043","899-TW","2018/03/22 20:49:51","新北市新店區建國路85號","121.5404","24.9765066666667","6500600","新店區"
"241011","013-R5","2018/03/22 20:49:39","新北市三重區龍濱路219巷18號","121.502711666667","25.07246","6500200","三重區"
"241028","022-UY","2018/03/22 20:49:46","新北市三重區中正南路41巷1號","121.493848333333","25.059925","6500200","三重區"
"241008","059-VK","2018/03/22 20:49:42","新北市三重區永福街72巷11號","121.479408333333","25.0767883333333","6500200","三重區"
"241009","060-VK","2018/03/22 20:49:36","新北市三重區三和路四段388-2號","121.482075","25.0790866666667","6500200","三重區"
"241031","061-VK","2018/03/22 20:49:46","新北市三重區重陽路一段113巷2弄2號","121.487553333333","25.05995","6500200","三重區"
"241015","062-VK","2018/03/22 20:49:44","新北市三重區自強路一段10-2號","121.498926666667","25.0681566666667","6500200","三重區"
"241017","063-VK","2018/03/22 20:49:34","新北市三重區民生街30號","121.491775","25.0671833333333","6500200","三重區"
"241024","065-VK","2018/03/22 20:49:33","新北市三重區大勇街82巷15弄30號","121.481228333333","25.071945","6500200","三重區"
"241026","066-VK","2018/03/22 20:49:31","新北市三重區重新路二段36巷33號","121.49996","25.062275","6500200","三重區"
"241002","090-VK","2018/03/22 20:49:29","新北市三重區仁義街159巷40號","121.49854","25.0820766666667","6500200","三重區"
"241003","091-VK","2018/03/22 20:49:40","新北市三重區集賢路87-1號","121.493611666667","25.0868616666667","6500200","三重區"
"241019","156-TC","2018/03/22 20:49:43","新北市三重區三張街75號","121.490026666667","25.070705","6500200","三重區"
"241005","262-UM","2018/03/22 20:49:47","新北市三重區碧華街428號","121.492596666667","25.0854883333333","6500200","三重區"
"241016","265-UM","2018/03/22 20:49:36","新北市三重區自強路一段220號","121.494025","25.0667033333333","6500200","三重區"
"241022","267-UM","2018/03/22 20:49:30","新北市三重區重陽路二段19巷12號","121.488081666667","25.0624616666667","6500200","三重區"
"241018","268-UM","2018/03/22 20:49:40","新北市三重區正義北路332號","121.494598333333","25.0706016666667","6500200","三重區"
"241032","269-UM","2018/03/22 20:49:49","新北市三重區重陽路一段120巷48號","121.485023333333","25.0601733333333","6500200","三重區"
"241013","270-UM","2018/03/22 20:49:44","新北市三重區仁賢街12-1號","121.495626666667","25.0748583333333","6500200","三重區"
"241007","398-BY","2018/03/22 20:49:41","新北市三重區慈愛街8號","121.484478333333","25.07839","6500200","三重區"
"241020","413-TH","2018/03/22 20:49:38","新北市三重區忠孝路一段101號","121.489481666667","25.07208","6500200","三重區"
"241035","462-BY","2018/03/22 20:49:42","新北市三重區文化北路105號","121.497853333333","25.068485","6500200","三重區"
"241004","475-VK","2018/03/22 20:49:39","新北市三重區分子尾街19號","121.489543333333","25.0809816666667","6500200","三重區"
"241001","478-VK","2018/03/22 20:49:37","新北市三重區自強路三段76巷18號","121.48587","25.074015","6500200","三重區"
"241030","480-VK","2018/03/22 20:49:49","新北市三重區環河南路221巷10號","121.491951666667","25.0522433333333","6500200","三重區"
"241014","543-UM","2018/03/22 20:49:51","新北市三重區萬全街82號","121.501646666667","25.07028","6500200","三重區"
"241023","545-UM","2018/03/22 20:49:34","新北市三重區忠孝路三段56-1號","121.480338333333","25.0650633333333","6500200","三重區"
"241006","AAD-863","2018/03/22 20:49:51","新北市三重區車路頭街139巷12號","121.484261666667","25.0762116666667","6500200","三重區"
"241025","887-TS","2018/03/22 20:49:34","新北市三重區貴陽街14號","121.484108333333","25.0618","6500200","三重區"
"241012","941-UM","2018/03/22 20:49:50","新北市三重區仁信街27號","121.501268333333","25.0755683333333","6500200","三重區"
"241029","942-UM","2018/03/22 20:49:45","新北市三重區重安街14號","121.490263333333","25.0581783333333","6500200","三重區"
"241033","AAC-255","2018/03/22 20:49:50","新北市三重區光復路二段1號","121.472361666667","25.0533033333333","6500200","三重區"
"235069","4980-A6","2018/03/22 20:49:47","新北市中和區員山路381巷1弄18號","121.480898333333","25.0022883333333","6500300","中和區"
"235026","800-TS","2018/03/22 20:22:35","新北市中和區員山路36巷16號","121.484646666667","24.9918616666667","6500300","中和區"
"247024","893-R6","2018/03/22 20:49:51","新北市蘆洲區長樂路120巷13號","121.462466666667","25.0899616666667","6501400","蘆洲區"
"247014","546-UM","2018/03/22 20:49:45","新北市蘆洲區三民路97號","121.473543333333","25.0852316666667","6501400","蘆洲區"
"247022","500-BY","2018/03/22 20:49:46","新北市蘆洲區三民路120號","121.471283333333","25.0873","6501400","蘆洲區"
"247010","341-TH","2018/03/22 20:49:34","新北市蘆洲區鷺江街70號","121.476976666667","25.0837133333333","6501400","蘆洲區"
"247012","339-TH","2018/03/22 20:49:46","新北市蘆洲區集賢路217-1號","121.482946666667","25.0868183333333","6501400","蘆洲區"
"247006","336-TH","2018/03/22 20:49:42","新北市蘆洲區永安南路二段44-2號","121.466303333333","25.0774366666667","6501400","蘆洲區"
"247004","335-TH","2018/03/22 20:49:37","新北市蘆洲區長安街101號","121.461513333333","25.0807716666667","6501400","蘆洲區"
"247008","056-VK","2018/03/22 20:49:40","新北市蘆洲區永安北路二段46號","121.482565","25.0833566666667","6501400","蘆洲區"
"247016","007-UY","2018/03/22 20:49:34","新北市蘆洲區中山二路201號","121.470681666667","25.0805933333333","6501400","蘆洲區"
"247002","002-UY","2018/03/22 20:49:49","新北市蘆洲區長榮路288號","121.459895","25.087015","6501400","蘆洲區"
"247020","001-UY","2018/03/22 20:49:33","新北市蘆洲區仁愛街64號","121.471495","25.09398","6501400","蘆洲區"
"222001","KEA-2212","2018/03/22 20:49:34","新北市深坑區北深路三段129號","121.604068333333","25.00247","6501800","深坑區"
"251005","010-UM","2018/03/22 20:49:43","新北市淡水區新市一路三段151號","121.448451666667","25.1834966666667","6501000","淡水區"
"251013","179-VK","2018/03/22 20:49:41","新北市淡水區埤島41號","121.452036666667","25.1981516666667","6501000","淡水區"
"251014","180-VK","2018/03/22 20:49:38","新北市淡水區公埔子32-8號","121.46164","25.2323433333333","6501000","淡水區"
"251012","441-VK","2018/03/22 20:49:49","新北市淡水區淡金路四段180號","121.45161","25.22123","6501000","淡水區"
"251016","442-VK","2018/03/22 20:49:48","新北市淡水區後洲子8-2號","121.449496666667","25.2236566666667","6501000","淡水區"
"251007","577-R6","2018/03/22 20:49:31","新北市淡水區鄧公路23巷2號","121.451206666667","25.1700483333333","6501000","淡水區"
"251011","650-BX","2018/03/22 20:49:47","新北市淡水區新民街一段13-1號","121.432995","25.1845683333333","6501000","淡水區"
"251002","672-BX","2018/03/22 20:49:45","新北市淡水區英專路42號","121.445601666667","25.1702266666667","6501000","淡水區"
"251010","673-BX","2018/03/22 20:49:39","新北市淡水區沙崙路145號","121.423395","25.1829833333333","6501000","淡水區"
"251003","766-UM","2018/03/22 20:49:48","新北市淡水區中山北路一段207巷76號","121.44125","25.1795066666667","6501000","淡水區"
"252002","178-VK","2018/03/22 20:49:34","新北市三芝區淡金路二段91號","121.504095","25.2608483333333","6502100","三芝區"
"236014","270-VK","2018/03/22 20:49:44","新北市樹林區中山路三段210-2號","121.381971666667","24.96573","6501300","土城區"
"242053","751-BX","2018/03/22 20:49:39","新北市新莊區民安西路171號","121.426105","25.0160033333333","6500500","新莊區"
"242042","566-BX","2018/03/22 20:49:38","新北市新莊區天祥街20號","121.417408333333","25.0272716666667","6500500","新莊區"
"242051","441-UM","2018/03/22 20:49:35","新北市新莊區民安西路86號","121.426993333333","25.0193883333333","6500500","新莊區"
"242036","415-TV","2018/03/22 20:49:42","新北市新莊區中正路517-2號","121.439853333333","25.0334","6500500","新莊區"
"242023","362-BY","2018/03/22 20:49:45","新北市三重區光復路二段49號","121.472103333333","25.056055","6500500","新莊區"
"242009","132-UY","2018/03/22 20:49:43","新北市新莊區幸福路85號","121.45626","25.04934","6500500","新莊區"
"242039","133-UY","2018/03/22 20:49:35","新北市新莊區瓊林路59-38號","121.441196666667","25.0235633333333","6500500","新莊區"
"242048","172-VK","2018/03/22 20:49:32","新北市新莊區中正路459號","121.442473333333","25.0336183333333","6500500","新莊區"
"242002","349-TH","2018/03/22 20:49:31","新北市新莊區中港路五守新村37巷2號","121.454575","25.03889","6500500","新莊區"
"238020","268-VK","2018/03/22 20:49:51","新北市樹林區中山路三段204號","121.386741666667","24.9682166666667","6500700","樹林區"
"221036","130-UY","2018/03/22 20:49:42","新北市汐止區新台五路二段89-1號","121.66499","25.0673133333333","6501100","汐止區"
"221027","281-BY","2018/03/22 20:49:42","新北市汐止區大同路二段362號","121.657406666667","25.0670616666667","6501100","汐止區"
"221029","298-VK","2018/03/22 20:49:46","新北市汐止區康寧街861巷1號","121.6455","25.0758966666667","6501100","汐止區"
"221021","299-VK","2018/03/22 20:49:41","新北市汐止區新台五路一段173號","121.654923333333","25.0630533333333","6501100","汐止區"
"221035","622-UM","2018/03/22 20:49:43","新北市汐止區汐萬路一段256巷3號","121.652236666667","25.074625","6501100","汐止區"
"221038","646-BX","2018/03/22 20:49:35","新北市汐止區汐萬路一段256巷3號","121.65215","25.07497","6501100","汐止區"
"221033","647-BX","2018/03/22 20:49:48","新北市汐止區合順街18巷8弄5號","121.620375","25.041905","6501100","汐止區"
"221002","707-TV","2018/03/22 20:49:34","新北市汐止區福德二路169號","121.630853333333","25.065065","6501100","汐止區"
"221018","753-BX","2018/03/22 20:49:36","新北市汐止區汐萬路一段141號","121.653551666667","25.07108","6501100","汐止區"
"220077","687-BX","2018/03/22 20:49:40","新北市五股區新五路三段202號","121.44588","25.0897616666667","6500100","板橋區"
"220070","AAC-253","2018/03/22 20:49:33","新北市八里區中山路三段386號","121.368463333333","25.136155","6500100","板橋區"
