"lineid","car","time","location","longitude","latitude","cityid","cityname"
"249004","303-UY","2018/03/22 21:19:17","新北市八里區中山路三段409號","121.36857","25.1343516666667","6502300","八里區"
"231059","046-UY","2018/03/22 21:18:55","新北市新店區薏仁坑路自強巷1號","121.49722","24.9578433333333","6500600","新店區"
"231051","107-UY","2018/03/22 21:19:19","新北市新店區中正路700巷79號","121.53603","24.9933683333333","6500600","新店區"
"231047","108-UY","2018/03/22 21:19:18","新北市新店區安興路137號","121.516343333333","24.9794283333333","6500600","新店區"
"231050","KEA-2219","2018/03/22 21:19:22","新北市新店區中正路189巷14號","121.540236666667","24.9718833333333","6500600","新店區"
"231056","3713-VJ","2018/03/22 21:19:13","新北市新店區薏仁坑路自強巷6號","121.49683","24.958405","6500600","新店區"
"231045","617-UM","2018/03/22 21:19:12","新北市新店區車子路10號","121.504546666667","24.9551233333333","6500600","新店區"
"231040","619-UM","2018/03/22 21:19:28","新北市新店區北新路一段193號","121.540376666667","24.9647616666667","6500600","新店區"
"231063","645-TV","2018/03/22 21:19:25","新北市新店區玫瑰路57巷24號","121.496585","24.9461766666667","6500600","新店區"
"241011","013-R5","2018/03/22 21:19:21","新北市三重區龍濱路122號","121.50173","25.071385","6500200","三重區"
"241028","022-UY","2018/03/22 21:19:26","新北市三重區同安東街82號","121.499055","25.0574733333333","6500200","三重區"
"241008","059-VK","2018/03/22 21:19:22","新北市三重區自強路一段254號","121.492706666667","25.06746","6500200","三重區"
"241009","060-VK","2018/03/22 21:19:16","新北市三重區忠孝路三段1號","121.481911666667","25.0677183333333","6500200","三重區"
"241031","061-VK","2018/03/22 21:19:26","新北市三重區重新路五段408巷19號","121.47579","25.0455733333333","6500200","三重區"
"241017","063-VK","2018/03/22 21:19:14","新北市三重區大同北路106號","121.493376666667","25.063965","6500200","三重區"
"241024","065-VK","2018/03/22 21:19:14","新北市三重區中正北路115巷6號","121.484023333333","25.06776","6500200","三重區"
"241026","066-VK","2018/03/22 21:19:11","新北市三重區大同南路220號","121.496785","25.0561833333333","6500200","三重區"
"241002","090-VK","2018/03/22 21:19:29","新北市三重區自強路五段43號","121.494176666667","25.081355","6500200","三重區"
"241003","091-VK","2018/03/22 21:19:19","新北市三重區仁義街319號","121.495351666667","25.08432","6500200","三重區"
"241019","156-TC","2018/03/22 21:19:23","新北市三重區重陽路三段7-3號","121.489106666667","25.0665383333333","6500200","三重區"
"241005","262-UM","2018/03/22 21:19:27","新北市三重區三信路182號","121.488025","25.0860883333333","6500200","三重區"
"241016","265-UM","2018/03/22 21:19:16","新北市三重區自強路一段99號","121.495791666667","25.066305","6500200","三重區"
"241018","268-UM","2018/03/22 21:19:20","新北市三重區忠孝路二段95號","121.484231666667","25.0699616666667","6500200","三重區"
"241032","269-UM","2018/03/22 21:19:29","新北市三重區光復路二段170號","121.472156666667","25.0611516666667","6500200","三重區"
"241013","270-UM","2018/03/22 21:19:24","新北市三重區仁愛街87號","121.495848333333","25.07337","6500200","三重區"
"241007","398-BY","2018/03/22 21:19:21","新北市三重區自強路三段72號","121.486771666667","25.0734","6500200","三重區"
"241004","475-VK","2018/03/22 21:19:19","新北市三重區分子尾街111號","121.48856","25.08288","6500200","三重區"
"241001","478-VK","2018/03/22 21:19:15","新北市三重區仁愛街455號","121.489876666667","25.0817283333333","6500200","三重區"
"241030","480-VK","2018/03/22 21:19:09","新北市三重區五谷王北街161-1號","121.477425","25.05429","6500200","三重區"
"241014","543-UM","2018/03/22 21:19:11","新北市三重區萬全街16號","121.4993","25.0697483333333","6500200","三重區"
"241023","545-UM","2018/03/22 21:19:13","新北市三重區中正北路176巷27號","121.482615","25.0659483333333","6500200","三重區"
"241006","AAD-863","2018/03/22 21:19:31","新北市三重區重陽路二段67號","121.487673333333","25.06386","6500200","三重區"
"241025","887-TS","2018/03/22 21:19:13","新北市三重區中正北路208巷10弄4號","121.48234","25.066915","6500200","三重區"
"241012","941-UM","2018/03/22 21:19:10","新北市三重區龍門路239號","121.50197","25.0740233333333","6500200","三重區"
"241033","AAC-255","2018/03/22 21:19:10","新北市三重區光復路二段122號","121.471676666667","25.058915","6500200","三重區"
"247024","893-R6","2018/03/22 21:19:11","新北市蘆洲區光明路98號","121.463115","25.0880083333333","6501400","蘆洲區"
"247014","546-UM","2018/03/22 21:19:25","新北市蘆洲區保和街50-6號","121.469848333333","25.086295","6501400","蘆洲區"
"247022","500-BY","2018/03/22 21:19:25","新北市蘆洲區三民路249號","121.46855","25.0891083333333","6501400","蘆洲區"
"247010","341-TH","2018/03/22 21:19:14","新北市蘆洲區鷺江街23號","121.47885","25.0824216666667","6501400","蘆洲區"
"247012","339-TH","2018/03/22 21:19:26","新北市蘆洲區民族路236巷8號","121.480271666667","25.0886016666667","6501400","蘆洲區"
"247006","336-TH","2018/03/22 21:19:13","新北市蘆洲區長安街62號","121.462906666667","25.0799766666667","6501400","蘆洲區"
"247004","335-TH","2018/03/22 21:19:17","新北市蘆洲區永安南路二段320號","121.457038333333","25.0826733333333","6501400","蘆洲區"
"247018","057-VK","2018/03/22 21:19:13","新北市蘆洲區復興路105巷11號","121.476391666667","25.088495","6501400","蘆洲區"
"247008","056-VK","2018/03/22 21:19:20","新北市蘆洲區中山一路135巷8號","121.47573","25.0812033333333","6501400","蘆洲區"
"247016","007-UY","2018/03/22 21:19:14","新北市蘆洲區永康街79號","121.455726666667","25.0852066666667","6501400","蘆洲區"
"247002","002-UY","2018/03/22 21:19:09","新北市蘆洲區永樂街78號","121.456915","25.0885583333333","6501400","蘆洲區"
"247020","001-UY","2018/03/22 21:19:13","新北市蘆洲區民族路422巷114弄2號","121.47274","25.0942883333333","6501400","蘆洲區"
"251009","008-UM","2018/03/22 21:19:17","新北市淡水區民族路112巷1號","121.462636666667","25.1351683333333","6501000","淡水區"
"251004","009-UM","2018/03/22 21:19:00","新北市淡水區民族路76號","121.462245","25.1355666666667","6501000","淡水區"
"251005","010-UM","2018/03/22 21:19:23","新北市淡水區水源街一段122巷37號","121.447031666667","25.170465","6501000","淡水區"
"251013","179-VK","2018/03/22 21:19:21","新北市淡水區行忠路328號","121.460478333333","25.1996083333333","6501000","淡水區"
"251014","180-VK","2018/03/22 21:19:18","新北市淡水區六塊厝2-1號","121.450135","25.2404566666667","6501000","淡水區"
"251008","181-VK","2018/03/22 21:19:21","新北市淡水區水源街二段228號","121.460168333333","25.1764283333333","6501000","淡水區"
"251015","182-VK","2018/03/22 21:19:21","新北市淡水區淡金路四段542巷83弄13號","121.456468333333","25.2266983333333","6501000","淡水區"
"251012","441-VK","2018/03/22 21:19:29","新北市淡水區淡金路五段35巷46號","121.452458333333","25.23474","6501000","淡水區"
"251016","442-VK","2018/03/22 21:19:28","新北市淡水區前洲子28號","121.441041666667","25.219235","6501000","淡水區"
"251006","561-UM","2018/03/22 21:19:20","新北市淡水區中正路二段12號","121.420503333333","25.1805316666667","6501000","淡水區"
"251011","650-BX","2018/03/22 21:19:07","新北市淡水區新民街120巷29號","121.43881","25.1788233333333","6501000","淡水區"
"251002","672-BX","2018/03/22 21:13:33","新北市淡水區學府路172巷21號","121.448285","25.1749083333333","6501000","淡水區"
"251010","673-BX","2018/03/22 21:19:19","新北市淡水區淡海路69巷26號","121.421995","25.1809466666667","6501000","淡水區"
"251003","766-UM","2018/03/22 21:19:14","新北市淡水區新春街94號","121.439023333333","25.1824083333333","6501000","淡水區"
"238020","268-VK","2018/03/22 21:08:44","新北市樹林區中山路三段204號","121.386741666667","24.9682166666667","6500700","樹林區"
"220070","AAC-253","2018/03/22 21:19:13","新北市林口區太平里180號","121.366556666667","25.1344416666667","6500100","板橋區"
