"lineid","car","time","location","longitude","latitude","cityid","cityname"
"235010","733-UM","2018/03/22 21:40:09","新北市中和區員山路36巷13號","121.484116666667","24.9907933333333","6500300","中和區"
"247010","341-TH","2018/03/22 22:09:14","新北市八里區中山路三段409號","121.368621666667","25.1348166666667","6501400","蘆洲區"
"235041","251-BX","2018/03/22 22:09:12","新北市中和區和城路一段271巷1號","121.485438333333","24.991745","6500300","中和區"
"251004","009-UM","2018/03/22 22:09:20","新北市淡水區民族路72號","121.4622","25.1357216666667","6501000","淡水區"
"251008","181-VK","2018/03/22 22:09:21","新北市淡水區學府路104號","121.44984","25.1718216666667","6501000","淡水區"
"251011","650-BX","2018/03/22 22:09:27","新北市淡水區中山北路一段153號","121.443253333333","25.1773833333333","6501000","淡水區"
"251010","673-BX","2018/03/22 22:09:19","新北市淡水區沙崙路200號","121.424743333333","25.1839216666667","6501000","淡水區"
