"lineid","car","time","location","longitude","latitude","cityid","cityname"
"247010","341-TH","2018/03/22 22:19:34","新北市八里區下罟子30-35號","121.367905","25.1352016666667","6501400","蘆洲區"
"235041","251-BX","2018/03/22 22:12:12","新北市中和區和城路一段271巷1號","121.485438333333","24.991745","6500300","中和區"
"251004","009-UM","2018/03/22 22:19:40","新北市淡水區民族路33號","121.462326666667","25.1358066666667","6501000","淡水區"
"251008","181-VK","2018/03/22 22:19:41","新北市淡水區學府路104號","121.44984","25.1717933333333","6501000","淡水區"
"251007","577-R6","2018/03/22 22:19:31","新北市淡水區北新路137號","121.449491666667","25.1788266666667","6501000","淡水區"
"251011","650-BX","2018/03/22 22:19:27","新北市淡水區水碓街15-1號","121.44321","25.1772483333333","6501000","淡水區"
"251010","673-BX","2018/03/22 22:19:19","新北市淡水區沙崙路200號","121.424733333333","25.1839266666667","6501000","淡水區"
