"lineid","car","time","location","longitude","latitude","cityid","cityname"
"248005","653-BX","2018/03/23 07:23:19","新北市五股區明德路12巷6號","121.433333333333","25.0718616666667","6501500","五股區"
"232015","291-BY","2018/03/23 07:39:33","新北市坪林區黃舉皮寮14-1號","121.688426666667","24.934785","6502000","坪林區"
"232019","705-BZ","2018/03/23 07:39:23","新北市坪林區乾溪1-7號","121.739258333333","24.9771733333333","6502000","坪林區"
"232008","758-BX","2018/03/23 07:39:24","新北市坪林區魚堀8-5號","121.708746666667","24.9061683333333","6502000","坪林區"
"244004","248-BX","2018/03/23 07:39:38","新北市林口區頂福里78號","121.328613333333","25.1030166666667","6501700","林口區"
"222005","289-BY","2018/03/23 07:25:10","新北市深坑區文化街39巷13號","121.618956666667","25.0009316666667","6501800","深坑區"
"235001","611-BX","2018/03/23 07:39:27","新北市中和區圓通路367巷4號","121.491401666667","24.98926","6500300","中和區"
"226005","5620-A6","2018/03/23 07:39:20","新北市平溪區嶺腳里中華街40號","121.739118333333","25.02524","6502400","平溪區"
"226001","7418-A5","2018/03/23 07:39:28","新北市平溪區平湖里大厝37-3號","121.77976","25.0297083333333","6502400","平溪區"
"226003","AGD-0702","2018/03/23 07:39:25","新北市平溪區新寮里頂寮子4號","121.773683333333","25.0518266666667","6502400","平溪區"
"223006","022-BY","2018/03/23 07:39:39","新北市坪林區鶯子瀨1-2號","121.710121666667","24.9176583333333","6501900","石碇區"
"223001","205-TH","2018/03/23 07:35:06","新北市石碇區蛇舌子10號","121.661556666667","24.96912","6501900","石碇區"
"223008","406-TH","2018/03/23 07:39:23","新北市石碇區靜安路一段337號","121.698901666667","25.0146583333333","6501900","石碇區"
"223001","592-UM","2018/03/23 07:39:28","新北市石碇區蛇舌子6號","121.66484","24.9685216666667","6501900","石碇區"
"223004","660-BX","2018/03/23 07:39:29","新北市石碇區八分寮47號","121.642186666667","25.0138066666667","6501900","石碇區"
"223005","677-TV","2018/03/23 07:39:30","新北市石碇區八分寮47號","121.642223333333","25.01395","6501900","石碇區"
"227005","282-VK","2018/03/23 07:39:23","新北市雙溪區雙溪里太平路54號","121.864846666667","25.0354416666667","6502500","雙溪區"
"252003","249-BX","2018/03/23 07:39:35","新北市三芝區中山路二段53號","121.503026666667","25.2544483333333","6502100","三芝區"
"237001","159-UY","2018/03/23 07:39:31","新北市三峽區國慶路136號","121.375891666667","24.9396283333333","6500900","三峽區"
"236010","165-UM","2018/03/23 07:39:33","新北市土城區延壽路25號","121.471118333333","24.9909116666667","6501300","土城區"
"236004","339-SR","2018/03/23 07:39:19","新北市土城區南天母路111巷20號","121.448471666667","24.9556566666667","6501300","土城區"
"220004","461-BY","2018/03/23 07:39:26","新北市板橋區國光路47號","121.457905","25.01795","6500100","板橋區"
