"lineid","car","time","location","longitude","latitude","cityid","cityname"
"248005","653-BX","2018/03/23 07:43:22","新北市五股區明德路10號","121.433363333333","25.0717683333333","6501500","五股區"
"232019","705-BZ","2018/03/23 07:49:23","新北市坪林區乾溪5號","121.742781666667","24.9720533333333","6502000","坪林區"
"232008","758-BX","2018/03/23 07:49:24","新北市坪林區魚堀1-12號","121.716241666667","24.89357","6502000","坪林區"
"244004","248-BX","2018/03/23 07:49:30","新北市林口區下福里28-2號","121.305463333333","25.11185","6501700","林口區"
"222005","289-BY","2018/03/23 07:49:27","新北市深坑區文化街45號","121.616981666667","25.00152","6501800","深坑區"
"231009","192-VK","2018/03/23 07:49:34","新北市新店區安康路一段355-3號","121.519276666667","24.961485","6500600","新店區"
"235001","611-BX","2018/03/23 07:49:27","新北市中和區圓通路367巷4號","121.491401666667","24.9892683333333","6500300","中和區"
"226005","5620-A6","2018/03/23 07:49:20","新北市平溪區石底里公園街18-3號","121.733805","25.0253766666667","6502400","平溪區"
"226001","7418-A5","2018/03/23 07:49:34","新北市平溪區南山里乾坑11號","121.783033333333","25.0470383333333","6502400","平溪區"
"226003","AGD-0702","2018/03/23 07:49:25","新北市平溪區新寮里頂寮子62-1號","121.776338333333","25.0493183333333","6502400","平溪區"
"223006","022-BY","2018/03/23 07:49:19","新北市坪林區北宜路八段558號","121.716953333333","24.9094516666667","6501900","石碇區"
"223001","205-TH","2018/03/23 07:49:41","新北市石碇區樟空子10-2號","121.666925","24.9621733333333","6501900","石碇區"
"223008","406-TH","2018/03/23 07:49:23","新北市石碇區靜安路一段337號","121.698993333333","25.01459","6501900","石碇區"
"223001","592-UM","2018/03/23 07:49:28","新北市石碇區樟空子10-6號","121.666315","24.9639833333333","6501900","石碇區"
"223004","660-BX","2018/03/23 07:49:29","新北市石碇區楓子林30號","121.642315","25.00955","6501900","石碇區"
"223005","677-TV","2018/03/23 07:49:30","新北市石碇區楓子林30號","121.642308333333","25.00962","6501900","石碇區"
"227005","282-VK","2018/03/23 07:49:23","新北市雙溪區雙溪里太平路54號","121.864841666667","25.0354933333333","6502500","雙溪區"
"252003","249-BX","2018/03/23 07:49:35","新北市三芝區中正路三段1號","121.503","25.25439","6502100","三芝區"
"237001","159-UY","2018/03/23 07:49:42","新北市三峽區大學路77號","121.376148333333","24.9416466666667","6500900","三峽區"
"236010","165-UM","2018/03/23 07:49:33","新北市土城區金城路三段13號","121.46469","24.9863866666667","6501300","土城區"
"236004","339-SR","2018/03/23 07:49:19","新北市土城區南天母路121號","121.447998333333","24.9514633333333","6501300","土城區"
"220004","461-BY","2018/03/23 07:49:26","新北市板橋區南門街39號","121.457245","25.0086483333333","6500100","板橋區"
