"lineid","car","time","location","longitude","latitude","cityid","cityname"
"248005","653-BX","2018/05/18 08:39:12","新北市五股區明德路12巷6號","121.433406666667","25.0717766666667","6501500","五股區"
"244004","248-BX","2018/05/18 08:39:29","新北市林口區文化北路二段616號","121.378945","25.0937733333333","6501700","林口區"
"222005","289-BY","2018/05/18 08:39:24","新北市深坑區風格街2號","121.626851666667","25.0166383333333","6501800","深坑區"
"231007","189-VK","2018/05/18 08:39:05","新北市新店區小坑二路19號","121.52529","24.9141366666667","6500600","新店區"
"231009","192-VK","2018/05/18 08:39:30","新北市新店區新烏路三段165巷39號","121.553371666667","24.901635","6500600","新店區"
"235001","611-BX","2018/05/18 08:39:24","新北市中和區民安街178號","121.476841666667","25.0001183333333","6500300","中和區"
"226005","5620-A6","2018/05/18 08:39:26","新北市平溪區十分里十分街76號","121.77615","25.0418","6502400","平溪區"
"226001","7418-A5","2018/05/18 08:39:30","新北市平溪區東勢里火燒寮34-1號","121.76017","24.9913266666667","6502400","平溪區"
"226006","AGD-0702","2018/05/18 08:39:13","新北市平溪區十分里十分街238號","121.778128333333","25.0441516666667","6502400","平溪區"
"223003","205-TH","2018/05/18 08:39:22","新北市石碇區北宜路六段柑腳巷2號","121.659543333333","24.9380416666667","6501900","石碇區"
"223008","406-TH","2018/05/18 08:39:18","新北市石碇區碇南路二段松柏崎巷37-1號","121.678781666667","25.0233633333333","6501900","石碇區"
"223001","592-UM","2018/05/18 08:39:30","新北市石碇區北宜路六段柑腳巷2號","121.659615","24.9380816666667","6501900","石碇區"
"223004","660-BX","2018/05/18 08:39:26","新北市石碇區崩山15-1號","121.673815","24.9722366666667","6501900","石碇區"
"223005","677-TV","2018/05/18 08:39:30","新北市石碇區崩山29號","121.676726666667","24.96657","6501900","石碇區"
"227005","282-VK","2018/05/18 08:39:21","新北市雙溪區泰平里泰平1-5號","121.845955","24.9974633333333","6502500","雙溪區"
"237001","159-UY","2018/05/18 08:39:17","新北市三峽區學勤路113號","121.375151666667","24.9464416666667","6500900","三峽區"
"236010","165-UM","2018/05/18 08:36:35","新北市土城區石門路85-3號","121.45994","24.9541533333333","6501300","土城區"
"236004","339-SR","2018/05/18 08:39:29","新北市土城區中央路三段282號","121.426523333333","24.9634366666667","6501300","土城區"
"236006","498-BY","2018/05/18 08:39:24","新北市土城區永和街2巷18號","121.434106666667","24.96451","6501300","土城區"
"220018","282-UM","2018/05/18 08:39:24","新北市五股區成泰路三段544-1號","121.454293333333","25.1026483333333","6500100","板橋區"
