"lineid","car","time","location","longitude","latitude","cityid","cityname"
"248005","653-BX","2018/05/18 09:19:32","新北市五股區水碓一路23號","121.430421666667","25.071465","6501500","五股區"
"231007","189-VK","2018/05/18 09:19:25","新北市新店區新潭路三段211號","121.505121666667","24.9043566666667","6500600","新店區"
"231009","192-VK","2018/05/18 09:19:30","新北市新店區平廣路一段30-1號","121.534693333333","24.90296","6500600","新店區"
"235001","611-BX","2018/05/18 09:19:24","新北市中和區連城路569巷9弄1號","121.479341666667","24.994295","6500300","中和區"
"223003","205-TH","2018/05/18 09:19:22","新北市石碇區北宜路四段9號","121.61513","24.961035","6501900","石碇區"
"223008","406-TH","2018/05/18 09:14:38","新北市石碇區南勢坑2-3號","121.699501666667","24.9905783333333","6501900","石碇區"
"223001","592-UM","2018/05/18 09:19:10","新北市石碇區北宜路四段9號","121.615018333333","24.961165","6501900","石碇區"
"223004","660-BX","2018/05/18 09:19:26","新北市石碇區碇坪路二段41號","121.685983333333","24.9754283333333","6501900","石碇區"
"223005","677-TV","2018/05/18 09:19:19","新北市石碇區碇坪路二段35號","121.684796666667","24.9767616666667","6501900","石碇區"
"227005","282-VK","2018/05/18 09:07:41","新北市雙溪區泰平里料角坑19號","121.811986666667","24.9726833333333","6502500","雙溪區"
"237001","159-UY","2018/05/18 09:19:17","新北市三峽區大學路86-1號","121.375788333333","24.9423283333333","6500900","三峽區"
"236010","165-UM","2018/05/18 09:19:15","新北市土城區金城路一段5號","121.439296666667","24.969015","6501300","土城區"
"236004","339-SR","2018/05/18 09:19:29","新北市土城區學府路一段97號","121.456195","24.9879166666667","6501300","土城區"
"236006","498-BY","2018/05/18 09:19:24","新北市土城區忠承路103號","121.43814","24.9642516666667","6501300","土城區"
