"lineid","car","time","location","longitude","latitude","cityid","cityname"
"234044","148-BY","2018/05/18 12:49:24","新北市永和區秀朗路二段169-1號","121.525371666667","25.0015983333333","6500400","永和區"
"234005","207-UY","2018/05/18 12:49:21","新北市永和區環河西路一段87-1號","121.512476666667","25.01813","6500400","永和區"
"234078","298-R6","2018/05/18 12:49:39","新北市永和區永利路75巷4號","121.521793333333","25.004045","6500400","永和區"
"234036","336-UY","2018/05/18 12:49:35","新北市永和區福和路8巷3號","121.524953333333","25.00917","6500400","永和區"
"234062","337-UY","2018/05/18 12:49:29","新北市永和區福和路1號","121.52627","25.0097633333333","6500400","永和區"
"234084","338-UY","2018/05/18 12:49:31","新北市永和區中正路63號","121.514841666667","24.9966166666667","6500400","永和區"
"234068","552-UM","2018/05/18 12:49:23","新北市永和區竹林路155號","121.520473333333","25.01039","6500400","永和區"
"234015","745-BX","2018/05/18 12:49:32","新北市永和區永和路二段299號","121.516045","25.0160766666667","6500400","永和區"
"234028","746-BX","2018/05/18 12:49:23","新北市永和區得和路321號","121.52343","24.9996466666667","6500400","永和區"
"234052","KEA-2590","2018/05/18 12:49:27","新北市永和區環河東路二段88號","121.52369","25.01057","6500400","永和區"
"234012","KEA-2591","2018/05/18 12:49:28","新北市永和區仁愛路202巷26號","121.508921666667","25.0130066666667","6500400","永和區"
"234060","AAD-866","2018/05/18 12:49:38","新北市永和區福和路301號","121.516413333333","25.0071516666667","6500400","永和區"
"234040","862-TW","2018/05/18 12:49:26","新北市永和區永貞路306號","121.511881666667","25.0048383333333","6500400","永和區"
"234025","9371-KE","2018/05/18 12:49:25","新北市永和區中正路659號","121.51476","25.0102866666667","6500400","永和區"
"234011","9373-KE","2018/05/18 12:49:29","新北市永和區保福路二段158巷1號","121.509136666667","25.0150533333333","6500400","永和區"
"248019","225-UY","2018/05/18 12:49:30","新北市五股區中興路二段83巷26-6號","121.460133333333","25.0752383333333","6501500","五股區"
"234022","9380-KE","2018/05/18 12:49:22","新北市永和區竹林路119巷22弄11號","121.52187","25.0114766666667","6500400","永和區"
"234076","969-R7","2018/05/18 12:49:19","新北市永和區中正路70號","121.513523333333","24.9950566666667","6500400","永和區"
"234072","AAC-211","2018/05/18 12:49:35","新北市永和區福和路1號","121.526343333333","25.0097116666667","6500400","永和區"
"234066","AAC-212","2018/05/18 12:49:34","新北市永和區中和路625號","121.512978333333","25.00487","6500400","永和區"
"234001","AAC-295","2018/05/18 12:49:16","新北市永和區豫溪街191巷3弄2號","121.523505","25.0104416666667","6500400","永和區"
"231028","046-UY","2018/05/18 12:49:30","新北市新店區安一路一段1-1號","121.519696666667","24.9611283333333","6500600","新店區"
"231001","047-UY","2018/05/18 12:49:30","新北市新店區安華路28-1號","121.519318333333","24.9608383333333","6500600","新店區"
"231005","106-UY","2018/05/18 12:49:32","新北市新店區安華路28-1號","121.519738333333","24.9608216666667","6500600","新店區"
"231010","107-UY","2018/05/18 12:49:22","新北市新店區安一路一段1-1號","121.519443333333","24.9613683333333","6500600","新店區"
"231012","187-VK","2018/05/18 12:49:25","新北市新店區安一路一段1-1號","121.51959","24.961225","6500600","新店區"
"231023","KEA-2219","2018/05/18 12:49:34","新北市新店區安一路一段1-1號","121.520023333333","24.9611516666667","6500600","新店區"
"231003","268-BY","2018/05/18 12:49:33","新北市新店區安華路28-1號","121.519315","24.9606366666667","6500600","新店區"
"231018","278-BY","2018/05/18 12:49:26","新北市新店區安一路一段1-1號","121.519748333333","24.96106","6500600","新店區"
"231016","AAD-862","2018/05/18 12:49:26","新北市新店區安一路一段1-1號","121.520028333333","24.9611016666667","6500600","新店區"
"231025","4715-K9","2018/05/18 12:49:35","新北市新店區安華路1-1號","121.519303333333","24.9604916666667","6500600","新店區"
"231013","513-UM","2018/05/18 12:49:16","新北市新店區安一路一段1-1號","121.519675","24.9613966666667","6500600","新店區"
"231035","719-UM","2018/05/18 12:49:25","新北市新店區安一路一段1-1號","121.51961","24.96132","6500600","新店區"
"231032","720-UM","2018/05/18 12:49:29","新北市新店區安一路一段1-1號","121.519346666667","24.9612116666667","6500600","新店區"
"231024","AKT-0513","2018/05/18 12:49:30","新北市新店區安華路28-1號","121.519421666667","24.9607033333333","6500600","新店區"
"235028","005-UY","2018/05/18 12:49:28","新北市中和區員山路36巷16-3號","121.48506","24.991345","6500300","中和區"
"235031","255-BX","2018/05/18 12:49:26","新北市中和區中正路1155號","121.481881666667","25.00825","6500300","中和區"
"235001","611-BX","2018/05/18 12:49:21","新北市中和區員山路221號","121.481225","24.99805","6500300","中和區"
"235035","783-BX","2018/05/18 12:49:24","新北市中和區員山路36巷16-3號","121.485011666667","24.991405","6500300","中和區"
"235029","251-BX","2018/05/18 12:49:31","新北市中和區員山路36巷16-3號","121.485","24.99137","6500300","中和區"
"207001","662-BX","2018/05/18 12:49:38","新北市萬里區萬里里獅頭路23號","121.693185","25.1783216666667","6502800","萬里區"
"236006","498-BY","2018/05/18 12:49:28","新北市土城區永寧路1號","121.430558333333","24.9646933333333","6501300","土城區"
"221032","280-BY","2018/05/18 12:49:19","新北市汐止區汐萬路一段312號","121.650483333333","25.0752683333333","6501100","汐止區"
