"lineid","car","time","location","longitude","latitude","cityid","cityname"
"234044","148-BY","2018/05/18 12:59:24","新北市永和區得和路373巷31弄6號","121.524843333333","25.0006266666667","6500400","永和區"
"234005","207-UY","2018/05/18 12:59:21","新北市永和區永和路二段50號","121.514878333333","25.0109283333333","6500400","永和區"
"234078","298-R6","2018/05/18 12:59:19","新北市永和區永貞路8號","121.520846666667","25.0071916666667","6500400","永和區"
"234036","336-UY","2018/05/18 12:59:36","新北市永和區成功路二段207號","121.526535","24.9959733333333","6500400","永和區"
"234062","337-UY","2018/05/18 12:59:29","新北市永和區秀朗路一段172號","121.518741666667","25.003365","6500400","永和區"
"234084","338-UY","2018/05/18 12:59:31","新北市永和區永寧街133巷6號","121.518198333333","25.0048916666667","6500400","永和區"
"234068","552-UM","2018/05/18 12:59:23","新北市永和區中興街84巷8號","121.518575","25.011695","6500400","永和區"
"234015","745-BX","2018/05/18 12:59:32","新北市永和區永和路二段299號","121.516045","25.016095","6500400","永和區"
"234028","746-BX","2018/05/18 12:59:28","新北市永和區四維街50號","121.524973333333","24.9982216666667","6500400","永和區"
"234052","KEA-2590","2018/05/18 12:59:28","新北市永和區竹林路66巷4號","121.51825","25.0133066666667","6500400","永和區"
"234012","KEA-2591","2018/05/18 12:59:28","新北市永和區信義路17巷9弄1號","121.513946666667","25.0116266666667","6500400","永和區"
"234060","AAD-866","2018/05/18 12:59:18","新北市永和區福和路303號","121.516368333333","25.0071083333333","6500400","永和區"
"234040","862-TW","2018/05/18 12:59:26","新北市永和區永貞路267號","121.51181","25.004815","6500400","永和區"
"234048","863-TW","2018/05/18 12:59:39","新北市永和區文化路141號","121.510876666667","25.0159083333333","6500400","永和區"
"234025","9371-KE","2018/05/18 12:59:25","新北市永和區永和路一段7號","121.512825","25.005255","6500400","永和區"
"234011","9373-KE","2018/05/18 12:59:29","新北市永和區文化路9巷22弄24號","121.514706666667","25.0146333333333","6500400","永和區"
"248019","225-UY","2018/05/18 12:59:30","新北市五股區中興路二段83巷26-6號","121.460116666667","25.07523","6501500","五股區"
"234022","9380-KE","2018/05/18 12:59:34","新北市永和區竹林路75巷33弄3號","121.520535","25.014285","6500400","永和區"
"234076","969-R7","2018/05/18 12:59:27","新北市永和區智光街126號","121.515001666667","24.9956983333333","6500400","永和區"
"234072","AAC-211","2018/05/18 12:59:35","新北市永和區環河東路二段98號","121.524135","25.0103683333333","6500400","永和區"
"234066","AAC-212","2018/05/18 12:59:34","新北市永和區中和路625號","121.512976666667","25.0049366666667","6500400","永和區"
"234001","AAC-295","2018/05/18 12:59:36","新北市永和區永平路28號","121.51321","25.008825","6500400","永和區"
"244004","248-BX","2018/05/18 12:59:38","新北市林口區粉寮路一段70號","121.39695","25.0789083333333","6501700","林口區"
"231002","002-UM","2018/05/18 12:59:39","新北市新店區安華路28-1號","121.519768333333","24.960765","6500600","新店區"
"231028","046-UY","2018/05/18 12:59:29","新北市新店區安華路28-1號","121.519663333333","24.9610166666667","6500600","新店區"
"231001","047-UY","2018/05/18 12:59:30","新北市新店區安華路28-1號","121.519315","24.960885","6500600","新店區"
"231005","106-UY","2018/05/18 12:59:32","新北市新店區安華路28-1號","121.519698333333","24.9608916666667","6500600","新店區"
"231010","107-UY","2018/05/18 12:59:22","新北市新店區安一路一段1-1號","121.519563333333","24.9614033333333","6500600","新店區"
"231012","187-VK","2018/05/18 12:59:25","新北市新店區安一路一段1-1號","121.519636666667","24.961355","6500600","新店區"
"231023","KEA-2219","2018/05/18 12:59:34","新北市新店區安一路一段1-1號","121.51983","24.9612316666667","6500600","新店區"
"231003","268-BY","2018/05/18 12:59:33","新北市新店區安華路1-1號","121.519401666667","24.9605416666667","6500600","新店區"
"231018","278-BY","2018/05/18 12:59:26","新北市新店區安華路28-1號","121.519741666667","24.961025","6500600","新店區"
"231016","AAD-862","2018/05/18 12:59:26","新北市新店區安一路一段1-1號","121.519838333333","24.96117","6500600","新店區"
"231037","4716-K9","2018/05/18 12:59:29","新北市新店區安華路28-1號","121.519766666667","24.9609666666667","6500600","新店區"
"231025","4715-K9","2018/05/18 12:59:36","新北市新店區安華路1-1號","121.519295","24.96052","6500600","新店區"
"231036","512-UM","2018/05/18 12:59:37","新北市新店區安一路一段1-1號","121.519215","24.9612583333333","6500600","新店區"
"231013","513-UM","2018/05/18 12:59:36","新北市新店區安一路一段1-1號","121.519688333333","24.9613483333333","6500600","新店區"
"231034","616-UM","2018/05/18 12:59:32","新北市新店區安華路28-1號","121.519503333333","24.9605333333333","6500600","新店區"
"231006","617-UM","2018/05/18 12:59:35","新北市新店區安華路28-1號","121.519483333333","24.9610033333333","6500600","新店區"
"231035","719-UM","2018/05/18 12:59:25","新北市新店區安一路一段1-1號","121.51963","24.9613566666667","6500600","新店區"
"231032","720-UM","2018/05/18 12:59:29","新北市新店區安一路一段1-1號","121.519335","24.9611866666667","6500600","新店區"
"231004","899-TW","2018/05/18 12:59:27","新北市新店區安華路28-1號","121.519323333333","24.9608883333333","6500600","新店區"
"231024","AKT-0513","2018/05/18 12:59:30","新北市新店區安華路28-1號","121.519485","24.9605983333333","6500600","新店區"
"235028","005-UY","2018/05/18 12:59:28","新北市中和區員山路36巷16-3號","121.485058333333","24.9913366666667","6500300","中和區"
"235027","006-UY","2018/05/18 12:59:38","新北市中和區員山路36巷16-3號","121.485065","24.99132","6500300","中和區"
"235003","097-UM","2018/05/18 12:59:21","新北市中和區和城路一段271巷1號","121.485471666667","24.991805","6500300","中和區"
"235004","150-BY","2018/05/18 12:58:13","新北市中和區和城路一段271巷1號","121.485523333333","24.99172","6500300","中和區"
"235022","151-BY","2018/05/18 12:59:31","新北市中和區圓通路367巷40號","121.492113333333","24.988285","6500300","中和區"
"235002","185-VK","2018/05/18 12:59:25","新北市中和區錦和路350-1號","121.49047","24.9935816666667","6500300","中和區"
"235031","255-BX","2018/05/18 12:59:26","新北市中和區中正路879號","121.484401666667","25.00414","6500300","中和區"
"235006","551-UM","2018/05/18 12:59:29","新北市中和區和城路一段271巷1號","121.485473333333","24.9917366666667","6500300","中和區"
"235034","558-UM","2018/05/18 12:59:36","新北市中和區員山路36巷16-2號","121.485056666667","24.991785","6500300","中和區"
"235001","611-BX","2018/05/18 12:59:21","新北市中和區中山路三段120-15號","121.474721666667","25.008645","6500300","中和區"
"235035","783-BX","2018/05/18 12:59:24","新北市中和區民樂路78號","121.484455","25.0012533333333","6500300","中和區"
"235026","800-TS","2018/05/18 12:51:45","新北市中和區連城路347巷18弄17號","121.487141666667","24.9948333333333","6500300","中和區"
"235016","805-TS","2018/05/18 12:59:35","新北市中和區員山路36巷16號","121.484321666667","24.99159","6500300","中和區"
"235017","900-TW","2018/05/18 12:59:23","新北市中和區員山路36巷16-2號","121.48503","24.991895","6500300","中和區"
"235015","157-BY","2018/05/18 12:59:38","新北市中和區員山路36巷13號","121.484113333333","24.9909166666667","6500300","中和區"
"235001","AAC-213","2018/05/18 12:59:16","新北市中和區錦和路350-1號","121.49058","24.993605","6500300","中和區"
"235029","251-BX","2018/05/18 12:59:31","新北市中和區板南路399巷2號","121.493308333333","24.9990316666667","6500300","中和區"
"207001","662-BX","2018/05/18 12:59:18","新北市萬里區萬里里獅頭路22-1號","121.69292","25.1781566666667","6502800","萬里區"
"236006","498-BY","2018/05/18 12:59:28","新北市土城區亞洲路32巷2號","121.435901666667","24.9743916666667","6501300","土城區"
"239001","417-VK","2018/05/18 12:59:33","新北市鶯歌區環河路81號","121.349451666667","24.9422233333333","6500800","鶯歌區"
"221032","280-BY","2018/05/18 12:59:19","新北市汐止區建成路57巷20號","121.662246666667","25.07281","6501100","汐止區"
