"lineid","car","time","location","longitude","latitude","cityid","cityname"
"234044","148-BY","2018/05/18 13:09:24","新北市永和區永元路18巷38弄1號","121.52407","25.0002433333333","6500400","永和區"
"234005","207-UY","2018/05/18 13:09:22","新北市永和區中山路一段145號","121.510216666667","25.00971","6500400","永和區"
"234078","298-R6","2018/05/18 13:09:30","新北市永和區永貞路39巷9弄1號","121.521938333333","25.0065483333333","6500400","永和區"
"234036","336-UY","2018/05/18 13:09:37","新北市永和區民樂街69巷11號","121.527655","24.9978033333333","6500400","永和區"
"234062","337-UY","2018/05/18 13:09:29","新北市永和區秀朗路二段59號","121.521916666667","25.0021133333333","6500400","永和區"
"234084","338-UY","2018/05/18 13:09:31","新北市永和區永利路4巷27號","121.517631666667","25.00482","6500400","永和區"
"234068","552-UM","2018/05/18 13:09:24","新北市永和區豫溪街137巷1弄18號","121.518788333333","25.0104916666667","6500400","永和區"
"234015","745-BX","2018/05/18 13:09:32","新北市永和區文化路90巷17號","121.513731666667","25.01617","6500400","永和區"
"234028","746-BX","2018/05/18 13:09:23","新北市永和區民生路21號","121.522836666667","24.9988566666667","6500400","永和區"
"234052","KEA-2590","2018/05/18 13:09:28","新北市永和區中興街145號","121.519035","25.012365","6500400","永和區"
"234012","KEA-2591","2018/05/18 13:09:28","新北市永和區保福路二段55號","121.510945","25.0121216666667","6500400","永和區"
"234060","AAD-866","2018/05/18 13:09:38","新北市永和區秀朗路一段42號","121.514601666667","25.00657","6500400","永和區"
"234040","862-TW","2018/05/18 13:09:29","新北市永和區保平路93巷1號","121.511665","25.0067783333333","6500400","永和區"
"234048","863-TW","2018/05/18 13:09:32","新北市永和區保福路二段94巷7號","121.510516666667","25.013755","6500400","永和區"
"234025","9371-KE","2018/05/18 13:09:25","新北市永和區自由街58號","121.513785","25.00593","6500400","永和區"
"234011","9373-KE","2018/05/18 13:09:29","新北市永和區文化路124號","121.513093333333","25.01538","6500400","永和區"
"248019","225-UY","2018/05/18 13:09:30","新北市五股區成泰路三段544-1號","121.455068333333","25.10113","6501500","五股區"
"234022","9380-KE","2018/05/18 13:09:22","新北市永和區中興街10巷19號","121.515895","25.0112516666667","6500400","永和區"
"234076","969-R7","2018/05/18 13:09:19","新北市永和區民光街2號","121.515231666667","24.9964283333333","6500400","永和區"
"234072","AAC-211","2018/05/18 13:09:37","新北市永和區竹林路206號","121.520636666667","25.00864","6500400","永和區"
"234066","AAC-212","2018/05/18 13:09:34","新北市永和區保平路4號","121.51302","25.0076716666667","6500400","永和區"
"234001","AAC-295","2018/05/18 13:09:36","新北市永和區永和路二段8號","121.51459","25.0101433333333","6500400","永和區"
"244004","248-BX","2018/05/18 13:09:18","新北市林口區頭湖73號","121.372711666667","25.0875516666667","6501700","林口區"
"231002","002-UM","2018/05/18 13:09:19","新北市新店區安華路28-1號","121.51961","24.9608","6500600","新店區"
"231028","046-UY","2018/05/18 13:09:29","新北市新店區安華路28-1號","121.519683333333","24.9609916666667","6500600","新店區"
"231001","047-UY","2018/05/18 13:09:30","新北市新店區安華路28-1號","121.519295","24.96093","6500600","新店區"
"231005","106-UY","2018/05/18 13:09:32","新北市新店區安華路28-1號","121.519701666667","24.960895","6500600","新店區"
"231010","107-UY","2018/05/18 13:09:22","新北市新店區安一路一段1-1號","121.519515","24.96137","6500600","新店區"
"231022","108-UY","2018/05/18 13:09:25","新北市新店區安一路一段1-1號","121.519453333333","24.961165","6500600","新店區"
"231012","187-VK","2018/05/18 13:09:25","新北市新店區安一路一段1-1號","121.519588333333","24.9612366666667","6500600","新店區"
"231026","188-VK","2018/05/18 13:09:27","新北市新店區安一路一段1-1號","121.519426666667","24.9612366666667","6500600","新店區"
"231023","KEA-2219","2018/05/18 13:09:34","新北市新店區安一路一段1-1號","121.519855","24.9612033333333","6500600","新店區"
"231003","268-BY","2018/05/18 13:09:33","新北市新店區安華路28-1號","121.519418333333","24.9605483333333","6500600","新店區"
"231018","278-BY","2018/05/18 13:09:26","新北市新店區安華路28-1號","121.519743333333","24.9610483333333","6500600","新店區"
"231016","AAD-862","2018/05/18 13:09:26","新北市新店區安一路一段1-1號","121.520001666667","24.9611066666667","6500600","新店區"
"231038","3712-VJ","2018/05/18 13:09:31","新北市新店區安華路28-1號","121.51903","24.9606733333333","6500600","新店區"
"231027","3713-VJ","2018/05/18 13:09:38","新北市新店區安華路28-1號","121.519645","24.960705","6500600","新店區"
"231037","4716-K9","2018/05/18 13:09:29","新北市新店區安華路28-1號","121.51969","24.9609883333333","6500600","新店區"
"231025","4715-K9","2018/05/18 13:09:36","新北市新店區安華路1-1號","121.519375","24.9605066666667","6500600","新店區"
"231036","512-UM","2018/05/18 13:09:37","新北市新店區安一路一段1-1號","121.51938","24.961305","6500600","新店區"
"231013","513-UM","2018/05/18 13:09:36","新北市新店區安一路一段1-1號","121.519643333333","24.9612533333333","6500600","新店區"
"231034","616-UM","2018/05/18 13:09:32","新北市新店區安華路28-1號","121.51946","24.9605733333333","6500600","新店區"
"231006","617-UM","2018/05/18 13:09:35","新北市新店區安華路28-1號","121.519408333333","24.9609916666667","6500600","新店區"
"231035","719-UM","2018/05/18 13:09:25","新北市新店區安一路一段1-1號","121.519581666667","24.9613233333333","6500600","新店區"
"231032","720-UM","2018/05/18 13:09:29","新北市新店區安一路一段1-1號","121.519358333333","24.961155","6500600","新店區"
"231004","899-TW","2018/05/18 13:09:27","新北市新店區安華路28-1號","121.519363333333","24.960915","6500600","新店區"
"231024","AKT-0513","2018/05/18 13:09:30","新北市新店區安華路1-1號","121.519456666667","24.96047","6500600","新店區"
"235028","005-UY","2018/05/18 13:09:28","新北市中和區中正路173號","121.497635","24.9936283333333","6500300","中和區"
"235027","006-UY","2018/05/18 13:09:38","新北市中和區員山路36巷16-3號","121.485051666667","24.9913216666667","6500300","中和區"
"235011","031-BX","2018/05/18 13:08:29","新北市中和區中正路752號","121.485411666667","24.99865","6500300","中和區"
"235003","097-UM","2018/05/18 13:09:21","新北市中和區和城路一段271巷1號","121.48547","24.9917366666667","6500300","中和區"
"235004","150-BY","2018/05/18 13:09:33","新北市中和區中正路395號","121.489355","24.993565","6500300","中和區"
"235022","151-BY","2018/05/18 13:09:31","新北市中和區圓通路367巷66號","121.49333","24.98331","6500300","中和區"
"235019","183-VK","2018/05/18 13:09:21","新北市中和區員山路36巷16-3號","121.485038333333","24.9914166666667","6500300","中和區"
"235002","185-VK","2018/05/18 13:09:25","新北市中和區景平路116號","121.519528333333","24.9918233333333","6500300","中和區"
"235031","255-BX","2018/05/18 13:09:26","新北市中和區新生街163號","121.483698333333","25.001205","6500300","中和區"
"235036","301-VK","2018/05/18 13:09:23","新北市中和區員山路36巷13號","121.484035","24.9911866666667","6500300","中和區"
"235025","378-QA","2018/05/18 13:09:32","新北市中和區員山路82巷4號","121.481238333333","24.9938983333333","6500300","中和區"
"235033","4980-A6","2018/05/18 13:09:19","新北市中和區中正路507號","121.488413333333","24.9937233333333","6500300","中和區"
"235006","551-UM","2018/05/18 13:09:29","新北市中和區景平路406號","121.508918333333","24.9930216666667","6500300","中和區"
"235034","558-UM","2018/05/18 13:09:36","新北市中和區中正路266-1號","121.495446666667","24.9939816666667","6500300","中和區"
"235009","565-BX","2018/05/18 13:09:31","新北市中和區員山路36巷13號","121.484151666667","24.99113","6500300","中和區"
"235018","640-BX","2018/05/18 13:09:39","新北市土城區延壽路118-6號","121.46906","24.994595","6500300","中和區"
"235035","783-BX","2018/05/18 13:09:24","新北市中和區板南路520巷17號","121.483796666667","25.00911","6500300","中和區"
"235026","800-TS","2018/05/18 13:09:26","新北市中和區中山路二段458號","121.48871","25.00458","6500300","中和區"
"235016","805-TS","2018/05/18 13:09:35","新北市中和區中正路275號","121.49543","24.9938166666667","6500300","中和區"
"235017","900-TW","2018/05/18 13:09:23","新北市中和區員山路36巷16-2號","121.485013333333","24.9919716666667","6500300","中和區"
"235015","157-BY","2018/05/18 13:09:18","新北市中和區板南路102號","121.503653333333","24.9924983333333","6500300","中和區"
"235001","AAC-213","2018/05/18 13:09:36","新北市中和區景平路149號","121.513975","24.99202","6500300","中和區"
"235029","251-BX","2018/05/18 13:09:31","新北市中和區福祥路48號","121.499545","25.0040183333333","6500300","中和區"
"207001","662-BX","2018/05/18 13:09:38","新北市萬里區萬里里瑪鋉路288號","121.688536666667","25.1813766666667","6502800","萬里區"
"236006","498-BY","2018/05/18 13:09:28","新北市土城區亞洲路19號","121.434121666667","24.97204","6501300","土城區"
"239001","417-VK","2018/05/18 13:09:33","新北市鶯歌區西湖街249號","121.339278333333","24.9675616666667","6500800","鶯歌區"
"221032","280-BY","2018/05/18 13:09:39","新北市汐止區大同路二段252號","121.654293333333","25.0660216666667","6501100","汐止區"
