"lineid","car","time","location","longitude","latitude","cityid","cityname"
"234044","148-BY","2018/05/18 13:19:24","新北市永和區得和路328號","121.523341666667","24.9995483333333","6500400","永和區"
"234005","207-UY","2018/05/18 13:19:21","新北市中和區中山路二段68號","121.503946666667","25.0045566666667","6500400","永和區"
"234078","298-R6","2018/05/18 13:19:34","新北市永和區林森路10巷18弄1號","121.525738333333","25.00649","6500400","永和區"
"234036","336-UY","2018/05/18 13:19:35","新北市永和區民樂街54號","121.527455","24.9994483333333","6500400","永和區"
"234062","337-UY","2018/05/18 13:19:29","新北市永和區永元路17巷6弄2號","121.521428333333","25.0007083333333","6500400","永和區"
"234084","338-UY","2018/05/18 13:19:31","新北市永和區永利路87-1號","121.521496666667","25.003335","6500400","永和區"
"234068","552-UM","2018/05/18 13:19:23","新北市永和區中正路696-1號","121.516516666667","25.009745","6500400","永和區"
"234015","745-BX","2018/05/18 13:19:32","新北市永和區環河西路一段95巷19弄3號","121.511711666667","25.0171366666667","6500400","永和區"
"234028","746-BX","2018/05/18 13:19:23","新北市永和區厚德街58號","121.524471666667","24.998815","6500400","永和區"
"234052","KEA-2590","2018/05/18 13:19:28","新北市永和區中興街27號","121.516111666667","25.0119116666667","6500400","永和區"
"234012","KEA-2591","2018/05/18 13:19:28","新北市永和區信義路40-1號","121.513871666667","25.0123733333333","6500400","永和區"
"234060","AAD-866","2018/05/18 13:19:38","新北市永和區秀朗路一段175號","121.517075","25.00369","6500400","永和區"
"234040","862-TW","2018/05/18 13:19:26","新北市永和區保平路151巷2弄6-3號","121.509555","25.0052816666667","6500400","永和區"
"234048","863-TW","2018/05/18 13:19:32","新北市永和區信義路93號","121.512321666667","25.0138","6500400","永和區"
"234025","9371-KE","2018/05/18 13:19:25","新北市永和區豫溪街42巷17號","121.515413333333","25.009025","6500400","永和區"
"234011","9373-KE","2018/05/18 13:19:29","新北市永和區永和路二段425巷35-1號","121.51439","25.0173983333333","6500400","永和區"
"248019","225-UY","2018/05/18 13:19:14","新北市五股區孝義路47巷23號","121.449748333333","25.1097266666667","6501500","五股區"
"234022","9380-KE","2018/05/18 13:19:22","新北市永和區竹林路105號","121.519775","25.0118933333333","6500400","永和區"
"234076","969-R7","2018/05/18 13:19:39","新北市永和區民有街69號","121.517881666667","24.9957933333333","6500400","永和區"
"234072","AAC-211","2018/05/18 13:19:35","新北市永和區竹林路46號","121.51765","25.0142733333333","6500400","永和區"
"234066","AAC-212","2018/05/18 13:19:34","新北市永和區保平路50巷8弄1號","121.51099","25.00757","6500400","永和區"
"234001","AAC-295","2018/05/18 13:19:36","新北市永和區保福路一段90號","121.512158333333","25.01036","6500400","永和區"
"244004","248-BX","2018/05/18 13:19:18","新北市林口區頂福20-18號","121.355131666667","25.0930433333333","6501700","林口區"
"231002","002-UM","2018/05/18 13:19:39","新北市新店區安華路28-1號","121.519688333333","24.96076","6500600","新店區"
"231028","046-UY","2018/05/18 13:19:29","新北市新店區安一路一段1-1號","121.51968","24.961195","6500600","新店區"
"231001","047-UY","2018/05/18 13:19:30","新北市新店區安華路28-1號","121.519203333333","24.9608816666667","6500600","新店區"
"231005","106-UY","2018/05/18 13:19:32","新北市新店區安華路28-1號","121.519695","24.9609133333333","6500600","新店區"
"231010","107-UY","2018/05/18 13:19:22","新北市新店區安康路一段222-1號","121.522778333333","24.9637383333333","6500600","新店區"
"231022","108-UY","2018/05/18 13:19:25","新北市新店區秀山路14號","121.53261","24.96032","6500600","新店區"
"231012","187-VK","2018/05/18 13:19:25","新北市新店區安一路一段1-1號","121.51969","24.96144","6500600","新店區"
"231026","188-VK","2018/05/18 13:19:28","新北市新店區安華路30巷1號","121.519415","24.95974","6500600","新店區"
"231023","KEA-2219","2018/05/18 13:19:34","新北市新店區安康路一段35-1號","121.53206","24.9605933333333","6500600","新店區"
"231003","268-BY","2018/05/18 13:19:33","新北市新店區安華路28-1號","121.519443333333","24.9606183333333","6500600","新店區"
"231018","278-BY","2018/05/18 13:19:26","新北市新店區中央路181-1號","121.535716666667","24.9691283333333","6500600","新店區"
"231016","AAD-862","2018/05/18 13:19:26","新北市新店區安康路一段226號","121.523665","24.96364","6500600","新店區"
"231038","3712-VJ","2018/05/18 13:19:31","新北市新店區安華路28-1號","121.519295","24.9607033333333","6500600","新店區"
"231027","3713-VJ","2018/05/18 13:19:18","新北市新店區安康路一段122-1號","121.526983333333","24.962715","6500600","新店區"
"231037","4716-K9","2018/05/18 13:19:29","新北市新店區安華路28-1號","121.51974","24.9609816666667","6500600","新店區"
"231025","4715-K9","2018/05/18 13:19:36","新北市新店區中央五街17號","121.529566666667","24.9744583333333","6500600","新店區"
"231036","512-UM","2018/05/18 13:18:20","新北市新店區安康路二段360號","121.501936666667","24.957415","6500600","新店區"
"231013","513-UM","2018/05/18 13:19:36","新北市新店區安一路一段1-1號","121.519705","24.9612633333333","6500600","新店區"
"231034","616-UM","2018/05/18 13:19:32","新北市新店區安華路1-1號","121.519481666667","24.9605233333333","6500600","新店區"
"231006","617-UM","2018/05/18 13:19:35","新北市新店區安華路28-1號","121.519398333333","24.9609516666667","6500600","新店區"
"231035","719-UM","2018/05/18 13:19:25","新北市新店區安一路一段1-1號","121.519583333333","24.96131","6500600","新店區"
"231032","720-UM","2018/05/18 13:19:29","新北市新店區安一路一段1-1號","121.519306666667","24.96124","6500600","新店區"
"231029","897-TW","2018/05/18 13:19:18","新北市新店區安華路28-1號","121.519633333333","24.96055","6500600","新店區"
"231004","899-TW","2018/05/18 13:19:27","新北市新店區安華路28-1號","121.519221666667","24.9609116666667","6500600","新店區"
"231024","AKT-0513","2018/05/18 13:19:30","新北市新店區安康路一段9-2號","121.533805","24.96054","6500600","新店區"
"235028","005-UY","2018/05/18 13:19:36","新北市中和區圓通路171號","121.497591666667","24.995225","6500300","中和區"
"235027","006-UY","2018/05/18 13:19:18","新北市中和區中正路589巷1號","121.485898333333","24.994285","6500300","中和區"
"235011","031-BX","2018/05/18 13:19:38","新北市中和區建八路133號","121.489993333333","24.9986133333333","6500300","中和區"
"235020","096-UM","2018/05/18 13:19:38","新北市中和區員山路36巷16號","121.48442","24.9915916666667","6500300","中和區"
"235003","097-UM","2018/05/18 13:19:21","新北市中和區景安路121號","121.505828333333","24.9963083333333","6500300","中和區"
"235004","150-BY","2018/05/18 13:19:33","新北市中和區安平路59號","121.509445","24.9952566666667","6500300","中和區"
"235022","151-BY","2018/05/18 13:19:31","新北市中和區圓通路369巷36弄10號","121.490175","24.98464","6500300","中和區"
"235019","183-VK","2018/05/18 13:19:21","新北市中和區中正路637巷60弄61號","121.485503333333","24.993255","6500300","中和區"
"235002","185-VK","2018/05/18 13:19:25","新北市中和區秀朗路三段128巷7弄1號","121.524541666667","24.99267","6500300","中和區"
"235031","255-BX","2018/05/18 13:19:26","新北市中和區員山路148巷43號","121.482623333333","24.9971333333333","6500300","中和區"
"235036","301-VK","2018/05/18 13:19:23","新北市中和區中正路637巷52弄1號","121.485463333333","24.9936166666667","6500300","中和區"
"235007","352-BY","2018/05/18 13:19:31","新北市中和區中正路23號","121.502686666667","24.9934916666667","6500300","中和區"
"235025","378-QA","2018/05/18 13:19:32","新北市中和區國光街215巷24弄13號","121.466783333333","25.0002433333333","6500300","中和區"
"235014","4979-A6","2018/05/18 13:19:35","新北市中和區中正路273號","121.49565","24.9938116666667","6500300","中和區"
"235033","4980-A6","2018/05/18 13:19:19","新北市中和區圓通路257巷1號","121.496051666667","24.9934783333333","6500300","中和區"
"235006","551-UM","2018/05/18 13:19:29","新北市中和區大仁街20巷25弄23號","121.51882","24.9936083333333","6500300","中和區"
"235034","558-UM","2018/05/18 13:19:16","新北市中和區圓通路146號","121.498148333333","24.9957233333333","6500300","中和區"
"235009","565-BX","2018/05/18 13:19:31","新北市中和區復興路301巷23號","121.501946666667","24.9897383333333","6500300","中和區"
"235018","640-BX","2018/05/18 13:19:19","新北市中和區民享街86巷28號","121.47332","25.0006116666667","6500300","中和區"
"235024","647-TV","2018/05/18 13:19:27","新北市中和區員山路36巷16-3號","121.484918333333","24.9918033333333","6500300","中和區"
"235035","783-BX","2018/05/18 13:19:25","新北市中和區中板路10號","121.484058333333","25.011805","6500300","中和區"
"235026","800-TS","2018/05/18 13:19:26","新北市中和區景平路989巷6-3號","121.495356666667","25.0052633333333","6500300","中和區"
"235021","801-TS","2018/05/18 13:19:31","新北市中和區連城路328號","121.48325","24.9959416666667","6500300","中和區"
"235016","805-TS","2018/05/18 13:19:35","新北市中和區興南路二段133號","121.505248333333","24.9842133333333","6500300","中和區"
"235012","896-TW","2018/05/18 13:19:33","新北市中和區員山路36巷16-2號","121.484993333333","24.9919516666667","6500300","中和區"
"235017","900-TW","2018/05/18 13:19:23","新北市中和區員山路36巷16-3號","121.484921666667","24.9918083333333","6500300","中和區"
"235030","911-UM","2018/05/18 13:19:24","新北市中和區中山路二段201號","121.499855","25.00265","6500300","中和區"
"235015","157-BY","2018/05/18 13:19:38","新北市中和區忠孝街60巷7號","121.511766666667","24.98383","6500300","中和區"
"235001","AAC-213","2018/05/18 13:19:36","新北市中和區景德街88號","121.516178333333","24.9914866666667","6500300","中和區"
"235023","AAC-215","2018/05/18 13:11:51","新北市中和區員山路36巷16-3號","121.484968333333","24.9913933333333","6500300","中和區"
"235029","251-BX","2018/05/18 13:19:31","新北市中和區莊敬路49巷20弄22號","121.502703333333","25.00586","6500300","中和區"
"207001","662-BX","2018/05/18 13:19:38","新北市萬里區龜吼里翡翠路18號","121.6833","25.1886966666667","6502800","萬里區"
"236006","498-BY","2018/05/18 13:19:32","新北市土城區亞洲路57號","121.433305","24.9711983333333","6501300","土城區"
"239001","417-VK","2018/05/18 13:19:33","桃園市龜山區宏德司法新村1號","121.331603333333","24.9794883333333","6500800","鶯歌區"
"221032","280-BY","2018/05/18 13:19:19","新北市汐止區龍安路38號","121.654716666667","25.0641716666667","6501100","汐止區"
"220022","630-UY","2018/05/18 13:19:18","新北市板橋區華東街1-10號","121.448623333333","24.9948533333333","6500100","板橋區"
"220005","686-BX","2018/05/18 13:19:36","新北市板橋區華東街1-9號","121.44823","24.9949366666667","6500100","板橋區"
"220025","687-BX","2018/05/18 13:19:18","新北市板橋區華東街1-10號","121.44834","24.99498","6500100","板橋區"
"235032","KEA-2873","2018/05/18 13:19:28","新北市中和區員山路36巷16-3號","121.484936666667","24.9913566666667","6500300","中和區"
