"lineid","car","time","location","longitude","latitude","cityid","cityname"
"234044","148-BY","2018/05/18 13:29:24","新北市永和區秀朗路二段259號","121.526266666667","24.9991716666667","6500400","永和區"
"234005","207-UY","2018/05/18 13:29:21","新北市永和區中山路一段177號","121.509286666667","25.0089966666667","6500400","永和區"
"234078","298-R6","2018/05/18 13:29:39","新北市永和區環河東路三段42號","121.526685","25.0065916666667","6500400","永和區"
"234036","336-UY","2018/05/18 13:29:35","新北市永和區成功路一段139號","121.527075","25.001435","6500400","永和區"
"234062","337-UY","2018/05/18 13:29:29","新北市永和區中正路368巷1弄88號","121.520541666667","25.0007433333333","6500400","永和區"
"234084","338-UY","2018/05/18 13:29:31","新北市永和區永亨路165巷10號","121.526253333333","25.0042066666667","6500400","永和區"
"234068","552-UM","2018/05/18 13:29:23","新北市永和區竹林路182號","121.520363333333","25.0097116666667","6500400","永和區"
"234015","745-BX","2018/05/18 13:29:32","新北市永和區環河西路一段3號","121.515115","25.01778","6500400","永和區"
"234028","746-BX","2018/05/18 13:29:23","新北市永和區民生路69號","121.522605","24.997215","6500400","永和區"
"234052","KEA-2590","2018/05/18 13:29:28","新北市永和區復興街19巷2號","121.516123333333","25.0131066666667","6500400","永和區"
"234012","KEA-2591","2018/05/18 13:29:33","新北市永和區永平路216號","121.509296666667","25.0103816666667","6500400","永和區"
"234060","AAD-866","2018/05/18 13:29:38","新北市永和區永貞路131號","121.516721666667","25.0042383333333","6500400","永和區"
"234040","862-TW","2018/05/18 13:29:26","新北市永和區水源街39巷28號","121.510715","25.00316","6500400","永和區"
"234048","863-TW","2018/05/18 13:29:32","新北市永和區保福路二段96號","121.510186666667","25.0135316666667","6500400","永和區"
"234025","9371-KE","2018/05/18 13:29:25","新北市永和區永和路一段155-4號","121.514301666667","25.0094633333333","6500400","永和區"
"234010","9373-KE","2018/05/18 13:29:29","新北市永和區仁愛路141巷3弄7號","121.511925","25.0124833333333","6500400","永和區"
"248019","225-UY","2018/05/18 13:29:30","新北市五股區天乙路116號","121.447126666667","25.1138883333333","6501500","五股區"
"234022","9380-KE","2018/05/18 13:29:22","新北市永和區竹林路91巷47弄5號","121.521148333333","25.01295","6500400","永和區"
"234076","969-R7","2018/05/18 13:29:19","新北市永和區智光街29號","121.518071666667","24.9990733333333","6500400","永和區"
"234072","AAC-211","2018/05/18 13:29:35","新北市永和區光復街60巷25號","121.517753333333","25.017565","6500400","永和區"
"234066","AAC-212","2018/05/18 13:29:34","新北市永和區保平路176號","121.510823333333","25.0067383333333","6500400","永和區"
"234001","AAC-295","2018/05/18 13:29:36","新北市永和區永和路一段107號","121.513916666667","25.0079733333333","6500400","永和區"
"244004","248-BX","2018/05/18 13:29:18","新北市林口區頂福23-2號","121.35158","25.084255","6501700","林口區"
"231002","002-UM","2018/05/18 13:29:19","新北市新店區環河路64號","121.537091666667","24.9626916666667","6500600","新店區"
"231028","046-UY","2018/05/18 13:29:29","新北市新店區安華路28-1號","121.519658333333","24.961005","6500600","新店區"
"231001","047-UY","2018/05/18 13:29:30","新北市新店區中央路137號","121.530371666667","24.9736433333333","6500600","新店區"
"231005","106-UY","2018/05/18 13:29:32","新北市新店區北新路一段89號","121.538718333333","24.96168","6500600","新店區"
"231010","107-UY","2018/05/18 13:29:22","新北市新店區中央路31號","121.533075","24.9777883333333","6500600","新店區"
"231022","108-UY","2018/05/18 13:29:25","新北市新店區永興路73號","121.544705","24.93568","6500600","新店區"
"231012","187-VK","2018/05/18 13:29:25","新北市新店區北新路一段72號","121.541353333333","24.9670433333333","6500600","新店區"
"231026","188-VK","2018/05/18 13:29:28","新北市新店區秀山路68-1號","121.531008333333","24.9609733333333","6500600","新店區"
"231023","KEA-2219","2018/05/18 13:29:34","新北市新店區新店路23號","121.54018","24.9528083333333","6500600","新店區"
"231003","268-BY","2018/05/18 13:29:32","新北市新店區北新路一段303號","121.541488333333","24.96745","6500600","新店區"
"231018","278-BY","2018/05/18 13:29:26","新北市新店區中央路47號","121.532863333333","24.9773983333333","6500600","新店區"
"231016","AAD-862","2018/05/18 13:29:26","新北市新店區新烏路一段11巷1弄2號","121.54734","24.95138","6500600","新店區"
"231038","3712-VJ","2018/05/18 13:29:31","新北市新店區安華路28-1號","121.519358333333","24.9606783333333","6500600","新店區"
"231027","3713-VJ","2018/05/18 13:29:18","新北市新店區北新路一段47號","121.538061666667","24.9594966666667","6500600","新店區"
"231037","4716-K9","2018/05/18 13:29:29","新北市新店區薏仁坑路35號","121.493346666667","24.9629033333333","6500600","新店區"
"231025","4715-K9","2018/05/18 13:29:36","新北市新店區中央六街56號","121.527908333333","24.9757716666667","6500600","新店區"
"231036","512-UM","2018/05/18 13:29:34","新北市新店區建業路43號","121.479961666667","24.9551116666667","6500600","新店區"
"231013","513-UM","2018/05/18 13:29:16","新北市新店區中央路137號","121.530325","24.9737","6500600","新店區"
"231034","616-UM","2018/05/18 13:29:32","新北市新店區安華路28-1號","121.519501666667","24.9607466666667","6500600","新店區"
"231006","617-UM","2018/05/18 13:29:35","新北市新店區安康路一段17號","121.533113333333","24.9603766666667","6500600","新店區"
"231030","619-UM","2018/05/18 13:29:30","新北市新店區安華路1-1號","121.51959","24.9604983333333","6500600","新店區"
"231035","719-UM","2018/05/18 13:29:05","新北市新店區安一路一段1-1號","121.519618333333","24.9612316666667","6500600","新店區"
"231032","720-UM","2018/05/18 13:29:29","新北市新店區安豐路60-1號","121.497838333333","24.9536966666667","6500600","新店區"
"231029","897-TW","2018/05/18 13:29:39","新北市新店區安忠路205巷8號","121.508843333333","24.9547633333333","6500600","新店區"
"231004","899-TW","2018/05/18 13:29:27","新北市新店區安康路一段221號","121.525811666667","24.9630666666667","6500600","新店區"
"231024","AKT-0513","2018/05/18 13:29:30","新北市新店區中正路154巷8號","121.541821666667","24.9720866666667","6500600","新店區"
"235028","005-UY","2018/05/18 13:29:08","新北市中和區連城路139巷63號","121.496936666667","24.9971116666667","6500300","中和區"
"235027","006-UY","2018/05/18 13:29:18","新北市中和區連城路347巷2號","121.488138333333","24.9958533333333","6500300","中和區"
"235011","031-BX","2018/05/18 13:29:18","新北市中和區南山路405號","121.506978333333","24.989935","6500300","中和區"
"235020","096-UM","2018/05/18 13:29:38","新北市中和區中山路二段594號","121.482345","25.005485","6500300","中和區"
"235003","097-UM","2018/05/18 13:29:23","新北市中和區景平路162號","121.517281666667","24.99225","6500300","中和區"
"235004","150-BY","2018/05/18 13:29:33","新北市中和區安平路59號","121.509485","24.99511","6500300","中和區"
"235022","151-BY","2018/05/18 13:29:31","新北市中和區圓通路369巷72號","121.490158333333","24.9822216666667","6500300","中和區"
"235019","183-VK","2018/05/18 13:29:21","新北市中和區莒光路207號","121.470008333333","24.995655","6500300","中和區"
"235002","185-VK","2018/05/18 13:29:25","新北市中和區立人街14巷40弄2號","121.519118333333","24.9955333333333","6500300","中和區"
"235013","186-VK","2018/05/18 13:29:22","新北市中和區景安路142號","121.505138333333","24.9941733333333","6500300","中和區"
"235031","255-BX","2018/05/18 13:29:26","新北市中和區新生街220巷4號","121.482845","24.9986333333333","6500300","中和區"
"235036","301-VK","2018/05/18 13:29:24","新北市中和區連城路265巷6弄6號","121.491068333333","24.9958583333333","6500300","中和區"
"235007","352-BY","2018/05/18 13:29:31","新北市中和區景平路321號","121.505926666667","24.9933133333333","6500300","中和區"
"235025","378-QA","2018/05/18 13:29:35","新北市中和區民享街91巷2號","121.474875","25.0007616666667","6500300","中和區"
"235014","4979-A6","2018/05/18 13:29:35","新北市中和區景新街362巷10號","121.511925","24.9901483333333","6500300","中和區"
"235033","4980-A6","2018/05/18 13:29:39","新北市中和區連城路127巷35號","121.497451666667","24.9972166666667","6500300","中和區"
"235006","551-UM","2018/05/18 13:29:29","新北市中和區自立路56巷17號","121.522698333333","24.9916116666667","6500300","中和區"
"235034","558-UM","2018/05/18 13:29:36","新北市中和區南華路39-2號","121.503375","24.996225","6500300","中和區"
"235009","565-BX","2018/05/18 13:29:31","新北市中和區復興路15號","121.505796666667","24.9895733333333","6500300","中和區"
"235018","640-BX","2018/05/18 13:29:39","新北市中和區民享街89巷4弄7號","121.475098333333","25.0014666666667","6500300","中和區"
"235024","647-TV","2018/05/18 13:29:27","新北市中和區員山路176號","121.481286666667","25.0000316666667","6500300","中和區"
"235035","783-BX","2018/05/18 13:29:24","新北市中和區環中路128號","121.481953333333","25.0127483333333","6500300","中和區"
"235026","800-TS","2018/05/18 13:29:26","新北市中和區景平路677巷2弄2號","121.496271666667","25.00283","6500300","中和區"
"235021","801-TS","2018/05/18 13:29:31","新北市中和區民安街111巷24弄7號","121.476273333333","24.9989366666667","6500300","中和區"
"235005","802-TS","2018/05/18 13:29:22","新北市中和區中和路318號","121.509615","25.0005733333333","6500300","中和區"
"235016","805-TS","2018/05/18 13:29:35","新北市中和區興南路二段133號","121.505301666667","24.9841616666667","6500300","中和區"
"235012","896-TW","2018/05/18 13:29:33","新北市中和區員山路36巷16-2號","121.48519","24.9918316666667","6500300","中和區"
"235017","900-TW","2018/05/18 13:29:23","新北市中和區民享街457號","121.4704","24.9931916666667","6500300","中和區"
"235030","911-UM","2018/05/18 13:29:24","新北市中和區中山路二段113號","121.503048333333","25.00372","6500300","中和區"
"235015","157-BY","2018/05/18 13:29:38","新北市中和區興南路二段128巷7弄6號","121.503033333333","24.9839766666667","6500300","中和區"
"235001","AAC-213","2018/05/18 13:29:37","新北市中和區景德街95-1號","121.515558333333","24.9913","6500300","中和區"
"235023","AAC-215","2018/05/18 13:29:20","新北市中和區員山路36巷16-3號","121.48497","24.9914116666667","6500300","中和區"
"220028","015-TV","2018/05/18 13:29:17","新北市板橋區華東街1-9號","121.448128333333","24.994945","6500100","板橋區"
"220013","072-UY","2018/05/18 13:29:28","新北市板橋區南雅南路二段140號","121.451746666667","24.99623","6500100","板橋區"
"247007","056-VK","2018/05/18 13:29:21","新北市五股區工商路8號","121.44046","25.08238","6501400","蘆洲區"
"247019","001-UY","2018/05/18 13:29:31","新北市五股區中興路三段2巷10號","121.449343333333","25.081105","6501400","蘆洲區"
"235029","251-BX","2018/05/18 13:29:31","新北市中和區莊敬路49巷20弄24號","121.502865","25.00558","6500300","中和區"
"207002","749-BX","2018/05/18 13:29:27","新北市萬里區崁腳里崁腳路166號","121.645053333333","25.1558716666667","6502800","萬里區"
"207001","662-BX","2018/05/18 13:29:38","新北市萬里區大鵬里萬里加投35-1號","121.646256666667","25.2110966666667","6502800","萬里區"
"236006","498-BY","2018/05/18 13:29:38","新北市土城區慶祥街96巷2號","121.435718333333","24.9730016666667","6501300","土城區"
"239001","417-VK","2018/05/18 13:29:33","桃園市龜山區宏德司法新村1號","121.331616666667","24.979495","6500800","鶯歌區"
"221032","280-BY","2018/05/18 13:29:39","新北市汐止區水源路一段56號","121.657423333333","25.0655566666667","6501100","汐止區"
"220030","610-BX","2018/05/18 13:29:21","新北市樹林區樹新路106巷1號","121.430068333333","24.9977816666667","6500100","板橋區"
"220019","283-VK","2018/05/18 13:29:20","新北市板橋區華東街1-9號","121.448116666667","24.99497","6500100","板橋區"
"220031","286-VK","2018/05/18 13:29:32","新北市板橋區華東街1-10號","121.448368333333","24.99512","6500100","板橋區"
"220029","287-VK","2018/05/18 13:29:18","新北市板橋區華東街1-10號","121.448288333333","24.995015","6500100","板橋區"
"220023","303-R5","2018/05/18 13:29:24","新北市板橋區華東街1-10號","121.44824","24.995","6500100","板橋區"
"220012","486-VK","2018/05/18 13:29:26","新北市板橋區華東街1-9號","121.44811","24.995005","6500100","板橋區"
"220104","560-BX","2018/05/18 13:29:33","新北市板橋區南雅東路89號","121.453171666667","25.0086283333333","6500100","板橋區"
"220022","630-UY","2018/05/18 13:29:38","新北市板橋區華東街1-10號","121.4486","24.994875","6500100","板橋區"
"220005","686-BX","2018/05/18 13:29:36","新北市板橋區華東街1-9號","121.448215","24.9949283333333","6500100","板橋區"
"220025","687-BX","2018/05/18 13:29:38","新北市板橋區篤行路一段37號","121.43191","24.9939616666667","6500100","板橋區"
"220021","985-R7","2018/05/18 13:29:21","新北市板橋區華東街1-10號","121.448296666667","24.995025","6500100","板橋區"
"220018","AAC-253","2018/05/18 13:29:38","新北市板橋區華東街1-10號","121.448325","24.9949216666667","6500100","板橋區"
"235032","KEA-2873","2018/05/18 13:29:28","新北市中和區圓通路285號","121.495226666667","24.9929416666667","6500300","中和區"
