"lineid","car","time","location","longitude","latitude","cityid","cityname"
"234044","148-BY","2018/05/18 14:09:24","新北市永和區得和路326號","121.523255","24.9996066666667","6500400","永和區"
"234005","207-UY","2018/05/18 14:09:21","新北市永和區永貞路372號","121.509935","25.0067566666667","6500400","永和區"
"234078","298-R6","2018/05/18 14:09:39","新北市永和區國中路128號","121.523575","25.0067533333333","6500400","永和區"
"234036","336-UY","2018/05/18 14:09:39","新北市永和區成功路一段47巷21弄2號","121.527936666667","25.0039383333333","6500400","永和區"
"234062","337-UY","2018/05/18 14:09:29","新北市永和區永利路156號","121.52257","25.002735","6500400","永和區"
"234084","338-UY","2018/05/18 14:09:31","新北市永和區中正路557號","121.516758333333","25.0084016666667","6500400","永和區"
"234068","552-UM","2018/05/18 14:09:23","新北市永和區福和路183巷1號","121.520031666667","25.007255","6500400","永和區"
"234015","745-BX","2018/05/18 14:09:32","新北市永和區仁愛路54號","121.513791666667","25.013385","6500400","永和區"
"234028","746-BX","2018/05/18 14:09:23","新北市永和區民權路47號","121.519991666667","24.997175","6500400","永和區"
"234052","KEA-2590","2018/05/18 14:09:28","新北市永和區博愛街45巷1號","121.519148333333","25.0158716666667","6500400","永和區"
"234012","KEA-2591","2018/05/18 14:09:28","新北市永和區保生路3號","121.506391666667","25.0075366666667","6500400","永和區"
"234060","AAD-866","2018/05/18 14:09:38","新北市中和區安平路222號","121.514085","25.0001583333333","6500400","永和區"
"234040","862-TW","2018/05/18 14:09:26","新北市永和區雙和街41號","121.508891666667","25.0024483333333","6500400","永和區"
"234048","863-TW","2018/05/18 14:09:32","新北市永和區新生路28巷16號","121.508301666667","25.0163833333333","6500400","永和區"
"234025","9371-KE","2018/05/18 14:09:25","新北市永和區安樂路274號","121.514603333333","25.0042233333333","6500400","永和區"
"234010","9373-KE","2018/05/18 14:09:29","新北市永和區仁愛路352巷122弄10號","121.500721666667","25.0087733333333","6500400","永和區"
"248019","225-UY","2018/05/18 14:02:28","新北市五股區凌雲路三段57號","121.425311666667","25.1250083333333","6501500","五股區"
"234022","9380-KE","2018/05/18 14:09:22","新北市永和區博愛街32巷17-1號","121.518856666667","25.015275","6500400","永和區"
"234076","969-R7","2018/05/18 14:09:39","新北市中和區自強路6-1號","121.519983333333","24.9960216666667","6500400","永和區"
"234072","AAC-211","2018/05/18 14:09:35","新北市永和區豫溪街160巷2號","121.523198333333","25.0095566666667","6500400","永和區"
"234066","AAC-212","2018/05/18 14:09:34","新北市永和區保平路236巷1弄1號","121.509093333333","25.0057433333333","6500400","永和區"
"234001","AAC-295","2018/05/18 14:09:36","新北市永和區中正路577巷4號","121.516355","25.0088816666667","6500400","永和區"
"244004","248-BX","2018/05/18 14:09:38","新北市林口區竹林路267號","121.389551666667","25.0808766666667","6501700","林口區"
"231002","002-UM","2018/05/18 14:09:39","新北市新店區中正路487號","121.533806666667","24.9821466666667","6500600","新店區"
"231028","046-UY","2018/05/18 14:09:32","新北市新店區安和路三段53號","121.518026666667","24.9827433333333","6500600","新店區"
"231001","047-UY","2018/05/18 14:09:30","新北市新店區中華路50號","121.539668333333","24.9685016666667","6500600","新店區"
"231005","106-UY","2018/05/18 14:09:32","新北市新店區寶安街68巷11號","121.542368333333","24.9845683333333","6500600","新店區"
"231010","107-UY","2018/05/18 14:09:22","新北市新店區安康路一段156號","121.526285","24.9629816666667","6500600","新店區"
"231022","108-UY","2018/05/18 14:09:38","新北市新店區桂山路81巷3號","121.56775","24.8989066666667","6500600","新店區"
"231012","187-VK","2018/05/18 14:09:25","新北市新店區五峰路63巷2號","121.546408333333","24.968205","6500600","新店區"
"231023","KEA-2219","2018/05/18 14:09:34","新北市新店區北宜路一段41-1號","121.538453333333","24.9572933333333","6500600","新店區"
"231003","268-BY","2018/05/18 14:09:32","新北市新店區光明街22號","121.538303333333","24.9586683333333","6500600","新店區"
"231018","278-BY","2018/05/18 14:09:26","新北市新店區中央五街46號","121.528148333333","24.9751366666667","6500600","新店區"
"231016","AAD-862","2018/05/18 14:09:26","新北市新店區北宜路二段392巷1號","121.565945","24.95326","6500600","新店區"
"231038","3712-VJ","2018/05/18 14:09:31","新北市新店區溪洲路8巷66號","121.533168333333","24.9624966666667","6500600","新店區"
"231027","3713-VJ","2018/05/18 14:09:18","新北市新店區光明街138巷13弄5號","121.54021","24.9614316666667","6500600","新店區"
"231037","4716-K9","2018/05/18 14:09:29","新北市新店區安康路二段337-1號","121.498266666667","24.95594","6500600","新店區"
"231025","4715-K9","2018/05/18 14:09:36","新北市新店區二十張路123號","121.536006666667","24.9794883333333","6500600","新店區"
"231036","512-UM","2018/05/18 14:09:34","新北市新店區安祥路109巷5號","121.47568","24.95886","6500600","新店區"
"231013","513-UM","2018/05/18 14:09:36","新北市新店區北新路三段49號","121.541843333333","24.98058","6500600","新店區"
"231034","616-UM","2018/05/18 14:09:32","新北市新店區黎明路3號","121.503193333333","24.9521916666667","6500600","新店區"
"231006","617-UM","2018/05/18 14:09:35","新北市新店區北宜路二段431-5號","121.560911666667","24.9543316666667","6500600","新店區"
"231030","619-UM","2018/05/18 14:09:30","新北市新店區安民街115巷28號","121.515105","24.9675766666667","6500600","新店區"
"231035","719-UM","2018/05/18 14:09:25","新北市新店區安和路一段52巷2號","121.51762","24.966025","6500600","新店區"
"231032","720-UM","2018/05/18 14:09:29","新北市新店區永業路47號","121.53226","24.9549766666667","6500600","新店區"
"231029","897-TW","2018/05/18 14:09:39","新北市新店區安康路二段161號","121.510276666667","24.95938","6500600","新店區"
"231004","899-TW","2018/05/18 14:09:27","新北市新店區北新路二段128號","121.543006666667","24.9749316666667","6500600","新店區"
"235028","005-UY","2018/05/18 14:09:28","新北市中和區泰和街18號","121.499575","25.0009783333333","6500300","中和區"
"235027","006-UY","2018/05/18 14:09:38","新北市中和區連城路249巷21弄2號","121.494058333333","24.99594","6500300","中和區"
"235011","031-BX","2018/05/18 14:09:38","新北市中和區興南路一段56巷8號","121.510633333333","24.9910083333333","6500300","中和區"
"235020","096-UM","2018/05/18 14:09:18","新北市中和區中山路二段608號","121.481713333333","25.005385","6500300","中和區"
"235003","097-UM","2018/05/18 14:09:21","新北市中和區秀峰街64號","121.520651666667","24.9904883333333","6500300","中和區"
"235004","150-BY","2018/05/18 14:09:33","新北市中和區宜安路121號","121.510081666667","24.9979366666667","6500300","中和區"
"235022","151-BY","2018/05/18 14:09:31","新北市中和區連城路477巷6弄18號","121.48254","24.995125","6500300","中和區"
"235019","183-VK","2018/05/18 14:09:21","新北市中和區德光路104號","121.468341666667","25.0033866666667","6500300","中和區"
"235002","185-VK","2018/05/18 14:09:34","新北市中和區大仁街10巷32號","121.518815","24.992495","6500300","中和區"
"235013","186-VK","2018/05/18 14:09:22","新北市中和區景新街165號","121.506478333333","24.9958816666667","6500300","中和區"
"235031","255-BX","2018/05/18 14:09:26","新北市中和區新生街233巷10號","121.484436666667","24.99855","6500300","中和區"
"235008","293-VK","2018/05/18 14:09:30","新北市中和區中興街214號","121.499548333333","24.989985","6500300","中和區"
"235036","301-VK","2018/05/18 14:09:23","新北市中和區景平路752號","121.496428333333","25.0044566666667","6500300","中和區"
"235007","352-BY","2018/05/18 14:09:31","新北市中和區景平路116號","121.5196","24.991605","6500300","中和區"
"235025","378-QA","2018/05/18 14:09:32","新北市中和區員山路427號","121.48097","25.00356","6500300","中和區"
"235014","4979-A6","2018/05/18 14:09:35","新北市中和區復興路280巷18弄12號","121.502141666667","24.9918266666667","6500300","中和區"
"235033","4980-A6","2018/05/18 14:09:39","新北市中和區中山路二段181巷9號","121.501236666667","25.001815","6500300","中和區"
"235006","551-UM","2018/05/18 14:09:29","新北市中和區自強路15巷1號","121.520783333333","24.9935166666667","6500300","中和區"
"235034","558-UM","2018/05/18 14:09:36","新北市中和區中和路80號","121.501085","25.0006683333333","6500300","中和區"
"235009","565-BX","2018/05/18 14:09:31","新北市中和區景新街467巷35弄20-3號","121.514026666667","24.9889133333333","6500300","中和區"
"235018","640-BX","2018/05/18 14:09:39","新北市中和區國光街107巷2弄32號","121.46926","24.9990016666667","6500300","中和區"
"235024","647-TV","2018/05/18 14:09:27","新北市中和區中山路三段145號","121.473848333333","25.0060683333333","6500300","中和區"
"235010","733-UM","2018/05/18 14:09:36","新北市中和區華新街97號","121.508713333333","24.9829166666667","6500300","中和區"
"235035","783-BX","2018/05/18 14:09:24","新北市中和區立德街72巷20號","121.487798333333","25.0082783333333","6500300","中和區"
"235026","800-TS","2018/05/18 14:09:25","新北市中和區橋安街8號","121.49271","25.0042166666667","6500300","中和區"
"235021","801-TS","2018/05/18 14:09:31","新北市中和區民利街68巷2弄2號","121.478556666667","24.9986516666667","6500300","中和區"
"235005","802-TS","2018/05/18 14:09:22","新北市中和區宜安路118巷30號","121.511148333333","24.9989966666667","6500300","中和區"
"235016","805-TS","2018/05/18 14:09:35","新北市中和區興南路二段142巷19弄3號","121.503141666667","24.9835316666667","6500300","中和區"
"235012","896-TW","2018/05/18 14:09:33","新北市中和區工專路147號","121.508506666667","24.97891","6500300","中和區"
"235017","900-TW","2018/05/18 14:09:33","新北市中和區華福街73號","121.467248333333","24.9967266666667","6500300","中和區"
"235030","911-UM","2018/05/18 14:09:24","新北市中和區廣福路60號","121.503613333333","25.0018116666667","6500300","中和區"
"235015","157-BY","2018/05/18 14:09:38","新北市中和區和平街8號","121.510181666667","24.990095","6500300","中和區"
"235001","AAC-213","2018/05/18 14:09:36","新北市中和區秀朗路三段50巷2弄1號","121.525955","24.99553","6500300","中和區"
"235023","AAC-215","2018/05/18 14:09:20","新北市中和區錦和路195巷1弄2號","121.491083333333","24.9908916666667","6500300","中和區"
"220028","015-TV","2018/05/18 14:09:37","新北市板橋區大觀路二段5-5號","121.446885","25.0036466666667","6500100","板橋區"
"220013","072-UY","2018/05/18 14:09:28","新北市板橋區民族路219巷25號","121.469436666667","25.008715","6500100","板橋區"
"220034","073-UY","2018/05/18 14:09:37","新北市板橋區中正路236巷75號","121.459025","25.01968","6500100","板橋區"
"220105","075-UY","2018/05/18 14:09:31","新北市板橋區雙十路三段9號","121.471461666667","25.0301033333333","6500100","板橋區"
"220017","AAD-861","2018/05/18 14:09:25","新北市板橋區貴興路5號","121.457791666667","25.0044233333333","6500100","板橋區"
"247023","893-R6","2018/05/18 14:09:23","新北市蘆洲區光榮路122號","121.464868333333","25.0893116666667","6501400","蘆洲區"
"247013","546-UM","2018/05/18 14:09:30","新北市蘆洲區三民路155號","121.471568333333","25.0868816666667","6501400","蘆洲區"
"247021","500-BY","2018/05/18 14:09:22","新北市蘆洲區三民路175號","121.470945","25.0873116666667","6501400","蘆洲區"
"247009","341-TH","2018/05/18 14:09:38","新北市蘆洲區三民路70號","121.475283333333","25.083675","6501400","蘆洲區"
"247011","339-TH","2018/05/18 14:09:33","新北市蘆洲區信義路333號","121.478075","25.0868316666667","6501400","蘆洲區"
"247003","337-TH","2018/05/18 14:09:38","新北市蘆洲區中華街6巷5號","121.462375","25.0825583333333","6501400","蘆洲區"
"247005","336-TH","2018/05/18 14:09:28","新北市蘆洲區九芎街13號","121.468158333333","25.0784933333333","6501400","蘆洲區"
"247017","057-VK","2018/05/18 14:09:39","新北市蘆洲區民族路227巷29號","121.476593333333","25.08869","6501400","蘆洲區"
"247007","056-VK","2018/05/18 14:09:21","新北市蘆洲區中山一路236號","121.472755","25.0801816666667","6501400","蘆洲區"
"247015","007-UY","2018/05/18 14:09:26","新北市蘆洲區光華路46巷20號","121.468336666667","25.08376","6501400","蘆洲區"
"247001","002-UY","2018/05/18 14:09:23","新北市蘆洲區永平街65號","121.45739","25.0915483333333","6501400","蘆洲區"
"247019","001-UY","2018/05/18 14:09:40","新北市蘆洲區民族路426巷19號","121.473005","25.09321","6501400","蘆洲區"
"235029","251-BX","2018/05/18 14:09:31","新北市中和區中山路二段64巷14弄26號","121.50387","25.0062116666667","6500300","中和區"
"207002","749-BX","2018/05/18 14:09:27","新北市萬里區溪底里瑞泉路21號","121.60462","25.148865","6502800","萬里區"
"207001","662-BX","2018/05/18 14:09:18","新北市萬里區磺潭里清水18號","121.637845","25.1978033333333","6502800","萬里區"
"236040","107-UM","2018/05/18 14:09:24","新北市土城區中華路二段2號","121.439143333333","24.9797533333333","6501300","土城區"
"236077","166-UM","2018/05/18 14:09:40","新北市土城區永和街5號","121.43457","24.9650783333333","6501300","土城區"
"236029","253-BX","2018/05/18 14:09:20","新北市土城區城林路6巷80號","121.438491666667","24.9798016666667","6501300","土城區"
"236024","269-VK","2018/05/18 14:09:26","新北市土城區承天路67號","121.43961","24.9635683333333","6501300","土城區"
"236032","271-VK","2018/05/18 14:09:27","新北市土城區明德路一段369號","121.455895","24.97785","6501300","土城區"
"236067","KEA-2877","2018/05/18 14:09:27","新北市土城區明德路一段130號","121.463653333333","24.97917","6501300","土城區"
"236016","401-BY","2018/05/18 14:09:34","新北市土城區城林路6巷80號","121.438251666667","24.9797183333333","6501300","土城區"
"236006","498-BY","2018/05/18 14:09:28","新北市土城區中華路一段10號","121.448115","24.9907966666667","6501300","土城區"
"236057","912-UM","2018/05/18 14:09:20","新北市土城區中央路四段156號","121.417095","24.95823","6501300","土城區"
"236045","913-UM","2018/05/18 14:09:35","新北市土城區明德路一段365-1號","121.453551666667","24.979065","6501300","土城區"
"236060","915-UM","2018/05/18 14:09:25","新北市土城區金城路一段112號","121.446738333333","24.9758616666667","6501300","土城區"
"236054","AAC-216","2018/05/18 14:09:26","新北市土城區城林路6巷80號","121.43843","24.97975","6501300","土城區"
"239001","417-VK","2018/05/18 14:09:33","新北市鶯歌區鶯桃路182巷96弄17號","121.340658333333","24.9578533333333","6500800","鶯歌區"
"221032","280-BY","2018/05/18 14:09:19","新北市汐止區水源路一段262號","121.654008333333","25.059495","6501100","汐止區"
"220027","145-BY","2018/05/18 14:09:41","新北市板橋區民權路302巷1弄3號","121.45742","25.0163183333333","6500100","板橋區"
"220030","610-BX","2018/05/18 14:09:41","新北市板橋區滿平街141號","121.429175","24.98805","6500100","板橋區"
"220050","245-BX","2018/05/18 14:09:21","新北市板橋區民生路二段179號","121.46958","25.0203233333333","6500100","板橋區"
"220043","267-BY","2018/05/18 14:09:26","新北市板橋區光武街169號","121.46527","25.03005","6500100","板橋區"
"220004","276-BY","2018/05/18 14:09:22","新北市板橋區信義路150巷16號","121.458226666667","24.9917316666667","6500100","板橋區"
"220020","277-BY","2018/05/18 14:09:22","新北市板橋區金門街372巷33號","121.427435","24.9849316666667","6500100","板橋區"
"220038","280-UM","2018/05/18 14:09:34","新北市板橋區文化路二段331號","121.472611666667","25.030345","6500100","板橋區"
"220019","283-VK","2018/05/18 14:09:38","新北市板橋區重慶路269巷13號","121.46382","24.9994933333333","6500100","板橋區"
"220001","285-VK","2018/05/18 14:09:38","新北市板橋區懷仁街24巷23號","121.47568","25.0192","6500100","板橋區"
"220031","286-VK","2018/05/18 14:09:33","新北市板橋區大觀路二段174巷173弄3號","121.441651666667","25.0037116666667","6500100","板橋區"
"220029","287-VK","2018/05/18 14:09:38","新北市板橋區南雅西路二段2-2號","121.453095","25.008985","6500100","板橋區"
"220039","288-VK","2018/05/18 14:09:24","新北市板橋區裕民街54號","121.461453333333","25.0286583333333","6500100","板橋區"
"220009","293-UM","2018/05/18 14:09:28","新北市板橋區中山路二段268號","121.478998333333","25.0185466666667","6500100","板橋區"
"220032","296-UM","2018/05/18 14:09:33","新北市板橋區篤行路二段92-3號","121.431506666667","24.9914566666667","6500100","板橋區"
"220023","303-R5","2018/05/18 14:09:24","新北市板橋區館前西路146號","121.456146666667","25.008095","6500100","板橋區"
"220010","305-R5","2018/05/18 14:09:40","新北市板橋區三民路二段居仁巷1弄2號","121.479418333333","25.0135083333333","6500100","板橋區"
"220041","307-R5","2018/05/18 14:09:38","新北市板橋區文化路二段225巷62號","121.469246666667","25.0284416666667","6500100","板橋區"
"220047","317-R6","2018/05/18 14:09:26","新北市板橋區自由路51巷6號","121.465188333333","25.0235166666667","6500100","板橋區"
"220012","486-VK","2018/05/18 14:09:26","新北市板橋區民生路一段33號","121.476495","25.01189","6500100","板橋區"
"220037","491-VK","2018/05/18 14:09:40","新北市板橋區文化路二段182巷3弄14號","121.471796666667","25.0276583333333","6500100","板橋區"
"220104","560-BX","2018/05/18 14:09:34","新北市板橋區中正路360巷43號","121.455815","25.0231233333333","6500100","板橋區"
"220052","561-BX","2018/05/18 14:09:29","新北市板橋區文化路一段188巷9弄37號","121.469126666667","25.0191833333333","6500100","板橋區"
"220011","609-BX","2018/05/18 14:09:21","新北市板橋區三民路二段202-5號","121.47894","25.014555","6500100","板橋區"
"220022","630-UY","2018/05/18 14:09:18","新北市板橋區後菜園街54號","121.45607","25.0101116666667","6500100","板橋區"
"220040","637-BX","2018/05/18 14:09:35","新北市板橋區縣民大道三段239號","121.481201666667","25.0258683333333","6500100","板橋區"
"220005","686-BX","2018/05/18 14:09:36","新北市板橋區重慶路323號","121.464018333333","24.9985383333333","6500100","板橋區"
"220025","687-BX","2018/05/18 14:09:38","新北市板橋區大觀路二段281號","121.442401666667","24.9988616666667","6500100","板橋區"
"220042","689-BX","2018/05/18 14:09:34","新北市板橋區民生路三段123號","121.466135","25.0257783333333","6500100","板橋區"
"220002","741-BX","2018/05/18 14:09:36","新北市板橋區實踐路40號","121.463606666667","25.0067","6500100","板橋區"
"220051","KEA-2699","2018/05/18 14:09:18","新北市板橋區田單街51號","121.482591666667","25.028005","6500100","板橋區"
"220003","827-TW","2018/05/18 14:09:32","新北市板橋區中山路一段142號","121.463633333333","25.0110133333333","6500100","板橋區"
"220014","829-TW","2018/05/18 14:09:38","新北市板橋區中山路二段90巷41號","121.476306666667","25.01472","6500100","板橋區"
"220016","830-TW","2018/05/18 14:09:30","新北市板橋區三民路一段1巷53號","121.481001666667","25.0248866666667","6500100","板橋區"
"220045","831-TW","2018/05/18 14:09:23","新北市板橋區大同街10號","121.47711","25.0268016666667","6500100","板橋區"
"220021","985-R7","2018/05/18 14:09:30","新北市板橋區民權路243號","121.457206666667","25.0157533333333","6500100","板橋區"
"220046","AAC-210","2018/05/18 14:09:22","新北市板橋區幸福路60巷73號","121.459821666667","25.0217316666667","6500100","板橋區"
"220018","AAC-253","2018/05/18 14:09:38","新北市板橋區忠孝路28號","121.460296666667","25.0018433333333","6500100","板橋區"
"235032","KEA-2873","2018/05/18 14:09:36","新北市中和區景平路545巷1弄17號","121.498895","24.9988233333333","6500300","中和區"
