"lineid","car","time","location","longitude","latitude","cityid","cityname"
"234050","863-TW","2018/05/18 16:09:29","新北市永和區福和路1號","121.52661","25.0099933333333","6500400","永和區"
"231046","107-UY","2018/05/18 16:09:24","新北市新店區灣潭路2-21號","121.536745","24.9480316666667","6500600","新店區"
"231018","278-BY","2018/05/18 16:09:26","新北市新店區中正路694巷15號","121.535398333333","24.9908933333333","6500600","新店區"
"241011","013-R5","2018/05/18 16:09:30","新北市三重區正義北路378號","121.49337","25.07159","6500200","三重區"
"241028","022-UY","2018/05/18 16:09:41","新北市三重區正義南路111號","121.49824","25.058575","6500200","三重區"
"241009","060-VK","2018/05/18 16:09:24","新北市三重區碧華街57號","121.484753333333","25.0812816666667","6500200","三重區"
"241031","061-VK","2018/05/18 16:09:26","新北市三重區重新路四段121號","121.484648333333","25.0520666666667","6500200","三重區"
"241015","062-VK","2018/05/18 16:09:24","新北市三重區環河南路86-7號","121.502316666667","25.0593266666667","6500200","三重區"
"241017","063-VK","2018/05/18 16:09:30","新北市三重區大同北路156巷41號","121.490935","25.0650666666667","6500200","三重區"
"241024","065-VK","2018/05/18 16:09:26","新北市三重區中正北路145巷9弄3號","121.485173333333","25.068015","6500200","三重區"
"241026","066-VK","2018/05/18 16:09:37","新北市三重區正義南路40號","121.498285","25.0609416666667","6500200","三重區"
"241002","090-VK","2018/05/18 16:09:27","新北市三重區仁義街91號","121.49977","25.0795","6500200","三重區"
"241003","091-VK","2018/05/18 16:09:36","新北市三重區仁義街241巷6號","121.496438333333","25.0828666666667","6500200","三重區"
"241013","265-UM","2018/05/18 16:09:27","新北市三重區安樂街42號","121.496243333333","25.069665","6500200","三重區"
"241016","266-UM","2018/05/18 16:09:38","新北市三重區中正北路9號","121.492865","25.06146","6500200","三重區"
"241022","267-UM","2018/05/18 16:09:36","新北市三重區市前街14號","121.489158333333","25.0623933333333","6500200","三重區"
"241018","268-UM","2018/05/18 16:09:37","新北市三重區中正北路33號","121.491495","25.06294","6500200","三重區"
"241032","269-UM","2018/05/18 16:09:26","新北市三重區三陽路116巷4號","121.483076666667","25.0581166666667","6500200","三重區"
"241007","398-BY","2018/05/18 16:09:38","新北市三重區慈愛街8號","121.484513333333","25.0784066666667","6500200","三重區"
"241025","413-TH","2018/05/18 16:09:25","新北市三重區忠孝路三段40巷10號","121.482076666667","25.0663666666667","6500200","三重區"
"241004","475-VK","2018/05/18 16:09:35","新北市三重區長元街105號","121.504633333333","25.06704","6500200","三重區"
"241020","478-VK","2018/05/18 16:09:29","新北市三重區三張街272號","121.483705","25.0712466666667","6500200","三重區"
"241014","543-UM","2018/05/18 16:09:31","新北市三重區福德南路65巷2號","121.50268","25.0601516666667","6500200","三重區"
"241023","545-UM","2018/05/18 16:09:31","新北市三重區力行路一段80號","121.483748333333","25.0695583333333","6500200","三重區"
"241001","547-UM","2018/05/18 16:09:27","新北市三重區三和路四段156號","121.488208333333","25.075815","6500200","三重區"
"241019","KEA-2593","2018/05/18 16:09:25","新北市三重區重陽路三段95號","121.490201666667","25.0679533333333","6500200","三重區"
"241006","AAD-863","2018/05/18 16:09:34","新北市三重區忠孝路二段102號","121.48343","25.06935","6500200","三重區"
"241005","887-TS","2018/05/18 16:09:28","新北市三重區溪尾街300-2號","121.487548333333","25.0836616666667","6500200","三重區"
"241012","941-UM","2018/05/18 16:09:31","新北市三重區文化北路69號","121.498536666667","25.0667516666667","6500200","三重區"
"241029","942-UM","2018/05/18 16:09:37","新北市三重區大同南路182號","121.49687","25.0569733333333","6500200","三重區"
"241033","AAC-255","2018/05/18 16:09:42","新北市三重區五谷王南街50-1號","121.47383","25.0445733333333","6500200","三重區"
"235026","800-TS","2018/05/18 16:09:25","新北市中和區建八路198-5號","121.491461666667","24.9993816666667","6500300","中和區"
"235065","251-BX","2018/05/18 15:53:17","新北市中和區員山路36巷16-3號","121.485076666667","24.9911966666667","6500300","中和區"
"224007","275-VK","2018/05/18 16:09:42","新北市瑞芳區粗坑口路1巷35號","121.76309","25.0944316666667","6501200","瑞芳區"
"224005","271-BY","2018/05/18 16:09:36","新北市瑞芳區中山路379號","121.79576","25.1102266666667","6501200","瑞芳區"
"227011","642-TC","2018/05/18 16:09:28","新北市雙溪區三港里雙澳路75號","121.883305","25.0541366666667","6502500","雙溪區"
"227003","400-TW","2018/05/18 16:09:26","新北市雙溪區上林里內平林47號","121.833308333333","25.0304383333333","6502500","雙溪區"
