"lineid","car","time","location","longitude","latitude","cityid","cityname"
"234050","863-TW","2018/05/18 16:28:05","新北市永和區福和路1號","121.526523333333","25.00992","6500400","永和區"
"249004","303-UY","2018/05/18 16:49:39","新北市八里區博物館路201號","121.40491","25.156265","6502300","八里區"
"249002","305-UY","2018/05/18 16:49:38","新北市八里區牛寮埔33號","121.429986666667","25.145645","6502300","八里區"
"249003","593-UM","2018/05/18 16:49:30","新北市八里區中山路二段356巷56號","121.40127","25.1509983333333","6502300","八里區"
"231046","107-UY","2018/05/18 16:49:38","新北市新店區灣潭路15-15號","121.540983333333","24.94135","6500600","新店區"
"241011","013-R5","2018/05/18 16:49:30","新北市三重區仁愛街53巷188號","121.500341666667","25.0729166666667","6500200","三重區"
"241028","022-UY","2018/05/18 16:49:21","新北市三重區光興街91號","121.497375","25.0599516666667","6500200","三重區"
"241008","059-VK","2018/05/18 16:49:36","新北市三重區永安北路一段11巷20號","121.477398333333","25.0748033333333","6500200","三重區"
"241009","060-VK","2018/05/18 16:49:24","新北市三重區溪尾街206號","121.487998333333","25.0811466666667","6500200","三重區"
"241031","061-VK","2018/05/18 16:49:26","新北市三重區重陽路一段113巷8號","121.488051666667","25.05998","6500200","三重區"
"241015","062-VK","2018/05/18 16:49:36","新北市三重區長元西街1號","121.498766666667","25.065625","6500200","三重區"
"241017","063-VK","2018/05/18 16:49:38","新北市三重區國隆路8巷25號","121.492831666667","25.0635166666667","6500200","三重區"
"241024","065-VK","2018/05/18 16:49:26","新北市三重區中正北路317巷20號","121.475398333333","25.07297","6500200","三重區"
"241026","066-VK","2018/05/18 16:49:37","新北市三重區中央南路33號","121.50111","25.0620833333333","6500200","三重區"
"241002","090-VK","2018/05/18 16:49:27","新北市三重區仁義街241巷22號","121.49684","25.0829466666667","6500200","三重區"
"241003","091-VK","2018/05/18 16:49:36","新北市三重區五華街75巷11號","121.493081666667","25.083475","6500200","三重區"
"241013","265-UM","2018/05/18 16:49:27","新北市三重區仁壽街52號","121.497721666667","25.0737183333333","6500200","三重區"
"241016","266-UM","2018/05/18 16:49:41","新北市三重區大同北路167巷35號","121.49357","25.0649733333333","6500200","三重區"
"241022","267-UM","2018/05/18 16:49:26","新北市三重區貴陽街47巷19弄19號","121.484828333333","25.0621916666667","6500200","三重區"
"241018","268-UM","2018/05/18 16:49:37","新北市三重區安樂街80號","121.49479","25.0693366666667","6500200","三重區"
"241032","269-UM","2018/05/18 16:49:29","新北市三重區重陽路一段120巷37號","121.484991666667","25.0603216666667","6500200","三重區"
"241007","398-BY","2018/05/18 16:49:38","新北市三重區三和路四段181巷150號","121.485831666667","25.0799","6500200","三重區"
"241025","413-TH","2018/05/18 16:49:30","新北市三重區中正北路530巷8號","121.472078333333","25.0710983333333","6500200","三重區"
"241004","475-VK","2018/05/18 16:49:35","新北市三重區仁愛街397巷7號","121.491625","25.0812233333333","6500200","三重區"
"241020","478-VK","2018/05/18 16:49:29","新北市三重區忠孝路二段34號","121.485751666667","25.0710133333333","6500200","三重區"
"241014","543-UM","2018/05/18 16:49:31","新北市三重區長榮路75號","121.502598333333","25.06909","6500200","三重區"
"241023","545-UM","2018/05/18 16:49:31","新北市三重區新北大道一段206巷42號","121.482535","25.06258","6500200","三重區"
"241001","547-UM","2018/05/18 16:49:27","新北市三重區仁政街54巷25號","121.492281666667","25.0767566666667","6500200","三重區"
"241019","KEA-2593","2018/05/18 16:49:44","新北市三重區三張街149巷10弄13號","121.485878333333","25.0697533333333","6500200","三重區"
"241006","AAD-863","2018/05/18 16:49:34","新北市三重區力行路二段182-3號","121.483353333333","25.07747","6500200","三重區"
"241030","743-BX","2018/05/18 16:49:25","新北市三重區中正南路275號","121.492596666667","25.0525733333333","6500200","三重區"
"241005","887-TS","2018/05/18 16:49:28","新北市三重區仁華街78號","121.484766666667","25.0830666666667","6500200","三重區"
"241012","941-UM","2018/05/18 16:49:31","新北市三重區龍門路274巷17號","121.501621666667","25.0746733333333","6500200","三重區"
"241029","942-UM","2018/05/18 16:49:37","新北市三重區集美街112巷51號","121.491093333333","25.05445","6500200","三重區"
"241033","AAC-255","2018/05/18 16:49:42","新北市三重區光華路69號","121.466648333333","25.059975","6500200","三重區"
"235064","005-UY","2018/05/18 16:49:33","新北市中和區員山路36巷16-3號","121.485048333333","24.9912733333333","6500300","中和區"
"235062","800-TS","2018/05/18 16:38:11","新北市中和區員山路36巷16-3號","121.484835","24.9916533333333","6500300","中和區"
"247004","337-TH","2018/05/18 16:49:27","新北市蘆洲區長榮路151號","121.461798333333","25.0839566666667","6501400","蘆洲區"
"247006","336-TH","2018/05/18 16:49:39","新北市蘆洲區永安南路二段132-1號","121.46263","25.0785966666667","6501400","蘆洲區"
"247008","056-VK","2018/05/18 16:49:25","新北市蘆洲區中山一路200號","121.473613333333","25.08079","6501400","蘆洲區"
"247020","001-UY","2018/05/18 16:49:26","新北市蘆洲區民族路422巷8號","121.474138333333","25.092085","6501400","蘆洲區"
"235065","251-BX","2018/05/18 16:36:31","新北市中和區員山路36巷16-3號","121.485103333333","24.9911333333333","6500300","中和區"
"228002","663-BX","2018/05/18 16:49:33","新北市貢寮區貢寮里長潭街22號","121.896858333333","25.023415","6502600","貢寮區"
"228003","828-UM","2018/05/18 16:49:32","新北市貢寮區貢寮里朝陽街2號","121.913006666667","25.021625","6502600","貢寮區"
"224006","676-BX","2018/05/18 16:49:40","新北市瑞芳區大寮路356-1號","121.784876666667","25.1031433333333","6501200","瑞芳區"
"224008","285-BY","2018/05/18 16:49:34","新北市瑞芳區三爪子坑路25號","121.813321666667","25.1079966666667","6501200","瑞芳區"
"224007","275-VK","2018/05/18 16:49:22","新北市瑞芳區中央路48巷166號","121.759125","25.1033266666667","6501200","瑞芳區"
"224009","273-VK","2018/05/18 16:49:41","新北市瑞芳區中正路2號","121.809335","25.1070916666667","6501200","瑞芳區"
"224005","271-BY","2018/05/18 16:49:36","新北市瑞芳區明里路54號","121.868623333333","25.1222966666667","6501200","瑞芳區"
"227011","642-TC","2018/05/18 16:49:28","新北市雙溪區牡丹里石1號","121.864758333333","25.05272","6502500","雙溪區"
"227003","400-TW","2018/05/18 16:49:26","新北市雙溪區外柑里外柑腳71號","121.807151666667","25.01761","6502500","雙溪區"
"251008","181-VK","2018/05/18 16:49:32","新北市淡水區樹梅坑32號","121.474598333333","25.1435583333333","6501000","淡水區"
"251012","441-VK","2018/05/18 16:49:32","新北市淡水區中正路二段31號","121.419686666667","25.1815383333333","6501000","淡水區"
"251007","442-VK","2018/05/18 16:49:38","新北市淡水區中正路二段31號","121.419695","25.18147","6501000","淡水區"
"251011","650-BX","2018/05/18 16:49:40","新北市淡水區中正路二段31號","121.419275","25.1817","6501000","淡水區"
"252002","178-VK","2018/05/18 16:49:22","新北市三芝區忠孝街137號","121.506366666667","25.2601816666667","6502100","三芝區"
"252001","702-TV","2018/05/18 16:49:29","新北市三芝區淡金路二段76-1號","121.503886666667","25.2608883333333","6502100","三芝區"
"242054","751-BX","2018/05/18 16:49:30","新北市新莊區新泰路357巷3弄57號","121.442101666667","25.0391333333333","6500500","新莊區"
"242029","612-BX","2018/05/18 16:49:26","新北市新莊區新泰路357巷3弄57號","121.442155","25.0392283333333","6500500","新莊區"
"242021","348-TH","2018/05/18 16:49:42","新北市新莊區新泰路357巷3弄57號","121.442095","25.039645","6500500","新莊區"
"239001","417-VK","2018/05/18 16:49:30","新北市鶯歌區二甲路12-2號","121.345753333333","24.9349366666667","6500800","鶯歌區"
