"lineid","car","time","location","longitude","latitude","cityid","cityname"
"249005","172-UM","2018/05/18 16:59:27","新北市八里區渡船頭2號","121.433963333333","25.1517516666667","6502300","八里區"
"249001","173-UM","2018/05/18 16:59:35","新北市八里區下罟子1-11號","121.39","25.142025","6502300","八里區"
"249004","303-UY","2018/05/18 16:59:35","新北市八里區挖子尾街40號","121.41568","25.1660066666667","6502300","八里區"
"249002","305-UY","2018/05/18 16:59:17","新北市八里區牛寮埔4號","121.433695","25.142335","6502300","八里區"
"249003","593-UM","2018/05/18 16:59:30","新北市八里區中山路二段283號","121.401616666667","25.1487116666667","6502300","八里區"
"244007","080-UY","2018/05/18 16:59:37","新北市林口區中湖43-5號","121.3818","25.0923716666667","6501700","林口區"
"244023","483-VK","2018/05/18 16:59:30","新北市林口區粉寮路二段221號","121.404185","25.09052","6501700","林口區"
"231046","107-UY","2018/05/18 16:59:24","新北市新店區灣潭路4-1號","121.536253333333","24.9474033333333","6500600","新店區"
"241011","013-R5","2018/05/18 16:59:30","新北市三重區仁愛街55巷11號","121.498646666667","25.0725683333333","6500200","三重區"
"241028","022-UY","2018/05/18 16:59:41","新北市三重區重新路三段110號","121.49227","25.06026","6500200","三重區"
"241008","059-VK","2018/05/18 16:59:36","新北市三重區永福街124號","121.47942","25.075185","6500200","三重區"
"241009","060-VK","2018/05/18 16:59:44","新北市三重區仁美街108巷22號","121.484818333333","25.0804933333333","6500200","三重區"
"241031","061-VK","2018/05/18 16:59:26","新北市三重區三寧街18號","121.48944","25.0598783333333","6500200","三重區"
"241015","062-VK","2018/05/18 16:59:38","新北市三重區三和路二段1-4號","121.50164","25.06649","6500200","三重區"
"241017","063-VK","2018/05/18 16:59:30","新北市三重區國隆路12巷1號","121.492866666667","25.0638116666667","6500200","三重區"
"241024","065-VK","2018/05/18 16:59:26","新北市三重區大勇街82巷30號","121.479606666667","25.0724816666667","6500200","三重區"
"241026","066-VK","2018/05/18 16:59:37","新北市三重區文化南路42號","121.50041","25.0603233333333","6500200","三重區"
"241002","090-VK","2018/05/18 16:59:27","新北市三重區仁義街101巷38號","121.499096666667","25.080525","6500200","三重區"
"241003","091-VK","2018/05/18 16:59:36","新北市三重區五華街141巷60號","121.493473333333","25.0866983333333","6500200","三重區"
"241013","265-UM","2018/05/18 16:59:27","新北市三重區仁和街85號","121.497765","25.074055","6500200","三重區"
"241016","266-UM","2018/05/18 16:59:38","新北市三重區大同北路121巷2號","121.493618333333","25.064075","6500200","三重區"
"241022","267-UM","2018/05/18 16:59:41","新北市三重區三民街87號","121.48562","25.0630933333333","6500200","三重區"
"241018","268-UM","2018/05/18 16:59:37","新北市三重區六張街126巷2弄11號","121.49247","25.0694083333333","6500200","三重區"
"241032","269-UM","2018/05/18 16:59:26","新北市三重區新北大道一段35巷11號","121.486076666667","25.0607066666667","6500200","三重區"
"241007","398-BY","2018/05/18 16:59:38","新北市三重區溪尾街126巷47號","121.488331666667","25.0791166666667","6500200","三重區"
"241025","413-TH","2018/05/18 16:59:25","新北市三重區中正北路357號","121.472695","25.0718633333333","6500200","三重區"
"241004","475-VK","2018/05/18 16:59:35","新北市三重區五華街98巷10號","121.49175","25.0818666666667","6500200","三重區"
"241020","478-VK","2018/05/18 16:59:29","新北市三重區後竹圍街175巷16號","121.485733333333","25.072335","6500200","三重區"
"241014","543-UM","2018/05/18 16:59:31","新北市三重區介壽路191號","121.501515","25.0707783333333","6500200","三重區"
"241023","545-UM","2018/05/18 16:59:31","新北市三重區忠孝路三段84巷5號","121.480208333333","25.064435","6500200","三重區"
"241001","547-UM","2018/05/18 16:59:27","新北市三重區仁愛街168號","121.493996666667","25.0765466666667","6500200","三重區"
"241019","KEA-2593","2018/05/18 16:59:25","新北市三重區自強路二段74巷21號","121.487955","25.0699016666667","6500200","三重區"
"241006","AAD-863","2018/05/18 16:59:34","新北市三重區車路頭街117巷54號","121.485533333333","25.0757","6500200","三重區"
"241030","743-BX","2018/05/18 16:59:25","新北市三重區昌隆街62號","121.491215","25.0510116666667","6500200","三重區"
"241005","887-TS","2018/05/18 16:59:28","新北市三重區仁華街77號","121.485468333333","25.083015","6500200","三重區"
"241012","941-UM","2018/05/18 16:59:31","新北市三重區仁和街157號","121.499528333333","25.0745716666667","6500200","三重區"
"241029","942-UM","2018/05/18 16:59:37","新北市三重區集美街257號","121.492391666667","25.0555366666667","6500200","三重區"
"241033","AAC-255","2018/05/18 16:59:42","新北市三重區中興北街271號","121.469183333333","25.0606166666667","6500200","三重區"
"235064","005-UY","2018/05/18 16:50:23","新北市中和區員山路36巷16-3號","121.48505","24.991315","6500300","中和區"
"235062","800-TS","2018/05/18 16:38:11","新北市中和區員山路36巷16-3號","121.484835","24.9916533333333","6500300","中和區"
"247024","893-R6","2018/05/18 16:59:24","新北市蘆洲區長興路255號","121.460493333333","25.0875033333333","6501400","蘆洲區"
"247014","546-UM","2018/05/18 16:59:33","新北市蘆洲區中山二路36巷40號","121.473966666667","25.0834916666667","6501400","蘆洲區"
"247010","341-TH","2018/05/18 16:59:30","新北市蘆洲區信義路176號","121.47923","25.083955","6501400","蘆洲區"
"247004","337-TH","2018/05/18 16:59:27","新北市蘆洲區長安街110號","121.460951666667","25.0815266666667","6501400","蘆洲區"
"247006","336-TH","2018/05/18 16:59:39","新北市蘆洲區永安南路二段240號","121.460356666667","25.0798333333333","6501400","蘆洲區"
"247018","057-VK","2018/05/18 16:59:39","新北市蘆洲區民族路300號","121.477585","25.089875","6501400","蘆洲區"
"247008","056-VK","2018/05/18 16:59:26","新北市蘆洲區信義路56號","121.475353333333","25.0796483333333","6501400","蘆洲區"
"247016","007-UY","2018/05/18 16:59:26","新北市蘆洲區正和街24號","121.469738333333","25.0823933333333","6501400","蘆洲區"
"247020","001-UY","2018/05/18 16:59:26","新北市蘆洲區民族路422巷84-1號","121.47364","25.0937883333333","6501400","蘆洲區"
"235065","251-BX","2018/05/18 16:36:31","新北市中和區員山路36巷16-3號","121.485103333333","24.9911333333333","6500300","中和區"
"228002","663-BX","2018/05/18 16:59:33","新北市貢寮區貢寮里朝陽街11-1號","121.90952","25.0207083333333","6502600","貢寮區"
"228001","670-TC","2018/05/18 16:59:39","新北市貢寮區貢寮里朝陽街1-2號","121.912265","25.0213383333333","6502600","貢寮區"
"228003","828-UM","2018/05/18 16:59:32","新北市貢寮區福隆里裕隆街16-1號","121.945605","25.0168466666667","6502600","貢寮區"
"224006","676-BX","2018/05/18 16:59:40","新北市瑞芳區大寮路2號","121.78465","25.099655","6501200","瑞芳區"
"224008","285-BY","2018/05/18 16:59:33","新北市瑞芳區明燈路一段41號","121.821853333333","25.1071583333333","6501200","瑞芳區"
"224007","275-VK","2018/05/18 16:59:22","新北市瑞芳區頂埔巷19號","121.765933333333","25.1030266666667","6501200","瑞芳區"
"224009","273-VK","2018/05/18 16:59:41","新北市瑞芳區濱二路24號","121.836526666667","25.1125","6501200","瑞芳區"
"224005","271-BY","2018/05/18 16:59:36","新北市瑞芳區南雅路1號","121.892751666667","25.1194066666667","6501200","瑞芳區"
"227011","642-TC","2018/05/18 16:59:28","新北市雙溪區牡丹里聖南35號","121.853133333333","25.0561016666667","6502500","雙溪區"
"227003","400-TW","2018/05/18 16:59:26","新北市雙溪區長源里柑腳30號","121.804241666667","25.0139516666667","6502500","雙溪區"
"251008","181-VK","2018/05/18 16:59:32","新北市淡水區樹梅坑9號","121.47275","25.1426983333333","6501000","淡水區"
"251010","413-VK","2018/05/18 16:59:36","新北市淡水區新民街一段117號","121.428345","25.1877733333333","6501000","淡水區"
"251012","441-VK","2018/05/18 16:59:32","新北市淡水區沙崙路224號","121.425291666667","25.1844633333333","6501000","淡水區"
"251007","442-VK","2018/05/18 16:59:38","新北市淡水區長興街2巷1號","121.443861666667","25.1704516666667","6501000","淡水區"
"251005","443-VK","2018/05/18 16:59:26","新北市淡水區中正路二段31號","121.419263333333","25.18183","6501000","淡水區"
"251009","575-R6","2018/05/18 16:59:28","新北市淡水區中正路一段87巷1號","121.421828333333","25.179285","6501000","淡水區"
"251011","650-BX","2018/05/18 16:59:40","新北市淡水區中山路46-1號","121.44418","25.17017","6501000","淡水區"
"207003","550-UM","2018/05/18 16:59:42","新北市萬里區萬里里獅頭路23號","121.693301666667","25.178285","6502800","萬里區"
"252002","178-VK","2018/05/18 16:59:42","新北市三芝區忠孝街145號","121.506333333333","25.2605266666667","6502100","三芝區"
"252001","702-TV","2018/05/18 16:59:29","新北市三芝區淡金路二段38-1號","121.50301","25.2600783333333","6502100","三芝區"
"242054","751-BX","2018/05/18 16:59:30","新北市新莊區新泰路357巷3弄57號","121.442086666667","25.0392116666667","6500500","新莊區"
"242029","612-BX","2018/05/18 16:59:25","新北市新莊區新泰路357巷3弄57號","121.442183333333","25.0392233333333","6500500","新莊區"
"242041","566-BX","2018/05/18 16:59:36","新北市新莊區新泰路255巷83號","121.442101666667","25.0390366666667","6500500","新莊區"
"242050","442-UM","2018/05/18 16:59:36","新北市新莊區新泰路255巷83號","121.442143333333","25.038865","6500500","新莊區"
"242007","413-TV","2018/05/18 16:59:41","新北市新莊區新泰路357巷3弄57號","121.442085","25.0394866666667","6500500","新莊區"
"242023","362-BY","2018/05/18 16:59:40","新北市新莊區新泰路255巷83號","121.442355","25.03904","6500500","新莊區"
"242060","353-BY","2018/05/18 16:59:26","新北市新莊區新泰路255巷83號","121.442245","25.0388566666667","6500500","新莊區"
"242017","175-VK","2018/05/18 16:59:29","新北市新莊區三和路12-21號","121.442061666667","25.0386416666667","6500500","新莊區"
"242021","348-TH","2018/05/18 16:59:42","新北市新莊區新泰路357巷3弄57號","121.442075","25.039645","6500500","新莊區"
"238023","601-UM","2018/05/18 16:59:31","新北市樹林區育德街78-1號","121.388115","24.9682716666667","6500700","樹林區"
"238018","571-TV","2018/05/18 16:59:35","新北市樹林區育德街78-1號","121.388195","24.96804","6500700","樹林區"
"238017","283-BY","2018/05/18 16:59:13","新北市樹林區育德街78號","121.38785","24.968715","6500700","樹林區"
"238014","282-BY","2018/05/18 16:59:42","新北市樹林區育德街78-1號","121.387593333333","24.9681666666667","6500700","樹林區"
"238020","268-VK","2018/05/18 16:59:41","新北市樹林區育德街78號","121.387746666667","24.9683666666667","6500700","樹林區"
"239006","891-R6","2018/05/18 16:59:27","新北市鶯歌區二甲路171號","121.342948333333","24.9363183333333","6500800","鶯歌區"
"239008","527-UM","2018/05/18 16:59:34","新北市鶯歌區環河路85號","121.347075","24.9393616666667","6500800","鶯歌區"
"239005","526-UM","2018/05/18 16:59:42","新北市鶯歌區國中街130號","121.33935","24.9401566666667","6500800","鶯歌區"
"239001","417-VK","2018/05/18 16:59:30","新北市鶯歌區環河路159號","121.346615","24.9379416666667","6500800","鶯歌區"
"239002","359-BY","2018/05/18 16:59:37","新北市鶯歌區環河路60-2號","121.351398333333","24.9444566666667","6500800","鶯歌區"
"239004","193-VK","2018/05/18 16:59:42","新北市鶯歌區環河路167號","121.346208333333","24.9361833333333","6500800","鶯歌區"
"242002","KEA-2550","2018/05/18 16:59:28","新北市新莊區三和路12-18號","121.442321666667","25.037555","6500500","新莊區"
"242044","281-VK","2018/05/18 16:59:42","新北市新莊區三和路12-18號","121.441936666667","25.0376633333333","6500500","新莊區"
