"lineid","car","time","location","longitude","latitude","cityid","cityname"
"249005","172-UM","2018/05/18 17:19:24","新北市八里區荖阡里95-2號","121.410008333333","25.1268266666667","6502300","八里區"
"249001","173-UM","2018/05/18 17:19:35","新北市八里區中華路二段165巷3號","121.407693333333","25.1508766666667","6502300","八里區"
"249004","303-UY","2018/05/18 17:19:35","新北市八里區忠七街6號","121.421165","25.1601416666667","6502300","八里區"
"249002","305-UY","2018/05/18 17:19:37","新北市八里區龍米路二段117巷37號","121.443346666667","25.1419866666667","6502300","八里區"
"249003","593-UM","2018/05/18 17:19:30","新北市八里區中山路二段448號","121.3992","25.1472416666667","6502300","八里區"
"244007","080-UY","2018/05/18 17:19:37","新北市林口區湖北里2鄰9號","121.387466666667","25.0896433333333","6501700","林口區"
"244019","403-UM","2018/05/18 17:19:40","新北市林口區文化一路一段190巷7弄3號","121.380273333333","25.0750316666667","6501700","林口區"
"244023","483-VK","2018/05/18 17:19:30","新北市林口區仁愛路一段667巷5-2號","121.38831","25.0760633333333","6501700","林口區"
"244021","838-TS","2018/05/18 17:19:42","新北市林口區粉寮路二段358-1號","121.40464","25.0982383333333","6501700","林口區"
"231046","107-UY","2018/05/18 17:19:45","新北市新店區直潭路92號","121.530895","24.9376433333333","6500600","新店區"
"241011","013-R5","2018/05/18 17:19:30","新北市三重區河邊北街130號","121.503505","25.07184","6500200","三重區"
"241028","022-UY","2018/05/18 17:19:41","新北市三重區中正南路75號","121.494211666667","25.0589783333333","6500200","三重區"
"241008","059-VK","2018/05/18 17:19:36","新北市三重區車路頭街139巷2號","121.483933333333","25.07635","6500200","三重區"
"241009","060-VK","2018/05/18 17:19:33","新北市三重區碧華街25號","121.484153333333","25.0812233333333","6500200","三重區"
"241015","062-VK","2018/05/18 17:19:24","新北市三重區三和路二段1號","121.501741666667","25.0664766666667","6500200","三重區"
"241017","063-VK","2018/05/18 17:19:30","新北市三重區大同北路44巷3號","121.495006666667","25.0630816666667","6500200","三重區"
"241024","065-VK","2018/05/18 17:19:26","新北市三重區中正北路193巷21弄3號","121.476771666667","25.0705016666667","6500200","三重區"
"241026","066-VK","2018/05/18 17:19:37","新北市三重區正義南路22號","121.498253333333","25.0613483333333","6500200","三重區"
"241002","090-VK","2018/05/18 17:19:27","新北市三重區自強路五段11-1號","121.492588333333","25.08054","6500200","三重區"
"241003","091-VK","2018/05/18 17:19:36","新北市三重區富福街39號","121.490983333333","25.0838183333333","6500200","三重區"
"241013","265-UM","2018/05/18 17:19:27","新北市三重區三和路三段105號","121.494273333333","25.0728183333333","6500200","三重區"
"241016","266-UM","2018/05/18 17:19:38","新北市三重區大同北路99號","121.494381666667","25.0639083333333","6500200","三重區"
"241022","267-UM","2018/05/18 17:19:26","新北市三重區重陽路二段58號","121.487258333333","25.0636566666667","6500200","三重區"
"241018","268-UM","2018/05/18 17:19:36","新北市三重區安慶街208號","121.493088333333","25.0683433333333","6500200","三重區"
"241032","269-UM","2018/05/18 17:19:26","新北市三重區中華路2巷25號","121.482435","25.0605766666667","6500200","三重區"
"241007","398-BY","2018/05/18 17:19:38","新北市三重區三和路四段145巷7號","121.484533333333","25.0783566666667","6500200","三重區"
"241025","413-TH","2018/05/18 17:19:45","新北市三重區中正北路253號","121.475381666667","25.070715","6500200","三重區"
"241020","478-VK","2018/05/18 17:19:29","新北市三重區自強路三段72號","121.486756666667","25.0735466666667","6500200","三重區"
"241014","543-UM","2018/05/18 17:19:31","新北市三重區長榮路3號","121.500206666667","25.0683983333333","6500200","三重區"
"241023","545-UM","2018/05/18 17:19:31","新北市三重區三民街189號","121.482453333333","25.0654983333333","6500200","三重區"
"241019","KEA-2593","2018/05/18 17:19:25","新北市三重區自強路二段74巷5號","121.488315","25.0698466666667","6500200","三重區"
"241030","743-BX","2018/05/18 17:19:25","新北市三重區成功路73巷19號","121.489625","25.0521883333333","6500200","三重區"
"241005","887-TS","2018/05/18 17:19:37","新北市三重區永安北路二段13號","121.48211","25.08155","6500200","三重區"
"241012","941-UM","2018/05/18 17:19:31","新北市三重區仁昌街106號","121.500013333333","25.0752066666667","6500200","三重區"
"241029","942-UM","2018/05/18 17:19:37","新北市三重區重新路四段65號","121.487221666667","25.0569633333333","6500200","三重區"
"241033","AAC-255","2018/05/18 17:19:22","新北市三重區中興北街195號","121.468998333333","25.0573883333333","6500200","三重區"
"235064","005-UY","2018/05/18 16:50:23","新北市中和區員山路36巷16-3號","121.48505","24.991315","6500300","中和區"
"247024","893-R6","2018/05/18 17:19:24","新北市蘆洲區長榮路329號","121.459676666667","25.0871966666667","6501400","蘆洲區"
"247014","546-UM","2018/05/18 17:19:33","新北市蘆洲區中正路90號","121.470138333333","25.083675","6501400","蘆洲區"
"247022","500-BY","2018/05/18 17:19:29","新北市蘆洲區三民路128巷46號","121.470695","25.0886116666667","6501400","蘆洲區"
"247010","341-TH","2018/05/18 17:19:30","新北市蘆洲區中山一路120巷7弄22號","121.477278333333","25.0821366666667","6501400","蘆洲區"
"247012","339-TH","2018/05/18 17:19:36","新北市蘆洲區信義路319巷10弄17號","121.477471666667","25.086595","6501400","蘆洲區"
"247004","337-TH","2018/05/18 17:19:27","新北市蘆洲區永安南路二段282號","121.457888333333","25.0811183333333","6501400","蘆洲區"
"247006","336-TH","2018/05/18 17:19:39","新北市蘆洲區長安街73巷31號","121.46185","25.0791","6501400","蘆洲區"
"247018","057-VK","2018/05/18 17:19:39","新北市蘆洲區民權路82巷1弄10號","121.47454","25.08819","6501400","蘆洲區"
"247008","056-VK","2018/05/18 17:19:37","新北市三重區永福街135巷32弄13號","121.47688","25.076905","6501400","蘆洲區"
"247016","007-UY","2018/05/18 17:19:26","新北市蘆洲區正和街96巷52號","121.467481666667","25.081675","6501400","蘆洲區"
"247002","002-UY","2018/05/18 17:19:29","新北市蘆洲區永樂街38巷33弄29號","121.456873333333","25.0897466666667","6501400","蘆洲區"
"247020","001-UY","2018/05/18 17:19:26","新北市蘆洲區仁愛街41號","121.47216","25.0929416666667","6501400","蘆洲區"
"228002","663-BX","2018/05/18 17:19:33","新北市貢寮區雙玉里田寮洋街38-1號","121.92664","25.0141083333333","6502600","貢寮區"
"228001","670-TC","2018/05/18 17:19:39","新北市貢寮區仁理村尖山腳街18-3號","121.925518333333","25.0482766666667","6502600","貢寮區"
"228003","828-UM","2018/05/18 17:19:32","新北市貢寮區福隆里興隆街36號","121.941066666667","25.01749","6502600","貢寮區"
"224006","676-BX","2018/05/18 17:19:40","新北市瑞芳區傑魚坑路245巷2-1號","121.788101666667","25.1065766666667","6501200","瑞芳區"
"224008","285-BY","2018/05/18 17:19:33","新北市瑞芳區九芎橋路4-2號","121.831901666667","25.0908166666667","6501200","瑞芳區"
"224009","273-VK","2018/05/18 17:19:41","新北市瑞芳區汽車路50-2號","121.845921666667","25.1112583333333","6501200","瑞芳區"
"224005","271-BY","2018/05/18 17:19:36","新北市瑞芳區南雅路1號","121.89548","25.11996","6501200","瑞芳區"
"227011","642-TC","2018/05/18 17:19:28","新北市雙溪區三貂里政光路3號","121.851466666667","25.0632066666667","6502500","雙溪區"
"227003","400-TW","2018/05/18 17:19:26","新北市雙溪區上林里內平林75號","121.83","25.0285616666667","6502500","雙溪區"
"251004","009-UM","2018/05/18 17:19:25","新北市淡水區中正東路36-1號","121.448793333333","25.16581","6501000","淡水區"
"251002","012-UM","2018/05/18 17:19:28","新北市淡水區中正路二段31號","121.419265","25.1819283333333","6501000","淡水區"
"251008","181-VK","2018/05/18 17:19:32","新北市淡水區大同路269號","121.467061666667","25.14226","6501000","淡水區"
"251010","413-VK","2018/05/18 17:19:36","新北市淡水區中正路二段206號","121.426386666667","25.18906","6501000","淡水區"
"251012","441-VK","2018/05/18 17:19:32","新北市淡水區中山北路一段156號","121.444156666667","25.1781133333333","6501000","淡水區"
"251007","442-VK","2018/05/18 17:19:38","新北市淡水區民生路60號","121.462095","25.1378883333333","6501000","淡水區"
"251005","443-VK","2018/05/18 17:19:26","新北市淡水區鄧公路23巷6號","121.451436666667","25.170115","6501000","淡水區"
"251006","561-UM","2018/05/18 17:19:36","新北市淡水區大智街28號","121.442133333333","25.17439","6501000","淡水區"
"251009","575-R6","2018/05/18 17:19:28","新北市淡水區三民街13號","121.438918333333","25.1717333333333","6501000","淡水區"
"251011","650-BX","2018/05/18 17:19:40","新北市淡水區坪頂路147號","121.467225","25.16176","6501000","淡水區"
"251003","673-BX","2018/05/18 17:19:36","新北市淡水區中正路二段31號","121.419463333333","25.1815433333333","6501000","淡水區"
"207003","550-UM","2018/05/18 17:19:42","新北市萬里區龜吼里美崙路53-1號","121.687526666667","25.18356","6502800","萬里區"
"252002","178-VK","2018/05/18 17:19:42","新北市三芝區忠孝街1-14號","121.505491666667","25.2539716666667","6502100","三芝區"
"252001","702-TV","2018/05/18 17:19:29","新北市三芝區長安街119號","121.498005","25.2596766666667","6502100","三芝區"
"242034","AAC-296","2018/05/18 17:15:47","新北市新莊區新泰路255巷83號","121.44231","25.0392183333333","6500500","新莊區"
"242058","986-R7","2018/05/18 17:19:34","新北市新莊區中正路400號","121.441706666667","25.0339633333333","6500500","新莊區"
"242054","751-BX","2018/05/18 17:19:30","新北市新莊區環河路636-7號","121.436651666667","25.01081","6500500","新莊區"
"242027","615-BX","2018/05/18 17:19:25","新北市新莊區中港路308號","121.452565","25.0451383333333","6500500","新莊區"
"242025","613-BX","2018/05/18 17:19:30","新北市新莊區中平路82巷27號","121.446331666667","25.04511","6500500","新莊區"
"242029","612-BX","2018/05/18 17:19:25","新北市新莊區幸福路765號","121.447101666667","25.048995","6500500","新莊區"
"242041","566-BX","2018/05/18 17:19:36","新北市新莊區中正路481號","121.44132","25.0337883333333","6500500","新莊區"
"242050","442-UM","2018/05/18 17:19:36","新北市新莊區瓊林路176-1號","121.440625","25.0225533333333","6500500","新莊區"
"242056","440-UM","2018/05/18 17:19:30","新北市新莊區中正路473-1號","121.442101666667","25.0332016666667","6500500","新莊區"
"242037","415-TV","2018/05/18 17:19:26","新北市新莊區中正路402號","121.441443333333","25.0338683333333","6500500","新莊區"
"242007","413-TV","2018/05/18 17:19:41","新北市新莊區中平路82巷36-2號","121.446411666667","25.0449883333333","6500500","新莊區"
"242023","362-BY","2018/05/18 17:19:40","新北市新莊區中港一街142號","121.446713333333","25.0449466666667","6500500","新莊區"
"242060","353-BY","2018/05/18 17:19:26","新北市新莊區中正路471號","121.441996666667","25.0335983333333","6500500","新莊區"
"242009","132-UY","2018/05/18 17:19:25","新北市新莊區新泰路421-7號","121.442543333333","25.0452333333333","6500500","新莊區"
"242039","133-UY","2018/05/18 17:19:27","新北市新莊區新樹路209號","121.435703333333","25.02365","6500500","新莊區"
"242032","135-UY","2018/05/18 17:19:43","新北市新莊區三和路12-18號","121.4423","25.03767","6500500","新莊區"
"242048","172-VK","2018/05/18 17:19:36","新北市新莊區龍安路120-2號","121.419061666667","25.0203416666667","6500500","新莊區"
"242017","175-VK","2018/05/18 17:19:29","新北市新莊區新泰路498號","121.44264","25.0460983333333","6500500","新莊區"
"242005","176-VK","2018/05/18 17:19:34","新北市新莊區中平路82巷36-2號","121.446476666667","25.0449166666667","6500500","新莊區"
"242021","348-TH","2018/05/18 17:19:22","新北市新莊區中港路308號","121.452621666667","25.04517","6500500","新莊區"
"242019","350-TH","2018/05/18 17:19:26","新北市新莊區新泰路500號","121.442495","25.0462433333333","6500500","新莊區"
"242013","351-TH","2018/05/18 17:19:39","新北市新莊區新泰路417-7號","121.442771666667","25.044725","6500500","新莊區"
"238015","755-BX","2018/05/18 17:19:35","新北市樹林區大安路267號","121.418985","24.993755","6500700","樹林區"
"238023","601-UM","2018/05/18 17:19:31","新北市樹林區中正路433-2號","121.414983333333","25.0084733333333","6500700","樹林區"
"238019","599-UM","2018/05/18 17:19:27","新北市樹林區八德街140號","121.421478333333","24.9788333333333","6500700","樹林區"
"238018","571-TV","2018/05/18 17:19:36","新北市樹林區鎮前街269巷46號","121.418956666667","24.9848883333333","6500700","樹林區"
"238024","5061-A6","2018/05/18 17:19:37","新北市樹林區樹新路51巷6號","121.42692","24.995105","6500700","樹林區"
"238021","KEA-2217","2018/05/18 17:19:36","新北市樹林區西圳街一段156號","121.395138333333","24.9624783333333","6500700","樹林區"
"238022","KEA-2213","2018/05/18 17:19:38","新北市樹林區仁愛街42號","121.423585","24.9826916666667","6500700","樹林區"
"238017","283-BY","2018/05/18 17:19:44","新北市樹林區大安路438號","121.415185","24.988465","6500700","樹林區"
"238014","282-BY","2018/05/18 17:19:26","新北市樹林區長壽街70巷1弄5號","121.42143","24.9943616666667","6500700","樹林區"
"238020","268-VK","2018/05/18 17:19:41","新北市樹林區俊英街32號","121.429053333333","25.00214","6500700","樹林區"
"238026","172-UY","2018/05/18 17:19:26","新北市樹林區味王街46巷39號","121.402986666667","24.9732316666667","6500700","樹林區"
"238016","169-UY","2018/05/18 17:19:24","新北市樹林區中山路二段10號","121.41755","24.9850983333333","6500700","樹林區"
"239006","891-R6","2018/05/18 17:19:27","新北市鶯歌區福昌街32號","121.332651666667","24.9611266666667","6500800","鶯歌區"
"239008","527-UM","2018/05/18 17:19:34","新北市鶯歌區西湖街243巷25號","121.33924","24.9651883333333","6500800","鶯歌區"
"239005","526-UM","2018/05/18 17:19:41","新北市鶯歌區鶯桃路559號","121.33032","24.9681233333333","6500800","鶯歌區"
"239001","417-VK","2018/05/18 17:19:30","新北市鶯歌區黃厝街31巷39-1號","121.3427","24.945505","6500800","鶯歌區"
"239003","360-BY","2018/05/18 17:19:38","新北市鶯歌區德昌街68號","121.333066666667","24.9599216666667","6500800","鶯歌區"
"239002","359-BY","2018/05/18 17:19:37","新北市鶯歌區南雅路55號","121.348168333333","24.9540916666667","6500800","鶯歌區"
"239004","193-VK","2018/05/18 17:19:42","新北市鶯歌區文化路226巷5號","121.35208","24.9485566666667","6500800","鶯歌區"
"242002","KEA-2550","2018/05/18 17:19:28","新北市新莊區新泰路50號","121.44938","25.03448","6500500","新莊區"
"242044","281-VK","2018/05/18 17:19:42","新北市新莊區福營路371號","121.423581666667","25.0275933333333","6500500","新莊區"
"242046","280-VK","2018/05/18 17:19:40","新北市新莊區新樹路16-1號","121.439268333333","25.0306866666667","6500500","新莊區"
