"lineid","car","time","location","longitude","latitude","cityid","cityname"
"249005","172-UM","2018/05/18 17:29:24","新北市八里區荖阡坑路65-1號","121.404096666667","25.13225","6502300","八里區"
"249001","173-UM","2018/05/18 17:29:35","新北市八里區龍米路三段49-1號","121.424218333333","25.1589366666667","6502300","八里區"
"249004","303-UY","2018/05/18 17:29:35","新北市八里區民有街76號","121.415265","25.1564133333333","6502300","八里區"
"249002","305-UY","2018/05/18 17:29:38","新北市八里區龍形一街33巷8-3號","121.449343333333","25.1299783333333","6502300","八里區"
"249003","593-UM","2018/05/18 17:29:30","新北市八里區中山路二段390號","121.400633333333","25.1479983333333","6502300","八里區"
"232011","375-UM","2018/05/18 17:29:37","新北市坪林區北宜路八段451號","121.70686","24.9234916666667","6502000","坪林區"
"244007","080-UY","2018/05/18 17:29:38","新北市林口區中湖46號","121.383083333333","25.0951816666667","6501700","林口區"
"244019","403-UM","2018/05/18 17:29:40","新北市林口區文化二路一段378號","121.374096666667","25.0762633333333","6501700","林口區"
"244009","410-SL","2018/05/18 17:29:22","新北市林口區中北一街15巷86號","121.384646666667","25.086885","6501700","林口區"
"244023","483-VK","2018/05/18 17:29:30","新北市林口區興林一街117號","121.391876666667","25.0723283333333","6501700","林口區"
"244021","838-TS","2018/05/18 17:29:42","新北市林口區粉寮路二段46-1號","121.403551666667","25.0870183333333","6501700","林口區"
"231046","107-UY","2018/05/18 17:29:24","新北市新店區直潭路92號","121.53091","24.9376366666667","6500600","新店區"
"241008","059-VK","2018/05/18 17:29:36","新北市三重區永福街95號","121.479581666667","25.0775266666667","6500200","三重區"
"241009","060-VK","2018/05/18 17:29:24","新北市三重區車路頭街139巷12號","121.484253333333","25.0762583333333","6500200","三重區"
"241015","062-VK","2018/05/18 17:29:24","新北市三重區長元街65巷22弄20號","121.503601666667","25.0660033333333","6500200","三重區"
"241017","063-VK","2018/05/18 17:29:30","新北市三重區大同北路34巷50號","121.493715","25.0619816666667","6500200","三重區"
"241024","065-VK","2018/05/18 17:29:26","新北市三重區大勇街82巷15弄24號","121.480783333333","25.071905","6500200","三重區"
"241013","265-UM","2018/05/18 17:29:27","新北市三重區仁愛街141巷25號","121.497218333333","25.075985","6500200","三重區"
"241016","266-UM","2018/05/18 17:29:38","新北市三重區信義西街41號","121.495333333333","25.0642366666667","6500200","三重區"
"241018","268-UM","2018/05/18 17:29:36","新北市三重區新北大道一段38號","121.488095","25.0614133333333","6500200","三重區"
"241007","398-BY","2018/05/18 17:29:38","新北市三重區三和路四段145巷193號","121.488348333333","25.0793033333333","6500200","三重區"
"241025","413-TH","2018/05/18 17:29:25","新北市三重區中正北路392-1號","121.476026666667","25.0701433333333","6500200","三重區"
"241020","478-VK","2018/05/18 17:29:29","新北市三重區忠孝路一段159號","121.48803","25.07174","6500200","三重區"
"241014","543-UM","2018/05/18 17:29:31","新北市三重區長壽街78號","121.50153","25.0685766666667","6500200","三重區"
"241023","545-UM","2018/05/18 17:29:31","新北市三重區忠孝路三段84巷34號","121.481671666667","25.0641833333333","6500200","三重區"
"241019","KEA-2593","2018/05/18 17:29:44","新北市三重區六張街183號","121.489106666667","25.0687966666667","6500200","三重區"
"241030","743-BX","2018/05/18 17:29:45","新北市三重區環河南路220-8號","121.49342","25.0528333333333","6500200","三重區"
"241005","887-TS","2018/05/18 17:29:28","新北市三重區永安北路二段33號","121.482363333333","25.082165","6500200","三重區"
"241012","941-UM","2018/05/18 17:29:31","新北市三重區仁興街45號","121.499026666667","25.0759066666667","6500200","三重區"
"241033","AAC-255","2018/05/18 17:29:42","新北市三重區中興北街153-8號","121.469083333333","25.0535016666667","6500200","三重區"
"247024","893-R6","2018/05/18 17:29:44","新北市蘆洲區長興路296-8號","121.460633333333","25.0902766666667","6501400","蘆洲區"
"247014","546-UM","2018/05/18 17:29:33","新北市蘆洲區三民路33號","121.475411666667","25.083085","6501400","蘆洲區"
"247022","500-BY","2018/05/18 17:29:29","新北市蘆洲區三民路260號","121.467526666667","25.0901366666667","6501400","蘆洲區"
"247010","341-TH","2018/05/18 17:29:33","新北市蘆洲區鷺江街1號","121.479388333333","25.0827933333333","6501400","蘆洲區"
"247012","339-TH","2018/05/18 17:29:36","新北市蘆洲區民族路34號","121.476473333333","25.0842966666667","6501400","蘆洲區"
"247004","337-TH","2018/05/18 17:29:27","新北市蘆洲區長安街233巷21號","121.458576666667","25.08243","6501400","蘆洲區"
"247006","336-TH","2018/05/18 17:29:39","新北市蘆洲區長安街68巷47號","121.464115","25.0811266666667","6501400","蘆洲區"
"247018","057-VK","2018/05/18 17:28:59","新北市蘆洲區民義街9巷2號","121.471316666667","25.0887733333333","6501400","蘆洲區"
"247008","056-VK","2018/05/18 17:29:25","新北市蘆洲區民生街93號","121.473661666667","25.0782483333333","6501400","蘆洲區"
"247016","007-UY","2018/05/18 17:29:26","新北市蘆洲區中正路185巷26號","121.468048333333","25.0852283333333","6501400","蘆洲區"
"247002","002-UY","2018/05/18 17:29:29","新北市蘆洲區永樂街38巷57弄6號","121.458158333333","25.0902983333333","6501400","蘆洲區"
"247020","001-UY","2018/05/18 17:29:26","新北市蘆洲區水湳街150號","121.470203333333","25.0936283333333","6501400","蘆洲區"
"228002","663-BX","2018/05/18 17:29:33","新北市貢寮區福隆里福隆街14號","121.94489","25.0163","6502600","貢寮區"
"228001","670-TC","2018/05/18 17:29:39","新北市貢寮區仁理村仁愛路56號","121.925453333333","25.0533533333333","6502600","貢寮區"
"228003","828-UM","2018/05/18 17:29:42","新北市貢寮區仁理村仁和路2-1號","121.923103333333","25.0487566666667","6502600","貢寮區"
"224010","AGQ-8101","2018/05/18 17:29:31","新北市瑞芳區逢甲路82-1號","121.809925","25.1090783333333","6501200","瑞芳區"
"224006","676-BX","2018/05/18 17:29:40","新北市瑞芳區傑魚坑路60號","121.79346","25.1106333333333","6501200","瑞芳區"
"224008","285-BY","2018/05/18 17:29:33","新北市瑞芳區九芎橋路17號","121.83279","25.0927466666667","6501200","瑞芳區"
"224009","273-VK","2018/05/18 17:29:41","新北市瑞芳區烏勢巷145號","121.847625","25.1087933333333","6501200","瑞芳區"
"224005","271-BY","2018/05/18 17:29:36","新北市瑞芳區海濱路8-6號","121.83167","25.1261933333333","6501200","瑞芳區"
"227011","642-TC","2018/05/18 17:29:28","新北市雙溪區三貂里定福路1-2號","121.850743333333","25.0635433333333","6502500","雙溪區"
"227003","400-TW","2018/05/18 17:29:26","新北市雙溪區平林里梅竹蹊59號","121.8532","25.0325233333333","6502500","雙溪區"
"251004","009-UM","2018/05/18 17:29:25","新北市淡水區中正東路二段88巷15號","121.459065","25.1505166666667","6501000","淡水區"
"251002","012-UM","2018/05/18 17:29:28","新北市淡水區中正路一段68號","121.425173333333","25.17705","6501000","淡水區"
"251008","181-VK","2018/05/18 17:29:32","新北市淡水區大同路124巷1號","121.463418333333","25.1404716666667","6501000","淡水區"
"251010","413-VK","2018/05/18 17:29:36","新北市淡水區中正路二段206號","121.42641","25.1890116666667","6501000","淡水區"
"251012","441-VK","2018/05/18 17:29:32","新北市淡水區北新路121號","121.449058333333","25.17866","6501000","淡水區"
"251007","442-VK","2018/05/18 17:29:38","新北市淡水區民生路60號","121.462085","25.1379133333333","6501000","淡水區"
"251005","443-VK","2018/05/18 17:29:26","新北市淡水區鄧公路31巷13號","121.451895","25.1707366666667","6501000","淡水區"
"251006","561-UM","2018/05/18 17:29:36","新北市淡水區大仁街33號","121.44261","25.1755483333333","6501000","淡水區"
"251009","575-R6","2018/05/18 17:29:28","新北市淡水區重建街1巷3號","121.439775","25.1734","6501000","淡水區"
"251011","650-BX","2018/05/18 17:29:40","新北市淡水區坪頂路712號","121.482546666667","25.1585633333333","6501000","淡水區"
"251003","673-BX","2018/05/18 17:29:36","新北市淡水區中正路235號","121.4352","25.1735716666667","6501000","淡水區"
"207003","550-UM","2018/05/18 17:29:42","新北市萬里區龜吼里翡翠路17號","121.683368333333","25.1871916666667","6502800","萬里區"
"207004","225-TW","2018/05/18 17:29:30","新北市萬里區萬里里景美路16號","121.68668","25.1734683333333","6502800","萬里區"
"252002","178-VK","2018/05/18 17:29:22","新北市三芝區忠孝街1-15號","121.50561","25.2539566666667","6502100","三芝區"
"252001","702-TV","2018/05/18 17:29:29","新北市三芝區淡金路一段4-5號","121.498053333333","25.2597366666667","6502100","三芝區"
"237011","572-TV","2018/05/18 17:29:37","新北市三峽區中山路459巷163-3號","121.34874","24.93302","6500900","三峽區"
"237012","275-BY","2018/05/18 17:29:35","新北市三峽區中山路459巷137號","121.349978333333","24.9339316666667","6500900","三峽區"
"237015","649-BX","2018/05/18 17:29:24","新北市三峽區中山路459巷104號","121.353325","24.9356133333333","6500900","三峽區"
"242034","AAC-296","2018/05/18 17:29:28","新北市新莊區新泰路7號","121.449725","25.0323383333333","6500500","新莊區"
"242058","986-R7","2018/05/18 17:29:34","新北市新莊區中正路510-1號","121.434766666667","25.03274","6500500","新莊區"
"242054","751-BX","2018/05/18 17:29:30","新北市新莊區瓊林南路305巷9號","121.434985","25.0053016666667","6500500","新莊區"
"242027","615-BX","2018/05/18 17:29:25","新北市新莊區思源路38號","121.460181666667","25.0424183333333","6500500","新莊區"
"242025","613-BX","2018/05/18 17:29:30","新北市新莊區復興路二段22號","121.45433","25.043925","6500500","新莊區"
"242029","612-BX","2018/05/18 17:29:36","新北市新莊區復興路二段174號","121.458596666667","25.04437","6500500","新莊區"
"242041","566-BX","2018/05/18 17:29:36","新北市新莊區新樹路113巷32號","121.438755","25.0267066666667","6500500","新莊區"
"242050","442-UM","2018/05/18 17:29:38","新北市新莊區新樹路447號","121.432743333333","25.01347","6500500","新莊區"
"242056","440-UM","2018/05/18 17:29:30","新北市新莊區新莊路453號","121.449651666667","25.0332416666667","6500500","新莊區"
"242037","415-TV","2018/05/18 17:29:46","新北市新莊區建國一路288巷50號","121.434183333333","25.025865","6500500","新莊區"
"242007","413-TV","2018/05/18 17:29:41","新北市新莊區自強街19號","121.454725","25.046175","6500500","新莊區"
"242023","362-BY","2018/05/18 17:29:40","新北市新莊區公園路148號","121.453103333333","25.0401116666667","6500500","新莊區"
"242060","353-BY","2018/05/18 17:29:26","新北市新莊區瓊林南路12-2號","121.436298333333","25.019","6500500","新莊區"
"242009","132-UY","2018/05/18 17:29:44","新北市新莊區中原路191號","121.452141666667","25.0538516666667","6500500","新莊區"
"242039","133-UY","2018/05/18 17:29:27","新北市新莊區民安路286號","121.427948333333","25.02161","6500500","新莊區"
"242032","135-UY","2018/05/18 17:29:43","新北市新莊區新泰路401巷29-1號","121.442486666667","25.043955","6500500","新莊區"
"242048","172-VK","2018/05/18 17:29:36","新北市新莊區四維路210號","121.421373333333","25.0200233333333","6500500","新莊區"
"242017","175-VK","2018/05/18 17:29:29","新北市新莊區德豐街6號","121.451601666667","25.0439966666667","6500500","新莊區"
"242005","176-VK","2018/05/18 17:29:36","新北市新莊區中港路288巷12號","121.453441666667","25.0445083333333","6500500","新莊區"
"242015","346-TH","2018/05/18 17:29:25","新北市新莊區新泰路146號","121.44788","25.0370233333333","6500500","新莊區"
"242021","348-TH","2018/05/18 17:29:22","新北市新莊區中正路197號","121.45253","25.0359116666667","6500500","新莊區"
"242019","350-TH","2018/05/18 17:29:26","新北市新莊區中港路56號","121.455471666667","25.0385983333333","6500500","新莊區"
"242013","351-TH","2018/05/18 17:29:39","新北市新莊區中誠街9號","121.451953333333","25.0480716666667","6500500","新莊區"
"238015","755-BX","2018/05/18 17:29:32","新北市樹林區大安路267號","121.418966666667","24.99377","6500700","樹林區"
"238023","601-UM","2018/05/18 17:29:40","新北市樹林區三福街79號","121.407385","25.01629","6500700","樹林區"
"238019","599-UM","2018/05/18 17:29:27","新北市樹林區太平路7號","121.418966666667","24.9839933333333","6500700","樹林區"
"238018","571-TV","2018/05/18 17:29:35","新北市樹林區博愛街194號","121.42481","24.9895483333333","6500700","樹林區"
"238024","5061-A6","2018/05/18 17:29:38","新北市樹林區忠孝街67巷7號","121.42474","24.98164","6500700","樹林區"
"238021","KEA-2217","2018/05/18 17:29:36","新北市樹林區民權街5巷21號","121.395775","24.9583433333333","6500700","樹林區"
"238022","KEA-2213","2018/05/18 17:29:38","新北市樹林區仁愛街49號","121.422438333333","24.9821533333333","6500700","樹林區"
"238025","303-VK","2018/05/18 17:29:24","新北市樹林區保安街一段195號","121.420988333333","24.99596","6500700","樹林區"
"238017","283-BY","2018/05/18 17:29:44","新北市樹林區光武街32巷2號","121.416193333333","25.0057916666667","6500700","樹林區"
"238014","282-BY","2018/05/18 17:29:22","新北市樹林區保安街一段245號","121.419728333333","24.9963883333333","6500700","樹林區"
"238020","268-VK","2018/05/18 17:29:41","新北市樹林區俊英街116巷41弄40號","121.428583333333","25.0070566666667","6500700","樹林區"
"238026","172-UY","2018/05/18 17:27:46","新北市樹林區中山路三段89號","121.400185","24.974555","6500700","樹林區"
"238016","169-UY","2018/05/18 17:29:44","新北市樹林區長壽街2巷5-4號","121.424075","24.9934133333333","6500700","樹林區"
"239006","891-R6","2018/05/18 17:29:26","新北市鶯歌區鶯桃路472巷55號","121.333196666667","24.9659333333333","6500800","鶯歌區"
"239008","527-UM","2018/05/18 17:29:34","桃園市龜山區宏德司法新村8-1號","121.332045","24.9787233333333","6500800","鶯歌區"
"239005","526-UM","2018/05/18 17:29:42","新北市鶯歌區鶯桃路二段18號","121.326006666667","24.972155","6500800","鶯歌區"
"239001","417-VK","2018/05/18 17:29:30","新北市鶯歌區高職西街19號","121.337535","24.94244","6500800","鶯歌區"
"239003","360-BY","2018/05/18 17:29:38","新北市鶯歌區鶯桃路240號","121.336261666667","24.95946","6500800","鶯歌區"
"239002","359-BY","2018/05/18 17:29:37","新北市鶯歌區育英街13號","121.346768333333","24.95535","6500800","鶯歌區"
"239004","193-VK","2018/05/18 17:29:42","新北市鶯歌區三鶯路29巷19號","121.354385","24.9400916666667","6500800","鶯歌區"
"221008","489-VK","2018/05/18 17:29:31","新北市汐止區康寧街901號","121.651428333333","25.0749883333333","6501100","汐止區"
"221033","647-BX","2018/05/18 17:29:39","新北市汐止區大同路二段179號","121.651708333333","25.0643183333333","6501100","汐止區"
"242002","KEA-2550","2018/05/18 17:29:28","新北市新莊區新莊路154號","121.45527","25.0354683333333","6500500","新莊區"
"242044","281-VK","2018/05/18 17:29:30","新北市新莊區裕民街2號","121.419311666667","25.0260666666667","6500500","新莊區"
"242046","280-VK","2018/05/18 17:29:40","新北市新莊區新樹路47號","121.440163333333","25.032095","6500500","新莊區"
