"lineid","car","time","location","longitude","latitude","cityid","cityname"
"234026","9371-KE","2018/05/18 18:09:29","新北市永和區永和路一段1號","121.512895","25.0051166666667","6500400","永和區"
"234011","9373-KE","2018/05/18 17:54:08","新北市永和區福和路1號","121.525628333333","25.00937","6500400","永和區"
"249005","172-UM","2018/05/18 18:09:44","新北市八里區荖阡坑路15-40號","121.4017","25.1398566666667","6502300","八里區"
"249001","173-UM","2018/05/18 18:09:35","新北市八里區龍米路二段9號","121.448671666667","25.139315","6502300","八里區"
"249004","303-UY","2018/05/18 18:09:35","新北市八里區龍米路二段160號","121.435041666667","25.1580616666667","6502300","八里區"
"249002","305-UY","2018/05/18 18:09:37","新北市八里區龍米路一段356巷46號","121.45211","25.130275","6502300","八里區"
"249003","593-UM","2018/05/18 18:09:30","新北市八里區中華路二段249-3號","121.404151666667","25.1485766666667","6502300","八里區"
"248006","077-UY","2018/05/18 18:09:34","新北市五股區中興路二段82號","121.460791666667","25.077295","6501500","五股區"
"248008","095-VK","2018/05/18 18:09:23","新北市蘆洲區永安南路二段292號","121.457291666667","25.0817483333333","6501500","五股區"
"248018","225-UY","2018/05/18 18:09:40","新北市五股區新五路二段367號","121.444345","25.0880133333333","6501500","五股區"
"248014","261-SL","2018/05/18 18:09:27","新北市五股區成泰路一段203號","121.435143333333","25.0769216666667","6501500","五股區"
"248010","272-BY","2018/05/18 18:09:25","新北市五股區成泰路一段194-2號","121.435638333333","25.0781483333333","6501500","五股區"
"248004","677-BX","2018/05/18 18:09:30","新北市五股區成泰路二段186號","121.438786666667","25.0846483333333","6501500","五股區"
"248002","678-BX","2018/05/18 18:09:39","新北市五股區成泰路三段75-1號","121.443621666667","25.0898016666667","6501500","五股區"
"232011","375-UM","2018/05/18 18:09:43","新北市坪林區國中路3號","121.71286","24.937025","6502000","坪林區"
"244013","069-UM","2018/05/18 18:09:30","新北市林口區中山路23號","121.395835","25.0782666666667","6501700","林口區"
"244007","080-UY","2018/05/18 18:09:37","新北市林口區林口路80號","121.389056666667","25.0806583333333","6501700","林口區"
"244019","403-UM","2018/05/18 18:09:40","新北市林口區文化一路一段126號","121.375386666667","25.0725716666667","6501700","林口區"
"244009","410-SL","2018/05/18 18:09:42","新北市林口區佳林路54號","121.386258333333","25.0815816666667","6501700","林口區"
"244023","483-VK","2018/05/18 18:09:30","新北市林口區東湖路153巷135號","121.382265","25.0734783333333","6501700","林口區"
"244017","485-VK","2018/05/18 18:09:41","新北市林口區忠孝路504巷21號","121.36967","25.0696616666667","6501700","林口區"
"244011","657-BX","2018/05/18 18:09:43","新北市林口區中正路100號","121.394","25.0773116666667","6501700","林口區"
"244025","837-TS","2018/05/18 18:09:33","新北市林口區南勢六街18號","121.35696","25.070875","6501700","林口區"
"244021","838-TS","2018/05/18 18:09:41","新北市林口區自強六街26號","121.399398333333","25.0761783333333","6501700","林口區"
"243013","AAD-798","2018/05/18 18:09:33","新北市泰山區南林路93號","121.415493333333","25.051185","6501600","泰山區"
"222003","436-BY","2018/05/18 18:09:10","新北市深坑區阿柔洋49-3號","121.611596666667","24.997305","6501800","深坑區"
"222002","659-BX","2018/05/18 18:09:37","新北市深坑區文化街52號","121.618946666667","25.0016533333333","6501800","深坑區"
"231041","002-UM","2018/05/18 18:09:39","新北市新店區安華路28-1號","121.51959","24.96089","6500600","新店區"
"231059","046-UY","2018/05/18 18:09:26","新北市新店區安華路28-1號","121.51963","24.960865","6500600","新店區"
"231040","047-UY","2018/05/18 18:09:27","新北市新店區安華路28-1號","121.519345","24.9609516666667","6500600","新店區"
"231044","106-UY","2018/05/18 18:09:35","新北市新店區安華路28-1號","121.519678333333","24.9608783333333","6500600","新店區"
"231046","107-UY","2018/05/18 18:09:44","新北市新店區直潭七街60號","121.532273333333","24.939925","6500600","新店區"
"231053","108-UY","2018/05/18 18:09:22","新北市新店區安一路一段1-1號","121.51953","24.9611516666667","6500600","新店區"
"231048","187-VK","2018/05/18 18:09:28","新北市新店區安一路一段1-1號","121.51967","24.9611766666667","6500600","新店區"
"231057","188-VK","2018/05/18 18:09:36","新北市新店區安一路一段1-1號","121.51967","24.9611966666667","6500600","新店區"
"231054","KEA-2219","2018/05/18 18:09:31","新北市新店區安一路一段1-1號","121.519676666667","24.961275","6500600","新店區"
"231042","268-BY","2018/05/18 18:09:31","新北市新店區安華路28-1號","121.519785","24.9607816666667","6500600","新店區"
"231051","278-BY","2018/05/18 18:09:39","新北市新店區安一路一段1-1號","121.51982","24.9611883333333","6500600","新店區"
"231050","AAD-862","2018/05/18 18:09:33","新北市新店區安一路一段1-1號","121.519661666667","24.961265","6500600","新店區"
"231058","3713-VJ","2018/05/18 18:09:31","新北市新店區安華路1-1號","121.519355","24.960545","6500600","新店區"
"231056","4715-K9","2018/05/18 18:09:41","新北市新店區安華路28-1號","121.519593333333","24.9605116666667","6500600","新店區"
"231065","512-UM","2018/05/18 18:09:33","新北市新店區安一路一段1-1號","121.519331666667","24.9610616666667","6500600","新店區"
"231049","513-UM","2018/05/18 18:09:36","新北市新店區安一路一段1-1號","121.519581666667","24.9611566666667","6500600","新店區"
"231063","616-UM","2018/05/18 18:09:43","新北市新店區安華路28-1號","121.519451666667","24.96058","6500600","新店區"
"231061","619-UM","2018/05/18 18:09:29","新北市新店區安華路28-1號","121.519521666667","24.96082","6500600","新店區"
"231062","720-UM","2018/05/18 18:09:39","新北市新店區安一路一段1-1號","121.519423333333","24.9613083333333","6500600","新店區"
"231060","897-TW","2018/05/18 18:09:29","新北市新店區安華路28-1號","121.519573333333","24.9609083333333","6500600","新店區"
"231043","899-TW","2018/05/18 18:09:46","新北市新店區安華路28-1號","121.519353333333","24.9608283333333","6500600","新店區"
"231055","AKT-0513","2018/05/18 18:09:39","新北市新店區安華路1-1號","121.51951","24.960515","6500600","新店區"
"241024","065-VK","2018/05/18 18:09:46","新北市三重區中正北路189號","121.477365","25.0696283333333","6500200","三重區"
"241030","743-BX","2018/05/18 18:09:25","新北市八里區中山路三段321號","121.377988333333","25.1389966666667","6500200","三重區"
"241033","AAC-255","2018/05/18 18:09:42","新北市三重區中興北街56-1號","121.468935","25.0515","6500200","三重區"
"235064","005-UY","2018/05/18 18:09:26","新北市中和區中正路273號","121.495728333333","24.9937133333333","6500300","中和區"
"235063","006-UY","2018/05/18 18:09:36","新北市中和區員山路36巷16-3號","121.485028333333","24.9912883333333","6500300","中和區"
"235047","031-BX","2018/05/18 18:09:28","新北市中和區中正路171號","121.497891666667","24.9937216666667","6500300","中和區"
"235056","096-UM","2018/05/18 18:09:25","新北市中和區連城路469巷11號","121.483636666667","24.9954966666667","6500300","中和區"
"235040","150-BY","2018/05/18 18:09:21","新北市中和區中正路637巷52弄1號","121.48541","24.9934633333333","6500300","中和區"
"235058","151-BY","2018/05/18 18:09:42","新北市中和區圓通路367巷33弄23號","121.494951666667","24.98526","6500300","中和區"
"235038","185-VK","2018/05/18 18:09:32","新北市中和區景平路124號","121.519115","24.9916966666667","6500300","中和區"
"235043","352-BY","2018/05/18 18:09:44","新北市中和區錦和路350-1號","121.490223333333","24.99358","6500300","中和區"
"235061","378-QA","2018/05/18 18:09:30","新北市中和區連城路569巷9弄24號","121.479508333333","24.993425","6500300","中和區"
"235069","4980-A6","2018/05/18 18:09:30","新北市中和區錦和路350-1號","121.490418333333","24.9935866666667","6500300","中和區"
"235042","551-UM","2018/05/18 18:09:33","新北市中和區捷運路129號","121.507156666667","24.9906866666667","6500300","中和區"
"235070","558-UM","2018/05/18 18:09:28","新北市中和區中正路395號","121.489861666667","24.99362","6500300","中和區"
"235045","565-BX","2018/05/18 18:09:43","新北市中和區錦和路350-1號","121.490528333333","24.99362","6500300","中和區"
"235054","640-BX","2018/05/18 18:09:43","新北市土城區延壽路77巷4弄11號","121.469098333333","24.9929783333333","6500300","中和區"
"235062","800-TS","2018/05/18 18:09:32","新北市中和區板南路448-1號","121.489655","25.0053566666667","6500300","中和區"
"235052","805-TS","2018/05/18 18:09:40","新北市中和區中正路277-6號","121.495108333333","24.9937333333333","6500300","中和區"
"235053","900-TW","2018/05/18 18:09:41","新北市中和區員山路36巷16-3號","121.48496","24.9918983333333","6500300","中和區"
"235066","911-UM","2018/05/18 18:09:39","新北市中和區中正路254號","121.495566666667","24.9940383333333","6500300","中和區"
"235051","157-BY","2018/05/18 18:09:29","新北市中和區中正路190-1號","121.497805","24.9937633333333","6500300","中和區"
"235037","AAC-213","2018/05/18 18:09:31","新北市中和區景平路155號","121.51344","24.9922116666667","6500300","中和區"
"226004","205-ST","2018/05/18 18:09:41","新北市平溪區白石里中埔178-1號","121.722363333333","25.021685","6502400","平溪區"
"235065","251-BX","2018/05/18 18:09:28","新北市中和區中山路二段2巷45弄1號","121.502335","25.0069683333333","6500300","中和區"
"228002","663-BX","2018/05/18 18:09:33","新北市貢寮區福連里馬崗街13-1號","122.001876666667","25.01296","6502600","貢寮區"
"228001","670-TC","2018/05/18 18:09:39","新北市貢寮區真理里新港街26巷55弄2-1號","121.92741","25.0528733333333","6502600","貢寮區"
"228003","828-UM","2018/05/18 18:09:32","新北市貢寮區真理里美艷山街6-2號","121.928763333333","25.0607833333333","6502600","貢寮區"
"224010","AGQ-8101","2018/05/18 17:57:31","新北市瑞芳區烏勢巷145號","121.847845","25.109155","6501200","瑞芳區"
"224006","676-BX","2018/05/18 18:09:40","新北市瑞芳區明燈路三段1號","121.809358333333","25.10721","6501200","瑞芳區"
"224002","639-TC","2018/05/18 18:09:37","新北市瑞芳區三爪子坑路64-28號","121.809068333333","25.10532","6501200","瑞芳區"
"224008","285-BY","2018/05/18 18:09:33","新北市瑞芳區員山子路23號","121.821386666667","25.1030433333333","6501200","瑞芳區"
"224007","275-VK","2018/05/18 18:09:42","新北市瑞芳區四腳亭坑路3-1號","121.776895","25.10942","6501200","瑞芳區"
"224009","273-VK","2018/05/18 18:09:41","新北市瑞芳區金光路115號","121.853601666667","25.1062616666667","6501200","瑞芳區"
"224005","271-BY","2018/05/18 18:09:36","新北市瑞芳區建基路二段110-1號","121.811945","25.1326333333333","6501200","瑞芳區"
"227011","642-TC","2018/05/18 18:09:28","新北市雙溪區三貂里定福路1-2號","121.850671666667","25.06343","6502500","雙溪區"
"227003","400-TW","2018/05/18 18:09:40","新北市雙溪區共和里泰和街7號","121.863536666667","25.03392","6502500","雙溪區"
"253005","032-BX","2018/05/18 18:09:38","新北市石門區中央路46號","121.568235","25.2929783333333","6502200","石門區"
"253006","295-VK","2018/05/18 18:09:40","新北市石門區老梅路52巷17號","121.546271666667","25.2886566666667","6502200","石門區"
"222001","KEA-2212","2018/05/18 18:09:40","新北市深坑區北深路二段188號","121.613991666667","25.0021933333333","6501800","深坑區"
"208002","KEA-2872","2018/05/18 18:09:43","新北市金山區三界壇路99巷5號","121.621728333333","25.2286316666667","6502700","金山區"
"208003","665-BX","2018/05/18 18:09:32","新北市金山區民生路2號","121.649791666667","25.2250083333333","6502700","金山區"
"208001","761-BX","2018/05/18 18:09:26","新北市金山區磺港里磺港路60號","121.647938333333","25.2275916666667","6502700","金山區"
"251004","009-UM","2018/05/18 18:09:45","新北市淡水區民族路110巷7號","121.461978333333","25.1354016666667","6501000","淡水區"
"251001","011-UM","2018/05/18 18:09:27","新北市淡水區自立路8號","121.462746666667","25.1296383333333","6501000","淡水區"
"251002","012-UM","2018/05/18 18:09:28","新北市淡水區中正東路一段127巷2號","121.455545","25.1593366666667","6501000","淡水區"
"251008","181-VK","2018/05/18 18:09:32","新北市淡水區淡金路16巷62弄1號","121.460003333333","25.1610016666667","6501000","淡水區"
"251010","413-VK","2018/05/18 18:09:42","新北市淡水區中正路二段50巷12弄6號","121.420026666667","25.1831316666667","6501000","淡水區"
"251012","441-VK","2018/05/18 18:09:32","新北市淡水區北新路三段174號","121.492848333333","25.1927933333333","6501000","淡水區"
"251005","443-VK","2018/05/18 18:09:46","新北市淡水區水源街一段116號","121.446961666667","25.171855","6501000","淡水區"
"251006","561-UM","2018/05/18 18:09:36","新北市淡水區新民街92號","121.438366666667","25.17674","6501000","淡水區"
"251009","575-R6","2018/05/18 18:09:28","新北市淡水區大忠街34巷23號","121.444251666667","25.1758266666667","6501000","淡水區"
"251011","650-BX","2018/05/18 18:09:40","新北市淡水區三空泉9-2號","121.474113333333","25.1635416666667","6501000","淡水區"
"251003","673-BX","2018/05/18 18:09:36","新北市淡水區大忠街113巷22號","121.447321666667","25.1775016666667","6501000","淡水區"
"207003","550-UM","2018/05/18 18:09:42","新北市萬里區野柳里港西路76號","121.685743333333","25.2051216666667","6502800","萬里區"
"207004","225-TW","2018/05/18 18:09:30","新北市萬里區中幅里中福路108號","121.676733333333","25.16905","6502800","萬里區"
"252002","178-VK","2018/05/18 18:09:42","新北市三芝區中山路二段38號","121.502965","25.2551816666667","6502100","三芝區"
"252003","249-BX","2018/05/18 18:09:32","新北市三芝區埔頭里埔頭37號","121.49851","25.260305","6502100","三芝區"
"252001","702-TV","2018/05/18 18:09:29","新北市三芝區中興街二段2號","121.498321666667","25.2566933333333","6502100","三芝區"
"237004","KEA-2597","2018/05/18 18:09:41","新北市三峽區大埔路170號","121.370746666667","24.8963866666667","6500900","三峽區"
"237007","153-BY","2018/05/18 18:09:35","新北市三峽區中正路二段370巷24號","121.36491","24.91093","6500900","三峽區"
"237011","572-TV","2018/05/18 18:09:37","新北市三峽區溪東路182號","121.40697","24.9325066666667","6500900","三峽區"
"237009","210-TH","2018/05/18 18:09:35","新北市三峽區大仁路52號","121.365336666667","24.937685","6500900","三峽區"
"237013","252-BX","2018/05/18 18:09:36","新北市三峽區長泰街33巷14弄9號","121.377291666667","24.9319433333333","6500900","三峽區"
"237012","275-BY","2018/05/18 18:09:35","新北市三峽區民生街1巷1-14號","121.377703333333","24.936025","6500900","三峽區"
"237008","302-VK","2018/05/18 18:09:23","新北市三峽區白雞44-9號","121.378625","24.90947","6500900","三峽區"
"237014","433-BY","2018/05/18 18:09:29","新北市三峽區復興路121號","121.371598333333","24.938075","6500900","三峽區"
"237006","5529-G3","2018/05/18 18:09:22","新北市三峽區溪東路34巷13號","121.400343333333","24.9342866666667","6500900","三峽區"
"237015","649-BX","2018/05/18 18:09:24","新北市三峽區紫新路38巷2號","121.421975","24.9224916666667","6500900","三峽區"
"237010","706-TV","2018/05/18 18:09:40","新北市三峽區民族街15號","121.369351666667","24.93095","6500900","三峽區"
"237005","AKY-6261","2018/05/18 18:09:31","新北市三峽區文化路152號","121.370266666667","24.9361533333333","6500900","三峽區"
"236069","105-UM","2018/05/18 18:09:37","新北市土城區明德路一段126號","121.463831666667","24.9791083333333","6501300","土城區"
"236042","107-UM","2018/05/18 18:09:43","新北市土城區明德路二段207號","121.446603333333","24.983925","6501300","土城區"
"236079","166-UM","2018/05/18 18:09:36","新北市土城區永安街85號","121.430981666667","24.9638533333333","6501300","土城區"
"236030","253-BX","2018/05/18 18:09:29","新北市土城區城林路6巷80號","121.438556666667","24.97965","6501300","土城區"
"236026","269-VK","2018/05/18 18:09:13","新北市土城區承天路65號","121.439616666667","24.9639466666667","6501300","土城區"
"236014","270-VK","2018/05/18 18:09:28","新北市土城區學府路一段167號","121.452863333333","24.9856516666667","6501300","土城區"
"236039","271-VK","2018/05/18 18:09:37","新北市土城區金城路二段26號","121.450138333333","24.9779583333333","6501300","土城區"
"236020","401-BY","2018/05/18 18:09:27","新北市土城區城林路6巷80號","121.438683333333","24.97974","6501300","土城區"
"236059","912-UM","2018/05/18 18:09:42","新北市土城區中央路四段200號","121.416018333333","24.9575266666667","6501300","土城區"
"236048","913-UM","2018/05/18 18:09:30","新北市土城區金城路二段26號","121.450116666667","24.9779483333333","6501300","土城區"
"236063","915-UM","2018/05/18 18:09:25","新北市土城區金城路二段188號","121.454356666667","24.9814716666667","6501300","土城區"
"236055","AAC-216","2018/05/18 18:09:24","新北市土城區中華路二段2號","121.438888333333","24.9798466666667","6501300","土城區"
"242034","AAC-296","2018/05/18 18:09:28","新北市新莊區中正路377巷8號","121.446086666667","25.0342033333333","6500500","新莊區"
"242058","986-R7","2018/05/18 18:09:34","新北市新莊區天祥街120巷3弄9號","121.413878333333","25.0303566666667","6500500","新莊區"
"242054","751-BX","2018/05/18 18:09:29","新北市新莊區民安西路350號","121.427196666667","25.0113016666667","6500500","新莊區"
"242027","615-BX","2018/05/18 18:09:25","新北市新莊區幸福路515號","121.455628333333","25.049285","6500500","新莊區"
"242025","613-BX","2018/05/18 18:09:30","新北市新莊區五權一路120號","121.46016","25.068085","6500500","新莊區"
"242029","612-BX","2018/05/18 18:09:30","新北市新莊區中平路158號","121.444776666667","25.04751","6500500","新莊區"
"242041","566-BX","2018/05/18 18:09:38","新北市新莊區天祥街135巷8弄2號","121.413701666667","25.0294183333333","6500500","新莊區"
"242050","442-UM","2018/05/18 18:09:36","新北市新莊區民本街11巷32號","121.429198333333","25.0201666666667","6500500","新莊區"
"242056","440-UM","2018/05/18 18:09:30","新北市新莊區豐年街豐1巷15號","121.447121666667","25.0313683333333","6500500","新莊區"
"242037","415-TV","2018/05/18 18:09:26","新北市新莊區建福路48巷13號","121.42562","25.0273833333333","6500500","新莊區"
"242007","413-TV","2018/05/18 18:09:41","新北市新莊區自強街37巷6號","121.454388333333","25.0466283333333","6500500","新莊區"
"242023","362-BY","2018/05/18 18:09:40","新北市泰山區泰林路一段2號","121.44203","25.0479","6500500","新莊區"
"242060","353-BY","2018/05/18 18:09:46","新北市新莊區新樹路107號","121.4375","25.026885","6500500","新莊區"
"242009","132-UY","2018/05/18 18:09:25","新北市新莊區昌平街71巷15號","121.45382","25.0535866666667","6500500","新莊區"
"242039","133-UY","2018/05/18 18:09:36","新北市新莊區民安西路38巷5號","121.426986666667","25.0208066666667","6500500","新莊區"
"242032","135-UY","2018/05/18 18:09:23","新北市新莊區新泰路267號","121.445828333333","25.0401766666667","6500500","新莊區"
"242048","172-VK","2018/05/18 18:09:41","新北市新莊區後港一路1號","121.424048333333","25.02616","6500500","新莊區"
"242011","173-VK","2018/05/18 18:09:37","新北市新莊區中信街90號","121.447941666667","25.0534","6500500","新莊區"
"242017","175-VK","2018/05/18 18:09:41","新北市新莊區中港路286號","121.452936666667","25.0443533333333","6500500","新莊區"
"242015","346-TH","2018/05/18 18:09:45","新北市新莊區中平路152巷41號","121.446471666667","25.0474983333333","6500500","新莊區"
"242021","348-TH","2018/05/18 18:09:42","新北市新莊區公園路80號","121.450156666667","25.0395183333333","6500500","新莊區"
"242013","351-TH","2018/05/18 18:09:39","新北市新莊區新泰路357巷3弄57號","121.442123333333","25.03949","6500500","新莊區"
"238015","755-BX","2018/05/18 18:09:32","新北市樹林區文德街8號","121.4189","24.9916566666667","6500700","樹林區"
"238023","601-UM","2018/05/18 18:09:31","新北市樹林區三福街85巷11號","121.407291666667","25.0154366666667","6500700","樹林區"
"238019","599-UM","2018/05/18 18:09:27","新北市樹林區忠孝街103號","121.424551666667","24.9808483333333","6500700","樹林區"
"238018","571-TV","2018/05/18 18:09:35","新北市板橋區大觀路三段263號","121.429165","24.99235","6500700","樹林區"
"238024","5061-A6","2018/05/18 18:09:37","新北市樹林區文化街61號","121.41711","24.989","6500700","樹林區"
"238021","KEA-2217","2018/05/18 18:09:36","新北市樹林區柑園街二段1號","121.38819","24.955795","6500700","樹林區"
"238022","KEA-2213","2018/05/18 18:09:37","新北市樹林區太平路150巷83號","121.41638","24.977515","6500700","樹林區"
"238025","303-VK","2018/05/18 18:09:24","新北市樹林區保安街二段98-2號","121.414268333333","25.0036666666667","6500700","樹林區"
"238017","283-BY","2018/05/18 18:09:24","新北市樹林區中正路713號","121.411453333333","25.0141683333333","6500700","樹林區"
"238014","282-BY","2018/05/18 18:03:22","新北市樹林區中正路55巷13號","121.426208333333","24.999405","6500700","樹林區"
"238020","268-VK","2018/05/18 18:09:41","新北市樹林區三俊街65巷34號","121.41338","25.0176816666667","6500700","樹林區"
"238026","172-UY","2018/05/18 18:09:26","新北市樹林區佳園路一段78號","121.393135","24.96985","6500700","樹林區"
"238016","169-UY","2018/05/18 18:09:44","新北市樹林區文化街27號","121.419215","24.9876283333333","6500700","樹林區"
"239006","891-R6","2018/05/18 18:09:26","新北市鶯歌區鶯桃路365巷36號","121.332095","24.9625266666667","6500800","鶯歌區"
"239008","527-UM","2018/05/18 18:09:34","新北市鶯歌區國際一路14號","121.336205","24.9765683333333","6500800","鶯歌區"
"239005","526-UM","2018/05/18 18:09:41","新北市鶯歌區鶯桃路668巷73號","121.329701666667","24.9715566666667","6500800","鶯歌區"
"239001","417-VK","2018/05/18 18:09:30","新北市鶯歌區中正三路福德巷2弄22號","121.33909","24.94107","6500800","鶯歌區"
"239003","360-BY","2018/05/18 18:09:38","新北市鶯歌區福安街9巷1號","121.33516","24.9649233333333","6500800","鶯歌區"
"239002","359-BY","2018/05/18 18:09:37","新北市鶯歌區建國路156號","121.35067","24.9538533333333","6500800","鶯歌區"
"239004","193-VK","2018/05/18 18:09:42","新北市鶯歌區尖山路168巷14號","121.344881666667","24.9484866666667","6500800","鶯歌區"
"221008","489-VK","2018/05/18 18:09:31","新北市汐止區康寧街315號","121.626991666667","25.0679083333333","6501100","汐止區"
"221036","130-UY","2018/05/18 18:09:46","新北市汐止區長安路8號","121.667716666667","25.0776066666667","6501100","汐止區"
"221015","131-UY","2018/05/18 18:09:43","新北市汐止區鄉長路二段40巷1號","121.667403333333","25.0837683333333","6501100","汐止區"
"221010","269-BY","2018/05/18 18:09:39","新北市汐止區汐萬路二段258號","121.645855","25.0892566666667","6501100","汐止區"
"221012","278-VK","2018/05/18 18:09:40","新北市汐止區保一街39號","121.674203333333","25.0799066666667","6501100","汐止區"
"221023","279-VK","2018/05/18 18:09:25","新北市汐止區中興路295號","121.627933333333","25.0701383333333","6501100","汐止區"
"221032","280-BY","2018/05/18 18:09:40","新北市汐止區橫科路8號","121.617736666667","25.0512916666667","6501100","汐止區"
"221027","281-BY","2018/05/18 18:09:29","新北市汐止區大同路二段595號","121.663631666667","25.0706183333333","6501100","汐止區"
"221029","298-VK","2018/05/18 18:09:32","新北市汐止區樟樹二路134號","121.640118333333","25.0660566666667","6501100","汐止區"
"221021","299-VK","2018/05/18 18:09:29","新北市汐止區龍安路202巷8號","121.652841666667","25.06309","6501100","汐止區"
"221031","353-TW","2018/05/18 18:09:43","新北市汐止區中興路163號","121.630995","25.0662266666667","6501100","汐止區"
"221035","622-UM","2018/05/18 18:09:38","新北市汐止區大同路二段196號","121.652901666667","25.06462","6501100","汐止區"
"221025","623-UM","2018/05/18 18:09:27","新北市汐止區秀峰路151巷1號","121.660888333333","25.062","6501100","汐止區"
"221038","646-BX","2018/05/18 18:09:25","新北市汐止區南興路83巷18號","121.653683333333","25.0588283333333","6501100","汐止區"
"221033","647-BX","2018/05/18 18:09:39","新北市汐止區宜興街40巷9弄3號","121.622716666667","25.041415","6501100","汐止區"
"221002","707-TV","2018/05/18 18:09:28","新北市汐止區福德一路188號","121.635368333333","25.0657433333333","6501100","汐止區"
"221018","753-BX","2018/05/18 18:09:30","新北市汐止區忠孝東路401號","121.66581","25.070975","6501100","汐止區"
"242002","KEA-2550","2018/05/18 18:09:38","新北市新莊區新莊路50號","121.457981666667","25.0369233333333","6500500","新莊區"
"242044","281-VK","2018/05/18 18:09:36","新北市新莊區天泉二街11號","121.415085","25.0249033333333","6500500","新莊區"
"242046","280-VK","2018/05/18 18:09:41","新北市新莊區福營路230號","121.426946666667","25.0291833333333","6500500","新莊區"
"235068","KEA-2873","2018/05/18 18:09:16","新北市中和區員山路36巷16-3號","121.485026666667","24.9913533333333","6500300","中和區"
