"lineid","car","time","location","longitude","latitude","cityid","cityname"
"234046","148-BY","2018/05/18 18:29:12","新北市永和區福和路1號","121.526168333333","25.0096466666667","6500400","永和區"
"234007","207-UY","2018/05/18 18:29:26","新北市永和區環河西路二段219號","121.50125","25.0101866666667","6500400","永和區"
"234081","298-R6","2018/05/18 18:29:36","新北市永和區林森路44巷6弄10號","121.525581666667","25.0051233333333","6500400","永和區"
"234017","745-BX","2018/05/18 18:29:26","新北市永和區福和路1號","121.526408333333","25.0095916666667","6500400","永和區"
"234030","746-BX","2018/05/18 18:29:33","新北市永和區福和路1號","121.526348333333","25.00961","6500400","永和區"
"234013","KEA-2591","2018/05/18 18:29:33","新北市永和區環河東路二段10號","121.522255","25.01336","6500400","永和區"
"234050","863-TW","2018/05/18 18:29:43","新北市永和區福和路1號","121.526471666667","25.0098133333333","6500400","永和區"
"234026","9371-KE","2018/05/18 18:29:29","新北市永和區中山路一段62號","121.512841666667","25.0106933333333","6500400","永和區"
"234011","9373-KE","2018/05/18 18:29:27","新北市永和區保福路二段158巷1號","121.509073333333","25.0150316666667","6500400","永和區"
"249005","172-UM","2018/05/18 18:29:44","新北市八里區中華路三段130號","121.39229","25.1349166666667","6502300","八里區"
"249001","173-UM","2018/05/18 18:29:35","新北市八里區龍米路一段160號","121.45278","25.1260166666667","6502300","八里區"
"249004","303-UY","2018/05/18 18:29:47","新北市八里區忠四街9號","121.424923333333","25.1607366666667","6502300","八里區"
"249002","305-UY","2018/05/18 18:28:17","新北市八里區龍米路一段426號","121.45108","25.13366","6502300","八里區"
"248016","026-BX","2018/05/18 18:29:43","新北市五股區凌雲路一段83巷11號","121.449481666667","25.1009083333333","6501500","五股區"
"248006","077-UY","2018/05/18 18:29:34","新北市五股區四維路38號","121.467365","25.0716516666667","6501500","五股區"
"248008","095-VK","2018/05/18 18:29:43","新北市五股區更洲路32巷8弄14號","121.45922","25.0795916666667","6501500","五股區"
"248018","225-UY","2018/05/18 18:28:40","新北市五股區御史路277-1號","121.420711666667","25.1060816666667","6501500","五股區"
"248012","247-BX","2018/05/18 18:29:32","新北市五股區御史路8號","121.442246666667","25.0904466666667","6501500","五股區"
"248014","261-SL","2018/05/18 18:29:27","新北市五股區自強路176號","121.431871666667","25.0693916666667","6501500","五股區"
"248010","272-BY","2018/05/18 18:29:42","新北市五股區水碓路11號","121.433628333333","25.072385","6501500","五股區"
"248004","677-BX","2018/05/18 18:29:30","新北市五股區工商路150號","121.433193333333","25.08745","6501500","五股區"
"248002","678-BX","2018/05/18 18:29:34","新北市五股區西雲路142號","121.445841666667","25.0941566666667","6501500","五股區"
"234023","9380-KE","2018/05/18 18:29:29","新北市永和區福和路1號","121.525573333333","25.0093633333333","6500400","永和區"
"234067","AAC-212","2018/05/18 18:29:38","新北市永和區環河東路二段90號","121.524291666667","25.0106766666667","6500400","永和區"
"244013","069-UM","2018/05/18 18:29:30","新北市林口區佳林路101巷36號","121.386993333333","25.0800433333333","6501700","林口區"
"244007","080-UY","2018/05/18 18:29:37","新北市林口區湖北里10鄰18號","121.387755","25.0979466666667","6501700","林口區"
"244019","403-UM","2018/05/18 18:29:40","新北市林口區忠孝路584號","121.375183333333","25.0681916666667","6501700","林口區"
"244009","410-SL","2018/05/18 18:29:42","新北市林口區文林一街20號","121.376911666667","25.0859083333333","6501700","林口區"
"244023","483-VK","2018/05/18 18:29:30","新北市林口區四維路245巷41號","121.382486666667","25.0753166666667","6501700","林口區"
"244017","485-VK","2018/05/18 18:29:41","新北市林口區八德路78號","121.365606666667","25.065495","6501700","林口區"
"244011","657-BX","2018/05/18 18:29:36","新北市林口區仁愛路一段272巷16號","121.393418333333","25.07624","6501700","林口區"
"244025","837-TS","2018/05/18 18:29:33","新北市林口區南勢里53-6號","121.35507","25.0748466666667","6501700","林口區"
"244021","838-TS","2018/05/18 18:29:42","新北市林口區自強二街42-1號","121.398746666667","25.077445","6501700","林口區"
"243013","AAD-798","2018/05/18 18:26:33","新北市泰山區明志路三段206巷3號","121.423335","25.0379533333333","6501600","泰山區"
"243012","646-TV","2018/05/18 18:29:40","新北市泰山區泰林路二段554號","121.423113333333","25.0637316666667","6501600","泰山區"
"222003","436-BY","2018/05/18 18:29:30","新北市深坑區旺耽路8號","121.630748333333","25.0053833333333","6501800","深坑區"
"222002","659-BX","2018/05/18 18:29:37","新北市深坑區雲鄉路142號","121.623608333333","24.9979933333333","6501800","深坑區"
"231041","002-UM","2018/05/18 18:29:39","新北市新店區安華路28-1號","121.519595","24.9608033333333","6500600","新店區"
"231059","046-UY","2018/05/18 18:29:26","新北市新店區安華路28-1號","121.519546666667","24.960805","6500600","新店區"
"231040","047-UY","2018/05/18 18:29:27","新北市新店區安華路28-1號","121.51931","24.960775","6500600","新店區"
"231044","106-UY","2018/05/18 18:29:35","新北市新店區安華路28-1號","121.519651666667","24.96088","6500600","新店區"
"231046","107-UY","2018/05/18 18:29:44","新北市新店區直潭七街60號","121.532283333333","24.9399166666667","6500600","新店區"
"231053","108-UY","2018/05/18 18:29:42","新北市新店區新烏路一段50-23號","121.545736666667","24.9493883333333","6500600","新店區"
"231048","187-VK","2018/05/18 18:29:28","新北市新店區安一路一段1-1號","121.51974","24.961155","6500600","新店區"
"231057","188-VK","2018/05/18 18:29:36","新北市新店區環河路1-1號","121.538006666667","24.9615566666667","6500600","新店區"
"231054","KEA-2219","2018/05/18 18:29:31","新北市新店區安一路一段1-1號","121.519675","24.9612966666667","6500600","新店區"
"231042","268-BY","2018/05/18 18:29:31","新北市新店區安華路3號","121.519226666667","24.9597883333333","6500600","新店區"
"231051","278-BY","2018/05/18 18:28:46","新北市新店區安康路一段319號","121.522176666667","24.9636866666667","6500600","新店區"
"231050","AAD-862","2018/05/18 18:29:33","新北市新店區安一路一段1-1號","121.519688333333","24.9611083333333","6500600","新店區"
"231058","3713-VJ","2018/05/18 18:29:31","新北市新店區新店後街110號","121.537683333333","24.9553983333333","6500600","新店區"
"231066","4716-K9","2018/05/18 18:29:27","新北市新店區安一路一段1-1號","121.519413333333","24.96121","6500600","新店區"
"231056","4715-K9","2018/05/18 18:29:41","新北市新店區二十張路129巷1弄1號","121.536023333333","24.9790833333333","6500600","新店區"
"231067","4772-VM","2018/05/18 18:29:39","新北市新店區安華路28-1號","121.519311666667","24.9605783333333","6500600","新店區"
"231065","512-UM","2018/05/18 18:29:33","新北市新店區安一路一段1-1號","121.519295","24.96116","6500600","新店區"
"231049","513-UM","2018/05/18 18:29:36","新北市新店區安一路一段1-1號","121.519603333333","24.961115","6500600","新店區"
"231063","616-UM","2018/05/18 18:29:43","新北市新店區安華路1-1號","121.519453333333","24.9604766666667","6500600","新店區"
"231045","617-UM","2018/05/18 18:29:32","新北市新店區安華路28-1號","121.519445","24.9607766666667","6500600","新店區"
"231061","619-UM","2018/05/18 18:29:29","新北市新店區安華路28-1號","121.519633333333","24.960755","6500600","新店區"
"231064","719-UM","2018/05/18 18:29:43","新北市新店區安一路一段1-1號","121.519465","24.9610933333333","6500600","新店區"
"231062","720-UM","2018/05/18 18:29:39","新北市新店區安一路一段1-1號","121.519306666667","24.961235","6500600","新店區"
"231060","897-TW","2018/05/18 18:29:29","新北市新店區安華路28-1號","121.519576666667","24.9607483333333","6500600","新店區"
"231043","899-TW","2018/05/18 18:29:45","新北市新店區安華路28-1號","121.51924","24.9608866666667","6500600","新店區"
"231055","AKT-0513","2018/05/18 18:29:39","新北市新店區三民路21巷2號","121.538885","24.9711483333333","6500600","新店區"
"241030","743-BX","2018/05/18 18:29:45","新北市三重區重新路五段283號","121.479768333333","25.0496483333333","6500200","三重區"
"235064","005-UY","2018/05/18 18:29:26","新北市中和區圓通路167巷2號","121.4978","24.9952416666667","6500300","中和區"
"235063","006-UY","2018/05/18 18:29:36","新北市中和區連城路389巷7號","121.486616666667","24.995685","6500300","中和區"
"235047","031-BX","2018/05/18 18:29:28","新北市中和區南山路294號","121.507785","24.9872083333333","6500300","中和區"
"235056","096-UM","2018/05/18 18:29:45","新北市中和區員山路611巷1號","121.47791","25.0112183333333","6500300","中和區"
"235039","097-UM","2018/05/18 18:29:31","新北市中和區宜安路54號","121.511941666667","24.9968233333333","6500300","中和區"
"235040","150-BY","2018/05/18 18:29:41","新北市中和區安平路38號","121.50977","24.9949583333333","6500300","中和區"
"235058","151-BY","2018/05/18 18:29:42","新北市中和區圓通路369巷30弄16號","121.489565","24.985235","6500300","中和區"
"235055","183-VK","2018/05/18 18:29:38","新北市中和區莒光路122號","121.472483333333","25.0017583333333","6500300","中和區"
"235038","185-VK","2018/05/18 18:29:43","新北市中和區自強路48號","121.520106666667","24.9949483333333","6500300","中和區"
"235049","186-VK","2018/05/18 18:29:42","新北市中和區景平路357號","121.50463","24.99336","6500300","中和區"
"235067","255-BX","2018/05/18 18:29:38","新北市中和區新生街165號","121.48365","25.00106","6500300","中和區"
"235072","301-VK","2018/05/18 18:29:47","新北市中和區錦和路168號","121.489903333333","24.9957783333333","6500300","中和區"
"235043","352-BY","2018/05/18 18:29:24","新北市中和區景平路303號","121.506611666667","24.99323","6500300","中和區"
"235061","378-QA","2018/05/18 18:29:31","新北市中和區民治街29巷2弄6號","121.475596666667","25.0007633333333","6500300","中和區"
"235050","4979-A6","2018/05/18 18:29:23","新北市中和區景新街320號","121.511665","24.9914133333333","6500300","中和區"
"235069","4980-A6","2018/05/18 18:29:30","新北市中和區連城路127巷7-3號","121.496428333333","24.9987683333333","6500300","中和區"
"235042","551-UM","2018/05/18 18:29:39","新北市中和區景平路64巷15號","121.522236666667","24.99139","6500300","中和區"
"235070","558-UM","2018/05/18 18:29:28","新北市中和區圓通路78號","121.499998333333","24.9970883333333","6500300","中和區"
"235045","565-BX","2018/05/18 18:29:43","新北市中和區南山路236巷24弄21號","121.50494","24.9890083333333","6500300","中和區"
"235054","640-BX","2018/05/18 18:29:43","新北市中和區民享街89巷4弄4號","121.474996666667","25.001545","6500300","中和區"
"235060","647-TV","2018/05/18 18:29:45","新北市中和區員山路437-3號","121.480703333333","25.0040266666667","6500300","中和區"
"235046","733-UM","2018/05/18 18:29:28","新北市中和區南山路279號","121.50416","24.9923116666667","6500300","中和區"
"235062","800-TS","2018/05/18 18:28:32","新北市中和區景平路989巷1-1號","121.495941666667","25.00533","6500300","中和區"
"235057","801-TS","2018/05/18 18:29:33","新北市中和區民安街178號","121.476426666667","24.9999083333333","6500300","中和區"
"235041","802-TS","2018/05/18 18:29:30","新北市中和區景安路76號","121.505766666667","24.9965016666667","6500300","中和區"
"235052","805-TS","2018/05/18 18:29:40","新北市中和區興南路二段96號","121.505161666667","24.9841483333333","6500300","中和區"
"235048","896-TW","2018/05/18 18:29:43","新北市中和區中正路83號","121.500688333333","24.9934683333333","6500300","中和區"
"235053","900-TW","2018/05/18 18:29:41","新北市中和區民享街457號","121.470421666667","24.9931733333333","6500300","中和區"
"235066","911-UM","2018/05/18 18:29:39","新北市中和區中山路二段120號","121.5028","25.003845","6500300","中和區"
"235051","157-BY","2018/05/18 18:29:29","新北市中和區興南路二段142巷35弄2號","121.502368333333","24.984595","6500300","中和區"
"235037","AAC-213","2018/05/18 18:29:31","新北市中和區景德街91號","121.516121666667","24.9913766666667","6500300","中和區"
"235059","AAC-215","2018/05/18 18:29:29","新北市中和區員山路36巷16-3號","121.485008333333","24.99128","6500300","中和區"
"220065","072-UY","2018/05/18 18:29:33","新北市板橋區華興街91巷4號","121.4565","25.0051933333333","6500100","板橋區"
"220086","073-UY","2018/05/18 18:29:39","新北市板橋區南雅西路一段7巷5號","121.454383333333","25.0040116666667","6500100","板橋區"
"226004","205-ST","2018/05/18 18:29:41","新北市平溪區靜安路二段280號","121.72861","25.0230666666667","6502400","平溪區"
"235065","251-BX","2018/05/18 18:29:28","新北市中和區莊敬路49巷10弄34號","121.503051666667","25.0055","6500300","中和區"
"228002","663-BX","2018/05/18 18:29:33","新北市貢寮區福連里香蘭街16-2號","121.983303333333","25.0216833333333","6502600","貢寮區"
"228001","670-TC","2018/05/18 18:29:39","新北市貢寮區仁理村仁和路160號","121.923175","25.0518983333333","6502600","貢寮區"
"228003","828-UM","2018/05/18 18:29:40","新北市貢寮區和美里和美街44-2號","121.915428333333","25.093965","6502600","貢寮區"
"224006","676-BX","2018/05/18 18:29:40","新北市瑞芳區明燈路二段60號","121.809705","25.1074983333333","6501200","瑞芳區"
"224002","639-TC","2018/05/18 18:29:36","新北市瑞芳區三爪子坑路29巷59號","121.81391","25.1063766666667","6501200","瑞芳區"
"224008","285-BY","2018/05/18 18:29:33","新北市瑞芳區岳王路1巷29號","121.80593","25.1104733333333","6501200","瑞芳區"
"224007","275-VK","2018/05/18 18:29:42","新北市瑞芳區大埔路國宅新村38號","121.76431","25.0998","6501200","瑞芳區"
"224009","273-VK","2018/05/18 18:29:44","新北市瑞芳區五號路96號","121.854673333333","25.110495","6501200","瑞芳區"
"224005","271-BY","2018/05/18 18:29:36","新北市瑞芳區瑞濱路149號","121.818968333333","25.118495","6501200","瑞芳區"
"227011","642-TC","2018/05/18 18:29:28","新北市雙溪區牡丹里牡丹131號","121.850878333333","25.059305","6502500","雙溪區"
"227003","400-TW","2018/05/18 18:29:39","新北市雙溪區魚行里坤溪18-1號","121.873356666667","25.024575","6502500","雙溪區"
"253005","032-BX","2018/05/18 18:29:38","新北市石門區老崩山7號","121.55315","25.2913283333333","6502200","石門區"
"253006","295-VK","2018/05/18 18:29:40","新北市石門區公地47-3號","121.545506666667","25.290165","6502200","石門區"
"222001","KEA-2212","2018/05/18 18:29:40","新北市深坑區北深路一段177號","121.632608333333","25.0108033333333","6501800","深坑區"
"208002","KEA-2872","2018/05/18 18:29:43","新北市金山區民生路45號","121.64213","25.2210866666667","6502700","金山區"
"208003","665-BX","2018/05/18 18:29:27","新北市金山區中山路254號","121.635623333333","25.22388","6502700","金山區"
"208001","761-BX","2018/05/18 18:29:26","新北市金山區文化二路6號","121.636815","25.2246483333333","6502700","金山區"
"251004","009-UM","2018/05/18 18:28:45","新北市八里區龍米路一段261號","121.44883","25.1337533333333","6501000","淡水區"
"251001","011-UM","2018/05/18 18:29:41","新北市淡水區自強路373號","121.464581666667","25.1333316666667","6501000","淡水區"
"251002","012-UM","2018/05/18 18:29:28","新北市淡水區中正東路一段21巷8弄1號","121.452086666667","25.16392","6501000","淡水區"
"251008","181-VK","2018/05/18 18:29:32","新北市淡水區北投子87-3號","121.469203333333","25.1785083333333","6501000","淡水區"
"251010","413-VK","2018/05/18 18:29:36","新北市淡水區沙崙路181巷1號","121.42417","25.18422","6501000","淡水區"
"251012","441-VK","2018/05/18 18:29:32","新北市淡水區北新路一段159號","121.458846666667","25.1823383333333","6501000","淡水區"
"251005","443-VK","2018/05/18 18:29:46","新北市淡水區中正東路35巷6號","121.446266666667","25.168465","6501000","淡水區"
"251006","561-UM","2018/05/18 18:29:35","新北市淡水區中山北路二段167號","121.444293333333","25.1844216666667","6501000","淡水區"
"251011","650-BX","2018/05/18 18:29:40","新北市淡水區中正東路8-1號","121.447778333333","25.166915","6501000","淡水區"
"251003","673-BX","2018/05/18 18:29:36","新北市淡水區北新路169巷35-1號","121.449583333333","25.1800916666667","6501000","淡水區"
"207003","550-UM","2018/05/18 18:29:42","新北市萬里區野柳里港東路74-8號","121.689011666667","25.20514","6502800","萬里區"
"207004","225-TW","2018/05/18 18:29:38","新北市萬里區萬里里瑪鋉路252號","121.689011666667","25.1807","6502800","萬里區"
"252002","178-VK","2018/05/18 18:29:42","新北市三芝區中山路二段38號","121.502961666667","25.2551516666667","6502100","三芝區"
"252003","249-BX","2018/05/18 18:29:32","新北市三芝區後厝里北勢子43號","121.471886666667","25.2525616666667","6502100","三芝區"
"252001","702-TV","2018/05/18 18:29:29","新北市三芝區中興街二段2號","121.498275","25.256665","6502100","三芝區"
"237004","KEA-2597","2018/05/18 18:29:41","新北市三峽區五寮2號","121.379376666667","24.8752116666667","6500900","三峽區"
"237007","153-BY","2018/05/18 18:29:35","新北市三峽區中正路三段178-1號","121.351748333333","24.903585","6500900","三峽區"
"237011","572-TV","2018/05/18 18:29:37","新北市三峽區介壽路三段107號","121.395598333333","24.9396616666667","6500900","三峽區"
"237009","210-TH","2018/05/18 18:29:35","新北市三峽區大同路230號","121.366485","24.925905","6500900","三峽區"
"237013","252-BX","2018/05/18 18:29:35","新北市三峽區光明路69巷31號","121.376971666667","24.929325","6500900","三峽區"
"237012","275-BY","2018/05/18 18:29:35","新北市三峽區三樹路214巷11號","121.379865","24.9418333333333","6500900","三峽區"
"237008","302-VK","2018/05/18 18:29:23","新北市三峽區白雞120號","121.398825","24.9053683333333","6500900","三峽區"
"237014","433-BY","2018/05/18 18:29:29","新北市三峽區文化路59-1號","121.372373333333","24.9360316666667","6500900","三峽區"
"237006","5529-G3","2018/05/18 18:29:42","新北市三峽區溪東路315巷34號","121.411146666667","24.9310833333333","6500900","三峽區"
"237015","649-BX","2018/05/18 18:29:45","新北市三峽區紫微路3號","121.426588333333","24.9225283333333","6500900","三峽區"
"237010","706-TV","2018/05/18 18:29:40","新北市三峽區復興路239-1號","121.36796","24.9389333333333","6500900","三峽區"
"237005","AKY-6261","2018/05/18 18:29:31","新北市三峽區清水街341號","121.37101","24.93374","6500900","三峽區"
"236069","105-UM","2018/05/18 18:29:37","新北市土城區永豐路255巷12號","121.475381666667","24.973105","6501300","土城區"
"236042","107-UM","2018/05/18 18:29:43","新北市土城區裕民路67巷14號","121.449841666667","24.9879933333333","6501300","土城區"
"236079","166-UM","2018/05/18 18:29:28","新北市土城區大暖路57號","121.422365","24.958555","6501300","土城區"
"236030","253-BX","2018/05/18 18:29:29","新北市土城區水源街81巷6號","121.439458333333","24.97631","6501300","土城區"
"236026","269-VK","2018/05/18 18:29:33","新北市土城區南天母路137-4號","121.447736666667","24.9541616666667","6501300","土城區"
"236014","270-VK","2018/05/18 18:29:28","新北市土城區青雲路39巷7號","121.460293333333","24.9874233333333","6501300","土城區"
"236039","271-VK","2018/05/18 18:29:37","新北市土城區青雲路453號","121.458858333333","24.9746483333333","6501300","土城區"
"236020","401-BY","2018/05/18 18:29:27","新北市土城區永豐路202巷7-1號","121.466181666667","24.98334","6501300","土城區"
"236059","912-UM","2018/05/18 18:29:29","新北市土城區中央路四段131號","121.416106666667","24.957505","6501300","土城區"
"236048","913-UM","2018/05/18 18:29:33","新北市土城區明德路一段309號","121.459621666667","24.977155","6501300","土城區"
"236063","915-UM","2018/05/18 18:29:45","新北市土城區延壽路75巷14號","121.468703333333","24.991885","6501300","土城區"
"236055","AAC-216","2018/05/18 18:29:44","新北市土城區中華路二段61號","121.439503333333","24.97883","6501300","土城區"
"242058","986-R7","2018/05/18 18:29:34","新北市新莊區中正路897-10號","121.411603333333","25.021655","6500500","新莊區"
"242054","751-BX","2018/05/18 18:29:38","新北市新莊區大安路10巷5號","121.430751666667","25.0065116666667","6500500","新莊區"
"242025","613-BX","2018/05/18 18:29:30","新北市新莊區中央路232號","121.45479","25.05921","6500500","新莊區"
"242041","566-BX","2018/05/18 18:29:36","新北市新莊區天祥街87號","121.415316666667","25.0294533333333","6500500","新莊區"
"242056","440-UM","2018/05/18 18:29:30","新北市新莊區瓊泰路77巷16號","121.442625","25.0290966666667","6500500","新莊區"
"242007","413-TV","2018/05/18 18:29:41","新北市新莊區新泰路355號","121.44454","25.0424183333333","6500500","新莊區"
"242060","353-BY","2018/05/18 18:29:46","新北市新莊區富國路176巷5號","121.424225","25.0241583333333","6500500","新莊區"
"242009","132-UY","2018/05/18 18:29:24","新北市新莊區中平路82巷5號","121.44513","25.0448783333333","6500500","新莊區"
"242021","348-TH","2018/05/18 18:27:31","新北市新莊區中正路338號","121.445186666667","25.03508","6500500","新莊區"
"238015","755-BX","2018/05/18 18:29:32","新北市樹林區大安路493號","121.414578333333","24.9866966666667","6500700","樹林區"
"238019","599-UM","2018/05/18 18:29:44","新北市樹林區中華路190-16號","121.411676666667","24.98068","6500700","樹林區"
"238018","571-TV","2018/05/18 18:29:35","新北市樹林區樹新路85號","121.42773","24.9953983333333","6500700","樹林區"
"238024","5061-A6","2018/05/18 18:29:37","新北市樹林區中山路二段110號","121.414203333333","24.9834333333333","6500700","樹林區"
"238025","303-VK","2018/05/18 18:29:24","新北市樹林區保安街一段198號","121.421318333333","24.9957983333333","6500700","樹林區"
"238017","283-BY","2018/05/18 18:29:46","新北市樹林區保安街二段333巷8號","121.411893333333","25.0075433333333","6500700","樹林區"
"238014","282-BY","2018/05/18 18:03:22","新北市樹林區中正路55巷13號","121.426208333333","24.999405","6500700","樹林區"
"238020","268-VK","2018/05/18 18:29:41","新北市樹林區俊興街277號","121.418223333333","25.0182483333333","6500700","樹林區"
"238026","172-UY","2018/05/18 18:29:26","新北市樹林區育德街78-1號","121.387598333333","24.9681566666667","6500700","樹林區"
"238016","169-UY","2018/05/18 18:29:24","新北市樹林區文化街28號","121.41929","24.987705","6500700","樹林區"
"239006","891-R6","2018/05/18 18:29:26","新北市鶯歌區鶯桃路296巷46-3號","121.335801666667","24.9613","6500800","鶯歌區"
"239008","527-UM","2018/05/18 18:29:34","新北市鶯歌區國際一路179號","121.336235","24.9765466666667","6500800","鶯歌區"
"239005","526-UM","2018/05/18 18:29:41","新北市鶯歌區鳳吉一街170號","121.32902","24.9755433333333","6500800","鶯歌區"
"239001","417-VK","2018/05/18 18:27:10","新北市鶯歌區光照街23號","121.337345","24.9399233333333","6500800","鶯歌區"
"239003","360-BY","2018/05/18 18:29:38","新北市鶯歌區鶯桃路466號","121.332448333333","24.9654916666667","6500800","鶯歌區"
"239002","359-BY","2018/05/18 18:29:37","新北市鶯歌區中正一路329號","121.3572","24.9571266666667","6500800","鶯歌區"
"239004","193-VK","2018/05/18 18:29:42","新北市鶯歌區國中街183號","121.3391","24.9396283333333","6500800","鶯歌區"
"221008","489-VK","2018/05/18 18:29:31","新北市汐止區康寧街901號","121.651306666667","25.07506","6501100","汐止區"
"221036","130-UY","2018/05/18 18:29:46","新北市汐止區南昌街27號","121.663216666667","25.0692066666667","6501100","汐止區"
"221015","131-UY","2018/05/18 18:29:43","新北市汐止區吉祥街26號","121.667785","25.08108","6501100","汐止區"
"221010","269-BY","2018/05/18 18:29:39","新北市汐止區瑞松街10號","121.645176666667","25.1048133333333","6501100","汐止區"
"221012","278-VK","2018/05/18 18:29:40","新北市汐止區保長路102號","121.675455","25.0780833333333","6501100","汐止區"
"221023","279-VK","2018/05/18 18:29:45","新北市汐止區康寧街534巷18號","121.63437","25.06887","6501100","汐止區"
"221032","280-BY","2018/05/18 18:29:40","新北市汐止區福山街62巷10號","121.61825","25.0465633333333","6501100","汐止區"
"221027","281-BY","2018/05/18 18:29:38","新北市汐止區和平街67號","121.661546666667","25.070725","6501100","汐止區"
"221029","298-VK","2018/05/18 18:29:32","新北市汐止區樟樹一路272-7號","121.642706666667","25.0689383333333","6501100","汐止區"
"221021","299-VK","2018/05/18 18:29:29","新北市汐止區水源路一段115號","121.656353333333","25.0630266666667","6501100","汐止區"
"221031","353-TW","2018/05/18 18:29:43","新北市汐止區大同路一段302巷42號","121.636873333333","25.05609","6501100","汐止區"
"221035","622-UM","2018/05/18 18:29:39","新北市汐止區大同路二段43號","121.647998333333","25.0631516666667","6501100","汐止區"
"221025","623-UM","2018/05/18 18:29:27","新北市汐止區仁愛路122巷14號","121.663316666667","25.0633716666667","6501100","汐止區"
"221038","646-BX","2018/05/18 18:29:25","新北市汐止區汐萬路一段143號","121.65345","25.0711633333333","6501100","汐止區"
"221033","647-BX","2018/05/18 18:29:39","台北市南港區舊莊街一段199巷16弄12號","121.623921666667","25.0388583333333","6501100","汐止區"
"221002","707-TV","2018/05/18 18:29:28","新北市汐止區福德一路146號","121.636666666667","25.0669066666667","6501100","汐止區"
"221018","753-BX","2018/05/18 18:29:30","新北市汐止區茄苳路250巷13號","121.671558333333","25.0678233333333","6501100","汐止區"
"242002","KEA-2550","2018/05/18 18:29:28","新北市新莊區新莊路751巷124號","121.442445","25.0298366666667","6500500","新莊區"
"220082","610-BX","2018/05/18 18:29:36","新北市板橋區華東街1-10號","121.448253333333","24.9949816666667","6500100","板橋區"
"220084","296-UM","2018/05/18 18:29:29","新北市板橋區華東街1-10號","121.448315","24.9950066666667","6500100","板橋區"
"242044","281-VK","2018/05/18 18:29:23","新北市新莊區中正路887-19號","121.41598","25.0241516666667","6500500","新莊區"
"242046","280-VK","2018/05/18 18:29:40","新北市新莊區中正路803巷39號","121.422023333333","25.0277633333333","6500500","新莊區"
"220035","560-BX","2018/05/18 18:29:35","新北市板橋區南雅西路一段7巷5號","121.454391666667","25.0040383333333","6500100","板橋區"
"220071","568-UM","2018/05/18 18:29:28","新北市板橋區華東街1-9號","121.448108333333","24.9948833333333","6500100","板橋區"
"220074","630-UY","2018/05/18 18:29:27","新北市板橋區華東街1-10號","121.448225","24.9949983333333","6500100","板橋區"
"220057","686-BX","2018/05/18 18:29:36","新北市板橋區華東街1-9號","121.448226666667","24.9949033333333","6500100","板橋區"
"220077","687-BX","2018/05/18 18:29:27","新北市板橋區華東街1-10號","121.44833","24.994955","6500100","板橋區"
"220054","741-BX","2018/05/18 18:29:32","新北市板橋區華東街1-9號","121.448158333333","24.99495","6500100","板橋區"
"220067","829-TW","2018/05/18 18:29:43","新北市板橋區民生路二段120號","121.470663333333","25.0196566666667","6500100","板橋區"
"235068","KEA-2873","2018/05/18 18:29:16","新北市中和區圓通路284號","121.491458333333","24.9905983333333","6500300","中和區"
