"lineid","car","time","location","longitude","latitude","cityid","cityname"
"234046","148-BY","2018/05/18 18:39:32","新北市永和區秀朗路二段66巷8號","121.52269","25.0009016666667","6500400","永和區"
"234007","207-UY","2018/05/18 18:39:26","新北市永和區文化路170號","121.511818333333","25.01559","6500400","永和區"
"234081","298-R6","2018/05/18 18:39:36","新北市永和區林森路83號","121.523871666667","25.0038033333333","6500400","永和區"
"234038","336-UY","2018/05/18 18:39:35","新北市永和區福和路1號","121.526668333333","25.0100816666667","6500400","永和區"
"234064","337-UY","2018/05/18 18:39:23","新北市永和區福和路1號","121.526648333333","25.0100616666667","6500400","永和區"
"234070","552-UM","2018/05/18 18:39:35","新北市永和區福和路1號","121.526341666667","25.00997","6500400","永和區"
"234017","745-BX","2018/05/18 18:39:26","新北市永和區福和路1號","121.526343333333","25.009605","6500400","永和區"
"234030","746-BX","2018/05/18 18:39:33","新北市永和區得和路321號","121.523366666667","24.9996166666667","6500400","永和區"
"234013","KEA-2591","2018/05/18 18:39:33","新北市永和區信義路90號","121.512456666667","25.0136","6500400","永和區"
"234042","862-TW","2018/05/18 18:39:29","新北市永和區永和路一段22號","121.512906666667","25.0047416666667","6500400","永和區"
"234050","863-TW","2018/05/18 18:39:23","新北市永和區福和路1號","121.526466666667","25.0097266666667","6500400","永和區"
"234026","9371-KE","2018/05/18 18:39:29","新北市永和區永貞路339號","121.50952","25.0071683333333","6500400","永和區"
"234011","9373-KE","2018/05/18 18:39:27","新北市永和區文化路9巷22弄18號","121.514815","25.0146","6500400","永和區"
"249005","172-UM","2018/05/18 18:39:44","新北市八里區中華路三段196號","121.388141666667","25.12557","6502300","八里區"
"249001","173-UM","2018/05/18 18:39:35","新北市八里區龍米路一段366號","121.451533333333","25.131465","6502300","八里區"
"249004","303-UY","2018/05/18 18:39:35","新北市八里區忠四街49號","121.42505","25.1611966666667","6502300","八里區"
"249002","305-UY","2018/05/18 18:39:37","新北市八里區龍形一街33巷6-2號","121.44934","25.1294833333333","6502300","八里區"
"248016","026-BX","2018/05/18 18:39:39","新北市五股區凌雲路一段149巷42號","121.44861","25.1008966666667","6501500","五股區"
"248008","095-VK","2018/05/18 18:39:43","新北市五股區中興路一段140巷4號","121.465058333333","25.07417","6501500","五股區"
"248018","225-UY","2018/05/18 18:39:40","新北市五股區民義路二段83號","121.408463333333","25.1060716666667","6501500","五股區"
"248012","247-BX","2018/05/18 18:39:32","新北市五股區成泰路三段2巷1-12號","121.441286666667","25.0867233333333","6501500","五股區"
"248014","261-SL","2018/05/18 18:39:27","新北市五股區成泰路一段219-1號","121.435343333333","25.0773183333333","6501500","五股區"
"248010","272-BY","2018/05/18 18:39:45","新北市五股區明德路6號","121.433846666667","25.07127","6501500","五股區"
"248004","677-BX","2018/05/18 18:39:30","新北市五股區民義路一段245-2號","121.429145","25.0904266666667","6501500","五股區"
"248002","678-BX","2018/05/18 18:39:28","新北市五股區西雲路213號","121.448706666667","25.0967333333333","6501500","五股區"
"234023","9380-KE","2018/05/18 18:39:29","新北市永和區福和路1號","121.5256","25.0093783333333","6500400","永和區"
"234077","969-R7","2018/05/18 18:39:38","新北市永和區中正路279號","121.517623333333","25.0010033333333","6500400","永和區"
"234074","AAC-211","2018/05/18 18:39:39","新北市永和區福和路1號","121.526231666667","25.0096716666667","6500400","永和區"
"234067","AAC-212","2018/05/18 18:39:38","新北市永和區安樂路250號","121.514618333333","25.0036516666667","6500400","永和區"
"234001","AAC-295","2018/05/18 18:39:30","新北市永和區福和路1號","121.526561666667","25.01001","6500400","永和區"
"244013","069-UM","2018/05/18 18:39:30","新北市林口區中山路262-1號","121.384608333333","25.0799233333333","6501700","林口區"
"244007","080-UY","2018/05/18 18:39:37","新北市林口區太平嶺10-1號","121.379303333333","25.1144416666667","6501700","林口區"
"244019","403-UM","2018/05/18 18:39:40","新北市林口區忠孝路646巷29號","121.37912","25.0672783333333","6501700","林口區"
"244009","410-SL","2018/05/18 18:39:42","新北市林口區竹林路278巷18號","121.39082","25.0811816666667","6501700","林口區"
"244023","483-VK","2018/05/18 18:39:45","新北市林口區民享路30號","121.380706666667","25.0805166666667","6501700","林口區"
"244017","485-VK","2018/05/18 18:39:41","新北市林口區文化二路一段86號","121.366338333333","25.0695883333333","6501700","林口區"
"244011","657-BX","2018/05/18 18:39:36","新北市林口區中山路158號","121.390678333333","25.078765","6501700","林口區"
"244025","837-TS","2018/05/18 18:39:33","新北市林口區南勢街228號","121.359433333333","25.075165","6501700","林口區"
"244021","838-TS","2018/05/18 18:39:42","新北市林口區工六路17號","121.400105","25.0775183333333","6501700","林口區"
"243013","AAD-798","2018/05/18 18:26:33","新北市泰山區明志路三段206巷3號","121.423335","25.0379533333333","6501600","泰山區"
"243016","380-SR","2018/05/18 18:39:29","新北市泰山區黎明路3號","121.421155","25.0633383333333","6501600","泰山區"
"243015","421-VK","2018/05/18 18:39:36","新北市泰山區犁頭窠3-1號","121.422171666667","25.0605766666667","6501600","泰山區"
"243012","646-TV","2018/05/18 18:39:40","新北市泰山區泰林路二段214號","121.433068333333","25.061675","6501600","泰山區"
"222003","436-BY","2018/05/18 18:39:39","新北市深坑區翠谷街14號","121.627008333333","25.008545","6501800","深坑區"
"222002","659-BX","2018/05/18 18:39:37","新北市深坑區文山路一段62巷10號","121.622028333333","25.0010683333333","6501800","深坑區"
"231041","002-UM","2018/05/18 18:39:39","新北市新店區安華路28-1號","121.519621666667","24.960805","6500600","新店區"
"231059","046-UY","2018/05/18 18:39:26","新北市新店區安華路28-1號","121.519551666667","24.9608066666667","6500600","新店區"
"231040","047-UY","2018/05/18 18:39:27","新北市新店區安華路28-1號","121.519281666667","24.9608566666667","6500600","新店區"
"231044","106-UY","2018/05/18 18:39:35","新北市新店區安康路一段231號","121.52528","24.963175","6500600","新店區"
"231046","107-UY","2018/05/18 18:39:44","新北市新店區直潭二街1號","121.535551666667","24.9432283333333","6500600","新店區"
"231053","108-UY","2018/05/18 18:39:43","新北市新店區長興路24號","121.546643333333","24.9397533333333","6500600","新店區"
"231048","187-VK","2018/05/18 18:39:28","新北市新店區安一路一段1-1號","121.519743333333","24.9612483333333","6500600","新店區"
"231057","188-VK","2018/05/18 18:39:36","新北市新店區新烏路一段215號","121.549325","24.9313816666667","6500600","新店區"
"231054","KEA-2219","2018/05/18 18:39:31","新北市新店區安一路一段1-1號","121.519688333333","24.9613116666667","6500600","新店區"
"231042","268-BY","2018/05/18 18:39:31","新北市新店區安華路3號","121.519208333333","24.9597616666667","6500600","新店區"
"231051","278-BY","2018/05/18 18:39:32","新北市新店區中央路179-1號","121.535613333333","24.96921","6500600","新店區"
"231050","AAD-862","2018/05/18 18:39:33","新北市新店區安一路一段1-1號","121.519831666667","24.9611266666667","6500600","新店區"
"231058","3713-VJ","2018/05/18 18:39:31","新北市新店區北宜路一段168號","121.540531666667","24.9530166666667","6500600","新店區"
"231066","4716-K9","2018/05/18 18:39:27","新北市新店區安一路一段1-1號","121.519366666667","24.9612816666667","6500600","新店區"
"231056","4715-K9","2018/05/18 18:39:41","新北市新店區建國路215號","121.537618333333","24.9805133333333","6500600","新店區"
"231067","4772-VM","2018/05/18 18:39:39","新北市新店區安康路一段96號","121.527563333333","24.9622766666667","6500600","新店區"
"231065","512-UM","2018/05/18 18:39:33","新北市新店區安一路一段1-1號","121.51933","24.961255","6500600","新店區"
"231049","513-UM","2018/05/18 18:39:36","新北市新店區安一路一段1-1號","121.51964","24.9610966666667","6500600","新店區"
"231063","616-UM","2018/05/18 18:39:43","新北市新店區安華路1-1號","121.519451666667","24.9604916666667","6500600","新店區"
"231045","617-UM","2018/05/18 18:39:32","新北市新店區安華路28-1號","121.519498333333","24.9608316666667","6500600","新店區"
"231061","619-UM","2018/05/18 18:39:29","新北市新店區安華路28-1號","121.519655","24.960825","6500600","新店區"
"231064","719-UM","2018/05/18 18:39:43","新北市新店區安一路一段1-1號","121.519493333333","24.961075","6500600","新店區"
"231062","720-UM","2018/05/18 18:39:39","新北市新店區安一路一段1-1號","121.519345","24.96127","6500600","新店區"
"231060","897-TW","2018/05/18 18:39:29","新北市新店區安華路28-1號","121.51958","24.9607933333333","6500600","新店區"
"231043","899-TW","2018/05/18 18:39:25","新北市新店區安華路28-1號","121.519218333333","24.9608683333333","6500600","新店區"
"231055","AKT-0513","2018/05/18 18:39:39","新北市新店區北新路一段271巷34號","121.539911666667","24.967215","6500600","新店區"
"241030","743-BX","2018/05/18 18:39:24","新北市三重區環河南路110-1號","121.498628333333","25.0564916666667","6500200","三重區"
"235064","005-UY","2018/05/18 18:39:26","新北市中和區連城路89巷7號","121.497086666667","24.99943","6500300","中和區"
"235063","006-UY","2018/05/18 18:39:36","新北市中和區連城路268-6號","121.486488333333","24.9963333333333","6500300","中和區"
"235047","031-BX","2018/05/18 18:39:28","新北市中和區興南路二段30巷10號","121.507135","24.9862666666667","6500300","中和區"
"235056","096-UM","2018/05/18 18:39:45","新北市中和區員山路611巷5弄1號","121.47788","25.0110833333333","6500300","中和區"
"235039","097-UM","2018/05/18 18:39:31","新北市永和區安樂路92號","121.514231666667","24.9989833333333","6500300","中和區"
"235040","150-BY","2018/05/18 18:39:41","新北市中和區安平路72號","121.511021666667","24.9962916666667","6500300","中和區"
"235058","151-BY","2018/05/18 18:39:42","新北市中和區員山路24-1號","121.483831666667","24.9855366666667","6500300","中和區"
"235055","183-VK","2018/05/18 18:39:38","新北市中和區中山路三段229巷51號","121.46922","25.0054066666667","6500300","中和區"
"235038","185-VK","2018/05/18 18:39:32","新北市中和區立人街14巷52號","121.518363333333","24.9956733333333","6500300","中和區"
"235049","186-VK","2018/05/18 18:39:42","新北市中和區景安路138號","121.505075","24.99429","6500300","中和區"
"235067","255-BX","2018/05/18 18:39:38","新北市中和區中正路877巷4號","121.484135","25.0040966666667","6500300","中和區"
"235044","293-VK","2018/05/18 18:39:34","新北市中和區復興路280巷9號","121.502221666667","24.9911866666667","6500300","中和區"
"235072","301-VK","2018/05/18 18:39:27","新北市中和區連城路137號","121.495788333333","24.9988983333333","6500300","中和區"
"235043","352-BY","2018/05/18 18:39:44","新北市中和區景平路105號","121.51693","24.991935","6500300","中和區"
"235061","378-QA","2018/05/18 18:39:31","新北市中和區民享街96號","121.474718333333","24.999765","6500300","中和區"
"235050","4979-A6","2018/05/18 18:39:43","新北市中和區四維街40號","121.512365","24.9870383333333","6500300","中和區"
"235069","4980-A6","2018/05/18 18:39:30","新北市中和區連城路99巷73號","121.497465","24.998235","6500300","中和區"
"235042","551-UM","2018/05/18 18:39:33","新北市中和區成功路97巷5弄17號","121.526538333333","24.9922683333333","6500300","中和區"
"235070","558-UM","2018/05/18 18:39:28","新北市中和區景新街129號","121.505853333333","24.997335","6500300","中和區"
"235045","565-BX","2018/05/18 18:39:43","新北市中和區南山路236巷63弄1號","121.503816666667","24.9876483333333","6500300","中和區"
"235054","640-BX","2018/05/18 18:39:43","新北市中和區民享街32巷12號","121.473363333333","25.003255","6500300","中和區"
"235060","647-TV","2018/05/18 18:39:43","新北市中和區中山路三段20號","121.479388333333","25.0060416666667","6500300","中和區"
"235046","733-UM","2018/05/18 18:39:28","新北市中和區忠孝街103號","121.51199","24.98625","6500300","中和區"
"235062","800-TS","2018/05/18 18:28:32","新北市中和區景平路989巷1-1號","121.495941666667","25.00533","6500300","中和區"
"235057","801-TS","2018/05/18 18:39:33","新北市中和區員山路327巷46-1號","121.48035","25.0017883333333","6500300","中和區"
"235041","802-TS","2018/05/18 18:39:30","新北市中和區宜安路150號","121.509361666667","24.9986933333333","6500300","中和區"
"235052","805-TS","2018/05/18 18:39:40","新北市中和區興南路三段57號","121.493533333333","24.9753233333333","6500300","中和區"
"235048","896-TW","2018/05/18 18:39:43","新北市中和區南山路325號","121.505126666667","24.991235","6500300","中和區"
"235053","900-TW","2018/05/18 18:39:41","新北市中和區華安街106號","121.468816666667","24.9952283333333","6500300","中和區"
"235066","911-UM","2018/05/18 18:39:39","新北市中和區光華街44號","121.504926666667","25.0035866666667","6500300","中和區"
"235051","157-BY","2018/05/18 18:39:29","新北市中和區華新街143巷106弄34號","121.506338333333","24.978575","6500300","中和區"
"235037","AAC-213","2018/05/18 18:39:31","新北市中和區景德街40號","121.517811666667","24.99154","6500300","中和區"
"235059","AAC-215","2018/05/18 18:39:29","新北市中和區錦和路350-1號","121.490555","24.9935433333333","6500300","中和區"
"220080","015-TV","2018/05/18 18:39:43","新北市板橋區大觀路二段265巷76弄32號","121.441256666667","24.9967883333333","6500100","板橋區"
"220065","072-UY","2018/05/18 18:39:33","新北市板橋區民族路247巷5弄42號","121.470193333333","25.008475","6500100","板橋區"
"220086","073-UY","2018/05/18 18:39:39","新北市板橋區南雅西路二段192巷1弄48號","121.452608333333","25.015315","6500100","板橋區"
"226004","205-ST","2018/05/18 18:39:41","新北市平溪區平溪里三坑路38號","121.73453","25.0326866666667","6502400","平溪區"
"235065","251-BX","2018/05/18 18:39:28","新北市中和區中山路二段2巷45弄44號","121.501708333333","25.0062883333333","6500300","中和區"
"228002","663-BX","2018/05/18 18:39:33","新北市貢寮區福隆里東興街6-11號","121.950738333333","25.0210566666667","6502600","貢寮區"
"228001","670-TC","2018/05/18 18:39:39","新北市貢寮區仁理村研海街12-1號","121.923751666667","25.0517483333333","6502600","貢寮區"
"228003","828-UM","2018/05/18 18:39:32","新北市貢寮區和美里龍洞街12-2號","121.918263333333","25.11175","6502600","貢寮區"
"224010","AGQ-8101","2018/05/18 18:39:31","新北市瑞芳區崙頂路111號","121.84453","25.1068783333333","6501200","瑞芳區"
"224006","676-BX","2018/05/18 18:39:40","新北市瑞芳區一坑路34-3號","121.803756666667","25.1094883333333","6501200","瑞芳區"
"224002","639-TC","2018/05/18 18:39:36","新北市瑞芳區中山路257號","121.797338333333","25.1098816666667","6501200","瑞芳區"
"224008","285-BY","2018/05/18 18:39:33","新北市瑞芳區瑞芳街52號","121.805853333333","25.1097166666667","6501200","瑞芳區"
"224007","275-VK","2018/05/18 18:39:42","新北市瑞芳區大埔路115巷6號","121.763248333333","25.101125","6501200","瑞芳區"
"224009","273-VK","2018/05/18 18:39:41","新北市瑞芳區祈堂路2號","121.859403333333","25.11142","6501200","瑞芳區"
"224005","271-BY","2018/05/18 18:39:36","新北市瑞芳區瑞濱路7號","121.827088333333","25.121655","6501200","瑞芳區"
"227011","642-TC","2018/05/18 18:39:28","新北市雙溪區牡丹里下坑11號","121.85103","25.0562066666667","6502500","雙溪區"
"227003","400-TW","2018/05/18 18:39:39","新北市雙溪區魚行里坤溪5號","121.87427","25.0222216666667","6502500","雙溪區"
"253005","032-BX","2018/05/18 18:39:38","新北市石門區中山路33號","121.567201666667","25.2909616666667","6502200","石門區"
"253006","295-VK","2018/05/18 18:39:40","新北市石門區崁子腳1-1號","121.53183","25.288045","6502200","石門區"
"222001","KEA-2212","2018/05/18 18:39:40","新北市深坑區北深路一段84號","121.636226666667","25.010765","6501800","深坑區"
"208002","KEA-2872","2018/05/18 18:39:43","新北市金山區仁愛路15-7號","121.63837","25.2187516666667","6502700","金山區"
"208003","665-BX","2018/05/18 18:39:27","新北市金山區中山路393號","121.633433333333","25.2252666666667","6502700","金山區"
"208001","761-BX","2018/05/18 18:39:26","新北市金山區文化三路7號","121.63509","25.2249033333333","6502700","金山區"
"251004","009-UM","2018/05/18 18:39:25","新北市淡水區中正東路二段161巷11弄10號","121.461531666667","25.14593","6501000","淡水區"
"251001","011-UM","2018/05/18 18:39:47","新北市淡水區自強路419號","121.465576666667","25.134285","6501000","淡水區"
"251002","012-UM","2018/05/18 18:39:28","新北市淡水區中正東路一段3巷14弄1號","121.450973333333","25.1641733333333","6501000","淡水區"
"251008","181-VK","2018/05/18 18:39:31","新北市淡水區北投子17-3號","121.453425","25.1832","6501000","淡水區"
"251010","413-VK","2018/05/18 18:39:36","新北市淡水區沙崙路122號","121.423335","25.18281","6501000","淡水區"
"251012","441-VK","2018/05/18 18:39:32","新北市淡水區北新路121號","121.448975","25.1786833333333","6501000","淡水區"
"251005","443-VK","2018/05/18 18:39:26","新北市淡水區馬偕街28-9號","121.437605","25.1729533333333","6501000","淡水區"
"251006","561-UM","2018/05/18 18:39:35","新北市淡水區崁頂61號","121.44015","25.2007266666667","6501000","淡水區"
"251011","650-BX","2018/05/18 18:39:40","新北市淡水區鄧公路36巷1號","121.45739","25.1689583333333","6501000","淡水區"
"251003","673-BX","2018/05/18 18:39:36","新北市淡水區北新路69巷26號","121.446703333333","25.1801133333333","6501000","淡水區"
"207003","550-UM","2018/05/18 18:39:42","新北市萬里區野柳里八斗60號","121.660341666667","25.20724","6502800","萬里區"
"207004","225-TW","2018/05/18 18:39:30","新北市萬里區萬里里獅頭路12-4號","121.6928","25.1793083333333","6502800","萬里區"
"252002","178-VK","2018/05/18 18:39:42","新北市三芝區民生街64巷1號","121.50343","25.25543","6502100","三芝區"
"252003","249-BX","2018/05/18 18:39:32","新北市三芝區後厝里土地公坑73-17號","121.459838333333","25.2471316666667","6502100","三芝區"
"252001","702-TV","2018/05/18 18:39:29","新北市三芝區中興街二段260號","121.501888333333","25.2529383333333","6502100","三芝區"
"237004","KEA-2597","2018/05/18 18:39:41","新北市三峽區插角232號","121.413603333333","24.868765","6500900","三峽區"
"237007","153-BY","2018/05/18 18:39:35","新北市三峽區柑樹路2巷52號","121.361833333333","24.9050816666667","6500900","三峽區"
"237011","572-TV","2018/05/18 18:39:37","新北市三峽區介壽路三段231-2號","121.404628333333","24.9459866666667","6500900","三峽區"
"237009","210-TH","2018/05/18 18:39:35","新北市三峽區弘園街26號","121.366531666667","24.9274016666667","6500900","三峽區"
"237013","252-BX","2018/05/18 18:39:35","新北市三峽區光明路69巷31號","121.376871666667","24.92921","6500900","三峽區"
"237012","275-BY","2018/05/18 18:39:35","新北市三峽區三樹路340號","121.38397","24.9433433333333","6500900","三峽區"
"237008","302-VK","2018/05/18 18:39:43","新北市三峽區白雞57-8號","121.389568333333","24.9120383333333","6500900","三峽區"
"237014","433-BY","2018/05/18 18:39:29","新北市三峽區和平街111號","121.37042","24.9382833333333","6500900","三峽區"
"237006","5529-G3","2018/05/18 18:39:42","新北市三峽區溪東路233巷4弄17號","121.407216666667","24.9338733333333","6500900","三峽區"
"237015","649-BX","2018/05/18 18:39:45","新北市三峽區安坑12-3號","121.442456666667","24.92632","6500900","三峽區"
"237010","706-TV","2018/05/18 18:39:40","新北市三峽區國光街322號","121.372045","24.93942","6500900","三峽區"
"237005","AKY-6261","2018/05/18 18:39:31","新北市三峽區新興街13號","121.372733333333","24.9356383333333","6500900","三峽區"
"236069","105-UM","2018/05/18 18:39:37","新北市土城區永豐路157巷29弄6-1號","121.468378333333","24.98149","6501300","土城區"
"236042","107-UM","2018/05/18 18:39:43","新北市土城區裕民路55巷17號","121.449336666667","24.9887883333333","6501300","土城區"
"236079","166-UM","2018/05/18 18:39:46","新北市土城區頂埔街34號","121.417163333333","24.95892","6501300","土城區"
"236030","253-BX","2018/05/18 18:39:29","新北市土城區中華路二段187號","121.438556666667","24.97458","6501300","土城區"
"236026","269-VK","2018/05/18 18:39:33","新北市土城區忠義路49號","121.440508333333","24.96916","6501300","土城區"
"236014","270-VK","2018/05/18 18:39:28","新北市土城區清水路207巷17號","121.459803333333","24.98234","6501300","土城區"
"236039","271-VK","2018/05/18 18:39:38","新北市土城區明德路一段291巷5號","121.460311666667","24.9769283333333","6501300","土城區"
"236020","401-BY","2018/05/18 18:39:46","新北市土城區延吉街260號","121.466115","24.98452","6501300","土城區"
"236059","912-UM","2018/05/18 18:39:29","新北市土城區中央路三段196號","121.430395","24.964845","6501300","土城區"
"236048","913-UM","2018/05/18 18:39:30","新北市土城區金城路二段356號","121.461251666667","24.9851433333333","6501300","土城區"
"236063","915-UM","2018/05/18 18:39:45","新北市土城區延和路125巷41號","121.469241666667","24.9913983333333","6501300","土城區"
"236055","AAC-216","2018/05/18 18:39:44","新北市土城區中華路一段23號","121.446946666667","24.989175","6501300","土城區"
"242058","986-R7","2018/05/18 18:39:41","新北市新莊區中正路881-13號","121.417156666667","25.0250116666667","6500500","新莊區"
"242054","751-BX","2018/05/18 18:39:32","新北市新莊區樹新路120巷45號","121.430118333333","24.996005","6500500","新莊區"
"238015","755-BX","2018/05/18 18:39:32","新北市樹林區備內街79號","121.409136666667","24.9895333333333","6500700","樹林區"
"238019","599-UM","2018/05/18 18:39:24","新北市樹林區中華路190-16號","121.411703333333","24.9806233333333","6500700","樹林區"
"238018","571-TV","2018/05/18 18:39:35","新北市樹林區樹新路40-1號","121.427833333333","24.9951366666667","6500700","樹林區"
"238024","5061-A6","2018/05/18 18:39:37","新北市樹林區太順街49巷1號","121.418018333333","24.9789983333333","6500700","樹林區"
"238022","KEA-2213","2018/05/18 18:39:42","新北市樹林區中華路379巷7號","121.412828333333","24.9793316666667","6500700","樹林區"
"238025","303-VK","2018/05/18 18:39:44","新北市樹林區中山路三段22號","121.395611666667","24.9729366666667","6500700","樹林區"
"238017","283-BY","2018/05/18 18:39:44","新北市樹林區光榮街79號","121.412028333333","25.002975","6500700","樹林區"
"238020","268-VK","2018/05/18 18:39:41","新北市樹林區三俊街250-1號","121.421308333333","25.0146033333333","6500700","樹林區"
"238026","172-UY","2018/05/18 18:39:06","新北市樹林區信和街136號","121.38725","24.97395","6500700","樹林區"
"238016","169-UY","2018/05/18 18:39:44","新北市樹林區文化街28號","121.419246666667","24.9877033333333","6500700","樹林區"
"239006","891-R6","2018/05/18 18:39:26","新北市鶯歌區鶯桃路296巷46-3號","121.335831666667","24.9612933333333","6500800","鶯歌區"
"239008","527-UM","2018/05/18 18:39:34","新北市鶯歌區晨曦街37號","121.338135","24.97708","6500800","鶯歌區"
"239005","526-UM","2018/05/18 18:39:41","新北市鶯歌區鳳吉一街48號","121.326253333333","24.9738666666667","6500800","鶯歌區"
"239001","417-VK","2018/05/18 18:39:30","新北市鶯歌區尖山埔路二段15號","121.342585","24.9491833333333","6500800","鶯歌區"
"239003","360-BY","2018/05/18 18:39:38","新北市鶯歌區永和街181號","121.33589","24.97044","6500800","鶯歌區"
"239002","359-BY","2018/05/18 18:39:37","新北市鶯歌區中山路300號","121.343008333333","24.9569333333333","6500800","鶯歌區"
"239004","193-VK","2018/05/18 18:39:41","新北市鶯歌區中正三路247巷50弄1號","121.33316","24.9375166666667","6500800","鶯歌區"
"221008","489-VK","2018/05/18 18:39:31","新北市汐止區康寧街901號","121.651386666667","25.075025","6501100","汐止區"
"221036","130-UY","2018/05/18 18:39:46","新北市汐止區忠孝東路340號","121.665183333333","25.0695366666667","6501100","汐止區"
"221015","131-UY","2018/05/18 18:39:23","新北市汐止區鄉長路一段295號","121.669316666667","25.079425","6501100","汐止區"
"221010","269-BY","2018/05/18 18:39:39","新北市汐止區汐萬路三段246號","121.643698333333","25.095965","6501100","汐止區"
"221012","278-VK","2018/05/18 18:39:40","新北市汐止區長江街11號","121.654758333333","25.071245","6501100","汐止區"
"221023","279-VK","2018/05/18 18:39:45","新北市汐止區康寧街536號","121.634693333333","25.06947","6501100","汐止區"
"221032","280-BY","2018/05/18 18:39:40","新北市汐止區民權街二段93號","121.619071666667","25.0475083333333","6501100","汐止區"
"221027","281-BY","2018/05/18 18:39:27","新北市汐止區汐萬路一段144-1號","121.653098333333","25.0711033333333","6501100","汐止區"
"221029","298-VK","2018/05/18 18:39:32","新北市汐止區樟樹一路133巷1號","121.642128333333","25.0650766666667","6501100","汐止區"
"221031","353-TW","2018/05/18 18:39:43","新北市汐止區福德一路274號","121.632118333333","25.0639633333333","6501100","汐止區"
"221035","622-UM","2018/05/18 18:39:38","新北市汐止區大同路二段179號","121.651906666667","25.064125","6501100","汐止區"
"221025","623-UM","2018/05/18 18:39:27","新北市汐止區仁愛路119巷18號","121.662195","25.0643133333333","6501100","汐止區"
"221038","646-BX","2018/05/18 18:39:25","新北市汐止區康寧街901號","121.65077","25.07527","6501100","汐止區"
"221033","647-BX","2018/05/18 18:39:39","新北市汐止區南勢街3號","121.627085","25.0374283333333","6501100","汐止區"
"221002","707-TV","2018/05/18 18:39:28","新北市汐止區中興路23號","121.636968333333","25.0596016666667","6501100","汐止區"
"221018","753-BX","2018/05/18 18:39:30","新北市汐止區茄苳路210號","121.670611666667","25.06888","6501100","汐止區"
"220079","145-BY","2018/05/18 18:39:32","新北市板橋區大觀路一段31號","121.449808333333","25.0084983333333","6500100","板橋區"
"220082","610-BX","2018/05/18 18:39:36","新北市板橋區大觀路三段50巷49號","121.432181666667","24.9956783333333","6500100","板橋區"
"220056","276-BY","2018/05/18 18:39:29","新北市板橋區四川路二段140巷16弄23號","121.448523333333","24.994055","6500100","板橋區"
"220072","277-BY","2018/05/18 18:39:29","新北市板橋區大觀路三段50巷49號","121.432255","24.99572","6500100","板橋區"
"220053","285-VK","2018/05/18 18:39:41","新北市板橋區民生路二段161巷1號","121.470201666667","25.019985","6500100","板橋區"
"220083","286-VK","2018/05/18 18:39:35","新北市板橋區大觀路二段153巷46弄1號","121.448501666667","24.998765","6500100","板橋區"
"220081","287-VK","2018/05/18 18:39:29","新北市板橋區板城路421號","121.44818","24.9957583333333","6500100","板橋區"
"220061","293-UM","2018/05/18 18:39:43","新北市板橋區民生路二段161巷1號","121.470238333333","25.0199383333333","6500100","板橋區"
"220084","296-UM","2018/05/18 18:39:29","新北市板橋區大觀路二段153巷44弄53號","121.446011666667","24.998995","6500100","板橋區"
"220075","303-R5","2018/05/18 18:39:36","新北市板橋區華東街328號","121.452723333333","25.0033316666667","6500100","板橋區"
"220064","486-VK","2018/05/18 18:39:36","新北市板橋區縣民大道一段98號","121.456938333333","25.0054616666667","6500100","板橋區"
"220035","560-BX","2018/05/18 18:39:35","新北市板橋區南雅西路二段175巷7號","121.451525","25.012175","6500100","板橋區"
"220071","568-UM","2018/05/18 18:39:28","新北市板橋區華東街1號","121.448608333333","24.9944183333333","6500100","板橋區"
"220074","630-UY","2018/05/18 18:39:27","新北市板橋區南雅南路二段1-1號","121.45467","25.003675","6500100","板橋區"
"220057","686-BX","2018/05/18 18:39:36","新北市板橋區華東街1-9號","121.448221666667","24.994905","6500100","板橋區"
"220077","687-BX","2018/05/18 18:39:27","新北市板橋區大觀路二段156巷37號","121.441006666667","24.99972","6500100","板橋區"
"220054","741-BX","2018/05/18 18:39:32","新北市板橋區華東街1-9號","121.448216666667","24.9949583333333","6500100","板橋區"
"220067","829-TW","2018/05/18 18:39:43","新北市板橋區民生路二段161巷9號","121.470288333333","25.0196033333333","6500100","板橋區"
"220073","985-R7","2018/05/18 18:39:27","新北市板橋區貴興路82號","121.45623","25.0027466666667","6500100","板橋區"
"220070","AAC-253","2018/05/18 18:39:38","新北市板橋區華東街1-10號","121.448271666667","24.9949116666667","6500100","板橋區"
"235068","KEA-2873","2018/05/18 18:39:16","新北市中和區中正路131號","121.499688333333","24.9936383333333","6500300","中和區"
