"lineid","car","time","location","longitude","latitude","cityid","cityname"
"234046","148-BY","2018/05/18 19:39:32","新北市永和區永元路68號","121.522473333333","25.00165","6500400","永和區"
"234007","207-UY","2018/05/18 19:39:47","新北市中和區中和路454號","121.511973333333","25.0036433333333","6500400","永和區"
"234081","298-R6","2018/05/18 19:39:40","新北市永和區林森路46巷1號","121.525008333333","25.0047633333333","6500400","永和區"
"234038","336-UY","2018/05/18 19:39:35","新北市永和區民樂街31巷4號","121.52784","25.00147","6500400","永和區"
"234064","337-UY","2018/05/18 19:39:43","新北市永和區秀朗路一段192巷6弄14號","121.519185","25.0022366666667","6500400","永和區"
"234086","338-UY","2018/05/18 19:39:33","新北市永和區永亨路145號","121.525431666667","25.003935","6500400","永和區"
"234070","552-UM","2018/05/18 19:39:35","新北市永和區永和路二段235號","121.51552","25.01435","6500400","永和區"
"234017","745-BX","2018/05/18 19:39:46","新北市永和區永和路二段425巷57弄7號","121.513583333333","25.0171166666667","6500400","永和區"
"234030","746-BX","2018/05/18 19:39:34","新北市永和區民生路47巷3號","121.523123333333","24.99796","6500400","永和區"
"234054","KEA-2590","2018/05/18 19:39:43","新北市永和區竹林路39巷25號","121.51913","25.0148866666667","6500400","永和區"
"234013","KEA-2591","2018/05/18 19:39:33","新北市永和區永平路218巷1號","121.50926","25.010765","6500400","永和區"
"234061","AAD-866","2018/05/18 19:39:38","新北市永和區中正路446號","121.517445","25.0028866666667","6500400","永和區"
"234042","862-TW","2018/05/18 19:39:29","新北市永和區中和路305巷10弄2號","121.50694","25.0007616666667","6500400","永和區"
"234050","863-TW","2018/05/18 19:39:43","新北市永和區保安路41號","121.509621666667","25.01601","6500400","永和區"
"234026","9371-KE","2018/05/18 19:39:29","新北市永和區中和路501巷5號","121.510465","25.0026583333333","6500400","永和區"
"234011","9373-KE","2018/05/18 19:39:47","新北市永和區保生路55號","121.504716666667","25.0106233333333","6500400","永和區"
"249004","303-UY","2018/05/18 19:39:40","新北市八里區中山路一段276號","121.413891666667","25.159925","6502300","八里區"
"249002","305-UY","2018/05/18 19:39:17","新北市八里區頂寮一街62-1號","121.44964","25.1243383333333","6502300","八里區"
"249003","593-UM","2018/05/18 19:39:43","新北市八里區中華路二段526號","121.39939","25.145585","6502300","八里區"
"248016","026-BX","2018/05/18 19:39:36","新北市五股區成泰路3段651-1號","121.4529","25.105145","6501500","五股區"
"248008","095-VK","2018/05/18 19:39:43","新北市五股區四維路116-2號","121.467896666667","25.074655","6501500","五股區"
"248018","225-UY","2018/05/18 19:22:20","新北市五股區壟路14-9號","121.415341666667","25.0861283333333","6501500","五股區"
"248012","247-BX","2018/05/18 19:39:32","新北市五股區成泰路二段134號","121.438068333333","25.08367","6501500","五股區"
"248014","261-SL","2018/05/18 19:39:48","新北市五股區五福路52巷3弄12號","121.433443333333","25.0904033333333","6501500","五股區"
"248010","272-BY","2018/05/18 19:39:46","新北市五股區自強路99號","121.432275","25.0712416666667","6501500","五股區"
"248004","677-BX","2018/05/18 19:39:29","新北市五股區成泰路二段129號","121.438643333333","25.0848416666667","6501500","五股區"
"248002","678-BX","2018/05/18 19:39:28","新北市五股區成泰路三段577巷49號","121.450718333333","25.1031883333333","6501500","五股區"
"234077","969-R7","2018/05/18 19:39:38","新北市永和區民族街67巷18號","121.519431666667","24.99707","6500400","永和區"
"234074","AAC-211","2018/05/18 19:39:39","新北市永和區竹林路225巷5-1號","121.521273333333","25.00856","6500400","永和區"
"234067","AAC-212","2018/05/18 19:39:38","新北市永和區中山路一段191巷7弄3號","121.50956","25.00845","6500400","永和區"
"234003","AAC-295","2018/05/18 19:39:30","新北市永和區永和路一段23號","121.512911666667","25.005755","6500400","永和區"
"244023","483-VK","2018/05/18 19:39:30","新北市林口區文林六街2-1號","121.370631666667","25.0798133333333","6501700","林口區"
"243013","AAD-798","2018/05/18 19:36:38","新北市泰山區應化街7號","121.423873333333","25.0437233333333","6501600","泰山區"
"243009","297-R6","2018/05/18 19:39:44","新北市泰山區美寧街71號","121.431038333333","25.0647466666667","6501600","泰山區"
"243016","380-SR","2018/05/18 19:39:29","新北市泰山區明志路三段196巷21弄33號","121.422288333333","25.0379666666667","6501600","泰山區"
"243015","421-VK","2018/05/18 19:39:40","新北市泰山區明志路二段237巷19號","121.427948333333","25.0480116666667","6501600","泰山區"
"243011","KEA-2215","2018/05/18 19:39:30","新北市泰山區貴子路67巷4弄8號","121.431098333333","25.0400983333333","6501600","泰山區"
"243010","KEA-2216","2018/05/18 19:39:41","新北市泰山區民生路30號","121.430921666667","25.05221","6501600","泰山區"
"243012","646-TV","2018/05/18 19:39:40","新北市泰山區仁愛路100巷51號","121.433921666667","25.05488","6501600","泰山區"
"243014","680-BX","2018/05/18 19:39:41","新北市泰山區泰林路二段33-8號","121.435101666667","25.05651","6501600","泰山區"
"222003","436-BY","2018/05/18 19:29:23","新北市深坑區深南路51-1號","121.621303333333","25.009825","6501800","深坑區"
"222002","659-BX","2018/05/18 19:39:37","新北市深坑區北深路一段177號","121.6326","25.010865","6501800","深坑區"
"231041","002-UM","2018/05/18 19:39:39","新北市新店區中正路485號","121.533825","24.9819666666667","6500600","新店區"
"231059","046-UY","2018/05/18 19:39:46","新北市新店區安和路三段83號","121.517846666667","24.9837883333333","6500600","新店區"
"231040","047-UY","2018/05/18 19:39:27","新北市新店區中正路75巷71號","121.543163333333","24.9689233333333","6500600","新店區"
"231044","106-UY","2018/05/18 19:39:35","新北市新店區民權路25號","121.541076666667","24.98283","6500600","新店區"
"231046","107-UY","2018/05/18 19:39:44","新北市新店區中正路329巷1弄2號","121.53559","24.9749166666667","6500600","新店區"
"231053","108-UY","2018/05/18 19:39:42","新北市新店區廣興路5巷19號","121.545413333333","24.91457","6500600","新店區"
"231048","187-VK","2018/05/18 19:39:39","新北市新店區五峰路61巷2號","121.547313333333","24.9702083333333","6500600","新店區"
"231057","188-VK","2018/05/18 19:39:36","新北市新店區橘園一路11號","121.547986666667","24.93401","6500600","新店區"
"231054","KEA-2219","2018/05/18 19:39:31","新北市新店區北宜路一段37號","121.538391666667","24.9574466666667","6500600","新店區"
"231042","268-BY","2018/05/18 19:39:31","新北市新店區中興路一段203號","121.543655","24.965535","6500600","新店區"
"231051","278-BY","2018/05/18 19:39:32","新北市新店區中央路210-1號","121.530051666667","24.9735166666667","6500600","新店區"
"231050","AAD-862","2018/05/18 19:39:33","新北市新店區郵政路1號","121.557575","24.9524983333333","6500600","新店區"
"231058","3713-VJ","2018/05/18 19:39:31","新北市新店區北新路二段2號","121.542828333333","24.9708216666667","6500600","新店區"
"231066","4716-K9","2018/05/18 19:39:27","新北市新店區安康路二段341巷23號","121.497225","24.95472","6500600","新店區"
"231056","4715-K9","2018/05/18 19:39:41","新北市新店區安民街121巷12號","121.51537","24.9691783333333","6500600","新店區"
"231067","4772-VM","2018/05/18 19:39:39","新北市新店區精忠路10-1號","121.532655","24.9591333333333","6500600","新店區"
"231065","512-UM","2018/05/18 19:39:33","新北市新店區安祥路109巷85弄39號","121.478673333333","24.95979","6500600","新店區"
"231049","513-UM","2018/05/18 19:39:41","新北市新店區大豐路62號","121.53946","24.9796116666667","6500600","新店區"
"231063","616-UM","2018/05/18 19:39:43","新北市新店區達觀路41號","121.502811666667","24.9383283333333","6500600","新店區"
"231045","617-UM","2018/05/18 19:39:32","新北市新店區北宜路二段431-5號","121.560948333333","24.954355","6500600","新店區"
"231061","619-UM","2018/05/18 19:39:30","新北市新店區安民街33號","121.515816666667","24.965315","6500600","新店區"
"231064","719-UM","2018/05/18 19:39:43","新北市新店區安和路一段51號","121.51757","24.9659316666667","6500600","新店區"
"231062","720-UM","2018/05/18 19:39:47","新北市新店區碧潭路30號","121.534353333333","24.95638","6500600","新店區"
"231060","897-TW","2018/05/18 19:39:29","新北市新店區安康路二段161號","121.510231666667","24.95932","6500600","新店區"
"231043","899-TW","2018/05/18 19:39:45","新北市新店區中正路134號","121.54201","24.97143","6500600","新店區"
"231055","AKT-0513","2018/05/18 19:39:39","新北市新店區力行路30號","121.539063333333","24.9648366666667","6500600","新店區"
"241011","013-R5","2018/05/18 19:39:33","新北市三重區秀江街225號","121.497196666667","25.07156","6500200","三重區"
"241028","022-UY","2018/05/18 19:39:41","新北市三重區中正南路184號","121.494013333333","25.056425","6500200","三重區"
"241008","059-VK","2018/05/18 19:39:29","新北市三重區永福街74號","121.478886666667","25.0766683333333","6500200","三重區"
"241009","060-VK","2018/05/18 19:39:44","新北市三重區三和路四段416號","121.480881666667","25.0799016666667","6500200","三重區"
"241031","061-VK","2018/05/18 19:39:46","新北市三重區重新路四段248號","121.486063333333","25.0533666666667","6500200","三重區"
"241015","062-VK","2018/05/18 19:39:31","新北市三重區福德北路30號","121.502236666667","25.0649916666667","6500200","三重區"
"241017","063-VK","2018/05/18 19:39:30","新北市三重區重陽路三段5巷30號","121.491303333333","25.0654433333333","6500200","三重區"
"241026","066-VK","2018/05/18 19:39:37","新北市三重區文化南路65巷44號","121.498883333333","25.0606183333333","6500200","三重區"
"241003","091-VK","2018/05/18 19:39:32","新北市三重區仁義街395號","121.494458333333","25.085395","6500200","三重區"
"241013","265-UM","2018/05/18 19:39:46","新北市三重區仁賢街9號","121.49591","25.074635","6500200","三重區"
"241022","267-UM","2018/05/18 19:39:43","新北市三重區中正北路162號","121.484585","25.0660016666667","6500200","三重區"
"241007","398-BY","2018/05/18 19:39:45","新北市三重區三和路四段125巷64號","121.48692","25.0784833333333","6500200","三重區"
"241035","KEA-2210","2018/05/18 19:39:35","新北市三重區正義北路61-1號","121.497286666667","25.06454","6500200","三重區"
"241025","413-TH","2018/05/18 19:39:32","新北市三重區頂崁街140號","121.477685","25.0651183333333","6500200","三重區"
"241020","478-VK","2018/05/18 19:39:42","新北市三重區自強路三段43巷19號","121.487741666667","25.0729083333333","6500200","三重區"
"241014","543-UM","2018/05/18 19:39:31","新北市三重區河邊北街84號","121.504211666667","25.0692566666667","6500200","三重區"
"241023","545-UM","2018/05/18 19:39:44","新北市三重區忠孝路三段99巷6號","121.479823333333","25.06423","6500200","三重區"
"241019","KEA-2593","2018/05/18 19:39:37","新北市三重區六張街194巷1弄2號","121.488573333333","25.068065","6500200","三重區"
"241006","AAD-863","2018/05/18 19:39:33","新北市三重區聯華街90號","121.485648333333","25.0752583333333","6500200","三重區"
"241030","743-BX","2018/05/18 19:39:45","新北市三重區新興路27號","121.492265","25.05337","6500200","三重區"
"241012","941-UM","2018/05/18 19:39:44","新北市三重區河邊北街256巷35號","121.500511666667","25.0759483333333","6500200","三重區"
"241029","942-UM","2018/05/18 19:39:35","新北市三重區光明路121號","121.492361666667","25.0566966666667","6500200","三重區"
"235064","005-UY","2018/05/18 19:39:37","新北市中和區南山路24號","121.502006666667","24.998185","6500300","中和區"
"235063","006-UY","2018/05/18 19:39:36","新北市中和區連城路169號","121.495496666667","24.9984016666667","6500300","中和區"
"235047","031-BX","2018/05/18 19:39:27","新北市中和區景平路355號","121.50471","24.993295","6500300","中和區"
"235056","096-UM","2018/05/18 19:39:45","新北市中和區員山路581巷31弄20號","121.476811666667","25.0103633333333","6500300","中和區"
"235039","097-UM","2018/05/18 19:39:31","新北市中和區秀峰街103巷4弄1號","121.520351666667","24.9898733333333","6500300","中和區"
"235040","150-BY","2018/05/18 19:39:41","新北市中和區安平路30號","121.509476666667","24.994675","6500300","中和區"
"235058","151-BY","2018/05/18 19:39:44","新北市中和區連城路372-1號","121.481638333333","24.99545","6500300","中和區"
"235055","183-VK","2018/05/18 19:39:38","新北市中和區中山路三段209號","121.471955","25.006415","6500300","中和區"
"235038","185-VK","2018/05/18 19:39:32","新北市中和區自立路20巷9號","121.521723333333","24.9932633333333","6500300","中和區"
"235049","186-VK","2018/05/18 19:39:42","新北市中和區明禮街16號","121.504843333333","24.9959733333333","6500300","中和區"
"235067","255-BX","2018/05/18 19:39:38","新北市中和區新生街232號","121.483766666667","24.9981783333333","6500300","中和區"
"235044","293-VK","2018/05/18 19:39:35","新北市中和區南山路543號","121.508028333333","24.9867183333333","6500300","中和區"
"235072","301-VK","2018/05/18 19:39:27","新北市中和區中正路432巷36號","121.490776666667","24.99584","6500300","中和區"
"235043","352-BY","2018/05/18 19:39:44","新北市中和區興南路二段75號","121.506661666667","24.9850583333333","6500300","中和區"
"235061","378-QA","2018/05/18 19:39:31","新北市中和區員山路226巷11弄8號","121.482286666667","25.0002066666667","6500300","中和區"
"235050","4979-A6","2018/05/18 19:39:43","新北市中和區錦和路350-1號","121.490358333333","24.9935683333333","6500300","中和區"
"235042","551-UM","2018/05/18 19:39:33","新北市中和區保健路33巷5號","121.508945","24.9980766666667","6500300","中和區"
"235070","558-UM","2018/05/18 19:39:28","新北市中和區景平路666-6號","121.49753","25.0008883333333","6500300","中和區"
"235045","565-BX","2018/05/18 19:39:43","新北市中和區景新街487號","121.51373","24.987325","6500300","中和區"
"235054","640-BX","2018/05/18 19:39:43","新北市中和區國光街107巷2弄29號","121.469283333333","24.9989366666667","6500300","中和區"
"235060","647-TV","2018/05/18 19:39:43","新北市中和區新生街16巷40號","121.481716666667","25.0045933333333","6500300","中和區"
"235046","733-UM","2018/05/18 19:39:28","新北市中和區四維街37巷1號","121.51258","24.9869566666667","6500300","中和區"
"235071","783-BX","2018/05/18 19:39:44","新北市中和區新生街114巷2號","121.483393333333","25.0024366666667","6500300","中和區"
"235057","801-TS","2018/05/18 19:39:33","新北市中和區員山路427號","121.480966666667","25.003565","6500300","中和區"
"235041","802-TS","2018/05/18 19:39:32","新北市中和區永貞路241號","121.513086666667","25.0038766666667","6500300","中和區"
"235052","805-TS","2018/05/18 19:39:40","新北市中和區華新街206巷6-3號","121.506436666667","24.98224","6500300","中和區"
"235048","896-TW","2018/05/18 19:39:43","新北市中和區忠孝街1巷2-1號","121.509216666667","24.9831066666667","6500300","中和區"
"235053","900-TW","2018/05/18 19:39:21","新北市中和區國光街215巷6弄1號","121.466488333333","25.0014616666667","6500300","中和區"
"235066","911-UM","2018/05/18 19:39:39","新北市中和區中和路196巷9弄2號","121.505306666667","24.9991233333333","6500300","中和區"
"235051","157-BY","2018/05/18 19:39:29","新北市中和區南山路263巷1號","121.503981666667","24.9928483333333","6500300","中和區"
"235037","AAC-213","2018/05/18 19:39:44","新北市中和區秀朗路三段10巷21弄12號","121.525413333333","24.9959483333333","6500300","中和區"
"235059","AAC-215","2018/05/18 19:39:29","新北市中和區圓通路305巷3弄1號","121.493573333333","24.9905566666667","6500300","中和區"
"220080","015-TV","2018/05/18 19:39:43","新北市板橋區大觀路二段37巷224號","121.449768333333","25.0008733333333","6500100","板橋區"
"220065","072-UY","2018/05/18 19:39:33","新北市板橋區國泰街39巷7弄13號","121.46897","25.00573","6500100","板橋區"
"220086","073-UY","2018/05/18 19:39:48","新北市板橋區林園街2號","121.454273333333","25.009255","6500100","板橋區"
"220106","075-UY","2018/05/18 19:39:30","新北市板橋區雙十路三段14號","121.471686666667","25.030385","6500100","板橋區"
"220069","AAD-861","2018/05/18 19:39:34","新北市板橋區貴興路76號","121.45642","25.0029266666667","6500100","板橋區"
"247004","337-TH","2018/05/18 19:39:31","新北市蘆洲區長安街102巷26號","121.462818333333","25.0821066666667","6501400","蘆洲區"
"247008","056-VK","2018/05/18 19:39:38","新北市蘆洲區中山一路158號","121.4749","25.0815033333333","6501400","蘆洲區"
"226004","205-ST","2018/05/18 19:39:41","新北市平溪區十分里十分街58巷18號","121.774665","25.0431983333333","6502400","平溪區"
"235065","251-BX","2018/05/18 19:39:28","新北市中和區永和路52號","121.499196666667","25.0040583333333","6500300","中和區"
"228001","670-TC","2018/05/18 19:39:39","新北市貢寮區真理里大澳街3號","121.924778333333","25.0557066666667","6502600","貢寮區"
"228003","828-UM","2018/05/18 19:39:32","新北市貢寮區真理里美艷山街15-3號","121.923668333333","25.0680616666667","6502600","貢寮區"
"224010","AGQ-8101","2018/05/18 19:38:31","新北市瑞芳區九份中山巷10號","121.843791666667","25.1073483333333","6501200","瑞芳區"
"224002","639-TC","2018/05/18 19:39:36","新北市瑞芳區民享新村13號","121.816596666667","25.1056983333333","6501200","瑞芳區"
"227011","642-TC","2018/05/18 19:39:28","新北市雙溪區新基里新基北街22號","121.867256666667","25.0389116666667","6502500","雙溪區"
"227003","400-TW","2018/05/18 19:39:39","新北市雙溪區雙溪里太平路16號","121.864475","25.0352283333333","6502500","雙溪區"
"222001","KEA-2212","2018/05/18 19:39:40","新北市深坑區深坑街152號","121.61294","25.0014383333333","6501800","深坑區"
"208002","KEA-2872","2018/05/18 19:39:43","新北市金山區中正路32號","121.6354","25.222175","6502700","金山區"
"208003","665-BX","2018/05/18 19:39:47","新北市金山區環金路460號","121.630121666667","25.2246133333333","6502700","金山區"
"208001","761-BX","2018/05/18 19:39:46","新北市金山區六股里下六股35-1號","121.61976","25.2215416666667","6502700","金山區"
"251001","011-UM","2018/05/18 19:39:42","新北市淡水區民權路49號","121.4598","25.13925","6501000","淡水區"
"251008","181-VK","2018/05/18 19:39:39","新北市淡水區中正路一段8巷1弄11號","121.428101666667","25.175675","6501000","淡水區"
"251010","413-VK","2018/05/18 19:39:36","新北市淡水區新市五路二段75號","121.43131","25.1982583333333","6501000","淡水區"
"251012","441-VK","2018/05/18 19:39:32","新北市淡水區中山北路三段156號","121.44559","25.19576","6501000","淡水區"
"251007","442-VK","2018/05/18 19:39:37","新北市淡水區中正東路一段127巷21號","121.456025","25.1605466666667","6501000","淡水區"
"251006","561-UM","2018/05/18 19:39:36","新北市淡水區中山北路一段189號","121.44407","25.1783166666667","6501000","淡水區"
"251009","575-R6","2018/05/18 19:39:37","新北市淡水區中山北路一段188-5號","121.444448333333","25.1791983333333","6501000","淡水區"
"251011","650-BX","2018/05/18 19:39:39","新北市淡水區八勢路20號","121.460818333333","25.1535666666667","6501000","淡水區"
"207003","550-UM","2018/05/18 19:39:42","新北市萬里區大鵬里下社4號","121.647993333333","25.217","6502800","萬里區"
"207004","225-TW","2018/05/18 19:39:30","新北市萬里區萬里里瑪鋉路11號","121.687183333333","25.1753433333333","6502800","萬里區"
"252002","178-VK","2018/05/18 19:39:42","新北市三芝區三民街20號","121.504493333333","25.258685","6502100","三芝區"
"252001","702-TV","2018/05/18 19:39:29","新北市三芝區公正街9號","121.499833333333","25.2575466666667","6502100","三芝區"
"237004","KEA-2597","2018/05/18 19:39:41","新北市三峽區插角217-1號","121.41481","24.868535","6500900","三峽區"
"237007","153-BY","2018/05/18 19:39:35","新北市三峽區二鬮路136巷24弄67號","121.35752","24.91061","6500900","三峽區"
"237009","210-TH","2018/05/18 19:39:34","新北市三峽區中園街86巷1號","121.367733333333","24.9245733333333","6500900","三峽區"
"237013","252-BX","2018/05/18 19:39:35","新北市三峽區介壽路二段93號","121.392111666667","24.9354916666667","6500900","三峽區"
"237012","275-BY","2018/05/18 19:39:34","新北市三峽區光明路39-1號","121.37437","24.9300133333333","6500900","三峽區"
"237008","302-VK","2018/05/18 19:39:43","新北市三峽區永安街183號","121.37319","24.9269383333333","6500900","三峽區"
"237014","433-BY","2018/05/18 19:39:29","新北市三峽區中山路63巷8號","121.366948333333","24.93436","6500900","三峽區"
"237006","5529-G3","2018/05/18 19:39:42","新北市三峽區中正路一段336巷15弄2號","121.369971666667","24.92498","6500900","三峽區"
"237015","649-BX","2018/05/18 19:39:44","新北市三峽區溪東路218巷24弄2號","121.406836666667","24.9304383333333","6500900","三峽區"
"237005","AKY-6261","2018/05/18 19:39:30","新北市三峽區文化路207號","121.36634","24.93567","6500900","三峽區"
"236069","105-UM","2018/05/18 19:39:37","新北市土城區學士路33巷10號","121.453588333333","24.9815633333333","6501300","土城區"
"236042","107-UM","2018/05/18 19:39:42","新北市土城區學士路17號","121.453553333333","24.9828683333333","6501300","土城區"
"236079","166-UM","2018/05/18 19:39:46","新北市土城區溪頭路20巷2弄2號","121.41295","24.9555466666667","6501300","土城區"
"236030","253-BX","2018/05/18 19:39:34","新北市土城區福祥街93號","121.44131","24.981355","6501300","土城區"
"236026","269-VK","2018/05/18 19:39:33","新北市土城區中央路二段61巷26號","121.443293333333","24.978655","6501300","土城區"
"236039","271-VK","2018/05/18 19:39:37","新北市土城區青雲路269巷12號","121.459896666667","24.9805016666667","6501300","土城區"
"236020","401-BY","2018/05/18 19:39:46","新北市土城區明峰街83號","121.468933333333","24.987295","6501300","土城區"
"236048","913-UM","2018/05/18 19:39:34","新北市土城區延吉街329-1號","121.465468333333","24.9840816666667","6501300","土城區"
"236063","915-UM","2018/05/18 19:39:45","新北市土城區延平街73號","121.46767","24.9930266666667","6501300","土城區"
"236055","AAC-216","2018/05/18 19:39:44","新北市土城區學府路一段81號","121.456705","24.9881133333333","6501300","土城區"
"242029","612-BX","2018/05/18 19:39:37","新北市新莊區新泰路255巷83號","121.442305","25.0390433333333","6500500","新莊區"
"242007","413-TV","2018/05/18 19:39:41","新北市新莊區思源路593巷30號","121.457666666667","25.05971","6500500","新莊區"
"242039","133-UY","2018/05/18 19:39:27","新北市新莊區建國二路85-3號","121.43131","25.026325","6500500","新莊區"
"242032","135-UY","2018/05/18 19:39:43","新北市新莊區新泰路211號","121.446388333333","25.0387133333333","6500500","新莊區"
"242048","172-VK","2018/05/18 19:39:33","新北市新莊區民安路49號","121.423915","25.02627","6500500","新莊區"
"242011","173-VK","2018/05/18 19:39:37","新北市新莊區新泰路357巷3弄57號","121.441981666667","25.0390416666667","6500500","新莊區"
"242005","176-VK","2018/05/18 19:39:37","新北市新莊區化成路29巷84號","121.461991666667","25.04405","6500500","新莊區"
"242021","348-TH","2018/05/18 19:39:31","新北市新莊區新豐街65號","121.446378333333","25.0334733333333","6500500","新莊區"
"242013","351-TH","2018/05/18 19:39:41","新北市新莊區中誠街145號","121.448815","25.047315","6500500","新莊區"
"238015","755-BX","2018/05/18 19:39:37","新北市樹林區日新街69號","121.42206","24.990965","6500700","樹林區"
"238023","601-UM","2018/05/18 19:39:43","新北市樹林區三福街123巷9號","121.405785","25.0157733333333","6500700","樹林區"
"238024","5061-A6","2018/05/18 19:39:37","新北市樹林區八德街1170號","121.390361666667","24.968305","6500700","樹林區"
"238021","KEA-2217","2018/05/18 19:39:33","新北市樹林區佳園路三段217號","121.385103333333","24.94643","6500700","樹林區"
"238022","KEA-2213","2018/05/18 19:39:40","新北市樹林區名園街51巷6弄19號","121.421135","24.97849","6500700","樹林區"
"238025","303-VK","2018/05/18 19:39:44","新北市樹林區中山路二段44號","121.417023333333","24.984805","6500700","樹林區"
"238017","283-BY","2018/05/18 19:39:44","新北市樹林區保安街二段45巷21弄7號","121.414938333333","24.9997416666667","6500700","樹林區"
"239006","891-R6","2018/05/18 19:39:26","新北市鶯歌區重慶街6-1號","121.351961666667","24.9527416666667","6500800","鶯歌區"
"221008","489-VK","2018/05/18 19:39:31","新北市汐止區康寧街61巷32號","121.619728333333","25.0675316666667","6501100","汐止區"
"221036","130-UY","2018/05/18 19:39:46","新北市汐止區康寧街901號","121.650785","25.0753183333333","6501100","汐止區"
"221015","131-UY","2018/05/18 19:39:43","新北市汐止區康寧街901號","121.651618333333","25.0749516666667","6501100","汐止區"
"221010","269-BY","2018/05/18 19:39:39","新北市汐止區汐萬路一段357號","121.65007","25.0776366666667","6501100","汐止區"
"221012","278-VK","2018/05/18 19:39:40","新北市汐止區汐平路一段7號","121.680821666667","25.071215","6501100","汐止區"
"221023","279-VK","2018/05/18 19:39:45","新北市汐止區中興路286巷1號","121.628315","25.069585","6501100","汐止區"
"221027","281-BY","2018/05/18 19:39:27","新北市汐止區忠孝東路9號","121.658318333333","25.065935","6501100","汐止區"
"221029","298-VK","2018/05/18 19:39:31","新北市汐止區康寧街901號","121.651556666667","25.07502","6501100","汐止區"
"221021","299-VK","2018/05/18 19:39:29","新北市汐止區南興路9號","121.652095","25.06242","6501100","汐止區"
"221031","353-TW","2018/05/18 19:39:39","新北市汐止區康寧街901號","121.65085","25.0752383333333","6501100","汐止區"
"221025","623-UM","2018/05/18 19:39:27","新北市汐止區福安街20巷2號","121.662506666667","25.0649716666667","6501100","汐止區"
"221038","646-BX","2018/05/18 19:39:38","新北市汐止區忠孝東路223號","121.662253333333","25.0668","6501100","汐止區"
"221033","647-BX","2018/05/18 19:39:39","新北市汐止區南勢街1巷4號","121.626921666667","25.0377133333333","6501100","汐止區"
"220079","145-BY","2018/05/18 19:39:32","新北市板橋區建國街103號","121.459991666667","25.017585","6500100","板橋區"
"220082","610-BX","2018/05/18 19:39:44","新北市板橋區溪崑一街68號","121.429471666667","24.9899466666667","6500100","板橋區"
"220101","245-BX","2018/05/18 19:39:46","新北市板橋區莊敬路231巷1-3號","121.472411666667","25.0217466666667","6500100","板橋區"
"220094","267-BY","2018/05/18 19:39:40","新北市板橋區宏國路98號","121.470006666667","25.0319216666667","6500100","板橋區"
"220056","276-BY","2018/05/18 19:39:29","新北市板橋區四川路二段47巷1弄2號","121.454136666667","24.994925","6500100","板橋區"
"220072","277-BY","2018/05/18 19:39:37","新北市板橋區金門街215巷93號","121.433818333333","24.9887116666667","6500100","板橋區"
"220089","280-UM","2018/05/18 19:39:42","新北市板橋區英士路22號","121.46172","25.0251866666667","6500100","板橋區"
"220053","285-VK","2018/05/18 19:39:41","新北市板橋區中山路二段253號","121.477345","25.0174683333333","6500100","板橋區"
"220083","286-VK","2018/05/18 19:39:35","新北市板橋區龍興街65巷82-1號","121.441725","25.0022083333333","6500100","板橋區"
"220081","287-VK","2018/05/18 19:39:29","新北市板橋區大觀路一段75巷1號","121.447375","25.0044816666667","6500100","板橋區"
"220090","288-VK","2018/05/18 19:39:34","新北市板橋區長江路一段48巷4弄1-3號","121.459151666667","25.0285216666667","6500100","板橋區"
"220061","293-UM","2018/05/18 19:39:43","新北市板橋區中山路一段265巷36弄2號","121.469205","25.0151283333333","6500100","板橋區"
"220084","296-UM","2018/05/18 19:39:29","新北市板橋區滿平街84巷70號","121.425965","24.9875083333333","6500100","板橋區"
"220075","303-R5","2018/05/18 19:39:42","新北市板橋區大勇街6號","121.455521666667","25.0176316666667","6500100","板橋區"
"220062","305-R5","2018/05/18 19:39:32","新北市板橋區三民路二段83號","121.479548333333","25.0166533333333","6500100","板橋區"
"220092","307-R5","2018/05/18 19:39:42","新北市板橋區陽明街49號","121.464871666667","25.0223433333333","6500100","板橋區"
"220098","317-R6","2018/05/18 19:39:40","新北市板橋區四維路279巷59號","121.460785","25.027395","6500100","板橋區"
"220064","486-VK","2018/05/18 19:39:35","新北市板橋區中山路一段139-5號","121.462298333333","25.0113666666667","6500100","板橋區"
"242046","280-VK","2018/05/18 19:39:36","新北市新莊區裕民街19巷2弄1號","121.41966","25.0252716666667","6500500","新莊區"
"220088","491-VK","2018/05/18 19:39:39","新北市板橋區民治街10號","121.477428333333","25.034415","6500100","板橋區"
"220035","560-BX","2018/05/18 19:39:35","新北市板橋區金華街104號","121.458603333333","25.020795","6500100","板橋區"
"220103","561-BX","2018/05/18 19:39:25","新北市板橋區文化路一段339號","121.466581666667","25.02072","6500100","板橋區"
"220071","568-UM","2018/05/18 19:39:28","新北市板橋區信義路38號","121.457043333333","24.9947333333333","6500100","板橋區"
"220063","609-BX","2018/05/18 19:39:32","新北市板橋區中山路二段505巷28號","121.482266666667","25.0221866666667","6500100","板橋區"
"220074","630-UY","2018/05/18 19:39:46","新北市板橋區大東街1號","121.45665","25.009565","6500100","板橋區"
"220091","637-BX","2018/05/18 19:39:44","新北市板橋區懷德街127巷25號","121.47956","25.0313066666667","6500100","板橋區"
"220057","686-BX","2018/05/18 19:39:36","新北市板橋區和平路安樂巷36號","121.461755","24.99335","6500100","板橋區"
"220077","687-BX","2018/05/18 19:39:26","新北市板橋區僑中一街120號","121.446001666667","25.011695","6500100","板橋區"
"220093","689-BX","2018/05/18 19:39:34","新北市板橋區長江路一段145號","121.460818333333","25.0303433333333","6500100","板橋區"
"220054","741-BX","2018/05/18 19:39:32","新北市板橋區光明街15號","121.460491666667","25.00258","6500100","板橋區"
"220102","KEA-2699","2018/05/18 19:39:39","新北市板橋區松柏街36巷5號","121.475458333333","25.0298333333333","6500100","板橋區"
"220055","827-TW","2018/05/18 19:39:34","新北市板橋區國慶路149巷13弄14號","121.460321666667","24.9971466666667","6500100","板橋區"
"220067","829-TW","2018/05/18 19:39:43","新北市板橋區長安街140號","121.47269","25.0101216666667","6500100","板橋區"
"220068","830-TW","2018/05/18 19:39:33","新北市板橋區中山路二段513號","121.482776666667","25.0213633333333","6500100","板橋區"
"220096","831-TW","2018/05/18 19:39:22","新北市板橋區民生路二段234巷26弄3號","121.470591666667","25.0222833333333","6500100","板橋區"
"220073","985-R7","2018/05/18 19:39:27","新北市板橋區國光路33號","121.457175","25.01767","6500100","板橋區"
"220097","AAC-210","2018/05/18 19:39:42","新北市板橋區漢生西路89巷2弄12-2號","121.461816666667","25.01967","6500100","板橋區"
"220070","AAC-253","2018/05/18 19:39:40","新北市板橋區民族路243號","121.470076666667","25.0071033333333","6500100","板橋區"
"235068","KEA-2873","2018/05/18 19:39:16","新北市中和區景平路493巷17號","121.499403333333","24.9970933333333","6500300","中和區"
