"lineid","car","time","location","longitude","latitude","cityid","cityname"
"234046","148-BY","2018/05/18 19:59:49","新北市永和區成功路一段4號","121.526965","25.00555","6500400","永和區"
"234007","207-UY","2018/05/18 19:59:26","新北市永和區保生路22巷8號","121.507291666667","25.008","6500400","永和區"
"234081","298-R6","2018/05/18 19:59:36","新北市永和區國中路10號","121.524271666667","25.004795","6500400","永和區"
"234038","336-UY","2018/05/18 19:59:35","新北市永和區成功路二段126號","121.526538333333","24.9975183333333","6500400","永和區"
"234064","337-UY","2018/05/18 19:59:43","新北市永和區中正路412巷18號","121.518518333333","25.0020766666667","6500400","永和區"
"234086","338-UY","2018/05/18 19:59:33","新北市永和區福和路152號","121.521788333333","25.007895","6500400","永和區"
"234070","552-UM","2018/05/18 19:59:35","新北市永和區國光路35號","121.519315","25.00841","6500400","永和區"
"234017","745-BX","2018/05/18 19:59:46","新北市永和區文化路92號","121.513816666667","25.0152033333333","6500400","永和區"
"234030","746-BX","2018/05/18 19:59:33","新北市永和區民生路22巷29號","121.521048333333","24.9969483333333","6500400","永和區"
"234054","KEA-2590","2018/05/18 19:59:23","新北市永和區環河東路一段122號","121.52066","25.0155566666667","6500400","永和區"
"234013","KEA-2591","2018/05/18 19:59:33","新北市永和區保生路55號","121.504716666667","25.0105866666667","6500400","永和區"
"234061","AAD-866","2018/05/18 19:59:38","新北市永和區中正路283巷2號","121.517273333333","25.00113","6500400","永和區"
"234042","862-TW","2018/05/18 19:59:29","新北市永和區雙和街15號","121.509451666667","25.0019183333333","6500400","永和區"
"234050","863-TW","2018/05/18 19:59:43","新北市永和區保安路264號","121.505853333333","25.012475","6500400","永和區"
"234026","9371-KE","2018/05/18 19:59:29","新北市永和區水源街21巷14弄4號","121.511378333333","25.00385","6500400","永和區"
"234011","9373-KE","2018/05/18 19:59:27","新北市永和區仁愛路352巷122弄13號","121.500773333333","25.0088116666667","6500400","永和區"
"249005","172-UM","2018/05/18 19:59:48","新北市八里區楓林路4號","121.382005","25.130065","6502300","八里區"
"249001","173-UM","2018/05/18 19:59:40","新北市八里區中華路二段310號","121.403798333333","25.148405","6502300","八里區"
"249004","303-UY","2018/05/18 19:59:40","新北市八里區中華路一段333-1號","121.41289","25.1543866666667","6502300","八里區"
"249002","305-UY","2018/05/18 19:59:37","新北市八里區頂寮一街42號","121.450636666667","25.123945","6502300","八里區"
"249003","593-UM","2018/05/18 19:59:43","新北市八里區中華路二段341-9號","121.398851666667","25.1447183333333","6502300","八里區"
"248016","026-BX","2018/05/18 19:59:36","新北市五股區成泰路三段577巷80弄25號","121.449545","25.1046166666667","6501500","五股區"
"248008","095-VK","2018/05/18 19:59:43","新北市五股區四維路30巷15號","121.468238333333","25.0715066666667","6501500","五股區"
"248018","225-UY","2018/05/18 19:59:40","新北市五股區登林路118號","121.418836666667","25.0734966666667","6501500","五股區"
"248012","247-BX","2018/05/18 19:59:39","新北市五股區民義路一段91號","121.434793333333","25.0857516666667","6501500","五股區"
"248014","261-SL","2018/05/18 19:59:28","新北市五股區五福路14巷26號","121.43548","25.0888716666667","6501500","五股區"
"248010","272-BY","2018/05/18 19:59:45","新北市五股區登林路46巷3號","121.431903333333","25.068725","6501500","五股區"
"248004","677-BX","2018/05/18 19:59:34","新北市五股區成泰路一段2-11號","121.434518333333","25.0671133333333","6501500","五股區"
"248002","678-BX","2018/05/18 19:59:28","新北市五股區成泰路三段487號","121.450785","25.0993166666667","6501500","五股區"
"234077","969-R7","2018/05/18 19:59:38","新北市永和區民有街23巷19號","121.517248333333","24.9966733333333","6500400","永和區"
"234074","AAC-211","2018/05/18 19:59:39","新北市永和區豫溪街207巷5號","121.523476666667","25.0099733333333","6500400","永和區"
"234067","AAC-212","2018/05/18 19:59:47","新北市永和區永貞路315號","121.510015","25.0066883333333","6500400","永和區"
"234003","AAC-295","2018/05/18 19:59:30","新北市永和區中正路688號","121.516588333333","25.0095116666667","6500400","永和區"
"243013","AAD-798","2018/05/18 19:36:38","新北市泰山區應化街7號","121.423873333333","25.0437233333333","6501600","泰山區"
"243009","297-R6","2018/05/18 19:59:44","新北市泰山區楓江路16巷23號","121.434113333333","25.0615316666667","6501600","泰山區"
"243016","380-SR","2018/05/18 19:59:29","新北市泰山區明志路三段470號","121.42098","25.0320233333333","6501600","泰山區"
"243015","421-VK","2018/05/18 19:59:36","新北市泰山區明志路二段194號","121.427316666667","25.0496733333333","6501600","泰山區"
"243011","KEA-2215","2018/05/18 19:59:30","新北市泰山區明志路三段182巷35號","121.423146666667","25.039385","6501600","泰山區"
"243010","KEA-2216","2018/05/18 19:59:41","新北市泰山區中華街9號","121.42771","25.052375","6501600","泰山區"
"243012","646-TV","2018/05/18 19:59:40","新北市泰山區明志路一段289號","121.431966666667","25.059625","6501600","泰山區"
"243014","680-BX","2018/05/18 19:59:41","新北市泰山區泰林路二段183號","121.433433333333","25.0609316666667","6501600","泰山區"
"222003","436-BY","2018/05/18 19:59:40","新北市深坑區埔新街14號","121.620748333333","25.0039766666667","6501800","深坑區"
"222002","659-BX","2018/05/18 19:59:37","新北市深坑區北深路二段81巷8弄3號","121.618261666667","25.0030216666667","6501800","深坑區"
"231041","002-UM","2018/05/18 19:59:39","新北市新店區中正路352號","121.535945","24.9757166666667","6500600","新店區"
"231059","046-UY","2018/05/18 19:59:46","新北市新店區安康路二段5號","121.515376666667","24.963645","6500600","新店區"
"231040","047-UY","2018/05/18 19:59:27","新北市新店區中正路59號","121.544225","24.9699283333333","6500600","新店區"
"231044","106-UY","2018/05/18 19:59:35","新北市新店區復興路27號","121.539","24.9867066666667","6500600","新店區"
"231053","108-UY","2018/05/18 19:59:42","新北市新店區新烏路三段229號","121.547111666667","24.896525","6500600","新店區"
"231048","187-VK","2018/05/18 19:59:48","新北市新店區寶宏路36號","121.549505","24.9756583333333","6500600","新店區"
"231057","188-VK","2018/05/18 19:59:36","新北市新店區花園二路一段11號","121.5555","24.9324933333333","6500600","新店區"
"231054","KEA-2219","2018/05/18 19:59:44","新北市新店區光明街151號","121.539541666667","24.9622616666667","6500600","新店區"
"231042","268-BY","2018/05/18 19:59:31","新北市新店區中正路7號","121.545838333333","24.9691966666667","6500600","新店區"
"231051","278-BY","2018/05/18 19:59:32","新北市新店區中央一街10號","121.528561666667","24.9724483333333","6500600","新店區"
"231050","AAD-862","2018/05/18 19:59:33","新北市新店區北宜路一段34號","121.538313333333","24.9567666666667","6500600","新店區"
"231066","4716-K9","2018/05/18 19:59:27","新北市新店區柴埕路21號","121.51421","24.9659233333333","6500600","新店區"
"231056","4715-K9","2018/05/18 19:59:41","新北市新店區明德路26巷2號","121.542263333333","24.97773","6500600","新店區"
"231067","4772-VM","2018/05/18 19:59:39","新北市新店區秀山路45巷1號","121.531326666667","24.9606983333333","6500600","新店區"
"231065","512-UM","2018/05/18 19:59:33","新北市新店區安祥路109巷8號","121.475448333333","24.95883","6500600","新店區"
"231049","513-UM","2018/05/18 19:59:36","新北市新店區明德路42號","121.541381666667","24.9781566666667","6500600","新店區"
"231063","616-UM","2018/05/18 19:59:43","新北市新店區車子路11號","121.50286","24.951305","6500600","新店區"
"231045","617-UM","2018/05/18 19:59:32","新北市新店區北宜路二段82-2號","121.553738333333","24.953345","6500600","新店區"
"231061","619-UM","2018/05/18 19:59:29","新北市新店區安民街309號","121.517565","24.9739516666667","6500600","新店區"
"231068","718-UY","2018/05/18 19:59:43","新北市新店區安康路一段258-2號","121.520166666667","24.9649016666667","6500600","新店區"
"231064","719-UM","2018/05/18 19:59:43","新北市新店區碧安街36號","121.517466666667","24.9690583333333","6500600","新店區"
"231062","720-UM","2018/05/18 19:59:39","新北市新店區華城路36巷1-5號","121.527675","24.95539","6500600","新店區"
"231060","897-TW","2018/05/18 19:59:29","新北市新店區安康路二段436號","121.495801666667","24.9549","6500600","新店區"
"231043","899-TW","2018/05/18 19:59:25","新北市新店區中正路282-11號","121.538523333333","24.97401","6500600","新店區"
"231055","AKT-0513","2018/05/18 19:59:39","新北市新店區中華路83巷67號","121.538333333333","24.967295","6500600","新店區"
"241011","013-R5","2018/05/18 19:59:33","新北市三重區秀江街242號","121.496375","25.0713116666667","6500200","三重區"
"241028","022-UY","2018/05/18 19:59:41","新北市三重區中正南路32號","121.493623333333","25.0601816666667","6500200","三重區"
"241008","059-VK","2018/05/18 19:59:29","新北市三重區永福街179巷26號","121.47811","25.0746933333333","6500200","三重區"
"241009","060-VK","2018/05/18 19:59:44","新北市三重區三和路四段390巷30號","121.480865","25.078665","6500200","三重區"
"241031","061-VK","2018/05/18 19:59:26","新北市三重區重新路四段144巷23號","121.487026666667","25.05529","6500200","三重區"
"241015","062-VK","2018/05/18 19:59:31","新北市三重區三和路二段8號","121.501018333333","25.0669483333333","6500200","三重區"
"241017","063-VK","2018/05/18 19:59:30","新北市三重區重陽路三段182號","121.490166666667","25.0680916666667","6500200","三重區"
"241024","065-VK","2018/05/18 19:59:46","新北市三重區力行路一段277號","121.482195","25.0715766666667","6500200","三重區"
"241026","066-VK","2018/05/18 19:59:45","新北市三重區仁慈街7號","121.5017","25.0630283333333","6500200","三重區"
"241003","091-VK","2018/05/18 19:59:32","新北市三重區仁愛街445巷1號","121.490091666667","25.0821783333333","6500200","三重區"
"241013","265-UM","2018/05/18 19:59:26","新北市三重區三和路三段125巷33號","121.494005","25.07364","6500200","三重區"
"241016","266-UM","2018/05/18 19:59:35","新北市三重區正義北路36巷15號","121.496765","25.0634066666667","6500200","三重區"
"241022","267-UM","2018/05/18 19:59:43","新北市三重區過圳街31巷2號","121.489145","25.06054","6500200","三重區"
"241018","268-UM","2018/05/18 19:59:35","新北市三重區正義北路244巷108號","121.493283333333","25.0674983333333","6500200","三重區"
"241007","398-BY","2018/05/18 19:59:45","新北市三重區溪尾街154號","121.488773333333","25.0799216666667","6500200","三重區"
"241035","KEA-2210","2018/05/18 19:59:35","新北市三重區大榮街9號","121.498193333333","25.0631566666667","6500200","三重區"
"241025","413-TH","2018/05/18 19:59:31","新北市三重區頂崁街210巷7號","121.476621666667","25.0677483333333","6500200","三重區"
"241004","475-VK","2018/05/18 19:59:34","新北市三重區五華街74號","121.493406666667","25.0820316666667","6500200","三重區"
"241020","478-VK","2018/05/18 19:59:42","新北市三重區忠孝路一段101號","121.489435","25.07213","6500200","三重區"
"241014","543-UM","2018/05/18 19:59:31","新北市三重區三和路二段156號","121.49945","25.0684766666667","6500200","三重區"
"241023","545-UM","2018/05/18 19:59:44","新北市三重區頂崁街172號","121.477695","25.0659816666667","6500200","三重區"
"241001","547-UM","2018/05/18 19:59:34","新北市三重區福隆路115號","121.49273","25.0785216666667","6500200","三重區"
"241019","KEA-2593","2018/05/18 19:59:37","新北市三重區重陽路四段2號","121.490556666667","25.0687016666667","6500200","三重區"
"241006","AAD-863","2018/05/18 19:59:33","新北市三重區力行路二段91巷1弄18號","121.483278333333","25.0758733333333","6500200","三重區"
"241030","743-BX","2018/05/18 19:59:45","新北市三重區重新路四段244巷13號","121.486471666667","25.053515","6500200","三重區"
"241005","887-TS","2018/05/18 19:59:27","新北市三重區溪尾街325巷32號","121.488711666667","25.08355","6500200","三重區"
"241012","941-UM","2018/05/18 19:59:44","新北市三重區仁厚街52號","121.50028","25.0765616666667","6500200","三重區"
"241029","942-UM","2018/05/18 19:59:35","新北市三重區重安街1號","121.48994","25.0582933333333","6500200","三重區"
"241033","AAC-255","2018/05/18 19:59:31","新北市三重區中興北街69號","121.469426666667","25.0475933333333","6500200","三重區"
"235064","005-UY","2018/05/18 19:59:26","新北市中和區圓通路12號","121.5016","24.9979733333333","6500300","中和區"
"235056","096-UM","2018/05/18 19:59:45","新北市中和區中山路三段170巷2弄1號","121.472896666667","25.006695","6500300","中和區"
"235039","097-UM","2018/05/18 19:59:31","新北市中和區景平路278巷14弄2號","121.514156666667","24.9929583333333","6500300","中和區"
"235040","150-BY","2018/05/18 19:59:41","新北市中和區保健路19巷21號","121.50852","24.998635","6500300","中和區"
"235058","151-BY","2018/05/18 19:59:42","新北市中和區員山路150巷5-2號","121.48173","24.9983516666667","6500300","中和區"
"235055","183-VK","2018/05/18 19:59:38","新北市中和區民生街23巷1弄2號","121.47092","25.0053333333333","6500300","中和區"
"235049","186-VK","2018/05/18 19:59:42","新北市中和區南華路17-2號","121.502565","24.9957466666667","6500300","中和區"
"235067","255-BX","2018/05/18 19:59:38","新北市中和區民樂路81號","121.48479","25.0013083333333","6500300","中和區"
"235044","293-VK","2018/05/18 19:59:45","新北市中和區中正路65巷1弄1號","121.501371666667","24.9931466666667","6500300","中和區"
"235050","4979-A6","2018/05/18 19:59:43","新北市中和區景平路153號","121.513578333333","24.991755","6500300","中和區"
"235069","4980-A6","2018/05/18 19:59:30","新北市中和區圓通路83號","121.49982","24.9968616666667","6500300","中和區"
"235070","558-UM","2018/05/18 19:59:48","新北市中和區圓通路169號","121.497643333333","24.9953116666667","6500300","中和區"
"235046","733-UM","2018/05/18 19:59:28","新北市中和區興南路一段93巷73號","121.510488333333","24.9866483333333","6500300","中和區"
"235041","802-TS","2018/05/18 19:59:29","新北市中和區安平路38號","121.50971","24.9949283333333","6500300","中和區"
"235052","805-TS","2018/05/18 19:59:40","新北市中和區華新街93號","121.50855","24.9831816666667","6500300","中和區"
"235048","896-TW","2018/05/18 19:59:43","新北市中和區景新街439號","121.513045","24.9889083333333","6500300","中和區"
"235066","911-UM","2018/05/18 19:59:39","新北市永和區保平路292巷13弄12號","121.506846666667","25.0055266666667","6500300","中和區"
"235051","157-BY","2018/05/18 19:59:29","新北市中和區中興街233巷10號","121.501503333333","24.9894416666667","6500300","中和區"
"235037","AAC-213","2018/05/18 19:59:31","新北市中和區自立路141巷2號","121.522356666667","24.99336","6500300","中和區"
"235059","AAC-215","2018/05/18 19:59:29","新北市中和區圓通路335巷5弄1號","121.492765","24.989955","6500300","中和區"
"220080","015-TV","2018/05/18 19:59:43","新北市板橋區大觀路二段169巷18號","121.446176666667","24.9999","6500100","板橋區"
"220065","072-UY","2018/05/18 19:59:33","新北市板橋區中山路一段154巷21號","121.46532","25.0104566666667","6500100","板橋區"
"220106","075-UY","2018/05/18 19:59:30","新北市板橋區民治街71巷36號","121.480451666667","25.0327983333333","6500100","板橋區"
"220069","AAD-861","2018/05/18 19:59:40","新北市板橋區大明街25巷2弄28號","121.457361666667","25.002765","6500100","板橋區"
"247024","893-R6","2018/05/18 19:59:29","新北市蘆洲區光明路112巷29弄13號","121.46421","25.087645","6501400","蘆洲區"
"247014","546-UM","2018/05/18 19:59:33","新北市蘆洲區成功路102號","121.472515","25.0821416666667","6501400","蘆洲區"
"247010","341-TH","2018/05/18 19:59:45","新北市蘆洲區集賢路200號","121.483676666667","25.0876566666667","6501400","蘆洲區"
"247004","337-TH","2018/05/18 19:59:31","新北市蘆洲區長安街267巷7弄6號","121.458246666667","25.0833716666667","6501400","蘆洲區"
"247006","336-TH","2018/05/18 19:59:43","新北市蘆洲區九芎街109號","121.465653333333","25.079755","6501400","蘆洲區"
"247008","056-VK","2018/05/18 19:59:38","新北市蘆洲區信義路93號","121.477721666667","25.0799516666667","6501400","蘆洲區"
"247016","007-UY","2018/05/18 19:59:46","新北市蘆洲區光華路15-1號","121.469618333333","25.083265","6501400","蘆洲區"
"247002","002-UY","2018/05/18 19:59:44","新北市蘆洲區長安街272號","121.457416666667","25.0869716666667","6501400","蘆洲區"
"247020","001-UY","2018/05/18 19:59:46","新北市蘆洲區民義街70號","121.47318","25.0899966666667","6501400","蘆洲區"
"235065","251-BX","2018/05/18 19:59:28","新北市中和區福美路269號","121.498161666667","25.00498","6500300","中和區"
"228003","828-UM","2018/05/18 19:59:32","新北市貢寮區仁理村仁和路90號","121.922743333333","25.050335","6502600","貢寮區"
"224010","AGQ-8101","2018/05/18 19:59:31","新北市瑞芳區石碑巷5號","121.841106666667","25.1075433333333","6501200","瑞芳區"
"227011","642-TC","2018/05/18 19:59:48","新北市雙溪區新基里新基南街24號","121.866238333333","25.0382066666667","6502500","雙溪區"
"227003","400-TW","2018/05/18 19:59:39","新北市雙溪區雙溪里長安街16號","121.864973333333","25.0346883333333","6502500","雙溪區"
"222001","KEA-2212","2018/05/18 19:59:40","新北市深坑區北深路三段164號","121.6024","25.0034733333333","6501800","深坑區"
"208002","KEA-2872","2018/05/18 19:59:43","新北市金山區環金路178號","121.634891666667","25.217105","6502700","金山區"
"208003","665-BX","2018/05/18 19:59:48","新北市金山區海興路1-3號","121.63387","25.24412","6502700","金山區"
"208001","761-BX","2018/05/18 19:59:27","新北市金山區南勢湖1-3號","121.623395","25.21962","6502700","金山區"
"251004","009-UM","2018/05/18 19:59:29","新北市淡水區民族路50巷32號","121.46111","25.1357966666667","6501000","淡水區"
"251001","011-UM","2018/05/18 19:59:47","新北市淡水區北投子14-2號","121.448451666667","25.1836933333333","6501000","淡水區"
"251008","181-VK","2018/05/18 19:59:39","新北市淡水區淡海路72巷28弄1號","121.424276666667","25.1821666666667","6501000","淡水區"
"251012","441-VK","2018/05/18 19:59:32","新北市淡水區下圭柔山93-4號","121.43701","25.2099466666667","6501000","淡水區"
"251007","442-VK","2018/05/18 19:59:37","新北市淡水區竿蓁二街103巷1號","121.456528333333","25.1647133333333","6501000","淡水區"
"251005","443-VK","2018/05/18 19:59:26","新北市淡水區學府路136巷39號","121.451948333333","25.17268","6501000","淡水區"
"251006","561-UM","2018/05/18 19:59:35","新北市淡水區北新路29號","121.445181666667","25.1777266666667","6501000","淡水區"
"251009","575-R6","2018/05/18 19:59:48","新北市淡水區英專路28巷2弄18號","121.445811666667","25.1694383333333","6501000","淡水區"
"251011","650-BX","2018/05/18 19:59:39","新北市淡水區崁頂55號","121.442368333333","25.1966233333333","6501000","淡水區"
"251003","673-BX","2018/05/18 19:59:36","新北市淡水區中山北路二段189巷15弄29號","121.443323333333","25.1841866666667","6501000","淡水區"
"207003","550-UM","2018/05/18 19:59:42","新北市萬里區磺潭里公館崙5號","121.641921666667","25.2142616666667","6502800","萬里區"
"207004","225-TW","2018/05/18 19:59:30","新北市萬里區北基里忠二街35號","121.685663333333","25.1757616666667","6502800","萬里區"
"252002","178-VK","2018/05/18 19:59:42","新北市三芝區忠孝街116-3號","121.505608333333","25.2575666666667","6502100","三芝區"
"252001","702-TV","2018/05/18 19:59:49","新北市三芝區公正街9號","121.499791666667","25.2575083333333","6502100","三芝區"
"237004","KEA-2597","2018/05/18 19:59:41","新北市三峽區添福2號","121.371958333333","24.9060716666667","6500900","三峽區"
"237007","153-BY","2018/05/18 19:59:35","新北市三峽區麻園46號","121.363763333333","24.9212466666667","6500900","三峽區"
"237009","210-TH","2018/05/18 19:59:34","新北市三峽區民族街8號","121.369031666667","24.9313683333333","6500900","三峽區"
"237012","275-BY","2018/05/18 19:59:34","新北市三峽區中華路76-3號","121.370998333333","24.9291633333333","6500900","三峽區"
"237008","302-VK","2018/05/18 19:59:43","新北市三峽區中正路一段174巷16號","121.37171","24.92891","6500900","三峽區"
"237014","433-BY","2018/05/18 19:59:49","新北市三峽區添福139號","121.375353333333","24.9009816666667","6500900","三峽區"
"237006","5529-G3","2018/05/18 19:59:42","新北市三峽區中正路二段176巷79號","121.36441","24.9127183333333","6500900","三峽區"
"237015","649-BX","2018/05/18 19:59:44","新北市三峽區介壽路二段138巷1弄166號","121.403211666667","24.9276116666667","6500900","三峽區"
"237005","AKY-6261","2018/05/18 19:59:30","新北市三峽區民生街1巷29-7號","121.381576666667","24.9328566666667","6500900","三峽區"
"236069","105-UM","2018/05/18 19:59:37","新北市土城區忠義路77號","121.442975","24.965145","6501300","土城區"
"236042","107-UM","2018/05/18 19:59:42","新北市土城區學府路一段97號","121.45629","24.9878083333333","6501300","土城區"
"236079","166-UM","2018/05/18 19:59:26","新北市土城區福安街68號","121.418356666667","24.964495","6501300","土城區"
"236030","253-BX","2018/05/18 19:59:29","新北市土城區中央路一段250巷7號","121.443965","24.9846666666667","6501300","土城區"
"236026","269-VK","2018/05/18 19:59:33","新北市土城區中央路二段98號","121.442225","24.9782816666667","6501300","土城區"
"236014","270-VK","2018/05/18 19:59:47","新北市土城區廣福街123號","121.456291666667","24.992905","6501300","土城區"
"236039","271-VK","2018/05/18 19:59:37","新北市土城區國際路42巷2號","121.46616","24.9790766666667","6501300","土城區"
"236020","401-BY","2018/05/18 19:59:26","新北市土城區延吉街97巷11號","121.472163333333","24.9865583333333","6501300","土城區"
"236059","912-UM","2018/05/18 19:59:29","新北市土城區中央路一段275號","121.444675","24.9847916666667","6501300","土城區"
"236048","913-UM","2018/05/18 19:59:35","新北市土城區金城路三段309號","121.474416666667","24.9909933333333","6501300","土城區"
"236063","915-UM","2018/05/18 19:59:45","新北市土城區金城路三段33巷10號","121.465396666667","24.987145","6501300","土城區"
"236055","AAC-216","2018/05/18 19:59:44","新北市土城區延和路11號","121.463936666667","24.9880266666667","6501300","土城區"
"242034","AAC-296","2018/05/18 19:59:46","新北市新莊區建中街107號","121.446473333333","25.0365283333333","6500500","新莊區"
"242058","986-R7","2018/05/18 19:59:33","新北市新莊區民安路294號","121.428075","25.0217516666667","6500500","新莊區"
"242025","613-BX","2018/05/18 19:59:42","新北市新莊區五工一路91號","121.461128333333","25.0677566666667","6500500","新莊區"
"242029","612-BX","2018/05/18 19:59:37","新北市新莊區中榮街75-2號","121.445771666667","25.0527616666667","6500500","新莊區"
"242050","442-UM","2018/05/18 19:59:35","新北市新莊區西盛街210號","121.428171666667","25.0178783333333","6500500","新莊區"
"242056","440-UM","2018/05/18 19:59:47","新北市新莊區中正路347巷17弄6號","121.447433333333","25.03416","6500500","新莊區"
"242037","415-TV","2018/05/18 19:59:45","新北市新莊區建安街27號","121.429063333333","25.02597","6500500","新莊區"
"242007","413-TV","2018/05/18 19:59:41","新北市新莊區福壽街204號","121.458226666667","25.0537466666667","6500500","新莊區"
"242023","362-BY","2018/05/18 19:59:43","新北市新莊區化成路416號","121.465936666667","25.0509033333333","6500500","新莊區"
"242060","353-BY","2018/05/18 19:59:44","新北市新莊區瓊泰路37號","121.443826666667","25.0285633333333","6500500","新莊區"
"242039","133-UY","2018/05/18 19:59:27","新北市新莊區民安路299巷19號","121.428906666667","25.0230566666667","6500500","新莊區"
"242032","135-UY","2018/05/18 19:59:42","新北市新莊區公園一路86號","121.443245","25.0370516666667","6500500","新莊區"
"242048","172-VK","2018/05/18 19:59:32","新北市新莊區富國路158號","121.423411666667","25.0248433333333","6500500","新莊區"
"242011","173-VK","2018/05/18 19:59:45","新北市新莊區中港路531巷21號","121.450603333333","25.051395","6500500","新莊區"
"242017","175-VK","2018/05/18 19:59:39","新北市新莊區中安街29號","121.452563333333","25.0462116666667","6500500","新莊區"
"242005","176-VK","2018/05/18 19:59:37","新北市新莊區化成路324號","121.465735","25.0485716666667","6500500","新莊區"
"242015","346-TH","2018/05/18 19:59:25","新北市新莊區泰安街46號","121.446936666667","25.0423983333333","6500500","新莊區"
"242021","348-TH","2018/05/18 19:59:30","新北市新莊區建中街32巷19號","121.448771666667","25.0381333333333","6500500","新莊區"
"242019","350-TH","2018/05/18 19:59:32","新北市新莊區民生街15巷2弄4號","121.455885","25.0422766666667","6500500","新莊區"
"242013","351-TH","2018/05/18 19:59:39","新北市新莊區中港路390號","121.452443333333","25.049335","6500500","新莊區"
"238015","755-BX","2018/05/18 19:58:17","新北市樹林區中山路三段214號","121.380055","24.9678916666667","6500700","樹林區"
"238021","KEA-2217","2018/05/18 19:59:32","新北市樹林區佳園路三段99巷19號","121.389345","24.9522316666667","6500700","樹林區"
"239006","891-R6","2018/05/18 19:59:26","新北市鶯歌區文化路39號","121.359658333333","24.956705","6500800","鶯歌區"
"221008","489-VK","2018/05/18 19:59:31","新北市汐止區忠一街9巷7號","121.620511666667","25.0732","6501100","汐止區"
"221036","130-UY","2018/05/18 19:59:25","新北市汐止區忠孝東路258巷11弄12號","121.663858333333","25.0673183333333","6501100","汐止區"
"221015","131-UY","2018/05/18 19:59:43","新北市汐止區大同路二段707號","121.665125","25.0727983333333","6501100","汐止區"
"221010","269-BY","2018/05/18 19:59:39","新北市汐止區連峰街225巷11號","121.64447","25.0807416666667","6501100","汐止區"
"221012","278-VK","2018/05/18 19:59:40","新北市汐止區大同路三段174號","121.673993333333","25.0750583333333","6501100","汐止區"
"221023","279-VK","2018/05/18 19:59:45","新北市汐止區明峰街206號","121.627651666667","25.0692216666667","6501100","汐止區"
"221032","280-BY","2018/05/18 19:59:40","新北市汐止區橫科路18巷9弄3號","121.617935","25.0506383333333","6501100","汐止區"
"221027","281-BY","2018/05/18 19:59:47","新北市汐止區中正路102號","121.66106","25.0694666666667","6501100","汐止區"
"221029","298-VK","2018/05/18 19:59:31","新北市汐止區樟樹一路137巷26號","121.640995","25.0660366666667","6501100","汐止區"
"221021","299-VK","2018/05/18 19:59:29","新北市汐止區水源路一段175號","121.65519","25.0618616666667","6501100","汐止區"
"221031","353-TW","2018/05/18 19:59:39","新北市汐止區福德一路176巷2號","121.635668333333","25.0661733333333","6501100","汐止區"
"221035","622-UM","2018/05/18 19:59:43","新北市汐止區長江街57巷5號","121.656148333333","25.071745","6501100","汐止區"
"221025","623-UM","2018/05/18 19:59:27","新北市汐止區秀峰路109巷12號","121.660416666667","25.06336","6501100","汐止區"
"221038","646-BX","2018/05/18 19:59:45","新北市汐止區忠孝東路480號","121.666178333333","25.0738633333333","6501100","汐止區"
"221033","647-BX","2018/05/18 19:59:39","新北市汐止區東勢街201巷104號","121.633438333333","25.042955","6501100","汐止區"
"221018","753-BX","2018/05/18 19:59:44","新北市汐止區茄苳路290號","121.672748333333","25.0670933333333","6501100","汐止區"
"242002","KEA-2550","2018/05/18 19:59:48","新北市新莊區中正路217號","121.451088333333","25.0357516666667","6500500","新莊區"
"220101","245-BX","2018/05/18 19:59:46","新北市板橋區莒光路178號","121.474125","25.022865","6500100","板橋區"
"220094","267-BY","2018/05/18 19:59:40","新北市板橋區陽明街239號","121.46324","25.024505","6500100","板橋區"
"220072","277-BY","2018/05/18 19:59:46","新北市板橋區金門街109巷12號","121.43376","24.9918166666667","6500100","板橋區"
"220089","280-UM","2018/05/18 19:59:29","新北市板橋區新海路403巷18號","121.457805","25.0263816666667","6500100","板橋區"
"220053","285-VK","2018/05/18 19:59:41","新北市板橋區永豐街53號","121.474118333333","25.018065","6500100","板橋區"
"220083","286-VK","2018/05/18 19:59:35","新北市板橋區僑中二街48巷24號","121.445346666667","25.0104816666667","6500100","板橋區"
"220081","287-VK","2018/05/18 19:59:49","新北市板橋區大觀路一段28巷108-3號","121.450171666667","25.0119366666667","6500100","板橋區"
"220090","288-VK","2018/05/18 19:59:34","新北市板橋區幸福路32巷2弄47號","121.4607","25.0223433333333","6500100","板橋區"
"220061","293-UM","2018/05/18 19:59:43","新北市板橋區觀光街66號","121.469923333333","25.0167116666667","6500100","板橋區"
"242044","281-VK","2018/05/18 19:59:42","新北市新莊區中正路891-15號","121.41297","25.0225433333333","6500500","新莊區"
"220075","303-R5","2018/05/18 19:59:36","新北市板橋區金華街10巷79號","121.458083333333","25.020395","6500100","板橋區"
"220062","305-R5","2018/05/18 19:59:37","新北市板橋區萬安街20巷2弄13號","121.485323333333","25.0227266666667","6500100","板橋區"
"220092","307-R5","2018/05/18 19:59:42","新北市板橋區國光路189-3號","121.461241666667","25.01854","6500100","板橋區"
"220098","317-R6","2018/05/18 19:59:44","新北市板橋區漢生西路165巷28號","121.462338333333","25.0235533333333","6500100","板橋區"
"220064","486-VK","2018/05/18 19:59:35","新北市板橋區區運路3號","121.465148333333","25.00932","6500100","板橋區"
"242046","280-VK","2018/05/18 19:59:36","新北市新莊區裕民街19巷4號","121.419763333333","25.0252183333333","6500500","新莊區"
"220088","491-VK","2018/05/18 19:59:39","新北市板橋區大同街73號","121.479551666667","25.02804","6500100","板橋區"
"220103","561-BX","2018/05/18 19:59:45","新北市板橋區自由路13號","121.465483333333","25.022715","6500100","板橋區"
"220071","568-UM","2018/05/18 19:59:28","新北市板橋區和平路174巷1弄2號","121.46424","24.9949816666667","6500100","板橋區"
"220074","630-UY","2018/05/18 19:59:46","新北市板橋區縣民大道一段285號","121.460631666667","25.0100516666667","6500100","板橋區"
"220091","637-BX","2018/05/18 19:59:44","新北市板橋區文聖街109號","121.47775","25.02931","6500100","板橋區"
"220093","689-BX","2018/05/18 19:59:35","新北市板橋區長江路二段282號","121.470543333333","25.0329366666667","6500100","板橋區"
"220054","741-BX","2018/05/18 19:59:31","新北市板橋區忠孝路忠義巷15弄23號","121.465658333333","25.0042333333333","6500100","板橋區"
"220102","KEA-2699","2018/05/18 19:59:39","新北市板橋區仁化街42巷5弄3號","121.475521666667","25.0314366666667","6500100","板橋區"
"220055","827-TW","2018/05/18 19:59:34","新北市板橋區仁愛路64號","121.459976666667","24.9994533333333","6500100","板橋區"
"220067","829-TW","2018/05/18 19:59:43","新北市板橋區漢生東路195-1號","121.470298333333","25.0116166666667","6500100","板橋區"
"220068","830-TW","2018/05/18 19:59:47","新北市板橋區光復街151號","121.485703333333","25.02013","6500100","板橋區"
"220096","831-TW","2018/05/18 19:59:41","新北市板橋區文化路一段370-1號","121.469655","25.0236016666667","6500100","板橋區"
"220073","985-R7","2018/05/18 19:59:27","新北市板橋區大觀路一段19號","121.450293333333","25.0084883333333","6500100","板橋區"
"220097","AAC-210","2018/05/18 19:59:42","新北市板橋區光正街40號","121.461863333333","25.0173183333333","6500100","板橋區"
"220070","AAC-253","2018/05/18 19:59:38","新北市板橋區四川路一段153號","121.459938333333","25.00411","6500100","板橋區"
"235068","KEA-2873","2018/05/18 19:59:16","新北市中和區莊敬路16巷7弄1號","121.500168333333","25.0041616666667","6500300","中和區"
