"lineid","car","time","location","longitude","latitude","cityid","cityname"
"234030","746-BX","2018/05/18 20:49:33","新北市五股區孝義路9-17號","121.44927","25.1069583333333","6500400","永和區"
"249004","303-UY","2018/05/18 20:49:39","新北市八里區中山路一段63號","121.418308333333","25.159465","6502300","八里區"
"234077","969-R7","2018/05/18 20:49:38","新北市林口區汕頭32號","121.366325","25.134905","6500400","永和區"
"234074","AAC-211","2018/05/18 20:49:47","新北市永和區環河東路二段30號","121.52255","25.0127133333333","6500400","永和區"
"222003","436-BY","2018/05/18 20:49:40","新北市深坑區阿柔洋40號","121.610305","24.9984816666667","6501800","深坑區"
"222002","659-BX","2018/05/18 20:49:37","新北市深坑區北深路三段93巷58號","121.603286666667","25.0013066666667","6501800","深坑區"
"231059","046-UY","2018/05/18 20:49:46","新北市新店區僑愛二路1號","121.499848333333","24.9451583333333","6500600","新店區"
"231040","047-UY","2018/05/18 20:49:46","新北市新店區中正路264號","121.53911","24.9734733333333","6500600","新店區"
"231044","106-UY","2018/05/18 20:49:35","新北市新店區民族路225號","121.53671","24.9758683333333","6500600","新店區"
"231053","108-UY","2018/05/18 20:49:42","新北市新店區新烏路一段140-1號","121.546376666667","24.9323433333333","6500600","新店區"
"231048","187-VK","2018/05/18 20:49:28","新北市新店區寶元路一段109號","121.545673333333","24.9831183333333","6500600","新店區"
"231057","188-VK","2018/05/18 20:49:36","新北市新店區新烏路一段65號","121.546203333333","24.9433733333333","6500600","新店區"
"231054","KEA-2219","2018/05/18 20:49:31","新北市新店區中正路75巷61號","121.543283333333","24.96929","6500600","新店區"
"231042","268-BY","2018/05/18 20:49:31","新北市新店區寶高路120巷1號","121.554603333333","24.976155","6500600","新店區"
"231051","278-BY","2018/05/18 20:49:32","新北市新店區溪園路35號","121.530551666667","24.988275","6500600","新店區"
"231050","AAD-862","2018/05/18 20:49:42","新北市新店區三民路117巷3弄1號","121.534523333333","24.971665","6500600","新店區"
"231058","3713-VJ","2018/05/18 20:49:31","新北市新店區安興路131巷2號","121.515616666667","24.9791966666667","6500600","新店區"
"231066","4716-K9","2018/05/18 20:49:27","新北市新店區安民街303巷22號","121.516428333333","24.9737933333333","6500600","新店區"
"231056","4715-K9","2018/05/18 20:49:41","新北市新店區溪園路395號","121.523806666667","24.9772233333333","6500600","新店區"
"231067","4772-VM","2018/05/18 20:49:39","新北市新店區安康路二段87號","121.513418333333","24.96291","6500600","新店區"
"231065","512-UM","2018/05/18 20:49:33","新北市新店區安祥路104巷6弄38號","121.483011666667","24.9632683333333","6500600","新店區"
"231049","513-UM","2018/05/18 20:49:36","新北市新店區華城路11號","121.529576666667","24.9597366666667","6500600","新店區"
"231063","616-UM","2018/05/18 20:49:43","新北市新店區如意街15號","121.494866666667","24.948165","6500600","新店區"
"231045","617-UM","2018/05/18 20:49:32","新北市新店區光明街167號","121.539713333333","24.96256","6500600","新店區"
"231061","619-UM","2018/05/18 20:49:29","新北市新店區新和街97號","121.5212","24.9865516666667","6500600","新店區"
"231068","718-UY","2018/05/18 20:49:44","新北市新店區寶元路二段4號","121.545671666667","24.9827616666667","6500600","新店區"
"231064","719-UM","2018/05/18 20:49:43","新北市新店區安民街376號","121.516446666667","24.9763966666667","6500600","新店區"
"231062","720-UM","2018/05/18 20:49:39","新北市新店區和成街18巷50號","121.4886","24.9461516666667","6500600","新店區"
"231060","897-TW","2018/05/18 20:49:29","新北市新店區安康路三段571巷5-1號","121.47541","24.9430533333333","6500600","新店區"
"231043","899-TW","2018/05/18 20:49:45","新北市新店區建國路99巷1號","121.540376666667","24.9770516666667","6500600","新店區"
"241011","013-R5","2018/05/18 20:49:33","新北市三重區秀江街119號","121.499698333333","25.0721816666667","6500200","三重區"
"241028","022-UY","2018/05/18 20:49:41","新北市三重區中正南路40號","121.49388","25.0601266666667","6500200","三重區"
"241008","059-VK","2018/05/18 20:49:49","新北市三重區永福街72巷11號","121.479418333333","25.0767466666667","6500200","三重區"
"241009","060-VK","2018/05/18 20:49:44","新北市三重區三和路四段388-2號","121.482076666667","25.0790383333333","6500200","三重區"
"241031","061-VK","2018/05/18 20:49:46","新北市三重區重陽路一段113巷3號","121.48754","25.0598466666667","6500200","三重區"
"241015","062-VK","2018/05/18 20:49:31","新北市三重區自強路一段8號","121.498815","25.0682766666667","6500200","三重區"
"241017","063-VK","2018/05/18 20:49:30","新北市三重區自強路一段179號","121.492308333333","25.0678183333333","6500200","三重區"
"241024","065-VK","2018/05/18 20:49:46","新北市三重區國道路一段58巷15號","121.481381666667","25.0720683333333","6500200","三重區"
"241026","066-VK","2018/05/18 20:49:37","新北市三重區和平街1號","121.500116666667","25.06236","6500200","三重區"
"241002","090-VK","2018/05/18 20:49:27","新北市三重區仁義街157巷65號","121.498598333333","25.0817583333333","6500200","三重區"
"241003","091-VK","2018/05/18 20:49:32","新北市三重區五華街141巷60號","121.493555","25.0867566666667","6500200","三重區"
"241013","265-UM","2018/05/18 20:49:47","新北市三重區仁愛街131號","121.49556","25.07488","6500200","三重區"
"241016","266-UM","2018/05/18 20:49:35","新北市三重區自強路一段147-1號","121.493928333333","25.0667566666667","6500200","三重區"
"241022","267-UM","2018/05/18 20:49:43","新北市三重區中正北路20巷12號","121.487973333333","25.0625283333333","6500200","三重區"
"241018","268-UM","2018/05/18 20:49:35","新北市三重區正義北路279號","121.495256666667","25.0702416666667","6500200","三重區"
"241007","398-BY","2018/05/18 20:49:45","新北市三重區慈愛街8號","121.48451","25.0784033333333","6500200","三重區"
"241035","KEA-2210","2018/05/18 20:49:39","新北市三重區文化北路129號","121.497816666667","25.0688733333333","6500200","三重區"
"241025","413-TH","2018/05/18 20:49:31","新北市三重區貴陽街21號","121.484261666667","25.0619033333333","6500200","三重區"
"241004","475-VK","2018/05/18 20:49:34","新北市三重區分子尾街52號","121.489143333333","25.0814833333333","6500200","三重區"
"241020","478-VK","2018/05/18 20:49:42","新北市三重區忠孝路一段101號","121.489585","25.07214","6500200","三重區"
"241014","543-UM","2018/05/18 20:49:31","新北市三重區萬全街67號","121.50134","25.0702333333333","6500200","三重區"
"241023","545-UM","2018/05/18 20:49:44","新北市三重區忠孝路三段84巷5號","121.480241666667","25.0643966666667","6500200","三重區"
"241001","547-UM","2018/05/18 20:49:31","新北市三重區三和路四段118巷3號","121.488873333333","25.0748316666667","6500200","三重區"
"241019","KEA-2593","2018/05/18 20:49:37","新北市三重區大智街192號","121.49037","25.0707983333333","6500200","三重區"
"241006","AAD-863","2018/05/18 20:49:33","新北市三重區車路頭街139巷14號","121.484311666667","25.0762266666667","6500200","三重區"
"241030","743-BX","2018/05/18 20:49:44","新北市三重區昌隆街26號","121.491975","25.0522733333333","6500200","三重區"
"241005","887-TS","2018/05/18 20:49:47","新北市三重區集賢路87-1號","121.493753333333","25.0869366666667","6500200","三重區"
"241012","941-UM","2018/05/18 20:49:44","新北市三重區仁信街27號","121.50128","25.07553","6500200","三重區"
"241029","942-UM","2018/05/18 20:49:35","新北市三重區重安街16號","121.490375","25.0582166666667","6500200","三重區"
"241033","AAC-255","2018/05/18 20:49:31","新北市三重區光復路二段1號","121.472248333333","25.0533016666667","6500200","三重區"
"235039","097-UM","2018/05/18 20:49:31","新北市新店區薏仁坑路8-3號","121.499481666667","24.9588633333333","6500300","中和區"
"235069","4980-A6","2018/05/18 20:49:29","新北市中和區新生街235號","121.483905","24.9990366666667","6500300","中和區"
"235026","800-TS","2018/05/18 20:33:56","新北市中和區員山路36巷16-3號","121.48468","24.9917216666667","6500300","中和區"
"247024","893-R6","2018/05/18 20:49:29","新北市蘆洲區長樂路136號","121.462081666667","25.0900833333333","6501400","蘆洲區"
"247014","546-UM","2018/05/18 20:49:33","新北市蘆洲區三民路95號","121.473833333333","25.0849466666667","6501400","蘆洲區"
"247022","500-BY","2018/05/18 20:49:46","新北市蘆洲區三民路120號","121.471343333333","25.0872316666667","6501400","蘆洲區"
"247010","341-TH","2018/05/18 20:49:45","新北市蘆洲區鷺江街76號","121.476926666667","25.0838916666667","6501400","蘆洲區"
"247012","339-TH","2018/05/18 20:49:28","新北市蘆洲區集賢路222巷28號","121.482218333333","25.0872916666667","6501400","蘆洲區"
"247004","337-TH","2018/05/18 20:49:31","新北市蘆洲區長安街101號","121.461596666667","25.080825","6501400","蘆洲區"
"247006","336-TH","2018/05/18 20:49:43","新北市蘆洲區和平路121巷8弄38號","121.46624","25.080615","6501400","蘆洲區"
"247016","007-UY","2018/05/18 20:49:46","新北市蘆洲區正和街3號","121.47046","25.0827333333333","6501400","蘆洲區"
"247002","002-UY","2018/05/18 20:49:44","新北市蘆洲區長榮路394號","121.459788333333","25.08763","6501400","蘆洲區"
"247020","001-UY","2018/05/18 20:49:46","新北市蘆洲區仁愛街66號","121.471511666667","25.0938416666667","6501400","蘆洲區"
"222001","KEA-2212","2018/05/18 20:49:40","新北市深坑區北深路三段137號","121.603886666667","25.0025216666667","6501800","深坑區"
"251001","011-UM","2018/05/18 20:49:27","新北市淡水區淡金路一段69號","121.4588","25.1730866666667","6501000","淡水區"
"251002","012-UM","2018/05/18 20:49:28","新北市淡水區英專路26號","121.445563333333","25.1699916666667","6501000","淡水區"
"251010","413-VK","2018/05/18 20:49:36","新北市淡水區沙崙路145-1號","121.423373333333","25.18316","6501000","淡水區"
"251012","441-VK","2018/05/18 20:49:32","新北市淡水區淡金路四段514號","121.452078333333","25.2258033333333","6501000","淡水區"
"251007","442-VK","2018/05/18 20:49:38","新北市淡水區學府路102巷62號","121.453465","25.171115","6501000","淡水區"
"251006","561-UM","2018/05/18 20:49:35","新北市淡水區新民街一段80號","121.429191666667","25.1852733333333","6501000","淡水區"
"251009","575-R6","2018/05/18 20:49:48","新北市淡水區民權路187巷66弄21號","121.462285","25.134085","6501000","淡水區"
"251011","650-BX","2018/05/18 20:49:39","新北市淡水區新民街一段13號","121.43283","25.1847083333333","6501000","淡水區"
"251003","673-BX","2018/05/18 20:49:36","新北市淡水區中山北路一段247巷118號","121.441646666667","25.1795333333333","6501000","淡水區"
"252002","178-VK","2018/05/18 20:49:42","新北市三芝區淡金路二段91號","121.504073333333","25.2609083333333","6502100","三芝區"
"242034","AAC-296","2018/05/18 20:49:25","新北市新莊區中正路311號","121.448145","25.03517","6500500","新莊區"
"242029","612-BX","2018/05/18 20:49:37","新北市三重區光復路一段86號","121.47202","25.0505733333333","6500500","新莊區"
"242041","566-BX","2018/05/18 20:49:36","新北市新莊區天祥街31巷1號","121.416953333333","25.0280933333333","6500500","新莊區"
"242050","442-UM","2018/05/18 20:49:35","新北市新莊區民安西路47號","121.427468333333","25.0206633333333","6500500","新莊區"
"242056","440-UM","2018/05/18 20:49:27","新北市新莊區中正路457巷15號","121.442303333333","25.0334016666667","6500500","新莊區"
"242037","415-TV","2018/05/18 20:49:45","新北市新莊區中正路455-1號","121.442643333333","25.0340133333333","6500500","新莊區"
"242023","362-BY","2018/05/18 20:49:32","新北市五股區五工二路136號","121.454048333333","25.0734616666667","6500500","新莊區"
"242009","132-UY","2018/05/18 20:49:34","新北市新莊區幸福路548號","121.455041666667","25.049335","6500500","新莊區"
"242039","133-UY","2018/05/18 20:49:47","新北市新莊區瓊林路59-38號","121.441198333333","25.023575","6500500","新莊區"
"221010","269-BY","2018/05/18 20:49:43","新北市汐止區汐萬路一段256巷3號","121.653476666667","25.0745066666667","6501100","汐止區"
"221027","281-BY","2018/05/18 20:49:47","新北市汐止區水源路一段2號","121.657065","25.0671116666667","6501100","汐止區"
"221035","622-UM","2018/05/18 20:49:37","新北市汐止區康寧街901號","121.651248333333","25.0750633333333","6501100","汐止區"
"221038","646-BX","2018/05/18 20:49:45","新北市汐止區汐萬路一段256巷3號","121.652135","25.07475","6501100","汐止區"
"221033","647-BX","2018/05/18 20:49:39","新北市汐止區合順街18巷8弄5號","121.620331666667","25.041905","6501100","汐止區"
"221002","707-TV","2018/05/18 20:49:28","新北市汐止區福德二路二段170號","121.6295","25.0649716666667","6501100","汐止區"
"221018","753-BX","2018/05/18 20:49:47","新北市汐止區汐萬路一段124號","121.65371","25.0711683333333","6501100","汐止區"
"242002","KEA-2550","2018/05/18 20:49:48","新北市新莊區中港路50號","121.455438333333","25.0383816666667","6500500","新莊區"
"220070","AAC-253","2018/05/18 20:49:38","新北市林口區汕頭32號","121.36674","25.13507","6500100","板橋區"
