"lineid","car","time","location","longitude","latitude","cityid","cityname"
"248005","653-BX","2018/05/19 07:42:54","新北市五股區明德路12巷3號","121.433328333333","25.0717933333333","6501500","五股區"
"244005","248-BX","2018/05/19 07:49:03","新北市林口區下福里2號","121.318216666667","25.1073566666667","6501700","林口區"
"235001","611-BX","2018/05/19 07:49:07","新北市中和區圓通路367巷4號","121.49149","24.9893333333333","6500300","中和區"
"226005","5620-A6","2018/05/19 07:49:11","新北市平溪區嶺腳里中華街52號","121.739138333333","25.0248333333333","6502400","平溪區"
"226007","7418-A5","2018/05/19 07:49:22","新北市平溪區平湖里坑頭3號","121.782301666667","25.0263333333333","6502400","平溪區"
"226003","AGD-0702","2018/05/19 07:36:35","新北市平溪區嶺腳里嶺腳寮83-2號","121.751105","25.03542","6502400","平溪區"
"223006","022-BY","2018/05/19 07:49:19","新北市石碇區北宜路五段32號","121.630651666667","24.9531333333333","6501900","石碇區"
"223002","KEA-2673","2018/05/19 07:48:50","新北市深坑區文山路一段8號","121.64431","25.00873","6501900","石碇區"
"223003","205-TH","2018/05/19 07:47:36","新北市石碇區蛇舌子6號","121.664868333333","24.9684266666667","6501900","石碇區"
"223008","406-TH","2018/05/19 07:44:57","新北市石碇區靜安路一段337號","121.698971666667","25.0145166666667","6501900","石碇區"
"223001","592-UM","2018/05/19 07:49:15","新北市石碇區蛇舌子7-1號","121.663855","24.96565","6501900","石碇區"
"223004","660-BX","2018/05/19 07:49:09","新北市石碇區楓子林36-1號","121.642343333333","25.0094866666667","6501900","石碇區"
"223007","661-BX","2018/05/19 07:49:17","新北市石碇區靜安路一段337號","121.698753333333","25.01468","6501900","石碇區"
"223005","677-TV","2018/05/19 07:49:14","新北市石碇區楓子林30號","121.642308333333","25.0096083333333","6501900","石碇區"
"227006","282-VK","2018/05/19 07:49:12","新北市雙溪區雙溪里太平路54號","121.864815","25.0355366666667","6502500","雙溪區"
"252002","178-VK","2018/05/19 07:49:09","新北市三芝區中山路二段50號","121.503253333333","25.25437","6502100","三芝區"
"252004","249-BX","2018/05/19 07:49:24","新北市三芝區店子里店子72-2號","121.507671666667","25.203695","6502100","三芝區"
"252007","AAC-283","2018/05/19 07:49:24","新北市三芝區海景一街2-1號","121.474113333333","25.2457983333333","6502100","三芝區"
"237001","159-UY","2018/05/19 07:49:18","新北市三峽區大學路45-1號","121.376946666667","24.9406433333333","6500900","三峽區"
"236011","165-UM","2018/05/19 07:49:09","新北市土城區金城路三段12號","121.464901666667","24.9862066666667","6501300","土城區"
"236002","339-SR","2018/05/19 07:49:12","新北市土城區龍泉路79-1號","121.430046666667","24.9425083333333","6501300","土城區"
"220018","282-UM","2018/05/19 07:49:14","新北市板橋區南雅東路4號","121.455448333333","25.0058466666667","6500100","板橋區"
