"lineid","car","time","location","longitude","latitude","cityid","cityname"
"222005","289-BY","2018/12/28 09:19:31","新北市深坑區土庫尖路75-1號","121.631148333333","25.0181883333333","6501800","深坑區"
"231007","189-VK","2018/12/28 09:19:19","新北市新店區新潭路三段256號","121.508813333333","24.9041833333333","6500600","新店區"
"231009","192-VK","2018/12/28 09:19:27","新北市新店區平廣路一段125號","121.52794","24.8957633333333","6500600","新店區"
"235001","611-BX","2018/12/28 09:19:15","新北市中和區員山路84號","121.480855","24.9941766666667","6500300","中和區"
"223006","022-BY","2018/12/28 09:19:30","新北市石碇區湳窟22-1號","121.66141","24.99083","6501900","石碇區"
"223008","406-TH","2018/12/28 09:19:29","新北市石碇區靜安路一段337號","121.69889","25.0137","6501900","石碇區"
"223004","437-BY","2018/12/28 09:19:27","新北市石碇區碇坪路二段19號","121.682636666667","24.9758883333333","6501900","石碇區"
"223001","592-UM","2018/12/28 09:19:31","新北市石碇區北宜路四段3-1號","121.611601666667","24.9577233333333","6501900","石碇區"
"223005","677-TV","2018/12/28 09:19:29","新北市石碇區碇坪路二段19號","121.68247","24.974805","6501900","石碇區"
"227005","282-VK","2018/12/28 09:05:48","新北市雙溪區泰平里料角坑19號","121.811996666667","24.9728133333333","6502500","雙溪區"
"252007","AAC-283","2018/12/28 09:19:13","新北市三芝區古庄里四棧橋58號","121.483193333333","25.2643766666667","6502100","三芝區"
