"lineid","car","time","location","longitude","latitude","cityid","cityname"
"231007","189-VK","2018/12/28 09:49:19","新北市新店區新潭路三段215巷25號","121.50811","24.904075","6500600","新店區"
"231009","192-VK","2018/12/28 09:49:27","新北市新店區小坑一路22號","121.531585","24.9138233333333","6500600","新店區"
"223008","406-TH","2018/12/28 09:47:29","新北市石碇區小粗坑(潭邊里)9-2號","121.678783333333","24.9861183333333","6501900","石碇區"
"227005","282-VK","2018/12/28 09:36:08","新北市雙溪區泰平里烏山路40-1號","121.83504","24.93454","6502500","雙溪區"
"252007","AAC-283","2018/12/28 09:49:13","新北市三芝區埔頭里埔頭47號","121.501238333333","25.2628466666667","6502100","三芝區"
