"lineid","car","time","location","longitude","latitude","cityid","cityname"
"231009","192-VK","2018/12/28 11:49:27","新北市新店區安康路二段58巷3號","121.51478","24.964185","6500600","新店區"
"235031","255-BX","2018/12/28 11:46:05","新北市中和區和城路一段271巷1號","121.48577","24.9917716666667","6500300","中和區"
"235026","800-TS","2018/12/28 11:48:40","新北市中和區員山路36巷16-3號","121.48485","24.9916766666667","6500300","中和區"
"235029","911-UM","2018/12/28 11:49:36","新北市中和區員山路36巷16-2號","121.485341666667","24.99179","6500300","中和區"
"220016","120-SR","2018/12/28 11:25:21","新北市板橋區民生路二段56-6號","121.471063333333","25.019125","6500100","板橋區"
"227005","282-VK","2018/12/28 11:49:25","新北市瑞芳區新路尾路1-2號","121.875373333333","25.0173","6502500","雙溪區"
