"lineid","car","time","location","longitude","latitude","cityid","cityname"
"234044","148-BY","2018/12/28 13:59:29","新北市永和區成功路一段99號","121.526901666667","25.0025283333333","6500400","永和區"
"234078","298-R6","2018/12/28 13:59:29","新北市永和區林森路112巷12弄8號","121.522695","25.0045216666667","6500400","永和區"
"234036","336-UY","2018/12/28 13:59:26","新北市永和區成功路二段80號","121.526623333333","24.9986816666667","6500400","永和區"
"234062","337-UY","2018/12/28 13:59:23","新北市永和區中正路368巷1弄51號","121.519268333333","25.0010816666667","6500400","永和區"
"234084","338-UY","2018/12/28 13:59:28","新北市永和區福和路114號","121.522045","25.0081216666667","6500400","永和區"
"234068","552-UM","2018/12/28 13:59:25","新北市永和區福和路236號","121.518993333333","25.007825","6500400","永和區"
"234015","745-BX","2018/12/28 13:59:16","新北市永和區文化路42號","121.514823333333","25.015065","6500400","永和區"
"234028","746-BX","2018/12/28 13:59:22","新北市永和區民生路47巷34號","121.524598333333","24.997705","6500400","永和區"
"234052","KEA-2590","2018/12/28 13:59:27","新北市永和區竹林路39巷35-1號","121.52016","25.01527","6500400","永和區"
"234005","839-RS","2018/12/28 13:59:28","新北市中和區中和路294號","121.508575","24.999835","6500400","永和區"
"234012","KEA-2591","2018/12/28 13:59:17","新北市永和區保生路55號","121.504718333333","25.0106733333333","6500400","永和區"
"234060","AAD-866","2018/12/28 13:59:11","新北市永和區中正路283巷82號","121.515523333333","24.9989083333333","6500400","永和區"
"234040","862-TW","2018/12/28 13:59:20","新北市永和區雙和街16巷15號","121.509888333333","25.00245","6500400","永和區"
"234048","863-TW","2018/12/28 13:59:24","新北市永和區新生路241號","121.505983333333","25.0135966666667","6500400","永和區"
"234025","9371-KE","2018/12/28 13:59:17","新北市永和區自由街58號","121.513768333333","25.0059133333333","6500400","永和區"
"234010","9373-KE","2018/12/28 13:59:18","新北市永和區仁愛路352巷112弄13號","121.500998333333","25.0086083333333","6500400","永和區"
"248019","225-UY","2018/12/28 13:59:25","新北市五股區凌雲路三段71-19號","121.424045","25.1249916666667","6501500","五股區"
"234022","9380-KE","2018/12/28 13:59:35","新北市永和區復興街41巷3號","121.516505","25.0133816666667","6500400","永和區"
"234076","969-R7","2018/12/28 13:59:27","新北市永和區民族街43巷13號","121.519148333333","24.9984266666667","6500400","永和區"
"234072","AAC-211","2018/12/28 13:59:27","新北市永和區豫溪街169巷2-1號","121.521996666667","25.010455","6500400","永和區"
"234066","AAC-212","2018/12/28 13:59:15","新北市永和區永貞路358號","121.510223333333","25.0066383333333","6500400","永和區"
"234001","AAC-295","2018/12/28 13:59:33","新北市永和區福和路316號","121.516061666667","25.007505","6500400","永和區"
"244004","248-BX","2018/12/28 13:59:32","新北市林口區信義路58-8號","121.382031666667","25.0789166666667","6501700","林口區"
"231002","002-UM","2018/12/28 13:59:24","新北市新店區中正路610號","121.533976666667","24.9884516666667","6500600","新店區"
"231027","0293-UT","2018/12/28 13:59:22","新北市新店區北宜路一段39巷20號","121.538956666667","24.958225","6500600","新店區"
"231028","046-UY","2018/12/28 13:59:31","新北市新店區安和路三段16號","121.517936666667","24.981165","6500600","新店區"
"231001","047-UY","2018/12/28 13:59:28","新北市新店區三民路45號","121.537136666667","24.970935","6500600","新店區"
"231005","106-UY","2018/12/28 13:59:15","新北市新店區中興路三段212號","121.543731666667","24.9824166666667","6500600","新店區"
"231010","107-UY","2018/12/28 13:59:33","新北市新店區安康路一段24巷2號","121.532928333333","24.9604533333333","6500600","新店區"
"231022","108-UY","2018/12/28 13:59:25","新北市新店區新烏路二段50巷11號","121.547615","24.9275083333333","6500600","新店區"
"231012","187-VK","2018/12/28 13:59:31","新北市新店區德正街27巷34號","121.545658333333","24.9713316666667","6500600","新店區"
"231023","188-VK","2018/12/28 13:59:31","新北市新店區文中路45號","121.539646666667","24.9566683333333","6500600","新店區"
"231026","256-BX","2018/12/28 13:59:14","新北市新店區環河路22-1號","121.536885","24.9620216666667","6500600","新店區"
"231036","260-TV","2018/12/28 13:59:23","新北市新店區安祥路110巷24號","121.474393333333","24.956385","6500600","新店區"
"231003","268-BY","2018/12/28 13:59:26","新北市新店區光明街138巷13弄1號","121.540298333333","24.9611383333333","6500600","新店區"
"231018","278-BY","2018/12/28 13:59:29","新北市新店區中央路133巷27弄2號","121.531861666667","24.9733583333333","6500600","新店區"
"231016","AAD-862","2018/12/28 13:59:29","新北市新店區郵政路1巷6號","121.557388333333","24.9521033333333","6500600","新店區"
"231038","3712-VJ","2018/12/28 13:59:23","新北市新店區安華路30巷1號","121.51957","24.9592466666667","6500600","新店區"
"231037","4716-K9","2018/12/28 13:59:27","新北市新店區安康路三段355巷32號","121.484936666667","24.9494116666667","6500600","新店區"
"231025","4715-K9","2018/12/28 13:59:18","新北市新店區中正路328巷40號","121.538158333333","24.9763866666667","6500600","新店區"
"231013","513-UM","2018/12/28 13:59:26","新北市新店區明德路64號","121.54157","24.9794733333333","6500600","新店區"
"231032","515-UM","2018/12/28 13:59:17","新北市新店區莒光路44巷21弄11-6號","121.518435","24.95223","6500600","新店區"
"231006","617-UM","2018/12/28 13:59:25","新北市新店區北宜路二段213號","121.553255","24.95334","6500600","新店區"
"231030","619-UM","2018/12/28 13:59:12","新北市新店區安康路一段230-3號","121.522323333333","24.9637383333333","6500600","新店區"
"231034","641-BX","2018/12/28 13:59:21","新北市新店區達觀路41號","121.502703333333","24.9387616666667","6500600","新店區"
"231035","719-UM","2018/12/28 13:59:27","新北市新店區安康路二段102號","121.51348","24.9629283333333","6500600","新店區"
"231029","897-TW","2018/12/28 13:59:34","新北市新店區安康路二段86號","121.51393","24.9632033333333","6500600","新店區"
"231004","899-TW","2018/12/28 13:59:22","新北市新店區北新路二段160號","121.542928333333","24.97559","6500600","新店區"
"231024","AKT-0513","2018/12/28 13:59:23","新北市新店區安康路一段302-2號","121.517328333333","24.9640116666667","6500600","新店區"
"235030","003-UY","2018/12/28 13:59:35","新北市中和區水源路7巷1號","121.503613333333","25.0035233333333","6500300","中和區"
"235028","005-UY","2018/12/28 13:59:14","新北市中和區中和路24號","121.49983","25.001795","6500300","中和區"
"235027","006-UY","2018/12/28 13:59:32","新北市中和區中正路548號","121.487076666667","24.99444","6500300","中和區"
"235020","096-UM","2018/12/28 13:59:29","新北市中和區中正路1204號","121.480095","25.01057","6500300","中和區"
"235003","097-UM","2018/12/28 13:59:29","新北市中和區秀朗路三段177號","121.524345","24.990985","6500300","中和區"
"235004","150-BY","2018/12/28 13:59:28","新北市中和區保健路46巷21號","121.509126666667","24.99624","6500300","中和區"
"235022","151-BY","2018/12/28 13:59:29","新北市中和區員山路75號","121.480655","24.994205","6500300","中和區"
"235019","183-VK","2018/12/28 13:59:32","新北市中和區德光路20號","121.471035","25.0044633333333","6500300","中和區"
"235002","185-VK","2018/12/28 13:59:22","新北市中和區立人街16號","121.51927","24.99422","6500300","中和區"
"235013","186-VK","2018/12/28 13:59:30","新北市中和區景安路100號","121.50553","24.99557","6500300","中和區"
"235031","255-BX","2018/12/28 13:59:23","新北市中和區新生街266號","121.483515","24.99724","6500300","中和區"
"235008","293-VK","2018/12/28 13:59:30","新北市中和區中興街161巷6弄2號","121.50066","24.9908566666667","6500300","中和區"
"235036","301-VK","2018/12/28 13:59:30","新北市中和區中山路二段124號","121.502435","25.0037","6500300","中和區"
"235006","KEA-2878","2018/12/28 13:59:28","新北市中和區秀朗路三段60巷71號","121.524051666667","24.9946033333333","6500300","中和區"
"247005","KED-0682","2018/12/28 13:59:22","新北市蘆洲區永安南路二段56號","121.46562","25.0777316666667","6501400","蘆洲區"
"235014","4979-A6","2018/12/28 13:59:31","新北市中和區華新街50巷7號","121.507653333333","24.9839283333333","6500300","中和區"
"235033","4980-A6","2018/12/28 13:59:19","新北市中和區圓通路109巷1弄6號","121.499961666667","24.9964116666667","6500300","中和區"
"235034","558-UM","2018/12/28 13:59:28","新北市中和區枋寮街2號","121.502395","24.9998466666667","6500300","中和區"
"235009","565-BX","2018/12/28 13:59:21","新北市中和區景新街467巷20弄23號","121.515096666667","24.987515","6500300","中和區"
"235018","640-BX","2018/12/28 13:59:24","新北市中和區國光街107巷2弄29號","121.469273333333","24.998935","6500300","中和區"
"235024","647-TV","2018/12/28 13:59:20","新北市中和區民治街9巷2號","121.47513","25.004455","6500300","中和區"
"235010","733-UM","2018/12/28 13:59:20","新北市中和區興南路一段135巷22弄4號","121.509115","24.9868933333333","6500300","中和區"
"235035","783-BX","2018/12/28 13:59:16","新北市中和區立德街98巷79號","121.488238333333","25.0089216666667","6500300","中和區"
"235026","800-TS","2018/12/28 13:59:14","新北市中和區中山路二段366巷17號","121.491661666667","25.0048066666667","6500300","中和區"
"235021","801-TS","2018/12/28 13:59:24","新北市中和區民利街100巷6弄2號","121.477145","24.9983783333333","6500300","中和區"
"235005","802-TS","2018/12/28 13:59:23","新北市中和區中安街32號","121.513151666667","25.0029016666667","6500300","中和區"
"235016","805-TS","2018/12/28 13:59:27","新北市中和區興南路二段131-15號","121.504175","24.980235","6500300","中和區"
"235012","896-TW","2018/12/28 13:59:18","新北市中和區華新街63號","121.50803","24.9841316666667","6500300","中和區"
"235017","900-TW","2018/12/28 13:59:26","新北市中和區和平路200巷35弄1號","121.46532","24.99464","6500300","中和區"
"235029","911-UM","2018/12/28 13:59:16","新北市中和區中山路二段2巷45弄2號","121.502371666667","25.0070983333333","6500300","中和區"
"235015","157-BY","2018/12/28 13:59:18","新北市中和區忠孝街19巷24-1號","121.51002","24.9835133333333","6500300","中和區"
"235001","AAC-213","2018/12/28 13:59:12","新北市中和區秀朗路三段10巷37弄4號","121.52417","24.99604","6500300","中和區"
"235023","AAC-215","2018/12/28 13:59:23","新北市中和區圓通路369巷19弄7號","121.49131","24.9883183333333","6500300","中和區"
"220013","072-UY","2018/12/28 13:59:30","新北市板橋區漢生東路340巷1號","121.471706666667","25.007375","6500100","板橋區"
"220034","073-UY","2018/12/28 13:59:18","新北市板橋區中正路236巷39號","121.457536666667","25.0193266666667","6500100","板橋區"
"220105","075-UY","2018/12/28 13:59:13","新北市板橋區雙十路三段14號","121.471725","25.03042","6500100","板橋區"
"220017","AAD-861","2018/12/28 13:59:23","新北市板橋區貴興路31號","121.457673333333","25.0039833333333","6500100","板橋區"
"220016","120-SR","2018/12/28 13:58:07","新北市板橋區民族路219巷67號","121.468451666667","25.0091666666667","6500100","板橋區"
"247015","546-UM","2018/12/28 13:59:26","新北市蘆洲區光華路43號","121.468806666667","25.0830216666667","6501400","蘆洲區"
"247009","336-TH","2018/12/28 13:59:27","新北市蘆洲區集賢路224巷20號","121.481806666667","25.0871883333333","6501400","蘆洲區"
"247019","057-VK","2018/12/28 13:59:24","新北市蘆洲區民族路422巷19號","121.473831666667","25.09286","6501400","蘆洲區"
"247013","053-VK","2018/12/28 13:59:16","新北市蘆洲區中正路102號","121.469823333333","25.08452","6501400","蘆洲區"
"247017","007-UY","2018/12/28 13:59:22","新北市蘆洲區民族路327巷73號","121.475315","25.0897166666667","6501400","蘆洲區"
"247003","002-UY","2018/12/28 13:59:16","新北市蘆洲區中華街6巷10號","121.463143333333","25.0819616666667","6501400","蘆洲區"
"247021","001-UY","2018/12/28 13:59:25","新北市蘆洲區中正路263巷2號","121.467481666667","25.0875466666667","6501400","蘆洲區"
"207002","749-BX","2018/12/28 13:59:16","新北市萬里區溪底里溪底路10號","121.617525","25.148665","6502800","萬里區"
"207001","662-BX","2018/12/28 13:59:26","新北市萬里區磺潭里磺溪12-1號","121.630541666667","25.2027183333333","6502800","萬里區"
"236067","105-UM","2018/12/28 13:59:27","新北市土城區和平路54號","121.445198333333","24.9689983333333","6501300","土城區"
"236040","KED-0685","2018/12/28 13:59:23","新北市土城區城林路6巷80號","121.438418333333","24.9797533333333","6501300","土城區"
"236077","166-UM","2018/12/28 13:59:25","新北市土城區大安路2號","121.432921666667","24.9655433333333","6501300","土城區"
"236029","253-BX","2018/12/28 13:58:15","新北市土城區中央路二段280號","121.440806666667","24.9740783333333","6501300","土城區"
"236013","270-VK","2018/12/28 13:59:25","新北市土城區城林路6巷80號","121.438555","24.9797283333333","6501300","土城區"
"236032","271-VK","2018/12/28 13:59:15","新北市土城區城林路6巷80號","121.438483333333","24.9798183333333","6501300","土城區"
"247007","KED-0683","2018/12/28 13:59:21","新北市三重區仁愛街747號","121.481198333333","25.080585","6501400","蘆洲區"
"252001","KED-0821","2018/12/28 13:59:04","新北市三芝區淡金路一段26號","121.50008","25.2593033333333","6502100","三芝區"
"236016","401-BY","2018/12/28 13:59:11","新北市土城區城林路6巷80號","121.438551666667","24.9796483333333","6501300","土城區"
"236057","912-UM","2018/12/28 13:59:25","新北市土城區中央路三段254-2號","121.427365","24.9642333333333","6501300","土城區"
"236045","913-UM","2018/12/28 13:59:25","新北市土城區城林路6巷80號","121.438518333333","24.97976","6501300","土城區"
"236054","AAC-216","2018/12/28 13:59:28","新北市土城區中央路二段280號","121.440661666667","24.9740116666667","6501300","土城區"
"221033","647-BX","2018/12/28 13:59:13","新北市新店區安康路二段380號","121.500458333333","24.9575516666667","6501100","汐止區"
"220027","145-BY","2018/12/28 13:59:30","新北市板橋區大智街3號","121.456066666667","25.0146383333333","6500100","板橋區"
"220028","200-UY","2018/12/28 13:59:18","新北市板橋區合宜一路121-3號","121.442703333333","24.9976316666667","6500100","板橋區"
"220030","610-BX","2018/12/28 13:59:19","新北市板橋區滿平街75號","121.427863333333","24.9890583333333","6500100","板橋區"
"220040","267-BY","2018/12/28 13:59:30","新北市板橋區大同街25號","121.477566666667","25.0270216666667","6500100","板橋區"
"220004","276-BY","2018/12/28 13:59:25","新北市板橋區信義路85號","121.457231666667","24.9940033333333","6500100","板橋區"
"220020","277-BY","2018/12/28 13:59:29","新北市板橋區大觀路三段50巷59號","121.43184","24.9961283333333","6500100","板橋區"
"220050","280-UM","2018/12/28 13:59:19","新北市板橋區萬板路13號","121.470551666667","25.020965","6500100","板橋區"
"220019","283-VK","2018/12/28 13:59:32","新北市板橋區重慶路245巷26號","121.464391666667","25.0008116666667","6500100","板橋區"
"220043","285-UM","2018/12/28 13:59:22","新北市板橋區光武街132號","121.46545","25.0297833333333","6500100","板橋區"
"220001","285-VK","2018/12/28 13:59:21","新北市板橋區永豐街46號","121.474538333333","25.01953","6500100","板橋區"
"220031","286-VK","2018/12/28 13:59:21","新北市板橋區僑中二街152-1號","121.44453","25.0043333333333","6500100","板橋區"
"220029","287-VK","2018/12/28 13:59:27","新北市板橋區光華街34號","121.453816666667","25.01264","6500100","板橋區"
"220039","288-VK","2018/12/28 13:59:18","新北市板橋區裕民街42號","121.46182","25.028885","6500100","板橋區"
"220009","293-UM","2018/12/28 13:59:21","新北市板橋區三民路二段21巷15號","121.479881666667","25.0182233333333","6500100","板橋區"
"220010","295-UM","2018/12/28 13:59:22","新北市板橋區三民路二段245巷51號","121.48067","25.012665","6500100","板橋區"
"220032","296-UM","2018/12/28 13:59:20","新北市板橋區篤行路一段29號","121.432006666667","24.9946616666667","6500100","板橋區"
"220023","303-R5","2018/12/28 13:59:26","新北市板橋區南雅西路二段4號","121.453598333333","25.0090866666667","6500100","板橋區"
"220041","307-R5","2018/12/28 13:59:15","新北市板橋區文化路二段225巷60弄31號","121.469145","25.0291833333333","6500100","板橋區"
"220047","317-R6","2018/12/28 13:59:26","新北市板橋區民生路二段234巷24弄1號","121.470311666667","25.022465","6500100","板橋區"
"220038","487-VK","2018/12/28 13:59:32","新北市板橋區文化路二段331號","121.47262","25.0303666666667","6500100","板橋區"
"220037","491-VK","2018/12/28 13:59:20","新北市板橋區莊敬路38號","121.472778333333","25.02709","6500100","板橋區"
"220104","560-BX","2018/12/28 13:59:27","新北市板橋區中正路343號","121.454716666667","25.0205516666667","6500100","板橋區"
"220052","561-BX","2018/12/28 13:59:21","新北市板橋區介壽街22-1號","121.467735","25.0200816666667","6500100","板橋區"
"220003","630-UY","2018/12/28 13:59:32","新北市板橋區中山路一段140號","121.463473333333","25.0111433333333","6500100","板橋區"
"220005","686-BX","2018/12/28 13:59:31","新北市板橋區重慶路169號","121.462728333333","25.0026583333333","6500100","板橋區"
"220025","687-BX","2018/12/28 13:59:31","新北市板橋區大觀路二段174巷163弄1號","121.44173","25.0030766666667","6500100","板橋區"
"220042","689-BX","2018/12/28 13:59:28","新北市板橋區光武街87號","121.466885","25.0266766666667","6500100","板橋區"
"220002","741-BX","2018/12/28 13:59:32","新北市板橋區重慶路89巷15號","121.46269","25.006485","6500100","板橋區"
"220051","KEA-2699","2018/12/28 13:59:20","新北市板橋區田單街2巷29號","121.482175","25.0280283333333","6500100","板橋區"
"220014","829-TW","2018/12/28 13:59:29","新北市板橋區三民路2段正泰3巷18-1號","121.47794","25.0142316666667","6500100","板橋區"
"220016","831-TW","2018/12/28 13:59:20","新北市板橋區中山路二段465巷74弄4-5號","121.48129","25.02204","6500100","板橋區"
"220011","833-TW","2018/12/28 13:59:07","新北市板橋區中山路二段305號","121.47876","25.0183966666667","6500100","板橋區"
"220022","895-R6","2018/12/28 13:59:15","新北市板橋區館前西路148號","121.455735","25.0082783333333","6500100","板橋區"
"220021","985-R7","2018/12/28 13:59:18","新北市板橋區館前西路209號","121.45495","25.0084266666667","6500100","板橋區"
"220046","AAC-210","2018/12/28 13:59:21","新北市板橋區新海路135巷29號","121.460053333333","25.0228483333333","6500100","板橋區"
"220012","AAC-253","2018/12/28 13:59:33","新北市板橋區板新路62號","121.473435","25.0141883333333","6500100","板橋區"
"235032","KEA-2873","2018/12/28 13:59:18","新北市中和區連勝街38巷18號","121.497741666667","24.99796","6500300","中和區"
"235025","KEA-2875","2018/12/28 13:59:31","新北市中和區員山路469巷1號","121.48036","25.004585","6500300","中和區"
"235011","KEA-2876","2018/12/28 13:59:20","新北市中和區興南路二段94號","121.505323333333","24.984325","6500300","中和區"
