"lineid","car","time","location","longitude","latitude","cityid","cityname"
"234044","148-BY","2018/12/28 14:09:26","新北市永和區得和路328號","121.523325","24.9995683333333","6500400","永和區"
"234078","298-R6","2018/12/28 14:09:29","新北市永和區國中路95號","121.524468333333","25.006165","6500400","永和區"
"234036","336-UY","2018/12/28 14:09:26","新北市永和區環河東路三段96號","121.528206666667","25.0040783333333","6500400","永和區"
"234062","337-UY","2018/12/28 14:09:18","新北市永和區永利路150號","121.522386666667","25.0027233333333","6500400","永和區"
"234084","338-UY","2018/12/28 14:09:28","新北市永和區中正路610-1號","121.51705","25.0072333333333","6500400","永和區"
"234068","552-UM","2018/12/28 14:09:29","新北市永和區永貞路10巷7號","121.52018","25.0072466666667","6500400","永和區"
"234015","745-BX","2018/12/28 14:09:16","新北市永和區仁愛路85號","121.513186666667","25.0129333333333","6500400","永和區"
"234028","746-BX","2018/12/28 14:09:21","新北市永和區民權路51號","121.520065","24.9970483333333","6500400","永和區"
"234052","KEA-2590","2018/12/28 14:09:27","新北市永和區竹林路39巷46號","121.520233333333","25.0152216666667","6500400","永和區"
"234005","839-RS","2018/12/28 14:09:28","新北市永和區保平路149號","121.50993","25.0058733333333","6500400","永和區"
"234012","KEA-2591","2018/12/28 14:09:17","新北市永和區永貞路403號","121.507696666667","25.0090583333333","6500400","永和區"
"234060","AAD-866","2018/12/28 14:09:31","新北市中和區安平路222號","121.514016666667","25.0000183333333","6500400","永和區"
"234040","862-TW","2018/12/28 14:09:20","新北市中和區中安街175號","121.510906666667","24.9998583333333","6500400","永和區"
"234048","863-TW","2018/12/28 14:09:24","新北市永和區保安路2號","121.510718333333","25.017525","6500400","永和區"
"234025","9371-KE","2018/12/28 14:09:17","新北市永和區安樂路272巷9弄7號","121.515128333333","25.004605","6500400","永和區"
"234010","9373-KE","2018/12/28 14:09:26","新北市永和區仁愛路352巷124號","121.50016","25.0085616666667","6500400","永和區"
"248019","225-UY","2018/12/28 14:03:04","新北市五股區凌雲路三段57號","121.425311666667","25.1250233333333","6501500","五股區"
"234022","9380-KE","2018/12/28 14:09:35","新北市永和區博愛街32巷1號","121.518771666667","25.01586","6500400","永和區"
"234076","969-R7","2018/12/28 14:09:27","新北市中和區自強路2號","121.520228333333","24.9959883333333","6500400","永和區"
"234072","AAC-211","2018/12/28 14:09:35","新北市永和區竹林路201巷24弄6號","121.52239","25.0095716666667","6500400","永和區"
"234066","AAC-212","2018/12/28 14:09:21","新北市永和區保平路214巷1弄12號","121.50902","25.0059033333333","6500400","永和區"
"234001","AAC-295","2018/12/28 14:09:32","新北市永和區中正路720號","121.515908333333","25.0100533333333","6500400","永和區"
"244004","248-BX","2018/12/28 14:06:06","新北市林口區林口路76號","121.389703333333","25.0806733333333","6501700","林口區"
"231002","002-UM","2018/12/28 14:09:24","新北市新店區中正路485號","121.533961666667","24.98203","6500600","新店區"
"231027","0293-UT","2018/12/28 14:09:22","新北市新店區中興路一段24號","121.538738333333","24.9582916666667","6500600","新店區"
"231028","046-UY","2018/12/28 14:09:28","新北市新店區安和路三段57號","121.517973333333","24.9829683333333","6500600","新店區"
"231001","047-UY","2018/12/28 14:09:28","新北市新店區中華路36號","121.540048333333","24.96804","6500600","新店區"
"231005","106-UY","2018/12/28 14:09:33","新北市新店區中興路三段240號","121.543135","24.9835583333333","6500600","新店區"
"231022","108-UY","2018/12/28 14:09:25","新北市新店區屈尺路75號","121.5457","24.9226833333333","6500600","新店區"
"231012","187-VK","2018/12/28 14:09:31","新北市新店區五峰路79號","121.546293333333","24.967725","6500600","新店區"
"231023","188-VK","2018/12/28 14:09:27","新北市新店區北宜路一段41號","121.538366666667","24.9573416666667","6500600","新店區"
"231026","256-BX","2018/12/28 14:02:34","新北市新店區安康路一段44號","121.530725","24.96106","6500600","新店區"
"231036","260-TV","2018/12/28 14:09:23","新北市新店區安祥路109巷1弄57號","121.47768","24.9608766666667","6500600","新店區"
"231003","268-BY","2018/12/28 14:09:26","新北市新店區光明街96巷3號","121.53932","24.9598483333333","6500600","新店區"
"231018","278-BY","2018/12/28 14:09:28","新北市新店區中央四街100號","121.525245","24.9762516666667","6500600","新店區"
"231016","AAD-862","2018/12/28 14:09:29","新北市新店區北宜路二段392巷9號","121.566535","24.95313","6500600","新店區"
"231038","3712-VJ","2018/12/28 14:09:23","新北市新店區安康路一段79巷3號","121.529908333333","24.9611866666667","6500600","新店區"
"231037","4716-K9","2018/12/28 14:09:27","新北市新店區安康路三段242-1號","121.487923333333","24.9517783333333","6500600","新店區"
"231025","4715-K9","2018/12/28 14:09:18","新北市新店區二十張路127號","121.535963333333","24.97923","6500600","新店區"
"231013","513-UM","2018/12/28 14:09:26","新北市新店區北新路三段65巷34弄2號","121.540043333333","24.9811533333333","6500600","新店區"
"231032","515-UM","2018/12/28 14:09:17","新北市新店區華城路11號","121.529475","24.959265","6500600","新店區"
"231006","617-UM","2018/12/28 14:09:25","新北市新店區北宜路二段126號","121.556868333333","24.9537916666667","6500600","新店區"
"231030","619-UM","2018/12/28 14:09:32","新北市新店區安民街115巷28號","121.515126666667","24.9676166666667","6500600","新店區"
"231034","641-BX","2018/12/28 14:09:20","新北市新店區車子路28號","121.50405","24.9525866666667","6500600","新店區"
"231035","719-UM","2018/12/28 14:09:27","新北市新店區安和路一段52巷2-1號","121.517663333333","24.96648","6500600","新店區"
"231029","897-TW","2018/12/28 14:09:24","新北市新店區安康路二段161號","121.510236666667","24.9594716666667","6500600","新店區"
"231004","899-TW","2018/12/28 14:09:22","新北市新店區北新路二段156號","121.54295","24.97543","6500600","新店區"
"235030","003-UY","2018/12/28 14:09:15","新北市中和區廣福路64號","121.503576666667","25.0017916666667","6500300","中和區"
"235028","005-UY","2018/12/28 14:09:14","新北市中和區連城路2號","121.499285","25.0023833333333","6500300","中和區"
"235027","006-UY","2018/12/28 14:09:32","新北市中和區連城路249巷10弄1號","121.493748333333","24.9964466666667","6500300","中和區"
"235020","096-UM","2018/12/28 14:09:29","新北市中和區員山路570號","121.478781666667","25.011105","6500300","中和區"
"235003","097-UM","2018/12/28 14:09:29","新北市中和區秀峰街119巷4弄1號","121.519781666667","24.9901683333333","6500300","中和區"
"235004","150-BY","2018/12/28 14:09:28","新北市中和區保健路67巷10號","121.510186666667","24.9975466666667","6500300","中和區"
"235022","151-BY","2018/12/28 14:09:29","新北市中和區連城路523巷11弄1號","121.481705","24.9942583333333","6500300","中和區"
"235019","183-VK","2018/12/28 14:09:32","新北市中和區德光路47號","121.470243333333","25.004075","6500300","中和區"
"235002","185-VK","2018/12/28 14:09:22","新北市中和區大仁街10巷27弄4號","121.519218333333","24.9927216666667","6500300","中和區"
"235013","186-VK","2018/12/28 14:09:31","新北市中和區景新街243號","121.50828","24.99439","6500300","中和區"
"235031","255-BX","2018/12/28 14:09:23","新北市中和區新生街233巷10號","121.484425","24.9985366666667","6500300","中和區"
"235008","293-VK","2018/12/28 14:09:30","新北市中和區復興路346號","121.500141666667","24.990375","6500300","中和區"
"235036","301-VK","2018/12/28 14:09:30","新北市中和區景平路731號","121.496341666667","25.00423","6500300","中和區"
"235006","KEA-2878","2018/12/28 14:09:28","新北市中和區立人街1號","121.521928333333","24.99383","6500300","中和區"
"247011","KEA-2869","2018/12/28 14:09:18","新北市蘆洲區信義路317號","121.478363333333","25.086355","6501400","蘆洲區"
"247005","KED-0682","2018/12/28 14:09:22","新北市蘆洲區永安南路二段16巷16號","121.46794","25.07775","6501400","蘆洲區"
"235014","4979-A6","2018/12/28 14:09:20","新北市中和區復興路280巷18弄2號","121.502508333333","24.9915616666667","6500300","中和區"
"235033","4980-A6","2018/12/28 14:09:19","新北市中和區中和路165巷3-1號","121.502611666667","25.00021","6500300","中和區"
"235034","558-UM","2018/12/28 14:09:28","新北市中和區中山路二段231號","121.498206666667","25.0025","6500300","中和區"
"235009","565-BX","2018/12/28 14:09:21","新北市中和區景新街435號","121.513216666667","24.98903","6500300","中和區"
"235018","640-BX","2018/12/28 14:09:24","新北市中和區國光街107巷2弄25號","121.469626666667","24.9992466666667","6500300","中和區"
"235024","647-TV","2018/12/28 14:09:20","新北市中和區中山路三段95號","121.47532","25.006015","6500300","中和區"
"235010","733-UM","2018/12/28 14:09:20","新北市中和區忠孝街1巷15號","121.508588333333","24.9837333333333","6500300","中和區"
"235035","783-BX","2018/12/28 14:09:16","新北市中和區板南路472號","121.489056666667","25.0059316666667","6500300","中和區"
"235026","800-TS","2018/12/28 14:09:14","新北市中和區橋和路98號","121.490666666667","25.005455","6500300","中和區"
"235021","801-TS","2018/12/28 14:09:24","新北市中和區民利街53號","121.479346666667","24.9987583333333","6500300","中和區"
"235005","802-TS","2018/12/28 14:09:22","新北市中和區宜安路118巷14號","121.510648333333","24.9984483333333","6500300","中和區"
"235016","805-TS","2018/12/28 14:09:27","新北市中和區興南路二段142巷25弄4號","121.50299","24.9838166666667","6500300","中和區"
"235012","896-TW","2018/12/28 14:09:18","新北市中和區華新街109巷11弄2-4號","121.508735","24.9795316666667","6500300","中和區"
"235017","900-TW","2018/12/28 14:09:26","新北市中和區華福街71巷2號","121.467216666667","24.9968783333333","6500300","中和區"
"235029","911-UM","2018/12/28 14:09:16","新北市中和區中山路二段2巷3弄1號","121.50486","25.0061633333333","6500300","中和區"
"235015","157-BY","2018/12/28 14:09:18","新北市中和區興南路一段80號","121.510365","24.9898166666667","6500300","中和區"
"235001","AAC-213","2018/12/28 14:09:32","新北市中和區秀朗路三段50巷3號","121.526105","24.9954533333333","6500300","中和區"
"235023","AAC-215","2018/12/28 14:09:23","新北市中和區圓通路294巷17-5號","121.48866","24.9903266666667","6500300","中和區"
"220013","072-UY","2018/12/28 14:09:26","新北市板橋區民族路219巷59號","121.468753333333","25.0086516666667","6500100","板橋區"
"220034","073-UY","2018/12/28 14:09:18","新北市板橋區中正路216巷20號","121.456668333333","25.0184933333333","6500100","板橋區"
"220105","075-UY","2018/12/28 14:09:26","新北市板橋區雙十路三段69號","121.470188333333","25.0325833333333","6500100","板橋區"
"220017","AAD-861","2018/12/28 14:09:23","新北市板橋區華興街21巷23號","121.45875","25.003645","6500100","板橋區"
"220016","120-SR","2018/12/28 13:58:07","新北市板橋區民族路219巷67號","121.468451666667","25.0091666666667","6500100","板橋區"
"247001","893-R6","2018/12/28 14:09:32","新北市蘆洲區永平街62號","121.457228333333","25.0917683333333","6501400","蘆洲區"
"247015","546-UM","2018/12/28 14:09:26","新北市蘆洲區光華路46巷32號","121.468026666667","25.084045","6501400","蘆洲區"
"247023","500-BY","2018/12/28 14:09:34","新北市蘆洲區光榮路112號","121.464358333333","25.0892516666667","6501400","蘆洲區"
"247009","336-TH","2018/12/28 14:09:27","新北市蘆洲區三民路52號","121.475345","25.0835966666667","6501400","蘆洲區"
"247019","057-VK","2018/12/28 14:09:24","新北市蘆洲區民族路426巷60號","121.472716666667","25.09386","6501400","蘆洲區"
"247013","053-VK","2018/12/28 14:09:16","新北市蘆洲區忠孝路72號","121.471603333333","25.0854533333333","6501400","蘆洲區"
"247017","007-UY","2018/12/28 14:09:22","新北市蘆洲區民族路201巷11號","121.47742","25.0888233333333","6501400","蘆洲區"
"247003","002-UY","2018/12/28 14:09:16","新北市蘆洲區長安街114號","121.4608","25.0816633333333","6501400","蘆洲區"
"247021","001-UY","2018/12/28 14:09:30","新北市蘆洲區三民路165號","121.471383333333","25.087055","6501400","蘆洲區"
"207002","749-BX","2018/12/28 14:06:56","新北市萬里區溪底里瑞泉路21號","121.604671666667","25.14885","6502800","萬里區"
"207001","662-BX","2018/12/28 14:09:26","新北市萬里區磺潭里清水18號","121.63787","25.1976516666667","6502800","萬里區"
"236067","105-UM","2018/12/28 14:09:27","新北市土城區明德路一段215號","121.46333","24.9786016666667","6501300","土城區"
"236040","KED-0685","2018/12/28 14:09:23","新北市土城區城林路6巷80號","121.43842","24.979735","6501300","土城區"
"236077","166-UM","2018/12/28 14:09:28","新北市土城區永寧路32巷8號","121.429053333333","24.9606916666667","6501300","土城區"
"236029","253-BX","2018/12/28 14:09:29","新北市土城區中央路三段1號","121.439733333333","24.97076","6501300","土城區"
"236013","270-VK","2018/12/28 14:09:25","新北市土城區學府路一段215號","121.45148","24.9844533333333","6501300","土城區"
"236032","271-VK","2018/12/28 14:09:15","新北市土城區青雲路449-1號","121.458885","24.9747833333333","6501300","土城區"
"247007","KED-0683","2018/12/28 14:09:21","新北市蘆洲區中山一路294號","121.470553333333","25.0781716666667","6501400","蘆洲區"
"252001","KED-0821","2018/12/28 14:09:24","新北市三芝區淡金路一段26號","121.500051666667","25.2593216666667","6502100","三芝區"
"236016","401-BY","2018/12/28 14:09:31","新北市土城區城林路6巷80號","121.438558333333","24.9796566666667","6501300","土城區"
"236057","912-UM","2018/12/28 14:09:25","新北市土城區中央路四段196-1號","121.416326666667","24.957715","6501300","土城區"
"236045","913-UM","2018/12/28 14:09:25","新北市土城區明德路一段365-1號","121.453561666667","24.97906","6501300","土城區"
"236054","AAC-216","2018/12/28 14:09:28","新北市土城區中華路二段102號","121.438033333333","24.9743433333333","6501300","土城區"
"221033","647-BX","2018/12/28 14:08:53","台北市文山區老泉街45巷18-1號","121.575291666667","24.976085","6501100","汐止區"
"220027","145-BY","2018/12/28 14:09:30","新北市板橋區民權路254號","121.458255","25.01494","6500100","板橋區"
"220028","200-UY","2018/12/28 14:09:18","新北市板橋區大觀路二段7巷29號","121.447968333333","25.003405","6500100","板橋區"
"220030","610-BX","2018/12/28 14:09:29","新北市板橋區溪崑二街111巷1號","121.426695","24.9887783333333","6500100","板橋區"
"220040","267-BY","2018/12/28 14:09:30","新北市板橋區三民路一段1巷53號","121.480925","25.0249816666667","6500100","板橋區"
"220004","276-BY","2018/12/28 14:09:28","新北市板橋區信義路74巷3弄1號","121.457051666667","24.9930383333333","6500100","板橋區"
"220020","277-BY","2018/12/28 14:09:29","新北市板橋區金門街369巷58號","121.428276666667","24.98171","6500100","板橋區"
"220050","280-UM","2018/12/28 14:09:30","新北市板橋區莊敬路25巷13號","121.474575","25.0271866666667","6500100","板橋區"
"220019","283-VK","2018/12/28 14:09:32","新北市中和區華順街60號","121.46533","24.9983616666667","6500100","板橋區"
"220043","285-UM","2018/12/28 14:09:19","新北市板橋區吳鳳路19巷18號","121.466866666667","25.03089","6500100","板橋區"
"220001","285-VK","2018/12/28 14:09:21","新北市板橋區懷仁街25巷7號","121.476731666667","25.0199666666667","6500100","板橋區"
"220031","286-VK","2018/12/28 14:09:21","新北市板橋區大觀路二段174巷196弄1號","121.442558333333","25.0039883333333","6500100","板橋區"
"220029","287-VK","2018/12/28 14:09:23","新北市板橋區南雅西路二段191號","121.451803333333","25.0130733333333","6500100","板橋區"
"220039","288-VK","2018/12/28 14:09:19","新北市板橋區長江路一段106巷13弄13號","121.460548333333","25.02935","6500100","板橋區"
"220009","293-UM","2018/12/28 14:09:21","新北市板橋區中山路二段255巷7號","121.477013333333","25.01797","6500100","板橋區"
"220010","295-UM","2018/12/28 14:09:18","新北市板橋區三民路二段居仁巷1弄20號","121.479838333333","25.0135866666667","6500100","板橋區"
"220032","296-UM","2018/12/28 14:09:20","新北市板橋區溪崑二街66巷4號","121.427773333333","24.9907316666667","6500100","板橋區"
"220023","303-R5","2018/12/28 14:09:26","新北市板橋區林園街28號","121.454043333333","25.01007","6500100","板橋區"
"220041","307-R5","2018/12/28 14:09:09","新北市板橋區松江街70號","121.468635","25.0277433333333","6500100","板橋區"
"220047","317-R6","2018/12/28 14:09:26","新北市板橋區民有街32號","121.465981666667","25.0254566666667","6500100","板橋區"
"220038","487-VK","2018/12/28 14:09:32","新北市板橋區文化路一段186號","121.465871666667","25.0198","6500100","板橋區"
"220037","491-VK","2018/12/28 14:09:20","新北市板橋區文化路二段182巷3弄66號","121.472633333333","25.0285983333333","6500100","板橋區"
"220104","560-BX","2018/12/28 14:09:24","新北市板橋區中正路415號","121.454125","25.0226966666667","6500100","板橋區"
"220052","561-BX","2018/12/28 14:09:21","新北市板橋區文化路一段268號","121.467023333333","25.0209833333333","6500100","板橋區"
"220003","630-UY","2018/12/28 14:09:12","新北市板橋區區運路19號","121.465388333333","25.0102033333333","6500100","板橋區"
"220005","686-BX","2018/12/28 14:09:31","新北市板橋區重慶路322-4號","121.464043333333","24.997835","6500100","板橋區"
"220025","687-BX","2018/12/28 14:09:25","新北市板橋區龍興街36號","121.443091666667","25.0005716666667","6500100","板橋區"
"220042","689-BX","2018/12/28 14:09:24","新北市板橋區新海路3號","121.462706666667","25.0204266666667","6500100","板橋區"
"220002","741-BX","2018/12/28 14:09:26","新北市板橋區四川路一段144號","121.460026666667","25.00365","6500100","板橋區"
"220051","KEA-2699","2018/12/28 14:09:20","新北市板橋區田單街6號","121.482168333333","25.0289916666667","6500100","板橋區"
"220014","829-TW","2018/12/28 14:09:29","新北市板橋區三民路二段正隆巷41號","121.476971666667","25.0136833333333","6500100","板橋區"
"220016","831-TW","2018/12/28 14:09:20","新北市板橋區翠華街6巷29號","121.481426666667","25.0244833333333","6500100","板橋區"
"220011","833-TW","2018/12/28 14:09:27","新北市板橋區三民路二段203-4號","121.479105","25.01355","6500100","板橋區"
"220022","895-R6","2018/12/28 14:09:24","新北市板橋區倉後街3號","121.455415","25.009575","6500100","板橋區"
"220021","985-R7","2018/12/28 14:09:33","新北市板橋區中正路148號","121.45672","25.0163116666667","6500100","板橋區"
"220046","AAC-210","2018/12/28 14:09:29","新北市板橋區幸福路60巷4號","121.460716666667","25.0209183333333","6500100","板橋區"
"220012","AAC-253","2018/12/28 14:09:19","新北市板橋區民權路27號","121.462436666667","25.0108383333333","6500100","板橋區"
"235032","KEA-2873","2018/12/28 14:09:18","新北市中和區圓通路158巷24號","121.498378333333","24.9969883333333","6500300","中和區"
"235025","KEA-2875","2018/12/28 14:09:31","新北市中和區連城路456巷9號","121.47865","24.9952016666667","6500300","中和區"
"235011","KEA-2876","2018/12/28 14:09:20","新北市中和區興南路一段71號","121.510135","24.98932","6500300","中和區"
