"lineid","car","time","location","longitude","latitude","cityid","cityname"
"248019","225-UY","2018/12/28 15:19:27","新北市五股區凌雲路二段48號","121.439453333333","25.1028433333333","6501500","五股區"
"244004","248-BX","2018/12/28 15:19:24","新北市林口區東林街45號","121.394618333333","25.0796183333333","6501700","林口區"
"231002","002-UM","2018/12/28 15:19:25","新北市新店區中正路700巷2號","121.53402","24.9911166666667","6500600","新店區"
"231028","046-UY","2018/12/28 15:19:31","新北市新店區僑信路126巷22號","121.499495","24.94569","6500600","新店區"
"231001","047-UY","2018/12/28 15:19:28","新北市新店區北新路一段257號","121.540918333333","24.966175","6500600","新店區"
"231005","106-UY","2018/12/28 15:19:33","新北市新店區建國路221號","121.537653333333","24.9813966666667","6500600","新店區"
"231022","108-UY","2018/12/28 15:19:25","新北市新店區永福路54-2號","121.558248333333","24.9286516666667","6500600","新店區"
"231012","187-VK","2018/12/28 15:19:31","新北市新店區寶慶街66號","121.54195","24.98671","6500600","新店區"
"231023","188-VK","2018/12/28 15:19:31","新北市新店區北新路一段88巷11號","121.543048333333","24.9671933333333","6500600","新店區"
"231026","256-BX","2018/12/28 15:19:33","新北市新店區中正路247巷4弄10號","121.53851","24.9733733333333","6500600","新店區"
"231036","260-TV","2018/12/28 15:19:22","新北市新店區安祥路67巷50弄15號","121.484211666667","24.9588516666667","6500600","新店區"
"231003","268-BY","2018/12/28 15:19:26","新北市新店區寶橋路230號","121.551531666667","24.9788433333333","6500600","新店區"
"231018","278-BY","2018/12/28 15:19:23","新北市新店區中央八街70號","121.527695","24.9766916666667","6500600","新店區"
"231016","AAD-862","2018/12/28 15:19:29","新北市新店區明山路45號","121.56353","24.9557966666667","6500600","新店區"
"231038","3712-VJ","2018/12/28 15:14:27","新北市新店區安一路一段1-1號","121.519686666667","24.9614566666667","6500600","新店區"
"231025","4715-K9","2018/12/28 15:19:18","新北市新店區環河路22-1號","121.536916666667","24.961985","6500600","新店區"
"231013","513-UM","2018/12/28 15:19:26","新北市新店區永業路81巷1弄1-1號","121.529478333333","24.9493933333333","6500600","新店區"
"231032","515-UM","2018/12/28 15:19:17","新北市新店區安泰路125-1號","121.487425","24.94025","6500600","新店區"
"231006","617-UM","2018/12/28 15:19:25","新北市新店區檳榔路2號","121.540928333333","24.9649883333333","6500600","新店區"
"231030","619-UM","2018/12/28 15:19:32","新北市新店區安民街341-1號","121.516785","24.9749033333333","6500600","新店區"
"231034","641-BX","2018/12/28 15:19:20","新北市新店區如意街3巷2號","121.495521666667","24.9491533333333","6500600","新店區"
"231039","718-UY","2018/12/28 15:19:23","新北市新店區中興路三段312號","121.54219","24.9857266666667","6500600","新店區"
"231035","719-UM","2018/12/28 15:19:27","新北市新店區永平街23巷10號","121.516621666667","24.9830383333333","6500600","新店區"
"231029","897-TW","2018/12/28 15:19:24","新北市新店區安康路三段738號","121.473921666667","24.9419216666667","6500600","新店區"
"231004","899-TW","2018/12/28 15:19:22","新北市新店區博愛街13巷24號","121.540243333333","24.9740633333333","6500600","新店區"
"231024","AKT-0513","2018/12/28 15:19:23","新北市新店區安民街2號","121.515383333333","24.9637416666667","6500600","新店區"
"241017","063-VK","2018/12/28 15:19:20","新北市三重區重新路四段121號","121.484901666667","25.0519383333333","6500200","三重區"
"241013","270-UM","2018/12/28 15:19:32","新北市三重區重新路四段121號","121.485118333333","25.05202","6500200","三重區"
"235030","003-UY","2018/12/28 15:19:14","新北市中和區光華街31巷22弄11號","121.505795","25.0045933333333","6500300","中和區"
"235004","150-BY","2018/12/28 15:19:28","新北市中和區景安路79巷27-3號","121.507133333333","24.996595","6500300","中和區"
"235014","4979-A6","2018/12/28 15:19:31","新北市中和區景平路466號","121.505701666667","24.9936533333333","6500300","中和區"
"235033","4980-A6","2018/12/28 15:19:19","新北市中和區圓通路165號","121.497795","24.995475","6500300","中和區"
"235005","802-TS","2018/12/28 15:19:22","新北市中和區員山路36巷16-3號","121.485025","24.9913283333333","6500300","中和區"
"235012","896-TW","2018/12/28 15:19:18","新北市中和區景新街368號","121.512205","24.99042","6500300","中和區"
"235015","157-BY","2018/12/28 15:19:18","新北市新店區薏仁坑路自強巷1號","121.49751","24.9577566666667","6500300","中和區"
"235023","AAC-215","2018/12/28 15:19:23","新北市中和區圓通路435巷3-1號","121.487888333333","24.98637","6500300","中和區"
"207002","749-BX","2018/12/28 15:19:16","新北市萬里區崁腳里內中福路2-1號","121.669148333333","25.16536","6502800","萬里區"
"207001","662-BX","2018/12/28 15:19:26","新北市萬里區大鵬里萬里加投15-2號","121.650403333333","25.2091766666667","6502800","萬里區"
"236067","105-UM","2018/12/28 15:19:27","新北市土城區裕民路185巷36弄10號","121.454396666667","24.9844816666667","6501300","土城區"
"236040","KED-0685","2018/12/28 15:19:32","新北市土城區裕民路185巷18號","121.454105","24.98486","6501300","土城區"
"236077","166-UM","2018/12/28 15:19:25","新北市土城區中央路四段349巷3號","121.409258333333","24.9504616666667","6501300","土城區"
"236029","253-BX","2018/12/28 15:19:29","新北市土城區中央路一段262巷9號","121.443485","24.9840283333333","6501300","土城區"
"236024","269-VK","2018/12/28 15:19:18","新北市土城區學府路二段228號","121.445093333333","24.97702","6501300","土城區"
"236013","270-VK","2018/12/28 15:19:25","新北市土城區廣福街92巷2號","121.456531666667","24.991275","6501300","土城區"
"236032","271-VK","2018/12/28 15:19:35","新北市土城區國際路57號","121.466673333333","24.9769583333333","6501300","土城區"
"252001","KED-0821","2018/12/28 15:11:06","新北市三芝區埔坪里埔頭坑41號","121.504555","25.264445","6502100","三芝區"
"236016","401-BY","2018/12/28 15:19:31","新北市土城區峰廷街14號","121.468816666667","24.9875233333333","6501300","土城區"
"236057","912-UM","2018/12/28 15:19:25","新北市土城區中央路二段233號","121.440395","24.9723483333333","6501300","土城區"
"236045","913-UM","2018/12/28 15:19:33","新北市土城區明德路一段101號","121.465655","24.9828483333333","6501300","土城區"
"236060","915-UM","2018/12/28 15:19:33","新北市土城區延和路105巷1弄15號","121.466793333333","24.9901666666667","6501300","土城區"
"236054","AAC-216","2018/12/28 15:19:37","新北市土城區延和路18巷2號","121.464313333333","24.988145","6501300","土城區"
"221033","647-BX","2018/12/28 15:19:13","新北市汐止區汐萬路一段407號","121.649313333333","25.0793","6501100","汐止區"
"220031","286-VK","2018/12/28 15:19:21","新北市板橋區僑中二街108巷11號","121.445308333333","25.00737","6500100","板橋區"
"220029","287-VK","2018/12/28 15:19:23","新北市板橋區大觀路一段28巷104號","121.450198333333","25.0110916666667","6500100","板橋區"
"220025","687-BX","2018/12/28 15:19:22","新北市板橋區大觀路一段28巷1弄104號","121.451601666667","25.0061266666667","6500100","板橋區"
"220051","KEA-2699","2018/12/28 15:19:20","新北市板橋區民生路二段161巷1號","121.470283333333","25.020015","6500100","板橋區"
"220022","895-R6","2018/12/28 15:19:15","新北市板橋區南雅南路一段7巷22弄8號","121.455716666667","25.0045816666667","6500100","板橋區"
