"lineid","car","time","location","longitude","latitude","cityid","cityname"
"231002","002-UM","2018/12/28 15:29:24","新北市新店區環河路121-2號","121.53032","24.9712516666667","6500600","新店區"
"231028","046-UY","2018/12/28 15:29:31","新北市新店區僑信路98號","121.499928333333","24.94758","6500600","新店區"
"231005","106-UY","2018/12/28 15:29:33","新北市新店區建國路276號","121.537206666667","24.9837883333333","6500600","新店區"
"231022","108-UY","2018/12/28 15:29:25","新北市新店區永福路54-2號","121.55822","24.9286366666667","6500600","新店區"
"231012","187-VK","2018/12/28 15:29:31","新北市新店區寶元路一段105號","121.545486666667","24.983175","6500600","新店區"
"231023","188-VK","2018/12/28 15:29:31","新北市新店區北新路一段96巷23號","121.54294","24.9686333333333","6500600","新店區"
"231026","256-BX","2018/12/28 15:29:33","新北市新店區三民路117巷5弄2號","121.534188333333","24.9710866666667","6500600","新店區"
"231036","260-TV","2018/12/28 15:29:22","新北市新店區安祥路98-3號","121.48703","24.958745","6500600","新店區"
"231003","268-BY","2018/12/28 15:29:26","新北市新店區寶高路120巷1號","121.554591666667","24.9760016666667","6500600","新店區"
"231018","278-BY","2018/12/28 15:29:23","新北市新店區民生路126號","121.529766666667","24.982515","6500600","新店區"
"231016","AAD-862","2018/12/28 15:29:29","新北市新店區明山路45號","121.56354","24.95579","6500600","新店區"
"231038","3712-VJ","2018/12/28 15:14:27","新北市新店區安一路一段1-1號","121.519686666667","24.9614566666667","6500600","新店區"
"231037","4716-K9","2018/12/28 15:29:27","新北市新店區安興路85-63號","121.514788333333","24.97567","6500600","新店區"
"231025","4715-K9","2018/12/28 15:29:18","新北市新店區薏仁坑路6號","121.500381666667","24.957945","6500600","新店區"
"231013","513-UM","2018/12/28 15:29:26","新北市新店區永業路81巷1弄1-1號","121.52947","24.94939","6500600","新店區"
"231032","515-UM","2018/12/28 15:29:17","新北市新店區安康路三段109-1號","121.491108333333","24.9517416666667","6500600","新店區"
"231030","619-UM","2018/12/28 15:29:12","新北市新店區安和路三段61號","121.517985","24.9831516666667","6500600","新店區"
"231034","641-BX","2018/12/28 15:29:20","新北市新店區玫瑰路16號","121.49499","24.9503416666667","6500600","新店區"
"231039","718-UY","2018/12/28 15:29:23","新北市新店區寶元路一段85號","121.543001666667","24.9854683333333","6500600","新店區"
"231035","719-UM","2018/12/28 15:29:27","新北市新店區安興路69-1號","121.515615","24.9751816666667","6500600","新店區"
"231029","897-TW","2018/12/28 15:29:24","新北市新店區安康路三段571巷2-1號","121.474161666667","24.9422266666667","6500600","新店區"
"231004","899-TW","2018/12/28 15:29:22","新北市新店區民族路108號","121.538191666667","24.9773533333333","6500600","新店區"
"241011","013-R5","2018/12/28 15:29:26","新北市三重區正義南路183號","121.499136666667","25.0563866666667","6500200","三重區"
"241008","059-VK","2018/12/28 15:29:19","新北市三重區重新路四段121號","121.484971666667","25.0519","6500200","三重區"
"241015","062-VK","2018/12/28 15:29:33","新北市三重區重新路四段121號","121.485053333333","25.05203","6500200","三重區"
"241017","063-VK","2018/12/28 15:29:20","新北市三重區重新路四段121號","121.484803333333","25.05191","6500200","三重區"
"241003","091-VK","2018/12/28 15:29:24","新北市三重區重新路四段121號","121.484878333333","25.051855","6500200","三重區"
"241018","268-UM","2018/12/28 15:29:23","新北市三重區重新路四段121號","121.48484","25.052045","6500200","三重區"
"241013","270-UM","2018/12/28 15:29:32","新北市三重區新北大道一段250號","121.479845","25.0614216666667","6500200","三重區"
"241007","398-BY","2018/12/28 15:29:25","新北市三重區重新路四段121號","121.484958333333","25.0519133333333","6500200","三重區"
"241020","478-VK","2018/12/28 15:29:26","新北市三重區重新路四段121號","121.485138333333","25.0520166666667","6500200","三重區"
"241033","557-UM","2018/12/28 15:29:23","新北市三重區成功路90號","121.488041666667","25.05136","6500200","三重區"
"235014","4979-A6","2018/12/28 15:29:31","新北市中和區景平路544號","121.502403333333","24.994685","6500300","中和區"
"235033","4980-A6","2018/12/28 15:29:19","新北市中和區中正路578號","121.48627","24.9947216666667","6500300","中和區"
"235046","733-UM","2018/12/28 15:27:50","新北市中和區員山路36巷13號","121.484188333333","24.9907933333333","6500300","中和區"
"235005","802-TS","2018/12/28 15:29:22","新北市中和區員山路36巷16-3號","121.484986666667","24.9913666666667","6500300","中和區"
"235015","157-BY","2018/12/28 15:29:18","新北市新店區安忠路57巷11弄14號","121.514978333333","24.9577333333333","6500300","中和區"
"235023","AAC-215","2018/12/28 15:29:23","新北市中和區圓通路435巷1號","121.486506666667","24.9876016666667","6500300","中和區"
"227003","642-TC","2018/12/28 15:29:19","新北市雙溪區三貂里政光路3-1號","121.85102","25.0633916666667","6502500","雙溪區"
"236067","105-UM","2018/12/28 15:29:27","新北市土城區中央路二段183號","121.442023333333","24.9758083333333","6501300","土城區"
"236040","KED-0685","2018/12/28 15:29:23","新北市土城區學府路一段122號","121.45527","24.9875783333333","6501300","土城區"
"236077","166-UM","2018/12/28 15:29:25","新北市土城區中州路52巷2弄2號","121.413133333333","24.9583583333333","6501300","土城區"
"236029","253-BX","2018/12/28 15:29:28","新北市土城區中央路一段225-1號","121.445626666667","24.986335","6501300","土城區"
"236024","269-VK","2018/12/28 15:29:18","新北市土城區明德路二段120號","121.444741666667","24.98433","6501300","土城區"
"236013","270-VK","2018/12/28 15:29:25","新北市土城區廣明街23巷7號","121.455283333333","24.9924016666667","6501300","土城區"
"236032","271-VK","2018/12/28 15:29:15","新北市土城區延吉街373巷7號","121.464005","24.983455","6501300","土城區"
"252001","KED-0821","2018/12/28 15:11:06","新北市三芝區埔坪里埔頭坑41號","121.504555","25.264445","6502100","三芝區"
"236016","401-BY","2018/12/28 15:29:33","新北市土城區延吉街109號","121.4714","24.9866833333333","6501300","土城區"
"236057","912-UM","2018/12/28 15:29:25","新北市土城區中央路一段343號","121.443228333333","24.9814483333333","6501300","土城區"
"236045","913-UM","2018/12/28 15:29:32","新北市土城區青雲路113號","121.4591","24.98441","6501300","土城區"
"236054","AAC-216","2018/12/28 15:29:28","新北市土城區金城路三段177號","121.469496666667","24.988685","6501300","土城區"
"220029","287-VK","2018/12/28 15:29:23","新北市板橋區板城路421號","121.448423333333","24.9959883333333","6500100","板橋區"
"220025","687-BX","2018/12/28 15:29:22","新北市板橋區大觀路三段59巷17弄5-1號","121.434938333333","24.9951916666667","6500100","板橋區"
