"lineid","car","time","location","longitude","latitude","cityid","cityname"
"231046","107-UY","2018/12/28 16:09:23","新北市新店區灣潭路5-2號","121.537638333333","24.94983","6500600","新店區"
"231012","187-VK","2018/12/28 16:09:31","新北市新店區安民街133巷26號","121.515525","24.9696716666667","6500600","新店區"
"231018","278-BY","2018/12/28 16:09:23","新北市新店區中正路694巷15號","121.535341666667","24.9908833333333","6500600","新店區"
"231034","641-BX","2018/12/28 16:09:20","新北市新店區安康路三段2號","121.49406","24.95392","6500600","新店區"
"231035","719-UM","2018/12/28 16:09:07","新北市新店區薏仁坑路6號","121.500381666667","24.9579166666667","6500600","新店區"
"241011","013-R5","2018/12/28 16:09:26","新北市三重區正義北路351號","121.493158333333","25.0717433333333","6500200","三重區"
"241028","022-UY","2018/12/28 16:09:25","新北市三重區正義南路107號","121.498225","25.058555","6500200","三重區"
"241008","059-VK","2018/12/28 16:09:19","新北市三重區力行路二段136巷45弄14號","121.479105","25.0754533333333","6500200","三重區"
"241022","060-VK","2018/12/28 16:09:31","新北市三重區新北大道一段7號","121.48957","25.0614533333333","6500200","三重區"
"241031","061-VK","2018/12/28 16:09:28","新北市三重區重新路四段121號","121.485038333333","25.0522766666667","6500200","三重區"
"241015","062-VK","2018/12/28 16:09:33","新北市三重區福德南路65巷2號","121.502666666667","25.0604716666667","6500200","三重區"
"241017","063-VK","2018/12/28 16:09:20","新北市三重區大同北路148巷76號","121.490218333333","25.0645516666667","6500200","三重區"
"241024","065-VK","2018/12/28 16:07:36","新北市三重區中正北路145巷7弄2號","121.484746666667","25.0679066666667","6500200","三重區"
"241002","090-VK","2018/12/28 16:09:25","新北市三重區仁義街91號","121.499808333333","25.0794416666667","6500200","三重區"
"241003","091-VK","2018/12/28 16:09:32","新北市三重區仁義街220巷18號","121.494641666667","25.0837383333333","6500200","三重區"
"241005","262-UM","2018/12/28 16:09:20","新北市三重區溪尾街305號","121.487583333333","25.0836933333333","6500200","三重區"
"241016","266-UM","2018/12/28 16:09:33","新北市三重區大仁街62號","121.492296666667","25.0650016666667","6500200","三重區"
"241009","267-UM","2018/12/28 16:09:14","新北市三重區力行路二段96號","121.482006666667","25.07462","6500200","三重區"
"241018","268-UM","2018/12/28 16:09:23","新北市三重區中正北路35號","121.491348333333","25.0625866666667","6500200","三重區"
"241013","270-UM","2018/12/28 16:09:32","新北市三重區安樂街8號","121.496943333333","25.06971","6500200","三重區"
"241025","271-UM","2018/12/28 16:09:21","新北市三重區忠孝路三段40巷6弄1號","121.481946666667","25.0664566666667","6500200","三重區"
"241007","398-BY","2018/12/28 16:09:25","新北市三重區慈愛街1號","121.484583333333","25.078365","6500200","三重區"
"241004","475-VK","2018/12/28 16:09:35","新北市三重區五華街74號","121.493455","25.0819816666667","6500200","三重區"
"241020","478-VK","2018/12/28 16:09:26","新北市三重區大勇街1號","121.483768333333","25.0713183333333","6500200","三重區"
"241014","543-UM","2018/12/28 16:09:25","新北市三重區福德南路71號","121.502476666667","25.0599933333333","6500200","三重區"
"241001","547-UM","2018/12/28 16:09:24","新北市三重區忠孝路一段183號","121.487241666667","25.071675","6500200","三重區"
"241033","557-UM","2018/12/28 16:09:03","新北市三重區五谷王南街48-1號","121.474238333333","25.04478","6500200","三重區"
"241019","KEA-2593","2018/12/28 16:09:37","新北市三重區重陽路四段2號","121.49037","25.0688016666667","6500200","三重區"
"241006","AAD-863","2018/12/28 16:09:29","新北市三重區力行路二段158號","121.482725","25.07629","6500200","三重區"
"241026","743-BX","2018/12/28 16:09:33","新北市三重區正義南路54號","121.498401666667","25.0607333333333","6500200","三重區"
"241023","887-TS","2018/12/28 16:09:20","新北市三重區力行路一段58巷1號","121.484366666667","25.068915","6500200","三重區"
"241012","941-UM","2018/12/28 16:09:23","新北市三重區三和路三段5號","121.497035","25.070675","6500200","三重區"
"241029","942-UM","2018/12/28 16:09:31","新北市三重區同安街90號","121.495075","25.05648","6500200","三重區"
"235026","800-TS","2018/12/28 16:09:34","新北市中和區立業路51號","121.492723333333","25.0073616666667","6500300","中和區"
"224007","275-VK","2018/12/28 16:09:32","新北市瑞芳區粗坑口路24號","121.761331666667","25.0989183333333","6501200","瑞芳區"
"227003","642-TC","2018/12/28 16:09:19","新北市雙溪區上林里內平林47號","121.833296666667","25.0303966666667","6502500","雙溪區"
"227011","400-TW","2018/12/28 16:09:18","新北市雙溪區三港里雙澳路75號","121.883556666667","25.053945","6502500","雙溪區"
"251008","181-VK","2018/12/28 16:09:23","新北市淡水區中正路253號","121.433416666667","25.1744066666667","6501000","淡水區"
"236040","KED-0685","2018/12/28 16:09:23","新北市土城區中央路三段124號","121.4351","24.9659566666667","6501300","土城區"
"247008","KED-0683","2018/12/28 15:44:40","新北市五股區中興路三段163號","121.449136666667","25.0806783333333","6501400","蘆洲區"
"252001","KED-0821","2018/12/28 16:00:30","新北市三芝區埔坪里埔頭坑41號","121.504575","25.2644633333333","6502100","三芝區"
"236057","912-UM","2018/12/28 16:09:25","新北市土城區永寧路57-1號","121.429023333333","24.9598116666667","6501300","土城區"
