"lineid","car","time","location","longitude","latitude","cityid","cityname"
"249001","173-UM","2018/12/28 17:29:30","新北市八里區龍米路三段49號","121.424025","25.1588583333333","6502300","八里區"
"249004","303-UY","2018/12/28 17:29:23","新北市八里區民治街46號","121.414331666667","25.1573666666667","6502300","八里區"
"249002","305-UY","2018/12/28 17:29:33","新北市八里區龍米路一段221號","121.451383333333","25.1320766666667","6502300","八里區"
"249003","593-UM","2018/12/28 17:29:21","新北市八里區中山路二段398號","121.400573333333","25.147795","6502300","八里區"
"249005","759-BX","2018/12/28 17:29:36","新北市八里區荖阡坑路67號","121.406193333333","25.1277883333333","6502300","八里區"
"232011","375-UM","2018/12/28 17:29:30","新北市坪林區北宜路八段558號","121.718271666667","24.909245","6502000","坪林區"
"244007","080-UY","2018/12/28 17:29:33","新北市林口區湖子5號","121.390878333333","25.0923966666667","6501700","林口區"
"244019","402-UM","2018/12/28 17:29:32","新北市林口區文化一路一段83巷14弄92號","121.372805","25.0716716666667","6501700","林口區"
"244013","KEA-2802","2018/12/28 17:29:09","新北市林口區粉寮路二段1-1號","121.400328333333","25.08315","6501700","林口區"
"244023","483-VK","2018/12/28 17:29:20","新北市林口區東明一街35巷17號","121.392618333333","25.0717083333333","6501700","林口區"
"244017","485-VK","2018/12/28 17:29:19","新北市林口區中山路260號","121.385085","25.079715","6501700","林口區"
"244009","656-BX","2018/12/28 17:29:22","新北市林口區文化一路二段329號","121.386111666667","25.086515","6501700","林口區"
"244011","657-BX","2018/12/28 17:29:21","新北市林口區中正路353號","121.387778333333","25.0773066666667","6501700","林口區"
"244025","837-TS","2018/12/28 17:29:26","新北市林口區忠孝路53號","121.365405","25.0751133333333","6501700","林口區"
"244021","838-TS","2018/12/28 17:29:22","新北市林口區粉寮1號","121.397436666667","25.0799683333333","6501700","林口區"
"231046","107-UY","2018/12/28 17:29:22","新北市新店區直潭路92號","121.530906666667","24.9375983333333","6500600","新店區"
"241011","013-R5","2018/12/28 17:29:26","新北市三重區河邊北街124巷55號","121.50251","25.0711783333333","6500200","三重區"
"241015","062-VK","2018/12/28 17:29:33","新北市三重區三和路一段47巷18號","121.50379","25.065565","6500200","三重區"
"241017","063-VK","2018/12/28 17:29:20","新北市三重區大同北路34巷27號","121.494095","25.06232","6500200","三重區"
"241024","065-VK","2018/12/28 17:29:36","新北市三重區中正北路191巷3弄18號","121.478395","25.0696616666667","6500200","三重區"
"241005","262-UM","2018/12/28 17:29:20","新北市蘆洲區集賢路269巷42-1號","121.482196666667","25.0823583333333","6500200","三重區"
"241016","266-UM","2018/12/28 17:29:33","新北市三重區信義西街148號","121.495331666667","25.0639383333333","6500200","三重區"
"241009","267-UM","2018/12/28 17:29:35","新北市三重區力行路二段162巷53號","121.481175","25.0764133333333","6500200","三重區"
"241032","269-UM","2018/12/28 17:29:35","新北市三重區名源街59號","121.482115","25.059335","6500200","三重區"
"241007","398-BY","2018/12/28 17:29:25","新北市三重區三和路四段145巷176號","121.488555","25.0795333333333","6500200","三重區"
"241020","478-VK","2018/12/28 17:29:26","新北市三重區忠孝路二段86號","121.483668333333","25.0695283333333","6500200","三重區"
"241030","480-VK","2018/12/28 17:29:25","新北市三重區環河南路220-8號","121.49338","25.052695","6500200","三重區"
"241014","543-UM","2018/12/28 17:29:25","新北市三重區安和路17號","121.501481666667","25.0684683333333","6500200","三重區"
"241001","547-UM","2018/12/28 17:29:24","新北市三重區仁義街241巷34號","121.49701","25.0833283333333","6500200","三重區"
"241033","557-UM","2018/12/28 17:28:03","新北市三重區興德路123號","121.47084","25.0528616666667","6500200","三重區"
"241019","KEA-2593","2018/12/28 17:29:17","新北市三重區自強路二段26巷9號","121.489071666667","25.0690916666667","6500200","三重區"
"241006","AAD-863","2018/12/28 17:29:24","新北市三重區車路頭街139巷14號","121.484303333333","25.0762033333333","6500200","三重區"
"241023","887-TS","2018/12/28 17:29:20","新北市三重區三民街146巷14號","121.48172","25.0645716666667","6500200","三重區"
"241012","941-UM","2018/12/28 17:29:23","新北市三重區仁興街39巷24號","121.500391666667","25.076305","6500200","三重區"
"247012","KEA-2869","2018/12/28 17:29:17","新北市蘆洲區民族路33巷2號","121.478018333333","25.0851416666667","6501400","蘆洲區"
"247006","KED-0682","2018/12/28 17:29:28","新北市蘆洲區九芎街90巷27號","121.464483333333","25.0813516666667","6501400","蘆洲區"
"235065","911-UM","2018/12/28 17:29:16","新北市中和區員山路36巷16-2號","121.48524","24.9918766666667","6500300","中和區"
"220016","120-SR","2018/12/28 17:29:35","新北市板橋區海山路23號","121.468355","25.0090366666667","6500100","板橋區"
"247002","893-R6","2018/12/28 17:29:34","新北市蘆洲區永樂街38巷67弄19號","121.45789","25.0907116666667","6501400","蘆洲區"
"247016","546-UM","2018/12/28 17:29:35","新北市蘆洲區光華路22巷12號","121.469093333333","25.08389","6501400","蘆洲區"
"247024","500-BY","2018/12/28 17:29:18","新北市蘆洲區長興路296-8號","121.460558333333","25.0902566666667","6501400","蘆洲區"
"247010","336-TH","2018/12/28 17:29:29","新北市蘆洲區信義路118號","121.479868333333","25.0822583333333","6501400","蘆洲區"
"247020","057-VK","2018/12/28 17:29:38","新北市蘆洲區水湳街281號","121.4695","25.0929516666667","6501400","蘆洲區"
"247014","053-VK","2018/12/28 17:29:19","新北市蘆洲區三民路38-2號","121.47548","25.08297","6501400","蘆洲區"
"247018","007-UY","2018/12/28 17:29:22","新北市蘆洲區民義街27號","121.471931666667","25.089015","6501400","蘆洲區"
"247004","002-UY","2018/12/28 17:29:22","新北市蘆洲區長安街227號","121.459501666667","25.0826983333333","6501400","蘆洲區"
"247022","001-UY","2018/12/28 17:29:20","新北市蘆洲區三民路262號","121.467466666667","25.0902266666667","6501400","蘆洲區"
"228002","663-BX","2018/12/28 17:29:35","新北市貢寮區福隆里興隆街21號","121.943618333333","25.0165083333333","6502600","貢寮區"
"228001","670-TC","2018/12/28 17:29:22","新北市貢寮區仁理村仁愛路34號","121.92497","25.0532616666667","6502600","貢寮區"
"228003","828-UM","2018/12/28 17:29:26","新北市貢寮區仁理村研海街62-2號","121.925416666667","25.0459466666667","6502600","貢寮區"
"224010","AGQ-8101","2018/12/28 17:29:24","新北市瑞芳區逢甲路6號","121.811908333333","25.108225","6501200","瑞芳區"
"224006","676-BX","2018/12/28 17:29:24","新北市瑞芳區靜安路四段63-1號","121.793383333333","25.108605","6501200","瑞芳區"
"224008","285-BY","2018/12/28 17:29:25","新北市瑞芳區九芎橋路112號","121.832993333333","25.0931616666667","6501200","瑞芳區"
"224009","273-VK","2018/12/28 17:29:29","新北市瑞芳區烏勢巷137號","121.846823333333","25.1076016666667","6501200","瑞芳區"
"224005","271-BY","2018/12/28 17:29:24","新北市瑞芳區籠山路214-1號","121.8525","25.1254216666667","6501200","瑞芳區"
"227003","642-TC","2018/12/28 17:29:19","新北市雙溪區上林里新寮子1-1號","121.839473333333","25.0314633333333","6502500","雙溪區"
"251009","008-UM","2018/12/28 17:29:16","新北市淡水區新生街30巷67號","121.43975","25.1732416666667","6501000","淡水區"
"251004","009-UM","2018/12/28 17:17:36","新北市淡水區中正東路二段88巷15號","121.459111666667","25.1505616666667","6501000","淡水區"
"251005","010-UM","2018/12/28 17:29:22","新北市淡水區鄧公路31巷12號","121.451766666667","25.1706383333333","6501000","淡水區"
"251002","012-UM","2018/12/28 17:29:18","新北市淡水區中正路437號","121.431956666667","25.1747616666667","6501000","淡水區"
"251008","181-VK","2018/12/28 17:29:28","新北市淡水區大同路114號","121.462593333333","25.1401833333333","6501000","淡水區"
"251010","413-VK","2018/12/28 17:29:33","新北市淡水區中正路二段208號","121.42627","25.1891583333333","6501000","淡水區"
"251012","441-VK","2018/12/28 17:29:33","新北市淡水區北新路127號","121.449098333333","25.1788083333333","6501000","淡水區"
"251007","442-VK","2018/12/28 17:29:24","新北市淡水區民生路60號","121.462056666667","25.1379216666667","6501000","淡水區"
"251006","561-UM","2018/12/28 17:29:23","新北市淡水區大仁街15號","121.442361666667","25.1750733333333","6501000","淡水區"
"251011","650-BX","2018/12/28 17:29:19","新北市淡水區坪頂路712號","121.482486666667","25.1584416666667","6501000","淡水區"
"251003","673-BX","2018/12/28 17:29:31","新北市淡水區文化路65號","121.438008333333","25.1728916666667","6501000","淡水區"
"207003","550-UM","2018/12/28 17:29:32","新北市萬里區龜吼里翡翠路17號","121.6834","25.1872216666667","6502800","萬里區"
"207004","225-TW","2018/12/28 17:29:36","新北市萬里區萬里里景美路6-1號","121.683848333333","25.1725683333333","6502800","萬里區"
"252002","178-VK","2018/12/28 17:29:28","新北市三芝區忠孝街1-14號","121.505533333333","25.2539366666667","6502100","三芝區"
"237012","275-BY","2018/12/28 17:29:22","新北市三峽區中山路459巷137號","121.349943333333","24.9339483333333","6500900","三峽區"
"237015","649-BX","2018/12/28 17:29:38","新北市三峽區中山路157號","121.36474","24.936375","6500900","三峽區"
"247008","KED-0683","2018/12/28 17:29:30","新北市蘆洲區信義路34巷42號","121.475015","25.0782566666667","6501400","蘆洲區"
"252001","KED-0821","2018/12/28 17:29:34","新北市三芝區長安街119號","121.498031666667","25.2596216666667","6502100","三芝區"
"242058","986-R7","2018/12/28 17:29:18","新北市新莊區中正路613號","121.432453333333","25.032035","6500500","新莊區"
"242056","751-BX","2018/12/28 17:29:37","新北市新莊區新泰路14號","121.449743333333","25.0330116666667","6500500","新莊區"
"242027","705-TV","2018/12/28 17:29:21","新北市新莊區思源路32號","121.460236666667","25.040475","6500500","新莊區"
"242025","613-BX","2018/12/28 17:29:36","新北市新莊區中港路276號","121.453146666667","25.0440066666667","6500500","新莊區"
"242029","612-BX","2018/12/28 17:29:34","新北市新莊區復興路二段192號","121.459208333333","25.0444566666667","6500500","新莊區"
"242044","566-BX","2018/12/28 17:29:28","新北市新莊區富國路101-1號","121.421311666667","25.0255483333333","6500500","新莊區"
"242048","497-BY","2018/12/28 17:29:22","新北市新莊區龍安路255號","121.419781666667","25.0200283333333","6500500","新莊區"
"242021","442-UM","2018/12/28 17:29:34","新北市新莊區中正路136號","121.452416666667","25.0361966666667","6500500","新莊區"
"242054","441-UM","2018/12/28 17:29:24","新北市新莊區瓊林南路305巷35號","121.435936666667","25.0050216666667","6500500","新莊區"
"242002","440-UM","2018/12/28 17:29:33","新北市新莊區新莊路211號","121.455301666667","25.0354316666667","6500500","新莊區"
"242039","415-TV","2018/12/28 17:29:37","新北市新莊區民安西路42號","121.427443333333","25.0209566666667","6500500","新莊區"
"242009","413-TV","2018/12/28 17:29:23","新北市新莊區中原路189號","121.452626666667","25.0543033333333","6500500","新莊區"
"242046","400-BY","2018/12/28 17:29:28","新北市新莊區新樹路67巷2號","121.439131666667","25.0300333333333","6500500","新莊區"
"242023","362-BY","2018/12/28 17:29:21","新北市新莊區公園路148號","121.453086666667","25.0400683333333","6500500","新莊區"
"242060","353-BY","2018/12/28 17:29:27","新北市新莊區瓊林路190號","121.439213333333","25.0208216666667","6500500","新莊區"
"242034","135-UY","2018/12/28 17:29:35","新北市新莊區新莊路378號","121.449201666667","25.0334633333333","6500500","新莊區"
"242050","172-VK","2018/12/28 17:29:35","新北市新莊區瓊林南路75-9號","121.434966666667","25.0140566666667","6500500","新莊區"
"242013","173-VK","2018/12/28 17:29:26","新北市新莊區中和街61號","121.447558333333","25.0469833333333","6500500","新莊區"
"242019","175-VK","2018/12/28 17:29:28","新北市新莊區中港路五守新村23巷2號","121.454993333333","25.0384166666667","6500500","新莊區"
"242007","176-VK","2018/12/28 17:29:31","新北市新莊區自強街52號","121.454776666667","25.0467233333333","6500500","新莊區"
"242017","KED-0687","2018/12/28 17:29:25","新北市新莊區復興路一段212號","121.452811666667","25.0438333333333","6500500","新莊區"
"242011","347-TH","2018/12/28 17:29:25","新北市新莊區中華路二段83號","121.452648333333","25.0481066666667","6500500","新莊區"
"242032","348-TH","2018/12/28 17:29:32","新北市新莊區新泰路462號","121.443213333333","25.044775","6500500","新莊區"
"242005","349-TH","2018/12/28 17:29:28","新北市新莊區中港路288巷12號","121.453428333333","25.0445","6500500","新莊區"
"242015","351-TH","2018/12/28 17:29:21","新北市新莊區新泰路161號","121.447763333333","25.0370016666667","6500500","新莊區"
"238015","755-BX","2018/12/28 17:29:18","新北市樹林區保安街一段195號","121.420796666667","24.9959","6500700","樹林區"
"238023","601-UM","2018/12/28 17:29:25","新北市樹林區三福街4號","121.409096666667","25.01688","6500700","樹林區"
"238019","599-UM","2018/12/28 17:29:25","新北市樹林區太平路7號","121.418938333333","24.98399","6500700","樹林區"
"238018","571-TV","2018/12/28 17:29:31","新北市樹林區鎮前街97巷10號","121.424716666667","24.98959","6500700","樹林區"
"238024","5061-A6","2018/12/28 17:29:25","新北市板橋區板林路180號","121.424158333333","24.9881016666667","6500700","樹林區"
"238022","KEA-2213","2018/12/28 17:29:31","新北市樹林區仁愛街61號","121.422786666667","24.9823333333333","6500700","樹林區"
"238021","KEA-2539","2018/12/28 17:29:35","新北市樹林區民權街5巷17號","121.395715","24.9582483333333","6500700","樹林區"
"238025","303-VK","2018/12/28 17:29:27","新北市樹林區保安街二段27號","121.416438333333","24.9998616666667","6500700","樹林區"
"238017","283-BY","2018/12/28 17:29:33","新北市樹林區中正路254號","121.417536666667","25.0072916666667","6500700","樹林區"
"238014","282-BY","2018/12/28 17:29:17","新北市樹林區保安街一段290號","121.419231666667","24.997265","6500700","樹林區"
"238020","268-VK","2018/12/28 17:29:24","新北市樹林區千歲街111-1號","121.429268333333","25.001605","6500700","樹林區"
"238026","172-UY","2018/12/28 17:29:36","新北市樹林區中山路二段219號","121.402606666667","24.976265","6500700","樹林區"
"239007","AAC-297","2018/12/28 17:29:35","新北市鶯歌區國華路15號","121.342863333333","24.9561933333333","6500800","鶯歌區"
"239006","891-R6","2018/12/28 17:29:20","新北市鶯歌區鳳鳴路45號","121.333446666667","24.965415","6500800","鶯歌區"
"239008","527-UM","2018/12/28 17:29:17","新北市鶯歌區大湖路540號","121.337015","24.9728266666667","6500800","鶯歌區"
"239005","526-UM","2018/12/28 17:29:21","桃園市八德區桃鶯路64號","121.327321666667","24.970795","6500800","鶯歌區"
"239001","417-VK","2018/12/28 17:29:23","新北市鶯歌區高職西街7號","121.338041666667","24.9424016666667","6500800","鶯歌區"
"239003","360-BY","2018/12/28 17:29:36","新北市鶯歌區德昌街27號","121.333313333333","24.9597866666667","6500800","鶯歌區"
"239002","359-BY","2018/12/28 17:29:24","新北市鶯歌區國慶街73號","121.349986666667","24.9550516666667","6500800","鶯歌區"
"239004","193-VK","2018/12/28 17:29:25","新北市鶯歌區三鶯路19號","121.356125","24.941605","6500800","鶯歌區"
"221008","489-VK","2018/12/28 17:29:34","新北市汐止區康寧街901號","121.651423333333","25.0751783333333","6501100","汐止區"
"221010","269-BY","2018/12/28 17:29:34","新北市汐止區汐萬路一段256巷3號","121.652235","25.0747983333333","6501100","汐止區"
"242041","281-VK","2018/12/28 17:29:36","新北市新莊區新樹路113巷33號","121.43951","25.0263833333333","6500500","新莊區"
"235061","KEA-2875","2018/12/28 17:27:08","新北市中和區員山路36巷16-2號","121.48525","24.9916616666667","6500300","中和區"
