"lineid","car","time","location","longitude","latitude","cityid","cityname"
"234086","338-UY","2018/12/28 17:49:24","新北市永和區福和路1號","121.526288333333","25.0098183333333","6500400","永和區"
"234026","9371-KE","2018/12/28 17:49:35","新北市永和區中山路一段19號","121.51376","25.0103916666667","6500400","永和區"
"234011","9373-KE","2018/12/28 17:41:29","新北市永和區福和路1號","121.52556","25.0093966666667","6500400","永和區"
"249001","173-UM","2018/12/28 17:49:28","新北市八里區龍米路二段125巷25號","121.446006666667","25.1463816666667","6502300","八里區"
"249004","303-UY","2018/12/28 17:49:23","新北市八里區中華路一段309巷19-7號","121.416806666667","25.1536533333333","6502300","八里區"
"249002","305-UY","2018/12/28 17:49:33","新北市八里區龍形三街9巷2號","121.450618333333","25.13176","6502300","八里區"
"249003","593-UM","2018/12/28 17:49:21","新北市八里區中山路二段178號","121.405833333333","25.15264","6502300","八里區"
"249005","759-BX","2018/12/28 17:49:36","新北市八里區荖阡坑路34-3號","121.402263333333","25.1312133333333","6502300","八里區"
"248008","095-VK","2018/12/28 17:49:27","新北市五股區中興路二段37巷28號","121.460205","25.0751733333333","6501500","五股區"
"248018","225-UY","2018/12/28 17:49:36","新北市五股區中興路二段83巷26-6號","121.4598","25.0753583333333","6501500","五股區"
"248004","677-BX","2018/12/28 17:49:23","新北市五股區中興路二段63巷17號","121.460331666667","25.0753433333333","6501500","五股區"
"234023","9380-KE","2018/12/28 17:46:51","新北市永和區福和路1號","121.525621666667","25.0093966666667","6500400","永和區"
"232011","375-UM","2018/12/28 17:49:30","新北市坪林區水柳腳37號","121.709908333333","24.9351833333333","6502000","坪林區"
"244007","080-UY","2018/12/28 17:49:33","新北市林口區林口路184號","121.387555","25.08273","6501700","林口區"
"244019","402-UM","2018/12/28 17:49:32","新北市林口區文化一路一段38號","121.371013333333","25.0692716666667","6501700","林口區"
"244013","KEA-2802","2018/12/28 17:49:29","新北市林口區中山路255號","121.38537","25.07943","6501700","林口區"
"244023","483-VK","2018/12/28 17:49:30","新北市林口區東湖路60號","121.387495","25.074115","6501700","林口區"
"244017","485-VK","2018/12/28 17:49:19","新北市林口區公園路177號","121.370861666667","25.0721366666667","6501700","林口區"
"244009","656-BX","2018/12/28 17:49:22","新北市林口區林口路303號","121.385613333333","25.08512","6501700","林口區"
"244011","657-BX","2018/12/28 17:49:21","新北市林口區竹林路35號","121.386818333333","25.07771","6501700","林口區"
"244025","837-TS","2018/12/28 17:49:26","新北市林口區文化三路一段181號","121.362253333333","25.0699683333333","6501700","林口區"
"244021","838-TS","2018/12/28 17:49:22","新北市林口區仁愛路一段83巷38號","121.397698333333","25.0706083333333","6501700","林口區"
"222003","436-BY","2018/12/28 17:49:32","新北市深坑區阿柔洋60-1號","121.608598333333","24.99853","6501800","深坑區"
"222002","659-BX","2018/12/28 17:49:37","新北市深坑區平埔街22巷17弄1號","121.614876666667","25.0008816666667","6501800","深坑區"
"231046","107-UY","2018/12/28 17:49:30","新北市新店區康雅崙路70號","121.533531666667","24.926895","6500600","新店區"
"221035","KEA-2785","2018/12/28 17:49:19","新北市汐止區汐萬路一段211巷12-1號","121.651553333333","25.0722016666667","6501100","汐止區"
"241024","065-VK","2018/12/28 17:49:36","新北市三重區力行路二段9巷6號","121.482698333333","25.0721866666667","6500200","三重區"
"241016","266-UM","2018/12/28 17:49:33","新北市三重區新北大道一段7號","121.489543333333","25.06137","6500200","三重區"
"241030","480-VK","2018/12/28 17:49:25","新北市三重區中正南路252巷5號","121.493326666667","25.0522683333333","6500200","三重區"
"241033","557-UM","2018/12/28 17:38:50","新北市三重區光復路一段60號","121.471955","25.048815","6500200","三重區"
"235064","005-UY","2018/12/28 17:49:25","新北市中和區員山路36巷16-3號","121.485161666667","24.9913133333333","6500300","中和區"
"235063","006-UY","2018/12/28 17:49:36","新北市中和區員山路36巷16-3號","121.485045","24.991185","6500300","中和區"
"247012","KEA-2869","2018/12/28 17:49:17","新北市蘆洲區復興路103號","121.476805","25.0877216666667","6501400","蘆洲區"
"247006","KED-0682","2018/12/28 17:49:36","新北市蘆洲區九芎街136號","121.465056666667","25.078985","6501400","蘆洲區"
"235062","800-TS","2018/12/28 17:49:32","新北市中和區員山路36巷16-3號","121.484961666667","24.9914066666667","6500300","中和區"
"235065","911-UM","2018/12/28 17:49:36","新北市中和區連城路469巷79弄2號","121.483525","24.99396","6500300","中和區"
"220016","120-SR","2018/12/28 17:30:00","新北市板橋區海山路23號","121.468355","25.0090433333333","6500100","板橋區"
"247002","893-R6","2018/12/28 17:49:34","新北市蘆洲區環堤大道212號","121.457431666667","25.0919116666667","6501400","蘆洲區"
"247016","546-UM","2018/12/28 17:49:35","新北市蘆洲區中正路185巷25弄10號","121.46698","25.0840433333333","6501400","蘆洲區"
"247024","500-BY","2018/12/28 17:49:38","新北市蘆洲區長興路298巷10號","121.461088333333","25.089805","6501400","蘆洲區"
"247010","336-TH","2018/12/28 17:49:29","新北市蘆洲區民族路39號","121.478178333333","25.0853116666667","6501400","蘆洲區"
"247020","057-VK","2018/12/28 17:49:38","新北市蘆洲區民權路190-8號","121.472013333333","25.091195","6501400","蘆洲區"
"247018","007-UY","2018/12/28 17:49:22","新北市蘆洲區復興路260號","121.479978333333","25.0896966666667","6501400","蘆洲區"
"247022","001-UY","2018/12/28 17:49:20","新北市蘆洲區中正路410號","121.462973333333","25.09378","6501400","蘆洲區"
"228002","663-BX","2018/12/28 17:49:35","新北市貢寮區福隆里龜壽谷街13號","121.957288333333","25.0053883333333","6502600","貢寮區"
"228001","670-TC","2018/12/28 17:49:22","新北市貢寮區仁理村仁愛路95-1號","121.927691666667","25.05542","6502600","貢寮區"
"228003","828-UM","2018/12/28 17:49:26","新北市貢寮區真理里美艷山街6-2號","121.928831666667","25.0607383333333","6502600","貢寮區"
"224006","676-BX","2018/12/28 17:49:24","新北市瑞芳區傑魚坑路183號","121.788443333333","25.1082666666667","6501200","瑞芳區"
"224008","285-BY","2018/12/28 17:49:22","新北市瑞芳區明燈路一段75號","121.82014","25.1070033333333","6501200","瑞芳區"
"224009","273-VK","2018/12/28 17:49:29","新北市瑞芳區山尖路2號","121.854656666667","25.1160333333333","6501200","瑞芳區"
"224005","271-BY","2018/12/28 17:49:37","新北市瑞芳區豎崎路32-5號","121.823845","25.121","6501200","瑞芳區"
"227003","642-TC","2018/12/28 17:49:19","新北市雙溪區共和里東榮街52號","121.866378333333","25.033655","6502500","雙溪區"
"208002","KEA-2872","2018/12/28 17:49:32","新北市金山區磺清路135號","121.639273333333","25.2277133333333","6502700","金山區"
"208001","761-BX","2018/12/28 17:49:31","新北市金山區磺清路135號","121.639238333333","25.2276683333333","6502700","金山區"
"251009","008-UM","2018/12/28 17:49:36","新北市淡水區長興街65號","121.444326666667","25.1721283333333","6501000","淡水區"
"251004","009-UM","2018/12/28 17:49:29","新北市淡水區民權一街25號","121.458963333333","25.1362383333333","6501000","淡水區"
"251005","010-UM","2018/12/28 17:49:22","新北市淡水區學府路102巷16號","121.451028333333","25.1718733333333","6501000","淡水區"
"251002","012-UM","2018/12/28 17:49:38","新北市淡水區清水街56巷1號","121.444133333333","25.17027","6501000","淡水區"
"251008","181-VK","2018/12/28 17:49:28","新北市淡水區八勢路一段133號","121.466983333333","25.1578533333333","6501000","淡水區"
"251010","413-VK","2018/12/28 17:49:38","新北市淡水區淡海路280巷33弄34-2號","121.41861","25.1884733333333","6501000","淡水區"
"251012","441-VK","2018/12/28 17:49:33","新北市淡水區水頭43-1號","121.476768333333","25.1857116666667","6501000","淡水區"
"251007","442-VK","2018/12/28 17:49:23","新北市淡水區民生路14號","121.460993333333","25.1377533333333","6501000","淡水區"
"251005","443-VK","2018/12/28 17:49:31","新北市淡水區中正東路6號","121.446976666667","25.1672316666667","6501000","淡水區"
"251001","559-UM","2018/12/28 17:49:30","新北市淡水區民權路92巷35-1號","121.462236666667","25.1266633333333","6501000","淡水區"
"251006","561-UM","2018/12/28 17:49:22","新北市淡水區中山北路一段45巷18號","121.440963333333","25.1759383333333","6501000","淡水區"
"251011","650-BX","2018/12/28 17:44:39","新北市淡水區吳(仔)厝9-1號","121.47986","25.1467266666667","6501000","淡水區"
"251003","673-BX","2018/12/28 17:49:31","新北市淡水區大忠街8號","121.44309","25.176305","6501000","淡水區"
"207003","550-UM","2018/12/28 17:49:32","新北市萬里區野柳里東澳路66號","121.692736666667","25.2009183333333","6502800","萬里區"
"207004","225-TW","2018/12/28 17:49:36","新北市萬里區萬里里瑪鋉頂街61號","121.6884","25.1804383333333","6502800","萬里區"
"252002","178-VK","2018/12/28 17:49:28","新北市三芝區智成街25號","121.503365","25.2566166666667","6502100","三芝區"
"237004","KEA-2597","2018/12/28 17:49:27","新北市三峽區中山路236號","121.3625","24.9374083333333","6500900","三峽區"
"237009","210-TH","2018/12/28 17:49:19","新北市三峽區大勇路27號","121.36719","24.9363266666667","6500900","三峽區"
"237013","252-BX","2018/12/28 17:49:35","新北市三峽區愛國路20號","121.374303333333","24.9335466666667","6500900","三峽區"
"237012","275-BY","2018/12/28 17:49:22","新北市三峽區文化路129號","121.369766666667","24.9360366666667","6500900","三峽區"
"237014","433-BY","2018/12/28 17:49:22","新北市三峽區文化路208號","121.369238333333","24.9359833333333","6500900","三峽區"
"237011","KEA-2596","2018/12/28 17:49:30","新北市三峽區中山路169巷16-9號","121.364106666667","24.9354916666667","6500900","三峽區"
"237015","649-BX","2018/12/28 17:49:38","新北市三峽區白雞129-1號","121.396991666667","24.9074183333333","6500900","三峽區"
"237010","706-TV","2018/12/28 17:49:25","新北市三峽區文化路212-7號","121.368325","24.93594","6500900","三峽區"
"237005","AKY-6261","2018/12/28 17:49:24","新北市三峽區中山路459巷70號","121.354333333333","24.9363883333333","6500900","三峽區"
"236069","105-UM","2018/12/28 17:49:19","新北市土城區城林路6巷80號","121.438503333333","24.9797383333333","6501300","土城區"
"236042","KED-0685","2018/12/28 17:49:34","新北市土城區城林路6巷80號","121.438473333333","24.9797316666667","6501300","土城區"
"236079","166-UM","2018/12/28 17:49:26","新北市土城區中央路二段274號","121.441281666667","24.9742683333333","6501300","土城區"
"236030","253-BX","2018/12/28 17:49:34","新北市土城區城林路6巷80號","121.438638333333","24.9796366666667","6501300","土城區"
"236014","270-VK","2018/12/28 17:49:36","新北市土城區城林路6巷80號","121.43849","24.9795883333333","6501300","土城區"
"236039","271-VK","2018/12/28 17:49:26","新北市土城區城林路6巷80號","121.43849","24.979775","6501300","土城區"
"247008","KED-0683","2018/12/28 17:49:30","新北市蘆洲區中山一路200號","121.47353","25.080805","6501400","蘆洲區"
"252001","KED-0821","2018/12/28 17:49:34","新北市三芝區中興街一段37號","121.497653333333","25.2578083333333","6502100","三芝區"
"236059","912-UM","2018/12/28 17:49:29","新北市土城區中華路二段221號","121.437551666667","24.9729566666667","6501300","土城區"
"236048","913-UM","2018/12/28 17:49:36","新北市土城區城林路6巷80號","121.438681666667","24.9796583333333","6501300","土城區"
"242037","AAC-296","2018/12/28 17:49:28","新北市新莊區建福路69巷26號","121.428035","25.02716","6500500","新莊區"
"242058","986-R7","2018/12/28 17:49:18","新北市新莊區中正路726-13號","121.41529","25.0238633333333","6500500","新莊區"
"242056","751-BX","2018/12/28 17:49:38","新北市新莊區瓊林路40巷22號","121.447093333333","25.0301916666667","6500500","新莊區"
"242027","705-TV","2018/12/28 17:49:33","新北市新莊區福壽街128號","121.457668333333","25.051425","6500500","新莊區"
"242025","613-BX","2018/12/28 17:49:36","新北市新莊區中山路一段7號","121.465393333333","25.0611433333333","6500500","新莊區"
"242029","612-BX","2018/12/28 17:49:34","新北市新莊區復興路一段10號","121.445726666667","25.0415066666667","6500500","新莊區"
"242044","566-BX","2018/12/28 17:49:28","新北市新莊區福營路378號","121.420528333333","25.0265083333333","6500500","新莊區"
"242048","497-BY","2018/12/28 17:49:22","新北市新莊區萬安街60巷11號","121.420505","25.023315","6500500","新莊區"
"242021","442-UM","2018/12/28 17:49:34","新北市新莊區永寧街30巷1號","121.452861666667","25.0391616666667","6500500","新莊區"
"242054","441-UM","2018/12/28 17:49:24","新北市新莊區新樹路583號","121.432898333333","25.0068683333333","6500500","新莊區"
"242002","440-UM","2018/12/28 17:49:33","新北市新莊區景德路140號","121.450963333333","25.0342166666667","6500500","新莊區"
"242039","415-TV","2018/12/28 17:49:37","新北市新莊區民安路145號","121.4253","25.023885","6500500","新莊區"
"242009","413-TV","2018/12/28 17:49:23","新北市新莊區昌明街42號","121.456306666667","25.0522883333333","6500500","新莊區"
"242046","400-BY","2018/12/28 17:49:28","新北市新莊區建國一路37號","121.434248333333","25.0310716666667","6500500","新莊區"
"242023","362-BY","2018/12/28 17:49:23","新北市新莊區福樂街35號","121.457666666667","25.046905","6500500","新莊區"
"242060","353-BY","2018/12/28 17:49:24","新北市新莊區瓊林南路211號","121.434521666667","25.009165","6500500","新莊區"
"242034","135-UY","2018/12/28 17:49:35","新北市新莊區新莊路805號","121.440606666667","25.0326766666667","6500500","新莊區"
"242050","172-VK","2018/12/28 17:49:35","新北市新莊區西盛街245巷22號","121.428985","25.0160383333333","6500500","新莊區"
"242013","173-VK","2018/12/28 17:49:26","新北市新莊區中誠街164號","121.448233333333","25.04741","6500500","新莊區"
"242019","175-VK","2018/12/28 17:49:32","新北市新莊區民樂街72號","121.457911666667","25.0434383333333","6500500","新莊區"
"242007","176-VK","2018/12/28 17:49:31","新北市新莊區福樂街156巷12弄3號","121.456346666667","25.0488166666667","6500500","新莊區"
"242017","KED-0687","2018/12/28 17:49:26","新北市新莊區永安街34號","121.451726666667","25.0448016666667","6500500","新莊區"
"242011","347-TH","2018/12/28 17:49:25","新北市新莊區中港路703號","121.450611666667","25.0571766666667","6500500","新莊區"
"242032","348-TH","2018/12/28 17:49:37","新北市新莊區新泰路321巷31號","121.443311666667","25.0410866666667","6500500","新莊區"
"242005","349-TH","2018/12/28 17:49:28","新北市新莊區福樂街58號","121.457828333333","25.04606","6500500","新莊區"
"242015","351-TH","2018/12/28 17:49:21","新北市新莊區新泰路486號","121.44269","25.045775","6500500","新莊區"
"238015","755-BX","2018/12/28 17:49:38","新北市樹林區復興路67號","121.42157","24.992915","6500700","樹林區"
"238023","601-UM","2018/12/28 17:49:25","新北市樹林區龍興街32巷29號","121.402015","25.0154916666667","6500700","樹林區"
"238019","599-UM","2018/12/28 17:49:25","新北市樹林區太平路161號","121.418785","24.9795366666667","6500700","樹林區"
"238018","571-TV","2018/12/28 17:49:31","新北市樹林區鎮前街132號","121.424783333333","24.9907116666667","6500700","樹林區"
"238022","KEA-2213","2018/12/28 17:49:31","新北市樹林區太順街62巷6弄1號","121.417848333333","24.9796583333333","6500700","樹林區"
"238021","KEA-2539","2018/12/28 17:49:35","新北市樹林區柑園街一段67-1號","121.402288333333","24.960255","6500700","樹林區"
"238025","303-VK","2018/12/28 17:49:27","新北市樹林區俊興街209-3號","121.41749","25.01407","6500700","樹林區"
"238017","283-BY","2018/12/28 17:49:37","新北市樹林區三德街30巷24號","121.414658333333","25.012295","6500700","樹林區"
"238014","282-BY","2018/12/28 17:49:37","新北市樹林區大安路179號","121.421258333333","24.9961866666667","6500700","樹林區"
"238020","268-VK","2018/12/28 17:49:24","新北市樹林區俊英街210號","121.425216666667","25.00939","6500700","樹林區"
"238026","172-UY","2018/12/28 17:49:35","新北市樹林區新興街19巷6號","121.400438333333","24.9727783333333","6500700","樹林區"
"239007","AAC-297","2018/12/28 17:49:33","新北市鶯歌區鶯桃路94巷31號","121.341351666667","24.9541033333333","6500800","鶯歌區"
"239006","891-R6","2018/12/28 17:49:20","新北市鶯歌區鳳鳴路11號","121.333355","24.96493","6500800","鶯歌區"
"239008","527-UM","2018/12/28 17:49:37","新北市鶯歌區國際二路68號","121.334836666667","24.9762516666667","6500800","鶯歌區"
"239005","526-UM","2018/12/28 17:49:21","新北市鶯歌區鳳吉五街31號","121.327361666667","24.9726433333333","6500800","鶯歌區"
"239001","417-VK","2018/12/28 17:49:23","新北市鶯歌區中正三路394號","121.326221666667","24.93456","6500800","鶯歌區"
"239003","360-BY","2018/12/28 17:49:36","新北市鶯歌區鶯桃路288號","121.335048333333","24.9602416666667","6500800","鶯歌區"
"239002","359-BY","2018/12/28 17:49:24","新北市鶯歌區國華路41號","121.342823333333","24.9553533333333","6500800","鶯歌區"
"239004","193-VK","2018/12/28 17:49:25","新北市鶯歌區文化路280號","121.352818333333","24.9470966666667","6500800","鶯歌區"
"221008","489-VK","2018/12/28 17:49:34","新北市汐止區康寧街901號","121.651358333333","25.0750416666667","6501100","汐止區"
"221036","130-UY","2018/12/28 17:49:29","新北市汐止區長安路15巷17號","121.66673","25.0775316666667","6501100","汐止區"
"221015","131-UY","2018/12/28 17:49:34","新北市汐止區長江街244號","121.663133333333","25.0792183333333","6501100","汐止區"
"221010","269-BY","2018/12/28 17:49:34","新北市汐止區汐萬路二段126號","121.648186666667","25.08529","6501100","汐止區"
"221012","278-VK","2018/12/28 17:49:23","新北市汐止區長江街43號","121.655746666667","25.0713016666667","6501100","汐止區"
"221023","279-VK","2018/12/28 17:49:33","新北市汐止區民族一街18號","121.634918333333","25.071195","6501100","汐止區"
"221032","280-BY","2018/12/28 17:49:29","新北市汐止區大同路一段219巷25-1號","121.633145","25.059205","6501100","汐止區"
"221027","281-BY","2018/12/28 17:49:33","新北市汐止區汐萬路一段244-1號","121.651471666667","25.07319","6501100","汐止區"
"221029","298-VK","2018/12/28 17:49:28","新北市汐止區康寧街901號","121.65167","25.0748983333333","6501100","汐止區"
"221021","299-VK","2018/12/28 17:49:22","新北市汐止區汐萬路一段4號","121.65625","25.0672716666667","6501100","汐止區"
"221031","353-TW","2018/12/28 17:49:23","新北市汐止區中興路96巷1-3號","121.635456666667","25.0625416666667","6501100","汐止區"
"221025","623-UM","2018/12/28 17:49:28","新北市汐止區仁愛路1號","121.658536666667","25.0642383333333","6501100","汐止區"
"221038","646-BX","2018/12/28 17:49:25","新北市汐止區大同路二段187巷37號","121.651938333333","25.065675","6501100","汐止區"
"221033","647-BX","2018/12/28 17:49:19","新北市汐止區林森街33-1號","121.622668333333","25.04017","6501100","汐止區"
"221002","707-TV","2018/12/28 17:49:29","新北市汐止區康寧街901號","121.651543333333","25.0750633333333","6501100","汐止區"
"221018","753-BX","2018/12/28 17:49:20","新北市汐止區水碓街1號","121.663828333333","25.0699616666667","6501100","汐止區"
"242041","281-VK","2018/12/28 17:49:16","新北市新莊區中正路514號","121.429745","25.03527","6500500","新莊區"
"235061","KEA-2875","2018/12/28 17:27:08","新北市中和區員山路36巷16-2號","121.48525","24.9916616666667","6500300","中和區"
