"lineid","car","time","location","longitude","latitude","cityid","cityname"
"234086","338-UY","2018/12/28 17:55:38","新北市永和區福和路1號","121.526288333333","25.0098166666667","6500400","永和區"
"234026","9371-KE","2018/12/28 17:59:29","新北市永和區永和路一段45-1號","121.512843333333","25.006255","6500400","永和區"
"234011","9373-KE","2018/12/28 17:41:29","新北市永和區福和路1號","121.52556","25.0093966666667","6500400","永和區"
"249001","173-UM","2018/12/28 17:59:28","新北市八里區龍米路二段35號","121.448405","25.1399883333333","6502300","八里區"
"249004","303-UY","2018/12/28 17:59:26","新北市八里區龍米路三段46號","121.427875","25.15918","6502300","八里區"
"249002","305-UY","2018/12/28 17:59:33","新北市八里區龍形五街7號","121.45055","25.1335466666667","6502300","八里區"
"249003","593-UM","2018/12/28 17:59:21","新北市八里區中華路二段258巷6號","121.40514","25.1496966666667","6502300","八里區"
"249005","759-BX","2018/12/28 17:59:36","新北市八里區荖阡坑路22-1號","121.398898333333","25.13682","6502300","八里區"
"248006","077-UY","2018/12/28 17:59:21","新北市五股區中興路二段83巷26-3號","121.459951666667","25.0754466666667","6501500","五股區"
"248008","095-VK","2018/12/28 17:59:27","新北市五股區更洲路40號","121.457753333333","25.0793016666667","6501500","五股區"
"248018","225-UY","2018/12/28 17:59:36","新北市五股區中興路二段83巷26-3號","121.459991666667","25.075435","6501500","五股區"
"248004","677-BX","2018/12/28 17:59:23","新北市五股區中興路二段83巷26-1號","121.459418333333","25.0755533333333","6501500","五股區"
"248002","678-BX","2018/12/28 17:58:44","新北市五股區中興路二段57-6號","121.460593333333","25.075395","6501500","五股區"
"234023","9380-KE","2018/12/28 17:46:51","新北市永和區福和路1號","121.525621666667","25.0093966666667","6500400","永和區"
"232011","375-UM","2018/12/28 17:59:30","新北市坪林區水柳腳66號","121.710013333333","24.9355833333333","6502000","坪林區"
"244007","080-UY","2018/12/28 17:59:33","新北市林口區林口路97-1號","121.389051666667","25.0802316666667","6501700","林口區"
"244019","402-UM","2018/12/28 17:59:32","新北市林口區文化一路一段124號","121.374728333333","25.0722966666667","6501700","林口區"
"244013","KEA-2802","2018/12/28 17:59:29","新北市林口區中山路41號","121.394818333333","25.07845","6501700","林口區"
"244023","483-VK","2018/12/28 17:59:20","新北市林口區東湖一街71號","121.385348333333","25.0724633333333","6501700","林口區"
"244017","485-VK","2018/12/28 17:59:19","新北市林口區忠孝路488號","121.370408333333","25.0704616666667","6501700","林口區"
"244009","656-BX","2018/12/28 17:59:22","新北市林口區佳林路56巷39號","121.385226666667","25.08079","6501700","林口區"
"244011","657-BX","2018/12/28 17:59:21","新北市林口區中正路144號","121.392755","25.0773366666667","6501700","林口區"
"244025","837-TS","2018/12/28 17:59:27","新北市林口區文化三路一段39巷122號","121.35949","25.06827","6501700","林口區"
"244021","838-TS","2018/12/28 17:59:22","新北市林口區新寮43-1號","121.402998333333","25.0655","6501700","林口區"
"243013","AAD-798","2018/12/28 17:59:29","新北市泰山區黎明路25號","121.421876666667","25.0607083333333","6501600","泰山區"
"222003","436-BY","2018/12/28 17:59:32","新北市深坑區炮子崙23號","121.607166666667","24.9909116666667","6501800","深坑區"
"222002","659-BX","2018/12/28 17:59:37","新北市深坑區深坑街3巷22號","121.61688","25.0017883333333","6501800","深坑區"
"231046","107-UY","2018/12/28 17:59:22","新北市新店區下石厝路31號","121.533586666667","24.93158","6500600","新店區"
"221035","KEA-2785","2018/12/28 17:59:39","新北市汐止區新江北路30巷22弄5號","121.651625","25.0698483333333","6501100","汐止區"
"231056","4715-K9","2018/12/28 17:59:26","新北市新店區安華路1-1號","121.519213333333","24.960505","6500600","新店區"
"241024","065-VK","2018/12/28 17:59:36","新北市三重區國道路一段39巷7號","121.483775","25.0730283333333","6500200","三重區"
"241016","266-UM","2018/12/28 17:59:33","新北市三重區大同北路97號","121.494585","25.06367","6500200","三重區"
"241033","557-UM","2018/12/28 17:38:50","新北市三重區光復路一段60號","121.471955","25.048815","6500200","三重區"
"235064","005-UY","2018/12/28 17:59:25","新北市中和區員山路36巷16-2號","121.485218333333","24.9914416666667","6500300","中和區"
"235063","006-UY","2018/12/28 17:59:36","新北市中和區員山路36巷16-3號","121.485105","24.9913066666667","6500300","中和區"
"235058","151-BY","2018/12/28 17:59:36","新北市中和區錦和路350-1號","121.490483333333","24.9935166666667","6500300","中和區"
"235038","185-VK","2018/12/28 17:59:16","新北市中和區錦和路350-1號","121.490365","24.99357","6500300","中和區"
"247012","KEA-2869","2018/12/28 17:59:17","新北市蘆洲區民族路244號","121.479243333333","25.0885066666667","6501400","蘆洲區"
"235054","640-BX","2018/12/28 17:59:29","新北市中和區員山路36巷16-3號","121.485","24.9916916666667","6500300","中和區"
"235062","800-TS","2018/12/28 17:59:33","新北市中和區中正路637巷52弄1號","121.485545","24.9935","6500300","中和區"
"235057","801-TS","2018/12/28 17:59:37","新北市中和區員山路36巷13號","121.484355","24.9907816666667","6500300","中和區"
"235052","805-TS","2018/12/28 17:59:15","新北市中和區員山路36巷16-2號","121.485185","24.99162","6500300","中和區"
"235065","911-UM","2018/12/28 17:59:36","新北市中和區中山路二段472號","121.48822","25.0048383333333","6500300","中和區"
"235051","157-BY","2018/12/28 17:59:35","新北市中和區員山路36巷13號","121.484135","24.9911066666667","6500300","中和區"
"235037","AAC-213","2018/12/28 17:59:29","新北市中和區錦和路350-1號","121.490281666667","24.993565","6500300","中和區"
"235059","AAC-215","2018/12/28 17:59:30","新北市中和區員山路36巷16-3號","121.484858333333","24.9915116666667","6500300","中和區"
"220016","120-SR","2018/12/28 17:59:33","新北市板橋區海山路25號","121.468281666667","25.0088666666667","6500100","板橋區"
"247002","893-R6","2018/12/28 17:59:34","新北市蘆洲區永平街32巷59號","121.4597","25.0928383333333","6501400","蘆洲區"
"247016","546-UM","2018/12/28 17:59:35","新北市蘆洲區中正路185巷78弄14號","121.466055","25.084685","6501400","蘆洲區"
"247018","007-UY","2018/12/28 17:59:22","新北市蘆洲區復興路287號","121.481508333333","25.0901766666667","6501400","蘆洲區"
"226004","205-ST","2018/12/28 17:59:28","新北市平溪區石底里公園街18-3號","121.73341","25.0256833333333","6502400","平溪區"
"228002","663-BX","2018/12/28 17:59:35","新北市貢寮區福連里香蘭街2-1號","121.968011666667","25.0233483333333","6502600","貢寮區"
"228001","670-TC","2018/12/28 17:59:22","新北市貢寮區仁理村仁愛路106巷36號","121.92952","25.0544866666667","6502600","貢寮區"
"228003","828-UM","2018/12/28 17:59:26","新北市貢寮區真理里美艷山街6-2號","121.928833333333","25.0607233333333","6502600","貢寮區"
"224006","676-BX","2018/12/28 17:59:24","新北市瑞芳區大寮路356-1號","121.784845","25.1032466666667","6501200","瑞芳區"
"224008","285-BY","2018/12/28 17:59:22","新北市瑞芳區員山子路23號","121.821376666667","25.1030016666667","6501200","瑞芳區"
"224009","273-VK","2018/12/28 17:59:37","新北市瑞芳區金光路288號","121.85179","25.1068433333333","6501200","瑞芳區"
"224005","271-BY","2018/12/28 17:59:24","新北市瑞芳區深澳路205號","121.81947","25.133285","6501200","瑞芳區"
"227003","642-TC","2018/12/28 17:59:19","新北市雙溪區共和里東榮街52號","121.866331666667","25.03365","6502500","雙溪區"
"253006","032-BX","2018/12/28 17:59:27","新北市石門區大丘田45-2號","121.549796666667","25.27486","6502200","石門區"
"253005","295-VK","2018/12/28 17:59:34","新北市石門區中山路60-50號","121.568488333333","25.28743","6502200","石門區"
"208002","KEA-2872","2018/12/28 17:59:32","新北市金山區三界壇路12號","121.626013333333","25.2283516666667","6502700","金山區"
"208003","665-BX","2018/12/28 17:59:34","新北市金山區磺港里磺港路203號","121.644938333333","25.227585","6502700","金山區"
"208001","761-BX","2018/12/28 17:59:31","新北市金山區磺港里磺港路169號","121.642691666667","25.2244616666667","6502700","金山區"
"251009","008-UM","2018/12/28 17:59:36","新北市淡水區大智街27號","121.44233","25.174605","6501000","淡水區"
"251004","009-UM","2018/12/28 17:59:29","新北市淡水區民權路187號","121.459773333333","25.1334683333333","6501000","淡水區"
"251005","010-UM","2018/12/28 17:59:22","新北市淡水區水源街一段116號","121.446985","25.1719166666667","6501000","淡水區"
"251002","012-UM","2018/12/28 17:59:38","新北市淡水區中正東路1號","121.44737","25.1673383333333","6501000","淡水區"
"251008","181-VK","2018/12/28 17:59:28","新北市淡水區八勢一街35號","121.461921666667","25.1564033333333","6501000","淡水區"
"251010","413-VK","2018/12/28 17:59:33","新北市淡水區中正路一段87巷1號","121.421706666667","25.17913","6501000","淡水區"
"251012","441-VK","2018/12/28 17:59:33","新北市淡水區北新路三段38巷7號","121.48453","25.1870083333333","6501000","淡水區"
"251005","443-VK","2018/12/28 17:59:11","新北市淡水區中正路一段87巷8弄1-18號","121.41875","25.1815333333333","6501000","淡水區"
"251001","559-UM","2018/12/28 17:59:30","新北市淡水區民權路94巷1號","121.463146666667","25.1248016666667","6501000","淡水區"
"251006","561-UM","2018/12/28 17:59:22","新北市淡水區真理街2-1號","121.438593333333","25.1729483333333","6501000","淡水區"
"251011","650-BX","2018/12/28 17:59:20","新北市淡水區三空泉9-2號","121.474078333333","25.16371","6501000","淡水區"
"251003","673-BX","2018/12/28 17:59:31","新北市淡水區大忠街47號","121.444726666667","25.1764083333333","6501000","淡水區"
"207003","550-UM","2018/12/28 17:59:32","新北市萬里區港東路野柳風景區攤販66號","121.691301666667","25.2058366666667","6502800","萬里區"
"207004","225-TW","2018/12/28 17:59:36","新北市萬里區中幅里中福路48號","121.68347","25.1741583333333","6502800","萬里區"
"252002","178-VK","2018/12/28 17:59:28","新北市三芝區中山路二段39號","121.502958333333","25.2551133333333","6502100","三芝區"
"237004","KEA-2597","2018/12/28 17:59:27","新北市三峽區民權街237號","121.367965","24.9275166666667","6500900","三峽區"
"237007","153-BY","2018/12/28 17:59:20","新北市三峽區中園街171號","121.367178333333","24.92177","6500900","三峽區"
"237009","210-TH","2018/12/28 17:59:39","新北市三峽區中山路106巷2號","121.366093333333","24.9360116666667","6500900","三峽區"
"237013","252-BX","2018/12/28 17:59:35","新北市三峽區介壽路一段197號","121.37808","24.9306316666667","6500900","三峽區"
"237012","275-BY","2018/12/28 17:59:22","新北市三峽區民生街19巷3-1號","121.376133333333","24.9361466666667","6500900","三峽區"
"237014","433-BY","2018/12/28 17:59:22","新北市三峽區復興路101巷1弄71-1號","121.371435","24.937465","6500900","三峽區"
"237011","KEA-2596","2018/12/28 17:59:30","新北市三峽區大同路201號","121.370886666667","24.9270716666667","6500900","三峽區"
"237015","649-BX","2018/12/28 17:59:18","新北市三峽區紫微路109號","121.407906666667","24.9113866666667","6500900","三峽區"
"237010","706-TV","2018/12/28 17:59:25","新北市三峽區仁愛街18號","121.368281666667","24.9324383333333","6500900","三峽區"
"237005","AKY-6261","2018/12/28 17:59:24","新北市三峽區文化路212號","121.368906666667","24.93599","6500900","三峽區"
"236069","105-UM","2018/12/28 17:59:19","新北市土城區城林路6巷80號","121.438323333333","24.9799716666667","6501300","土城區"
"236042","KED-0685","2018/12/28 17:59:34","新北市土城區城林路6巷80號","121.438465","24.979745","6501300","土城區"
"236079","166-UM","2018/12/28 17:59:35","新北市土城區中央路三段180號","121.430848333333","24.96509","6501300","土城區"
"236030","253-BX","2018/12/28 17:59:34","新北市土城區城林路6巷80號","121.438638333333","24.9796366666667","6501300","土城區"
"236026","269-VK","2018/12/28 17:59:31","新北市土城區中央路三段92號","121.43618","24.9667716666667","6501300","土城區"
"236014","270-VK","2018/12/28 17:59:16","新北市土城區城林路6巷80號","121.438468333333","24.9796","6501300","土城區"
"236039","271-VK","2018/12/28 17:59:26","新北市土城區城林路6巷80號","121.438485","24.97978","6501300","土城區"
"252001","KED-0821","2018/12/28 17:59:34","新北市三芝區中興街二段2號","121.498393333333","25.2566016666667","6502100","三芝區"
"236020","401-BY","2018/12/28 17:59:31","新北市土城區城林路6巷80號","121.43875","24.9796883333333","6501300","土城區"
"236059","912-UM","2018/12/28 17:59:29","新北市土城區中央路三段256號","121.427403333333","24.9641","6501300","土城區"
"236048","913-UM","2018/12/28 17:59:16","新北市土城區城林路6巷80號","121.43855","24.9797483333333","6501300","土城區"
"236063","915-UM","2018/12/28 17:59:29","新北市土城區城林路6巷80號","121.438346666667","24.97958","6501300","土城區"
"236055","AAC-216","2018/12/28 17:59:38","新北市土城區城林路6巷80號","121.438516666667","24.97956","6501300","土城區"
"242037","AAC-296","2018/12/28 17:59:31","新北市新莊區建福路49巷2號","121.426905","25.0276966666667","6500500","新莊區"
"242058","986-R7","2018/12/28 17:59:38","新北市新莊區雙鳳路134巷6號","121.412825","25.028145","6500500","新莊區"
"242056","751-BX","2018/12/28 17:59:37","新北市新莊區豐年街124巷18號","121.445543333333","25.0298383333333","6500500","新莊區"
"242027","705-TV","2018/12/28 17:59:21","新北市新莊區中原路1號","121.459483333333","25.0543916666667","6500500","新莊區"
"242025","613-BX","2018/12/28 17:59:17","新北市新莊區新北大道二段342號","121.462973333333","25.061095","6500500","新莊區"
"242029","612-BX","2018/12/28 17:59:34","新北市新莊區中平路88號","121.444786666667","25.0452033333333","6500500","新莊區"
"242044","566-BX","2018/12/28 17:59:28","新北市新莊區雙鳳路39號","121.416243333333","25.0271116666667","6500500","新莊區"
"242048","497-BY","2018/12/28 17:59:22","新北市新莊區萬安街47巷16號","121.422185","25.0243683333333","6500500","新莊區"
"242021","442-UM","2018/12/28 17:59:34","新北市新莊區建興街42-1號","121.449981666667","25.0375066666667","6500500","新莊區"
"242054","441-UM","2018/12/28 17:59:24","新北市新莊區民安西路365號","121.428545","25.0104333333333","6500500","新莊區"
"242002","440-UM","2018/12/28 17:59:33","新北市新莊區中正路153-3號","121.455833333333","25.0368183333333","6500500","新莊區"
"242039","415-TV","2018/12/28 17:59:37","新北市新莊區民安西路9號","121.426695","25.0216916666667","6500500","新莊區"
"242009","413-TV","2018/12/28 17:59:23","新北市新莊區中華路二段260號","121.452611666667","25.0531466666667","6500500","新莊區"
"242046","400-BY","2018/12/28 17:59:28","新北市新莊區福營路125巷17號","121.433605","25.030935","6500500","新莊區"
"242023","362-BY","2018/12/28 17:59:21","新北市新莊區福壽街69號","121.458218333333","25.0495166666667","6500500","新莊區"
"242060","353-BY","2018/12/28 17:59:33","新北市新莊區新樹路583號","121.43297","25.0068116666667","6500500","新莊區"
"242034","135-UY","2018/12/28 17:59:35","新北市新莊區中正路421巷9號","121.444691666667","25.0338333333333","6500500","新莊區"
"242050","172-VK","2018/12/28 17:59:35","新北市新莊區西盛街163號","121.428333333333","25.017825","6500500","新莊區"
"242013","173-VK","2018/12/28 17:59:26","新北市新莊區中和街125巷7號","121.446955","25.0485383333333","6500500","新莊區"
"242019","175-VK","2018/12/28 17:59:28","新北市新莊區明中街43巷9號","121.457543333333","25.0389383333333","6500500","新莊區"
"242007","176-VK","2018/12/28 17:59:31","新北市新莊區自治街1號","121.453181666667","25.04797","6500500","新莊區"
"242017","KED-0687","2018/12/28 17:59:26","新北市新莊區永樂街168號","121.448666666667","25.0447766666667","6500500","新莊區"
"242011","347-TH","2018/12/28 17:59:31","新北市新莊區中港路中慶巷31號","121.449713333333","25.0537016666667","6500500","新莊區"
"242032","348-TH","2018/12/28 17:59:32","新北市新莊區新泰路305巷6號","121.444848333333","25.040975","6500500","新莊區"
"242005","349-TH","2018/12/28 17:59:28","新北市新莊區自由街6號","121.455796666667","25.04787","6500500","新莊區"
"242015","351-TH","2018/12/28 17:59:21","新北市新莊區中平路87巷4號","121.444505","25.0458333333333","6500500","新莊區"
"238015","755-BX","2018/12/28 17:59:38","新北市樹林區大安路307巷1弄2號","121.418305","24.99218","6500700","樹林區"
"238023","601-UM","2018/12/28 17:59:30","新北市樹林區龍興街44號","121.402858333333","25.0154983333333","6500700","樹林區"
"238019","599-UM","2018/12/28 17:59:25","新北市樹林區八德街170號","121.421656666667","24.97808","6500700","樹林區"
"238018","571-TV","2018/12/28 17:59:31","新北市樹林區中正路241號","121.43025","24.9986266666667","6500700","樹林區"
"238022","KEA-2213","2018/12/28 17:59:34","新北市樹林區太順街86-2號","121.417196666667","24.978715","6500700","樹林區"
"238021","KEA-2539","2018/12/28 17:59:35","新北市樹林區柑園街一段33巷12號","121.404348333333","24.958785","6500700","樹林區"
"238025","303-VK","2018/12/28 17:59:27","新北市樹林區三俊街21號","121.411836666667","25.0155083333333","6500700","樹林區"
"238017","283-BY","2018/12/28 17:59:36","新北市樹林區中正路464號","121.412786666667","25.0127733333333","6500700","樹林區"
"238014","282-BY","2018/12/28 17:59:17","新北市樹林區大安路5號","121.425118333333","25.000575","6500700","樹林區"
"238020","268-VK","2018/12/28 17:59:24","新北市樹林區三俊街199巷10-4號","121.420165","25.01616","6500700","樹林區"
"238026","172-UY","2018/12/28 17:59:35","新北市樹林區中洲街30巷8號","121.397438333333","24.9716216666667","6500700","樹林區"
"238016","169-UY","2018/12/28 17:56:58","新北市樹林區復興路322巷10號","121.416141666667","24.987175","6500700","樹林區"
"239007","AAC-297","2018/12/28 17:59:33","新北市鶯歌區尖山埔路213號","121.345163333333","24.950495","6500800","鶯歌區"
"239006","891-R6","2018/12/28 17:59:20","新北市鶯歌區鶯桃路455巷10弄14號","121.331055","24.96408","6500800","鶯歌區"
"239008","527-UM","2018/12/28 17:59:17","新北市鶯歌區明圓街6號","121.336803333333","24.9784783333333","6500800","鶯歌區"
"239005","526-UM","2018/12/28 17:59:21","新北市鶯歌區鶯桃路658巷87號","121.331126666667","24.9714883333333","6500800","鶯歌區"
"239001","417-VK","2018/12/28 17:59:23","新北市鶯歌區尖山路卓厝巷7號","121.341595","24.9451916666667","6500800","鶯歌區"
"239003","360-BY","2018/12/28 17:59:35","新北市鶯歌區永吉街19號","121.336028333333","24.95777","6500800","鶯歌區"
"239002","359-BY","2018/12/28 17:59:24","新北市鶯歌區光明街50號","121.348","24.95595","6500800","鶯歌區"
"239004","193-VK","2018/12/28 17:59:25","新北市鶯歌區尖山路46號","121.350721666667","24.95018","6500800","鶯歌區"
"221008","489-VK","2018/12/28 17:59:34","新北市汐止區明峰街15-1號","121.634765","25.0714283333333","6501100","汐止區"
"221036","130-UY","2018/12/28 17:59:29","新北市汐止區大同路三段255號","121.673448333333","25.0760316666667","6501100","汐止區"
"221015","131-UY","2018/12/28 17:59:33","新北市汐止區長江街341號","121.667046666667","25.081905","6501100","汐止區"
"221010","269-BY","2018/12/28 17:59:34","新北市汐止區汐萬路二段245巷37號","121.643921666667","25.0876383333333","6501100","汐止區"
"221012","278-VK","2018/12/28 17:59:23","新北市汐止區長興街二段50巷7號","121.674188333333","25.0815633333333","6501100","汐止區"
"221023","279-VK","2018/12/28 17:59:33","新北市汐止區明峰街160號","121.629303333333","25.0706466666667","6501100","汐止區"
"221032","280-BY","2018/12/28 17:59:31","新北市汐止區橫科路73巷2-2號","121.619551666667","25.0505366666667","6501100","汐止區"
"221027","281-BY","2018/12/28 17:59:33","新北市汐止區大同路二段374號","121.657783333333","25.0671233333333","6501100","汐止區"
"221029","298-VK","2018/12/28 17:59:28","新北市汐止區樟樹二路332號","121.641456666667","25.07037","6501100","汐止區"
"221021","299-VK","2018/12/28 17:59:22","新北市汐止區新興路16號","121.656366666667","25.0646533333333","6501100","汐止區"
"221031","353-TW","2018/12/28 17:59:23","新北市汐止區中興路161號","121.631101666667","25.066115","6501100","汐止區"
"221025","623-UM","2018/12/28 17:59:28","新北市汐止區仁愛路47號","121.659683333333","25.0632583333333","6501100","汐止區"
"221038","646-BX","2018/12/28 17:59:25","新北市汐止區連興街128巷7弄18號","121.653523333333","25.0611133333333","6501100","汐止區"
"221033","647-BX","2018/12/28 17:59:19","新北市汐止區合順街48號","121.62053","25.0431166666667","6501100","汐止區"
"221002","707-TV","2018/12/28 17:59:29","新北市汐止區中興路60號","121.6356","25.0615983333333","6501100","汐止區"
"221018","753-BX","2018/12/28 17:59:20","新北市汐止區招商街11巷1號","121.666511666667","25.068835","6501100","汐止區"
"224002","257-TC","2018/12/28 17:59:23","新北市瑞芳區三爪子坑路64-36號","121.809131666667","25.105945","6501200","瑞芳區"
"242041","281-VK","2018/12/28 17:59:36","新北市新莊區中正路612-1號","121.426168333333","25.0301933333333","6500500","新莊區"
"235061","KEA-2875","2018/12/28 17:59:32","新北市中和區員山路36巷16-2號","121.485335","24.9917566666667","6500300","中和區"
