"lineid","car","time","location","longitude","latitude","cityid","cityname"
"234086","338-UY","2018/12/28 17:55:38","新北市永和區福和路1號","121.526288333333","25.0098166666667","6500400","永和區"
"234007","839-RS","2018/12/28 18:04:34","新北市永和區福和路1號","121.525921666667","25.0091933333333","6500400","永和區"
"234026","9371-KE","2018/12/28 18:09:29","新北市永和區秀朗路一段10巷19號","121.513478333333","25.0062183333333","6500400","永和區"
"234011","9373-KE","2018/12/28 17:41:29","新北市永和區福和路1號","121.52556","25.0093966666667","6500400","永和區"
"249001","173-UM","2018/12/28 18:09:31","新北市八里區龍米路二段29號","121.448501666667","25.13978","6502300","八里區"
"249004","303-UY","2018/12/28 18:09:23","新北市八里區龍米路二段200巷3號","121.433691666667","25.1587566666667","6502300","八里區"
"249002","305-UY","2018/12/28 18:09:33","新北市八里區龍米路一段356巷46號","121.452163333333","25.13017","6502300","八里區"
"249003","593-UM","2018/12/28 18:09:21","新北市八里區中華路二段301號","121.404688333333","25.1489916666667","6502300","八里區"
"249005","759-BX","2018/12/28 18:09:36","新北市八里區荖阡坑路17-11號","121.401556666667","25.1385533333333","6502300","八里區"
"248014","025-BX","2018/12/28 18:09:34","新北市五股區成泰路一段196號","121.435741666667","25.0783083333333","6501500","五股區"
"248006","077-UY","2018/12/28 18:09:28","新北市五股區中興路二段70號","121.461223333333","25.0770433333333","6501500","五股區"
"248008","095-VK","2018/12/28 18:09:27","新北市五股區中興路二段182巷15弄16-2號","121.45788","25.0806316666667","6501500","五股區"
"248018","225-UY","2018/12/28 18:09:36","新北市五股區新五路三段38號","121.444348333333","25.0878933333333","6501500","五股區"
"248010","272-BY","2018/12/28 18:09:26","新北市五股區成泰路一段235號","121.436151666667","25.07926","6501500","五股區"
"248004","677-BX","2018/12/28 18:09:36","新北市五股區工商路48號","121.43918","25.083975","6501500","五股區"
"248002","678-BX","2018/12/28 18:09:25","新北市五股區新五路三段8號","121.443925","25.0871266666667","6501500","五股區"
"234023","9380-KE","2018/12/28 17:46:51","新北市永和區福和路1號","121.525621666667","25.0093966666667","6500400","永和區"
"232011","375-UM","2018/12/28 18:09:30","新北市坪林區坪雙路一段31號","121.711693333333","24.9424133333333","6502000","坪林區"
"244007","080-UY","2018/12/28 18:09:33","新北市林口區林口路124巷10弄11號","121.389261666667","25.0814916666667","6501700","林口區"
"244019","402-UM","2018/12/28 18:09:32","新北市林口區忠孝路563-6號","121.373426666667","25.0680483333333","6501700","林口區"
"244013","KEA-2802","2018/12/28 18:09:29","新北市林口區中山路144號","121.39147","25.0787266666667","6501700","林口區"
"244023","483-VK","2018/12/28 18:09:20","新北市林口區東湖路107號","121.383681666667","25.0730966666667","6501700","林口區"
"244017","485-VK","2018/12/28 18:09:39","新北市林口區八德路20巷3號","121.367901666667","25.06742","6501700","林口區"
"244009","656-BX","2018/12/28 18:09:22","新北市林口區中山路319號","121.383663333333","25.0805266666667","6501700","林口區"
"244011","657-BX","2018/12/28 18:09:21","新北市林口區粉寮路一段43號","121.396611666667","25.0774916666667","6501700","林口區"
"244025","837-TS","2018/12/28 18:09:26","新北市林口區文化北路一段301-1號","121.360371666667","25.07267","6501700","林口區"
"244021","838-TS","2018/12/28 18:09:22","新北市林口區自強五街15號","121.399055","25.0763583333333","6501700","林口區"
"243013","AAD-798","2018/12/28 18:09:09","新北市泰山區南林路99巷19號","121.417356666667","25.0494766666667","6501600","泰山區"
"222003","436-BY","2018/12/28 18:09:35","新北市深坑區文山路三段15號","121.612593333333","24.9980166666667","6501800","深坑區"
"222002","659-BX","2018/12/28 18:09:37","新北市深坑區文化街52號","121.618878333333","25.0016483333333","6501800","深坑區"
"231041","002-UM","2018/12/28 18:09:29","新北市新店區安華路28-1號","121.5196","24.9607566666667","6500600","新店區"
"231059","046-UY","2018/12/28 18:09:30","新北市新店區安華路28-1號","121.519521666667","24.96087","6500600","新店區"
"231040","047-UY","2018/12/28 18:09:17","新北市新店區安華路28-1號","121.519218333333","24.9609116666667","6500600","新店區"
"231044","106-UY","2018/12/28 18:09:23","新北市新店區安華路28-1號","121.519521666667","24.9607783333333","6500600","新店區"
"231046","107-UY","2018/12/28 18:09:22","新北市新店區直潭七街60號","121.532231666667","24.9398866666667","6500600","新店區"
"231053","108-UY","2018/12/28 18:09:30","新北市新店區安一路一段1-1號","121.51955","24.9611633333333","6500600","新店區"
"231048","187-VK","2018/12/28 18:09:31","新北市新店區安一路一段1-1號","121.519556666667","24.9611933333333","6500600","新店區"
"231054","188-VK","2018/12/28 18:09:23","新北市新店區安一路一段1-1號","121.519731666667","24.96132","6500600","新店區"
"221035","KEA-2785","2018/12/28 18:09:20","新北市汐止區大同路二段239號","121.653398333333","25.0653","6501100","汐止區"
"231057","256-BX","2018/12/28 18:09:29","新北市新店區安一路一段1-1號","121.519778333333","24.96115","6500600","新店區"
"231065","260-TV","2018/12/28 18:09:24","新北市新店區安一路一段1-1號","121.519236666667","24.96135","6500600","新店區"
"231042","268-BY","2018/12/28 18:09:33","新北市新店區安華路28-1號","121.519368333333","24.96053","6500600","新店區"
"231051","278-BY","2018/12/28 18:09:36","新北市新店區安一路一段1-1號","121.519591666667","24.9610833333333","6500600","新店區"
"231050","AAD-862","2018/12/28 18:09:24","新北市新店區安華路28-1號","121.519583333333","24.96103","6500600","新店區"
"231058","3713-VJ","2018/12/28 18:09:18","新北市新店區安華路28-1號","121.519231666667","24.9605833333333","6500600","新店區"
"231066","4716-K9","2018/12/28 18:09:32","新北市新店區安一路一段1-1號","121.519375","24.9611733333333","6500600","新店區"
"231056","4715-K9","2018/12/28 18:09:26","新北市新店區安康路一段104號","121.52729","24.9624583333333","6500600","新店區"
"231062","515-UM","2018/12/28 18:09:38","新北市新店區安一路一段1-1號","121.519363333333","24.9611516666667","6500600","新店區"
"231061","619-UM","2018/12/28 18:09:28","新北市新店區安華路28-1號","121.519441666667","24.96072","6500600","新店區"
"231064","719-UM","2018/12/28 18:09:25","新北市新店區安一路一段1-1號","121.519431666667","24.9612033333333","6500600","新店區"
"231060","897-TW","2018/12/28 18:09:39","新北市新店區安華路28-1號","121.519486666667","24.96057","6500600","新店區"
"231043","899-TW","2018/12/28 18:09:26","新北市新店區安華路28-1號","121.519081666667","24.9608766666667","6500600","新店區"
"231055","AKT-0513","2018/12/28 18:09:21","新北市新店區安一路一段1-1號","121.519363333333","24.9611866666667","6500600","新店區"
"241024","065-VK","2018/12/28 18:09:16","新北市三重區中正北路193巷35弄24號","121.476901666667","25.071035","6500200","三重區"
"241033","557-UM","2018/12/28 18:06:43","新北市三重區光復路一段68巷7號","121.47122","25.0493533333333","6500200","三重區"
"235066","003-UY","2018/12/28 18:09:28","新北市中和區連城路349號","121.488111666667","24.9961283333333","6500300","中和區"
"235064","005-UY","2018/12/28 18:09:25","新北市中和區中正路130號","121.499453333333","24.9937116666667","6500300","中和區"
"235063","006-UY","2018/12/28 18:09:36","新北市中和區員山路36巷16-3號","121.48503","24.9912633333333","6500300","中和區"
"235056","096-UM","2018/12/28 18:09:28","新北市中和區員山路36巷16號","121.484526666667","24.991335","6500300","中和區"
"235039","097-UM","2018/12/28 18:09:29","新北市中和區和城路一段271巷1號","121.485611666667","24.9918533333333","6500300","中和區"
"235040","150-BY","2018/12/28 18:09:24","新北市中和區錦和路350-1號","121.490431666667","24.993535","6500300","中和區"
"235058","151-BY","2018/12/28 18:09:36","新北市中和區圓通路367巷33弄43號","121.495666666667","24.9856633333333","6500300","中和區"
"235038","185-VK","2018/12/28 18:09:36","新北市中和區景平路105號","121.516928333333","24.9918666666667","6500300","中和區"
"235049","186-VK","2018/12/28 18:09:34","新北市中和區員山路36巷16-2號","121.485243333333","24.9915766666667","6500300","中和區"
"235042","KEA-2878","2018/12/28 18:09:21","新北市中和區景平路353號","121.504743333333","24.99354","6500300","中和區"
"247012","KEA-2869","2018/12/28 18:09:37","新北市蘆洲區中山一路237號","121.473413333333","25.0805683333333","6501400","蘆洲區"
"235050","4979-A6","2018/12/28 18:09:36","新北市中和區錦和路350-1號","121.49006","24.9935616666667","6500300","中和區"
"235070","558-UM","2018/12/28 18:09:34","新北市中和區中正路291號","121.493576666667","24.9938833333333","6500300","中和區"
"235045","565-BX","2018/12/28 18:09:29","新北市中和區中正路271號","121.49579","24.993865","6500300","中和區"
"235054","640-BX","2018/12/28 18:09:29","新北市中和區員山路82巷6-3號","121.48122","24.993605","6500300","中和區"
"235060","647-TV","2018/12/28 18:09:39","新北市中和區和城路一段271巷1號","121.485493333333","24.9920766666667","6500300","中和區"
"235046","733-UM","2018/12/28 18:09:14","新北市中和區員山路36巷12號","121.484016666667","24.990815","6500300","中和區"
"235062","800-TS","2018/12/28 18:09:32","新北市中和區建八路1號","121.485445","24.9986233333333","6500300","中和區"
"235057","801-TS","2018/12/28 18:09:37","新北市中和區民安街25巷12弄28號","121.47968","24.999595","6500300","中和區"
"235052","805-TS","2018/12/28 18:09:35","新北市中和區中正路10號","121.502943333333","24.9936233333333","6500300","中和區"
"235065","911-UM","2018/12/28 18:09:36","新北市中和區莊敬路49巷18號","121.501648333333","25.006145","6500300","中和區"
"235051","157-BY","2018/12/28 18:09:35","新北市中和區復興路307號","121.501283333333","24.990245","6500300","中和區"
"235037","AAC-213","2018/12/28 18:09:29","新北市中和區景平路155號","121.513701666667","24.9921683333333","6500300","中和區"
"235059","AAC-215","2018/12/28 18:09:30","新北市中和區員山路36巷16-3號","121.484901666667","24.991395","6500300","中和區"
"220016","120-SR","2018/12/28 18:04:45","新北市板橋區海山路25號","121.468301666667","25.008915","6500100","板橋區"
"247018","007-UY","2018/12/28 18:09:22","新北市蘆洲區中正路202號","121.466698333333","25.0883183333333","6501400","蘆洲區"
"226004","205-ST","2018/12/28 18:09:28","新北市平溪區菁桐里菁桐街165號","121.722968333333","25.0233983333333","6502400","平溪區"
"228002","663-BX","2018/12/28 18:09:35","新北市貢寮區福連里福興街39-3號","121.993293333333","25.0126066666667","6502600","貢寮區"
"228001","670-TC","2018/12/28 18:09:21","新北市貢寮區真理里新港街26巷55弄2號","121.927455","25.0528933333333","6502600","貢寮區"
"228003","828-UM","2018/12/28 18:09:26","新北市貢寮區真理里美艷山街6-2號","121.92884","25.0607133333333","6502600","貢寮區"
"224006","676-BX","2018/12/28 18:09:24","新北市瑞芳區中山路22號","121.804125","25.10621","6501200","瑞芳區"
"224008","285-BY","2018/12/28 18:09:22","新北市瑞芳區員山子路23號","121.821348333333","25.1030616666667","6501200","瑞芳區"
"224009","273-VK","2018/12/28 18:09:29","新北市瑞芳區金光路115號","121.853675","25.1062416666667","6501200","瑞芳區"
"224005","271-BY","2018/12/28 18:09:26","新北市瑞芳區建基路一段62巷24-1號","121.816465","25.1283866666667","6501200","瑞芳區"
"227003","642-TC","2018/12/28 18:09:39","新北市雙溪區共和里東榮街52號","121.866301666667","25.0336416666667","6502500","雙溪區"
"253006","032-BX","2018/12/28 18:09:36","新北市石門區老梅路52巷25弄1號","121.546463333333","25.2880583333333","6502200","石門區"
"253005","295-VK","2018/12/28 18:09:34","新北市石門區福安街17號","121.568581666667","25.2925883333333","6502200","石門區"
"222001","KEA-2212","2018/12/28 18:09:26","新北市深坑區北深路二段184號","121.614088333333","25.0022616666667","6501800","深坑區"
"208002","KEA-2872","2018/12/28 18:09:34","新北市金山區三界壇路99巷1號","121.622425","25.2291083333333","6502700","金山區"
"208003","665-BX","2018/12/28 18:09:35","新北市金山區民生路202號","121.644483333333","25.22191","6502700","金山區"
"208001","761-BX","2018/12/28 18:09:31","新北市金山區磺港里磺港路71號","121.647303333333","25.226875","6502700","金山區"
"251009","008-UM","2018/12/28 18:09:36","新北市淡水區大忠街34巷11號","121.443848333333","25.1755766666667","6501000","淡水區"
"251004","009-UM","2018/12/28 18:09:29","新北市淡水區民族路110巷12弄1號","121.461985","25.135515","6501000","淡水區"
"251005","010-UM","2018/12/28 18:09:22","新北市淡水區學府路123號","121.450498333333","25.1730516666667","6501000","淡水區"
"251002","012-UM","2018/12/28 18:09:38","新北市淡水區中正東路一段129號","121.455553333333","25.1593","6501000","淡水區"
"251008","181-VK","2018/12/28 18:09:28","新北市淡水區淡金路16巷62弄3號","121.460076666667","25.1608183333333","6501000","淡水區"
"251010","413-VK","2018/12/28 18:09:33","新北市淡水區中正路二段52號","121.419805","25.18328","6501000","淡水區"
"251012","441-VK","2018/12/28 18:09:33","新北市淡水區泉洲厝19號","121.490458333333","25.1908383333333","6501000","淡水區"
"251005","443-VK","2018/12/28 18:09:11","新北市淡水區中正路一段22巷101號","121.427105","25.1866333333333","6501000","淡水區"
"251001","559-UM","2018/12/28 18:09:30","新北市淡水區自立路1巷19號","121.462635","25.1296716666667","6501000","淡水區"
"251006","561-UM","2018/12/28 18:09:22","新北市淡水區新民街79號","121.438193333333","25.1767866666667","6501000","淡水區"
"251011","650-BX","2018/12/28 18:09:19","新北市淡水區三空泉9-2號","121.474128333333","25.1635233333333","6501000","淡水區"
"251003","673-BX","2018/12/28 18:09:31","新北市淡水區大忠街113巷18號","121.447245","25.1776033333333","6501000","淡水區"
"207003","550-UM","2018/12/28 18:09:32","新北市萬里區野柳里港西路75號","121.685745","25.205055","6502800","萬里區"
"207004","225-TW","2018/12/28 18:09:36","新北市萬里區中幅里中福路111號","121.676603333333","25.1688183333333","6502800","萬里區"
"252002","178-VK","2018/12/28 18:09:27","新北市三芝區中山路二段38號","121.502993333333","25.25514","6502100","三芝區"
"252003","249-BX","2018/12/28 18:09:27","新北市三芝區埔頭里埔頭37號","121.498441666667","25.2603116666667","6502100","三芝區"
"237004","KEA-2597","2018/12/28 18:09:27","新北市三峽區大埔路311號","121.36856","24.9023466666667","6500900","三峽區"
"237007","153-BY","2018/12/28 18:09:20","新北市三峽區中正路二段206-1號","121.365955","24.9141516666667","6500900","三峽區"
"237009","210-TH","2018/12/28 18:09:19","新北市三峽區大仁路52號","121.365356666667","24.937495","6500900","三峽區"
"237013","252-BX","2018/12/28 18:09:35","新北市三峽區長泰街54號","121.377851666667","24.9325783333333","6500900","三峽區"
"237012","275-BY","2018/12/28 18:09:22","新北市三峽區民生街19巷7弄18號","121.377148333333","24.9356266666667","6500900","三峽區"
"237014","433-BY","2018/12/28 18:09:22","新北市三峽區復興路159號","121.37055","24.9383216666667","6500900","三峽區"
"237011","KEA-2596","2018/12/28 18:09:30","新北市三峽區中正路一段48號","121.375271666667","24.9303733333333","6500900","三峽區"
"237015","649-BX","2018/12/28 18:09:18","新北市三峽區紫新路28號","121.422571666667","24.9216016666667","6500900","三峽區"
"237010","706-TV","2018/12/28 18:09:27","新北市三峽區民族街155號","121.368803333333","24.9279116666667","6500900","三峽區"
"237005","AKY-6261","2018/12/28 18:09:24","新北市三峽區和平街30號","121.370255","24.9370216666667","6500900","三峽區"
"236069","105-UM","2018/12/28 18:09:19","新北市土城區明德路一段150號","121.463263333333","24.9786716666667","6501300","土城區"
"236042","KED-0685","2018/12/28 18:09:34","新北市土城區城林路6巷80號","121.438465","24.97974","6501300","土城區"
"236079","166-UM","2018/12/28 18:09:35","新北市土城區永寧路32巷6號","121.4291","24.96068","6501300","土城區"
"236030","253-BX","2018/12/28 18:09:34","新北市土城區城林路6巷80號","121.438515","24.979635","6501300","土城區"
"236026","269-VK","2018/12/28 18:09:31","新北市土城區承天路18號","121.439348333333","24.963715","6501300","土城區"
"236014","270-VK","2018/12/28 18:09:36","新北市土城區學府路二段110號","121.447216666667","24.979495","6501300","土城區"
"236039","271-VK","2018/12/28 18:09:26","新北市土城區青雲路449號","121.458755","24.975115","6501300","土城區"
"252001","KED-0821","2018/12/28 18:09:34","新北市三芝區中興街二段2號","121.498363333333","25.2566066666667","6502100","三芝區"
"236020","401-BY","2018/12/28 18:09:31","新北市土城區城林路6巷80號","121.438391666667","24.9796133333333","6501300","土城區"
"236059","912-UM","2018/12/28 18:09:35","新北市土城區中央路四段157-1號","121.415388333333","24.9570533333333","6501300","土城區"
"236048","913-UM","2018/12/28 18:09:36","新北市土城區金城路二段26號","121.450313333333","24.97809","6501300","土城區"
"236063","915-UM","2018/12/28 18:09:29","新北市土城區金城路二段26號","121.449951666667","24.9778466666667","6501300","土城區"
"236055","AAC-216","2018/12/28 18:09:18","新北市土城區中華路二段82號","121.438821666667","24.9762533333333","6501300","土城區"
"242037","AAC-296","2018/12/28 18:09:27","新北市新莊區後港一路14號","121.424681666667","25.0260466666667","6500500","新莊區"
"242058","986-R7","2018/12/28 18:09:33","新北市新莊區壽山路45號","121.414731666667","25.0311233333333","6500500","新莊區"
"242056","751-BX","2018/12/28 18:09:24","新北市新莊區豐年街豐1巷43號","121.447955","25.0313433333333","6500500","新莊區"
"242027","705-TV","2018/12/28 18:09:35","新北市新莊區幸福路55號","121.457531666667","25.0493983333333","6500500","新莊區"
"242025","613-BX","2018/12/28 18:09:36","新北市新莊區五權一路7-2號","121.458343333333","25.066455","6500500","新莊區"
"242029","612-BX","2018/12/28 18:09:34","新北市新莊區中平路194號","121.444845","25.048295","6500500","新莊區"
"242044","566-BX","2018/12/28 18:09:28","新北市新莊區雙鳳路135號","121.412885","25.0273116666667","6500500","新莊區"
"242048","497-BY","2018/12/28 18:09:22","新北市新莊區民安路98巷29號","121.423205","25.02509","6500500","新莊區"
"242021","442-UM","2018/12/28 18:09:35","新北市新莊區新興街64號","121.450753333333","25.0377116666667","6500500","新莊區"
"242054","441-UM","2018/12/28 18:09:31","新北市新莊區民安西路321號","121.42752","25.01114","6500500","新莊區"
"242002","440-UM","2018/12/28 18:09:33","新北市新莊區新莊路90號","121.456638333333","25.0362116666667","6500500","新莊區"
"242039","415-TV","2018/12/28 18:09:17","新北市新莊區民安西路88巷2號","121.426436666667","25.019995","6500500","新莊區"
"242009","413-TV","2018/12/28 18:09:25","新北市新莊區昌平街71巷23號","121.453423333333","25.0536233333333","6500500","新莊區"
"242046","400-BY","2018/12/28 18:09:28","新北市新莊區福營路193號","121.43123","25.0304783333333","6500500","新莊區"
"242023","362-BY","2018/12/28 18:09:21","新北市泰山區泰林路一段2號","121.441966666667","25.0478016666667","6500500","新莊區"
"242060","353-BY","2018/12/28 18:09:19","新北市新莊區新樹路399號","121.432861666667","25.0161516666667","6500500","新莊區"
"242034","135-UY","2018/12/28 18:09:35","新北市新莊區景德路382號","121.446308333333","25.033565","6500500","新莊區"
"242050","172-VK","2018/12/28 18:09:35","新北市新莊區民本街11巷29弄5號","121.428645","25.02052","6500500","新莊區"
"242019","175-VK","2018/12/28 18:09:28","新北市新莊區公園路224號","121.45652","25.04063","6500500","新莊區"
"242007","176-VK","2018/12/28 18:09:31","新北市新莊區自強街37巷14弄17號","121.454101666667","25.04714","6500500","新莊區"
"242017","KED-0687","2018/12/28 18:09:25","新北市新莊區中港路303號","121.452795","25.0446","6500500","新莊區"
"242011","347-TH","2018/12/28 18:09:25","新北市新莊區中信街88號","121.44788","25.0533533333333","6500500","新莊區"
"242032","348-TH","2018/12/28 18:09:32","新北市新莊區新泰路277巷26號","121.444536666667","25.0402616666667","6500500","新莊區"
"242005","349-TH","2018/12/28 18:09:28","新北市新莊區中華路二段17號","121.453576666667","25.0457166666667","6500500","新莊區"
"242015","351-TH","2018/12/28 18:09:32","新北市新莊區中和街59巷14號","121.44671","25.0468933333333","6500500","新莊區"
"238015","755-BX","2018/12/28 18:09:38","新北市樹林區文德街4巷1號","121.418996666667","24.9915833333333","6500700","樹林區"
"238023","601-UM","2018/12/28 18:09:25","新北市樹林區三福街52號","121.405675","25.0164683333333","6500700","樹林區"
"238019","599-UM","2018/12/28 18:09:25","新北市樹林區水源街64號","121.425788333333","24.9809033333333","6500700","樹林區"
"238018","571-TV","2018/12/28 18:09:31","新北市樹林區博愛一街27號","121.425713333333","24.9909583333333","6500700","樹林區"
"238022","KEA-2213","2018/12/28 18:09:31","新北市樹林區太平路150巷23弄20號","121.417236666667","24.9767983333333","6500700","樹林區"
"238021","KEA-2539","2018/12/28 18:09:35","新北市樹林區柑園街二段9號","121.388145","24.9558083333333","6500700","樹林區"
"238025","303-VK","2018/12/28 18:09:28","新北市樹林區保安街二段73號","121.415998333333","25.0006983333333","6500700","樹林區"
"238017","283-BY","2018/12/28 18:09:37","新北市樹林區中正路815號","121.409475","25.0168516666667","6500700","樹林區"
"238014","282-BY","2018/12/28 18:09:17","新北市樹林區潭興街61號","121.42429","24.9980183333333","6500700","樹林區"
"238020","268-VK","2018/12/28 18:09:24","新北市樹林區三俊街129號","121.418035","25.01558","6500700","樹林區"
"238026","172-UY","2018/12/28 18:09:35","新北市樹林區育德街2號","121.392816666667","24.9706133333333","6500700","樹林區"
"238016","169-UY","2018/12/28 18:09:27","新北市樹林區中山路一段244號","121.420936666667","24.9876266666667","6500700","樹林區"
"239007","AAC-297","2018/12/28 18:09:33","新北市鶯歌區育英街97號","121.347398333333","24.951315","6500800","鶯歌區"
"239006","891-R6","2018/12/28 18:09:20","新北市鶯歌區鶯桃路379號","121.333583333333","24.9635416666667","6500800","鶯歌區"
"239008","527-UM","2018/12/28 18:09:17","新北市鶯歌區國際一路179號","121.336175","24.9764666666667","6500800","鶯歌區"
"239005","526-UM","2018/12/28 18:09:21","新北市鶯歌區鶯桃路668巷55弄3號","121.329263333333","24.9711283333333","6500800","鶯歌區"
"239001","417-VK","2018/12/28 18:09:23","新北市鶯歌區中正三路福德巷2弄21號","121.339148333333","24.9405583333333","6500800","鶯歌區"
"239003","360-BY","2018/12/28 18:09:35","新北市鶯歌區福安街1號","121.334275","24.96404","6500800","鶯歌區"
"239002","359-BY","2018/12/28 18:09:24","新北市鶯歌區光明街200號","121.343225","24.9557733333333","6500800","鶯歌區"
"239004","193-VK","2018/12/28 18:09:25","新北市鶯歌區中正二路161號","121.344813333333","24.9493766666667","6500800","鶯歌區"
"221008","489-VK","2018/12/28 18:09:34","新北市汐止區康寧街315號","121.627008333333","25.067955","6501100","汐止區"
"221036","130-UY","2018/12/28 18:09:29","新北市汐止區長安路56號","121.668753333333","25.0783633333333","6501100","汐止區"
"221015","131-UY","2018/12/28 18:08:53","新北市汐止區鄉長路二段124號","121.664173333333","25.0860833333333","6501100","汐止區"
"221010","269-BY","2018/12/28 18:09:34","新北市汐止區祥雲街2-1號","121.645721666667","25.0896516666667","6501100","汐止區"
"221012","278-VK","2018/12/28 18:09:22","新北市汐止區保一街81-1號","121.674658333333","25.0801916666667","6501100","汐止區"
"221023","279-VK","2018/12/28 18:09:33","新北市汐止區民族五街85號","121.627401666667","25.0696966666667","6501100","汐止區"
"221032","280-BY","2018/12/28 18:09:29","新北市汐止區力行街5號","121.61725","25.051145","6501100","汐止區"
"221027","281-BY","2018/12/28 18:09:36","新北市汐止區中正路7號","121.663175","25.0699783333333","6501100","汐止區"
"221029","298-VK","2018/12/28 18:08:28","新北市汐止區樟樹二路134號","121.639915","25.0656583333333","6501100","汐止區"
"221021","299-VK","2018/12/28 18:09:22","新北市汐止區龍安路24號","121.655421666667","25.06407","6501100","汐止區"
"221031","353-TW","2018/12/28 18:09:23","新北市汐止區中興路216號","121.630971666667","25.0663216666667","6501100","汐止區"
"221025","623-UM","2018/12/28 18:09:28","新北市汐止區勤進路3巷27號","121.661043333333","25.0617","6501100","汐止區"
"221038","646-BX","2018/12/28 18:09:25","新北市汐止區仁愛路121巷1號","121.662785","25.0637833333333","6501100","汐止區"
"221033","647-BX","2018/12/28 18:09:39","新北市汐止區宜興街40巷22弄2號","121.622561666667","25.041155","6501100","汐止區"
"221002","707-TV","2018/12/28 18:09:32","新北市汐止區福德一路201巷6號","121.635463333333","25.06541","6501100","汐止區"
"221018","753-BX","2018/12/28 18:09:20","新北市汐止區茄苳路47號","121.666063333333","25.070955","6501100","汐止區"
"224002","257-TC","2018/12/28 18:09:23","新北市瑞芳區三爪子坑路149巷20號","121.811348333333","25.1065266666667","6501200","瑞芳區"
"242041","281-VK","2018/12/28 18:09:35","新北市新莊區明志路19號","121.420068333333","25.0291016666667","6500500","新莊區"
"235068","KEA-2873","2018/12/28 18:09:19","新北市中和區員山路36巷16-3號","121.484976666667","24.991285","6500300","中和區"
"235061","KEA-2875","2018/12/28 18:09:32","新北市土城區金城路三段259-1號","121.47202","24.9901233333333","6500300","中和區"
"235047","KEA-2876","2018/12/28 18:09:13","新北市中和區和城路一段271巷1號","121.485451666667","24.99153","6500300","中和區"
