"lineid","car","time","location","longitude","latitude","cityid","cityname"
"234086","338-UY","2018/12/28 18:19:20","新北市永和區福和路1號","121.525641666667","25.0093566666667","6500400","永和區"
"234007","839-RS","2018/12/28 18:19:32","新北市永和區福和路1號","121.525715","25.0093416666667","6500400","永和區"
"234026","9371-KE","2018/12/28 18:19:29","新北市永和區豫溪街29號","121.515445","25.0098516666667","6500400","永和區"
"234011","9373-KE","2018/12/28 18:19:29","新北市永和區福和路1號","121.525498333333","25.00935","6500400","永和區"
"249001","173-UM","2018/12/28 18:19:27","新北市八里區龍米路一段139號","121.452075","25.1270366666667","6502300","八里區"
"249004","303-UY","2018/12/28 18:19:23","新北市八里區龍米路二段232巷1弄1號","121.43086","25.15933","6502300","八里區"
"249002","305-UY","2018/12/28 18:19:33","新北市八里區龍形五街27號","121.449958333333","25.1331033333333","6502300","八里區"
"249005","759-BX","2018/12/28 18:19:36","新北市八里區荖阡坑路15-3號","121.400888333333","25.1402666666667","6502300","八里區"
"248014","025-BX","2018/12/28 18:19:34","新北市五股區成泰路一段171巷13號","121.434381666667","25.0743483333333","6501500","五股區"
"248016","026-BX","2018/12/28 18:19:25","新北市五股區成泰路三段477巷9號","121.449926666667","25.0988566666667","6501500","五股區"
"248006","077-UY","2018/12/28 18:19:21","新北市五股區中興路一段152號","121.464626666667","25.073825","6501500","五股區"
"248008","095-VK","2018/12/28 18:19:27","新北市五股區更洲路32巷8弄14號","121.459245","25.079615","6501500","五股區"
"248018","225-UY","2018/12/28 18:19:36","新北市五股區御史路205-1號","121.430945","25.101035","6501500","五股區"
"248012","247-BX","2018/12/28 18:19:32","新北市五股區御史路1巷101弄2號","121.440973333333","25.0912066666667","6501500","五股區"
"248010","272-BY","2018/12/28 18:19:36","新北市五股區成泰路一段189巷9弄2號","121.434215","25.0766233333333","6501500","五股區"
"248004","677-BX","2018/12/28 18:19:23","新北市五股區成泰路二段222-3號","121.439138333333","25.085485","6501500","五股區"
"248002","678-BX","2018/12/28 18:19:25","新北市五股區西雲路66號","121.443646666667","25.0915366666667","6501500","五股區"
"244007","080-UY","2018/12/28 18:19:33","新北市林口區竹林路462號","121.387775","25.0849066666667","6501700","林口區"
"244019","402-UM","2018/12/28 18:19:32","新北市林口區忠孝路614號","121.37701","25.0683733333333","6501700","林口區"
"244013","KEA-2802","2018/12/28 18:19:29","新北市林口區佳林路101巷36號","121.387016666667","25.08","6501700","林口區"
"244023","483-VK","2018/12/28 18:19:20","新北市林口區東湖路208號","121.383011666667","25.0733166666667","6501700","林口區"
"244017","485-VK","2018/12/28 18:19:19","新北市林口區公園路5號","121.36616","25.0662783333333","6501700","林口區"
"244009","656-BX","2018/12/28 18:19:22","新北市林口區民生路131巷2-2號","121.377786666667","25.089045","6501700","林口區"
"244011","657-BX","2018/12/28 18:19:21","新北市林口區仁愛路一段266號","121.393935","25.0761283333333","6501700","林口區"
"244025","837-TS","2018/12/28 18:19:26","新北市林口區南勢七街51號","121.355808333333","25.0689816666667","6501700","林口區"
"244021","838-TS","2018/12/28 18:19:28","新北市林口區自強一街38號","121.399063333333","25.0776683333333","6501700","林口區"
"243013","AAD-798","2018/12/28 18:19:29","新北市泰山區錢厝坑13號","121.414335","25.040785","6501600","泰山區"
"222003","436-BY","2018/12/28 18:19:32","新北市深坑區旺耽路67號","121.626243333333","25.0029933333333","6501800","深坑區"
"222002","659-BX","2018/12/28 18:19:37","新北市深坑區雲鄉路46號","121.622245","24.999745","6501800","深坑區"
"231041","002-UM","2018/12/28 18:19:29","新北市新店區安華路28-1號","121.519551666667","24.9607433333333","6500600","新店區"
"231059","046-UY","2018/12/28 18:19:30","新北市新店區安華路28-1號","121.519518333333","24.9608466666667","6500600","新店區"
"231040","047-UY","2018/12/28 18:19:37","新北市新店區安華路28-1號","121.519223333333","24.960845","6500600","新店區"
"231044","106-UY","2018/12/28 18:19:23","新北市新店區安華路28-1號","121.519653333333","24.9608233333333","6500600","新店區"
"231046","107-UY","2018/12/28 18:19:22","新北市新店區直潭七街60號","121.532241666667","24.939895","6500600","新店區"
"231053","108-UY","2018/12/28 18:19:30","新北市新店區安康路一段160號","121.526178333333","24.96301","6500600","新店區"
"231048","187-VK","2018/12/28 18:19:31","新北市新店區安一路一段1-1號","121.519598333333","24.9611383333333","6500600","新店區"
"231054","188-VK","2018/12/28 18:19:23","新北市新店區安一路一段1-1號","121.519691666667","24.9613166666667","6500600","新店區"
"221035","KEA-2785","2018/12/28 18:19:39","新北市汐止區大同路二段179號","121.651936666667","25.06417","6501100","汐止區"
"231057","256-BX","2018/12/28 18:19:29","新北市新店區安一路一段1-1號","121.519763333333","24.9611383333333","6500600","新店區"
"231065","260-TV","2018/12/28 18:19:24","新北市新店區安一路一段1-1號","121.519191666667","24.961225","6500600","新店區"
"231042","268-BY","2018/12/28 18:19:33","新北市新店區安華路28-1號","121.51936","24.96054","6500600","新店區"
"231051","278-BY","2018/12/28 18:19:36","新北市新店區安一路一段1-1號","121.519395","24.9610683333333","6500600","新店區"
"231050","AAD-862","2018/12/28 18:19:24","新北市新店區安華路28-1號","121.519598333333","24.961","6500600","新店區"
"231058","3713-VJ","2018/12/28 18:19:38","新北市新店區安康路一段35-1號","121.532105","24.96057","6500600","新店區"
"231066","4716-K9","2018/12/28 18:19:32","新北市新店區安一路一段1-1號","121.519375","24.96116","6500600","新店區"
"231056","4715-K9","2018/12/28 18:19:26","新北市新店區中央路2號","121.53385","24.978755","6500600","新店區"
"231067","4772-VM","2018/12/28 18:19:27","新北市新店區安華路28-1號","121.519205","24.9605933333333","6500600","新店區"
"231049","513-UM","2018/12/28 18:19:33","新北市新店區安一路一段1-1號","121.519698333333","24.9611833333333","6500600","新店區"
"231062","515-UM","2018/12/28 18:19:18","新北市新店區安一路一段1-1號","121.519383333333","24.9611266666667","6500600","新店區"
"231045","617-UM","2018/12/28 18:19:32","新北市新店區安華路28-1號","121.519478333333","24.9607766666667","6500600","新店區"
"231061","619-UM","2018/12/28 18:19:28","新北市新店區安華路28-1號","121.519516666667","24.9606583333333","6500600","新店區"
"231063","641-BX","2018/12/28 18:19:20","新北市新店區安華路1-1號","121.519521666667","24.9604416666667","6500600","新店區"
"231064","719-UM","2018/12/28 18:19:25","新北市新店區安一路一段1-1號","121.519501666667","24.9611466666667","6500600","新店區"
"231060","897-TW","2018/12/28 18:19:20","新北市新店區安華路28-1號","121.519463333333","24.9606183333333","6500600","新店區"
"231043","899-TW","2018/12/28 18:19:26","新北市新店區安華路28-1號","121.519103333333","24.96087","6500600","新店區"
"231055","AKT-0513","2018/12/28 18:19:21","新北市新店區光明街151號","121.539426666667","24.9623533333333","6500600","新店區"
"241033","557-UM","2018/12/28 18:17:43","新北市新莊區幸福東路2號","121.467465","25.0494233333333","6500200","三重區"
"235066","003-UY","2018/12/28 18:19:28","新北市中和區中山路二段119號","121.502895","25.0037566666667","6500300","中和區"
"235064","005-UY","2018/12/28 18:19:25","新北市中和區圓通路167巷27號","121.498363333333","24.9944216666667","6500300","中和區"
"235063","006-UY","2018/12/28 18:19:36","新北市中和區中正路569號","121.486635","24.9943383333333","6500300","中和區"
"235056","096-UM","2018/12/28 18:19:28","新北市中和區新生街47號","121.483396666667","25.0028216666667","6500300","中和區"
"235039","097-UM","2018/12/28 18:19:29","新北市中和區景平路257號","121.508615","24.9929816666667","6500300","中和區"
"235040","150-BY","2018/12/28 18:19:24","新北市中和區保健路46巷39弄1號","121.508581666667","24.9953616666667","6500300","中和區"
"235058","151-BY","2018/12/28 18:19:36","新北市中和區圓通路367巷17號","121.492551666667","24.9865833333333","6500300","中和區"
"235055","183-VK","2018/12/28 18:19:33","新北市中和區連城路569巷9弄22號","121.479825","24.9935166666667","6500300","中和區"
"235038","185-VK","2018/12/28 18:19:36","新北市中和區大智街109巷7號","121.523376666667","24.9925283333333","6500300","中和區"
"235049","186-VK","2018/12/28 18:19:34","新北市中和區中正路190-1號","121.497881666667","24.9938866666667","6500300","中和區"
"235067","255-BX","2018/12/28 18:19:20","新北市中和區中正路637巷52弄1號","121.485461666667","24.9934433333333","6500300","中和區"
"235072","301-VK","2018/12/28 18:19:31","新北市中和區連城路249號","121.492836666667","24.99678","6500300","中和區"
"235042","KEA-2878","2018/12/28 18:19:21","新北市中和區大仁街20巷25弄19號","121.518523333333","24.9936166666667","6500300","中和區"
"247012","KEA-2869","2018/12/28 18:18:37","新北市五股區新五路三段181號","121.448748333333","25.09253","6501400","蘆洲區"
"235050","4979-A6","2018/12/28 18:19:36","新北市中和區捷運路153號","121.506535","24.99113","6500300","中和區"
"235069","4980-A6","2018/12/28 18:19:37","新北市中和區連城路186號","121.492715","24.996825","6500300","中和區"
"235070","558-UM","2018/12/28 18:19:34","新北市中和區圓通路115號","121.49932","24.9964383333333","6500300","中和區"
"235045","565-BX","2018/12/28 18:19:29","新北市中和區景安路200巷9號","121.503221666667","24.991825","6500300","中和區"
"235054","640-BX","2018/12/28 18:19:29","新北市中和區莒光路183號","121.47269","24.999105","6500300","中和區"
"235060","647-TV","2018/12/28 18:19:34","新北市中和區員山路271-1號","121.481381666667","24.9994266666667","6500300","中和區"
"235046","733-UM","2018/12/28 18:19:25","新北市中和區員山路36巷13號","121.484151666667","24.9907833333333","6500300","中和區"
"235062","800-TS","2018/12/28 18:19:32","新北市中和區橋和路162號","121.494338333333","25.0062733333333","6500300","中和區"
"235057","801-TS","2018/12/28 18:19:37","新北市中和區民享街97巷19號","121.475385","24.9995716666667","6500300","中和區"
"235041","802-TS","2018/12/28 18:19:22","新北市中和區中正路395號","121.490011666667","24.9936133333333","6500300","中和區"
"235052","805-TS","2018/12/28 18:19:35","新北市中和區興南路二段133號","121.505243333333","24.9841866666667","6500300","中和區"
"235048","896-TW","2018/12/28 18:19:31","新北市中和區錦和路350-1號","121.49044","24.9935083333333","6500300","中和區"
"235053","900-TW","2018/12/28 18:19:35","新北市中和區員山路36巷16-3號","121.484863333333","24.9918216666667","6500300","中和區"
"235065","911-UM","2018/12/28 18:19:36","新北市中和區莊敬路49巷27號","121.501568333333","25.006175","6500300","中和區"
"235051","157-BY","2018/12/28 18:19:35","新北市中和區興南路二段242巷23號","121.502313333333","24.9830383333333","6500300","中和區"
"235037","AAC-213","2018/12/28 18:19:36","新北市中和區景德街78號","121.51658","24.9914833333333","6500300","中和區"
"235059","AAC-215","2018/12/28 18:19:30","新北市中和區員山路36巷16-3號","121.484858333333","24.9913283333333","6500300","中和區"
"220016","120-SR","2018/12/28 18:04:45","新北市板橋區海山路25號","121.468301666667","25.008915","6500100","板橋區"
"226004","205-ST","2018/12/28 18:19:28","新北市平溪區靜安路二段7巷8號","121.708373333333","25.018745","6502400","平溪區"
"228002","663-BX","2018/12/28 18:19:35","新北市貢寮區福連里馬崗街1號","121.998151666667","25.0157616666667","6502600","貢寮區"
"228001","670-TC","2018/12/28 18:19:21","新北市貢寮區真理里新港街26巷55弄2-1號","121.92744","25.0528883333333","6502600","貢寮區"
"228003","828-UM","2018/12/28 18:19:26","新北市貢寮區真理里美艷山街63號","121.921013333333","25.0720183333333","6502600","貢寮區"
"224006","676-BX","2018/12/28 18:19:24","新北市瑞芳區民權街3-2號","121.808033333333","25.1074766666667","6501200","瑞芳區"
"224008","285-BY","2018/12/28 18:19:22","新北市瑞芳區逢甲路15號","121.809788333333","25.108645","6501200","瑞芳區"
"224009","273-VK","2018/12/28 18:19:31","新北市瑞芳區五號路4號","121.854703333333","25.1103533333333","6501200","瑞芳區"
"224005","271-BY","2018/12/28 18:19:24","新北市瑞芳區建基新村40號","121.81256","25.13055","6501200","瑞芳區"
"227003","642-TC","2018/12/28 18:19:39","新北市雙溪區共和里中山路2號","121.863788333333","25.0338116666667","6502500","雙溪區"
"227011","400-TW","2018/12/28 18:19:18","新北市雙溪區牡丹里牡丹73號","121.851728333333","25.05933","6502500","雙溪區"
"253006","032-BX","2018/12/28 18:19:27","新北市石門區老梅路63號","121.545808333333","25.2892666666667","6502200","石門區"
"253005","295-VK","2018/12/28 18:19:38","新北市石門區中央路3-1號","121.565945","25.291455","6502200","石門區"
"222001","KEA-2212","2018/12/28 18:19:26","新北市深坑區北深路二段54號","121.619235","25.004215","6501800","深坑區"
"208002","KEA-2872","2018/12/28 18:19:32","新北市金山區清泉里清水路16巷12號","121.633435","25.2303266666667","6502700","金山區"
"208003","665-BX","2018/12/28 18:19:39","新北市金山區中山路69號","121.640875","25.2182433333333","6502700","金山區"
"208001","761-BX","2018/12/28 18:19:31","新北市金山區自強路13號","121.640405","25.2164083333333","6502700","金山區"
"251004","009-UM","2018/12/28 18:19:29","新北市淡水區民族路45號","121.4627","25.135355","6501000","淡水區"
"251005","010-UM","2018/12/28 18:19:22","新北市淡水區水源街一段122巷37號","121.447161666667","25.170455","6501000","淡水區"
"251002","012-UM","2018/12/28 18:19:38","新北市淡水區中正東路一段69號","121.452725","25.16228","6501000","淡水區"
"251008","181-VK","2018/12/28 18:19:28","新北市淡水區水源街二段231號","121.460643333333","25.176415","6501000","淡水區"
"251010","413-VK","2018/12/28 18:19:33","新北市淡水區淡海路188號","121.420313333333","25.1852","6501000","淡水區"
"251012","441-VK","2018/12/28 18:19:33","新北市淡水區北新路二段77-5號","121.480431666667","25.1855166666667","6501000","淡水區"
"251005","443-VK","2018/12/28 18:17:31","新北市淡水區崁頂133號","121.431266666667","25.20544","6501000","淡水區"
"251001","559-UM","2018/12/28 18:19:30","新北市淡水區自強路110-8號","121.461678333333","25.1313666666667","6501000","淡水區"
"251006","561-UM","2018/12/28 18:19:23","新北市淡水區新民街74號","121.438756666667","25.1764383333333","6501000","淡水區"
"251011","650-BX","2018/12/28 18:19:19","新北市淡水區坪頂路52巷12號","121.457726666667","25.162475","6501000","淡水區"
"251003","673-BX","2018/12/28 18:19:31","新北市淡水區北新路180號","121.449471666667","25.17873","6501000","淡水區"
"207003","550-UM","2018/12/28 18:19:32","新北市萬里區野柳里港東路61號","121.687596666667","25.203785","6502800","萬里區"
"207004","225-TW","2018/12/28 18:19:36","新北市萬里區中幅里中福路125號","121.676","25.165945","6502800","萬里區"
"252002","178-VK","2018/12/28 18:19:28","新北市三芝區中山路二段38號","121.502991666667","25.255145","6502100","三芝區"
"252003","249-BX","2018/12/28 18:19:27","新北市三芝區錫板里南勢崗8號","121.479135","25.2618316666667","6502100","三芝區"
"237004","KEA-2597","2018/12/28 18:19:27","新北市三峽區五寮42-1號","121.370178333333","24.8662483333333","6500900","三峽區"
"237007","153-BY","2018/12/28 18:19:20","新北市三峽區中正路二段382號","121.365471666667","24.9091366666667","6500900","三峽區"
"237009","210-TH","2018/12/28 18:19:19","新北市三峽區中山路152巷22號","121.365161666667","24.9368966666667","6500900","三峽區"
"237013","252-BX","2018/12/28 18:19:36","新北市三峽區永安街3號","121.378","24.929945","6500900","三峽區"
"237012","275-BY","2018/12/28 18:19:22","新北市三峽區民生街1巷3-17號","121.377885","24.9364833333333","6500900","三峽區"
"237008","302-VK","2018/12/28 18:19:25","新北市三峽區白雞53號","121.384836666667","24.91259","6500900","三峽區"
"237014","433-BY","2018/12/28 18:19:22","新北市三峽區復興路110巷2弄12號","121.373098333333","24.93795","6500900","三峽區"
"237011","KEA-2596","2018/12/28 18:19:30","新北市三峽區介壽路二段153-1號","121.393541666667","24.93573","6500900","三峽區"
"237015","649-BX","2018/12/28 18:19:38","新北市三峽區紫微路19-1號","121.425108333333","24.92152","6500900","三峽區"
"237010","706-TV","2018/12/28 18:19:25","新北市三峽區中山路126號","121.365476666667","24.9359816666667","6500900","三峽區"
"237005","AKY-6261","2018/12/28 18:19:24","新北市三峽區忠孝街27-6號","121.371491666667","24.93441","6500900","三峽區"
"236069","105-UM","2018/12/28 18:19:31","新北市土城區永豐路147-3號","121.467275","24.9828233333333","6501300","土城區"
"236042","KED-0685","2018/12/28 18:19:34","新北市土城區樂利街3巷2號","121.448395","24.98605","6501300","土城區"
"236079","166-UM","2018/12/28 18:19:35","新北市土城區永平街2巷3號","121.427343333333","24.9634516666667","6501300","土城區"
"236030","253-BX","2018/12/28 18:19:37","新北市土城區順風路28號","121.44032","24.9769616666667","6501300","土城區"
"236026","269-VK","2018/12/28 18:19:31","新北市土城區承天路18號","121.439385","24.9635366666667","6501300","土城區"
"236014","270-VK","2018/12/28 18:19:36","新北市土城區立清街69號","121.460298333333","24.9873033333333","6501300","土城區"
"236039","271-VK","2018/12/28 18:19:26","新北市土城區青雲路483巷10弄20號","121.459316666667","24.9731433333333","6501300","土城區"
"252001","KED-0821","2018/12/28 18:19:34","新北市三芝區中興街二段2號","121.498361666667","25.25661","6502100","三芝區"
"236020","401-BY","2018/12/28 18:19:31","新北市土城區金城路二段48號","121.451253333333","24.9788483333333","6501300","土城區"
"236059","912-UM","2018/12/28 18:19:29","新北市土城區中央路四段464號","121.409908333333","24.9505466666667","6501300","土城區"
"236048","913-UM","2018/12/28 18:19:36","新北市土城區明德路一段369號","121.455345","24.97799","6501300","土城區"
"236063","915-UM","2018/12/28 18:19:29","新北市土城區金城路三段202-3號","121.469481666667","24.9884933333333","6501300","土城區"
"236055","AAC-216","2018/12/28 18:19:38","新北市土城區中華路二段128號","121.437665","24.9734566666667","6501300","土城區"
"242037","AAC-296","2018/12/28 18:19:27","新北市新莊區後港一路49巷3弄11號","121.425093333333","25.026625","6500500","新莊區"
"242058","986-R7","2018/12/28 18:19:18","新北市新莊區新北大道七段780號","121.412971666667","25.0248083333333","6500500","新莊區"
"242056","751-BX","2018/12/28 18:19:37","新北市新莊區瓊林路13-3號","121.448841666667","25.0309466666667","6500500","新莊區"
"242027","705-TV","2018/12/28 18:19:20","新北市新莊區中華路二段126號","121.453156666667","25.0491883333333","6500500","新莊區"
"242025","613-BX","2018/12/28 18:19:36","新北市新莊區五工三路94巷30號","121.459186666667","25.0664233333333","6500500","新莊區"
"242044","566-BX","2018/12/28 18:19:28","新北市新莊區天泉二街24巷2號","121.414805","25.0252","6500500","新莊區"
"242021","442-UM","2018/12/28 18:19:34","新北市新莊區中正路269號","121.449323333333","25.0354","6500500","新莊區"
"242054","441-UM","2018/12/28 18:19:37","新北市新莊區民安西路410巷12弄2號","121.428043333333","25.0091883333333","6500500","新莊區"
"242002","440-UM","2018/12/28 18:19:33","新北市新莊區碧江街31-1號","121.452138333333","25.0330766666667","6500500","新莊區"
"242039","415-TV","2018/12/28 18:19:37","新北市新莊區新樹路206巷10號","121.432971666667","25.0212566666667","6500500","新莊區"
"242009","413-TV","2018/12/28 18:19:23","新北市新莊區中華路二段41號","121.453356666667","25.0466833333333","6500500","新莊區"
"242046","400-BY","2018/12/28 18:19:28","新北市新莊區福營路363號","121.424","25.0278383333333","6500500","新莊區"
"242060","353-BY","2018/12/28 18:19:19","新北市新莊區新樹路245號","121.43496","25.0221966666667","6500500","新莊區"
"242050","172-VK","2018/12/28 18:19:35","新北市新莊區新樹路210號","121.433805","25.0203866666667","6500500","新莊區"
"242011","347-TH","2018/12/28 18:19:25","新北市新莊區中港路591巷24號","121.449961666667","25.0524433333333","6500500","新莊區"
"242032","348-TH","2018/12/28 18:19:32","新北市新莊區新泰路255巷83號","121.442868333333","25.03933","6500500","新莊區"
"242005","349-TH","2018/12/28 18:19:28","新北市新莊區新泰路357巷3號","121.442033333333","25.0415783333333","6500500","新莊區"
"242015","351-TH","2018/12/28 18:19:21","新北市新莊區中平路198巷16號","121.445766666667","25.0484066666667","6500500","新莊區"
"238015","755-BX","2018/12/28 18:19:18","新北市樹林區文化街79巷1號","121.416826666667","24.9890916666667","6500700","樹林區"
"238023","601-UM","2018/12/28 18:19:25","新北市樹林區忠義街25號","121.4096","25.0149066666667","6500700","樹林區"
"238019","599-UM","2018/12/28 18:19:25","新北市樹林區國凱街140巷13號","121.42412","24.9801916666667","6500700","樹林區"
"238018","571-TV","2018/12/28 18:19:31","新北市樹林區樹新路28巷12號","121.42748","24.9940633333333","6500700","樹林區"
"238024","5061-A6","2018/12/28 18:19:36","新北市樹林區中山路一段157號","121.422081666667","24.98872","6500700","樹林區"
"238025","303-VK","2018/12/28 18:19:27","新北市樹林區保安二街55號","121.424616666667","24.994475","6500700","樹林區"
"238017","283-BY","2018/12/28 18:19:36","新北市樹林區保安街二段337巷47號","121.411031666667","25.0079083333333","6500700","樹林區"
"238014","282-BY","2018/12/28 18:19:37","新北市樹林區大安路111巷25號","121.423183333333","24.9976733333333","6500700","樹林區"
"238020","268-VK","2018/12/28 18:19:35","新北市樹林區三龍街118巷7號","121.415371666667","25.01788","6500700","樹林區"
"238026","172-UY","2018/12/28 18:19:35","新北市樹林區佳園路一段92號","121.39351","24.9691833333333","6500700","樹林區"
"238016","169-UY","2018/12/28 18:18:58","新北市樹林區中山路二段72-1號","121.415578333333","24.9839983333333","6500700","樹林區"
"239007","AAC-297","2018/12/28 18:19:33","新北市鶯歌區重慶街86號","121.34842","24.9521433333333","6500800","鶯歌區"
"239006","891-R6","2018/12/28 18:19:36","新北市鶯歌區德昌街140巷9號","121.332146666667","24.9608516666667","6500800","鶯歌區"
"239008","527-UM","2018/12/28 18:19:37","新北市鶯歌區國際一路179號","121.336256666667","24.9764833333333","6500800","鶯歌區"
"239005","526-UM","2018/12/28 18:17:01","新北市鶯歌區鶯桃路668巷48號","121.329288333333","24.970435","6500800","鶯歌區"
"239001","417-VK","2018/12/28 18:19:23","新北市鶯歌區國中街199號","121.338111666667","24.93914","6500800","鶯歌區"
"239003","360-BY","2018/12/28 18:19:35","新北市鶯歌區福安街58號","121.335593333333","24.9651883333333","6500800","鶯歌區"
"239002","359-BY","2018/12/28 18:19:24","新北市鶯歌區重慶街31號","121.351378333333","24.9526583333333","6500800","鶯歌區"
"239004","193-VK","2018/12/28 18:19:25","新北市鶯歌區尖山路240巷30號","121.342406666667","24.947375","6500800","鶯歌區"
"221008","489-VK","2018/12/28 18:19:34","新北市汐止區康寧街706-1號","121.638095","25.0727583333333","6501100","汐止區"
"221036","130-UY","2018/12/28 18:19:29","新北市汐止區長安路4號","121.667973333333","25.0775466666667","6501100","汐止區"
"221015","131-UY","2018/12/28 18:19:34","新北市汐止區鄉長路二段23巷4號","121.667168333333","25.0828966666667","6501100","汐止區"
"221010","269-BY","2018/12/28 18:19:34","新北市汐止區汐萬路35號","121.644251666667","25.0915833333333","6501100","汐止區"
"221012","278-VK","2018/12/28 18:19:32","新北市汐止區保長路25號","121.672411666667","25.0796783333333","6501100","汐止區"
"221023","279-VK","2018/12/28 18:19:33","新北市汐止區中興路228巷1號","121.630701666667","25.0674316666667","6501100","汐止區"
"221032","280-BY","2018/12/28 18:19:29","新北市汐止區橫科路59號","121.618596666667","25.0509683333333","6501100","汐止區"
"221027","281-BY","2018/12/28 18:19:33","新北市汐止區和平街29號","121.662646666667","25.07077","6501100","汐止區"
"221029","298-VK","2018/12/28 18:19:28","新北市汐止區樟樹二路330巷68號","121.642935","25.06984","6501100","汐止區"
"221021","299-VK","2018/12/28 18:19:22","新北市汐止區連興街120號","121.653675","25.0625333333333","6501100","汐止區"
"221031","353-TW","2018/12/28 18:19:23","新北市汐止區大同路一段160-7號","121.635375","25.0559833333333","6501100","汐止區"
"221025","623-UM","2018/12/28 18:19:28","新北市汐止區勤進路12巷37號","121.659148333333","25.0626833333333","6501100","汐止區"
"221038","646-BX","2018/12/28 18:19:35","新北市汐止區忠孝東路303號","121.664316666667","25.0689683333333","6501100","汐止區"
"221033","647-BX","2018/12/28 18:19:39","新北市汐止區宜興街69號","121.622723333333","25.04313","6501100","汐止區"
"221002","707-TV","2018/12/28 18:19:29","新北市汐止區福德一路201巷19號","121.636045","25.0649116666667","6501100","汐止區"
"221018","753-BX","2018/12/28 18:19:20","新北市汐止區茄苳路88巷23號","121.667618333333","25.07001","6501100","汐止區"
"220082","610-BX","2018/12/28 18:19:34","新北市板橋區華東街1-9號","121.448198333333","24.994975","6500100","板橋區"
"224002","257-TC","2018/12/28 18:19:23","新北市瑞芳區三爪子坑路231號","121.81236","25.1062983333333","6501200","瑞芳區"
"242041","281-VK","2018/12/28 18:19:35","新北市新莊區天祥街135巷15號","121.41371","25.02928","6500500","新莊區"
"235068","KEA-2873","2018/12/28 18:19:19","新北市中和區員山路36巷16-3號","121.484918333333","24.9915633333333","6500300","中和區"
"235061","KEA-2875","2018/12/28 18:19:32","新北市中和區國光街215巷44號","121.467426666667","24.9999733333333","6500300","中和區"
"235047","KEA-2876","2018/12/28 18:19:13","新北市中和區復興路277-1號","121.502355","24.9903733333333","6500300","中和區"
