"lineid","car","time","location","longitude","latitude","cityid","cityname"
"234046","148-BY","2018/12/28 18:39:27","新北市永和區秀朗路二段66巷9號","121.52263","25.00138","6500400","永和區"
"234081","298-R6","2018/12/28 18:39:38","新北市永和區林森路81號","121.52387","25.0039033333333","6500400","永和區"
"234038","336-UY","2018/12/28 18:39:22","新北市永和區福和路1號","121.52663","25.0101833333333","6500400","永和區"
"234064","337-UY","2018/12/28 18:39:30","新北市永和區福和路1號","121.526548333333","25.0100766666667","6500400","永和區"
"234086","338-UY","2018/12/28 18:39:20","新北市中和區安樂路69-1號","121.512478333333","24.9938733333333","6500400","永和區"
"234070","552-UM","2018/12/28 18:39:23","新北市永和區福和路1號","121.525461666667","25.0093833333333","6500400","永和區"
"234017","745-BX","2018/12/28 18:39:33","新北市永和區福和路1號","121.525461666667","25.0096333333333","6500400","永和區"
"234030","746-BX","2018/12/28 18:39:27","新北市永和區成功路一段89號","121.526868333333","25.0029266666667","6500400","永和區"
"234007","839-RS","2018/12/28 18:39:32","新北市永和區環河西路二段7-6號","121.508943333333","25.0167366666667","6500400","永和區"
"234013","KEA-2591","2018/12/28 18:39:31","新北市永和區環河東路二段8號","121.522166666667","25.0135783333333","6500400","永和區"
"234061","AAD-866","2018/12/28 18:39:22","新北市永和區福和路1號","121.526076666667","25.009555","6500400","永和區"
"234026","9371-KE","2018/12/28 18:39:29","新北市永和區中山路一段214號","121.50826","25.00849","6500400","永和區"
"234011","9373-KE","2018/12/28 18:39:29","新北市永和區仁愛路40巷9弄3號","121.513796666667","25.013965","6500400","永和區"
"249001","173-UM","2018/12/28 18:39:27","新北市八里區龍米路一段360號","121.451586666667","25.13139","6502300","八里區"
"249004","303-UY","2018/12/28 18:39:23","新北市八里區中山路一段126-1號","121.418485","25.159645","6502300","八里區"
"249002","305-UY","2018/12/28 18:39:33","新北市八里區龍形一街18號","121.449631666667","25.1305366666667","6502300","八里區"
"249005","759-BX","2018/12/28 18:39:36","新北市八里區中華路三段196號","121.388215","25.1255933333333","6502300","八里區"
"248014","025-BX","2018/12/28 18:39:34","新北市五股區成泰路一段138號","121.435083333333","25.0755666666667","6501500","五股區"
"248016","026-BX","2018/12/28 18:39:25","新北市五股區凌雲路一段149巷13-1號","121.448615","25.100835","6501500","五股區"
"248008","095-VK","2018/12/28 18:39:27","新北市五股區中興路一段152號","121.464618333333","25.0738683333333","6501500","五股區"
"248018","225-UY","2018/12/28 18:39:35","新北市五股區民義路二段58號","121.406446666667","25.1075733333333","6501500","五股區"
"248012","247-BX","2018/12/28 18:39:32","新北市五股區成泰路三段2巷3號","121.440928333333","25.0863233333333","6501500","五股區"
"248010","272-BY","2018/12/28 18:39:31","新北市五股區明德路24號","121.432805","25.0714766666667","6501500","五股區"
"248004","677-BX","2018/12/28 18:39:23","新北市五股區民義路一段236-6號","121.427466666667","25.0912566666667","6501500","五股區"
"248002","678-BX","2018/12/28 18:35:45","新北市五股區成泰路三段319-1號","121.44769","25.0953833333333","6501500","五股區"
"234023","9380-KE","2018/12/28 18:39:28","新北市永和區福和路10巷10號","121.524478333333","25.0092483333333","6500400","永和區"
"234077","969-R7","2018/12/28 18:39:34","新北市永和區中正路155號","121.51642","24.9983666666667","6500400","永和區"
"234067","AAC-212","2018/12/28 18:39:28","新北市永和區永貞路84號","121.519988333333","25.004835","6500400","永和區"
"234003","AAC-295","2018/12/28 18:39:31","新北市永和區福和路1號","121.526066666667","25.0091566666667","6500400","永和區"
"244007","080-UY","2018/12/28 18:39:33","新北市林口區中湖62號","121.384746666667","25.1007833333333","6501700","林口區"
"244019","402-UM","2018/12/28 18:39:32","新北市林口區麗園二街47巷27號","121.381773333333","25.0697833333333","6501700","林口區"
"244013","KEA-2802","2018/12/28 18:39:38","新北市林口區信義路58-8號","121.382103333333","25.078595","6501700","林口區"
"244023","483-VK","2018/12/28 18:39:20","新北市林口區四維路251號","121.381558333333","25.074865","6501700","林口區"
"244017","485-VK","2018/12/28 18:39:39","新北市林口區文化二路一段38號","121.364935","25.0677033333333","6501700","林口區"
"244009","656-BX","2018/12/28 18:39:22","新北市林口區竹林路320巷11號","121.391226666667","25.082175","6501700","林口區"
"244011","657-BX","2018/12/28 18:39:21","新北市林口區仁愛路一段336號","121.39104","25.07644","6501700","林口區"
"244025","837-TS","2018/12/28 18:39:26","新北市林口區南勢四街329號","121.35665","25.074945","6501700","林口區"
"244021","838-TS","2018/12/28 18:39:22","新北市林口區粉寮路一段64號","121.397041666667","25.0785733333333","6501700","林口區"
"243013","AAD-798","2018/12/28 18:26:44","新北市泰山區明志路三段206巷3號","121.423273333333","25.0379333333333","6501600","泰山區"
"243016","KEA-2801","2018/12/28 18:39:23","新北市泰山區泰林路二段262號","121.431696666667","25.06233","6501600","泰山區"
"243012","646-TV","2018/12/28 18:39:33","新北市泰山區泰林路二段308號","121.430673333333","25.06289","6501600","泰山區"
"222003","436-BY","2018/12/28 18:39:32","新北市深坑區翠谷街17巷5號","121.626433333333","25.0085183333333","6501800","深坑區"
"222002","659-BX","2018/12/28 18:39:37","新北市深坑區雲鄉路2號","121.620938333333","24.999675","6501800","深坑區"
"231041","002-UM","2018/12/28 18:39:29","新北市新店區安華路28-1號","121.519536666667","24.9608466666667","6500600","新店區"
"231059","046-UY","2018/12/28 18:39:30","新北市新店區安華路28-1號","121.519573333333","24.960765","6500600","新店區"
"231040","047-UY","2018/12/28 18:39:37","新北市新店區安華路28-1號","121.519218333333","24.9608716666667","6500600","新店區"
"231044","106-UY","2018/12/28 18:39:23","新北市新店區環河路17號","121.537626666667","24.9614","6500600","新店區"
"231046","107-UY","2018/12/28 18:39:22","新北市新店區直潭二街1號","121.535523333333","24.9431816666667","6500600","新店區"
"231053","108-UY","2018/12/28 18:39:30","新北市新店區永興路10號","121.54547","24.9401133333333","6500600","新店區"
"231048","187-VK","2018/12/28 18:39:31","新北市新店區安一路一段1-1號","121.519586666667","24.9611133333333","6500600","新店區"
"231054","188-VK","2018/12/28 18:39:23","新北市新店區安一路一段1-1號","121.519745","24.9613016666667","6500600","新店區"
"221035","KEA-2785","2018/12/28 18:39:39","新北市汐止區大同路二段101號","121.649535","25.0630683333333","6501100","汐止區"
"231057","256-BX","2018/12/28 18:39:29","新北市新店區新烏路一段130號","121.545103333333","24.9334883333333","6500600","新店區"
"231065","260-TV","2018/12/28 18:39:24","新北市新店區安一路一段1-1號","121.519148333333","24.961255","6500600","新店區"
"231042","268-BY","2018/12/28 18:39:33","新北市新店區安華路28-1號","121.519345","24.96058","6500600","新店區"
"231051","278-BY","2018/12/28 18:39:36","新北市新店區安華路28-1號","121.519706666667","24.961025","6500600","新店區"
"231050","AAD-862","2018/12/28 18:39:24","新北市新店區安一路一段1-1號","121.519666666667","24.961135","6500600","新店區"
"231058","3713-VJ","2018/12/28 18:39:18","新北市新店區新店後街1-1號","121.537863333333","24.9532166666667","6500600","新店區"
"231066","4716-K9","2018/12/28 18:39:32","新北市新店區安一路一段1-1號","121.519415","24.9613783333333","6500600","新店區"
"231056","4715-K9","2018/12/28 18:39:26","新北市新店區大豐路68巷17號","121.538476666667","24.9803216666667","6500600","新店區"
"231067","4772-VM","2018/12/28 18:39:27","新北市新店區安華路28-1號","121.519276666667","24.96059","6500600","新店區"
"231049","513-UM","2018/12/28 18:39:33","新北市新店區安一路一段1-1號","121.519598333333","24.961165","6500600","新店區"
"231062","515-UM","2018/12/28 18:39:18","新北市新店區安一路一段1-1號","121.519376666667","24.9611316666667","6500600","新店區"
"231045","617-UM","2018/12/28 18:39:32","新北市新店區安華路28-1號","121.519448333333","24.96087","6500600","新店區"
"231061","619-UM","2018/12/28 18:39:28","新北市新店區安華路28-1號","121.51949","24.9607966666667","6500600","新店區"
"231063","641-BX","2018/12/28 18:39:20","新北市新店區安華路28-1號","121.519611666667","24.960525","6500600","新店區"
"231064","719-UM","2018/12/28 18:39:25","新北市新店區安一路一段1-1號","121.519503333333","24.96117","6500600","新店區"
"231060","897-TW","2018/12/28 18:39:19","新北市新店區安華路28-1號","121.519463333333","24.9607483333333","6500600","新店區"
"231043","899-TW","2018/12/28 18:39:26","新北市新店區安華路28-1號","121.519133333333","24.9608733333333","6500600","新店區"
"231055","AKT-0513","2018/12/28 18:39:21","新北市新店區北新路一段271巷31-1號","121.539895","24.9671116666667","6500600","新店區"
"235066","003-UY","2018/12/28 18:39:28","新北市中和區水源路43號","121.504758333333","25.0036183333333","6500300","中和區"
"235064","005-UY","2018/12/28 18:39:25","新北市中和區連城路75巷1-3號","121.497721666667","24.99973","6500300","中和區"
"235063","006-UY","2018/12/28 18:39:36","新北市中和區連城路389巷7號","121.4866","24.9956366666667","6500300","中和區"
"235056","096-UM","2018/12/28 18:39:28","新北市中和區員山路611巷1號","121.477848333333","25.011255","6500300","中和區"
"235039","097-UM","2018/12/28 18:39:29","新北市永和區中正路7號","121.513866666667","24.9956566666667","6500300","中和區"
"235040","150-BY","2018/12/28 18:39:24","新北市中和區保健路78號","121.511586666667","24.9963083333333","6500300","中和區"
"235058","151-BY","2018/12/28 18:39:36","新北市中和區圓通路320號","121.486651666667","24.98789","6500300","中和區"
"235055","183-VK","2018/12/28 18:39:32","新北市板橋區民族路276巷1弄20號","121.470286666667","25.00628","6500300","中和區"
"235038","185-VK","2018/12/28 18:39:36","新北市中和區大勇街60巷9號","121.518378333333","24.9947933333333","6500300","中和區"
"235049","186-VK","2018/12/28 18:39:34","新北市中和區景安路116號","121.505268333333","24.9950166666667","6500300","中和區"
"235067","255-BX","2018/12/28 18:39:20","新北市中和區新生街13巷2號","121.48338","25.0042783333333","6500300","中和區"
"235044","293-VK","2018/12/28 18:39:34","新北市中和區復興路280巷5號","121.502136666667","24.9909483333333","6500300","中和區"
"235072","301-VK","2018/12/28 18:39:31","新北市中和區中山路二段133號","121.502286666667","25.0031566666667","6500300","中和區"
"235042","KEA-2878","2018/12/28 18:39:21","新北市中和區成功路36號","121.526015","24.99321","6500300","中和區"
"247012","KEA-2869","2018/12/28 18:39:37","新北市林口區汕頭32號","121.366665","25.134895","6501400","蘆洲區"
"235050","4979-A6","2018/12/28 18:39:36","新北市中和區忠孝街113巷2號","121.512596666667","24.98749","6500300","中和區"
"235069","4980-A6","2018/12/28 18:39:36","新北市中和區連城路72號","121.497453333333","25.0013466666667","6500300","中和區"
"235070","558-UM","2018/12/28 18:39:34","新北市中和區景平路614號","121.500743333333","24.99698","6500300","中和區"
"235045","565-BX","2018/12/28 18:39:29","新北市中和區南山路208巷12號","121.50586","24.9900616666667","6500300","中和區"
"235054","640-BX","2018/12/28 18:39:34","新北市中和區莒光路118號","121.472486666667","25.0019316666667","6500300","中和區"
"235060","647-TV","2018/12/28 18:39:39","新北市中和區中山路三段27號","121.479311666667","25.0059833333333","6500300","中和區"
"235046","733-UM","2018/12/28 18:39:25","新北市中和區仁愛街81號","121.51159","24.9872233333333","6500300","中和區"
"235062","800-TS","2018/12/28 18:39:32","新北市中和區中山路二段312巷10弄2號","121.495675","25.0030083333333","6500300","中和區"
"235057","801-TS","2018/12/28 18:39:37","新北市中和區民安街11號","121.480676666667","25.00076","6500300","中和區"
"235041","802-TS","2018/12/28 18:39:22","新北市中和區中安街192號","121.511385","24.9992183333333","6500300","中和區"
"235052","805-TS","2018/12/28 18:39:35","新北市中和區興南路三段52巷2-5號","121.494475","24.9758416666667","6500300","中和區"
"235048","896-TW","2018/12/28 18:39:31","新北市中和區南山路218號","121.506348333333","24.9903833333333","6500300","中和區"
"235053","900-TW","2018/12/28 18:39:35","新北市土城區延壽路118-2號","121.469128333333","24.9940833333333","6500300","中和區"
"235065","911-UM","2018/12/28 18:39:36","新北市中和區莊敬路33巷38弄1號","121.500436666667","25.0065816666667","6500300","中和區"
"235051","157-BY","2018/12/28 18:39:35","新北市中和區華新街143巷71弄13號","121.5083","24.9788933333333","6500300","中和區"
"235037","AAC-213","2018/12/28 18:39:29","新北市中和區景平路87號","121.517746666667","24.9915116666667","6500300","中和區"
"235059","AAC-215","2018/12/28 18:39:30","新北市中和區錦和路354巷15號","121.489738333333","24.9915433333333","6500300","中和區"
"220065","072-UY","2018/12/28 18:39:39","新北市板橋區實踐路82號","121.463905","25.0053316666667","6500100","板橋區"
"220086","073-UY","2018/12/28 18:39:19","新北市板橋區南雅西路二段145巷3號","121.451706666667","25.0114566666667","6500100","板橋區"
"220106","075-UY","2018/12/28 18:39:20","新北市板橋區民生路二段161巷5號","121.470235","25.01975","6500100","板橋區"
"220069","AAD-861","2018/12/28 18:39:21","新北市板橋區大華街1號","121.458796666667","25.0065833333333","6500100","板橋區"
"220016","120-SR","2018/12/28 18:30:51","新北市板橋區民族路219巷67號","121.468468333333","25.0089916666667","6500100","板橋區"
"226004","205-ST","2018/12/28 18:39:28","新北市平溪區石底里公園街18-3號","121.733271666667","25.025815","6502400","平溪區"
"228002","663-BX","2018/12/28 18:39:35","新北市貢寮區福隆里東興街6-11號","121.950756666667","25.0210716666667","6502600","貢寮區"
"228001","670-TC","2018/12/28 18:39:21","新北市貢寮區仁理村研海街12-1號","121.923768333333","25.05168","6502600","貢寮區"
"228003","828-UM","2018/12/28 18:39:27","新北市貢寮區和美里龍洞街40-1號","121.91553","25.111665","6502600","貢寮區"
"224010","AGQ-8101","2018/12/28 18:39:24","新北市瑞芳區烏勢巷108號","121.846183333333","25.1087983333333","6501200","瑞芳區"
"224006","676-BX","2018/12/28 18:39:31","新北市瑞芳區明燈路三段180號","121.803333333333","25.1097083333333","6501200","瑞芳區"
"224008","285-BY","2018/12/28 18:39:25","新北市瑞芳區瑞芳街28號","121.806313333333","25.1095266666667","6501200","瑞芳區"
"224007","275-VK","2018/12/28 18:39:32","新北市瑞芳區大埔路117號","121.763468333333","25.1010066666667","6501200","瑞芳區"
"224009","273-VK","2018/12/28 18:39:29","新北市瑞芳區祈堂路72號","121.859061666667","25.1098616666667","6501200","瑞芳區"
"224005","271-BY","2018/12/28 18:39:24","新北市瑞芳區瑞濱路67號","121.821738333333","25.120885","6501200","瑞芳區"
"227003","642-TC","2018/12/28 18:39:19","新北市雙溪區魚行里坤溪3-5號","121.876198333333","25.0208483333333","6502500","雙溪區"
"227011","400-TW","2018/12/28 18:39:38","新北市雙溪區牡丹里下坑11號","121.851006666667","25.05618","6502500","雙溪區"
"253006","032-BX","2018/12/28 18:39:27","新北市石門區海灣新城1號","121.52459","25.2853016666667","6502200","石門區"
"253005","295-VK","2018/12/28 18:39:35","新北市石門區中山路28-1號","121.566075","25.2900683333333","6502200","石門區"
"222001","KEA-2212","2018/12/28 18:39:26","新北市深坑區北深路一段80號","121.636388333333","25.0107133333333","6501800","深坑區"
"208002","KEA-2872","2018/12/28 18:39:32","新北市金山區忠孝一路25號","121.638553333333","25.219335","6502700","金山區"
"208003","665-BX","2018/12/28 18:39:18","新北市金山區中山路344號","121.633471666667","25.2253","6502700","金山區"
"208001","761-BX","2018/12/28 18:39:31","新北市金山區文化三路7號","121.635073333333","25.2249266666667","6502700","金山區"
"251004","009-UM","2018/12/28 18:39:29","新北市淡水區中正東路二段143巷6弄1號","121.461163333333","25.1474033333333","6501000","淡水區"
"251002","012-UM","2018/12/28 18:39:38","新北市淡水區中正東路一段3巷14弄1號","121.45091","25.164175","6501000","淡水區"
"251008","181-VK","2018/12/28 18:39:28","新北市淡水區北投子17-1號","121.453951666667","25.1835116666667","6501000","淡水區"
"251010","413-VK","2018/12/28 18:39:33","新北市淡水區沙崙路126號","121.423395","25.1828683333333","6501000","淡水區"
"251012","441-VK","2018/12/28 18:39:33","新北市淡水區北新路121號","121.448973333333","25.178635","6501000","淡水區"
"251005","443-VK","2018/12/28 18:39:31","新北市淡水區下圭柔山91-2號","121.43075","25.209375","6501000","淡水區"
"251001","559-UM","2018/12/28 18:39:30","新北市淡水區自強路168號","121.465695","25.133995","6501000","淡水區"
"251006","561-UM","2018/12/28 18:39:22","新北市淡水區中山北路一段210號","121.444655","25.1797","6501000","淡水區"
"251011","650-BX","2018/12/28 18:39:19","新北市淡水區鄧公路18號","121.451135","25.1696833333333","6501000","淡水區"
"251003","673-BX","2018/12/28 18:39:31","新北市淡水區北新路69巷26號","121.446808333333","25.1800683333333","6501000","淡水區"
"207003","550-UM","2018/12/28 18:39:32","新北市萬里區大鵬里頂社2-1號","121.660365","25.20722","6502800","萬里區"
"207004","225-TW","2018/12/28 18:39:36","新北市萬里區萬里里獅頭路10-1號","121.69211","25.1787166666667","6502800","萬里區"
"252002","178-VK","2018/12/28 18:39:27","新北市三芝區民生街64巷2號","121.503536666667","25.2553616666667","6502100","三芝區"
"252003","249-BX","2018/12/28 18:39:27","新北市三芝區後厝里土地公坑999號","121.464536666667","25.2490933333333","6502100","三芝區"
"237004","KEA-2597","2018/12/28 18:39:27","新北市三峽區插角131號","121.407916666667","24.8703366666667","6500900","三峽區"
"237007","153-BY","2018/12/28 18:39:20","新北市三峽區柑樹路2巷3號","121.362333333333","24.9057616666667","6500900","三峽區"
"237009","210-TH","2018/12/28 18:39:19","新北市三峽區大同路317號","121.363353333333","24.9245","6500900","三峽區"
"237013","252-BX","2018/12/28 18:39:35","新北市三峽區光明路69巷25號","121.376668333333","24.929175","6500900","三峽區"
"237012","275-BY","2018/12/28 18:39:22","新北市三峽區三樹路358號","121.384065","24.943325","6500900","三峽區"
"237008","302-VK","2018/12/28 18:39:25","新北市三峽區白雞81-1號","121.403576666667","24.9090666666667","6500900","三峽區"
"237014","433-BY","2018/12/28 18:39:22","新北市三峽區復興路465號","121.361853333333","24.938605","6500900","三峽區"
"237011","KEA-2596","2018/12/28 18:39:30","新北市三峽區成福路3號","121.416808333333","24.92818","6500900","三峽區"
"237015","649-BX","2018/12/28 18:39:38","新北市三峽區安坑12-2號","121.442861666667","24.9263916666667","6500900","三峽區"
"237010","706-TV","2018/12/28 18:39:25","新北市三峽區復興路489號","121.36125","24.93847","6500900","三峽區"
"237005","AKY-6261","2018/12/28 18:39:24","新北市三峽區民生街90號","121.374176666667","24.9356316666667","6500900","三峽區"
"236069","105-UM","2018/12/28 18:39:19","新北市土城區永豐路157巷29弄6-1號","121.468318333333","24.9814683333333","6501300","土城區"
"236042","KED-0685","2018/12/28 18:39:34","新北市土城區裕民路55巷12號","121.449418333333","24.988395","6501300","土城區"
"236079","166-UM","2018/12/28 18:39:35","新北市土城區中央路四段52巷42弄2號","121.418968333333","24.9604433333333","6501300","土城區"
"236030","253-BX","2018/12/28 18:39:34","新北市土城區慶利街30號","121.438925","24.9744516666667","6501300","土城區"
"236026","269-VK","2018/12/28 18:39:31","新北市土城區金城路一段42號","121.44211","24.9702333333333","6501300","土城區"
"236014","270-VK","2018/12/28 18:39:36","新北市土城區清水路207巷11號","121.459915","24.9823183333333","6501300","土城區"
"236039","271-VK","2018/12/28 18:39:26","新北市土城區明德路一段235巷38號","121.463146666667","24.9773933333333","6501300","土城區"
"252001","KED-0821","2018/12/28 18:39:34","新北市三芝區中興街二段266號","121.502028333333","25.2527083333333","6502100","三芝區"
"236020","401-BY","2018/12/28 18:39:31","新北市土城區延吉街255號","121.467388333333","24.9847783333333","6501300","土城區"
"236059","912-UM","2018/12/28 18:39:29","新北市土城區中央路三段198號","121.430335","24.964775","6501300","土城區"
"236048","913-UM","2018/12/28 18:39:36","新北市土城區金城路三段1號","121.46426","24.9860666666667","6501300","土城區"
"236063","915-UM","2018/12/28 18:39:30","新北市土城區延壽路55巷9弄2號","121.46945","24.9916283333333","6501300","土城區"
"236055","AAC-216","2018/12/28 18:39:38","新北市土城區裕民路33號","121.448231666667","24.988405","6501300","土城區"
"242058","986-R7","2018/12/28 18:39:18","新北市新莊區中正路887-17號","121.416151666667","25.0241716666667","6500500","新莊區"
"242025","613-BX","2018/12/28 18:39:36","新北市新莊區中平路271號","121.444725","25.0498183333333","6500500","新莊區"
"242046","400-BY","2018/12/28 18:39:38","新北市新莊區民安路16-27號","121.42242","25.0281166666667","6500500","新莊區"
"242060","353-BY","2018/12/28 18:39:19","新北市新莊區四維路3號","121.424","25.025135","6500500","新莊區"
"238023","601-UM","2018/12/28 18:39:25","新北市樹林區三福街114號","121.406495","25.016345","6500700","樹林區"
"238019","599-UM","2018/12/28 18:39:27","新北市樹林區中華路190-16號","121.411678333333","24.9805716666667","6500700","樹林區"
"238018","571-TV","2018/12/28 18:39:31","新北市樹林區鎮前街165號","121.422268333333","24.9871933333333","6500700","樹林區"
"238024","5061-A6","2018/12/28 18:39:25","新北市樹林區太順街71號","121.416796666667","24.978315","6500700","樹林區"
"238025","303-VK","2018/12/28 18:39:27","新北市樹林區中山路三段22號","121.395583333333","24.9729116666667","6500700","樹林區"
"238017","283-BY","2018/12/28 18:39:36","新北市樹林區光興街50號","121.409813333333","25.0026883333333","6500700","樹林區"
"238014","282-BY","2018/12/28 18:39:37","新北市樹林區大安路111巷25號","121.423248333333","24.9976433333333","6500700","樹林區"
"238020","268-VK","2018/12/28 18:39:24","新北市樹林區三龍街113號","121.41738","25.01837","6500700","樹林區"
"238026","172-UY","2018/12/28 18:39:35","新北市樹林區育德街78-1號","121.387525","24.9681266666667","6500700","樹林區"
"238016","169-UY","2018/12/28 18:39:38","新北市樹林區中山路一段412號","121.417441666667","24.98512","6500700","樹林區"
"239007","AAC-297","2018/12/28 18:39:33","新北市鶯歌區中正一路建德巷38號","121.364508333333","24.9578083333333","6500800","鶯歌區"
"239006","891-R6","2018/12/28 18:39:40","新北市鶯歌區鶯桃路296巷72弄31號","121.33757","24.9609766666667","6500800","鶯歌區"
"239008","527-UM","2018/12/28 18:39:37","新北市鶯歌區國際一路179號","121.33624","24.9764933333333","6500800","鶯歌區"
"239005","526-UM","2018/12/28 18:17:01","新北市鶯歌區鶯桃路668巷48號","121.329288333333","24.970435","6500800","鶯歌區"
"239001","417-VK","2018/12/28 18:39:28","新北市鶯歌區尖山埔路114號","121.344118333333","24.9503066666667","6500800","鶯歌區"
"239003","360-BY","2018/12/28 18:39:35","新北市鶯歌區鶯桃路524號","121.331778333333","24.9669133333333","6500800","鶯歌區"
"239002","359-BY","2018/12/28 18:39:24","新北市鶯歌區中山路292號","121.343633333333","24.956985","6500800","鶯歌區"
"239004","193-VK","2018/12/28 18:39:25","新北市鶯歌區中正三路267號","121.332991666667","24.9378716666667","6500800","鶯歌區"
"221008","489-VK","2018/12/28 18:39:34","新北市汐止區康寧街901號","121.651338333333","25.075055","6501100","汐止區"
"221036","130-UY","2018/12/28 18:39:29","新北市汐止區南昌街13號","121.663418333333","25.06949","6501100","汐止區"
"221015","131-UY","2018/12/28 18:39:33","新北市汐止區鄉長路二段4號","121.66883","25.0806966666667","6501100","汐止區"
"221010","269-BY","2018/12/28 18:39:33","新北市汐止區汐萬路二段175號","121.647375","25.0867016666667","6501100","汐止區"
"221012","278-VK","2018/12/28 18:39:22","新北市汐止區長江街71號","121.657046666667","25.0720716666667","6501100","汐止區"
"221023","279-VK","2018/12/28 18:39:33","新北市汐止區康寧街753巷2弄12號","121.639531666667","25.0740383333333","6501100","汐止區"
"221032","280-BY","2018/12/28 18:39:29","新北市汐止區民權街二段79號","121.61913","25.04798","6501100","汐止區"
"221027","281-BY","2018/12/28 18:39:33","新北市汐止區康寧街901號","121.651005","25.075185","6501100","汐止區"
"221029","298-VK","2018/12/28 18:39:28","新北市汐止區樟樹一路131號","121.642166666667","25.0650466666667","6501100","汐止區"
"221021","299-VK","2018/12/28 18:39:22","新北市汐止區新興路74號","121.657471666667","25.061985","6501100","汐止區"
"221031","353-TW","2018/12/28 18:39:23","新北市汐止區福德一路274號","121.632161666667","25.0639566666667","6501100","汐止區"
"221025","623-UM","2018/12/28 18:39:28","新北市汐止區仁愛路119巷4號","121.662543333333","25.0638133333333","6501100","汐止區"
"221038","646-BX","2018/12/28 18:39:25","新北市汐止區康寧街901號","121.650708333333","25.0753766666667","6501100","汐止區"
"221033","647-BX","2018/12/28 18:39:19","新北市汐止區南勢街3號","121.627105","25.0374316666667","6501100","汐止區"
"221002","707-TV","2018/12/28 18:39:29","新北市汐止區中興路7號","121.637158333333","25.0591616666667","6501100","汐止區"
"221018","753-BX","2018/12/28 18:39:20","新北市汐止區茄苳路301號","121.673233333333","25.0670016666667","6501100","汐止區"
"220079","145-BY","2018/12/28 18:39:40","新北市板橋區南雅西路二段173號","121.451903333333","25.0124716666667","6500100","板橋區"
"220080","200-UY","2018/12/28 18:39:20","新北市板橋區大觀路二段265巷130弄32號","121.44104","24.9965683333333","6500100","板橋區"
"220082","610-BX","2018/12/28 18:39:34","新北市板橋區大觀路三段5-4號","121.43278","24.9959016666667","6500100","板橋區"
"224002","257-TC","2018/12/28 18:39:23","新北市瑞芳區靜安路四段67號","121.794491666667","25.1051216666667","6501200","瑞芳區"
"220056","276-BY","2018/12/28 18:39:26","新北市板橋區南雅南路二段138號","121.452025","24.996415","6500100","板橋區"
"220072","277-BY","2018/12/28 18:39:37","新北市板橋區板城路421號","121.447915","24.996365","6500100","板橋區"
"220101","280-UM","2018/12/28 18:39:33","新北市板橋區民生路二段161巷9號","121.470236666667","25.0196616666667","6500100","板橋區"
"220071","283-VK","2018/12/28 18:39:21","新北市板橋區四川路二段243號","121.45033","24.99348","6500100","板橋區"
"220094","285-UM","2018/12/28 18:39:33","新北市板橋區民生路二段161巷5號","121.470246666667","25.0197366666667","6500100","板橋區"
"220083","286-VK","2018/12/28 18:39:26","新北市板橋區板城路271號","121.450168333333","24.997885","6500100","板橋區"
"220081","287-VK","2018/12/28 18:39:32","新北市板橋區板城路421號","121.44786","24.9965066666667","6500100","板橋區"
"220090","288-VK","2018/12/28 18:39:35","新北市板橋區民生路二段161巷9號","121.470175","25.0196216666667","6500100","板橋區"
"220061","293-UM","2018/12/28 18:39:23","新北市板橋區民生路二段120號","121.470428333333","25.0196783333333","6500100","板橋區"
"220062","295-UM","2018/12/28 18:39:30","新北市板橋區民生路二段120號","121.470583333333","25.019685","6500100","板橋區"
"220084","296-UM","2018/12/28 18:39:36","新北市板橋區大觀路二段力行1巷3弄2號","121.445348333333","24.9991616666667","6500100","板橋區"
"242041","281-VK","2018/12/28 18:39:35","新北市新莊區天祥街89號","121.415183333333","25.0295216666667","6500500","新莊區"
"220075","303-R5","2018/12/28 18:39:17","新北市板橋區板城路271號","121.450058333333","24.997965","6500100","板橋區"
"220092","307-R5","2018/12/28 18:26:48","新北市板橋區民生路二段120號","121.470458333333","25.01973","6500100","板橋區"
"220098","317-R6","2018/12/28 18:39:20","新北市板橋區民生路二段161巷9號","121.47026","25.0195866666667","6500100","板橋區"
"220089","487-VK","2018/12/28 18:39:21","新北市板橋區民生路二段161巷1號","121.470075","25.0199883333333","6500100","板橋區"
"220088","491-VK","2018/12/28 18:39:34","新北市板橋區民生路二段161巷1號","121.469825","25.0199633333333","6500100","板橋區"
"220035","560-BX","2018/12/28 18:39:19","新北市板橋區南雅西路二段145巷6號","121.451633333333","25.0118216666667","6500100","板橋區"
"220103","561-BX","2018/12/28 18:39:24","新北市板橋區民生路二段89-6號","121.470568333333","25.01903","6500100","板橋區"
"220055","630-UY","2018/12/28 18:39:25","新北市板橋區四川路一段483號","121.457166666667","24.9972333333333","6500100","板橋區"
"220057","686-BX","2018/12/28 18:39:32","新北市板橋區南雅南路二段144巷60號","121.450238333333","24.997375","6500100","板橋區"
"220077","687-BX","2018/12/28 18:39:25","新北市板橋區華東街1-10號","121.448666666667","24.9950233333333","6500100","板橋區"
"220102","KEA-2699","2018/12/28 18:39:22","新北市板橋區民生路二段161巷1號","121.47005","25.0201433333333","6500100","板橋區"
"220063","833-TW","2018/12/28 18:39:22","新北市板橋區民生路二段120號","121.47048","25.0198216666667","6500100","板橋區"
"220074","895-R6","2018/12/28 18:39:38","新北市板橋區南雅南路二段136號","121.452061666667","24.9964866666667","6500100","板橋區"
"220073","985-R7","2018/12/28 18:39:24","新北市板橋區四川路二段23-3號","121.454723333333","24.9957533333333","6500100","板橋區"
"220064","AAC-253","2018/12/28 18:39:29","新北市板橋區民生路二段36-1號","121.472153333333","25.0167816666667","6500100","板橋區"
"235068","KEA-2873","2018/12/28 18:39:19","新北市中和區中正路131號","121.499836666667","24.99359","6500300","中和區"
"235061","KEA-2875","2018/12/28 18:39:32","新北市中和區民享街92巷1號","121.474451666667","24.999855","6500300","中和區"
"235047","KEA-2876","2018/12/28 18:39:13","新北市中和區南山路320巷10弄13號","121.506788333333","24.9865583333333","6500300","中和區"
