"lineid","car","time","location","longitude","latitude","cityid","cityname"
"234081","298-R6","2018/12/28 20:19:37","新北市永和區福和路19巷1弄5號","121.524298333333","25.0079233333333","6500400","永和區"
"234038","336-UY","2018/12/28 20:19:33","新北市永和區成功路一段93巷6號","121.527403333333","25.002715","6500400","永和區"
"234064","337-UY","2018/12/28 20:19:31","新北市永和區得和路124號","121.518736666667","25.0002183333333","6500400","永和區"
"234086","338-UY","2018/12/28 20:19:40","新北市永和區中正路613號","121.516273333333","25.0098066666667","6500400","永和區"
"234070","552-UM","2018/12/28 20:19:23","新北市永和區永亨路31號","121.519736666667","25.0061533333333","6500400","永和區"
"234017","745-BX","2018/12/28 20:19:33","新北市永和區仁愛路33號","121.514226666667","25.0133783333333","6500400","永和區"
"234030","746-BX","2018/12/28 20:19:27","新北市中和區立人街14巷69號","121.518488333333","24.9955833333333","6500400","永和區"
"234054","KEA-2590","2018/12/28 20:19:27","新北市永和區光復街4號","121.51643","25.016685","6500400","永和區"
"234013","KEA-2591","2018/12/28 20:19:31","新北市永和區保生路40巷1號","121.50583","25.0084166666667","6500400","永和區"
"234061","AAD-866","2018/12/28 20:19:22","新北市永和區得和路51號","121.516755","25.0000633333333","6500400","永和區"
"234042","862-TW","2018/12/28 20:19:22","新北市中和區中安街188號","121.51132","24.9993416666667","6500400","永和區"
"234050","863-TW","2018/12/28 20:19:23","新北市永和區新生路28巷16號","121.508316666667","25.0163483333333","6500400","永和區"
"249001","173-UM","2018/12/28 20:19:42","新北市八里區中華路二段538-1號","121.399045","25.1450633333333","6502300","八里區"
"249004","303-UY","2018/12/28 20:19:36","新北市八里區中山路一段129巷31號","121.414091666667","25.1585216666667","6502300","八里區"
"249002","305-UY","2018/12/28 20:19:33","新北市八里區龍米路二段10號","121.449121666667","25.138855","6502300","八里區"
"249003","593-UM","2018/12/28 20:19:29","新北市八里區訊埔路20號","121.397456666667","25.14533","6502300","八里區"
"249005","759-BX","2018/12/28 20:19:35","新北市八里區下罟子1-16號","121.389866666667","25.1421316666667","6502300","八里區"
"248014","025-BX","2018/12/28 20:19:33","新北市八里區商港路105巷15-1號","121.393391666667","25.1492883333333","6501500","五股區"
"248012","247-BX","2018/12/28 20:19:32","新北市五股區民義路一段206號","121.430538333333","25.0889666666667","6501500","五股區"
"248004","677-BX","2018/12/28 20:19:23","新北市五股區中興路四段23號","121.438793333333","25.0826733333333","6501500","五股區"
"248002","678-BX","2018/12/28 20:19:04","新北市五股區成泰路三段163號","121.445183333333","25.0917283333333","6501500","五股區"
"234023","9380-KE","2018/12/28 20:19:28","新北市永和區復興街18號","121.515921666667","25.0128","6500400","永和區"
"234077","969-R7","2018/12/28 20:19:34","新北市永和區民享街2巷1號","121.51481","24.9957766666667","6500400","永和區"
"234074","AAC-211","2018/12/28 20:19:33","新北市永和區豫溪街160巷1號","121.523263333333","25.0096966666667","6500400","永和區"
"234067","AAC-212","2018/12/28 20:19:28","新北市永和區保平路236巷7弄16號","121.508173333333","25.0057766666667","6500400","永和區"
"234003","AAC-295","2018/12/28 20:19:31","新北市永和區大新街31號","121.51517","25.0085633333333","6500400","永和區"
"243013","AAD-798","2018/12/28 20:19:31","新北市泰山區新民路24號","121.426703333333","25.0445816666667","6501600","泰山區"
"243009","297-R6","2018/12/28 20:19:21","新北市泰山區明志路一段247號","121.43228","25.0606133333333","6501600","泰山區"
"243016","KEA-2801","2018/12/28 20:19:42","新北市泰山區明志路二段420號","121.424935","25.043845","6501600","泰山區"
"243015","421-VK","2018/12/28 20:19:37","新北市泰山區福興三街21號","121.434441666667","25.0573983333333","6501600","泰山區"
"243011","KEA-2215","2018/12/28 20:19:36","新北市新莊區壽山路160巷21號","121.417445","25.0319183333333","6501600","泰山區"
"243010","KEA-2216","2018/12/28 20:19:26","新北市泰山區明志路二段255巷14號","121.42786","25.0473266666667","6501600","泰山區"
"243012","646-TV","2018/12/28 20:19:33","新北市泰山區楓江路51號","121.43554","25.0625816666667","6501600","泰山區"
"243014","680-BX","2018/12/28 20:19:33","新北市泰山區泰林路二段438號","121.426651666667","25.064255","6501600","泰山區"
"222003","436-BY","2018/12/28 20:19:31","新北市深坑區文化街43號","121.617606666667","25.0018933333333","6501800","深坑區"
"222002","659-BX","2018/12/28 20:19:37","新北市深坑區萬福路75巷46號","121.598351666667","25.00982","6501800","深坑區"
"231041","002-UM","2018/12/28 20:19:29","新北市新店區民權路46號","121.540131666667","24.9830816666667","6500600","新店區"
"231059","046-UY","2018/12/28 20:19:29","新北市新店區安德街77號","121.510113333333","24.96139","6500600","新店區"
"231040","047-UY","2018/12/28 20:19:37","新北市新店區北新路二段2號","121.54281","24.9707483333333","6500600","新店區"
"231044","106-UY","2018/12/28 20:19:23","新北市新店區北新路三段96號","121.541825","24.9809883333333","6500600","新店區"
"231053","108-UY","2018/12/28 20:19:30","新北市新店區松林路6-6號","121.546738333333","24.91108","6500600","新店區"
"231048","187-VK","2018/12/28 20:19:31","新北市新店區中興路二段252號","121.547521666667","24.975875","6500600","新店區"
"231054","188-VK","2018/12/28 20:19:23","新北市新店區檳榔路69號","121.544116666667","24.962125","6500600","新店區"
"221035","KEA-2785","2018/12/28 20:19:39","新北市汐止區長江街101-5號","121.658688333333","25.073195","6501100","汐止區"
"231057","256-BX","2018/12/28 20:19:37","新北市新店區花園七路一段3號","121.554555","24.9349316666667","6500600","新店區"
"231065","260-TV","2018/12/28 20:19:24","新北市新店區安祥路104巷6弄36號","121.483126666667","24.96294","6500600","新店區"
"231042","268-BY","2018/12/28 20:19:32","新北市新店區中興路二段100巷1號","121.547551666667","24.9717166666667","6500600","新店區"
"231051","278-BY","2018/12/28 20:19:36","新北市新店區溪園路461號","121.525261666667","24.9773183333333","6500600","新店區"
"231050","AAD-862","2018/12/28 20:19:24","新北市新店區博愛街13巷1號","121.541041666667","24.9733266666667","6500600","新店區"
"231066","4716-K9","2018/12/28 20:19:32","新北市新店區柴埕路2-2號","121.51459","24.9659083333333","6500600","新店區"
"231056","4715-K9","2018/12/28 20:19:26","新北市新店區中正路304號","121.537508333333","24.9745583333333","6500600","新店區"
"231067","4772-VM","2018/12/28 20:19:27","新北市新店區安康路一段72號","121.528356666667","24.961875","6500600","新店區"
"231049","513-UM","2018/12/28 20:19:33","新北市新店區北新路二段35號","121.542823333333","24.97249","6500600","新店區"
"231062","515-UM","2018/12/28 20:19:38","新北市新店區安康路二段383號","121.494948333333","24.9546016666667","6500600","新店區"
"231045","617-UM","2018/12/28 20:19:32","新北市新店區新坡一街113號","121.547336666667","24.96401","6500600","新店區"
"231061","619-UM","2018/12/28 20:19:28","新北市新店區安興路33-1號","121.515875","24.970415","6500600","新店區"
"231063","641-BX","2018/12/28 20:19:20","新北市新店區柴埕路116號","121.504543333333","24.959625","6500600","新店區"
"231068","718-UY","2018/12/28 20:19:22","新北市新店區寶安街30-1號","121.542171666667","24.9822933333333","6500600","新店區"
"231064","719-UM","2018/12/28 20:19:25","新北市新店區安業街8巷1號","121.515806666667","24.97724","6500600","新店區"
"231060","897-TW","2018/12/28 20:19:39","新北市新店區錦秀路11巷103號","121.480825","24.9445566666667","6500600","新店區"
"231043","899-TW","2018/12/28 20:19:26","新北市新店區建國路133號","121.539333333333","24.9782683333333","6500600","新店區"
"231055","AKT-0513","2018/12/28 20:19:41","新北市新店區安康路一段166號","121.525933333333","24.96302","6500600","新店區"
"241028","022-UY","2018/12/28 20:19:25","新北市三重區大同南路92號","121.496156666667","25.059055","6500200","三重區"
"241008","059-VK","2018/12/28 20:19:31","新北市三重區永福街256號","121.484186666667","25.0747616666667","6500200","三重區"
"241022","060-VK","2018/12/28 20:19:26","新北市三重區新北大道一段28號","121.488301666667","25.061455","6500200","三重區"
"241031","061-VK","2018/12/28 20:19:28","新北市三重區三寧街15號","121.48948","25.0597633333333","6500200","三重區"
"241015","062-VK","2018/12/28 20:19:20","新北市三重區重新路一段128號","121.500235","25.0629916666667","6500200","三重區"
"241024","065-VK","2018/12/28 20:19:36","新北市三重區中正北路238號","121.481815","25.0678633333333","6500200","三重區"
"241003","091-VK","2018/12/28 20:19:37","新北市三重區富華街63號","121.491316666667","25.0835616666667","6500200","三重區"
"241005","262-UM","2018/12/28 20:19:40","新北市三重區溪尾街279號","121.487486666667","25.0824383333333","6500200","三重區"
"241016","266-UM","2018/12/28 20:19:31","新北市三重區大同北路91號","121.494625","25.0635866666667","6500200","三重區"
"241009","267-UM","2018/12/28 20:19:34","新北市三重區三和路四段382巷38號","121.481465","25.0785066666667","6500200","三重區"
"241018","268-UM","2018/12/28 20:19:43","新北市三重區正義北路258號","121.495925","25.06864","6500200","三重區"
"241032","269-UM","2018/12/28 20:19:32","新北市三重區捷運路19巷6弄7號","121.484681666667","25.056965","6500200","三重區"
"241013","270-UM","2018/12/28 20:19:38","新北市三重區三和路三段167巷49號","121.493621666667","25.0745983333333","6500200","三重區"
"241025","271-UM","2018/12/28 20:19:23","新北市三重區三民街260號","121.479323333333","25.067985","6500200","三重區"
"241007","398-BY","2018/12/28 20:19:26","新北市三重區溪尾街108巷67號","121.487253333333","25.0781933333333","6500200","三重區"
"241035","KEA-2210","2018/12/28 20:19:38","新北市三重區正義北路33巷24號","121.498288333333","25.063805","6500200","三重區"
"241004","475-VK","2018/12/28 20:19:34","新北市三重區仁愛街390號","121.490916666667","25.0808","6500200","三重區"
"241020","478-VK","2018/12/28 20:19:37","新北市三重區三和路三段170巷28號","121.491611666667","25.0726616666667","6500200","三重區"
"241014","543-UM","2018/12/28 20:19:25","新北市三重區龍濱路251號","121.501413333333","25.0726516666667","6500200","三重區"
"241001","547-UM","2018/12/28 20:19:40","新北市三重區自強路四段31巷17號","121.490135","25.0768033333333","6500200","三重區"
"241033","557-UM","2018/12/28 20:19:05","新北市三重區五谷王北街50巷49號","121.475011666667","25.0514266666667","6500200","三重區"
"241019","KEA-2593","2018/12/28 20:19:32","新北市三重區忠孝路一段30巷58號","121.490418333333","25.07131","6500200","三重區"
"241006","AAD-863","2018/12/28 20:19:24","新北市三重區車路頭街139巷14號","121.484273333333","25.0762433333333","6500200","三重區"
"241026","743-BX","2018/12/28 20:19:34","新北市三重區和平街45號","121.501676666667","25.0625016666667","6500200","三重區"
"241023","887-TS","2018/12/28 20:19:40","新北市三重區忠孝路三段84巷1號","121.480323333333","25.06475","6500200","三重區"
"241012","941-UM","2018/12/28 20:19:23","新北市三重區河邊北街379-1號","121.501703333333","25.0764516666667","6500200","三重區"
"241029","942-UM","2018/12/28 20:19:26","新北市三重區重安街98號","121.492578333333","25.056175","6500200","三重區"
"235066","003-UY","2018/12/28 20:19:28","新北市中和區光華街31巷49號","121.505963333333","25.0050266666667","6500300","中和區"
"235039","097-UM","2018/12/28 20:19:29","新北市中和區大勇街29巷12-1號","121.515881666667","24.9945383333333","6500300","中和區"
"247012","KEA-2869","2018/12/28 20:19:39","新北市蘆洲區中興街51號","121.481285","25.087255","6501400","蘆洲區"
"247006","KED-0682","2018/12/28 20:19:40","新北市蘆洲區九芎街136號","121.465063333333","25.079115","6501400","蘆洲區"
"235050","4979-A6","2018/12/28 20:19:36","新北市中和區景平路404號","121.50914","24.9930666666667","6500300","中和區"
"235069","4980-A6","2018/12/28 20:19:36","新北市中和區景新街64巷11弄2號","121.503908333333","24.9983733333333","6500300","中和區"
"235026","800-TS","2018/12/28 20:13:18","新北市中和區員山路36巷16-3號","121.484855","24.9917983333333","6500300","中和區"
"235065","911-UM","2018/12/28 20:19:36","新北市中和區永和路128巷47號","121.497666666667","25.006855","6500300","中和區"
"235059","AAC-215","2018/12/28 20:19:30","新北市中和區員山路30-3號","121.48378","24.9878416666667","6500300","中和區"
"247002","893-R6","2018/12/28 20:19:25","新北市蘆洲區長安街313巷6弄11號","121.456766666667","25.0865266666667","6501400","蘆洲區"
"247016","546-UM","2018/12/28 20:19:27","新北市蘆洲區光華路132巷41號","121.465848333333","25.0838616666667","6501400","蘆洲區"
"247024","500-BY","2018/12/28 20:19:37","新北市蘆洲區光榮路120巷8弄41號","121.464486666667","25.0879166666667","6501400","蘆洲區"
"247010","336-TH","2018/12/28 20:19:35","新北市蘆洲區信義路188巷1號","121.479361666667","25.0844016666667","6501400","蘆洲區"
"247020","057-VK","2018/12/28 20:19:37","新北市蘆洲區仁愛街42號","121.472008333333","25.093375","6501400","蘆洲區"
"247014","053-VK","2018/12/28 20:19:30","新北市蘆洲區中山二路137巷33號","121.472578333333","25.0806216666667","6501400","蘆洲區"
"247018","007-UY","2018/12/28 20:19:21","新北市蘆洲區民族路255巷14號","121.47613","25.0896183333333","6501400","蘆洲區"
"247004","002-UY","2018/12/28 20:19:22","新北市蘆洲區長安街299巷10號","121.457458333333","25.08474","6501400","蘆洲區"
"247022","001-UY","2018/12/28 20:19:21","新北市蘆洲區三民路239號","121.469198333333","25.08881","6501400","蘆洲區"
"224010","AGQ-8101","2018/12/28 20:19:24","新北市瑞芳區輕便路39號","121.84556","25.110245","6501200","瑞芳區"
"222001","KEA-2212","2018/12/28 20:19:25","新北市深坑區北深路三段245號","121.599496666667","25.0043183333333","6501800","深坑區"
"251009","008-UM","2018/12/28 20:19:36","新北市淡水區中正路8巷7號","121.44171","25.169855","6501000","淡水區"
"251008","181-VK","2018/12/28 20:19:27","新北市淡水區淡海路180巷17號","121.421663333333","25.1846233333333","6501000","淡水區"
"251010","413-VK","2018/12/28 20:19:32","新北市淡水區新民街一段132號","121.42812","25.188805","6501000","淡水區"
"251012","441-VK","2018/12/28 20:19:33","新北市淡水區淡金路三段426號","121.45039","25.211545","6501000","淡水區"
"251005","443-VK","2018/12/28 20:17:31","新北市淡水區學府路7號","121.447396666667","25.1679666666667","6501000","淡水區"
"251001","559-UM","2018/12/28 20:19:30","新北市淡水區淡金路二段15號","121.446326666667","25.189235","6501000","淡水區"
"251006","561-UM","2018/12/28 20:19:22","新北市淡水區北新路169巷4號","121.450316666667","25.1795433333333","6501000","淡水區"
"251003","673-BX","2018/12/28 20:19:31","新北市淡水區中山北路一段229號","121.444496666667","25.17945","6501000","淡水區"
"207004","225-TW","2018/12/28 20:19:36","新北市萬里區北基里孝七街6號","121.683168333333","25.1758866666667","6502800","萬里區"
"252002","178-VK","2018/12/28 20:19:27","新北市三芝區中正路一段56號","121.503526666667","25.2579883333333","6502100","三芝區"
"236069","105-UM","2018/12/28 20:19:19","新北市土城區福安街70巷26號","121.418298333333","24.9653333333333","6501300","土城區"
"236030","253-BX","2018/12/28 20:19:34","新北市土城區中央路一段45巷2弄14號","121.44827","24.9899216666667","6501300","土城區"
"236026","269-VK","2018/12/28 20:19:41","新北市土城區中央路一段249巷22號","121.446338333333","24.985405","6501300","土城區"
"236014","270-VK","2018/12/28 20:19:36","新北市土城區四川路2號","121.455736666667","24.99624","6501300","土城區"
"247008","KED-0683","2018/12/28 20:19:21","新北市蘆洲區集賢路300號","121.481545","25.0851083333333","6501400","蘆洲區"
"252001","KED-0821","2018/12/28 20:19:33","新北市三芝區中山路一段14號","121.500665","25.2580216666667","6502100","三芝區"
"236059","912-UM","2018/12/28 20:19:28","新北市土城區大安路101-5號","121.433381666667","24.9687833333333","6501300","土城區"
"242037","AAC-296","2018/12/28 20:19:30","新北市新莊區建安街62巷22號","121.42691","25.0252783333333","6500500","新莊區"
"242058","986-R7","2018/12/28 20:19:38","新北市新莊區龍安路266巷30號","121.421576666667","25.01854","6500500","新莊區"
"242056","751-BX","2018/12/28 20:19:37","新北市新莊區豐年街28巷24號","121.445125","25.0323783333333","6500500","新莊區"
"242027","705-TV","2018/12/28 20:19:40","新北市新莊區立信五街2號","121.444616666667","25.0515","6500500","新莊區"
"242025","613-BX","2018/12/28 20:19:35","新北市新莊區五工一路80巷16號","121.461128333333","25.0667633333333","6500500","新莊區"
"242029","612-BX","2018/12/28 20:19:36","新北市新莊區中原路112號","121.450465","25.0543166666667","6500500","新莊區"
"242044","566-BX","2018/12/28 20:19:30","新北市新莊區中正路893巷1-16號","121.413018333333","25.021265","6500500","新莊區"
"242048","497-BY","2018/12/28 20:19:22","新北市新莊區四維路212巷2號","121.42112","25.0201483333333","6500500","新莊區"
"242021","442-UM","2018/12/28 20:19:27","新北市新莊區復興路一段16號","121.445845","25.0415766666667","6500500","新莊區"
"242054","441-UM","2018/12/28 20:19:23","新北市新莊區西盛街364號","121.427901666667","25.0136883333333","6500500","新莊區"
"242002","440-UM","2018/12/28 20:19:26","新北市新莊區化成路14號","121.464776666667","25.0424983333333","6500500","新莊區"
"242039","415-TV","2018/12/28 20:19:37","新北市新莊區龍安路435號","121.424083333333","25.01877","6500500","新莊區"
"242009","413-TV","2018/12/28 20:19:33","新北市新莊區昌盛街79號","121.455453333333","25.0500483333333","6500500","新莊區"
"242046","400-BY","2018/12/28 20:19:40","新北市新莊區中正路新生巷31號","121.417093333333","25.0234783333333","6500500","新莊區"
"242023","362-BY","2018/12/28 20:19:26","新北市新莊區化成路768號","121.465248333333","25.058875","6500500","新莊區"
"242060","353-BY","2018/12/28 20:19:39","新北市新莊區新樹路172-13號","121.434613333333","25.021735","6500500","新莊區"
"242034","135-UY","2018/12/28 20:19:26","新北市新莊區建中街90巷16號","121.446821666667","25.0377216666667","6500500","新莊區"
"242050","172-VK","2018/12/28 20:19:40","新北市新莊區民安西路252巷14號","121.42528","25.0136983333333","6500500","新莊區"
"242013","173-VK","2018/12/28 20:19:38","新北市新莊區中和街186巷1號","121.447678333333","25.04982","6500500","新莊區"
"242019","175-VK","2018/12/28 20:19:28","新北市新莊區博愛路7巷2號","121.456073333333","25.0439183333333","6500500","新莊區"
"242007","176-VK","2018/12/28 20:19:30","新北市新莊區福壽街94巷5號","121.458581666667","25.0501133333333","6500500","新莊區"
"242017","KED-0687","2018/12/28 20:19:28","新北市新莊區中港一街98號","121.44911","25.0453416666667","6500500","新莊區"
"242011","347-TH","2018/12/28 20:19:30","新北市新莊區中信街37巷2弄2號","121.450318333333","25.0506116666667","6500500","新莊區"
"242032","348-TH","2018/12/28 20:19:20","新北市新莊區中正路418號","121.44104","25.03376","6500500","新莊區"
"242005","349-TH","2018/12/28 20:19:30","新北市新莊區頭前路14號","121.468175","25.0524466666667","6500500","新莊區"
"242015","351-TH","2018/12/28 20:19:34","新北市新莊區永樂街235巷8號","121.446716666667","25.044125","6500500","新莊區"
"221008","489-VK","2018/12/28 20:19:41","新北市汐止區康寧街309號","121.62734","25.0675616666667","6501100","汐止區"
"221036","130-UY","2018/12/28 20:19:29","新北市汐止區新台五路二段126巷13弄1號","121.663683333333","25.0659766666667","6501100","汐止區"
"221015","131-UY","2018/12/28 20:19:33","新北市汐止區建成路160巷14號","121.661923333333","25.0737033333333","6501100","汐止區"
"221010","269-BY","2018/12/28 20:19:33","新北市汐止區八連路二段610巷4號","121.627961666667","25.1087","6501100","汐止區"
"221012","278-VK","2018/12/28 20:19:34","新北市汐止區保新街101號","121.686636666667","25.071415","6501100","汐止區"
"221023","279-VK","2018/12/28 20:19:36","新北市汐止區湖東街8號","121.63335","25.0719916666667","6501100","汐止區"
"221032","280-BY","2018/12/28 20:19:29","新北市汐止區民權街二段37號","121.619413333333","25.04956","6501100","汐止區"
"221027","281-BY","2018/12/28 20:19:33","新北市汐止區水源路一段3號","121.657148333333","25.06723","6501100","汐止區"
"221029","298-VK","2018/12/28 20:19:38","新北市汐止區樟樹一路99巷7弄3號","121.641255","25.0635416666667","6501100","汐止區"
"221021","299-VK","2018/12/28 20:19:29","新北市汐止區水源路一段243號","121.654193333333","25.0599716666667","6501100","汐止區"
"221031","353-TW","2018/12/28 20:19:23","新北市汐止區中興路110巷3號","121.633108333333","25.06403","6501100","汐止區"
"221025","623-UM","2018/12/28 20:19:35","新北市汐止區水源路二段68號","121.655763333333","25.0565533333333","6501100","汐止區"
"221038","646-BX","2018/12/28 20:19:25","新北市汐止區忠孝東路414號","121.665931666667","25.0713433333333","6501100","汐止區"
"221033","647-BX","2018/12/28 20:19:39","新北市汐止區東勢街109號","121.632505","25.0401766666667","6501100","汐止區"
"221002","707-TV","2018/12/28 20:19:29","新北市汐止區福德一路86巷25號","121.637523333333","25.0688466666667","6501100","汐止區"
"221018","753-BX","2018/12/28 20:19:40","新北市汐止區茄苳路256號","121.671716666667","25.0682533333333","6501100","汐止區"
"220083","286-VK","2018/12/28 20:19:27","新北市板橋區僑中二街102巷14號","121.44552","25.0085066666667","6500100","板橋區"
"220081","287-VK","2018/12/28 20:19:32","新北市板橋區僑中一街102巷7弄1號","121.446778333333","25.01286","6500100","板橋區"
"220061","293-UM","2018/12/28 20:19:39","新北市板橋區文華街18號","121.45763","25.0005833333333","6500100","板橋區"
"242041","281-VK","2018/12/28 20:19:33","新北市新莊區天祥街57號","121.416276666667","25.0290183333333","6500500","新莊區"
"220055","630-UY","2018/12/28 20:19:30","新北市板橋區重慶路290巷36號","121.461796666667","24.9987216666667","6500100","板橋區"
"220074","895-R6","2018/12/28 20:19:38","新北市板橋區南雅南路一段7巷22弄2號","121.455931666667","25.0047716666667","6500100","板橋區"
"220064","AAC-253","2018/12/28 20:19:29","新北市板橋區長安街331巷22-2號","121.473963333333","25.01254","6500100","板橋區"
"235068","KEA-2873","2018/12/28 20:19:18","新北市中和區勝利路35巷1弄22號","121.499773333333","25.0075916666667","6500300","中和區"
