"lineid","car","time","location","longitude","latitude","cityid","cityname"
"249004","303-UY","2018/12/28 20:49:36","新北市八里區中山路一段65巷7號","121.4184","25.1593466666667","6502300","八里區"
"249002","305-UY","2018/12/28 20:49:33","新北市八里區中山路三段409號","121.368548333333","25.1351166666667","6502300","八里區"
"234023","9380-KE","2018/12/28 20:49:28","新北市永和區保安路132號","121.50896","25.0152616666667","6500400","永和區"
"234074","AAC-211","2018/12/28 20:49:33","新北市永和區竹林路91巷60弄70號","121.52287","25.0122216666667","6500400","永和區"
"222003","436-BY","2018/12/28 20:49:31","新北市深坑區文山路三段48-1號","121.609908333333","24.9985183333333","6501800","深坑區"
"222002","659-BX","2018/12/28 20:49:37","新北市深坑區北深路三段93巷33號","121.60479","25.0004083333333","6501800","深坑區"
"231059","046-UY","2018/12/28 20:49:27","新北市新店區僑愛一路1號","121.49983","24.9449983333333","6500600","新店區"
"231040","047-UY","2018/12/28 20:49:37","新北市新店區中正路264號","121.539093333333","24.97349","6500600","新店區"
"231044","106-UY","2018/12/28 20:49:23","新北市新店區中正路397號","121.534505","24.9772966666667","6500600","新店區"
"231053","108-UY","2018/12/28 20:49:30","新北市新店區新烏路一段58-2號","121.546083333333","24.9462433333333","6500600","新店區"
"231048","187-VK","2018/12/28 20:49:31","新北市新店區寶元路一段109號","121.545678333333","24.98314","6500600","新店區"
"231054","188-VK","2018/12/28 20:49:23","新北市新店區北新路一段96巷23號","121.54306","24.9687466666667","6500600","新店區"
"221035","KEA-2785","2018/12/28 20:49:39","新北市汐止區康寧街901號","121.650796666667","25.0752833333333","6501100","汐止區"
"231057","256-BX","2018/12/28 20:49:37","新北市新店區新烏路一段5號","121.547398333333","24.9517366666667","6500600","新店區"
"231065","260-TV","2018/12/28 20:49:24","新北市新店區安祥路69巷19號","121.481863333333","24.961295","6500600","新店區"
"231042","268-BY","2018/12/28 20:49:32","新北市新店區寶高路120巷1號","121.55458","24.9760983333333","6500600","新店區"
"231051","278-BY","2018/12/28 20:49:36","新北市新店區中正路663巷1弄34-6號","121.5323","24.98962","6500600","新店區"
"231050","AAD-862","2018/12/28 20:49:24","新北市新店區三民路58號","121.535256666667","24.972065","6500600","新店區"
"231058","3713-VJ","2018/12/28 20:49:38","新北市新店區中央路133巷15弄60號","121.532191666667","24.9745366666667","6500600","新店區"
"231066","4716-K9","2018/12/28 20:49:32","新北市新店區安興路112號","121.51466","24.9776233333333","6500600","新店區"
"231067","4772-VM","2018/12/28 20:49:27","新北市新店區安康路一段355號","121.519908333333","24.96378","6500600","新店區"
"231049","513-UM","2018/12/28 20:49:33","新北市新店區華城路6-5號","121.529793333333","24.9602916666667","6500600","新店區"
"231062","515-UM","2018/12/28 20:49:38","新北市新店區和成街16巷31號","121.488768333333","24.9469716666667","6500600","新店區"
"231045","617-UM","2018/12/28 20:49:32","新北市新店區五峰路138號","121.544605","24.9657666666667","6500600","新店區"
"231061","619-UM","2018/12/28 20:49:28","新北市新店區新和街97號","121.521163333333","24.9865566666667","6500600","新店區"
"231063","641-BX","2018/12/28 20:49:40","新北市新店區如意街12-1號","121.49454","24.94824","6500600","新店區"
"231068","718-UY","2018/12/28 20:49:22","新北市新店區中興路三段228巷28號","121.544761666667","24.9834816666667","6500600","新店區"
"231064","719-UM","2018/12/28 20:49:25","新北市新店區安民街363號","121.516645","24.9758566666667","6500600","新店區"
"231060","897-TW","2018/12/28 20:49:19","新北市新店區安康路三段620號","121.479758333333","24.9467033333333","6500600","新店區"
"231043","899-TW","2018/12/28 20:49:26","新北市新店區建國路104號","121.53986","24.977835","6500600","新店區"
"241028","022-UY","2018/12/28 20:49:25","新北市三重區中正南路41巷1號","121.493708333333","25.0600366666667","6500200","三重區"
"241008","059-VK","2018/12/28 20:49:31","新北市三重區永福街72巷11號","121.479388333333","25.0768033333333","6500200","三重區"
"241022","060-VK","2018/12/28 20:49:26","新北市三重區過圳街27-5號","121.487968333333","25.062395","6500200","三重區"
"241031","061-VK","2018/12/28 20:49:28","新北市三重區重陽路一段113巷2弄2號","121.48753","25.05989","6500200","三重區"
"241015","062-VK","2018/12/28 20:49:20","新北市三重區自強路一段8號","121.498896666667","25.0682483333333","6500200","三重區"
"241024","065-VK","2018/12/28 20:49:36","新北市三重區大勇街82巷4號","121.479158333333","25.07149","6500200","三重區"
"241003","091-VK","2018/12/28 20:49:37","新北市三重區五華街141巷58號","121.493521666667","25.08673","6500200","三重區"
"241005","262-UM","2018/12/28 20:49:40","新北市三重區五華街141巷14號","121.491528333333","25.0851233333333","6500200","三重區"
"241016","266-UM","2018/12/28 20:49:31","新北市三重區自強路一段107號","121.495511666667","25.066465","6500200","三重區"
"241009","267-UM","2018/12/28 20:49:34","新北市三重區三和路四段394號","121.481598333333","25.0792266666667","6500200","三重區"
"241018","268-UM","2018/12/28 20:49:23","新北市三重區正義北路328號","121.494776666667","25.0706666666667","6500200","三重區"
"241032","269-UM","2018/12/28 20:49:32","新北市三重區重陽路一段120巷48號","121.484985","25.0601933333333","6500200","三重區"
"241013","270-UM","2018/12/28 20:49:31","新北市三重區仁賢街12-1號","121.495631666667","25.0748933333333","6500200","三重區"
"241025","271-UM","2018/12/28 20:49:23","新北市三重區新北大道一段148號","121.484301666667","25.0618033333333","6500200","三重區"
"241007","398-BY","2018/12/28 20:49:26","新北市三重區慈愛街8號","121.484376666667","25.0785116666667","6500200","三重區"
"241035","KEA-2210","2018/12/28 20:49:38","新北市三重區三和路三段8號","121.4971","25.07011","6500200","三重區"
"241004","475-VK","2018/12/28 20:49:34","新北市三重區分子尾街19號","121.489595","25.0809833333333","6500200","三重區"
"241020","478-VK","2018/12/28 20:49:42","新北市三重區忠孝路一段101號","121.489411666667","25.0722416666667","6500200","三重區"
"241014","543-UM","2018/12/28 20:49:25","新北市三重區萬全街76號","121.5015","25.0701433333333","6500200","三重區"
"241001","547-UM","2018/12/28 20:49:19","新北市三重區三和路四段118巷4號","121.488803333333","25.074735","6500200","三重區"
"241033","557-UM","2018/12/28 20:35:05","新北市三重區神農街318-1號","121.474113333333","25.05494","6500200","三重區"
"241019","KEA-2593","2018/12/28 20:49:37","新北市三重區自強路二段74巷5號","121.488275","25.0700933333333","6500200","三重區"
"241006","AAD-863","2018/12/28 20:49:24","新北市三重區車路頭街139巷14號","121.484348333333","25.0761916666667","6500200","三重區"
"241026","743-BX","2018/12/28 20:49:23","新北市三重區文化南路8-3號","121.500255","25.0621683333333","6500200","三重區"
"241023","887-TS","2018/12/28 20:49:40","新北市三重區忠孝路三段84巷1號","121.480313333333","25.0647166666667","6500200","三重區"
"241012","941-UM","2018/12/28 20:49:42","新北市三重區仁信街27號","121.50129","25.0755016666667","6500200","三重區"
"241029","942-UM","2018/12/28 20:49:26","新北市三重區重安街14號","121.49032","25.0581933333333","6500200","三重區"
"247012","KEA-2869","2018/12/28 20:49:37","新北市蘆洲區中興街50號","121.481565","25.0873116666667","6501400","蘆洲區"
"247006","KED-0682","2018/12/28 20:49:39","新北市蘆洲區永安南路二段16巷8號","121.467855","25.0771616666667","6501400","蘆洲區"
"235069","4980-A6","2018/12/28 20:49:36","新北市中和區員山路359巷1弄1號","121.481051666667","25.0015766666667","6500300","中和區"
"247002","893-R6","2018/12/28 20:49:25","新北市蘆洲區長安街242號","121.457586666667","25.0859516666667","6501400","蘆洲區"
"247016","546-UM","2018/12/28 20:49:27","新北市蘆洲區中正路69號","121.470353333333","25.082805","6501400","蘆洲區"
"247024","500-BY","2018/12/28 20:49:37","新北市蘆洲區長樂路136號","121.462098333333","25.0900933333333","6501400","蘆洲區"
"247010","336-TH","2018/12/28 20:49:35","新北市蘆洲區鷺江街76號","121.476925","25.083875","6501400","蘆洲區"
"247020","057-VK","2018/12/28 20:49:37","新北市蘆洲區仁愛街66號","121.471508333333","25.09388","6501400","蘆洲區"
"247014","053-VK","2018/12/28 20:49:30","新北市蘆洲區三民路91號","121.474175","25.0847166666667","6501400","蘆洲區"
"247004","002-UY","2018/12/28 20:49:42","新北市蘆洲區長安街103號","121.461538333333","25.0808366666667","6501400","蘆洲區"
"247022","001-UY","2018/12/28 20:49:21","新北市蘆洲區民權路131巷10號","121.471283333333","25.0899416666667","6501400","蘆洲區"
"222001","KEA-2212","2018/12/28 20:49:25","新北市深坑區北深路三段133號","121.603986666667","25.002515","6501800","深坑區"
"251009","008-UM","2018/12/28 20:49:36","新北市淡水區民族路112巷70號","121.461715","25.1338283333333","6501000","淡水區"
"251010","413-VK","2018/12/28 20:49:32","新北市淡水區沙崙路126號","121.423438333333","25.1829016666667","6501000","淡水區"
"251012","441-VK","2018/12/28 20:49:33","新北市淡水區淡金路四段514號","121.451993333333","25.225695","6501000","淡水區"
"251007","442-VK","2018/12/28 20:49:23","新北市淡水區鄧公路29巷26號","121.452828333333","25.170185","6501000","淡水區"
"251001","559-UM","2018/12/28 20:49:30","新北市淡水區淡金路218號","121.460511666667","25.16718","6501000","淡水區"
"251011","650-BX","2018/12/28 20:49:26","新北市淡水區新民街一段13-1號","121.433075","25.1845733333333","6501000","淡水區"
"251003","673-BX","2018/12/28 20:49:30","新北市淡水區中山北路一段247巷90號","121.442311666667","25.179515","6501000","淡水區"
"247008","KED-0683","2018/12/28 20:49:41","新北市三重區三和路四段237號","121.480921666667","25.08041","6501400","蘆洲區"
"242037","AAC-296","2018/12/28 20:49:26","新北市新莊區中正路516號","121.43367","25.0325483333333","6500500","新莊區"
"242027","705-TV","2018/12/28 20:49:40","新北市新莊區思源路111號","121.459875","25.041925","6500500","新莊區"
"242029","612-BX","2018/12/28 20:49:36","新北市新莊區幸福東路54號","121.465441666667","25.0493816666667","6500500","新莊區"
"242044","566-BX","2018/12/28 20:49:30","新北市新莊區龍安路108號","121.418356666667","25.02041","6500500","新莊區"
"242054","441-UM","2018/12/28 20:49:03","新北市新莊區瓊林南路599-1號","121.433005","25.0060583333333","6500500","新莊區"
"242002","440-UM","2018/12/28 20:49:25","新北市新莊區中港路五守新村1巷1號","121.455025","25.0384","6500500","新莊區"
"242039","415-TV","2018/12/28 20:49:37","新北市新莊區瓊林北路1號","121.439943333333","25.022815","6500500","新莊區"
"242009","413-TV","2018/12/28 20:49:33","新北市新莊區頭前路121號","121.46363","25.0524033333333","6500500","新莊區"
"242023","362-BY","2018/12/28 20:49:26","新北市新莊區頭成街125號","121.461921666667","25.0525483333333","6500500","新莊區"
"242050","172-VK","2018/12/28 20:49:34","新北市新莊區新樹路603號","121.433043333333","25.0058","6500500","新莊區"
"242013","173-VK","2018/12/28 20:49:38","新北市新莊區中和街175巷13號","121.447055","25.0506566666667","6500500","新莊區"
"242019","175-VK","2018/12/28 20:49:28","新北市新莊區中港路五守新村1巷5號","121.455396666667","25.0381516666667","6500500","新莊區"
"242011","347-TH","2018/12/28 20:49:30","新北市新莊區中和街175巷13號","121.447095","25.05062","6500500","新莊區"
"242032","348-TH","2018/12/28 20:49:40","新北市新莊區中正路535-11號","121.437535","25.0329783333333","6500500","新莊區"
"242005","349-TH","2018/12/28 20:49:28","新北市五股區五工一路115號","121.45549","25.0719783333333","6500500","新莊區"
"221027","281-BY","2018/12/28 20:49:33","新北市汐止區汐萬路一段124號","121.6537","25.0712116666667","6501100","汐止區"
"221029","298-VK","2018/12/28 20:49:38","新北市汐止區汐萬路一段312號","121.650546666667","25.07542","6501100","汐止區"
"221038","646-BX","2018/12/28 20:49:25","新北市汐止區汐萬路一段256巷1號","121.652016666667","25.0748116666667","6501100","汐止區"
"221033","647-BX","2018/12/28 20:49:39","新北市汐止區合順街18巷8弄5號","121.620345","25.04193","6501100","汐止區"
"221002","707-TV","2018/12/28 20:49:29","新北市汐止區福德二路69號","121.633721666667","25.0667733333333","6501100","汐止區"
"221018","753-BX","2018/12/28 20:49:40","新北市汐止區汐萬路一段310號","121.65036","25.0749116666667","6501100","汐止區"
"242041","281-VK","2018/12/28 20:49:24","新北市樹林區三俊街127號","121.417943333333","25.0156116666667","6500500","新莊區"
"220064","AAC-253","2018/12/28 20:49:29","新北市林口區汕頭32號","121.366881666667","25.135085","6500100","板橋區"
