"lineid","car","time","location","longitude","latitude","cityid","cityname"
"232016","291-BY","2018/12/29 06:39:15","新北市坪林區北宜路八段558號","121.71786","24.909335","6502000","坪林區"
"232010","375-UM","2018/12/29 06:39:16","新北市坪林區鶯子瀨9-8號","121.709965","24.9169833333333","6502000","坪林區"
"232009","758-BX","2018/12/29 06:39:06","新北市坪林區北宜路八段558號","121.717915","24.9091033333333","6502000","坪林區"
"235001","611-BX","2018/12/29 06:39:12","新北市中和區圓通路294-4號","121.488715","24.9891416666667","6500300","中和區"
"223006","022-BY","2018/12/29 06:39:12","新北市石碇區碇坪路一段102號","121.658165","24.9913333333333","6501900","石碇區"
"223002","KEA-2673","2018/12/29 06:39:04","新北市石碇區碇坪路一段186號","121.667698333333","24.9839683333333","6501900","石碇區"
"223008","406-TH","2018/12/29 06:39:11","新北市石碇區碇坪路一段196號","121.669778333333","24.982285","6501900","石碇區"
"223001","592-UM","2018/12/29 06:39:10","新北市石碇區碇坪路一段186號","121.667891666667","24.98378","6501900","石碇區"
"223007","661-BX","2018/12/29 06:39:21","新北市石碇區雙溪52號","121.651883333333","25.006215","6501900","石碇區"
"227006","282-VK","2018/12/29 06:39:10","新北市雙溪區牡丹里中正路63號","121.86559","25.0433133333333","6502500","雙溪區"
