"lineid","car","time","location","longitude","latitude","cityid","cityname"
"248005","653-BX","2018/06/22 08:19:25","新北市五股區明德路10號","121.433388333333","25.0717716666667","6501500","五股區"
"244004","248-BX","2018/06/22 08:19:27","新北市林口區民族路181號","121.367513333333","25.076685","6501700","林口區"
"222004","016-RS","2018/06/22 08:19:16","新北市深坑區北深路一段26號","121.639005","25.0104466666667","6501800","深坑區"
"222005","289-BY","2018/06/22 08:19:25","新北市深坑區萬福路36-1號","121.605396666667","25.0122616666667","6501800","深坑區"
"231007","189-VK","2018/06/22 08:19:33","新北市新店區新潭路一段78-1號","121.52519","24.9398483333333","6500600","新店區"
"231009","192-VK","2018/06/22 08:19:15","新北市新店區北新路一段88巷11號","121.543088333333","24.9671816666667","6500600","新店區"
"235001","611-BX","2018/06/22 08:19:17","新北市中和區連城路469巷20號","121.483525","24.99511","6500300","中和區"
"226005","5620-A6","2018/06/22 08:19:25","新北市平溪區南山里南山坪108號","121.781035","25.0424266666667","6502400","平溪區"
"226001","7418-A5","2018/06/22 08:19:25","新北市平溪區望古里灰3-1號","121.75581","25.0291116666667","6502400","平溪區"
"226006","AGD-0702","2018/06/22 08:19:22","新北市平溪區新寮里新寮路4-1號","121.792605","25.0590066666667","6502400","平溪區"
"223006","022-BY","2018/06/22 08:19:30","新北市石碇區楓子林36-3號","121.642333333333","25.0095216666667","6501900","石碇區"
"223003","205-TH","2018/06/22 08:19:27","新北市石碇區北宜路六段塗潭巷27號","121.648693333333","24.9319183333333","6501900","石碇區"
"223008","406-TH","2018/06/22 08:19:34","新北市石碇區串空湖2號","121.670753333333","25.001515","6501900","石碇區"
"223001","592-UM","2018/06/22 08:19:29","新北市石碇區北宜路六段塗潭巷27號","121.648731666667","24.9320683333333","6501900","石碇區"
"223004","660-BX","2018/06/22 08:19:15","新北市石碇區碇坪路一段100號","121.658141666667","24.9913666666667","6501900","石碇區"
"223005","677-TV","2018/06/22 08:19:31","新北市石碇區碇坪路一段86號","121.657813333333","24.9913833333333","6501900","石碇區"
"227005","282-VK","2018/06/22 08:19:16","新北市雙溪區外柑里三叉坑1-1號","121.82505","25.0194266666667","6502500","雙溪區"
"237001","159-UY","2018/06/22 08:19:29","新北市三峽區三樹路281號","121.379033333333","24.9433933333333","6500900","三峽區"
"236010","165-UM","2018/06/22 08:19:26","新北市土城區青雲路591號","121.459471666667","24.971025","6501300","土城區"
"236004","339-SR","2018/06/22 08:19:18","新北市土城區中州路76號","121.412061666667","24.9583516666667","6501300","土城區"
"236006","498-BY","2018/06/22 08:19:23","新北市土城區中央路四段37巷25號","121.424531666667","24.9610516666667","6501300","土城區"
