"lineid","car","time","location","longitude","latitude","cityid","cityname"
"248005","653-BX","2018/06/22 09:09:27","新北市五股區水碓路19號","121.433323333333","25.07261","6501500","五股區"
"222004","016-RS","2018/06/22 09:09:38","新北市深坑區深南路88巷1號","121.621038333333","25.01176","6501800","深坑區"
"222005","289-BY","2018/06/22 09:09:30","新北市深坑區風格街2-1號","121.626376666667","25.016485","6501800","深坑區"
"231007","189-VK","2018/06/22 09:08:33","新北市新店區新潭路三段236號","121.501835","24.9031066666667","6500600","新店區"
"231009","192-VK","2018/06/22 09:09:35","新北市新店區廣興路60巷12-1號","121.540288333333","24.9145966666667","6500600","新店區"
"235001","611-BX","2018/06/22 09:09:17","新北市中和區中山路三段120-19號","121.474113333333","25.00854","6500300","中和區"
"226001","7418-A5","2018/06/22 09:03:45","新北市平溪區東勢里番仔坑34-3號","121.749446666667","24.983185","6502400","平溪區"
"226006","AGD-0702","2018/06/22 09:09:21","新北市平溪區石底里石底街95號","121.733025","25.02367","6502400","平溪區"
"223003","205-TH","2018/06/22 09:09:27","新北市石碇區北宜路四段9號","121.615081666667","24.9610533333333","6501900","石碇區"
"223008","406-TH","2018/06/22 09:09:34","新北市石碇區大湖格4號","121.702011666667","25.0179766666667","6501900","石碇區"
"223001","592-UM","2018/06/22 09:08:54","新北市石碇區北宜路四段2號","121.610765","24.95733","6501900","石碇區"
"223004","660-BX","2018/06/22 09:09:31","新北市石碇區磨石坑16-3號","121.686995","24.971345","6501900","石碇區"
"223005","677-TV","2018/06/22 09:09:31","新北市石碇區大崙17號","121.685316666667","24.977985","6501900","石碇區"
"227005","282-VK","2018/06/22 09:06:56","新北市雙溪區泰平里料角坑9號","121.812165","24.973145","6502500","雙溪區"
"237001","159-UY","2018/06/22 09:09:29","新北市三峽區大德路288-1號","121.375195","24.948355","6500900","三峽區"
"236010","165-UM","2018/06/22 09:09:26","新北市土城區明德路一段365-1號","121.453543333333","24.9793366666667","6501300","土城區"
"236004","339-SR","2018/06/22 09:09:18","新北市土城區興城路2號","121.44282","24.9734816666667","6501300","土城區"
"236006","498-BY","2018/06/22 09:09:23","新北市土城區中央路三段82號","121.43614","24.96738","6501300","土城區"
