"lineid","car","time","location","longitude","latitude","cityid","cityname"
"248005","653-BX","2018/06/22 09:39:27","新北市五股區成泰路一段87號","121.43485","25.0689483333333","6501500","五股區"
"222005","289-BY","2018/06/22 09:39:30","新北市深坑區昇高坑路35號","121.628605","24.9986383333333","6501800","深坑區"
"231007","189-VK","2018/06/22 09:39:33","新北市新店區新潭路三段215巷36號","121.509328333333","24.904295","6500600","新店區"
"231009","192-VK","2018/06/22 09:39:15","新北市新店區平廣路一段256號","121.507346666667","24.88796","6500600","新店區"
"227005","282-VK","2018/06/22 09:30:16","新北市雙溪區泰平里溪尾寮13號","121.820788333333","24.9606916666667","6502500","雙溪區"
"237001","159-UY","2018/06/22 09:39:29","新北市三峽區大觀路101號","121.374806666667","24.944895","6500900","三峽區"
"236010","165-UM","2018/06/22 09:39:26","新北市土城區中央路四段211號","121.413903333333","24.9558783333333","6501300","土城區"
"236004","339-SR","2018/06/22 09:39:38","新北市土城區明德路二段66號","121.447725","24.9832783333333","6501300","土城區"
"236006","498-BY","2018/06/22 09:39:23","新北市土城區千歲路19號","121.441458333333","24.9691816666667","6501300","土城區"
