"lineid","car","time","location","longitude","latitude","cityid","cityname"
"248005","653-BX","2018/06/22 09:49:27","新北市五股區明德路1號","121.43512","25.071285","6501500","五股區"
"222005","289-BY","2018/06/22 09:45:48","新北市深坑區北深路三段25巷14號","121.608583333333","25.0002433333333","6501800","深坑區"
"231007","189-VK","2018/06/22 09:49:33","新北市新店區新潭路三段215巷36號","121.509323333333","24.9043533333333","6500600","新店區"
"231009","192-VK","2018/06/22 09:39:15","新北市新店區平廣路一段256號","121.507346666667","24.88796","6500600","新店區"
"227005","282-VK","2018/06/22 09:30:16","新北市雙溪區泰平里溪尾寮13號","121.820788333333","24.9606916666667","6502500","雙溪區"
"237001","159-UY","2018/06/22 09:49:29","新北市鶯歌區中正一路465號","121.37115","24.9585983333333","6500900","三峽區"
"236006","498-BY","2018/06/22 09:49:23","新北市土城區中華路二段88號","121.437903333333","24.9755116666667","6501300","土城區"
