"lineid","car","time","location","longitude","latitude","cityid","cityname"
"234036","336-UY","2018/06/22 12:29:37","新北市永和區福和路1號","121.526616666667","25.0101416666667","6500400","永和區"
"234084","338-UY","2018/06/22 12:29:24","新北市永和區福和路1號","121.526351666667","25.0096666666667","6500400","永和區"
"234068","552-UM","2018/06/22 12:29:37","新北市永和區福和路1號","121.525795","25.00941","6500400","永和區"
"234076","969-R7","2018/06/22 12:29:23","新北市永和區福和路1號","121.526401666667","25.0097916666667","6500400","永和區"
"231009","192-VK","2018/06/22 12:29:35","新北市新店區安豐路30號","121.501","24.957105","6500600","新店區"
"235029","098-UM","2018/06/22 12:00:46","新北市中和區員山路36巷16-3號","121.484956666667","24.991255","6500300","中和區"
"235031","255-BX","2018/06/22 12:14:16","新北市中和區和城路一段271巷1號","121.48576","24.9917716666667","6500300","中和區"
"207002","749-BX","2018/06/22 12:29:21","新北市萬里區雙興里太和路7-2號","121.658641666667","25.1740566666667","6502800","萬里區"
"207001","662-BX","2018/06/22 12:29:30","新北市萬里區萬里里獅頭路15-1號","121.697798333333","25.1806366666667","6502800","萬里區"
"235025","KEA-2875","2018/06/22 12:24:54","新北市中和區和城路一段271巷1號","121.485383333333","24.9917966666667","6500300","中和區"
