"lineid","car","time","location","longitude","latitude","cityid","cityname"
"234044","148-BY","2018/06/22 14:19:01","新北市永和區環河東路一段80號","121.519683333333","25.0165933333333","6500400","永和區"
"234005","207-UY","2018/06/22 14:19:39","新北市永和區秀朗路一段185號","121.517453333333","25.0036883333333","6500400","永和區"
"234078","298-R6","2018/06/22 14:19:35","新北市永和區福和路19巷4號","121.524143333333","25.007785","6500400","永和區"
"234036","336-UY","2018/06/22 14:19:37","新北市永和區成功路一段97號","121.527081666667","25.0025983333333","6500400","永和區"
"234062","337-UY","2018/06/22 14:19:29","新北市永和區得和路106號","121.518096666667","25.0000833333333","6500400","永和區"
"234084","338-UY","2018/06/22 14:19:24","新北市永和區永和路二段105號","121.514876666667","25.011875","6500400","永和區"
"234068","552-UM","2018/06/22 14:19:40","新北市永和區永寧街113號","121.518163333333","25.0061833333333","6500400","永和區"
"234048","553-UM","2018/06/22 14:19:38","新北市永和區文化路187號","121.509505","25.0170416666667","6500400","永和區"
"234015","745-BX","2018/06/22 14:19:38","新北市永和區仁愛路93號","121.512981666667","25.013","6500400","永和區"
"234028","746-BX","2018/06/22 14:19:38","新北市永和區民權路49巷5弄26號","121.521795","24.9978466666667","6500400","永和區"
"234052","KEA-2590","2018/06/22 14:19:25","新北市永和區博愛街3號","121.516578333333","25.01589","6500400","永和區"
"234012","KEA-2591","2018/06/22 14:19:21","新北市永和區保生路46號","121.505753333333","25.008475","6500400","永和區"
"234060","AAD-866","2018/06/22 14:19:29","新北市永和區安樂路194巷17弄6號","121.516065","25.0012816666667","6500400","永和區"
"234040","862-TW","2018/06/22 14:19:30","新北市永和區安樂路218號","121.515023333333","25.0021866666667","6500400","永和區"
"234025","9371-KE","2018/06/22 14:19:27","新北市永和區安樂路144巷28號","121.515308333333","24.9995666666667","6500400","永和區"
"234010","9373-KE","2018/06/22 14:19:27","新北市永和區保生路55-1號","121.504503333333","25.0108983333333","6500400","永和區"
"248019","225-UY","2018/06/22 13:56:39","新北市五股區凌雲路三段57號","121.425301666667","25.1250183333333","6501500","五股區"
"234022","9380-KE","2018/06/22 14:19:36","新北市永和區竹林路44號","121.517626666667","25.0142966666667","6500400","永和區"
"234076","969-R7","2018/06/22 14:19:23","新北市永和區民族街81巷58號","121.520081666667","24.9964083333333","6500400","永和區"
"234072","AAC-211","2018/06/22 14:19:34","新北市永和區竹林路119巷30弄13號","121.522765","25.0117116666667","6500400","永和區"
"234066","AAC-212","2018/06/22 14:19:32","新北市永和區保平路268巷51弄22號","121.506713333333","25.0061133333333","6500400","永和區"
"234001","AAC-295","2018/06/22 14:19:33","新北市永和區中正路614-2號","121.516945","25.0076233333333","6500400","永和區"
"244004","248-BX","2018/06/22 14:19:22","新北市林口區竹林路266號","121.389656666667","25.0807416666667","6501700","林口區"
"231002","002-UM","2018/06/22 14:19:31","新北市新店區中央路151號","121.529363333333","24.9723066666667","6500600","新店區"
"231027","0293-UT","2018/06/22 14:19:32","新北市新店區北新路二段190號","121.542955","24.9765","6500600","新店區"
"231028","046-UY","2018/06/22 14:19:41","新北市新店區安和路二段163號","121.518868333333","24.9743233333333","6500600","新店區"
"231001","047-UY","2018/06/22 14:19:42","新北市新店區中正路75巷71號","121.543136666667","24.9688033333333","6500600","新店區"
"231005","106-UY","2018/06/22 14:19:40","新北市新店區寶強路8號","121.543951666667","24.9787683333333","6500600","新店區"
"231022","108-UY","2018/06/22 14:19:33","新北市新店區新烏路二段194號","121.54787","24.9172766666667","6500600","新店區"
"231012","187-VK","2018/06/22 14:19:28","新北市新店區五峰路61巷13號","121.549476666667","24.9695383333333","6500600","新店區"
"231023","KEA-2219","2018/06/22 14:19:35","新北市新店區光明街93號","121.539033333333","24.9609883333333","6500600","新店區"
"231003","268-BY","2018/06/22 14:19:32","新北市新店區中興路一段216號","121.543886666667","24.96572","6500600","新店區"
"231018","278-BY","2018/06/22 14:19:24","新北市新店區中央五街18號","121.529438333333","24.9743416666667","6500600","新店區"
"231016","AAD-862","2018/06/22 14:19:41","新北市新店區北宜路三段66號","121.575461666667","24.951435","6500600","新店區"
"231038","3712-VJ","2018/06/22 14:19:24","新北市新店區溪洲路8巷2-1號","121.533515","24.96148","6500600","新店區"
"231037","4716-K9","2018/06/22 14:19:41","新北市新店區車子路54號","121.503941666667","24.9517716666667","6500600","新店區"
"231036","512-UM","2018/06/22 14:19:27","新北市新店區安祥路109巷151弄10號","121.478191666667","24.9589233333333","6500600","新店區"
"231013","513-UM","2018/06/22 14:19:39","新北市新店區民權路88-5號","121.536228333333","24.9834816666667","6500600","新店區"
"231034","616-UM","2018/06/22 14:19:40","新北市新店區黎明路3號","121.503243333333","24.952235","6500600","新店區"
"231006","617-UM","2018/06/22 14:16:45","新北市新店區北宜路二段599號","121.568141666667","24.9555583333333","6500600","新店區"
"231030","619-UM","2018/06/22 14:19:39","新北市新店區安光路30號","121.513736666667","24.9645433333333","6500600","新店區"
"231035","719-UM","2018/06/22 14:19:41","新北市新店區安和路二段117巷10號","121.518281666667","24.9702766666667","6500600","新店區"
"231032","720-UM","2018/06/22 14:19:26","新北市新店區溪洲路170號","121.530256666667","24.9653616666667","6500600","新店區"
"231029","897-TW","2018/06/22 14:19:29","新北市新店區安康路二段350-1號","121.502793333333","24.9576216666667","6500600","新店區"
"231004","899-TW","2018/06/22 14:19:39","新北市新店區中正路163號","121.541136666667","24.9719483333333","6500600","新店區"
"235028","005-UY","2018/06/22 14:19:33","新北市中和區連城路2號","121.499268333333","25.00236","6500300","中和區"
"235027","006-UY","2018/06/22 14:19:37","新北市中和區連勝街117號","121.494978333333","24.99527","6500300","中和區"
"235020","096-UM","2018/06/22 14:19:34","新北市中和區員山路458號","121.479975","25.0062316666667","6500300","中和區"
"235003","097-UM","2018/06/22 14:19:40","新北市中和區秀峰街103巷7弄4號","121.519566666667","24.9889166666667","6500300","中和區"
"235029","098-UM","2018/06/22 14:19:34","新北市中和區福美路269號","121.498125","25.0050266666667","6500300","中和區"
"235004","150-BY","2018/06/22 14:19:29","新北市中和區保健路106巷83號","121.511195","24.9944816666667","6500300","中和區"
"235022","151-BY","2018/06/22 14:19:31","新北市中和區員山路36巷16-2號","121.485228333333","24.9916816666667","6500300","中和區"
"235019","183-VK","2018/06/22 14:19:29","新北市中和區莒光路3巷1號","121.471958333333","25.0061133333333","6500300","中和區"
"235002","185-VK","2018/06/22 14:19:42","新北市中和區景平路126巷2弄15號","121.519808333333","24.9923266666667","6500300","中和區"
"235013","186-VK","2018/06/22 14:19:30","新北市中和區景新街230號","121.508223333333","24.99414","6500300","中和區"
"235031","255-BX","2018/06/22 14:19:41","新北市中和區連城路280號","121.484415","24.9962716666667","6500300","中和區"
"235008","293-VK","2018/06/22 14:19:29","新北市中和區中興街252號","121.49929","24.9879616666667","6500300","中和區"
"235036","301-VK","2018/06/22 14:19:33","新北市中和區中山路二段3巷22弄20號","121.505998333333","25.004665","6500300","中和區"
"235007","352-BY","2018/06/22 14:19:42","新北市中和區景平路298號","121.512781666667","24.99265","6500300","中和區"
"235006","KEA-2878","2018/06/22 14:19:38","新北市中和區大勇街88號","121.517921666667","24.9953783333333","6500300","中和區"
"235014","4979-A6","2018/06/22 14:19:32","新北市中和區復興路313號","121.501131666667","24.9902566666667","6500300","中和區"
"235033","4980-A6","2018/06/22 14:19:27","新北市中和區景平路736巷1弄7號","121.49737","25.0040416666667","6500300","中和區"
"235034","558-UM","2018/06/22 14:19:35","新北市中和區中山路二段223號","121.498493333333","25.00261","6500300","中和區"
"235009","565-BX","2018/06/22 14:19:32","新北市中和區景新街423巷35弄23號","121.513866666667","24.9905566666667","6500300","中和區"
"235018","640-BX","2018/06/22 14:19:32","新北市中和區國光街109巷2弄17號","121.469138333333","25.0006083333333","6500300","中和區"
"235024","647-TV","2018/06/22 14:19:36","新北市中和區員山路296號","121.481353333333","25.0024866666667","6500300","中和區"
"235011","732-UM","2018/06/22 14:19:03","新北市中和區景平路241巷31號","121.5088","24.992305","6500300","中和區"
"235010","733-UM","2018/06/22 14:19:26","新北市中和區華新街150號","121.507873333333","24.9824233333333","6500300","中和區"
"235035","783-BX","2018/06/22 14:19:25","新北市中和區連城路519號","121.482073333333","24.9953016666667","6500300","中和區"
"235026","800-TS","2018/06/22 14:19:22","新北市中和區中山路二段440號","121.489186666667","25.0041833333333","6500300","中和區"
"235021","801-TS","2018/06/22 14:19:37","新北市中和區員山路423巷9號","121.480526666667","25.0031483333333","6500300","中和區"
"235005","802-TS","2018/06/22 14:19:43","新北市中和區中安街226號","121.512166666667","24.9986833333333","6500300","中和區"
"235016","805-TS","2018/06/22 14:19:29","新北市中和區興南路二段116號","121.50466","24.9838033333333","6500300","中和區"
"235012","896-TW","2018/06/22 14:19:33","新北市中和區華新街111號","121.508495","24.9814183333333","6500300","中和區"
"235017","900-TW","2018/06/22 14:19:38","新北市中和區華安街17巷4號","121.466853333333","24.99816","6500300","中和區"
"235030","911-UM","2018/06/22 14:19:27","新北市中和區中和路106號","121.502885","24.9997616666667","6500300","中和區"
"235015","157-BY","2018/06/22 14:19:32","新北市中和區捷運路129號","121.50711","24.9908033333333","6500300","中和區"
"235037","AAC-213","2018/06/22 14:19:33","新北市中和區自立路15巷8號","121.522855","24.9959583333333","6500300","中和區"
"235023","AAC-215","2018/06/22 14:19:23","新北市中和區圓通路252巷18弄1號","121.492343333333","24.9924983333333","6500300","中和區"
"220016","013-TV","2018/06/22 14:19:29","新北市板橋區林森街1巷35號","121.482973333333","25.0246116666667","6500100","板橋區"
"220020","015-TV","2018/06/22 14:19:23","新北市板橋區金門街319號","121.429683333333","24.9862016666667","6500100","板橋區"
"220034","073-UY","2018/06/22 14:19:26","新北市板橋區中正路250巷93號","121.459491666667","25.01999","6500100","板橋區"
"220105","075-UY","2018/06/22 14:19:38","新北市板橋區江寧路三段87巷2弄20號","121.472625","25.0331633333333","6500100","板橋區"
"220017","AAD-861","2018/06/22 14:19:39","新北市板橋區大明街20巷29弄21號","121.457673333333","25.0034216666667","6500100","板橋區"
"247023","893-R6","2018/06/22 14:19:36","新北市蘆洲區長榮路776號","121.460955","25.0927566666667","6501400","蘆洲區"
"247013","546-UM","2018/06/22 14:19:32","新北市蘆洲區成功路77-1號","121.473143333333","25.0808983333333","6501400","蘆洲區"
"247021","500-BY","2018/06/22 14:19:33","新北市蘆洲區中正路434巷8號","121.4635","25.0946866666667","6501400","蘆洲區"
"247009","341-TH","2018/06/22 14:19:23","新北市蘆洲區三民路26巷22號","121.477388333333","25.082915","6501400","蘆洲區"
"247011","339-TH","2018/06/22 14:19:40","新北市蘆洲區民權路3巷16號","121.47571","25.0853183333333","6501400","蘆洲區"
"247003","337-TH","2018/06/22 14:19:35","新北市蘆洲區長安街194巷27號","121.459996666667","25.0846133333333","6501400","蘆洲區"
"247005","336-TH","2018/06/22 14:19:33","新北市蘆洲區長安街16號","121.464093333333","25.0791483333333","6501400","蘆洲區"
"247017","057-VK","2018/06/22 14:19:36","新北市蘆洲區民權路108號","121.47385","25.0882583333333","6501400","蘆洲區"
"247015","007-UY","2018/06/22 14:19:37","新北市蘆洲區中正路185巷31弄12號","121.466473333333","25.0838733333333","6501400","蘆洲區"
"247001","002-UY","2018/06/22 14:19:43","新北市蘆洲區永樂街110號","121.455881666667","25.0890216666667","6501400","蘆洲區"
"247019","001-UY","2018/06/22 14:19:39","新北市蘆洲區仁愛街25號","121.472216666667","25.0926133333333","6501400","蘆洲區"
"207002","749-BX","2018/06/22 14:19:40","新北市萬里區溪底里溪底路4號","121.617645","25.1515016666667","6502800","萬里區"
"207001","662-BX","2018/06/22 14:19:29","新北市金山區坑子內1-5號","121.627911666667","25.2094933333333","6502800","萬里區"
"236040","107-UM","2018/06/22 14:19:30","新北市土城區裕生路21巷2弄32號","121.447888333333","24.9861416666667","6501300","土城區"
"236077","166-UM","2018/06/22 14:19:33","新北市土城區中央路三段281巷23弄11號","121.426131666667","24.9617916666667","6501300","土城區"
"236029","253-BX","2018/06/22 14:19:33","新北市土城區順風路64號","121.440178333333","24.9773733333333","6501300","土城區"
"236024","269-VK","2018/06/22 14:19:30","新北市土城區承天路67號","121.439526666667","24.9635783333333","6501300","土城區"
"236013","270-VK","2018/06/22 14:19:30","新北市土城區青雲路39巷7號","121.460316666667","24.98757","6501300","土城區"
"236032","271-VK","2018/06/22 14:19:40","新北市土城區青雲路451巷8弄11號","121.4596","24.9743133333333","6501300","土城區"
"236067","KEA-2877","2018/06/22 14:19:30","新北市土城區明德路一段128巷17號","121.463035","24.978735","6501300","土城區"
"236016","401-BY","2018/06/22 14:19:35","新北市土城區明德路一段385-1號","121.452233333333","24.9803916666667","6501300","土城區"
"236006","498-BY","2018/06/22 14:19:42","新北市土城區中華路一段70巷30號","121.443918333333","24.98957","6501300","土城區"
"236060","752-BX","2018/06/22 14:13:40","新北市土城區金城路三段243號","121.471503333333","24.989765","6501300","土城區"
"236057","912-UM","2018/06/22 14:19:36","新北市土城區中央路四段390號","121.412668333333","24.95416","6501300","土城區"
"236045","913-UM","2018/06/22 14:19:35","新北市土城區明德路一段369號","121.455603333333","24.9779516666667","6501300","土城區"
"236054","AAC-216","2018/06/22 14:19:37","新北市土城區中華路二段108號","121.437975","24.974145","6501300","土城區"
"221032","280-BY","2018/06/22 14:19:37","新北市汐止區南陽街65號","121.62445","25.0637466666667","6501100","汐止區"
"220027","145-BY","2018/06/22 14:19:37","新北市板橋區民權路202巷13弄1號","121.46053","25.0159716666667","6500100","板橋區"
"220028","200-UY","2018/06/22 14:19:25","新北市板橋區大觀路二段37巷180號","121.449606666667","25.0021366666667","6500100","板橋區"
"220030","610-BX","2018/06/22 14:19:31","新北市板橋區金門街264號","121.42996","24.9865283333333","6500100","板橋區"
"220050","245-BX","2018/06/22 14:19:33","新北市板橋區莊敬路2號","121.473973333333","25.02846","6500100","板橋區"
"220003","256-TC","2018/06/22 14:19:37","新北市板橋區實踐路65巷33號","121.464855","25.0066083333333","6500100","板橋區"
"220004","276-BY","2018/06/22 14:19:25","新北市板橋區干城路10號","121.45965","24.9941083333333","6500100","板橋區"
"220025","282-UM","2018/06/22 14:19:33","新北市板橋區大觀路二段33號","121.44674","25.003055","6500100","板橋區"
"220019","283-VK","2018/06/22 14:19:38","新北市板橋區四川路一段283巷23號","121.459415","25.000595","6500100","板橋區"
"220043","285-UM","2018/06/22 14:19:40","新北市板橋區光武街136巷9號","121.465813333333","25.0301933333333","6500100","板橋區"
"220001","285-VK","2018/06/22 14:19:40","新北市板橋區富山街10號","121.47862","25.0217833333333","6500100","板橋區"
"220031","286-VK","2018/06/22 14:19:35","新北市板橋區龍興街73巷35-4號","121.442401666667","25.00274","6500100","板橋區"
"220029","287-VK","2018/06/22 14:19:33","新北市板橋區南雅西路一段7巷1號","121.454356666667","25.0043233333333","6500100","板橋區"
"220039","288-VK","2018/06/22 14:19:32","新北市板橋區長江路一段106巷13弄4號","121.460211666667","25.0291016666667","6500100","板橋區"
"220009","293-UM","2018/06/22 14:19:40","新北市板橋區中山路二段255巷7號","121.476993333333","25.0179416666667","6500100","板橋區"
"220010","295-UM","2018/06/22 14:19:23","新北市板橋區三民路二段153巷30弄37號","121.481448333333","25.0142633333333","6500100","板橋區"
"220032","296-UM","2018/06/22 14:19:37","新北市板橋區滿平街84巷110弄26號","121.42587","24.9857666666667","6500100","板橋區"
"220023","303-R5","2018/06/22 14:19:32","新北市板橋區南雅南路一段4巷6號","121.455095","25.0054","6500100","板橋區"
"220041","307-R5","2018/06/22 14:19:23","新北市板橋區光武街36巷26號","121.468356666667","25.026335","6500100","板橋區"
"220047","317-R6","2018/06/22 14:19:33","新北市板橋區民有街105號","121.46438","25.02809","6500100","板橋區"
"220013","461-BY","2018/06/22 14:19:27","新北市板橋區民族路129巷10號","121.467678333333","25.0084483333333","6500100","板橋區"
"220012","486-VK","2018/06/22 14:19:40","新北市板橋區縣民大道二段1號","121.461856666667","25.011715","6500100","板橋區"
"220037","491-VK","2018/06/22 14:19:32","新北市板橋區文化路二段182巷3弄53號","121.472575","25.02884","6500100","板橋區"
"220104","560-BX","2018/06/22 14:19:28","新北市板橋區中正路413巷2弄16號","121.453475","25.0231566666667","6500100","板橋區"
"220052","561-BX","2018/06/22 14:19:31","新北市板橋區文化路一段188巷7弄34號","121.468028333333","25.0194116666667","6500100","板橋區"
"220011","609-BX","2018/06/22 14:19:28","新北市板橋區三民路二段237號","121.479063333333","25.0127566666667","6500100","板橋區"
"220040","637-BX","2018/06/22 14:19:26","新北市板橋區松柏街78號","121.476446666667","25.03032","6500100","板橋區"
"220005","686-BX","2018/06/22 14:19:35","新北市板橋區五權街30巷2號","121.464601666667","24.993595","6500100","板橋區"
"220042","689-BX","2018/06/22 14:19:31","新北市板橋區漢生西路40號","121.463253333333","25.01836","6500100","板橋區"
"220002","741-BX","2018/06/22 14:19:33","新北市板橋區光明街86號","121.461858333333","25.0027533333333","6500100","板橋區"
"220051","KEA-2699","2018/06/22 14:19:35","新北市板橋區文聖街113號","121.477806666667","25.0291683333333","6500100","板橋區"
"220014","830-TW","2018/06/22 14:19:35","新北市板橋區長安街138巷1弄69號","121.474495","25.0108183333333","6500100","板橋區"
"220045","831-TW","2018/06/22 14:19:36","新北市板橋區大同街26巷1號","121.478038333333","25.0271533333333","6500100","板橋區"
"220038","833-TW","2018/06/22 14:19:26","新北市板橋區文化路一段220號","121.466741666667","25.0205916666667","6500100","板橋區"
"220022","895-R6","2018/06/22 14:19:30","新北市板橋區福德街2巷17號","121.455676666667","25.0090133333333","6500100","板橋區"
"220021","985-R7","2018/06/22 14:19:39","新北市板橋區新生街89巷4號","121.458146666667","25.022315","6500100","板橋區"
"220046","AAC-210","2018/06/22 14:19:39","新北市板橋區幸福路70巷23號","121.460291666667","25.020805","6500100","板橋區"
"220018","AAC-253","2018/06/22 14:19:35","新北市板橋區忠孝路41-1號","121.4613","25.0020316666667","6500100","板橋區"
"235032","KEA-2873","2018/06/22 14:19:20","新北市中和區南山路24號","121.50206","24.998295","6500300","中和區"
"235025","KEA-2875","2018/06/22 14:19:17","新北市中和區員山路229號","121.481151666667","24.9981333333333","6500300","中和區"
