"lineid","car","time","location","longitude","latitude","cityid","cityname"
"234044","148-BY","2018/06/22 14:39:41","新北市五股區中直路13-7號","121.424835","25.1104983333333","6500400","永和區"
"234078","298-R6","2018/06/22 14:39:30","新北市永和區永貞路80號","121.52016","25.0050966666667","6500400","永和區"
"234062","337-UY","2018/06/22 14:39:29","新北市永和區環河東路二段92號","121.524175","25.0105883333333","6500400","永和區"
"234084","338-UY","2018/06/22 14:39:24","新北市永和區福和路1號","121.526293333333","25.0098","6500400","永和區"
"234068","552-UM","2018/06/22 14:39:37","新北市永和區福和路1號","121.525365","25.0093466666667","6500400","永和區"
"234048","553-UM","2018/06/22 14:39:38","新北市永和區保安路79號","121.508633333333","25.0147516666667","6500400","永和區"
"234028","746-BX","2018/06/22 14:39:38","新北市中和區中正路801號","121.484933333333","25.00088","6500400","永和區"
"234052","KEA-2590","2018/06/22 14:39:25","新北市永和區環河東路一段82號","121.519658333333","25.016435","6500400","永和區"
"234042","862-TW","2018/06/22 14:39:29","新北市永和區環河東路二段92號","121.52439","25.0105733333333","6500400","永和區"
"234025","9371-KE","2018/06/22 14:39:27","新北市中和區中和路382號","121.510671666667","25.00221","6500400","永和區"
"248019","225-UY","2018/06/22 14:39:32","新北市五股區凌雲路三段94-2號","121.426648333333","25.121715","6501500","五股區"
"234022","9380-KE","2018/06/22 14:39:36","新北市永和區保生路55-1號","121.504485","25.01091","6500400","永和區"
"234072","AAC-211","2018/06/22 14:39:35","新北市永和區環河東路二段50號","121.523175","25.0118566666667","6500400","永和區"
"244004","248-BX","2018/06/22 14:39:42","新北市林口區竹林路267號","121.389591666667","25.0808416666667","6501700","林口區"
"231002","002-UM","2018/06/22 14:39:31","新北市新店區中正路468號","121.534011666667","24.9794216666667","6500600","新店區"
"231027","0293-UT","2018/06/22 14:39:32","新北市新店區中正路356號","121.535671666667","24.9757166666667","6500600","新店區"
"231028","046-UY","2018/06/22 14:39:28","新北市新店區安成街30號","121.510141666667","24.9610166666667","6500600","新店區"
"231001","047-UY","2018/06/22 14:39:42","新北市新店區中正路106號","121.543145","24.9705116666667","6500600","新店區"
"231005","106-UY","2018/06/22 14:39:40","新北市新店區復興路2號","121.53235","24.988295","6500600","新店區"
"231022","108-UY","2018/06/22 14:39:23","新北市新店區桂山路81巷1號","121.567495","24.899165","6500600","新店區"
"231012","187-VK","2018/06/22 14:39:28","新北市新店區寶宏路34號","121.549478333333","24.9757166666667","6500600","新店區"
"231023","KEA-2219","2018/06/22 14:39:35","新北市新店區檳榔路48號","121.541756666667","24.9636333333333","6500600","新店區"
"231003","268-BY","2018/06/22 14:39:32","新北市新店區中興路一段292號","121.545995","24.9691783333333","6500600","新店區"
"231018","278-BY","2018/06/22 14:39:44","新北市新店區中央四街29號","121.528726666667","24.9744516666667","6500600","新店區"
"231016","AAD-862","2018/06/22 14:39:38","新北市新店區北宜路三段335巷15號","121.610041666667","24.9590633333333","6500600","新店區"
"231038","3712-VJ","2018/06/22 14:39:24","新北市新店區安華路28-1號","121.519665","24.9609316666667","6500600","新店區"
"231037","4716-K9","2018/06/22 14:39:41","新北市新店區柴埕路60巷1-1號","121.510005","24.9639616666667","6500600","新店區"
"231036","512-UM","2018/06/22 14:39:27","新北市新店區安祥路106巷14號","121.478328333333","24.962395","6500600","新店區"
"231013","513-UM","2018/06/22 14:39:39","新北市新店區明德路22號","121.542168333333","24.9770433333333","6500600","新店區"
"231034","616-UM","2018/06/22 14:39:40","新北市新店區黎明路9號","121.502465","24.9502266666667","6500600","新店區"
"231006","617-UM","2018/06/22 14:39:26","新北市新店區北宜路二段103號","121.55024","24.9523966666667","6500600","新店區"
"231030","619-UM","2018/06/22 14:39:40","新北市新店區安民街237號","121.517208333333","24.9720466666667","6500600","新店區"
"231035","719-UM","2018/06/22 14:39:40","新北市新店區安民街3巷6弄2號","121.514741666667","24.9644066666667","6500600","新店區"
"231029","897-TW","2018/06/22 14:39:29","新北市新店區安康路三段515號","121.482158333333","24.9488933333333","6500600","新店區"
"231004","899-TW","2018/06/22 14:39:39","新北市新店區中正路291號","121.537308333333","24.9745466666667","6500600","新店區"
"231024","AKT-0513","2018/06/22 14:39:43","新北市新店區力行路14巷6號","121.539318333333","24.964905","6500600","新店區"
"235028","005-UY","2018/06/22 14:39:33","新北市中和區南山路81巷68號","121.50406","24.997765","6500300","中和區"
"235027","006-UY","2018/06/22 14:39:37","新北市中和區板南路386號","121.493301666667","24.9993866666667","6500300","中和區"
"235020","096-UM","2018/06/22 14:39:34","新北市中和區員山路581巷31弄3號","121.47719","25.01033","6500300","中和區"
"235003","097-UM","2018/06/22 14:39:40","新北市永和區安樂路104巷2弄2號","121.514238333333","24.999535","6500300","中和區"
"235029","098-UM","2018/06/22 14:39:34","新北市中和區福美路247號","121.498998333333","25.005145","6500300","中和區"
"235004","150-BY","2018/06/22 14:39:29","新北市中和區宜安路65號","121.511231666667","24.997045","6500300","中和區"
"235022","151-BY","2018/06/22 14:39:31","新北市中和區員山路132巷14號","121.481985","24.9961966666667","6500300","中和區"
"235019","183-VK","2018/06/22 14:39:29","新北市中和區民生街37號","121.4702","25.0053933333333","6500300","中和區"
"235002","185-VK","2018/06/22 14:39:42","新北市中和區自強路27巷1號","121.520658333333","24.99305","6500300","中和區"
"235013","186-VK","2018/06/22 14:39:30","新北市中和區明仁街10號","121.506073333333","24.9955433333333","6500300","中和區"
"235031","255-BX","2018/06/22 14:39:41","新北市中和區新生街220巷31號","121.482281666667","24.9984433333333","6500300","中和區"
"235008","293-VK","2018/06/22 14:39:33","新北市中和區捷運路6號","121.510141666667","24.9894433333333","6500300","中和區"
"235036","301-VK","2018/06/22 14:39:33","新北市中和區泰和街38巷2號","121.499141666667","25.0003416666667","6500300","中和區"
"235007","352-BY","2018/06/22 14:39:42","新北市中和區景新街129號","121.50581","24.9972983333333","6500300","中和區"
"235006","KEA-2878","2018/06/22 14:39:37","新北市中和區保健路2巷30號","121.50698","24.99745","6500300","中和區"
"235014","4979-A6","2018/06/22 14:39:32","新北市中和區中正路277號","121.495308333333","24.9936683333333","6500300","中和區"
"235034","558-UM","2018/06/22 14:39:35","新北市中和區中山路二段213號","121.498718333333","25.0026216666667","6500300","中和區"
"235009","565-BX","2018/06/22 14:39:32","新北市中和區景平路183號","121.511716666667","24.99256","6500300","中和區"
"235018","640-BX","2018/06/22 14:39:32","新北市中和區國光街112巷23弄3號","121.4696","25.00226","6500300","中和區"
"235024","647-TV","2018/06/22 14:39:36","新北市中和區中山路二段497號","121.482443333333","25.004995","6500300","中和區"
"235011","732-UM","2018/06/22 14:39:03","新北市中和區捷運路113號","121.507838333333","24.99033","6500300","中和區"
"235010","733-UM","2018/06/22 14:39:26","新北市中和區四維街32號","121.512676666667","24.9870783333333","6500300","中和區"
"235035","783-BX","2018/06/22 14:39:25","新北市中和區中正路635號","121.48512","24.9953316666667","6500300","中和區"
"235026","800-TS","2018/06/22 14:39:42","新北市中和區錦和路3號","121.486051666667","25.0042016666667","6500300","中和區"
"235021","801-TS","2018/06/22 14:39:37","新北市中和區員山路188號","121.481353333333","25.000405","6500300","中和區"
"235005","802-TS","2018/06/22 14:39:23","新北市中和區宜安路137號","121.509531666667","24.9984833333333","6500300","中和區"
"235016","805-TS","2018/06/22 14:39:37","新北市中和區華新街192巷2號","121.50686","24.98228","6500300","中和區"
"235012","896-TW","2018/06/22 14:39:33","新北市中和區四維街20號","121.512985","24.9871933333333","6500300","中和區"
"235017","900-TW","2018/06/22 14:39:38","新北市中和區民德路80號","121.468685","25.0012833333333","6500300","中和區"
"235030","911-UM","2018/06/22 14:39:27","新北市中和區中和路196巷10號","121.505055","24.9990183333333","6500300","中和區"
"235015","157-BY","2018/06/22 14:39:32","新北市中和區中興街233巷10號","121.501513333333","24.9893833333333","6500300","中和區"
"235037","AAC-213","2018/06/22 14:39:33","新北市中和區成功路6號","121.526208333333","24.993775","6500300","中和區"
"235023","AAC-215","2018/06/22 14:39:43","新北市中和區圓通路305巷6號","121.494103333333","24.9897533333333","6500300","中和區"
"220016","013-TV","2018/06/22 14:39:29","新北市板橋區中山路二段412巷3號","121.48318","25.0208216666667","6500100","板橋區"
"220020","015-TV","2018/06/22 14:39:30","新北市板橋區金門街215巷55號","121.433746666667","24.9894966666667","6500100","板橋區"
"220034","073-UY","2018/06/22 14:39:26","新北市板橋區館前西路160巷18號","121.45245","25.0090516666667","6500100","板橋區"
"220105","075-UY","2018/06/22 14:39:39","新北市板橋區文化路二段584號","121.476948333333","25.0346516666667","6500100","板橋區"
"220017","AAD-861","2018/06/22 14:39:39","新北市板橋區貴興路101號","121.45627","25.0016966666667","6500100","板橋區"
"247023","893-R6","2018/06/22 14:39:36","新北市蘆洲區中山二路222巷13號","121.469415","25.0802733333333","6501400","蘆洲區"
"247013","546-UM","2018/06/22 14:39:32","新北市蘆洲區成功路118號","121.472236666667","25.0824916666667","6501400","蘆洲區"
"247009","341-TH","2018/06/22 14:39:23","新北市蘆洲區信義路222巷57號","121.481066666667","25.0854716666667","6501400","蘆洲區"
"247011","339-TH","2018/06/22 14:39:23","新北市蘆洲區民族路206號","121.480051666667","25.08757","6501400","蘆洲區"
"247005","336-TH","2018/06/22 14:39:29","新北市蘆洲區中華街40號","121.462356666667","25.0808916666667","6501400","蘆洲區"
"247007","056-VK","2018/06/22 14:39:35","新北市蘆洲區信義路29號","121.474181666667","25.0793383333333","6501400","蘆洲區"
"247015","007-UY","2018/06/22 14:39:37","新北市蘆洲區正和街27號","121.469753333333","25.082025","6501400","蘆洲區"
"247001","002-UY","2018/06/22 14:38:47","新北市蘆洲區長安街274巷3號","121.457755","25.0870533333333","6501400","蘆洲區"
"247019","001-UY","2018/06/22 14:39:39","新北市蘆洲區民義街86巷1號","121.47376","25.0902483333333","6501400","蘆洲區"
"207002","749-BX","2018/06/22 14:39:40","新北市萬里區崁腳里崁腳路73號","121.647591666667","25.1595966666667","6502800","萬里區"
"207001","662-BX","2018/06/22 14:39:29","新北市萬里區雙興里豐稟路33號","121.647456666667","25.1784333333333","6502800","萬里區"
"236040","107-UM","2018/06/22 14:39:43","新北市土城區裕民路57號","121.449033333333","24.9879466666667","6501300","土城區"
"236077","166-UM","2018/06/22 14:39:33","新北市土城區頂埔街16號","121.416855","24.9587166666667","6501300","土城區"
"236029","253-BX","2018/06/22 14:39:33","新北市土城區中華路二段201號","121.437891666667","24.97384","6501300","土城區"
"236024","269-VK","2018/06/22 14:39:30","新北市土城區忠義路47號","121.440615","24.9693733333333","6501300","土城區"
"236013","270-VK","2018/06/22 14:39:30","新北市土城區清水路200號","121.460438333333","24.981905","6501300","土城區"
"236032","271-VK","2018/06/22 14:39:40","新北市土城區明德路一段238號","121.460256666667","24.977415","6501300","土城區"
"236067","KEA-2877","2018/06/22 14:39:30","新北市土城區永豐路183號","121.470073333333","24.97841","6501300","土城區"
"236016","401-BY","2018/06/22 14:39:35","新北市土城區永豐路6號","121.46546","24.984825","6501300","土城區"
"236006","498-BY","2018/06/22 14:39:22","新北市土城區城林路6巷80號","121.438613333333","24.979735","6501300","土城區"
"236060","752-BX","2018/06/22 14:39:20","新北市土城區延壽路13巷40號","121.469913333333","24.9914583333333","6501300","土城區"
"236057","912-UM","2018/06/22 14:39:22","新北市土城區中央路三段285號","121.42602","24.9630333333333","6501300","土城區"
"236045","913-UM","2018/06/22 14:39:26","新北市土城區金城路三段10號","121.464858333333","24.9858633333333","6501300","土城區"
"236054","AAC-216","2018/06/22 14:39:37","新北市土城區裕民路27號","121.448043333333","24.988455","6501300","土城區"
"221032","280-BY","2018/06/22 14:39:37","新北市汐止區福德一路174號","121.63593","25.066125","6501100","汐止區"
"220027","145-BY","2018/06/22 14:39:45","新北市板橋區建國街125號","121.460878333333","25.0176383333333","6500100","板橋區"
"220028","200-UY","2018/06/22 14:39:25","新北市板橋區大觀路二段79巷2弄15號","121.447438333333","25.0016783333333","6500100","板橋區"
"220030","610-BX","2018/06/22 14:39:31","新北市板橋區溪北路101號","121.428983333333","24.9892016666667","6500100","板橋區"
"220050","245-BX","2018/06/22 14:39:35","新北市板橋區莒光路200巷28號","121.473","25.0223266666667","6500100","板橋區"
"220003","256-TC","2018/06/22 14:39:37","新北市板橋區國慶路149巷29弄15號","121.460196666667","24.9975116666667","6500100","板橋區"
"220004","276-BY","2018/06/22 14:39:25","新北市板橋區四川路二段47巷4弄1號","121.45415","24.9945816666667","6500100","板橋區"
"220025","282-UM","2018/06/22 14:39:33","新北市板橋區僑中三街19號","121.446018333333","25.00425","6500100","板橋區"
"220019","283-VK","2018/06/22 14:39:40","新北市板橋區五權街30巷4號","121.464561666667","24.9935116666667","6500100","板橋區"
"220043","285-UM","2018/06/22 14:39:40","新北市板橋區宏國路54-3號","121.468946666667","25.0319733333333","6500100","板橋區"
"220001","285-VK","2018/06/22 14:39:33","新北市板橋區中山路二段265號","121.477688333333","25.0178566666667","6500100","板橋區"
"220031","286-VK","2018/06/22 14:39:34","新北市板橋區僑中二街102巷1號","121.446038333333","25.0080683333333","6500100","板橋區"
"220029","287-VK","2018/06/22 14:39:32","新北市板橋區大觀路一段28巷91-1號","121.45012","25.0113916666667","6500100","板橋區"
"220039","288-VK","2018/06/22 14:39:26","新北市板橋區龍泉街72巷4-3號","121.456176666667","25.02619","6500100","板橋區"
"220009","293-UM","2018/06/22 14:39:40","新北市板橋區中山路一段283巷16號","121.470295","25.01511","6500100","板橋區"
"220010","295-UM","2018/06/22 14:39:23","新北市板橋區三民路二段37-2號","121.479321666667","25.0174833333333","6500100","板橋區"
"220032","296-UM","2018/06/22 14:39:37","新北市板橋區溪崑二街112巷22號","121.425953333333","24.9891416666667","6500100","板橋區"
"220023","303-R5","2018/06/22 14:39:32","新北市板橋區大勇街8巷1號","121.453963333333","25.0170733333333","6500100","板橋區"
"220041","307-R5","2018/06/22 14:39:23","新北市板橋區文化路一段387巷12號","121.46659","25.0221166666667","6500100","板橋區"
"220047","317-R6","2018/06/22 14:39:33","新北市板橋區裕民街107號","121.459808333333","25.0277233333333","6500100","板橋區"
"220013","461-BY","2018/06/22 14:39:27","新北市板橋區國泰街104號","121.466675","25.0064366666667","6500100","板橋區"
"220012","486-VK","2018/06/22 14:39:40","新北市板橋區民族路47號","121.462923333333","25.009555","6500100","板橋區"
"220037","491-VK","2018/06/22 14:39:32","新北市板橋區文化路二段426號","121.474361666667","25.0320616666667","6500100","板橋區"
"220104","560-BX","2018/06/22 14:39:33","新北市板橋區金華街52號","121.456851666667","25.02042","6500100","板橋區"
"220052","561-BX","2018/06/22 14:39:31","新北市板橋區文化路一段357號","121.466871666667","25.0210666666667","6500100","板橋區"
"220011","609-BX","2018/06/22 14:39:38","新北市板橋區三民路一段76號","121.479546666667","25.0220066666667","6500100","板橋區"
"220040","637-BX","2018/06/22 14:39:42","新北市板橋區懷德街131號","121.479111666667","25.0305833333333","6500100","板橋區"
"220005","686-BX","2018/06/22 14:39:35","新北市板橋區和平路安樂巷42號","121.461898333333","24.993115","6500100","板橋區"
"220042","689-BX","2018/06/22 14:39:31","新北市板橋區新海路402號","121.458623333333","25.02677","6500100","板橋區"
"220002","741-BX","2018/06/22 14:39:37","新北市板橋區忠孝路忠義巷15弄1號","121.465853333333","25.0038716666667","6500100","板橋區"
"220051","KEA-2699","2018/06/22 14:39:35","新北市板橋區雙十路二段46巷48-1號","121.47588","25.027795","6500100","板橋區"
"220014","830-TW","2018/06/22 14:39:34","新北市板橋區長安街251巷18號","121.47228","25.0106883333333","6500100","板橋區"
"220045","831-TW","2018/06/22 14:39:36","新北市板橋區民生路二段226巷15號","121.470506666667","25.0220066666667","6500100","板橋區"
"220038","833-TW","2018/06/22 14:39:26","新北市板橋區英士路14號","121.462056666667","25.0253133333333","6500100","板橋區"
"220022","895-R6","2018/06/22 14:39:30","新北市板橋區文化路一段52巷10號","121.460596666667","25.0116983333333","6500100","板橋區"
"220021","985-R7","2018/06/22 14:39:43","新北市板橋區南雅西路二段206號","121.451878333333","25.0149616666667","6500100","板橋區"
"220046","AAC-210","2018/06/22 14:39:38","新北市板橋區幸福路32巷16號","121.461433333333","25.020955","6500100","板橋區"
"220018","AAC-253","2018/06/22 14:39:35","新北市板橋區民族路231號","121.469805","25.0071266666667","6500100","板橋區"
"235032","KEA-2873","2018/06/22 14:39:20","新北市中和區福美路301巷39號","121.497823333333","25.0035083333333","6500300","中和區"
"235025","KEA-2875","2018/06/22 14:39:17","新北市中和區員山路174巷14號","121.48229","24.9997","6500300","中和區"
