"lineid","car","time","location","longitude","latitude","cityid","cityname"
"234084","338-UY","2018/06/22 15:08:21","新北市永和區福和路1號","121.526428333333","25.009755","6500400","永和區"
"234042","862-TW","2018/06/22 15:09:29","新北市永和區福和路1號","121.526566666667","25.0097233333333","6500400","永和區"
"248019","225-UY","2018/06/22 15:09:32","新北市五股區凌雲路三段24巷16號","121.434875","25.1057716666667","6501500","五股區"
"234022","9380-KE","2018/06/22 14:59:24","新北市永和區福和路1號","121.526723333333","25.0100366666667","6500400","永和區"
"244004","248-BX","2018/06/22 15:09:42","新北市林口區竹林路266號","121.38968","25.0807416666667","6501700","林口區"
"231002","002-UM","2018/06/22 15:09:39","新北市新店區中正路675號","121.533885","24.9901116666667","6500600","新店區"
"231028","046-UY","2018/06/22 15:09:28","新北市新店區僑信路76號","121.49957","24.9485333333333","6500600","新店區"
"231001","047-UY","2018/06/22 15:09:42","新北市新店區中正路188號","121.54088","24.9722283333333","6500600","新店區"
"231005","106-UY","2018/06/22 15:09:40","新北市新店區北新路三段196號","121.541363333333","24.9832666666667","6500600","新店區"
"231022","108-UY","2018/06/22 15:09:43","新北市新店區新烏路二段50巷3號","121.547781666667","24.92843","6500600","新店區"
"231012","187-VK","2018/06/22 15:09:29","新北市新店區寶元路一段65號","121.542211666667","24.98585","6500600","新店區"
"231023","KEA-2219","2018/06/22 15:09:35","新北市新店區檳榔路174號","121.544145","24.96183","6500600","新店區"
"231026","256-BX","2018/06/22 15:09:43","新北市新店區建安街18號","121.539931666667","24.9754733333333","6500600","新店區"
"231003","268-BY","2018/06/22 15:09:32","新北市新店區寶橋路178號","121.549333333333","24.977425","6500600","新店區"
"231018","278-BY","2018/06/22 15:09:24","新北市新店區中央七街111號","121.52568","24.9777533333333","6500600","新店區"
"231016","AAD-862","2018/06/22 15:09:38","新北市新店區明山路45號","121.563821666667","24.9558433333333","6500600","新店區"
"231038","3712-VJ","2018/06/22 15:09:24","新北市新店區安一路一段1-1號","121.519565","24.9610383333333","6500600","新店區"
"231037","4716-K9","2018/06/22 15:09:41","新北市新店區安興路56號","121.516453333333","24.9750016666667","6500600","新店區"
"231025","4715-K9","2018/06/22 15:09:34","新北市新店區二十張路46巷37弄7號","121.53628","24.9819","6500600","新店區"
"231036","512-UM","2018/06/22 15:09:27","新北市新店區安祥路102巷120號","121.486731666667","24.964145","6500600","新店區"
"231034","616-UM","2018/06/22 15:09:40","新北市新店區玫瑰路4-1號","121.493583333333","24.9514233333333","6500600","新店區"
"231006","617-UM","2018/06/22 15:09:26","新北市新店區新坡一街12號","121.548371666667","24.9619166666667","6500600","新店區"
"231030","619-UM","2018/06/22 15:09:39","新北市新店區安民街341-1號","121.516893333333","24.9749883333333","6500600","新店區"
"231039","718-UY","2018/06/22 15:09:29","新北市新店區民權路4號","121.542715","24.982965","6500600","新店區"
"231035","719-UM","2018/06/22 15:09:40","新北市新店區永安街56巷6-1號","121.51857","24.986285","6500600","新店區"
"231032","720-UM","2018/06/22 15:09:26","新北市新店區安泰路170號","121.489148333333","24.9344783333333","6500600","新店區"
"231029","897-TW","2018/06/22 15:09:29","新北市新店區安康路三段738號","121.473921666667","24.9419466666667","6500600","新店區"
"231004","899-TW","2018/06/22 15:09:39","新北市新店區建國路35巷1號","121.540408333333","24.9744833333333","6500600","新店區"
"231024","AKT-0513","2018/06/22 15:09:23","新北市新店區北新路一段297巷25號","121.540611666667","24.968095","6500600","新店區"
"235004","150-BY","2018/06/22 15:09:29","新北市中和區保健路10巷3弄3號","121.507845","24.9976816666667","6500300","中和區"
"235072","301-VK","2018/06/22 15:05:52","新北市中和區員山路36巷13號","121.484023333333","24.99091","6500300","中和區"
"235007","352-BY","2018/06/22 15:09:22","新北市中和區興南路二段159巷1-1號","121.505056666667","24.9835766666667","6500300","中和區"
"235014","4979-A6","2018/06/22 15:09:38","新北市中和區安樂路37號","121.511886666667","24.9929833333333","6500300","中和區"
"235033","4980-A6","2018/06/22 15:09:26","新北市中和區南山路81巷58號","121.503948333333","24.9980433333333","6500300","中和區"
"235034","558-UM","2018/06/22 15:09:34","新北市中和區中正路281-6號","121.494383333333","24.9939433333333","6500300","中和區"
"235018","640-BX","2018/06/22 15:09:32","新北市中和區民享街35巷8弄15號","121.474603333333","25.0035183333333","6500300","中和區"
"235035","783-BX","2018/06/22 15:09:25","新北市中和區建三路75號","121.486225","25.00122","6500300","中和區"
"235012","896-TW","2018/06/22 15:09:33","新北市中和區興南路二段49號","121.507356666667","24.985385","6500300","中和區"
"235030","911-UM","2018/06/22 15:09:27","新北市中和區保平路368號","121.506466666667","25.0036066666667","6500300","中和區"
"235037","AAC-213","2018/06/22 15:09:33","新北市中和區秀朗路三段128巷1弄15號","121.523786666667","24.9914833333333","6500300","中和區"
"235023","AAC-215","2018/06/22 15:09:23","新北市中和區圓通路367巷7號","121.492348333333","24.988155","6500300","中和區"
"220016","013-TV","2018/06/22 15:09:29","新北市板橋區中山路二段378號","121.481978333333","25.0203416666667","6500100","板橋區"
"247009","341-TH","2018/06/22 15:09:43","新北市五股區中興路三段163號","121.449265","25.0806966666667","6501400","蘆洲區"
"207002","749-BX","2018/06/22 15:09:21","新北市萬里區崁腳里內中福路73-1號","121.654923333333","25.1670266666667","6502800","萬里區"
"207001","662-BX","2018/06/22 15:09:29","新北市萬里區磺潭里員潭路46號","121.64552","25.19279","6502800","萬里區"
"236040","107-UM","2018/06/22 15:09:43","新北市土城區裕民路261號","121.454881666667","24.98268","6501300","土城區"
"236077","166-UM","2018/06/22 15:09:33","新北市土城區中州路52巷2弄22號","121.412553333333","24.95799","6501300","土城區"
"236029","253-BX","2018/06/22 15:09:33","新北市土城區福祥街58號","121.441475","24.9814183333333","6501300","土城區"
"236024","269-VK","2018/06/22 15:09:30","新北市土城區中正路67巷33號","121.443886666667","24.9765383333333","6501300","土城區"
"236013","270-VK","2018/06/22 15:09:33","新北市土城區學府路一段75巷16弄16號","121.4566","24.9872066666667","6501300","土城區"
"236032","271-VK","2018/06/22 15:07:20","新北市土城區仁愛路38號","121.461711666667","24.9795166666667","6501300","土城區"
"236067","KEA-2877","2018/06/22 15:09:30","新北市土城區中央路一段45巷11號","121.449096666667","24.9900583333333","6501300","土城區"
"236016","401-BY","2018/06/22 15:09:35","新北市土城區明峰街75號","121.468401666667","24.9870683333333","6501300","土城區"
"236060","752-BX","2018/06/22 15:09:40","新北市土城區延平街77號","121.467588333333","24.9932783333333","6501300","土城區"
"236057","912-UM","2018/06/22 15:09:43","新北市土城區明德路一段385-1號","121.452711666667","24.9802683333333","6501300","土城區"
"236045","913-UM","2018/06/22 15:09:41","新北市土城區清水路252號","121.461358333333","24.9829333333333","6501300","土城區"
"236054","AAC-216","2018/06/22 15:09:37","新北市土城區學府路一段278號","121.449936666667","24.9828616666667","6501300","土城區"
"220050","245-BX","2018/06/22 15:09:33","新北市板橋區雙十路二段47巷8弄20號","121.474128333333","25.0259466666667","6500100","板橋區"
"220025","282-UM","2018/06/22 15:09:33","新北市板橋區大觀路二段435-5號","121.446365","24.9951666666667","6500100","板橋區"
"220019","283-VK","2018/06/22 15:09:38","新北市板橋區金門街337巷14弄18號","121.431606666667","24.9825166666667","6500100","板橋區"
"220031","286-VK","2018/06/22 15:09:34","新北市板橋區僑中二街102巷51號","121.444156666667","25.00846","6500100","板橋區"
"220029","287-VK","2018/06/22 15:09:32","新北市板橋區大觀路一段28巷96號","121.450466666667","25.0110483333333","6500100","板橋區"
"220009","293-UM","2018/06/22 15:09:40","新北市板橋區四川路一段274巷4號","121.458126666667","25.001445","6500100","板橋區"
"220041","307-R5","2018/06/22 15:07:23","新北市板橋區新海路150號","121.460448333333","25.0238316666667","6500100","板橋區"
"220012","486-VK","2018/06/22 15:09:40","新北市板橋區長安街331巷6號","121.474386666667","25.0123116666667","6500100","板橋區"
"220037","491-VK","2018/06/22 15:09:32","新北市板橋區懷德街234號","121.48044","25.0284983333333","6500100","板橋區"
"220052","561-BX","2018/06/22 15:09:36","新北市板橋區陽明街279巷15號","121.461561666667","25.0258366666667","6500100","板橋區"
"220011","609-BX","2018/06/22 15:09:28","新北市板橋區三民路一段214號","121.479128333333","25.0193183333333","6500100","板橋區"
"220042","689-BX","2018/06/22 15:09:31","新北市板橋區長江路二段8號","121.464693333333","25.0313383333333","6500100","板橋區"
"220051","KEA-2699","2018/06/22 15:09:35","新北市板橋區縣民大道三段79巷1號","121.4753","25.02155","6500100","板橋區"
"220014","830-TW","2018/06/22 15:09:34","新北市板橋區中山路一段210號","121.46997","25.01387","6500100","板橋區"
"220038","833-TW","2018/06/22 15:09:26","新北市板橋區互助街51巷1號","121.461145","25.0264116666667","6500100","板橋區"
"220046","AAC-210","2018/06/22 15:09:38","新北市板橋區光正街9巷2弄2號","121.462795","25.0168583333333","6500100","板橋區"
"220018","AAC-253","2018/06/22 15:09:35","新北市板橋區四川路二段245巷39號","121.451715","24.99266","6500100","板橋區"
