"lineid","car","time","location","longitude","latitude","cityid","cityname"
"234042","862-TW","2018/06/22 16:19:29","新北市永和區福和路1號","121.526443333333","25.00964","6500400","永和區"
"249005","172-UM","2018/06/22 16:19:42","新北市八里區忠孝路423號","121.414525","25.1614483333333","6502300","八里區"
"231012","187-VK","2018/06/22 16:19:28","新北市新店區薏仁坑路自強巷1號","121.497201666667","24.95783","6500600","新店區"
"231046","188-VK","2018/06/22 16:19:31","新北市新店區灣潭路3-3號","121.538211666667","24.9507966666667","6500600","新店區"
"231018","278-BY","2018/06/22 16:19:24","新北市新店區中正路700巷79號","121.535958333333","24.9933416666667","6500600","新店區"
"241011","013-R5","2018/06/22 16:19:35","新北市三重區龍濱路196號","121.50104","25.0732883333333","6500200","三重區"
"241028","022-UY","2018/06/22 16:19:40","新北市三重區正義南路165號","121.498736666667","25.0574833333333","6500200","三重區"
"241008","059-VK","2018/06/22 16:19:37","新北市三重區力行路二段136巷45弄12號","121.479098333333","25.0753933333333","6500200","三重區"
"241022","060-VK","2018/06/22 16:19:29","新北市三重區過圳街31巷2號","121.488993333333","25.0605983333333","6500200","三重區"
"241031","061-VK","2018/06/22 16:19:26","新北市三重區重新路四段246號","121.485606666667","25.0534783333333","6500200","三重區"
"241015","062-VK","2018/06/22 16:19:23","新北市三重區福德北路83號","121.501893333333","25.065915","6500200","三重區"
"241017","063-VK","2018/06/22 16:19:28","新北市三重區大同北路85號","121.494846666667","25.0636383333333","6500200","三重區"
"241024","065-VK","2018/06/22 16:19:44","新北市三重區中正北路145巷14號","121.484188333333","25.0678833333333","6500200","三重區"
"241026","066-VK","2018/06/22 16:19:33","新北市三重區正義南路79號","121.498266666667","25.0598683333333","6500200","三重區"
"241002","090-VK","2018/06/22 16:19:45","新北市三重區仁義街91號","121.499733333333","25.079665","6500200","三重區"
"241005","262-UM","2018/06/22 16:19:28","新北市三重區溪尾街300-2號","121.487401666667","25.083795","6500200","三重區"
"241003","265-UM","2018/06/22 16:19:38","新北市三重區五華街57巷8號","121.493206666667","25.0826466666667","6500200","三重區"
"241016","266-UM","2018/06/22 16:19:36","新北市三重區大仁街92號","121.492855","25.0655483333333","6500200","三重區"
"241009","267-UM","2018/06/22 16:19:45","新北市三重區溪尾街253號","121.487941666667","25.0815816666667","6500200","三重區"
"241018","268-UM","2018/06/22 16:19:30","新北市三重區重陽路三段142-1號","121.489495","25.0672066666667","6500200","三重區"
"241032","269-UM","2018/06/22 16:19:36","新北市三重區三陽路100巷3弄13號","121.482953333333","25.058175","6500200","三重區"
"241013","270-UM","2018/06/22 16:19:25","新北市三重區三和路三段83巷94號","121.497436666667","25.0730116666667","6500200","三重區"
"241025","271-UM","2018/06/22 16:19:32","新北市三重區中正北路560巷100弄2號","121.472545","25.0682383333333","6500200","三重區"
"241007","398-BY","2018/06/22 16:19:44","新北市三重區三和路四段163巷66號","121.486696666667","25.079645","6500200","三重區"
"241004","475-VK","2018/06/22 16:19:29","新北市三重區五華街74號","121.493471666667","25.081955","6500200","三重區"
"241020","478-VK","2018/06/22 16:19:26","新北市三重區車路頭街9號","121.483985","25.0704116666667","6500200","三重區"
"241014","543-UM","2018/06/22 16:19:34","新北市三重區河邊北街96-1號","121.503978333333","25.0699066666667","6500200","三重區"
"241001","547-UM","2018/06/22 16:19:26","新北市三重區自強路四段77號","121.490696666667","25.078905","6500200","三重區"
"241019","KEA-2593","2018/06/22 16:19:29","新北市三重區重陽路三段182號","121.490156666667","25.0680933333333","6500200","三重區"
"241006","AAD-863","2018/06/22 16:19:32","新北市三重區永福街46巷37號","121.482246666667","25.077385","6500200","三重區"
"241023","887-TS","2018/06/22 16:19:33","新北市三重區忠孝路三段14號","121.481695","25.0673416666667","6500200","三重區"
"241012","941-UM","2018/06/22 16:19:46","新北市三重區河邊北街317號","121.502423333333","25.0748883333333","6500200","三重區"
"241029","942-UM","2018/06/22 16:19:39","新北市三重區環河南路220-8號","121.493323333333","25.05268","6500200","三重區"
"241033","AAC-255","2018/06/22 16:19:29","新北市三重區重新路五段442號","121.474935","25.0471466666667","6500200","三重區"
"235026","800-TS","2018/06/22 16:19:42","新北市中和區建八路145號","121.490431666667","24.998705","6500300","中和區"
"235001","AAC-213","2018/06/22 16:19:33","新北市中和區員山路36巷13號","121.484308333333","24.99138","6500300","中和區"
"224007","275-VK","2018/06/22 16:19:38","新北市瑞芳區大埔路220-1號","121.760898333333","25.1022083333333","6501200","瑞芳區"
"224005","271-BY","2018/06/22 16:19:38","新北市瑞芳區中山路38號","121.803645","25.1063216666667","6501200","瑞芳區"
"227003","642-TC","2018/06/22 16:19:41","新北市雙溪區上林里內平林80號","121.828305","25.027935","6502500","雙溪區"
"227011","400-TW","2018/06/22 16:19:41","新北市雙溪區三港里雙澳路80號","121.88381","25.0538833333333","6502500","雙溪區"
"251008","181-VK","2018/06/22 16:19:27","新北市淡水區中正東路一段3巷2號","121.450471666667","25.164665","6501000","淡水區"
