"lineid","car","time","location","longitude","latitude","cityid","cityname"
"234042","862-TW","2018/06/22 16:32:03","新北市永和區福和路1號","121.526385","25.0096816666667","6500400","永和區"
"249005","172-UM","2018/06/22 16:39:42","新北市八里區大堀湖1-9號","121.422833333333","25.1550666666667","6502300","八里區"
"249003","593-UM","2018/06/22 16:39:45","新北市八里區挖子尾街6號","121.415535","25.1643033333333","6502300","八里區"
"231046","188-VK","2018/06/22 16:39:31","新北市新店區灣潭路5號","121.542076666667","24.946115","6500600","新店區"
"241011","013-R5","2018/06/22 16:39:35","新北市三重區秀江街183號","121.498068333333","25.0718283333333","6500200","三重區"
"241028","022-UY","2018/06/22 16:39:40","新北市三重區重新路三段90號","121.493046666667","25.0609366666667","6500200","三重區"
"241008","059-VK","2018/06/22 16:39:37","新北市三重區永安北路一段27巷52號","121.477925","25.0756283333333","6500200","三重區"
"241022","060-VK","2018/06/22 16:39:29","新北市三重區三民街90號","121.485463333333","25.0630066666667","6500200","三重區"
"241031","061-VK","2018/06/22 16:39:46","新北市三重區重新路四段41巷24號","121.48734","25.058285","6500200","三重區"
"241015","062-VK","2018/06/22 16:39:43","新北市三重區文化北路37-2號","121.499071666667","25.0650816666667","6500200","三重區"
"241017","063-VK","2018/06/22 16:39:28","新北市三重區中正北路25巷9-1號","121.492745","25.0622583333333","6500200","三重區"
"241024","065-VK","2018/06/22 16:39:44","新北市三重區中正北路315巷6弄58號","121.475683333333","25.0724483333333","6500200","三重區"
"241026","066-VK","2018/06/22 16:39:33","新北市三重區福和街1號","121.502998333333","25.061795","6500200","三重區"
"241002","090-VK","2018/06/22 16:39:45","新北市三重區五華街55巷69號","121.49608","25.0823266666667","6500200","三重區"
"241005","262-UM","2018/06/22 16:39:28","新北市三重區仁華街118巷24號","121.485853333333","25.0835466666667","6500200","三重區"
"241003","265-UM","2018/06/22 16:39:38","新北市三重區五華街87巷8號","121.492376666667","25.0835433333333","6500200","三重區"
"241016","266-UM","2018/06/22 16:39:36","新北市三重區大智街5號","121.494771666667","25.0649266666667","6500200","三重區"
"241009","267-UM","2018/06/22 16:39:24","新北市三重區三和路四段203巷60號","121.48339","25.0798","6500200","三重區"
"241018","268-UM","2018/06/22 16:39:30","新北市三重區六張街63號","121.493776666667","25.0701616666667","6500200","三重區"
"241032","269-UM","2018/06/22 16:39:36","新北市三重區中山路40巷1-1號","121.485788333333","25.061305","6500200","三重區"
"241013","270-UM","2018/06/22 16:39:26","新北市三重區三和路三段101巷120號","121.497908333333","25.0735116666667","6500200","三重區"
"241025","271-UM","2018/06/22 16:39:32","新北市三重區中正北路430-3號","121.474453333333","25.0706916666667","6500200","三重區"
"241007","398-BY","2018/06/22 16:39:44","新北市三重區三和路四段167巷102號","121.485855","25.0796633333333","6500200","三重區"
"241004","475-VK","2018/06/22 16:39:29","新北市三重區五華街72號","121.493213333333","25.0818016666667","6500200","三重區"
"241020","478-VK","2018/06/22 16:39:28","新北市三重區後竹圍街209號","121.484798333333","25.0716983333333","6500200","三重區"
"241030","480-VK","2018/06/22 16:39:40","新北市三重區環河南路286號","121.4891","25.0488483333333","6500200","三重區"
"241014","543-UM","2018/06/22 16:39:35","新北市三重區龍濱路31號","121.502938333333","25.0680783333333","6500200","三重區"
"241001","547-UM","2018/06/22 16:39:46","新北市三重區仁愛街247號","121.493546666667","25.0779033333333","6500200","三重區"
"241019","KEA-2593","2018/06/22 16:39:43","新北市三重區力行路一段9號","121.48844","25.0667066666667","6500200","三重區"
"241006","AAD-863","2018/06/22 16:39:31","新北市三重區車路頭街138-1號","121.483493333333","25.075595","6500200","三重區"
"241023","887-TS","2018/06/22 16:39:33","新北市三重區忠孝路三段50巷82號","121.483001666667","25.0645483333333","6500200","三重區"
"241012","941-UM","2018/06/22 16:39:26","新北市三重區仁興街6號","121.499801666667","25.0738283333333","6500200","三重區"
"241029","942-UM","2018/06/22 16:39:38","新北市三重區集美街112巷13號","121.48947","25.054135","6500200","三重區"
"241033","AAC-255","2018/06/22 16:39:29","新北市三重區光復路二段74號","121.472106666667","25.056365","6500200","三重區"
"235026","800-TS","2018/06/22 16:30:21","新北市中和區建八路125巷6弄2號","121.48972","24.9989683333333","6500300","中和區"
"247006","336-TH","2018/06/22 16:39:29","新北市五股區新五路二段258號","121.440713333333","25.0822966666667","6501400","蘆洲區"
"247008","056-VK","2018/06/22 16:39:37","新北市蘆洲區永安南路二段232號","121.460588333333","25.0795566666667","6501400","蘆洲區"
"247020","001-UY","2018/06/22 16:39:37","新北市五股區成泰路三段436號","121.452106666667","25.099405","6501400","蘆洲區"
"224007","275-VK","2018/06/22 16:39:41","新北市瑞芳區月眉路58號","121.760556666667","25.1110566666667","6501200","瑞芳區"
"224005","271-BY","2018/06/22 16:39:38","新北市瑞芳區籠山路5號","121.84566","25.1264666666667","6501200","瑞芳區"
"227003","642-TC","2018/06/22 16:39:41","新北市雙溪區外柑里土地公後4-1號","121.817081666667","25.0209833333333","6502500","雙溪區"
"227011","400-TW","2018/06/22 16:39:41","新北市雙溪區牡丹里中正路91號","121.86205","25.0470266666667","6502500","雙溪區"
"251008","181-VK","2018/06/22 16:39:27","新北市淡水區民生路169號","121.470135","25.1425466666667","6501000","淡水區"
"252002","178-VK","2018/06/22 16:39:38","新北市三芝區觀海街2號","121.510193333333","25.2582083333333","6502100","三芝區"
"252001","702-TV","2018/06/22 16:39:29","新北市三芝區埔坪里埔頭坑57號","121.507895","25.2646483333333","6502100","三芝區"
"242039","133-UY","2018/06/22 16:39:28","新北市新莊區新泰路255巷83號","121.44209","25.0388916666667","6500500","新莊區"
"242021","348-TH","2018/06/22 16:39:23","新北市新莊區新泰路357巷3弄57號","121.442048333333","25.0395033333333","6500500","新莊區"
