"lineid","car","time","location","longitude","latitude","cityid","cityname"
"234042","862-TW","2018/06/22 16:32:03","新北市永和區福和路1號","121.526385","25.0096816666667","6500400","永和區"
"249005","172-UM","2018/06/22 16:49:42","新北市八里區大堀湖2-3號","121.422316666667","25.1536966666667","6502300","八里區"
"249004","303-UY","2018/06/22 16:49:35","新北市八里區博物館路90號","121.409815","25.1599633333333","6502300","八里區"
"249002","305-UY","2018/06/22 16:49:39","新北市八里區牛寮埔31號","121.4299","25.1458533333333","6502300","八里區"
"249003","593-UM","2018/06/22 16:49:25","新北市八里區中山路二段283號","121.401678333333","25.148665","6502300","八里區"
"244017","485-VK","2018/06/22 16:49:37","新北市林口區粉寮69號","121.405108333333","25.0908266666667","6501700","林口區"
"231046","188-VK","2018/06/22 16:49:30","新北市新店區灣潭路29-5號","121.539588333333","24.9386933333333","6500600","新店區"
"241011","013-R5","2018/06/22 16:49:35","新北市三重區仁愛街53巷122號","121.49902","25.0725666666667","6500200","三重區"
"241028","022-UY","2018/06/22 16:49:40","新北市三重區光興街91號","121.49739","25.0600216666667","6500200","三重區"
"241008","059-VK","2018/06/22 16:49:37","新北市三重區永安北路一段11巷26號","121.477676666667","25.0748666666667","6500200","三重區"
"241022","060-VK","2018/06/22 16:49:28","新北市三重區中華路111巷20號","121.484356666667","25.0635233333333","6500200","三重區"
"241031","061-VK","2018/06/22 16:49:26","新北市三重區過圳街19號","121.488426666667","25.0601416666667","6500200","三重區"
"241015","062-VK","2018/06/22 16:49:43","新北市三重區長元街2-2號","121.498928333333","25.0658833333333","6500200","三重區"
"241017","063-VK","2018/06/22 16:49:28","新北市三重區國隆路8巷3號","121.493238333333","25.06361","6500200","三重區"
"241024","065-VK","2018/06/22 16:49:44","新北市三重區中正北路317巷18號","121.475311666667","25.0730033333333","6500200","三重區"
"241026","066-VK","2018/06/22 16:49:33","新北市三重區文化南路8-3號","121.50023","25.0620883333333","6500200","三重區"
"241002","090-VK","2018/06/22 16:49:25","新北市三重區仁義街219號","121.496661666667","25.081975","6500200","三重區"
"241005","262-UM","2018/06/22 16:49:28","新北市三重區仁華街78號","121.484715","25.0831083333333","6500200","三重區"
"241003","265-UM","2018/06/22 16:49:38","新北市三重區進安街196號","121.493676666667","25.086325","6500200","三重區"
"241016","266-UM","2018/06/22 16:49:36","新北市三重區大同北路115巷12號","121.4936","25.0651233333333","6500200","三重區"
"241009","267-UM","2018/06/22 16:49:44","新北市三重區三和路四段203巷277號","121.48782","25.0810816666667","6500200","三重區"
"241018","268-UM","2018/06/22 16:49:30","新北市三重區民生東街33號","121.493781666667","25.0694266666667","6500200","三重區"
"241032","269-UM","2018/06/22 16:49:36","新北市三重區三光街30巷1號","121.484735","25.0605133333333","6500200","三重區"
"241013","270-UM","2018/06/22 16:49:46","新北市三重區仁愛街89號","121.495821666667","25.07343","6500200","三重區"
"241025","271-UM","2018/06/22 16:49:32","新北市三重區中正北路530巷5-1號","121.471898333333","25.07128","6500200","三重區"
"241007","398-BY","2018/06/22 16:49:44","新北市三重區三和路四段181巷150號","121.485845","25.0799783333333","6500200","三重區"
"241004","475-VK","2018/06/22 16:49:30","新北市三重區仁愛街422巷1號","121.490145","25.081565","6500200","三重區"
"241020","478-VK","2018/06/22 16:49:26","新北市三重區忠孝路二段35號","121.485955","25.0710866666667","6500200","三重區"
"241030","480-VK","2018/06/22 16:49:40","新北市三重區新興路4號","121.492653333333","25.0527166666667","6500200","三重區"
"241014","543-UM","2018/06/22 16:49:34","新北市三重區長榮路75號","121.502638333333","25.0691566666667","6500200","三重區"
"241001","547-UM","2018/06/22 16:49:26","新北市三重區仁政街54巷9號","121.49261","25.0769183333333","6500200","三重區"
"241019","KEA-2593","2018/06/22 16:49:29","新北市三重區三張街149巷10弄15號","121.485758333333","25.0697266666667","6500200","三重區"
"241006","AAD-863","2018/06/22 16:49:31","新北市三重區車路頭街128號","121.484168333333","25.075395","6500200","三重區"
"241023","887-TS","2018/06/22 16:49:33","新北市三重區中華路76巷37-1號","121.482086666667","25.0626583333333","6500200","三重區"
"241012","941-UM","2018/06/22 16:49:26","新北市三重區龍門路274巷19號","121.501585","25.074715","6500200","三重區"
"241029","942-UM","2018/06/22 16:49:38","新北市三重區新興路31巷1號","121.492295","25.053695","6500200","三重區"
"241033","AAC-255","2018/06/22 16:49:29","新北市三重區新北大道二段131號","121.46623","25.061035","6500200","三重區"
"247006","336-TH","2018/06/22 16:49:29","新北市蘆洲區長安街23巷1號","121.463876666667","25.078955","6501400","蘆洲區"
"247008","056-VK","2018/06/22 16:49:36","新北市蘆洲區中山二路45巷30號","121.474275","25.0812616666667","6501400","蘆洲區"
"247020","001-UY","2018/06/22 16:49:37","新北市蘆洲區民族路422巷9弄2號","121.474078333333","25.0921366666667","6501400","蘆洲區"
"228003","097-TW","2018/06/22 16:49:37","新北市貢寮區貢寮里朝陽街1-2號","121.912365","25.0212966666667","6502600","貢寮區"
"228002","663-BX","2018/06/22 16:49:32","新北市貢寮區貢寮里長泰路24-2號","121.903508333333","25.02395","6502600","貢寮區"
"224006","676-BX","2018/06/22 16:49:32","新北市瑞芳區大寮路356-1號","121.784798333333","25.1031833333333","6501200","瑞芳區"
"224008","285-BY","2018/06/22 16:49:38","新北市瑞芳區明燈路二段66號","121.809396666667","25.107235","6501200","瑞芳區"
"224007","275-VK","2018/06/22 16:49:38","新北市瑞芳區中央路48巷38號","121.761025","25.10308","6501200","瑞芳區"
"224009","273-VK","2018/06/22 16:49:37","新北市瑞芳區中山路162-2號","121.802071666667","25.1065883333333","6501200","瑞芳區"
"224005","271-BY","2018/06/22 16:49:38","新北市瑞芳區洞頂路157號","121.861373333333","25.1224533333333","6501200","瑞芳區"
"227003","642-TC","2018/06/22 16:49:41","新北市雙溪區外柑里外柑腳71號","121.80715","25.0175666666667","6502500","雙溪區"
"227011","400-TW","2018/06/22 16:49:41","新北市雙溪區牡丹里石5號","121.86606","25.0535033333333","6502500","雙溪區"
"251008","181-VK","2018/06/22 16:49:27","新北市淡水區樹梅坑20號","121.474593333333","25.14283","6501000","淡水區"
"251012","441-VK","2018/06/22 16:49:45","新北市淡水區中正路二段31號","121.419735","25.18156","6501000","淡水區"
"251007","442-VK","2018/06/22 16:49:41","新北市淡水區中正路二段31號","121.41975","25.1815333333333","6501000","淡水區"
"251011","650-BX","2018/06/22 16:49:29","新北市淡水區中正路二段31號","121.419315","25.1816583333333","6501000","淡水區"
"252002","178-VK","2018/06/22 16:49:38","新北市三芝區忠孝街49號","121.50607","25.2560383333333","6502100","三芝區"
"252001","702-TV","2018/06/22 16:49:29","新北市三芝區淡金路二段89號","121.504043333333","25.2607166666667","6502100","三芝區"
"242054","751-BX","2018/06/22 16:49:39","新北市新莊區新泰路357巷3弄57號","121.44212","25.0391983333333","6500500","新莊區"
"242039","133-UY","2018/06/22 16:49:28","新北市新莊區新泰路255巷83號","121.442028333333","25.0389383333333","6500500","新莊區"
"242021","348-TH","2018/06/22 16:49:43","新北市新莊區新泰路357巷3弄57號","121.44214","25.039615","6500500","新莊區"
"238020","268-VK","2018/06/22 16:49:30","新北市樹林區東佳路20號","121.40732","24.980965","6500700","樹林區"
