"lineid","car","time","location","longitude","latitude","cityid","cityname"
"234042","862-TW","2018/06/22 16:32:03","新北市永和區福和路1號","121.526385","25.0096816666667","6500400","永和區"
"249005","172-UM","2018/06/22 16:59:42","新北市八里區渡船頭1號","121.434175","25.15216","6502300","八里區"
"249001","173-UM","2018/06/22 16:59:40","新北市八里區中山路三段106號","121.391005","25.1422083333333","6502300","八里區"
"249004","303-UY","2018/06/22 16:59:35","新北市八里區挖子尾街46號","121.415555","25.166215","6502300","八里區"
"249002","305-UY","2018/06/22 16:59:39","新北市八里區牛寮埔11號","121.433201666667","25.1421283333333","6502300","八里區"
"249003","593-UM","2018/06/22 16:59:45","新北市八里區中山路二段301號","121.40108","25.1480266666667","6502300","八里區"
"244017","485-VK","2018/06/22 16:59:37","新北市林口區粉寮69號","121.405095","25.09084","6501700","林口區"
"244025","837-TS","2018/06/22 16:59:26","新北市林口區粉寮69號","121.405066666667","25.0908183333333","6501700","林口區"
"231046","188-VK","2018/06/22 16:59:30","新北市新店區新潭路一段61號","121.52601","24.94231","6500600","新店區"
"241011","013-R5","2018/06/22 16:59:35","新北市三重區仁愛街55巷69號","121.499725","25.0729466666667","6500200","三重區"
"241028","022-UY","2018/06/22 16:59:40","新北市三重區重新路三段45-1號","121.49312","25.06122","6500200","三重區"
"241008","059-VK","2018/06/22 16:59:37","新北市三重區永福街179號","121.478996666667","25.0750866666667","6500200","三重區"
"241022","060-VK","2018/06/22 16:59:41","新北市三重區中華路132號","121.483558333333","25.06404","6500200","三重區"
"241031","061-VK","2018/06/22 16:59:46","新北市三重區新北大道一段3號","121.49062","25.060295","6500200","三重區"
"241015","062-VK","2018/06/22 16:59:43","新北市三重區三和路二段13號","121.501466666667","25.0668066666667","6500200","三重區"
"241017","063-VK","2018/06/22 16:59:28","新北市三重區大同北路112號","121.493281666667","25.06393","6500200","三重區"
"241024","065-VK","2018/06/22 16:59:24","新北市三重區大勇街44號","121.481105","25.0716316666667","6500200","三重區"
"241026","066-VK","2018/06/22 16:59:33","新北市三重區文化南路42號","121.500365","25.060235","6500200","三重區"
"241002","090-VK","2018/06/22 16:59:45","新北市三重區仁義街101巷2號","121.497563333333","25.0802633333333","6500200","三重區"
"241005","262-UM","2018/06/22 16:59:28","新北市三重區仁華街106號","121.485451666667","25.0832983333333","6500200","三重區"
"241003","265-UM","2018/06/22 16:59:38","新北市三重區五華街141巷58號","121.493436666667","25.0865866666667","6500200","三重區"
"241016","266-UM","2018/06/22 16:59:36","新北市三重區大同北路121巷5號","121.493826666667","25.0642433333333","6500200","三重區"
"241009","267-UM","2018/06/22 16:59:44","新北市三重區仁美街108巷5號","121.485373333333","25.0807183333333","6500200","三重區"
"241018","268-UM","2018/06/22 16:59:30","新北市三重區六張街90巷7號","121.493131666667","25.0697383333333","6500200","三重區"
"241032","269-UM","2018/06/22 16:59:36","新北市三重區中山路40巷1-1號","121.485993333333","25.0612216666667","6500200","三重區"
"241013","270-UM","2018/06/22 16:59:25","新北市三重區仁昌街30號","121.496706666667","25.0741783333333","6500200","三重區"
"241025","271-UM","2018/06/22 16:59:38","新北市三重區中正北路508巷11號","121.472603333333","25.0710383333333","6500200","三重區"
"241007","398-BY","2018/06/22 16:59:44","新北市三重區三和路四段145巷213號","121.488775","25.079415","6500200","三重區"
"241004","475-VK","2018/06/22 16:59:29","新北市三重區五華街92巷5號","121.4925","25.0821283333333","6500200","三重區"
"241020","478-VK","2018/06/22 16:59:46","新北市三重區自強路三段13號","121.48716","25.0719366666667","6500200","三重區"
"241030","480-VK","2018/06/22 16:59:40","新北市三重區昌隆街69號","121.490923333333","25.0508283333333","6500200","三重區"
"241014","543-UM","2018/06/22 16:59:35","新北市三重區三和路二段173巷149號","121.501213333333","25.0707533333333","6500200","三重區"
"241001","547-UM","2018/06/22 16:59:26","新北市三重區仁愛街172巷5號","121.493768333333","25.0765616666667","6500200","三重區"
"241019","KEA-2593","2018/06/22 16:59:29","新北市三重區自強路二段74巷23-1號","121.487881666667","25.069835","6500200","三重區"
"241006","AAD-863","2018/06/22 16:59:31","新北市三重區車路頭街131巷14號","121.484925","25.0758783333333","6500200","三重區"
"241023","887-TS","2018/06/22 16:59:33","新北市三重區新北大道一段206巷1號","121.482365","25.0617066666667","6500200","三重區"
"241012","941-UM","2018/06/22 16:59:46","新北市三重區仁和街163號","121.499853333333","25.0747033333333","6500200","三重區"
"241029","942-UM","2018/06/22 16:59:38","新北市三重區環河南路220-8號","121.493358333333","25.0526816666667","6500200","三重區"
"241033","AAC-255","2018/06/22 16:59:29","新北市三重區中興北街271號","121.468993333333","25.0605366666667","6500200","三重區"
"247024","893-R6","2018/06/22 16:59:37","新北市蘆洲區長興路202號","121.46059","25.087545","6501400","蘆洲區"
"247014","546-UM","2018/06/22 16:59:39","新北市蘆洲區中山二路36巷35號","121.47397","25.083265","6501400","蘆洲區"
"247010","341-TH","2018/06/22 16:59:28","新北市蘆洲區三民路26巷38號","121.478133333333","25.0831616666667","6501400","蘆洲區"
"247004","337-TH","2018/06/22 16:59:35","新北市蘆洲區長安街110號","121.461001666667","25.081645","6501400","蘆洲區"
"247006","336-TH","2018/06/22 16:59:29","新北市蘆洲區永安南路二段232號","121.46066","25.0795983333333","6501400","蘆洲區"
"247018","057-VK","2018/06/22 16:59:43","新北市蘆洲區民族路298巷3號","121.477848333333","25.090045","6501400","蘆洲區"
"247008","056-VK","2018/06/22 16:59:38","新北市蘆洲區信義路56號","121.475386666667","25.0795933333333","6501400","蘆洲區"
"247016","007-UY","2018/06/22 16:59:44","新北市蘆洲區光華路41巷9號","121.469348333333","25.0826766666667","6501400","蘆洲區"
"247020","001-UY","2018/06/22 16:59:37","新北市蘆洲區民族路422巷82弄14號","121.474033333333","25.0938816666667","6501400","蘆洲區"
"228003","097-TW","2018/06/22 16:59:37","新北市貢寮區福隆里興隆街21-1號","121.943403333333","25.0164916666667","6502600","貢寮區"
"228001","212-TW","2018/06/22 16:59:33","新北市貢寮區貢寮里朝陽街1-2號","121.912273333333","25.0213033333333","6502600","貢寮區"
"228002","663-BX","2018/06/22 16:59:29","新北市貢寮區貢寮里朝陽街54號","121.91035","25.0213466666667","6502600","貢寮區"
"224006","676-BX","2018/06/22 16:59:41","新北市瑞芳區大寮路2-1號","121.785518333333","25.10082","6501200","瑞芳區"
"224008","285-BY","2018/06/22 16:59:38","新北市瑞芳區明燈路一段257號","121.81729","25.108385","6501200","瑞芳區"
"224007","275-VK","2018/06/22 16:59:38","新北市瑞芳區楓子瀨路18-1號","121.768551666667","25.1031566666667","6501200","瑞芳區"
"224009","273-VK","2018/06/22 16:59:38","新北市瑞芳區濱二路24號","121.836526666667","25.112485","6501200","瑞芳區"
"224005","271-BY","2018/06/22 16:59:38","新北市瑞芳區哩咾路1號","121.876628333333","25.12276","6501200","瑞芳區"
"227003","642-TC","2018/06/22 16:59:41","新北市雙溪區長源里柑腳41-1號","121.803228333333","25.0131433333333","6502500","雙溪區"
"227011","400-TW","2018/06/22 16:59:41","新北市雙溪區牡丹里聖南35號","121.853141666667","25.056085","6502500","雙溪區"
"251008","181-VK","2018/06/22 16:59:27","新北市淡水區樹梅坑9號","121.472751666667","25.1426983333333","6501000","淡水區"
"251010","413-VK","2018/06/22 16:59:39","新北市淡水區新民街一段117號","121.42863","25.1876733333333","6501000","淡水區"
"251012","441-VK","2018/06/22 16:59:24","新北市淡水區沙崙路331號","121.427521666667","25.18748","6501000","淡水區"
"251007","442-VK","2018/06/22 16:59:41","新北市淡水區中山路68號","121.443511666667","25.170535","6501000","淡水區"
"251005","443-VK","2018/06/22 16:59:27","新北市淡水區中正路一段1號","121.426733333333","25.1760983333333","6501000","淡水區"
"251006","561-UM","2018/06/22 16:59:37","新北市淡水區中正路二段30號","121.419745","25.1819466666667","6501000","淡水區"
"251009","575-R6","2018/06/22 16:59:36","新北市淡水區中正路一段33號","121.426001666667","25.1765816666667","6501000","淡水區"
"251011","650-BX","2018/06/22 16:59:29","新北市淡水區真理街2-1號","121.438516666667","25.17286","6501000","淡水區"
"252002","178-VK","2018/06/22 16:59:38","新北市三芝區忠孝街145號","121.506073333333","25.2608133333333","6502100","三芝區"
"252001","702-TV","2018/06/22 16:59:35","新北市三芝區淡金路二段81號","121.50387","25.2606516666667","6502100","三芝區"
"242034","AAC-296","2018/06/22 16:59:33","新北市新莊區新泰路357巷3弄57號","121.442323333333","25.0395366666667","6500500","新莊區"
"242054","751-BX","2018/06/22 16:59:39","新北市新莊區新泰路357巷3弄57號","121.44211","25.0392616666667","6500500","新莊區"
"242027","615-BX","2018/06/22 16:59:28","新北市新莊區新泰路255巷83號","121.442146666667","25.0388133333333","6500500","新莊區"
"242025","613-BX","2018/06/22 16:59:31","新北市新莊區新泰路357巷3弄57號","121.442155","25.0391916666667","6500500","新莊區"
"242029","612-BX","2018/06/22 16:59:42","新北市新莊區新泰路357巷3弄57號","121.442043333333","25.0391833333333","6500500","新莊區"
"242041","566-BX","2018/06/22 16:59:27","新北市新莊區新泰路357巷3弄57號","121.442106666667","25.0390966666667","6500500","新莊區"
"242037","415-TV","2018/06/22 16:59:44","新北市新莊區新泰路357巷3弄57號","121.441998333333","25.03934","6500500","新莊區"
"242007","413-TV","2018/06/22 16:59:36","新北市新莊區新泰路357巷3弄57號","121.441833333333","25.0395766666667","6500500","新莊區"
"242060","353-BY","2018/06/22 16:59:39","新北市新莊區新泰路255巷83號","121.44222","25.0389783333333","6500500","新莊區"
"242039","133-UY","2018/06/22 16:59:28","新北市新莊區新泰路255巷83號","121.44205","25.0389266666667","6500500","新莊區"
"242017","175-VK","2018/06/22 16:59:37","新北市新莊區三和路12-21號","121.441936666667","25.038675","6500500","新莊區"
"242005","176-VK","2018/06/22 16:59:46","新北市新莊區三和路12-21號","121.441948333333","25.0387566666667","6500500","新莊區"
"242056","347-TH","2018/06/22 16:59:26","新北市新莊區三和路12-17號","121.441918333333","25.037555","6500500","新莊區"
"242021","348-TH","2018/06/22 16:59:43","新北市新莊區新泰路357巷3弄57號","121.442191666667","25.0395566666667","6500500","新莊區"
"242002","349-TH","2018/06/22 16:59:41","新北市新莊區三和路12-16號","121.442055","25.0374533333333","6500500","新莊區"
"238022","KEA-2213","2018/06/22 16:59:45","新北市樹林區八德街648號","121.3965","24.9691016666667","6500700","樹林區"
"238020","268-VK","2018/06/22 16:59:30","新北市樹林區中正路417號","121.416951666667","25.00764","6500700","樹林區"
"239006","891-R6","2018/06/22 16:59:42","新北市鶯歌區二甲路13-16號","121.345541666667","24.9352266666667","6500800","鶯歌區"
"239001","417-VK","2018/06/22 16:58:13","新北市鶯歌區二甲路12-2號","121.34574","24.9348633333333","6500800","鶯歌區"
