"lineid","car","time","location","longitude","latitude","cityid","cityname"
"234007","207-UY","2018/06/22 18:19:34","新北市永和區環河西路二段61號","121.506936666667","25.01544","6500400","永和區"
"234081","298-R6","2018/06/22 18:19:43","新北市永和區福和路1號","121.526545","25.0101066666667","6500400","永和區"
"234017","745-BX","2018/06/22 18:19:36","新北市永和區福和路1號","121.526381666667","25.00959","6500400","永和區"
"234042","862-TW","2018/06/22 18:19:37","新北市永和區福和路1號","121.525635","25.0093266666667","6500400","永和區"
"234026","9371-KE","2018/06/22 18:19:37","新北市永和區豫溪街38號","121.515495","25.009835","6500400","永和區"
"234011","9373-KE","2018/06/22 18:19:47","新北市永和區環河東路一段162號","121.52144","25.0146083333333","6500400","永和區"
"249005","172-UM","2018/06/22 18:19:42","新北市八里區荖阡坑路15-30號","121.400303333333","25.140475","6502300","八里區"
"249001","173-UM","2018/06/22 18:19:40","新北市八里區龍米路一段129號","121.452236666667","25.1267033333333","6502300","八里區"
"249004","303-UY","2018/06/22 18:19:35","新北市八里區龍米路二段232巷1弄8號","121.43055","25.15968","6502300","八里區"
"249002","305-UY","2018/06/22 18:19:39","新北市八里區龍形二街52號","121.450313333333","25.1329333333333","6502300","八里區"
"249003","593-UM","2018/06/22 18:19:25","新北市八里區商港路98號","121.39542","25.1469883333333","6502300","八里區"
"248014","025-BX","2018/06/22 18:19:21","新北市五股區自強路21號","121.434451666667","25.0739833333333","6501500","五股區"
"248016","026-BX","2018/06/22 18:19:40","新北市五股區成泰路三段491巷9號","121.449871666667","25.099135","6501500","五股區"
"248006","077-UY","2018/06/22 18:19:39","新北市五股區中興路一段152號","121.464535","25.073825","6501500","五股區"
"248008","095-VK","2018/06/22 18:19:33","新北市五股區更洲路32巷8弄14號","121.459263333333","25.0796183333333","6501500","五股區"
"248018","225-UY","2018/06/22 18:19:46","新北市五股區御史路162號","121.429075","25.1035583333333","6501500","五股區"
"248012","247-BX","2018/06/22 18:19:33","新北市五股區御成路33號","121.441041666667","25.0912016666667","6501500","五股區"
"248010","272-BY","2018/06/22 18:19:36","新北市五股區成泰路一段193號","121.434923333333","25.0765583333333","6501500","五股區"
"248004","677-BX","2018/06/22 18:19:28","新北市五股區成泰路二段222-2號","121.439131666667","25.0854733333333","6501500","五股區"
"248002","678-BX","2018/06/22 18:19:32","新北市五股區西雲路66號","121.443603333333","25.0916316666667","6501500","五股區"
"244007","080-UY","2018/06/22 18:19:43","新北市林口區林口路112號","121.388655","25.08136","6501700","林口區"
"244019","403-UM","2018/06/22 18:19:42","新北市林口區忠孝路555號","121.372498333333","25.068615","6501700","林口區"
"244013","742-UY","2018/06/22 18:19:43","新北市林口區中山路202-6號","121.387965","25.07914","6501700","林口區"
"244009","410-SL","2018/06/22 18:19:40","新北市林口區民生路140號","121.379021666667","25.0880566666667","6501700","林口區"
"244023","483-VK","2018/06/22 18:19:40","新北市林口區仁愛路二段111號","121.383903333333","25.0750166666667","6501700","林口區"
"244017","485-VK","2018/06/22 18:19:36","新北市林口區八德路20巷17號","121.367556666667","25.0677866666667","6501700","林口區"
"244011","657-BX","2018/06/22 18:19:37","新北市林口區中正路74巷5弄4號","121.394498333333","25.0780233333333","6501700","林口區"
"244025","837-TS","2018/06/22 18:19:47","新北市林口區南勢二街85巷3號","121.355548333333","25.0699016666667","6501700","林口區"
"244021","838-TS","2018/06/22 18:19:37","新北市林口區自強三街29號","121.398223333333","25.077315","6501700","林口區"
"243013","AAD-798","2018/06/22 18:19:31","新北市泰山區錢厝坑13號","121.416535","25.03776","6501600","泰山區"
"222003","436-BY","2018/06/22 18:19:34","新北市深坑區旺耽路67號","121.626246666667","25.0029566666667","6501800","深坑區"
"222002","659-BX","2018/06/22 18:19:32","新北市深坑區文山路一段62巷33號","121.62151","25.00064","6501800","深坑區"
"231041","002-UM","2018/06/22 18:19:44","新北市新店區安華路28-1號","121.519808333333","24.9607133333333","6500600","新店區"
"231059","046-UY","2018/06/22 18:19:34","新北市新店區安華路28-1號","121.519475","24.9609066666667","6500600","新店區"
"231040","047-UY","2018/06/22 18:19:28","新北市新店區安一路一段1-1號","121.518903333333","24.9610716666667","6500600","新店區"
"231044","106-UY","2018/06/22 18:19:28","新北市新店區安華路28-1號","121.519688333333","24.9606633333333","6500600","新店區"
"231053","108-UY","2018/06/22 18:19:43","新北市新店區安康路一段229號","121.525495","24.9630816666667","6500600","新店區"
"231048","187-VK","2018/06/22 18:19:31","新北市新店區安一路一段1-1號","121.51955","24.9611166666667","6500600","新店區"
"231046","188-VK","2018/06/22 18:19:30","新北市新店區直潭七街60號","121.532245","24.939935","6500600","新店區"
"231054","KEA-2219","2018/06/22 18:19:40","新北市新店區安一路一段1-1號","121.519946666667","24.96113","6500600","新店區"
"231057","256-BX","2018/06/22 18:19:31","新北市新店區安一路一段1-1號","121.519811666667","24.9611816666667","6500600","新店區"
"231042","268-BY","2018/06/22 18:19:29","新北市新店區安華路1-1號","121.519333333333","24.96046","6500600","新店區"
"231051","278-BY","2018/06/22 18:19:41","新北市新店區安華路28-1號","121.519716666667","24.96105","6500600","新店區"
"231058","3713-VJ","2018/06/22 18:19:42","新北市新店區安康路一段9-2號","121.533665","24.9605","6500600","新店區"
"231066","4716-K9","2018/06/22 18:19:45","新北市新店區安一路一段1-1號","121.519148333333","24.96114","6500600","新店區"
"231056","4715-K9","2018/06/22 18:19:32","新北市新店區中央路177-1號","121.53505","24.9695683333333","6500600","新店區"
"231067","4772-VM","2018/06/22 18:19:30","新北市新店區安華路3號","121.519176666667","24.9602933333333","6500600","新店區"
"231065","512-UM","2018/06/22 18:19:38","新北市新店區安一路一段1-1號","121.519246666667","24.9611866666667","6500600","新店區"
"231049","513-UM","2018/06/22 18:19:32","新北市新店區安華路28-1號","121.51978","24.9610533333333","6500600","新店區"
"231063","616-UM","2018/06/22 18:19:37","新北市新店區安華路1-1號","121.519423333333","24.9605316666667","6500600","新店區"
"231045","617-UM","2018/06/22 18:19:25","新北市新店區安華路28-1號","121.519336666667","24.960805","6500600","新店區"
"231061","619-UM","2018/06/22 18:19:43","新北市新店區安華路28-1號","121.51959","24.9605933333333","6500600","新店區"
"231064","719-UM","2018/06/22 18:19:49","新北市新店區安一路一段1-1號","121.519375","24.9612483333333","6500600","新店區"
"231062","720-UM","2018/06/22 18:19:33","新北市新店區安一路一段1-1號","121.51904","24.9612133333333","6500600","新店區"
"231060","897-TW","2018/06/22 18:19:45","新北市新店區安華路28-1號","121.519596666667","24.9605083333333","6500600","新店區"
"231055","AKT-0513","2018/06/22 18:19:43","新北市新店區光明街179-1號","121.53962","24.9629733333333","6500600","新店區"
"241033","AAC-255","2018/06/22 18:19:49","新北市三重區光復路一段61巷21號","121.473326666667","25.0492866666667","6500200","三重區"
"235064","005-UY","2018/06/22 18:19:41","新北市中和區圓通路141巷37弄1號","121.498971666667","24.995035","6500300","中和區"
"235063","006-UY","2018/06/22 18:19:35","新北市中和區中正路567號","121.48672","24.9942433333333","6500300","中和區"
"235056","096-UM","2018/06/22 18:19:35","新北市中和區中山路二段586號","121.48244","25.0051283333333","6500300","中和區"
"235039","097-UM","2018/06/22 18:19:29","新北市中和區景安路123號","121.505701666667","24.9961683333333","6500300","中和區"
"235065","098-UM","2018/06/22 18:19:34","新北市中和區莊敬路49巷18號","121.501653333333","25.006095","6500300","中和區"
"235040","150-BY","2018/06/22 18:19:46","新北市中和區安平路38號","121.509836666667","24.994935","6500300","中和區"
"235058","151-BY","2018/06/22 18:19:28","新北市中和區圓通路367巷21-1號","121.492485","24.9863116666667","6500300","中和區"
"235055","183-VK","2018/06/22 18:19:45","新北市中和區中正路637巷52弄3號","121.485313333333","24.99368","6500300","中和區"
"235038","185-VK","2018/06/22 18:19:35","新北市中和區秀朗路三段128巷7弄7號","121.524295","24.9926483333333","6500300","中和區"
"235049","186-VK","2018/06/22 18:19:32","新北市中和區中正路637巷52弄1號","121.485551666667","24.9935783333333","6500300","中和區"
"235067","255-BX","2018/06/22 18:19:36","新北市中和區和城路一段271巷1號","121.485658333333","24.9917616666667","6500300","中和區"
"235072","301-VK","2018/06/22 18:19:47","新北市中和區連城路176號","121.493086666667","24.9968333333333","6500300","中和區"
"235043","352-BY","2018/06/22 18:19:43","新北市中和區景平路381號","121.503983333333","24.9934033333333","6500300","中和區"
"235042","KEA-2878","2018/06/22 18:19:45","新北市中和區大仁街20巷25弄33號","121.51922","24.9936983333333","6500300","中和區"
"235050","4979-A6","2018/06/22 18:19:39","新北市中和區捷運路149-1號","121.506668333333","24.99094","6500300","中和區"
"235069","4980-A6","2018/06/22 18:19:34","新北市中和區連城路109巷91號","121.497656666667","24.99741","6500300","中和區"
"235070","558-UM","2018/06/22 18:19:41","新北市中和區圓通路113號","121.499361666667","24.9964783333333","6500300","中和區"
"235045","565-BX","2018/06/22 18:19:40","新北市中和區景安路200巷5號","121.50341","24.9915583333333","6500300","中和區"
"235054","640-BX","2018/06/22 18:19:43","新北市中和區民享街86巷26號","121.473345","25.00066","6500300","中和區"
"235060","647-TV","2018/06/22 18:19:37","新北市中和區員山路287號","121.481278333333","24.999795","6500300","中和區"
"235047","732-UM","2018/06/22 18:19:31","新北市中和區南山路300號","121.507943333333","24.9870966666667","6500300","中和區"
"235046","733-UM","2018/06/22 18:19:31","新北市中和區員山路36巷13號","121.484178333333","24.9909716666667","6500300","中和區"
"235062","800-TS","2018/06/22 18:19:45","新北市中和區景平路999巷1號","121.495431666667","25.0059633333333","6500300","中和區"
"235057","801-TS","2018/06/22 18:19:37","新北市中和區民享街97巷15號","121.475571666667","24.9999633333333","6500300","中和區"
"235052","805-TS","2018/06/22 18:19:36","新北市中和區南山路291號","121.50444","24.9919866666667","6500300","中和區"
"235048","896-TW","2018/06/22 18:19:37","新北市中和區錦和路350-1號","121.490058333333","24.9935666666667","6500300","中和區"
"235053","900-TW","2018/06/22 18:19:42","新北市中和區和城路一段271巷1號","121.485478333333","24.9921116666667","6500300","中和區"
"235066","911-UM","2018/06/22 18:19:38","新北市中和區水源路2號","121.5028","25.0034966666667","6500300","中和區"
"235051","157-BY","2018/06/22 18:19:44","新北市中和區興南路二段130號","121.504376666667","24.9835166666667","6500300","中和區"
"235037","AAC-213","2018/06/22 18:19:30","新北市中和區景德街75號","121.516581666667","24.9913416666667","6500300","中和區"
"226004","205-ST","2018/06/22 18:19:45","新北市平溪區薯榔里一坑路26號","121.713598333333","25.0218166666667","6502400","平溪區"
"228003","097-TW","2018/06/22 18:19:37","新北市貢寮區真理里美艷山街65-1號","121.919616666667","25.072445","6502600","貢寮區"
"228001","212-TW","2018/06/22 18:19:33","新北市貢寮區真理里新港街26巷55弄2-1號","121.927378333333","25.0528183333333","6502600","貢寮區"
"228002","663-BX","2018/06/22 18:19:46","新北市貢寮區福連里福興街25號","121.991411666667","25.0120583333333","6502600","貢寮區"
"224006","676-BX","2018/06/22 18:19:32","新北市瑞芳區三爪子坑路106巷118號","121.809273333333","25.104415","6501200","瑞芳區"
"224002","639-TC","2018/06/22 18:19:34","新北市瑞芳區三爪子坑路91巷31號","121.811921666667","25.1063933333333","6501200","瑞芳區"
"224008","285-BY","2018/06/22 18:19:38","新北市瑞芳區逢甲路15號","121.809815","25.108645","6501200","瑞芳區"
"224007","275-VK","2018/06/22 18:19:38","新北市瑞芳區大埔路有勝新村5號","121.764868333333","25.10113","6501200","瑞芳區"
"224009","273-VK","2018/06/22 18:19:41","新北市瑞芳區五號路8號","121.854891666667","25.11024","6501200","瑞芳區"
"224005","271-BY","2018/06/22 18:19:37","新北市瑞芳區建基新村20-29號","121.811195","25.1311","6501200","瑞芳區"
"227003","642-TC","2018/06/22 18:19:41","新北市雙溪區共和里中山路2號","121.863785","25.0338016666667","6502500","雙溪區"
"227011","400-TW","2018/06/22 18:19:20","新北市雙溪區牡丹里牡丹73號","121.851703333333","25.0593533333333","6502500","雙溪區"
"253005","032-BX","2018/06/22 18:19:42","新北市石門區中央路5號","121.566365","25.2915783333333","6502200","石門區"
"253006","295-VK","2018/06/22 18:19:46","新北市石門區老梅路49號","121.545418333333","25.2892483333333","6502200","石門區"
"222001","KEA-2212","2018/06/22 18:19:44","新北市深坑區北深路二段58號","121.619106666667","25.004275","6501800","深坑區"
"208002","KEA-2872","2018/06/22 18:19:30","新北市金山區清泉里清水路60巷18號","121.63383","25.234065","6502700","金山區"
"208003","665-BX","2018/06/22 18:19:36","新北市金山區民生路128號","121.647486666667","25.2236333333333","6502700","金山區"
"208001","761-BX","2018/06/22 18:19:31","新北市金山區自強路21號","121.640421666667","25.2163316666667","6502700","金山區"
"251004","009-UM","2018/06/22 18:19:39","新北市淡水區民族路45號","121.462763333333","25.1353783333333","6501000","淡水區"
"251001","011-UM","2018/06/22 18:19:40","新北市淡水區自強路108-19號","121.46157","25.13122","6501000","淡水區"
"251002","012-UM","2018/06/22 18:19:44","新北市淡水區中正東路一段38號","121.452676666667","25.1622516666667","6501000","淡水區"
"251008","181-VK","2018/06/22 18:19:47","新北市淡水區水源街二段346巷1弄1號","121.464245","25.17548","6501000","淡水區"
"251010","413-VK","2018/06/22 18:19:39","新北市淡水區淡海路180巷12-3號","121.4204","25.1846","6501000","淡水區"
"251012","441-VK","2018/06/22 18:19:44","新北市淡水區北新路二段77-5號","121.48044","25.1854966666667","6501000","淡水區"
"251005","443-VK","2018/06/22 18:19:46","新北市淡水區仁愛街18巷8號","121.446973333333","25.170335","6501000","淡水區"
"251006","561-UM","2018/06/22 18:19:37","新北市淡水區新民街33號","121.438963333333","25.1758133333333","6501000","淡水區"
"251011","650-BX","2018/06/22 18:19:09","新北市淡水區坪頂路55號","121.458496666667","25.16261","6501000","淡水區"
"251003","673-BX","2018/06/22 18:19:43","新北市淡水區北新路180號","121.449501666667","25.1787516666667","6501000","淡水區"
"207003","550-UM","2018/06/22 18:19:35","新北市萬里區野柳里港東路61-1號","121.68756","25.2037083333333","6502800","萬里區"
"207004","225-TW","2018/06/22 18:19:41","新北市萬里區中幅里中福路32號","121.67889","25.1669716666667","6502800","萬里區"
"252002","178-VK","2018/06/22 18:19:38","新北市三芝區中山路二段40號","121.503008333333","25.2550916666667","6502100","三芝區"
"252003","249-BX","2018/06/22 18:19:39","新北市三芝區錫板里南勢崗5-5號","121.480348333333","25.26296","6502100","三芝區"
"252001","702-TV","2018/06/22 18:19:28","新北市三芝區中興街二段2號","121.498345","25.256635","6502100","三芝區"
"237007","153-BY","2018/06/22 18:19:38","新北市三峽區中正路二段496巷2號","121.361413333333","24.9064033333333","6500900","三峽區"
"237009","210-TH","2018/06/22 18:19:33","新北市三峽區中山路152巷5號","121.365043333333","24.9366266666667","6500900","三峽區"
"237013","252-BX","2018/06/22 18:19:45","新北市三峽區永安街9巷5號","121.37622","24.9296383333333","6500900","三峽區"
"237012","275-BY","2018/06/22 18:19:48","新北市三峽區三樹路50號","121.3778","24.9377816666667","6500900","三峽區"
"237008","302-VK","2018/06/22 18:19:42","新北市三峽區白雞68-25號","121.392193333333","24.9091366666667","6500900","三峽區"
"237014","433-BY","2018/06/22 18:19:34","新北市三峽區復興路59號","121.373025","24.9372083333333","6500900","三峽區"
"237006","5529-G3","2018/06/22 18:19:36","新北市三峽區溪東路473巷60號","121.415371666667","24.9288816666667","6500900","三峽區"
"237011","KEA-2596","2018/06/22 18:19:43","新北市三峽區大同路2-1號","121.378411666667","24.9300416666667","6500900","三峽區"
"237015","649-BX","2018/06/22 18:19:38","新北市三峽區紫微路42-1號","121.422368333333","24.9198466666667","6500900","三峽區"
"237010","706-TV","2018/06/22 18:19:29","新北市三峽區中山路29號","121.36846","24.9343766666667","6500900","三峽區"
"236069","105-UM","2018/06/22 18:19:36","新北市土城區永豐路151巷1號","121.46732","24.982715","6501300","土城區"
"236042","107-UM","2018/06/22 18:19:39","新北市土城區樂利街3巷8號","121.448426666667","24.98623","6501300","土城區"
"236079","166-UM","2018/06/22 18:19:27","新北市土城區中央路三段281巷23弄12號","121.426225","24.9617083333333","6501300","土城區"
"236030","253-BX","2018/06/22 18:19:32","新北市土城區順風路24號","121.440738333333","24.9766983333333","6501300","土城區"
"236026","269-VK","2018/06/22 18:19:35","新北市土城區承天路83-5號","121.440801666667","24.96255","6501300","土城區"
"236014","270-VK","2018/06/22 18:19:36","新北市土城區立清街69號","121.460303333333","24.9873266666667","6501300","土城區"
"236039","271-VK","2018/06/22 18:19:39","新北市土城區青雲路451巷8弄1號","121.45959","24.9745083333333","6501300","土城區"
"236020","401-BY","2018/06/22 18:19:47","新北市土城區明德路一段385-1號","121.452171666667","24.9803633333333","6501300","土城區"
"236063","752-BX","2018/06/22 18:19:39","新北市土城區金城路三段202-3號","121.469456666667","24.9885666666667","6501300","土城區"
"236059","912-UM","2018/06/22 18:19:37","新北市土城區中央路四段466號","121.409941666667","24.95063","6501300","土城區"
"236048","913-UM","2018/06/22 18:19:42","新北市土城區明德路一段365-1號","121.454008333333","24.9786566666667","6501300","土城區"
"236055","AAC-216","2018/06/22 18:19:33","新北市土城區中華路二段193號","121.43817","24.97435","6501300","土城區"
"242058","986-R7","2018/06/22 18:19:26","新北市新莊區新北大道七段650號","121.412121666667","25.0280183333333","6500500","新莊區"
"242054","751-BX","2018/06/22 18:19:39","新北市新莊區民安西路303號","121.426818333333","25.01162","6500500","新莊區"
"242027","615-BX","2018/06/22 18:19:48","新北市新莊區幸福路823號","121.445271666667","25.0488083333333","6500500","新莊區"
"242025","613-BX","2018/06/22 18:19:31","新北市新莊區五權一路7-9號","121.458696666667","25.0670983333333","6500500","新莊區"
"242041","566-BX","2018/06/22 18:19:27","新北市新莊區天祥街89號","121.415263333333","25.0293816666667","6500500","新莊區"
"242046","497-BY","2018/06/22 18:19:26","新北市新莊區中正路829巷22弄41號","121.420725","25.0268083333333","6500500","新莊區"
"242050","441-UM","2018/06/22 18:19:30","新北市新莊區民安西路69號","121.427313333333","25.0200633333333","6500500","新莊區"
"242007","413-TV","2018/06/22 18:19:36","新北市新莊區中港一街26號","121.451198333333","25.0455933333333","6500500","新莊區"
"242044","400-BY","2018/06/22 18:19:32","新北市新莊區中山路三段619號","121.413131666667","25.0251","6500500","新莊區"
"242060","353-BY","2018/06/22 18:19:39","新北市新莊區後港一路62號","121.426526666667","25.026425","6500500","新莊區"
"242009","132-UY","2018/06/22 18:19:33","新北市新莊區幸福路600號","121.45306","25.04936","6500500","新莊區"
"242039","133-UY","2018/06/22 18:19:48","新北市新莊區新樹路222號","121.433576666667","25.0203383333333","6500500","新莊區"
"242048","172-VK","2018/06/22 18:19:35","新北市樹林區中正路282-18號","121.415995","25.0097433333333","6500500","新莊區"
"242011","173-VK","2018/06/22 18:19:42","新北市新莊區中港路中慶巷27弄18號","121.449996666667","25.0532566666667","6500500","新莊區"
"242056","347-TH","2018/06/22 18:19:46","新北市新莊區泰豐街23巷5號","121.447996666667","25.0317583333333","6500500","新莊區"
"242021","348-TH","2018/06/22 18:19:43","新北市新莊區新興街17號","121.450701666667","25.03696","6500500","新莊區"
"242002","349-TH","2018/06/22 18:19:41","新北市新莊區大觀街2號","121.45458","25.0341333333333","6500500","新莊區"
"242019","350-TH","2018/06/22 18:19:27","新北市新莊區公園路2號","121.44739","25.038645","6500500","新莊區"
"238015","755-BX","2018/06/22 18:19:49","新北市樹林區文化街112巷12號","121.4172","24.9904416666667","6500700","樹林區"
"238023","601-UM","2018/06/22 18:19:44","新北市樹林區忠義街16號","121.409553333333","25.0146216666667","6500700","樹林區"
"238019","599-UM","2018/06/22 18:19:40","新北市樹林區國凱街140巷13號","121.424141666667","24.9801383333333","6500700","樹林區"
"238018","571-TV","2018/06/22 18:19:31","新北市樹林區樹新路34巷9號","121.428141666667","24.99452","6500700","樹林區"
"238024","5061-A6","2018/06/22 18:19:47","新北市樹林區後站街2號","121.423915","24.9912666666667","6500700","樹林區"
"238021","KEA-2539","2018/06/22 18:19:34","新北市樹林區柑園街二段68號","121.386778333333","24.9551766666667","6500700","樹林區"
"238025","303-VK","2018/06/22 18:19:39","新北市樹林區保安街一段87-1號","121.422208333333","24.9952883333333","6500700","樹林區"
"238017","283-BY","2018/06/22 18:19:44","新北市樹林區保安街二段337巷9號","121.411176666667","25.0082666666667","6500700","樹林區"
"238014","282-BY","2018/06/22 18:19:42","新北市樹林區大安路111巷29號","121.42351","24.9976466666667","6500700","樹林區"
"238020","268-VK","2018/06/22 18:19:30","新北市樹林區三俊街65巷18弄40號","121.415201666667","25.017215","6500700","樹林區"
"238026","172-UY","2018/06/22 18:19:31","新北市樹林區八德街640號","121.396753333333","24.9693766666667","6500700","樹林區"
"238016","169-UY","2018/06/22 18:19:43","新北市樹林區文化街29號","121.418955","24.987795","6500700","樹林區"
"239006","891-R6","2018/06/22 18:19:42","新北市鶯歌區德昌街27號","121.333178333333","24.959625","6500800","鶯歌區"
"239008","527-UM","2018/06/22 18:19:40","新北市鶯歌區國際一路179號","121.336213333333","24.9765366666667","6500800","鶯歌區"
"239005","526-UM","2018/06/22 18:19:30","桃園市八德區桃鶯路137號","121.328651666667","24.9695716666667","6500800","鶯歌區"
"239001","417-VK","2018/06/22 18:19:33","新北市鶯歌區國中街178號","121.338303333333","24.939375","6500800","鶯歌區"
"239003","360-BY","2018/06/22 18:19:33","新北市鶯歌區福安街58號","121.335528333333","24.9652216666667","6500800","鶯歌區"
"239002","359-BY","2018/06/22 18:19:45","新北市鶯歌區文化路305號","121.352538333333","24.95248","6500800","鶯歌區"
"239004","193-VK","2018/06/22 18:19:31","新北市鶯歌區尖山路174巷35弄24號","121.343735","24.948335","6500800","鶯歌區"
"221008","489-VK","2018/06/22 18:19:31","新北市汐止區康寧街753巷2弄12號","121.639451666667","25.0739583333333","6501100","汐止區"
"221036","130-UY","2018/06/22 18:19:39","新北市汐止區長興街一段20號","121.66961","25.0789333333333","6501100","汐止區"
"221015","131-UY","2018/06/22 18:19:26","新北市汐止區鄉長路二段23巷18號","121.667706666667","25.0830183333333","6501100","汐止區"
"221010","269-BY","2018/06/22 18:19:44","新北市汐止區汐萬路二段345號","121.644615","25.0907433333333","6501100","汐止區"
"221012","278-VK","2018/06/22 18:19:43","新北市汐止區保長路35巷20號","121.67332","25.08001","6501100","汐止區"
"221023","279-VK","2018/06/22 18:19:30","新北市汐止區康寧街430號","121.631336666667","25.067575","6501100","汐止區"
"221032","280-BY","2018/06/22 18:19:26","新北市汐止區橫科路2巷15號","121.616448333333","25.0506533333333","6501100","汐止區"
"221027","281-BY","2018/06/22 18:19:35","新北市汐止區和平街38號","121.66266","25.0709416666667","6501100","汐止區"
"221029","298-VK","2018/06/22 18:19:33","新北市汐止區樟樹二路330巷72-1號","121.64297","25.0699216666667","6501100","汐止區"
"221021","299-VK","2018/06/22 18:19:38","新北市汐止區新台五路一段125號","121.651715","25.0616633333333","6501100","汐止區"
"221031","353-TW","2018/06/22 18:19:27","新北市汐止區大同路一段160-1號","121.634488333333","25.0564683333333","6501100","汐止區"
"221035","622-UM","2018/06/22 18:19:40","新北市汐止區大同路二段187巷10弄2號","121.652621666667","25.0657983333333","6501100","汐止區"
"221025","623-UM","2018/06/22 18:19:27","新北市汐止區勤進路12巷37號","121.659175","25.0626733333333","6501100","汐止區"
"221038","646-BX","2018/06/22 18:19:33","新北市汐止區新台五路二段89-1號","121.664885","25.067335","6501100","汐止區"
"221033","647-BX","2018/06/22 18:19:41","新北市汐止區宜興街59巷6號","121.621766666667","25.0427433333333","6501100","汐止區"
"221002","707-TV","2018/06/22 18:19:34","新北市汐止區福德一路213巷35號","121.635835","25.0647716666667","6501100","汐止區"
"221018","753-BX","2018/06/22 18:19:32","新北市汐止區茄苳路118號","121.667986666667","25.0703166666667","6501100","汐止區"
"220082","610-BX","2018/06/22 18:19:32","新北市板橋區華東街1-9號","121.448191666667","24.9949233333333","6500100","板橋區"
"220065","461-BY","2018/06/22 18:19:36","新北市板橋區華東街1-9號","121.448198333333","24.9949066666667","6500100","板橋區"
"242032","280-VK","2018/06/22 18:19:41","新北市新莊區新泰路255巷81號","121.442906666667","25.0393783333333","6500500","新莊區"
"220054","741-BX","2018/06/22 18:19:36","新北市板橋區華東街1-9號","121.448081666667","24.9949116666667","6500100","板橋區"
"235068","KEA-2873","2018/06/22 18:19:26","新北市中和區中正路637巷60弄61號","121.485555","24.9931483333333","6500300","中和區"
"235061","KEA-2875","2018/06/22 18:19:45","新北市中和區國光街215巷24弄10號","121.466755","25.000075","6500300","中和區"
