"lineid","car","time","location","longitude","latitude","cityid","cityname"
"234046","148-BY","2018/06/22 19:19:43","新北市永和區得和路375號","121.524715","24.9995483333333","6500400","永和區"
"234007","207-UY","2018/06/22 19:19:34","新北市永和區中山路一段240號","121.50764","25.00771","6500400","永和區"
"234081","298-R6","2018/06/22 19:19:43","新北市永和區福和路48號","121.523551666667","25.0082","6500400","永和區"
"234038","336-UY","2018/06/22 19:19:34","新北市永和區民樂街59巷5號","121.527946666667","24.998335","6500400","永和區"
"234064","337-UY","2018/06/22 19:19:37","新北市永和區永元路17巷6弄1號","121.521336666667","25.0007966666667","6500400","永和區"
"234086","338-UY","2018/06/22 19:19:43","新北市永和區中正路556號","121.517375","25.0057066666667","6500400","永和區"
"234070","552-UM","2018/06/22 19:19:43","新北市永和區豫溪街37號","121.516665","25.0099466666667","6500400","永和區"
"234050","553-UM","2018/06/22 19:19:36","新北市永和區保福路二段78號","121.510531666667","25.0133466666667","6500400","永和區"
"234017","745-BX","2018/06/22 19:19:36","新北市永和區文化路144巷31弄8號","121.512396666667","25.01676","6500400","永和區"
"234030","746-BX","2018/06/22 19:19:36","新北市永和區厚德街60號","121.52439","24.9988316666667","6500400","永和區"
"234054","KEA-2590","2018/06/22 19:19:38","新北市永和區中興街27號","121.516111666667","25.0119483333333","6500400","永和區"
"234013","KEA-2591","2018/06/22 19:19:30","新北市永和區信義路77號","121.512381666667","25.013285","6500400","永和區"
"234061","AAD-866","2018/06/22 19:19:34","新北市永和區秀朗路一段175號","121.51706","25.003635","6500400","永和區"
"234042","862-TW","2018/06/22 19:19:37","新北市永和區保平路151巷12弄2號","121.5105","25.005105","6500400","永和區"
"234026","9371-KE","2018/06/22 19:19:37","新北市永和區安樂路144巷20號","121.51509","24.9997033333333","6500400","永和區"
"234011","9373-KE","2018/06/22 19:19:27","新北市永和區保福路二段23巷19號","121.51011","25.011135","6500400","永和區"
"249001","173-UM","2018/06/22 19:19:40","新北市八里區文昌路99號","121.408866666667","25.1586383333333","6502300","八里區"
"249003","593-UM","2018/06/22 19:19:46","新北市八里區中山路二段466巷36弄20號","121.398826666667","25.1485633333333","6502300","八里區"
"248008","095-VK","2018/06/22 19:19:33","新北市五股區中興路二段83巷26-6號","121.460046666667","25.0752883333333","6501500","五股區"
"248018","225-UY","2018/06/22 19:18:06","新北市五股區壟路16號","121.415296666667","25.085555","6501500","五股區"
"248012","247-BX","2018/06/22 19:19:33","新北市五股區中興路四段48巷16號","121.4386","25.0834483333333","6501500","五股區"
"248010","272-BY","2018/06/22 19:19:36","新北市五股區自強路90巷72號","121.430696666667","25.071235","6501500","五股區"
"248004","677-BX","2018/06/22 19:19:31","新北市五股區五福路97號","121.432231666667","25.0905666666667","6501500","五股區"
"248002","678-BX","2018/06/22 19:19:31","新北市五股區凌雲路一段158巷13號","121.447768333333","25.1034516666667","6501500","五股區"
"234023","9380-KE","2018/06/22 19:19:45","新北市永和區竹林路124巷12號","121.519285","25.0112816666667","6500400","永和區"
"234077","969-R7","2018/06/22 19:19:41","新北市永和區民族街44號","121.5184","24.998735","6500400","永和區"
"234074","AAC-211","2018/06/22 19:19:32","新北市永和區復興街91號","121.517701666667","25.0141766666667","6500400","永和區"
"234067","AAC-212","2018/06/22 19:19:29","新北市永和區保平路50巷1號","121.511233333333","25.00722","6500400","永和區"
"234003","AAC-295","2018/06/22 19:19:37","新北市永和區中山路一段131號","121.510565","25.0099566666667","6500400","永和區"
"244019","403-UM","2018/06/22 19:19:41","新北市林口區麗園一街15號","121.37702","25.0692066666667","6501700","林口區"
"244013","742-UY","2018/06/22 19:19:37","新北市林口區麗園一街2巷2號","121.375941666667","25.0713833333333","6501700","林口區"
"244023","483-VK","2018/06/22 19:19:40","新北市林口區仁愛路二段377號","121.370331666667","25.079955","6501700","林口區"
"244017","485-VK","2018/06/22 19:19:36","新北市林口區文化二路一段413號","121.372088333333","25.0754533333333","6501700","林口區"
"244011","657-BX","2018/06/22 19:19:37","新北市林口區中山路123巷6號","121.388685","25.0783066666667","6501700","林口區"
"244025","837-TS","2018/06/22 19:19:26","新北市林口區文化三路一段555巷50號","121.36986","25.0770633333333","6501700","林口區"
"244021","838-TS","2018/06/22 19:19:37","新北市八里區長道坑7-3號","121.393198333333","25.1230866666667","6501700","林口區"
"243013","AAD-798","2018/06/22 19:19:45","新北市泰山區明志路三段145巷2弄1號","121.425383333333","25.0399016666667","6501600","泰山區"
"243009","297-R6","2018/06/22 19:19:33","新北市泰山區和平街9-2號","121.434126666667","25.0646216666667","6501600","泰山區"
"243016","380-SR","2018/06/22 19:19:40","新北市泰山區明志路三段146號","121.424481666667","25.03977","6501600","泰山區"
"243015","421-VK","2018/06/22 19:19:35","新北市泰山區公園路9號","121.42954","25.0540833333333","6501600","泰山區"
"243011","KEA-2215","2018/06/22 19:19:38","新北市泰山區中央路9巷2號","121.42634","25.042995","6501600","泰山區"
"243010","KEA-2216","2018/06/22 19:19:36","新北市泰山區明志路二段34號","121.429393333333","25.05339","6501600","泰山區"
"243012","646-TV","2018/06/22 19:19:37","新北市泰山區仁愛路100巷5號","121.433515","25.0553616666667","6501600","泰山區"
"243014","680-BX","2018/06/22 19:19:41","新北市泰山區泰林路二段256號","121.431915","25.062235","6501600","泰山區"
"222003","436-BY","2018/06/22 19:19:33","新北市深坑區深南路204號","121.626615","25.0160383333333","6501800","深坑區"
"222002","659-BX","2018/06/22 19:19:32","新北市深坑區北深路一段177號","121.632541666667","25.010885","6501800","深坑區"
"231041","002-UM","2018/06/22 19:19:44","新北市新店區溪園路203號","121.526548333333","24.9841266666667","6500600","新店區"
"231059","046-UY","2018/06/22 19:19:34","新北市新店區安和路二段173號","121.518596666667","24.9745383333333","6500600","新店區"
"231040","047-UY","2018/06/22 19:19:38","新北市新店區中華路64號","121.539218333333","24.9689883333333","6500600","新店區"
"231044","106-UY","2018/06/22 19:19:28","新北市新店區寶慶街71號","121.541875","24.9864883333333","6500600","新店區"
"231053","108-UY","2018/06/22 19:19:43","新北市新店區屈尺路62巷1號","121.547053333333","24.9226866666667","6500600","新店區"
"231048","187-VK","2018/06/22 19:19:31","新北市新店區德正街27巷34號","121.545683333333","24.9713066666667","6500600","新店區"
"231046","188-VK","2018/06/22 19:19:30","新北市新店區華城路5-3號","121.52927","24.9578716666667","6500600","新店區"
"231054","KEA-2219","2018/06/22 19:19:40","新北市新店區國校路20-1號","121.537901666667","24.9551133333333","6500600","新店區"
"231042","268-BY","2018/06/22 19:19:29","新北市新店區中興路一段112號","121.540833333333","24.96175","6500600","新店區"
"231051","278-BY","2018/06/22 19:19:40","新北市新店區中央路133巷11號","121.53096","24.9735533333333","6500600","新店區"
"231050","AAD-862","2018/06/22 19:19:42","新北市新店區竹林路25巷10號","121.552273333333","24.9514016666667","6500600","新店區"
"231058","3713-VJ","2018/06/22 19:19:42","新北市新店區北新路一段303號","121.541488333333","24.96745","6500600","新店區"
"231066","4716-K9","2018/06/22 19:19:25","新北市新店區安康路三段355巷14號","121.484591666667","24.9500416666667","6500600","新店區"
"231056","4715-K9","2018/06/22 19:19:32","新北市新店區安民街65巷15-2號","121.515445","24.9667216666667","6500600","新店區"
"231067","4772-VM","2018/06/22 19:19:30","新北市新店區安德街60巷35號","121.510856666667","24.9635766666667","6500600","新店區"
"231065","512-UM","2018/06/22 19:19:38","新北市新店區安祥路110巷45號","121.473471666667","24.9566233333333","6500600","新店區"
"231049","513-UM","2018/06/22 19:19:32","新北市新店區明德路119號","121.541246666667","24.9797933333333","6500600","新店區"
"231063","616-UM","2018/06/22 19:19:37","新北市新店區達觀路14巷2號","121.503355","24.9416083333333","6500600","新店區"
"231045","617-UM","2018/06/22 19:19:45","新北市新店區北宜路二段5號","121.547651666667","24.9520433333333","6500600","新店區"
"231061","619-UM","2018/06/22 19:19:43","新北市新店區安康路一段48號","121.530371666667","24.9611016666667","6500600","新店區"
"231064","719-UM","2018/06/22 19:19:28","新北市新店區安忠路57巷5-6號","121.513143333333","24.95877","6500600","新店區"
"231062","720-UM","2018/06/22 19:19:33","新北市新店區莒光路38巷3號","121.522226666667","24.95885","6500600","新店區"
"231060","897-TW","2018/06/22 19:19:45","新北市新店區安康路二段128號","121.512648333333","24.9624566666667","6500600","新店區"
"231043","899-TW","2018/06/22 19:19:39","新北市新店區北新路二段106-1號","121.542995","24.9740566666667","6500600","新店區"
"231055","AKT-0513","2018/06/22 19:19:43","新北市新店區薏仁坑路自強巷6號","121.496818333333","24.9584383333333","6500600","新店區"
"241022","060-VK","2018/06/22 19:19:38","新北市三重區中正北路58號","121.486958333333","25.0643133333333","6500200","三重區"
"241031","061-VK","2018/06/22 19:19:26","新北市三重區重新路四段242-1號","121.4857","25.0537233333333","6500200","三重區"
"241017","063-VK","2018/06/22 19:19:28","新北市三重區大同北路213號","121.491831666667","25.06562","6500200","三重區"
"241026","066-VK","2018/06/22 19:19:28","新北市三重區正義南路86巷2號","121.49894","25.057715","6500200","三重區"
"241009","267-UM","2018/06/22 19:19:28","新北市三重區溪尾街230巷69號","121.486065","25.0811616666667","6500200","三重區"
"241007","398-BY","2018/06/22 19:19:45","新北市三重區慈愛街51號","121.486101666667","25.079145","6500200","三重區"
"241035","462-BY","2018/06/22 19:19:30","新北市三重區重陽路三段5巷48號","121.492088333333","25.06487","6500200","三重區"
"241020","478-VK","2018/06/22 19:19:46","新北市三重區大智街161號","121.489868333333","25.07231","6500200","三重區"
"241030","480-VK","2018/06/22 19:19:40","新北市三重區成功路41巷72號","121.491416666667","25.0532633333333","6500200","三重區"
"241006","AAD-863","2018/06/22 19:19:31","新北市三重區車路頭街149-2號","121.483756666667","25.0768133333333","6500200","三重區"
"241029","942-UM","2018/06/22 19:19:29","新北市三重區重安街62號","121.49112","25.05734","6500200","三重區"
"235064","005-UY","2018/06/22 19:19:46","新北市中和區連城路2號","121.49932","25.0024166666667","6500300","中和區"
"235063","006-UY","2018/06/22 19:19:35","新北市中和區連城路249巷26弄1號","121.49463","24.9952433333333","6500300","中和區"
"235056","096-UM","2018/06/22 19:19:39","新北市中和區員山路521號","121.479736666667","25.0067033333333","6500300","中和區"
"235039","097-UM","2018/06/22 19:19:29","新北市中和區秀峰街79巷2號","121.521763333333","24.9902283333333","6500300","中和區"
"235065","098-UM","2018/06/22 19:19:34","新北市中和區中山路二段2巷5弄7號","121.504391666667","25.006195","6500300","中和區"
"235040","150-BY","2018/06/22 19:19:26","新北市中和區保健路50巷34號","121.509845","24.996215","6500300","中和區"
"235058","151-BY","2018/06/22 19:19:28","新北市中和區連城路523巷9弄2號","121.481703333333","24.9945033333333","6500300","中和區"
"235055","183-VK","2018/06/22 19:19:25","新北市中和區德光路24號","121.470918333333","25.0044233333333","6500300","中和區"
"235038","185-VK","2018/06/22 19:19:35","新北市中和區大仁街10巷48-6號","121.52027","24.9925733333333","6500300","中和區"
"235049","186-VK","2018/06/22 19:19:32","新北市中和區景新街235號","121.5081","24.9944933333333","6500300","中和區"
"235067","255-BX","2018/06/22 19:19:36","新北市中和區新生街122號","121.483436666667","25.0013933333333","6500300","中和區"
"235044","293-VK","2018/06/22 19:19:36","新北市中和區復興路306號","121.501283333333","24.990435","6500300","中和區"
"235072","301-VK","2018/06/22 19:19:27","新北市中和區連城路265巷10弄1號","121.491676666667","24.9952166666667","6500300","中和區"
"235043","352-BY","2018/06/22 19:19:45","新北市中和區景平路426號","121.507405","24.9932933333333","6500300","中和區"
"235042","KEA-2878","2018/06/22 19:19:45","新北市中和區大勇街60巷6號","121.518565","24.9946266666667","6500300","中和區"
"235050","4979-A6","2018/06/22 19:19:39","新北市中和區景安路208巷3號","121.503691666667","24.9910083333333","6500300","中和區"
"235069","4980-A6","2018/06/22 19:19:34","新北市中和區中山路二段136巷16號","121.501635","25.0040066666667","6500300","中和區"
"235070","558-UM","2018/06/22 19:19:41","新北市中和區中山路二段247號","121.497868333333","25.002405","6500300","中和區"
"235045","565-BX","2018/06/22 19:19:40","新北市中和區景新街423巷35弄23號","121.513906666667","24.990485","6500300","中和區"
"235054","640-BX","2018/06/22 19:19:43","新北市中和區國光街109巷27號","121.469475","24.9993883333333","6500300","中和區"
"235060","647-TV","2018/06/22 19:19:37","新北市中和區員山路469巷1號","121.480351666667","25.0045883333333","6500300","中和區"
"235047","732-UM","2018/06/22 19:19:31","新北市中和區景平路239巷53弄7號","121.508996666667","24.9917266666667","6500300","中和區"
"235046","733-UM","2018/06/22 19:19:30","新北市中和區忠孝街2巷13弄2號","121.510456666667","24.9818716666667","6500300","中和區"
"235071","783-BX","2018/06/22 19:19:27","新北市中和區中正路637巷52弄1號","121.48551","24.9937616666667","6500300","中和區"
"235062","800-TS","2018/06/22 19:19:25","新北市中和區建康路191號","121.492483333333","25.0007016666667","6500300","中和區"
"235057","801-TS","2018/06/22 19:19:37","新北市中和區員山路307號","121.481233333333","25.0001916666667","6500300","中和區"
"235041","802-TS","2018/06/22 19:19:44","新北市永和區中和路345號","121.507943333333","24.999745","6500300","中和區"
"235052","805-TS","2018/06/22 19:19:37","新北市中和區華新街232巷10號","121.50579","24.9822616666667","6500300","中和區"
"235048","896-TW","2018/06/22 19:19:37","新北市中和區忠孝街79號","121.512145","24.985225","6500300","中和區"
"235053","900-TW","2018/06/22 19:19:42","新北市中和區民德路216號","121.468191666667","24.9980433333333","6500300","中和區"
"235066","911-UM","2018/06/22 19:19:38","新北市中和區中和路102號","121.502661666667","24.999685","6500300","中和區"
"235051","157-BY","2018/06/22 19:19:24","新北市中和區和平街38巷5號","121.509288333333","24.99085","6500300","中和區"
"235037","AAC-213","2018/06/22 19:19:28","新北市中和區自立路15巷8號","121.52296","24.9959883333333","6500300","中和區"
"235059","AAC-215","2018/06/22 19:19:39","新北市中和區圓通路286巷16-5號","121.491578333333","24.9913666666667","6500300","中和區"
"220068","013-TV","2018/06/22 19:19:46","新北市板橋區翠華街6巷27號","121.481456666667","25.0244","6500100","板橋區"
"220072","015-TV","2018/06/22 19:19:36","新北市板橋區金門街369巷57弄6號","121.429086666667","24.98391","6500100","板橋區"
"220086","073-UY","2018/06/22 19:19:39","新北市板橋區中正路216巷118號","121.459423333333","25.0193066666667","6500100","板橋區"
"220106","075-UY","2018/06/22 19:19:27","新北市板橋區雙十路三段74號","121.470191666667","25.0327","6500100","板橋區"
"220069","AAD-861","2018/06/22 19:19:26","新北市板橋區貴興路41號","121.457473333333","25.003645","6500100","板橋區"
"226004","205-ST","2018/06/22 19:19:45","新北市平溪區靜安路三段331號","121.7794","25.0445766666667","6502400","平溪區"
"228003","097-TW","2018/06/22 19:19:37","新北市貢寮區和美里和美街19-2號","121.912856666667","25.0825733333333","6502600","貢寮區"
"228001","212-TW","2018/06/22 19:19:33","新北市貢寮區真理里新港街10號","121.925506666667","25.0543666666667","6502600","貢寮區"
"228002","663-BX","2018/06/22 19:19:29","新北市貢寮區龍門里復興街14號","121.926448333333","25.02564","6502600","貢寮區"
"224010","AGQ-8101","2018/06/22 19:07:42","新北市瑞芳區烏勢巷5號","121.845091666667","25.1083766666667","6501200","瑞芳區"
"224008","285-BY","2018/06/22 19:19:38","新北市瑞芳區一坑路317號","121.801423333333","25.1090033333333","6501200","瑞芳區"
"227003","642-TC","2018/06/22 19:19:41","新北市雙溪區平林里梅竹蹊66-1號","121.860153333333","25.03582","6502500","雙溪區"
"227011","400-TW","2018/06/22 19:19:41","新北市雙溪區新基里新基北街40號","121.86865","25.0380833333333","6502500","雙溪區"
"253005","032-BX","2018/06/22 19:19:42","新北市石門區阿里荖6-2號","121.609851666667","25.2799616666667","6502200","石門區"
"253006","295-VK","2018/06/22 19:19:45","新北市石門區楓林23-18號","121.538281666667","25.290805","6502200","石門區"
"222001","KEA-2212","2018/06/22 19:19:24","新北市深坑區北深路二段103號","121.617465","25.0034166666667","6501800","深坑區"
"208002","KEA-2872","2018/06/22 19:19:44","新北市金山區中正路86號","121.633595","25.22183","6502700","金山區"
"208003","665-BX","2018/06/22 19:19:36","新北市金山區忠孝一路68號","121.637293333333","25.2206083333333","6502700","金山區"
"208001","761-BX","2018/06/22 19:19:29","新北市金山區民生路69號","121.640165","25.21966","6502700","金山區"
"251001","011-UM","2018/06/22 19:19:40","新北市淡水區自強路201巷39號","121.462076666667","25.1268266666667","6501000","淡水區"
"251010","413-VK","2018/06/22 19:19:39","新北市淡水區沙崙路27號","121.421573333333","25.1815833333333","6501000","淡水區"
"251007","442-VK","2018/06/22 19:19:40","新北市淡水區民生路117巷21號","121.46489","25.1394316666667","6501000","淡水區"
"251005","443-VK","2018/06/22 19:19:46","新北市淡水區水源街一段33號","121.443578333333","25.1723133333333","6501000","淡水區"
"251006","561-UM","2018/06/22 19:19:37","新北市淡水區大信街33號","121.441986666667","25.1773083333333","6501000","淡水區"
"251009","575-R6","2018/06/22 19:19:36","新北市淡水區大忠街5巷2號","121.443176666667","25.1764066666667","6501000","淡水區"
"251003","673-BX","2018/06/22 19:19:43","新北市淡水區中山北路一段174號","121.444473333333","25.17883","6501000","淡水區"
"207003","550-UM","2018/06/22 19:19:35","新北市萬里區大鵬里萬里加投79-3號","121.647308333333","25.2123366666667","6502800","萬里區"
"207004","225-TW","2018/06/22 19:19:37","新北市萬里區萬里里成功新村42號","121.687596666667","25.1747916666667","6502800","萬里區"
"252002","178-VK","2018/06/22 19:19:38","新北市三芝區淡金路二段18-1號","121.5027","25.2595266666667","6502100","三芝區"
"252001","702-TV","2018/06/22 19:19:28","新北市三芝區長勤街9巷9弄2號","121.501786666667","25.25503","6502100","三芝區"
"237004","KEA-2597","2018/06/22 19:19:27","新北市三峽區有木206號","121.439126666667","24.8514716666667","6500900","三峽區"
"237007","153-BY","2018/06/22 19:19:38","新北市三峽區二鬮路61-3號","121.359808333333","24.9076766666667","6500900","三峽區"
"237009","210-TH","2018/06/22 19:19:33","新北市三峽區文化路144號","121.370468333333","24.9362016666667","6500900","三峽區"
"237013","252-BX","2018/06/22 19:19:33","新北市三峽區光明路75巷19號","121.37733","24.9280533333333","6500900","三峽區"
"237012","275-BY","2018/06/22 19:19:28","新北市三峽區三樹路222巷150-1號","121.386055","24.9428033333333","6500900","三峽區"
"237008","302-VK","2018/06/22 19:19:42","新北市三峽區大同路154號","121.3731","24.9267866666667","6500900","三峽區"
"237014","433-BY","2018/06/22 19:19:34","新北市三峽區中山路257巷1號","121.362476666667","24.9372883333333","6500900","三峽區"
"237006","5529-G3","2018/06/22 19:19:36","新北市三峽區中正路一段336巷15弄2號","121.369973333333","24.9249033333333","6500900","三峽區"
"237011","KEA-2596","2018/06/22 19:19:34","新北市三峽區介壽路二段121號","121.392706666667","24.9356116666667","6500900","三峽區"
"237015","649-BX","2018/06/22 19:19:38","新北市三峽區建安25-3號","121.445375","24.92732","6500900","三峽區"
"237010","706-TV","2018/06/22 19:19:29","新北市三峽區復興路49號","121.373405","24.9370133333333","6500900","三峽區"
"236069","105-UM","2018/06/22 19:19:36","新北市土城區學成路122號","121.449428333333","24.989495","6501300","土城區"
"236042","107-UM","2018/06/22 19:19:39","新北市土城區學府路一段276號","121.450175","24.9831366666667","6501300","土城區"
"236079","166-UM","2018/06/22 19:19:47","新北市土城區中央路四段183號","121.414973333333","24.9567433333333","6501300","土城區"
"236026","269-VK","2018/06/22 19:19:35","新北市土城區中央路二段61巷22號","121.443211666667","24.9787616666667","6501300","土城區"
"236014","270-VK","2018/06/22 19:19:36","新北市土城區廣福街5號","121.457263333333","24.9887683333333","6501300","土城區"
"236020","401-BY","2018/06/22 19:19:27","新北市土城區金城路三段200-5號","121.468733333333","24.9877183333333","6501300","土城區"
"236059","912-UM","2018/06/22 19:19:37","新北市土城區光明街28巷30號","121.441428333333","24.9742766666667","6501300","土城區"
"236048","913-UM","2018/06/22 19:19:27","新北市土城區明德路一段365-1號","121.453646666667","24.97907","6501300","土城區"
"236055","AAC-216","2018/06/22 19:19:33","新北市土城區學府路一段276號","121.449883333333","24.9829666666667","6501300","土城區"
"238015","755-BX","2018/06/22 19:19:38","新北市樹林區大安路568-4號","121.412038333333","24.9838533333333","6500700","樹林區"
"238023","601-UM","2018/06/22 19:19:33","新北市樹林區三興路43號","121.395756666667","25.0144416666667","6500700","樹林區"
"238019","599-UM","2018/06/22 19:19:42","新北市樹林區鎮前街347巷8號","121.416808333333","24.98347","6500700","樹林區"
"238018","571-TV","2018/06/22 19:19:38","新北市樹林區中華路181號","121.420718333333","24.981625","6500700","樹林區"
"238024","5061-A6","2018/06/22 19:19:34","新北市樹林區福德街43-1號","121.40015","24.975115","6500700","樹林區"
"238022","KEA-2213","2018/06/22 19:19:24","新北市樹林區中華路213號","121.4196","24.9814016666667","6500700","樹林區"
"238021","KEA-2539","2018/06/22 19:19:30","新北市樹林區柑園街二段303巷18號","121.37297","24.9494116666667","6500700","樹林區"
"238025","303-VK","2018/06/22 19:19:28","新北市樹林區中山路一段238號","121.421151666667","24.9877083333333","6500700","樹林區"
"238017","283-BY","2018/06/22 19:19:43","新北市樹林區光興街11巷1號","121.412423333333","25.0028433333333","6500700","樹林區"
"238014","282-BY","2018/06/22 19:19:41","新北市樹林區保安二街10號","121.425145","24.9938783333333","6500700","樹林區"
"238020","268-VK","2018/06/22 19:19:30","新北市樹林區俊英街121巷3號","121.424213333333","25.010195","6500700","樹林區"
"238026","172-UY","2018/06/22 19:19:31","新北市樹林區佳園路二段141號","121.390191666667","24.957685","6500700","樹林區"
"238016","169-UY","2018/06/22 19:19:02","新北市樹林區復興路464巷13號","121.413118333333","24.9834466666667","6500700","樹林區"
"239006","891-R6","2018/06/22 19:19:42","新北市鶯歌區鶯桃路69號","121.34107","24.9528716666667","6500800","鶯歌區"
"239008","527-UM","2018/06/22 19:19:40","新北市鶯歌區大湖路532號","121.337098333333","24.9726866666667","6500800","鶯歌區"
"239005","526-UM","2018/06/22 19:19:30","新北市鶯歌區中湖街330號","121.347235","24.977935","6500800","鶯歌區"
"239001","417-VK","2018/06/22 19:19:33","新北市鶯歌區建國路459號","121.339236666667","24.9519616666667","6500800","鶯歌區"
"239003","360-BY","2018/06/22 19:19:33","新北市鶯歌區文化路124號","121.351875","24.95195","6500800","鶯歌區"
"239002","359-BY","2018/06/22 19:19:45","新北市鶯歌區大湖路418號","121.342435","24.9729783333333","6500800","鶯歌區"
"239004","193-VK","2018/06/22 19:19:30","新北市鶯歌區二甲路20-3號","121.33981","24.9355866666667","6500800","鶯歌區"
"221008","489-VK","2018/06/22 19:19:31","新北市汐止區康寧街277號","121.625961666667","25.0670983333333","6501100","汐止區"
"221036","130-UY","2018/06/22 19:19:39","新北市汐止區汐萬路一段312號","121.650565","25.0754533333333","6501100","汐止區"
"221015","131-UY","2018/06/22 19:19:46","新北市汐止區康寧街901號","121.651581666667","25.0749383333333","6501100","汐止區"
"221010","269-BY","2018/06/22 19:19:43","新北市汐止區康寧街901號","121.651378333333","25.0749816666667","6501100","汐止區"
"221012","278-VK","2018/06/22 19:19:43","新北市汐止區汐萬路一段312號","121.650393333333","25.07495","6501100","汐止區"
"221023","279-VK","2018/06/22 19:19:30","新北市汐止區康寧街901號","121.650963333333","25.0752033333333","6501100","汐止區"
"221027","281-BY","2018/06/22 19:19:35","新北市汐止區汐萬路一段312號","121.650456666667","25.0753383333333","6501100","汐止區"
"221029","298-VK","2018/06/22 19:19:33","新北市汐止區康寧街901號","121.651623333333","25.0749583333333","6501100","汐止區"
"221021","299-VK","2018/06/22 19:19:38","新北市汐止區康寧街901號","121.651508333333","25.075015","6501100","汐止區"
"221031","353-TW","2018/06/22 19:17:01","新北市汐止區康寧街901號","121.650808333333","25.0752866666667","6501100","汐止區"
"221025","623-UM","2018/06/22 19:19:47","新北市汐止區康寧街901號","121.651321666667","25.0750733333333","6501100","汐止區"
"221038","646-BX","2018/06/22 19:19:33","新北市汐止區汐萬路一段312號","121.650643333333","25.0752816666667","6501100","汐止區"
"221033","647-BX","2018/06/22 19:19:40","新北市汐止區南勢街1巷3號","121.626985","25.03766","6501100","汐止區"
"221002","707-TV","2018/06/22 19:19:34","新北市汐止區大同路一段359號","121.64023","25.060065","6501100","汐止區"
"220079","145-BY","2018/06/22 19:19:42","新北市板橋區民權路202巷34號","121.46086","25.017425","6500100","板橋區"
"220080","200-UY","2018/06/22 19:19:42","新北市板橋區大觀路二段19巷20號","121.447556666667","25.0031566666667","6500100","板橋區"
"220082","610-BX","2018/06/22 19:19:34","新北市板橋區金門街365號","121.428373333333","24.984735","6500100","板橋區"
"220101","245-BX","2018/06/22 19:19:29","新北市板橋區雙十路二段76巷2號","121.475133333333","25.028075","6500100","板橋區"
"220055","256-TC","2018/06/22 19:19:39","新北市板橋區館前東路156巷30號","121.464243333333","25.0068216666667","6500100","板橋區"
"220056","276-BY","2018/06/22 19:19:39","新北市板橋區信義路85號","121.457338333333","24.9941333333333","6500100","板橋區"
"220077","282-UM","2018/06/22 19:19:44","新北市板橋區僑中二街88巷2號","121.446478333333","25.0094183333333","6500100","板橋區"
"220071","283-VK","2018/06/22 19:19:44","新北市板橋區大豐街111號","121.461236666667","25.00115","6500100","板橋區"
"220094","285-UM","2018/06/22 19:19:35","新北市板橋區吳鳳路82號","121.466996666667","25.03125","6500100","板橋區"
"220053","285-VK","2018/06/22 19:19:42","新北市板橋區富山街34號","121.478001666667","25.02191","6500100","板橋區"
"220083","286-VK","2018/06/22 19:19:31","新北市板橋區大觀路二段174巷166弄2號","121.441898333333","25.0033416666667","6500100","板橋區"
"220081","287-VK","2018/06/22 19:19:26","新北市板橋區南雅東路29巷11號","121.453546666667","25.005425","6500100","板橋區"
"220090","288-VK","2018/06/22 19:19:36","新北市板橋區長江路一段156巷7號","121.461441666667","25.0298233333333","6500100","板橋區"
"220061","293-UM","2018/06/22 19:19:39","新北市板橋區中山路二段318巷20弄19號","121.48091","25.018895","6500100","板橋區"
"220062","295-UM","2018/06/22 19:19:30","新北市板橋區三民路二段153巷8弄3號","121.481045","25.015035","6500100","板橋區"
"220084","296-UM","2018/06/22 19:19:44","新北市板橋區滿平街136巷8弄12號","121.427421666667","24.98765","6500100","板橋區"
"220075","303-R5","2018/06/22 19:19:24","新北市板橋區南雅西路一段10巷7弄1號","121.454591666667","25.004495","6500100","板橋區"
"220098","317-R6","2018/06/22 19:19:31","新北市板橋區民有街88號","121.464948333333","25.0273666666667","6500100","板橋區"
"220065","461-BY","2018/06/22 19:19:36","新北市板橋區國泰街74號","121.467436666667","25.0065566666667","6500100","板橋區"
"220064","486-VK","2018/06/22 19:19:35","新北市板橋區縣民大道二段68號","121.463051666667","25.0128133333333","6500100","板橋區"
"220088","491-VK","2018/06/22 19:19:46","新北市板橋區雙十路一段1號","121.47827","25.02392","6500100","板橋區"
"220035","560-BX","2018/06/22 19:19:41","新北市板橋區中正路360巷24號","121.455373333333","25.0233683333333","6500100","板橋區"
"220103","561-BX","2018/06/22 19:19:40","新北市板橋區介壽街21號","121.468051666667","25.0200566666667","6500100","板橋區"
"220063","609-BX","2018/06/22 19:19:39","新北市板橋區三民路二段27號","121.479305","25.0180516666667","6500100","板橋區"
"220091","637-BX","2018/06/22 19:19:26","新北市板橋區文聖街76號","121.477255","25.0302","6500100","板橋區"
"220057","686-BX","2018/06/22 19:19:37","新北市中和區和平路200巷1-8號","121.46455","24.9954333333333","6500100","板橋區"
"220093","689-BX","2018/06/22 19:19:33","新北市板橋區文化路一段184號","121.465835","25.0196966666667","6500100","板橋區"
"220054","741-BX","2018/06/22 19:19:36","新北市板橋區校前街38號","121.460931666667","25.0032083333333","6500100","板橋區"
"220102","KEA-2699","2018/06/22 19:19:33","新北市板橋區萬板路572號","121.481155","25.0271","6500100","板橋區"
"220067","830-TW","2018/06/22 19:19:40","新北市板橋區長安街138巷7弄45號","121.47391","25.0091516666667","6500100","板橋區"
"220096","831-TW","2018/06/22 19:19:43","新北市板橋區大同街37號","121.477961666667","25.0272683333333","6500100","板橋區"
"220089","833-TW","2018/06/22 19:19:40","新北市板橋區文化路一段339號","121.466578333333","25.0206016666667","6500100","板橋區"
"220074","895-R6","2018/06/22 19:19:27","新北市板橋區中正路1巷18-1號","121.455208333333","25.01158","6500100","板橋區"
"220073","985-R7","2018/06/22 19:19:37","新北市板橋區新生街62號","121.457093333333","25.02088","6500100","板橋區"
"220097","AAC-210","2018/06/22 19:19:35","新北市板橋區幸福路60巷32號","121.460246666667","25.021625","6500100","板橋區"
"220070","AAC-253","2018/06/22 19:19:43","新北市板橋區忠孝路33-1號","121.460801666667","25.0020466666667","6500100","板橋區"
"235068","KEA-2873","2018/06/22 19:19:26","新北市中和區景平路545巷1弄4號","121.498405","24.9989683333333","6500300","中和區"
"235061","KEA-2875","2018/06/22 19:19:45","新北市中和區連城路446-2號","121.479476666667","24.9948133333333","6500300","中和區"
