"lineid","car","time","location","longitude","latitude","cityid","cityname"
"234046","148-BY","2018/06/22 19:39:43","新北市永和區秀朗路二段68號","121.522805","25.0015733333333","6500400","永和區"
"234007","207-UY","2018/06/22 19:39:45","新北市中和區中和路446號","121.512098333333","25.0035833333333","6500400","永和區"
"234081","298-R6","2018/06/22 19:39:23","新北市永和區國中路104巷6號","121.524671666667","25.00686","6500400","永和區"
"234038","336-UY","2018/06/22 19:39:34","新北市永和區成功路一段127號","121.526913333333","25.0018533333333","6500400","永和區"
"234064","337-UY","2018/06/22 19:39:37","新北市永和區秀朗路一段192巷6弄14號","121.519171666667","25.0022533333333","6500400","永和區"
"234086","338-UY","2018/06/22 19:39:43","新北市永和區林森路29巷4號","121.526213333333","25.0050333333333","6500400","永和區"
"234070","552-UM","2018/06/22 19:39:28","新北市永和區永和路二段216號","121.515621666667","25.0141016666667","6500400","永和區"
"234050","553-UM","2018/06/22 19:39:36","新北市永和區保福路二段163巷2號","121.509371666667","25.014745","6500400","永和區"
"234017","745-BX","2018/06/22 19:39:36","新北市永和區永和路二段425巷70號","121.51357","25.0172033333333","6500400","永和區"
"234030","746-BX","2018/06/22 19:39:36","新北市永和區民生路39號","121.522765","24.9981283333333","6500400","永和區"
"234054","KEA-2590","2018/06/22 19:39:38","新北市永和區竹林路39巷14號","121.5185","25.0145066666667","6500400","永和區"
"234013","KEA-2591","2018/06/22 19:39:30","新北市永和區永平路220號","121.509076666667","25.010555","6500400","永和區"
"234061","AAD-866","2018/06/22 19:39:34","新北市永和區中正路456號","121.51742","25.0029116666667","6500400","永和區"
"234042","862-TW","2018/06/22 19:39:37","新北市永和區中和路305巷2弄1號","121.506726666667","25.0000483333333","6500400","永和區"
"234026","9371-KE","2018/06/22 19:39:37","新北市永和區中和路501巷5號","121.510476666667","25.0025716666667","6500400","永和區"
"234011","9373-KE","2018/06/22 19:39:47","新北市永和區保生路55-1號","121.504495","25.0108933333333","6500400","永和區"
"249004","303-UY","2018/06/22 19:39:31","新北市八里區仁愛路10號","121.413263333333","25.1623433333333","6502300","八里區"
"249002","305-UY","2018/06/22 19:39:45","新北市八里區頂寮二街48巷1-1號","121.450256666667","25.12537","6502300","八里區"
"249003","593-UM","2018/06/22 19:39:06","新北市八里區舊城路19-1號","121.399816666667","25.1461783333333","6502300","八里區"
"248014","025-BX","2018/06/22 19:39:46","新北市五股區五福路68巷1弄4號","121.433416666667","25.0906866666667","6501500","五股區"
"248016","026-BX","2018/06/22 19:39:40","新北市五股區成泰路四段88號","121.4572","25.111245","6501500","五股區"
"248008","095-VK","2018/06/22 19:39:33","新北市五股區四維路118巷13號","121.469318333333","25.0743183333333","6501500","五股區"
"248018","225-UY","2018/06/22 19:18:06","新北市五股區壟路16號","121.415296666667","25.085555","6501500","五股區"
"248012","247-BX","2018/06/22 19:39:33","新北市五股區成泰路一段241巷10號","121.436195","25.081015","6501500","五股區"
"248010","272-BY","2018/06/22 19:39:36","新北市五股區自強路115號","121.432293333333","25.0705033333333","6501500","五股區"
"248004","677-BX","2018/06/22 19:39:48","新北市五股區成泰路二段78號","121.437428333333","25.0822016666667","6501500","五股區"
"248002","678-BX","2018/06/22 19:39:36","新北市五股區成泰路三段577巷48號","121.450901666667","25.1031933333333","6501500","五股區"
"234077","969-R7","2018/06/22 19:39:41","新北市永和區民權路33號","121.519931666667","24.997735","6500400","永和區"
"234074","AAC-211","2018/06/22 19:39:32","新北市永和區竹林路213巷44號","121.523281666667","25.009055","6500400","永和區"
"234067","AAC-212","2018/06/22 19:39:30","新北市永和區中山路一段191巷2弄1號","121.50939","25.0085416666667","6500400","永和區"
"234003","AAC-295","2018/06/22 19:39:37","新北市永和區自由街53號","121.513668333333","25.0056033333333","6500400","永和區"
"244019","403-UM","2018/06/22 19:39:41","新北市林口區頂福里34號","121.355063333333","25.099705","6501700","林口區"
"244023","483-VK","2018/06/22 19:39:20","新北市林口區仁愛路二段271號","121.373351666667","25.0775866666667","6501700","林口區"
"243013","AAD-798","2018/06/22 19:39:45","新北市泰山區明志路三段6巷16號","121.423915","25.0436216666667","6501600","泰山區"
"243009","297-R6","2018/06/22 19:39:27","新北市泰山區美寧街68號","121.43107","25.06468","6501600","泰山區"
"243016","380-SR","2018/06/22 19:39:40","新北市泰山區明志路三段427號","121.420853333333","25.033215","6501600","泰山區"
"243015","421-VK","2018/06/22 19:39:35","新北市泰山區明志路二段235號","121.427391666667","25.04817","6501600","泰山區"
"243011","KEA-2215","2018/06/22 19:39:38","新北市泰山區中山路二段661號","121.429796666667","25.039815","6501600","泰山區"
"243010","KEA-2216","2018/06/22 19:39:30","新北市泰山區民生路33號","121.430891666667","25.0521366666667","6501600","泰山區"
"243012","646-TV","2018/06/22 19:39:44","新北市泰山區仁愛路100巷32號","121.43341","25.05513","6501600","泰山區"
"243014","680-BX","2018/06/22 19:39:41","新北市泰山區仁愛路41號","121.432141666667","25.0552033333333","6501600","泰山區"
"222003","436-BY","2018/06/22 19:39:33","新北市深坑區深南路51-1號","121.621215","25.0098333333333","6501800","深坑區"
"222002","659-BX","2018/06/22 19:39:32","新北市深坑區北深路一段177號","121.632525","25.0108516666667","6501800","深坑區"
"231041","002-UM","2018/06/22 19:39:44","新北市新店區中正路485號","121.53388","24.982025","6500600","新店區"
"231059","046-UY","2018/06/22 19:39:36","新北市新店區安和路三段60-1號","121.51807","24.9827466666667","6500600","新店區"
"231040","047-UY","2018/06/22 19:39:28","新北市新店區中正路75巷71號","121.543095","24.968845","6500600","新店區"
"231044","106-UY","2018/06/22 19:39:28","新北市新店區北新路三段173-3號","121.541113333333","24.984125","6500600","新店區"
"231053","108-UY","2018/06/22 19:39:43","新北市新店區廣興路110號","121.536495","24.9119033333333","6500600","新店區"
"231048","187-VK","2018/06/22 19:39:31","新北市新店區中興路一段288巷10號","121.54634","24.9687","6500600","新店區"
"231046","188-VK","2018/06/22 19:39:30","新北市新店區中正路331-1號","121.535975","24.9751366666667","6500600","新店區"
"231054","KEA-2219","2018/06/22 19:39:40","新北市新店區文中路45號","121.539501666667","24.9567983333333","6500600","新店區"
"231057","256-BX","2018/06/22 19:39:35","新北市新店區橘園一路11號","121.547993333333","24.934035","6500600","新店區"
"231042","268-BY","2018/06/22 19:39:29","新北市新店區中興路一段200號","121.543695","24.96524","6500600","新店區"
"231051","278-BY","2018/06/22 19:39:40","新北市新店區中央五街1號","121.530216666667","24.974045","6500600","新店區"
"231050","AAD-862","2018/06/22 19:37:42","新北市新店區秀水路50號","121.555438333333","24.9564166666667","6500600","新店區"
"231058","3713-VJ","2018/06/22 19:39:42","新北市新店區北新路二段2號","121.542815","24.970695","6500600","新店區"
"231066","4716-K9","2018/06/22 19:39:45","新北市新店區安康路三段165巷5號","121.48971","24.9512866666667","6500600","新店區"
"231056","4715-K9","2018/06/22 19:39:32","新北市新店區溪園路365-8號","121.521476666667","24.980595","6500600","新店區"
"231067","4772-VM","2018/06/22 19:39:30","新北市新店區精忠路10-1號","121.532658333333","24.9590633333333","6500600","新店區"
"231065","512-UM","2018/06/22 19:39:38","新北市新店區安祥路109巷85弄31號","121.478416666667","24.9599616666667","6500600","新店區"
"231049","513-UM","2018/06/22 19:39:32","新北市新店區大豐路60號","121.539593333333","24.9797283333333","6500600","新店區"
"231063","616-UM","2018/06/22 19:39:37","新北市新店區達觀路8巷5號","121.504011666667","24.94345","6500600","新店區"
"231045","617-UM","2018/06/22 19:39:45","新北市新店區北宜路二段423-1號","121.560486666667","24.9545133333333","6500600","新店區"
"231061","619-UM","2018/06/22 19:39:43","新北市新店區安民街36號","121.515828333333","24.96524","6500600","新店區"
"231064","719-UM","2018/06/22 19:39:28","新北市新店區安和路一段52巷2號","121.517616666667","24.9661766666667","6500600","新店區"
"231062","720-UM","2018/06/22 19:39:40","新北市新店區碧潭路23號","121.534311666667","24.9562016666667","6500600","新店區"
"231060","897-TW","2018/06/22 19:39:45","新北市新店區安康路二段161號","121.510118333333","24.9594216666667","6500600","新店區"
"231043","899-TW","2018/06/22 19:39:39","新北市新店區北新路二段4號","121.542733333333","24.9709833333333","6500600","新店區"
"231055","AKT-0513","2018/06/22 19:39:43","新北市新店區力行路14巷4號","121.539345","24.9648916666667","6500600","新店區"
"241011","013-R5","2018/06/22 19:39:28","新北市三重區仁愛街20號","121.496676666667","25.0713","6500200","三重區"
"241028","022-UY","2018/06/22 19:39:40","新北市三重區中正南路196號","121.493936666667","25.0560216666667","6500200","三重區"
"241008","059-VK","2018/06/22 19:39:44","新北市三重區永福街127號","121.478926666667","25.07687","6500200","三重區"
"241022","060-VK","2018/06/22 19:39:41","新北市三重區中正北路166號","121.484366666667","25.0662","6500200","三重區"
"241031","061-VK","2018/06/22 19:39:26","新北市三重區重新路四段250-1號","121.486048333333","25.0535316666667","6500200","三重區"
"241015","062-VK","2018/06/22 19:39:32","新北市三重區福德北路30號","121.50214","25.065045","6500200","三重區"
"241017","063-VK","2018/06/22 19:39:28","新北市三重區重陽路三段5巷48號","121.492016666667","25.0649466666667","6500200","三重區"
"241026","066-VK","2018/06/22 19:39:28","新北市三重區文化南路42號","121.500375","25.0602233333333","6500200","三重區"
"241003","265-UM","2018/06/22 19:39:28","新北市三重區五華街93巷64號","121.494063333333","25.0851633333333","6500200","三重區"
"241009","267-UM","2018/06/22 19:39:28","新北市三重區三和路四段400巷24號","121.48033","25.0791383333333","6500200","三重區"
"241013","270-UM","2018/06/22 19:39:41","新北市三重區仁賢街5號","121.495823333333","25.074605","6500200","三重區"
"241025","271-UM","2018/06/22 19:39:35","新北市三重區忠孝路三段99巷11號","121.480088333333","25.0645716666667","6500200","三重區"
"241007","398-BY","2018/06/22 19:39:45","新北市三重區三和路四段125巷70號","121.487103333333","25.0786116666667","6500200","三重區"
"241035","462-BY","2018/06/22 19:39:33","新北市三重區正義北路99號","121.497193333333","25.0654616666667","6500200","三重區"
"241020","478-VK","2018/06/22 19:39:25","新北市三重區三和路四段20巷99號","121.488148333333","25.0732883333333","6500200","三重區"
"241030","480-VK","2018/06/22 19:39:40","新北市三重區新興路24號","121.49212","25.0532616666667","6500200","三重區"
"241014","543-UM","2018/06/22 19:39:34","新北市三重區長榮路131號","121.504205","25.069365","6500200","三重區"
"241019","KEA-2593","2018/06/22 19:39:33","新北市三重區六張街194巷1弄2號","121.48855","25.0681466666667","6500200","三重區"
"241006","AAD-863","2018/06/22 19:39:31","新北市三重區聯華街92號","121.485603333333","25.0752416666667","6500200","三重區"
"241023","887-TS","2018/06/22 19:39:33","新北市三重區忠孝路三段99巷4號","121.48008","25.0642383333333","6500200","三重區"
"241012","941-UM","2018/06/22 19:39:35","新北市三重區仁興街33巷38號","121.500263333333","25.0758966666667","6500200","三重區"
"241029","942-UM","2018/06/22 19:39:44","新北市三重區同安街143號","121.493128333333","25.05609","6500200","三重區"
"235064","005-UY","2018/06/22 19:39:41","新北市中和區南山路127巷35號","121.50384","24.9976116666667","6500300","中和區"
"235063","006-UY","2018/06/22 19:39:35","新北市中和區連城路203巷10弄33號","121.495593333333","24.9963533333333","6500300","中和區"
"235056","096-UM","2018/06/22 19:39:45","新北市中和區中山路三段114巷59號","121.475675","25.0081233333333","6500300","中和區"
"235039","097-UM","2018/06/22 19:39:29","新北市中和區秀峰街88號","121.519598333333","24.99107","6500300","中和區"
"235065","098-UM","2018/06/22 19:39:38","新北市中和區莊敬路25號","121.500156666667","25.00465","6500300","中和區"
"235040","150-BY","2018/06/22 19:39:26","新北市中和區宜安路98號","121.510605","24.997815","6500300","中和區"
"235058","151-BY","2018/06/22 19:39:28","新北市中和區連城路376號","121.481396666667","24.995255","6500300","中和區"
"235055","183-VK","2018/06/22 19:39:25","新北市中和區中山路三段181巷4號","121.472856666667","25.00594","6500300","中和區"
"235038","185-VK","2018/06/22 19:39:35","新北市中和區自強路27巷22號","121.521558333333","24.993265","6500300","中和區"
"235049","186-VK","2018/06/22 19:39:32","新北市中和區明仁街16號","121.50623","24.9954583333333","6500300","中和區"
"235067","255-BX","2018/06/22 19:39:36","新北市中和區新生街213號","121.483805","24.9996933333333","6500300","中和區"
"235044","293-VK","2018/06/22 19:39:36","新北市中和區興南路一段156號","121.508358333333","24.98687","6500300","中和區"
"235043","352-BY","2018/06/22 19:39:42","新北市中和區興南路一段108號","121.509613333333","24.988755","6500300","中和區"
"235042","KEA-2878","2018/06/22 19:39:45","新北市中和區中和路262巷33號","121.509611666667","24.9993066666667","6500300","中和區"
"235050","4979-A6","2018/06/22 19:39:39","新北市中和區錦和路350-1號","121.490563333333","24.993555","6500300","中和區"
"235070","558-UM","2018/06/22 19:39:40","新北市中和區景平路583號","121.497698333333","25.00036","6500300","中和區"
"235045","565-BX","2018/06/22 19:39:40","新北市中和區景新街448號","121.513255","24.9879116666667","6500300","中和區"
"235054","640-BX","2018/06/22 19:39:43","新北市中和區國光街107巷2弄32號","121.469326666667","24.999045","6500300","中和區"
"235060","647-TV","2018/06/22 19:39:36","新北市中和區中山路二段523巷12號","121.481543333333","25.0044916666667","6500300","中和區"
"235047","732-UM","2018/06/22 19:39:31","新北市中和區景平路363號","121.50451","24.9935066666667","6500300","中和區"
"235046","733-UM","2018/06/22 19:39:30","新北市中和區四維街32號","121.512723333333","24.9870166666667","6500300","中和區"
"235071","783-BX","2018/06/22 19:39:27","新北市中和區中正路839巷29號","121.483591666667","25.0023383333333","6500300","中和區"
"235057","801-TS","2018/06/22 19:39:37","新北市中和區員山路172號","121.481336666667","24.9999216666667","6500300","中和區"
"235041","802-TS","2018/06/22 19:39:44","新北市永和區中和路603號","121.512426666667","25.0043683333333","6500300","中和區"
"235052","805-TS","2018/06/22 19:39:36","新北市中和區華新街206巷1號","121.506475","24.9820516666667","6500300","中和區"
"235048","896-TW","2018/06/22 19:39:37","新北市中和區忠孝街1巷2-1號","121.509118333333","24.9830916666667","6500300","中和區"
"235053","900-TW","2018/06/22 19:39:42","新北市中和區國光街213號","121.46646","25.0017766666667","6500300","中和區"
"235066","911-UM","2018/06/22 19:39:38","新北市中和區中和路196巷9弄3號","121.505308333333","24.999135","6500300","中和區"
"235051","157-BY","2018/06/22 19:39:44","新北市中和區南山路273號","121.503988333333","24.992475","6500300","中和區"
"235037","AAC-213","2018/06/22 19:39:28","新北市中和區秀朗路三段52號","121.5264","24.9953433333333","6500300","中和區"
"235059","AAC-215","2018/06/22 19:39:39","新北市中和區圓通路262-2號","121.49288","24.9908733333333","6500300","中和區"
"220068","013-TV","2018/06/22 19:39:37","新北市板橋區萬安街3號","121.484743333333","25.0224283333333","6500100","板橋區"
"220072","015-TV","2018/06/22 19:39:36","新北市板橋區篤行路二段141巷26號","121.43057","24.9876966666667","6500100","板橋區"
"220086","073-UY","2018/06/22 19:39:39","新北市板橋區中正路166號","121.456458333333","25.0169733333333","6500100","板橋區"
"220106","075-UY","2018/06/22 19:39:36","新北市板橋區民治街26巷10號","121.477515","25.0337716666667","6500100","板橋區"
"220069","AAD-861","2018/06/22 19:39:26","新北市板橋區稚暉街2巷50號","121.45523","25.0028283333333","6500100","板橋區"
"247008","056-VK","2018/06/22 19:39:30","新北市蘆洲區中山一路158號","121.474858333333","25.0815466666667","6501400","蘆洲區"
"247004","053-VK","2018/06/22 19:39:35","新北市蘆洲區中華街6巷8號","121.463146666667","25.0819333333333","6501400","蘆洲區"
"247002","002-UY","2018/06/22 19:39:42","新北市蘆洲區三民路595號","121.46087","25.0936883333333","6501400","蘆洲區"
"226004","205-ST","2018/06/22 19:39:25","新北市平溪區十分里十分街289-1號","121.776613333333","25.0449033333333","6502400","平溪區"
"228003","097-TW","2018/06/22 19:39:37","新北市貢寮區和美里和美街63號","121.922551666667","25.07052","6502600","貢寮區"
"228001","212-TW","2018/06/22 19:39:33","新北市貢寮區真理里延平街61號","121.924645","25.055725","6502600","貢寮區"
"224002","639-TC","2018/06/22 19:39:34","新北市瑞芳區民享新村23號","121.81725","25.1054333333333","6501200","瑞芳區"
"227003","642-TC","2018/06/22 19:39:41","新北市雙溪區雙溪里太平路56號","121.86494","25.03562","6502500","雙溪區"
"227011","400-TW","2018/06/22 19:39:40","新北市雙溪區新基里新基南街2號","121.866961666667","25.0371983333333","6502500","雙溪區"
"253006","295-VK","2018/06/22 19:39:45","新北市石門區小坑9號","121.59443","25.2883766666667","6502200","石門區"
"222001","KEA-2212","2018/06/22 19:39:44","新北市深坑區北深路二段204號","121.612965","25.0015133333333","6501800","深坑區"
"208002","KEA-2872","2018/06/22 19:39:30","新北市金山區四維路23號","121.635108333333","25.2228066666667","6502700","金山區"
"208003","665-BX","2018/06/22 19:39:36","新北市金山區仁愛路1巷1號","121.638536666667","25.2200516666667","6502700","金山區"
"208001","761-BX","2018/06/22 19:39:34","新北市金山區重和里牛埔仔1-4號","121.607545","25.223045","6502700","金山區"
"251001","011-UM","2018/06/22 19:39:42","新北市淡水區民權路49號","121.459705","25.1392716666667","6501000","淡水區"
"251008","181-VK","2018/06/22 19:39:33","新北市淡水區中正路32巷7號","121.430636666667","25.1758416666667","6501000","淡水區"
"251010","413-VK","2018/06/22 19:39:39","新北市淡水區濱海路二段202巷65弄35號","121.434153333333","25.1937266666667","6501000","淡水區"
"251012","441-VK","2018/06/22 19:39:24","新北市淡水區中山北路三段164號","121.445726666667","25.196555","6501000","淡水區"
"251007","442-VK","2018/06/22 19:39:40","新北市淡水區中正東路一段111巷2-1號","121.45432","25.1602816666667","6501000","淡水區"
"251005","443-VK","2018/06/22 19:39:46","新北市淡水區原德路119號","121.443021666667","25.173205","6501000","淡水區"
"251006","561-UM","2018/06/22 19:39:37","新北市淡水區中山北路一段207巷2號","121.44395","25.1791616666667","6501000","淡水區"
"251009","575-R6","2018/06/22 19:39:36","新北市淡水區中山北路一段198巷9號","121.445246666667","25.1793316666667","6501000","淡水區"
"251011","650-BX","2018/06/22 19:39:30","新北市淡水區中正東路二段5巷31號","121.460565","25.1584216666667","6501000","淡水區"
"207003","550-UM","2018/06/22 19:39:35","新北市萬里區大鵬里下社1-4號","121.647788333333","25.2158616666667","6502800","萬里區"
"207004","225-TW","2018/06/22 19:39:37","新北市萬里區萬里里瑪鋉路11號","121.687193333333","25.1752933333333","6502800","萬里區"
"252002","178-VK","2018/06/22 19:39:38","新北市三芝區三民街33-1號","121.504621666667","25.258595","6502100","三芝區"
"252001","702-TV","2018/06/22 19:39:28","新北市三芝區公正街9號","121.499818333333","25.2576033333333","6502100","三芝區"
"237004","KEA-2597","2018/06/22 19:39:27","新北市三峽區插角219-3號","121.416301666667","24.8657433333333","6500900","三峽區"
"237007","153-BY","2018/06/22 19:39:38","新北市三峽區二鬮路136巷22弄3號","121.356423333333","24.910295","6500900","三峽區"
"237009","210-TH","2018/06/22 19:39:33","新北市三峽區中園街84號","121.367783333333","24.92473","6500900","三峽區"
"237013","252-BX","2018/06/22 19:39:45","新北市三峽區橫溪路35號","121.396643333333","24.9355266666667","6500900","三峽區"
"237012","275-BY","2018/06/22 19:39:48","新北市三峽區光明路15號","121.373095","24.9314233333333","6500900","三峽區"
"237008","302-VK","2018/06/22 19:39:41","新北市三峽區中正路一段292巷12弄13號","121.371065","24.9263683333333","6500900","三峽區"
"237014","433-BY","2018/06/22 19:39:34","新北市三峽區中正路二段269號","121.365923333333","24.9117383333333","6500900","三峽區"
"237006","5529-G3","2018/06/22 19:39:36","新北市三峽區中正路一段336巷15弄2號","121.369981666667","24.9249183333333","6500900","三峽區"
"237011","KEA-2596","2018/06/22 19:39:34","新北市三峽區中正路一段486號","121.370328333333","24.92101","6500900","三峽區"
"237015","649-BX","2018/06/22 19:39:38","新北市三峽區溪東路222號","121.407768333333","24.9320316666667","6500900","三峽區"
"236069","105-UM","2018/06/22 19:39:36","新北市土城區明德路一段385-1號","121.452771666667","24.9802816666667","6501300","土城區"
"236042","107-UM","2018/06/22 19:39:39","新北市土城區裕民路253-2號","121.454633333333","24.9829866666667","6501300","土城區"
"236079","166-UM","2018/06/22 19:39:27","新北市土城區溪頭路18號","121.413061666667","24.9556166666667","6501300","土城區"
"236030","253-BX","2018/06/22 19:39:37","新北市土城區福祥街97號","121.441385","24.981355","6501300","土城區"
"236026","269-VK","2018/06/22 19:39:35","新北市土城區中央路二段61巷22號","121.44326","24.9788483333333","6501300","土城區"
"236039","271-VK","2018/06/22 19:39:38","新北市土城區青雲路269巷11號","121.459788333333","24.98067","6501300","土城區"
"236020","401-BY","2018/06/22 19:39:47","新北市土城區峰廷街10號","121.468665","24.9876866666667","6501300","土城區"
"236063","752-BX","2018/06/22 19:39:39","新北市土城區延平街71號","121.46774","24.992945","6501300","土城區"
"236048","913-UM","2018/06/22 19:39:42","新北市土城區明德路一段137-4號","121.46541","24.98085","6501300","土城區"
"236055","AAC-216","2018/06/22 19:39:40","新北市土城區學府路一段42號","121.457888333333","24.9885766666667","6501300","土城區"
"242046","497-BY","2018/06/22 19:39:46","新北市板橋區大觀路三段36巷5-3號","121.432898333333","24.9959583333333","6500500","新莊區"
"242007","413-TV","2018/06/22 19:39:40","新北市新莊區中平路441號","121.444348333333","25.0556233333333","6500500","新莊區"
"242039","133-UY","2018/06/22 19:39:48","新北市新莊區建國二路83-21號","121.430765","25.02566","6500500","新莊區"
"242005","176-VK","2018/06/22 19:39:46","新北市新莊區化成路29巷74號","121.462436666667","25.044015","6500500","新莊區"
"242021","348-TH","2018/06/22 19:39:43","新北市新莊區景德路256號","121.448825","25.0337466666667","6500500","新莊區"
"242019","350-TH","2018/06/22 19:39:34","新北市新莊區三和路12-16號","121.442313333333","25.0374266666667","6500500","新莊區"
"242013","351-TH","2018/06/22 19:39:30","新北市新莊區中誠街121巷7號","121.449468333333","25.0471983333333","6500500","新莊區"
"238015","755-BX","2018/06/22 19:39:38","新北市樹林區中山路一段108巷45號","121.421603333333","24.991565","6500700","樹林區"
"238023","601-UM","2018/06/22 19:39:33","新北市樹林區三福街148號","121.405308333333","25.016075","6500700","樹林區"
"238024","5061-A6","2018/06/22 19:39:27","新北市樹林區育德街78-1號","121.387575","24.9681383333333","6500700","樹林區"
"238022","KEA-2213","2018/06/22 19:39:44","新北市樹林區名園街51巷6弄46號","121.421098333333","24.978205","6500700","樹林區"
"238021","KEA-2539","2018/06/22 19:39:45","新北市樹林區佳園路三段113巷17號","121.387548333333","24.9502083333333","6500700","樹林區"
"238025","303-VK","2018/06/22 19:39:28","新北市樹林區中山路二段110-4號","121.413856666667","24.9832616666667","6500700","樹林區"
"238017","283-BY","2018/06/22 19:39:44","新北市樹林區保安街二段45巷26-5號","121.414708333333","25.0001166666667","6500700","樹林區"
"238014","282-BY","2018/06/22 19:39:41","新北市樹林區千歲街30巷26弄2號","121.426328333333","24.9961233333333","6500700","樹林區"
"239006","891-R6","2018/06/22 19:39:42","新北市鶯歌區中正二路56號","121.350683333333","24.95164","6500800","鶯歌區"
"239003","360-BY","2018/06/22 19:39:33","新北市樹林區中山路三段210-2號","121.381126666667","24.965795","6500800","鶯歌區"
"221008","489-VK","2018/06/22 19:39:31","新北市汐止區康寧街61巷31號","121.619456666667","25.0675866666667","6501100","汐止區"
"221036","130-UY","2018/06/22 19:39:39","新北市汐止區汐萬路一段312號","121.650588333333","25.0755033333333","6501100","汐止區"
"221015","131-UY","2018/06/22 19:39:46","新北市汐止區康寧街901號","121.650943333333","25.0752016666667","6501100","汐止區"
"221010","269-BY","2018/06/22 19:39:43","新北市汐止區汐萬路二段23巷1號","121.649643333333","25.0809","6501100","汐止區"
"221012","278-VK","2018/06/22 19:39:43","新北市汐止區大同路三段392號","121.681588333333","25.07162","6501100","汐止區"
"221023","279-VK","2018/06/22 19:39:29","新北市汐止區中興路286巷1號","121.628226666667","25.069615","6501100","汐止區"
"221032","280-BY","2018/06/22 19:39:26","新北市汐止區大同路二段132-2號","121.651655","25.0639666666667","6501100","汐止區"
"221027","281-BY","2018/06/22 19:39:35","新北市汐止區忠孝東路9號","121.658281666667","25.0660366666667","6501100","汐止區"
"221029","298-VK","2018/06/22 19:39:33","新北市汐止區康寧街901號","121.651585","25.0751433333333","6501100","汐止區"
"221021","299-VK","2018/06/22 19:39:38","新北市汐止區南興路28號","121.652271666667","25.0614133333333","6501100","汐止區"
"221031","353-TW","2018/06/22 19:39:43","新北市汐止區康寧街901號","121.65087","25.0752933333333","6501100","汐止區"
"221025","623-UM","2018/06/22 19:39:27","新北市汐止區福安街20巷5號","121.662473333333","25.0649116666667","6501100","汐止區"
"221038","646-BX","2018/06/22 19:39:32","新北市汐止區忠孝東路223號","121.662203333333","25.0669166666667","6501100","汐止區"
"221033","647-BX","2018/06/22 19:39:40","台北市南港區舊莊街二段17號","121.6253","25.0375333333333","6501100","汐止區"
"220079","145-BY","2018/06/22 19:39:29","新北市板橋區建國街111號","121.46032","25.01754","6500100","板橋區"
"220080","200-UY","2018/06/22 19:39:36","新北市板橋區大觀路二段153巷46弄16號","121.449128333333","24.9998916666667","6500100","板橋區"
"220082","610-BX","2018/06/22 19:39:34","新北市板橋區篤行路一段37號","121.432048333333","24.9939733333333","6500100","板橋區"
"220101","245-BX","2018/06/22 19:39:33","新北市板橋區莒光路180巷30號","121.473035","25.0228366666667","6500100","板橋區"
"220055","256-TC","2018/06/22 19:39:45","新北市板橋區國慶路149巷21弄3號","121.460756666667","24.9973683333333","6500100","板橋區"
"220056","276-BY","2018/06/22 19:39:30","新北市板橋區四川路二段47巷3弄2號","121.454191666667","24.9946","6500100","板橋區"
"220077","282-UM","2018/06/22 19:39:46","新北市板橋區僑中一街108號","121.446486666667","25.0116766666667","6500100","板橋區"
"220071","283-VK","2018/06/22 19:39:44","新北市板橋區信義路130號","121.458593333333","24.992285","6500100","板橋區"
"220094","285-UM","2018/06/22 19:39:35","新北市板橋區宏國路107號","121.470151666667","25.0322216666667","6500100","板橋區"
"220053","285-VK","2018/06/22 19:39:37","新北市板橋區民享街91號","121.47707","25.01595","6500100","板橋區"
"220083","286-VK","2018/06/22 19:39:31","新北市板橋區龍興街65巷53號","121.442258333333","25.0019483333333","6500100","板橋區"
"220081","287-VK","2018/06/22 19:39:29","新北市板橋區大觀路一段29巷10弄39號","121.449858333333","25.005525","6500100","板橋區"
"220090","288-VK","2018/06/22 19:39:38","新北市板橋區新海路431巷16號","121.457791666667","25.02687","6500100","板橋區"
"220061","293-UM","2018/06/22 19:39:25","新北市板橋區中山路一段214號","121.469966666667","25.0139883333333","6500100","板橋區"
"220062","295-UM","2018/06/22 19:39:30","新北市板橋區三民路二段29巷12號","121.481768333333","25.0180766666667","6500100","板橋區"
"220084","296-UM","2018/06/22 19:39:44","新北市板橋區滿平二街10巷2號","121.425428333333","24.9866016666667","6500100","板橋區"
"220075","303-R5","2018/06/22 19:39:44","新北市板橋區南雅西路二段301巷50弄25號","121.452473333333","25.0171216666667","6500100","板橋區"
"220098","317-R6","2018/06/22 19:39:38","新北市板橋區四維路269巷42號","121.461538333333","25.0276316666667","6500100","板橋區"
"220065","461-BY","2018/06/22 19:39:36","新北市板橋區國泰街39巷5弄8號","121.468678333333","25.006035","6500100","板橋區"
"220064","486-VK","2018/06/22 19:39:35","新北市板橋區民權路45號","121.461891666667","25.0114283333333","6500100","板橋區"
"242032","280-VK","2018/06/22 19:39:45","新北市新莊區新泰路206號","121.44686","25.038585","6500500","新莊區"
"220088","491-VK","2018/06/22 19:39:46","新北市板橋區仁化街191號","121.478473333333","25.0341883333333","6500100","板橋區"
"220035","560-BX","2018/06/22 19:39:41","新北市板橋區英士路190巷2號","121.458091666667","25.0224733333333","6500100","板橋區"
"220103","561-BX","2018/06/22 19:39:33","新北市板橋區文化路一段288號","121.467391666667","25.0214316666667","6500100","板橋區"
"220063","609-BX","2018/06/22 19:39:39","新北市板橋區中山路二段563號","121.484258333333","25.0219033333333","6500100","板橋區"
"220091","637-BX","2018/06/22 19:39:46","新北市板橋區民治街81巷15號","121.480373333333","25.03217","6500100","板橋區"
"220057","686-BX","2018/06/22 19:39:37","新北市板橋區和平路安樂巷32號","121.461546666667","24.99357","6500100","板橋區"
"220093","689-BX","2018/06/22 19:39:33","新北市板橋區長江路一段61號","121.459046666667","25.0293916666667","6500100","板橋區"
"220054","741-BX","2018/06/22 19:39:36","新北市板橋區忠孝路237號","121.4661","25.0030733333333","6500100","板橋區"
"220102","KEA-2699","2018/06/22 19:39:45","新北市板橋區松柏街36巷18號","121.475445","25.029325","6500100","板橋區"
"220067","830-TW","2018/06/22 19:39:40","新北市板橋區長安街251巷32號","121.472176666667","25.0111366666667","6500100","板橋區"
"220096","831-TW","2018/06/22 19:39:42","新北市板橋區民生路二段240巷65號","121.470095","25.0229566666667","6500100","板橋區"
"220089","833-TW","2018/06/22 19:39:34","新北市板橋區英士路41號","121.461411666667","25.024915","6500100","板橋區"
"220074","895-R6","2018/06/22 19:39:27","新北市板橋區館前西路121號","121.456726666667","25.0075866666667","6500100","板橋區"
"220073","985-R7","2018/06/22 19:39:37","新北市板橋區國光路49巷9號","121.4584","25.0186333333333","6500100","板橋區"
"220097","AAC-210","2018/06/22 19:39:35","新北市板橋區漢生西路89巷2弄3號","121.461831666667","25.019415","6500100","板橋區"
"220070","AAC-253","2018/06/22 19:39:43","新北市板橋區民族路241號","121.470015","25.0070483333333","6500100","板橋區"
"235068","KEA-2873","2018/06/22 19:39:26","新北市中和區廟美街34號","121.50052","25.0019616666667","6500300","中和區"
"235061","KEA-2875","2018/06/22 19:39:44","新北市中和區民安街2巷35弄14號","121.479701666667","25.0016966666667","6500300","中和區"
