"lineid","car","time","location","longitude","latitude","cityid","cityname"
"234046","148-BY","2018/06/22 20:29:43","台北市文山區景文街146巷26號","121.533275","24.9919333333333","6500400","永和區"
"234081","298-R6","2018/06/22 20:29:43","新北市永和區國中路138-1號","121.523106666667","25.0069133333333","6500400","永和區"
"234038","336-UY","2018/06/22 20:29:34","新北市永和區民樂街25巷6號","121.52831","25.0019533333333","6500400","永和區"
"234064","337-UY","2018/06/22 20:29:37","新北市永和區中正路433號","121.51719","25.00506","6500400","永和區"
"234086","338-UY","2018/06/22 20:29:47","新北市永和區永和路二段239-2號","121.515651666667","25.014655","6500400","永和區"
"234070","552-UM","2018/06/22 20:29:48","新北市永和區永亨路7號","121.519341666667","25.00566","6500400","永和區"
"234050","553-UM","2018/06/22 20:29:36","新北市永和區新生路46號","121.507916666667","25.0154733333333","6500400","永和區"
"234030","746-BX","2018/06/22 20:29:36","新北市永和區民族街81巷62號","121.520166666667","24.996535","6500400","永和區"
"234054","KEA-2590","2018/06/22 20:29:38","新北市永和區環河東路一段82號","121.519556666667","25.01639","6500400","永和區"
"234061","AAD-866","2018/06/22 20:29:34","新北市永和區安樂路194巷14號","121.516268333333","25.0008916666667","6500400","永和區"
"234042","862-TW","2018/06/22 20:29:37","新北市永和區安樂路473巷2號","121.514223333333","25.00581","6500400","永和區"
"234026","9371-KE","2018/06/22 20:29:37","新北市永和區保生路55號","121.504546666667","25.0107716666667","6500400","永和區"
"234011","9373-KE","2018/06/22 20:29:27","新北市永和區保生路55號","121.504518333333","25.010815","6500400","永和區"
"249001","173-UM","2018/06/22 20:29:27","新北市八里區中山路三段197號","121.383348333333","25.1408733333333","6502300","八里區"
"249004","303-UY","2018/06/22 20:29:31","新北市八里區中山路一段129巷37號","121.413988333333","25.1585033333333","6502300","八里區"
"249002","305-UY","2018/06/22 20:29:39","新北市八里區龍米路二段125巷23號","121.44581","25.145565","6502300","八里區"
"249003","593-UM","2018/06/22 20:29:46","新北市八里區舊城路19號","121.39956","25.1467733333333","6502300","八里區"
"248002","678-BX","2018/06/22 20:29:32","新北市五股區新五路三段38號","121.444","25.0876566666667","6501500","五股區"
"234023","9380-KE","2018/06/22 20:29:45","新北市永和區光復街2巷16弄40號","121.518311666667","25.0162783333333","6500400","永和區"
"234077","969-R7","2018/06/22 20:29:41","新北市中和區景新街557號","121.515425","24.9864966666667","6500400","永和區"
"234074","AAC-211","2018/06/22 20:29:49","新北市永和區豫溪街191巷7弄19號","121.52326","25.010915","6500400","永和區"
"234067","AAC-212","2018/06/22 20:29:29","新北市永和區保平路292巷46弄2號","121.507478333333","25.0053483333333","6500400","永和區"
"243009","297-R6","2018/06/22 20:29:29","新北市泰山區忠孝街16巷15號","121.428113333333","25.0650833333333","6501600","泰山區"
"243016","380-SR","2018/06/22 20:29:40","新北市泰山區新生路7號","121.426675","25.045715","6501600","泰山區"
"243015","421-VK","2018/06/22 20:29:35","新北市泰山區憲訓路36號","121.429056666667","25.064755","6501600","泰山區"
"243011","KEA-2215","2018/06/22 20:29:38","新北市泰山區中山路二段841號","121.425646666667","25.0353816666667","6501600","泰山區"
"243010","KEA-2216","2018/06/22 20:29:30","新北市泰山區新生路31巷7號","121.427661666667","25.0459633333333","6501600","泰山區"
"243012","646-TV","2018/06/22 20:29:37","新北市泰山區忠孝街19巷6號","121.42757","25.0659533333333","6501600","泰山區"
"243014","680-BX","2018/06/22 20:29:41","新北市泰山區橫窠雅3鄰20號","121.413115","25.0685383333333","6501600","泰山區"
"222003","436-BY","2018/06/22 20:29:33","新北市深坑區深坑街32號","121.615195","25.001745","6501800","深坑區"
"222002","659-BX","2018/06/22 20:29:32","新北市深坑區萬福路47號","121.599601666667","25.006875","6501800","深坑區"
"231041","002-UM","2018/06/22 20:29:44","新北市新店區中正路524號","121.533718333333","24.9838216666667","6500600","新店區"
"231059","046-UY","2018/06/22 20:29:34","新北市新店區安德街173號","121.508723333333","24.9588416666667","6500600","新店區"
"231040","047-UY","2018/06/22 20:29:28","新北市新店區中正路331-1號","121.53619","24.9752716666667","6500600","新店區"
"231044","106-UY","2018/06/22 20:29:35","新北市新店區建國路199號","121.537918333333","24.9799166666667","6500600","新店區"
"231053","108-UY","2018/06/22 20:29:43","新北市新店區松林路38號","121.546235","24.9102383333333","6500600","新店區"
"231048","187-VK","2018/06/22 20:29:31","新北市新店區寶慶街58巷21-1號","121.541975","24.9873033333333","6500600","新店區"
"231054","KEA-2219","2018/06/22 20:29:40","新北市新店區檳榔路109號","121.544453333333","24.9615216666667","6500600","新店區"
"231057","256-BX","2018/06/22 20:29:35","新北市新店區花園五路二段3號","121.553585","24.9341616666667","6500600","新店區"
"231042","268-BY","2018/06/22 20:29:29","新北市新店區寶橋路215號","121.548761666667","24.9772283333333","6500600","新店區"
"231051","278-BY","2018/06/22 20:29:40","新北市新店區中央七街5號","121.530543333333","24.9747783333333","6500600","新店區"
"231050","AAD-862","2018/06/22 20:29:42","新北市新店區建興街9巷1號","121.539876666667","24.9763166666667","6500600","新店區"
"231058","3713-VJ","2018/06/22 20:29:42","新北市新店區自由街54號","121.534393333333","24.9736916666667","6500600","新店區"
"231066","4716-K9","2018/06/22 20:29:45","新北市新店區安興路69號","121.516173333333","24.9750066666667","6500600","新店區"
"231056","4715-K9","2018/06/22 20:29:32","新北市新店區民生路75巷225-2號","121.533241666667","24.9810116666667","6500600","新店區"
"231067","4772-VM","2018/06/22 20:29:30","新北市新店區安華路28-1號","121.519838333333","24.960765","6500600","新店區"
"231065","512-UM","2018/06/22 20:29:38","新北市新店區安祥路102巷30弄25號","121.484828333333","24.9632533333333","6500600","新店區"
"231049","513-UM","2018/06/22 20:29:32","新北市新店區華城路36巷1-1號","121.528371666667","24.9551433333333","6500600","新店區"
"231063","616-UM","2018/06/22 20:29:37","新北市新店區薏仁坑路自強巷6號","121.496751666667","24.958375","6500600","新店區"
"231045","617-UM","2018/06/22 20:29:45","新北市新店區長春路19巷2-1號","121.548563333333","24.9567966666667","6500600","新店區"
"231061","619-UM","2018/06/22 20:29:43","新北市新店區新和街33號","121.519026666667","24.9847633333333","6500600","新店區"
"231068","718-UY","2018/06/22 20:29:47","新北市新店區中興路三段258號","121.542785","24.98427","6500600","新店區"
"231064","719-UM","2018/06/22 20:29:28","新北市新店區安和路三段95號","121.517871666667","24.9841816666667","6500600","新店區"
"231062","720-UM","2018/06/22 20:29:43","新北市新店區安泰路60巷9號","121.483883333333","24.9467033333333","6500600","新店區"
"231060","897-TW","2018/06/22 20:29:45","新北市新店區錦秀路32號","121.47922","24.9439816666667","6500600","新店區"
"231043","899-TW","2018/06/22 20:29:39","新北市新店區明德路67巷17號","121.540478333333","24.9771266666667","6500600","新店區"
"241011","013-R5","2018/06/22 20:29:28","新北市三重區龍門路130號","121.498138333333","25.072915","6500200","三重區"
"241028","022-UY","2018/06/22 20:29:40","新北市三重區光興街89號","121.497421666667","25.0599566666667","6500200","三重區"
"241008","059-VK","2018/06/22 20:29:41","新北市三重區下竹圍街42-1號","121.481066666667","25.0749383333333","6500200","三重區"
"241022","060-VK","2018/06/22 20:29:38","新北市三重區中正北路20巷2號","121.488156666667","25.0628533333333","6500200","三重區"
"241031","061-VK","2018/06/22 20:29:46","新北市三重區三寧街22號","121.489446666667","25.0599166666667","6500200","三重區"
"241015","062-VK","2018/06/22 20:29:32","新北市三重區文化北路90號","121.498706666667","25.0657716666667","6500200","三重區"
"241017","063-VK","2018/06/22 20:29:48","新北市三重區自強路一段288號","121.491606666667","25.0682633333333","6500200","三重區"
"241024","065-VK","2018/06/22 20:29:44","新北市三重區三民街260號","121.47917","25.067865","6500200","三重區"
"241026","066-VK","2018/06/22 20:29:28","新北市三重區環河南路25號","121.503488333333","25.0622433333333","6500200","三重區"
"241002","090-VK","2018/06/22 20:29:45","新北市三重區仁義街211巷53號","121.49825","25.0827283333333","6500200","三重區"
"241005","262-UM","2018/06/22 20:29:48","新北市三重區碧華街378號","121.490961666667","25.08442","6500200","三重區"
"241003","265-UM","2018/06/22 20:29:28","新北市三重區五華街141巷57號","121.493408333333","25.086405","6500200","三重區"
"241016","266-UM","2018/06/22 20:29:45","新北市三重區正義北路143號","121.496583333333","25.0667533333333","6500200","三重區"
"241009","267-UM","2018/06/22 20:29:28","新北市三重區永福街89號","121.479775","25.0776916666667","6500200","三重區"
"241032","269-UM","2018/06/22 20:29:28","新北市三重區重陽路一段120巷35號","121.485061666667","25.0601883333333","6500200","三重區"
"241013","270-UM","2018/06/22 20:29:45","新北市三重區三和路四段3號","121.491621666667","25.074135","6500200","三重區"
"241025","271-UM","2018/06/22 20:29:34","新北市三重區頂崁街210巷27號","121.47576","25.0681516666667","6500200","三重區"
"241007","398-BY","2018/06/22 20:29:45","新北市三重區自強路四段2號","121.48826","25.07608","6500200","三重區"
"241035","462-BY","2018/06/22 20:29:30","新北市三重區正義北路10號","121.497605","25.0629783333333","6500200","三重區"
"241004","475-VK","2018/06/22 20:29:48","新北市三重區溪尾街236號","121.48769","25.0818166666667","6500200","三重區"
"241020","478-VK","2018/06/22 20:29:45","新北市三重區明德街37號","121.49244","25.0723033333333","6500200","三重區"
"241030","480-VK","2018/06/22 20:29:40","新北市三重區成功路62號","121.48858","25.0509016666667","6500200","三重區"
"241014","543-UM","2018/06/22 20:29:34","新北市三重區長興街88號","121.501506666667","25.0691416666667","6500200","三重區"
"241001","547-UM","2018/06/22 20:29:38","新北市三重區福隆路12號","121.49024","25.0774266666667","6500200","三重區"
"241019","KEA-2593","2018/06/22 20:29:38","新北市三重區重陽路四段77號","121.492388333333","25.070895","6500200","三重區"
"241006","AAD-863","2018/06/22 20:29:31","新北市三重區車路頭街139巷12號","121.484281666667","25.0763166666667","6500200","三重區"
"241023","887-TS","2018/06/22 20:29:33","新北市三重區自由街17巷1號","121.4799","25.0666783333333","6500200","三重區"
"241012","941-UM","2018/06/22 20:29:35","新北市三重區龍濱路261號","121.501446666667","25.0728816666667","6500200","三重區"
"241029","942-UM","2018/06/22 20:29:29","新北市三重區集美街223號","121.491781666667","25.0549266666667","6500200","三重區"
"241033","AAC-255","2018/06/22 20:29:39","新北市三重區五谷王北街80巷59號","121.474705","25.0531266666667","6500200","三重區"
"235039","097-UM","2018/06/22 20:29:29","新北市中和區大勇街29巷12-1號","121.515885","24.994535","6500300","中和區"
"235050","4979-A6","2018/06/22 20:29:39","新北市中和區景平路385巷9弄17號","121.50218","24.9940616666667","6500300","中和區"
"235069","4980-A6","2018/06/22 20:29:34","新北市中和區中正路436號","121.491108333333","24.99418","6500300","中和區"
"235059","AAC-215","2018/06/22 20:29:39","新北市中和區員山路36-1號","121.482146666667","24.99076","6500300","中和區"
"220069","AAD-861","2018/06/22 20:29:26","新北市樹林區中山路三段210-2號","121.380901666667","24.96611","6500100","板橋區"
"247024","893-R6","2018/06/22 20:29:33","新北市蘆洲區光復路91號","121.464246666667","25.08567","6501400","蘆洲區"
"247014","546-UM","2018/06/22 20:29:43","新北市蘆洲區中山二路92號","121.47289","25.0819133333333","6501400","蘆洲區"
"247022","500-BY","2018/06/22 20:29:34","新北市蘆洲區中正路202號","121.46655","25.0884016666667","6501400","蘆洲區"
"247010","341-TH","2018/06/22 20:29:49","新北市蘆洲區民族路120號","121.478941666667","25.085545","6501400","蘆洲區"
"247012","339-TH","2018/06/22 20:29:38","新北市蘆洲區復興路280號","121.480556666667","25.08984","6501400","蘆洲區"
"247006","336-TH","2018/06/22 20:29:36","新北市蘆洲區九芎街113號","121.465561666667","25.0796383333333","6501400","蘆洲區"
"247018","057-VK","2018/06/22 20:29:33","新北市蘆洲區民族路321號","121.474378333333","25.091465","6501400","蘆洲區"
"247008","056-VK","2018/06/22 20:29:30","新北市蘆洲區永安北路二段70-7號","121.483335","25.0842183333333","6501400","蘆洲區"
"247004","053-VK","2018/06/22 20:29:35","新北市蘆洲區長安街222號","121.458133333333","25.0849266666667","6501400","蘆洲區"
"247016","007-UY","2018/06/22 20:29:29","新北市蘆洲區光華路69號","121.468141666667","25.082715","6501400","蘆洲區"
"247002","002-UY","2018/06/22 20:29:02","新北市蘆洲區長安街361巷8-1號","121.456706666667","25.0874916666667","6501400","蘆洲區"
"247020","001-UY","2018/06/22 20:29:44","新北市蘆洲區仁愛街118巷2號","121.46962","25.0948266666667","6501400","蘆洲區"
"222001","KEA-2212","2018/06/22 20:29:44","新北市深坑區北深路三段345號","121.597086666667","25.0050916666667","6501800","深坑區"
"251004","009-UM","2018/06/22 20:29:30","新北市淡水區中正東路二段143巷2弄7號","121.460718333333","25.1467516666667","6501000","淡水區"
"251001","011-UM","2018/06/22 20:29:43","新北市淡水區新市一路三段147-1號","121.447665","25.1829933333333","6501000","淡水區"
"251002","012-UM","2018/06/22 20:29:44","新北市淡水區中正路46號","121.443441666667","25.1695483333333","6501000","淡水區"
"251008","181-VK","2018/06/22 20:29:33","新北市淡水區淡海路189巷10號","121.419765","25.1844566666667","6501000","淡水區"
"251010","413-VK","2018/06/22 20:29:39","新北市淡水區沙崙路181巷15號","121.42397","25.184355","6501000","淡水區"
"251012","441-VK","2018/06/22 20:29:44","新北市淡水區興仁路98號","121.451903333333","25.2179383333333","6501000","淡水區"
"251006","561-UM","2018/06/22 20:29:37","新北市淡水區商工路296號","121.460621666667","25.1861133333333","6501000","淡水區"
"251003","673-BX","2018/06/22 20:29:43","新北市淡水區新生街39號","121.440165","25.1748116666667","6501000","淡水區"
"252002","178-VK","2018/06/22 20:29:38","新北市三芝區淡金路二段47-1號","121.503588333333","25.2605266666667","6502100","三芝區"
"252001","702-TV","2018/06/22 20:29:28","新北市三芝區中山路一段14號","121.500691666667","25.2580916666667","6502100","三芝區"
"236026","269-VK","2018/06/22 20:29:35","新北市土城區亞洲路12巷7號","121.435688333333","24.9757766666667","6501300","土城區"
"236014","270-VK","2018/06/22 20:29:35","新北市板橋區德興街45號","121.453653333333","24.993015","6501300","土城區"
"242034","AAC-296","2018/06/22 20:29:29","新北市新莊區公園一路141號","121.446558333333","25.03836","6500500","新莊區"
"242058","986-R7","2018/06/22 20:29:26","新北市新莊區龍安路278巷2號","121.422166666667","25.01913","6500500","新莊區"
"242054","751-BX","2018/06/22 20:29:45","新北市新莊區西盛街344巷7號","121.427636666667","25.014075","6500500","新莊區"
"242023","705-TV","2018/06/22 20:29:38","新北市新莊區化成路940號","121.464895","25.0628433333333","6500500","新莊區"
"242027","615-BX","2018/06/22 20:29:45","新北市新莊區思源路321號","121.459905","25.049315","6500500","新莊區"
"242025","613-BX","2018/06/22 20:29:36","新北市新莊區五工三路48號","121.46013","25.0645016666667","6500500","新莊區"
"242029","612-BX","2018/06/22 20:29:40","新北市新莊區昌隆街42號","121.454468333333","25.0507966666667","6500500","新莊區"
"242041","566-BX","2018/06/22 20:29:47","新北市新莊區中正路694巷47號","121.41788","25.0290833333333","6500500","新莊區"
"242046","497-BY","2018/06/22 20:29:46","新北市新莊區中正路新雅巷5號","121.417925","25.0253916666667","6500500","新莊區"
"242050","441-UM","2018/06/22 20:29:29","新北市新莊區民安西路252巷5號","121.42538","25.0136016666667","6500500","新莊區"
"242037","415-TV","2018/06/22 20:29:44","新北市新莊區後港一路76巷10弄1號","121.427201666667","25.0259716666667","6500500","新莊區"
"242007","413-TV","2018/06/22 20:29:40","新北市新莊區思源路267號","121.459716666667","25.0477066666667","6500500","新莊區"
"242044","400-BY","2018/06/22 20:29:37","新北市新莊區龍安路30號","121.414823333333","25.0220433333333","6500500","新莊區"
"242060","353-BY","2018/06/22 20:29:38","新北市新莊區民全街1號","121.428843333333","25.0210716666667","6500500","新莊區"
"242009","132-UY","2018/06/22 20:29:25","新北市新莊區昌隆街94號","121.456153333333","25.05069","6500500","新莊區"
"242039","133-UY","2018/06/22 20:29:43","新北市新莊區民安路236號","121.426241666667","25.0220766666667","6500500","新莊區"
"242048","172-VK","2018/06/22 20:29:35","新北市新莊區富國路31號","121.41884","25.0263183333333","6500500","新莊區"
"242011","173-VK","2018/06/22 20:29:42","新北市新莊區中義街36號","121.450103333333","25.05119","6500500","新莊區"
"242017","175-VK","2018/06/22 20:29:39","新北市新莊區中港三街31號","121.450126666667","25.04636","6500500","新莊區"
"242005","176-VK","2018/06/22 20:29:46","新北市新莊區化成路746巷22號","121.466741666667","25.0578683333333","6500500","新莊區"
"242015","346-TH","2018/06/22 20:29:37","新北市新莊區中平路69號","121.444583333333","25.0448066666667","6500500","新莊區"
"242056","347-TH","2018/06/22 20:29:34","新北市新莊區瓊泰路154號","121.443155","25.0324216666667","6500500","新莊區"
"242021","348-TH","2018/06/22 20:29:43","新北市新莊區公園路48號","121.449083333333","25.03937","6500500","新莊區"
"242002","349-TH","2018/06/22 20:29:41","新北市新莊區中正路育農巷1號","121.456935","25.03794","6500500","新莊區"
"242019","350-TH","2018/06/22 20:29:34","新北市新莊區銘德街48號","121.457221666667","25.043775","6500500","新莊區"
"242013","351-TH","2018/06/22 20:29:30","新北市新莊區中平路302巷6號","121.445346666667","25.0517183333333","6500500","新莊區"
"221008","489-VK","2018/06/22 20:29:35","新北市汐止區康寧街523-1號","121.633458333333","25.0687716666667","6501100","汐止區"
"221036","130-UY","2018/06/22 20:29:39","新北市汐止區新台五路二段69號","121.663908333333","25.0666266666667","6501100","汐止區"
"221015","131-UY","2018/06/22 20:29:46","新北市汐止區建成路142巷19弄5號","121.662133333333","25.0738066666667","6501100","汐止區"
"221010","269-BY","2018/06/22 20:29:43","新北市汐止區八連路二段162號","121.63313","25.0955883333333","6501100","汐止區"
"221012","278-VK","2018/06/22 20:29:43","新北市汐止區大同路三段279號","121.674243333333","25.07501","6501100","汐止區"
"221023","279-VK","2018/06/22 20:29:29","新北市汐止區民族二街30巷23號","121.633876666667","25.0716833333333","6501100","汐止區"
"221032","280-BY","2018/06/22 20:29:46","新北市汐止區弘道街53巷12號","121.618731666667","25.0489483333333","6501100","汐止區"
"221027","281-BY","2018/06/22 20:29:35","新北市汐止區中正路195號","121.658683333333","25.0689166666667","6501100","汐止區"
"221029","298-VK","2018/06/22 20:29:33","新北市汐止區樟樹一路156號","121.642218333333","25.0653116666667","6501100","汐止區"
"221021","299-VK","2018/06/22 20:29:38","新北市汐止區水源路一段293號","121.654395","25.0583133333333","6501100","汐止區"
"221031","353-TW","2018/06/22 20:29:43","新北市汐止區福德一路237號","121.634255","25.06469","6501100","汐止區"
"221035","622-UM","2018/06/22 20:29:39","新北市汐止區長江街101-5號","121.658791666667","25.073055","6501100","汐止區"
"221025","623-UM","2018/06/22 20:29:29","新北市汐止區水源路二段88巷1弄4號","121.656376666667","25.0556916666667","6501100","汐止區"
"221038","646-BX","2018/06/22 20:29:32","新北市汐止區水源路一段56號","121.657288333333","25.0654066666667","6501100","汐止區"
"221033","647-BX","2018/06/22 20:29:40","新北市汐止區林森街73巷11號","121.623635","25.0411033333333","6501100","汐止區"
"221002","707-TV","2018/06/22 20:29:34","新北市汐止區福德三路75號","121.636505","25.0691816666667","6501100","汐止區"
"221018","753-BX","2018/06/22 20:29:32","新北市汐止區茄苳路209巷14號","121.671073333333","25.069545","6501100","汐止區"
"220101","245-BX","2018/06/22 20:28:09","新北市五股區中直路13-7號","121.424983333333","25.1103883333333","6500100","板橋區"
"220083","286-VK","2018/06/22 20:29:31","新北市板橋區僑中二街108巷17號","121.44504","25.0073383333333","6500100","板橋區"
"220061","293-UM","2018/06/22 20:29:45","新北市板橋區文華街28號","121.45722","25.0007766666667","6500100","板橋區"
"242032","280-VK","2018/06/22 20:29:45","新北市新莊區中正路486-1號","121.436788333333","25.0337433333333","6500500","新莊區"
"220103","561-BX","2018/06/22 20:29:36","新北市板橋區漢生東路53巷27號","121.46665","25.0173933333333","6500100","板橋區"
"220089","833-TW","2018/06/22 20:29:34","新北市板橋區四維路351號","121.462301666667","25.0300016666667","6500100","板橋區"
"220070","AAC-253","2018/06/22 20:29:43","新北市新莊區中山路一段458號","121.442456666667","25.0563733333333","6500100","板橋區"
