"lineid","car","time","location","longitude","latitude","cityid","cityname"
"234064","337-UY","2018/06/22 20:49:37","新北市五股區凌雲路三段32-1號","121.43182","25.1080166666667","6500400","永和區"
"234030","746-BX","2018/06/22 20:49:36","新北市新店區薏仁坑路自強巷1號","121.497656666667","24.95777","6500400","永和區"
"249004","303-UY","2018/06/22 20:49:31","新北市八里區中山路一段63號","121.418358333333","25.1593966666667","6502300","八里區"
"234077","969-R7","2018/06/22 20:49:41","新北市新店區安民街121巷14號","121.515375","24.9690816666667","6500400","永和區"
"234074","AAC-211","2018/06/22 20:49:31","新北市永和區竹林路91巷60弄70號","121.52285","25.0122083333333","6500400","永和區"
"243012","646-TV","2018/06/22 20:49:37","新北市泰山區橫窠雅36號","121.403721666667","25.0722333333333","6501600","泰山區"
"222003","436-BY","2018/06/22 20:49:33","新北市深坑區文山路三段48-1號","121.60995","24.9984933333333","6501800","深坑區"
"222002","659-BX","2018/06/22 20:49:32","新北市深坑區北深路三段93巷65號","121.603658333333","25.0010733333333","6501800","深坑區"
"231059","046-UY","2018/06/22 20:49:34","新北市新店區吉祥街15巷60號","121.499776666667","24.94511","6500600","新店區"
"231040","047-UY","2018/06/22 20:49:28","新北市新店區中正路270號","121.538945","24.9735566666667","6500600","新店區"
"231044","106-UY","2018/06/22 20:49:28","新北市新店區中正路379號","121.534751666667","24.9767416666667","6500600","新店區"
"231053","108-UY","2018/06/22 20:49:43","新北市新店區新烏路一段245-3號","121.548328333333","24.930545","6500600","新店區"
"231048","187-VK","2018/06/22 20:49:31","新北市新店區寶元路一段109號","121.545688333333","24.9831283333333","6500600","新店區"
"231054","KEA-2219","2018/06/22 20:49:40","新北市新店區中正路75巷69號","121.543186666667","24.9690916666667","6500600","新店區"
"231057","256-BX","2018/06/22 20:49:35","新北市新店區新烏路一段58-2號","121.545993333333","24.9465166666667","6500600","新店區"
"231042","268-BY","2018/06/22 20:49:48","新北市新店區寶高路120巷1號","121.55458","24.976075","6500600","新店區"
"231051","278-BY","2018/06/22 20:49:40","新北市新店區民生路156巷117號","121.526818333333","24.9825183333333","6500600","新店區"
"231050","AAD-862","2018/06/22 20:49:42","新北市新店區三民路117巷2弄1號","121.534643333333","24.9718666666667","6500600","新店區"
"231058","3713-VJ","2018/06/22 20:49:42","新北市新店區中央路133巷27弄40號","121.532556666667","24.97434","6500600","新店區"
"231066","4716-K9","2018/06/22 20:49:45","新北市新店區安興路65巷18號","121.515948333333","24.973355","6500600","新店區"
"231056","4715-K9","2018/06/22 20:49:32","新北市新店區柴埕路116號","121.504905","24.9599166666667","6500600","新店區"
"231067","4772-VM","2018/06/22 20:49:30","新北市新店區安康路二段68號","121.514716666667","24.9635966666667","6500600","新店區"
"231065","512-UM","2018/06/22 20:49:43","新北市新店區安祥路104巷11弄16號","121.481045","24.9636533333333","6500600","新店區"
"231049","513-UM","2018/06/22 20:49:32","新北市新店區永業路96-1號","121.529915","24.950975","6500600","新店區"
"231063","616-UM","2018/06/22 20:49:37","新北市新店區如意街8-1號","121.494725","24.9482833333333","6500600","新店區"
"231045","617-UM","2018/06/22 20:49:45","新北市新店區環河路16號","121.537536666667","24.961505","6500600","新店區"
"231061","619-UM","2018/06/22 20:49:43","新北市新店區新和街59巷2號","121.519983333333","24.98559","6500600","新店區"
"231068","718-UY","2018/06/22 20:49:47","新北市新店區寶元路二段17號","121.546373333333","24.982095","6500600","新店區"
"231064","719-UM","2018/06/22 20:49:28","新北市新店區安民街379巷5號","121.51604","24.97617","6500600","新店區"
"231062","720-UM","2018/06/22 20:49:33","新北市新店區和成街17巷31號","121.488681666667","24.9465833333333","6500600","新店區"
"231060","897-TW","2018/06/22 20:49:45","新北市新店區錦秀路1號","121.478986666667","24.9459783333333","6500600","新店區"
"231043","899-TW","2018/06/22 20:49:39","新北市新店區建國路99巷1號","121.540413333333","24.977075","6500600","新店區"
"241011","013-R5","2018/06/22 20:49:48","新北市三重區秀江街117號","121.499736666667","25.072185","6500200","三重區"
"241028","022-UY","2018/06/22 20:49:40","新北市三重區中正南路41巷1號","121.493736666667","25.0598483333333","6500200","三重區"
"241008","059-VK","2018/06/22 20:49:41","新北市三重區永福街72巷11號","121.47939","25.0767633333333","6500200","三重區"
"241022","060-VK","2018/06/22 20:49:38","新北市三重區中正北路20巷12號","121.488018333333","25.0624483333333","6500200","三重區"
"241031","061-VK","2018/06/22 20:49:26","新北市三重區重陽路一段113巷2弄2號","121.487506666667","25.0598516666667","6500200","三重區"
"241015","062-VK","2018/06/22 20:49:32","新北市三重區自強路一段10號","121.49896","25.0682383333333","6500200","三重區"
"241017","063-VK","2018/06/22 20:49:48","新北市三重區民生街11號","121.491763333333","25.06727","6500200","三重區"
"241024","065-VK","2018/06/22 20:49:44","新北市三重區力行路一段188巷10號","121.480335","25.0722133333333","6500200","三重區"
"241026","066-VK","2018/06/22 20:49:48","新北市三重區文化南路3號","121.500073333333","25.06239","6500200","三重區"
"241002","090-VK","2018/06/22 20:49:44","新北市三重區仁義街167巷55號","121.498966666667","25.0823916666667","6500200","三重區"
"241005","262-UM","2018/06/22 20:49:28","新北市三重區五華街141巷20號","121.491721666667","25.085295","6500200","三重區"
"241003","265-UM","2018/06/22 20:49:48","新北市三重區五華街141巷60號","121.493485","25.0866866666667","6500200","三重區"
"241016","266-UM","2018/06/22 20:49:45","新北市三重區自強路一段166號","121.495318333333","25.0662483333333","6500200","三重區"
"241009","267-UM","2018/06/22 20:49:28","新北市三重區三和路四段197號","121.482101666667","25.0791816666667","6500200","三重區"
"241032","269-UM","2018/06/22 20:49:48","新北市三重區重陽路一段120巷48號","121.484976666667","25.0601716666667","6500200","三重區"
"241013","270-UM","2018/06/22 20:49:45","新北市三重區仁愛街127號","121.495533333333","25.074815","6500200","三重區"
"241025","271-UM","2018/06/22 20:49:34","新北市三重區貴陽街18-1號","121.484156666667","25.061905","6500200","三重區"
"241007","398-BY","2018/06/22 20:49:45","新北市三重區三和路四段145巷9號","121.484595","25.0783266666667","6500200","三重區"
"241035","462-BY","2018/06/22 20:49:30","新北市三重區三和路三段8號","121.49714","25.07009","6500200","三重區"
"241004","475-VK","2018/06/22 20:49:28","新北市三重區分子尾街52號","121.489138333333","25.0814683333333","6500200","三重區"
"241020","478-VK","2018/06/22 20:49:45","新北市三重區忠孝路一段101號","121.489558333333","25.07213","6500200","三重區"
"241030","480-VK","2018/06/22 20:49:40","新北市三重區環河南路221巷10號","121.491975","25.052205","6500200","三重區"
"241014","543-UM","2018/06/22 20:49:34","新北市三重區萬全街82號","121.501668333333","25.0702633333333","6500200","三重區"
"241001","547-UM","2018/06/22 20:49:38","新北市三重區自強路三段97號","121.487598333333","25.0752266666667","6500200","三重區"
"241019","KEA-2593","2018/06/22 20:49:39","新北市三重區大智街139號","121.490676666667","25.07087","6500200","三重區"
"241006","AAD-863","2018/06/22 20:49:31","新北市三重區車路頭街139巷12號","121.484235","25.076245","6500200","三重區"
"241023","887-TS","2018/06/22 20:49:33","新北市三重區忠孝路三段84巷1號","121.480246666667","25.0645483333333","6500200","三重區"
"241012","941-UM","2018/06/22 20:49:35","新北市三重區仁信街29號","121.501235","25.0755583333333","6500200","三重區"
"241029","942-UM","2018/06/22 20:49:29","新北市三重區重新路三段204號","121.490111666667","25.0582483333333","6500200","三重區"
"241033","AAC-255","2018/06/22 20:49:39","新北市三重區光復路二段1號","121.472286666667","25.053285","6500200","三重區"
"235069","4980-A6","2018/06/22 20:49:34","新北市中和區員山路359巷1弄1號","121.48107","25.0015683333333","6500300","中和區"
"247024","893-R6","2018/06/22 20:49:33","新北市蘆洲區長樂路136號","121.462088333333","25.0901416666667","6501400","蘆洲區"
"247014","546-UM","2018/06/22 20:49:43","新北市蘆洲區三民路95號","121.474108333333","25.0848166666667","6501400","蘆洲區"
"247022","500-BY","2018/06/22 20:49:34","新北市蘆洲區民義街9巷2號","121.471321666667","25.0886016666667","6501400","蘆洲區"
"247010","341-TH","2018/06/22 20:49:49","新北市蘆洲區鷺江街93號","121.47688","25.083815","6501400","蘆洲區"
"247012","339-TH","2018/06/22 20:49:38","新北市蘆洲區中興街46號","121.481478333333","25.0870666666667","6501400","蘆洲區"
"247006","336-TH","2018/06/22 20:49:36","新北市蘆洲區和平路121巷14弄1號","121.466491666667","25.0795466666667","6501400","蘆洲區"
"247004","053-VK","2018/06/22 20:49:35","新北市蘆洲區長安街100號","121.461608333333","25.0808733333333","6501400","蘆洲區"
"247016","007-UY","2018/06/22 20:49:29","新北市蘆洲區得勝街183號","121.470985","25.0826116666667","6501400","蘆洲區"
"247002","002-UY","2018/06/22 20:49:30","新北市蘆洲區長安街242號","121.457696666667","25.086135","6501400","蘆洲區"
"247020","001-UY","2018/06/22 20:49:42","新北市蘆洲區仁愛街81號","121.471266666667","25.093785","6501400","蘆洲區"
"222001","KEA-2212","2018/06/22 20:49:44","新北市深坑區北深路三段137號","121.603946666667","25.00255","6501800","深坑區"
"251001","011-UM","2018/06/22 20:49:39","新北市淡水區淡金路一段69號","121.458813333333","25.1731366666667","6501000","淡水區"
"251002","012-UM","2018/06/22 20:49:44","新北市淡水區英專路41號","121.445513333333","25.1703366666667","6501000","淡水區"
"251010","413-VK","2018/06/22 20:49:39","新北市淡水區沙崙路126號","121.423396666667","25.182895","6501000","淡水區"
"251012","441-VK","2018/06/22 20:49:44","新北市淡水區淡金路四段518號","121.452003333333","25.2259283333333","6501000","淡水區"
"251007","442-VK","2018/06/22 20:49:40","新北市淡水區鄧公路33巷1號","121.451345","25.1711583333333","6501000","淡水區"
"251006","561-UM","2018/06/22 20:49:37","新北市淡水區新市一路一段6號","121.429343333333","25.18786","6501000","淡水區"
"251011","650-BX","2018/06/22 20:49:30","新北市淡水區新民街一段13-1號","121.43301","25.1845533333333","6501000","淡水區"
"251003","673-BX","2018/06/22 20:49:43","新北市淡水區中山北路一段207巷58號","121.442165","25.17928","6501000","淡水區"
"252002","178-VK","2018/06/22 20:49:38","新北市三芝區淡金路二段89-1號","121.504","25.2608816666667","6502100","三芝區"
"236014","270-VK","2018/06/22 20:49:35","新北市樹林區中山路三段210-2號","121.380756666667","24.9670133333333","6501300","土城區"
"242034","AAC-296","2018/06/22 20:49:47","新北市新莊區中正路326號","121.44605","25.0347133333333","6500500","新莊區"
"242058","986-R7","2018/06/22 20:49:46","新北市新莊區四維路16-1號","121.423548333333","25.024355","6500500","新莊區"
"242027","615-BX","2018/06/22 20:49:35","新北市新莊區新樹路613號","121.435933333333","25.0038466666667","6500500","新莊區"
"242029","612-BX","2018/06/22 20:49:40","新北市新莊區環漢路三段530號","121.435408333333","25.0019216666667","6500500","新莊區"
"242041","566-BX","2018/06/22 20:49:27","新北市新莊區天祥街12號","121.41724","25.0271766666667","6500500","新莊區"
"242050","441-UM","2018/06/22 20:49:29","新北市新莊區民安西路90-2號","121.426945","25.0190616666667","6500500","新莊區"
"242037","415-TV","2018/06/22 20:49:44","新北市新莊區中正路487號","121.441021666667","25.0335983333333","6500500","新莊區"
"242007","413-TV","2018/06/22 20:49:40","新北市新莊區瓊林路46-9號","121.44739","25.02878","6500500","新莊區"
"242044","400-BY","2018/06/22 20:49:37","新北市樹林區中正路27號","121.427193333333","24.9995633333333","6500500","新莊區"
"242009","132-UY","2018/06/22 20:49:45","新北市新莊區幸福路2號","121.459536666667","25.0495483333333","6500500","新莊區"
"242039","133-UY","2018/06/22 20:49:47","新北市新莊區瓊林路59-38號","121.44115","25.0235383333333","6500500","新莊區"
"242048","172-VK","2018/06/22 20:49:35","新北市新莊區瓊林南路61-87號","121.439538333333","25.01799","6500500","新莊區"
"242002","349-TH","2018/06/22 20:49:41","新北市新莊區中港路2號","121.454925","25.03681","6500500","新莊區"
"242013","351-TH","2018/06/22 20:49:30","新北市新莊區瓊林南路61-71號","121.439586666667","25.01809","6500500","新莊區"
"221036","130-UY","2018/06/22 20:49:39","新北市汐止區新台五路二段91-3號","121.664988333333","25.0673333333333","6501100","汐止區"
"221015","131-UY","2018/06/22 20:49:26","新北市汐止區大同路二段599號","121.663976666667","25.07059","6501100","汐止區"
"221027","281-BY","2018/06/22 20:49:35","新北市汐止區汐萬路一段124號","121.653751666667","25.0712283333333","6501100","汐止區"
"221029","298-VK","2018/06/22 20:49:33","新北市汐止區康寧街901號","121.651358333333","25.0750866666667","6501100","汐止區"
"221035","622-UM","2018/06/22 20:49:39","新北市汐止區汐萬路一段256巷1號","121.65189","25.074825","6501100","汐止區"
"221038","646-BX","2018/06/22 20:49:32","新北市汐止區汐萬路一段256巷1號","121.652041666667","25.0747516666667","6501100","汐止區"
"221033","647-BX","2018/06/22 20:49:40","台北市南港區合順街8巷7弄38號","121.620233333333","25.041865","6501100","汐止區"
"221002","707-TV","2018/06/22 20:49:34","新北市汐止區福德二路169號","121.630811666667","25.065175","6501100","汐止區"
"221018","753-BX","2018/06/22 20:49:32","新北市汐止區大同路二段362號","121.657311666667","25.0671833333333","6501100","汐止區"
"220101","245-BX","2018/06/22 20:48:09","新北市八里區中山路三段409號","121.368435","25.1349233333333","6500100","板橋區"
"220070","AAC-253","2018/06/22 20:49:42","新北市林口區汕頭32號","121.366315","25.13481","6500100","板橋區"
