"lineid","car","time","location","longitude","latitude","cityid","cityname"
"231059","046-UY","2018/06/22 21:09:34","新北市新店區僑信路22號","121.499743333333","24.95226","6500600","新店區"
"231040","047-UY","2018/06/22 21:09:28","新北市新店區北新路一段353號","121.541961666667","24.9696216666667","6500600","新店區"
"231053","108-UY","2018/06/22 21:09:43","新北市新店區柴埕路38-8號","121.513278333333","24.96494","6500600","新店區"
"231048","187-VK","2018/06/22 21:09:46","新北市新店區中興路三段161號","121.544116666667","24.9803166666667","6500600","新店區"
"231054","KEA-2219","2018/06/22 21:09:40","新北市新店區大新街7巷1號","121.543396666667","24.96845","6500600","新店區"
"231042","268-BY","2018/06/22 21:09:29","新北市新店區寶興路60巷3號","121.549883333333","24.97187","6500600","新店區"
"231051","278-BY","2018/06/22 21:09:40","新北市新店區中正路700巷26號","121.53538","24.9910433333333","6500600","新店區"
"231050","AAD-862","2018/06/22 21:09:42","新北市新店區中華路117巷2弄5號","121.537986666667","24.96937","6500600","新店區"
"231066","4716-K9","2018/06/22 21:09:45","新北市新店區薏仁坑路自強巷6號","121.496608333333","24.9583383333333","6500600","新店區"
"231065","512-UM","2018/06/22 21:09:38","新北市新店區安祥路69巷52弄1號","121.481926666667","24.9597916666667","6500600","新店區"
"231063","616-UM","2018/06/22 21:09:37","新北市新店區玫瑰路61巷1號","121.495931666667","24.9453416666667","6500600","新店區"
"231061","619-UM","2018/06/22 21:09:43","新北市新店區永安街30號","121.517703333333","24.9866166666667","6500600","新店區"
"231060","897-TW","2018/06/22 21:09:45","新北市新店區薏仁坑路自強巷1號","121.496791666667","24.9581233333333","6500600","新店區"
"241011","013-R5","2018/06/22 21:09:28","新北市三重區秀江街117號","121.49974","25.0722","6500200","三重區"
"241028","022-UY","2018/06/22 21:09:40","新北市三重區正義南路47號","121.49817","25.06071","6500200","三重區"
"241008","059-VK","2018/06/22 21:09:41","新北市三重區三和路三段8號","121.497145","25.0701083333333","6500200","三重區"
"241022","060-VK","2018/06/22 21:09:38","新北市三重區中正北路64巷23號","121.485996666667","25.0637716666667","6500200","三重區"
"241031","061-VK","2018/06/22 21:09:46","新北市三重區重新路五段283號","121.478766666667","25.0490033333333","6500200","三重區"
"241015","062-VK","2018/06/22 21:09:46","新北市三重區長元街100-6號","121.503075","25.06672","6500200","三重區"
"241017","063-VK","2018/06/22 21:09:28","新北市三重區國隆路30號","121.492261666667","25.064375","6500200","三重區"
"241024","065-VK","2018/06/22 21:09:44","新北市三重區大勇街82巷15弄30號","121.481211666667","25.07197","6500200","三重區"
"241026","066-VK","2018/06/22 21:09:28","新北市三重區文化南路42號","121.50033","25.0602433333333","6500200","三重區"
"241002","090-VK","2018/06/22 21:09:44","新北市三重區五華街16號","121.494881666667","25.0803416666667","6500200","三重區"
"241005","262-UM","2018/06/22 21:09:28","新北市三重區三信路186號","121.487875","25.0861483333333","6500200","三重區"
"241003","265-UM","2018/06/22 21:09:28","新北市三重區仁義街337-1號","121.49511","25.0848083333333","6500200","三重區"
"241016","266-UM","2018/06/22 21:09:45","新北市三重區信義西街138號","121.495651666667","25.064275","6500200","三重區"
"241009","267-UM","2018/06/22 21:09:28","新北市三重區忠孝路二段122號","121.483071666667","25.0687783333333","6500200","三重區"
"241032","269-UM","2018/06/22 21:09:28","新北市三重區新北大道二段80-1號","121.470061666667","25.0615566666667","6500200","三重區"
"241013","270-UM","2018/06/22 21:09:45","新北市三重區仁愛街72號","121.495731666667","25.0733666666667","6500200","三重區"
"241025","271-UM","2018/06/22 21:09:34","新北市三重區忠孝路三段40巷16弄10號","121.482358333333","25.0668866666667","6500200","三重區"
"241007","398-BY","2018/06/22 21:09:45","新北市三重區三和路四段145巷85號","121.486415","25.0787916666667","6500200","三重區"
"241004","475-VK","2018/06/22 21:09:28","新北市三重區仁愛街420號","121.490398333333","25.08139","6500200","三重區"
"241020","478-VK","2018/06/22 21:09:45","新北市三重區忠孝路二段35號","121.485896666667","25.0710716666667","6500200","三重區"
"241030","480-VK","2018/06/22 21:09:40","新北市三重區五谷王北街20巷15弄1號","121.474986666667","25.048465","6500200","三重區"
"241014","543-UM","2018/06/22 21:09:34","新北市三重區長安街82-1號","121.501416666667","25.0677033333333","6500200","三重區"
"241001","547-UM","2018/06/22 21:09:43","新北市三重區福隆路97號","121.492336666667","25.0783116666667","6500200","三重區"
"241019","KEA-2593","2018/06/22 21:09:39","新北市三重區自強路二段74巷19號","121.487951666667","25.0699166666667","6500200","三重區"
"241006","AAD-863","2018/06/22 21:09:31","新北市三重區民生街84號","121.490035","25.06436","6500200","三重區"
"241023","887-TS","2018/06/22 21:09:33","新北市三重區洛陽街45巷15號","121.482353333333","25.063735","6500200","三重區"
"241012","941-UM","2018/06/22 21:09:37","新北市三重區仁信街27號","121.501321666667","25.0755816666667","6500200","三重區"
"241029","942-UM","2018/06/22 21:09:29","新北市三重區正義南路111號","121.498211666667","25.0585666666667","6500200","三重區"
"241033","AAC-255","2018/06/22 21:09:39","新北市三重區重光街107-1號","121.466355","25.064725","6500200","三重區"
"247024","893-R6","2018/06/22 21:09:32","新北市蘆洲區長興路50巷1號","121.463753333333","25.0837466666667","6501400","蘆洲區"
"247014","546-UM","2018/06/22 21:09:42","新北市蘆洲區中央路155號","121.472653333333","25.0846933333333","6501400","蘆洲區"
"247022","500-BY","2018/06/22 21:09:34","新北市蘆洲區民族路556號","121.467698333333","25.0889416666667","6501400","蘆洲區"
"247010","341-TH","2018/06/22 21:09:49","新北市蘆洲區鷺江街46號","121.477288333333","25.0831416666667","6501400","蘆洲區"
"247012","339-TH","2018/06/22 21:09:38","新北市蘆洲區民權路6-1號","121.476728333333","25.0856483333333","6501400","蘆洲區"
"247006","336-TH","2018/06/22 21:09:36","新北市蘆洲區九芎街15巷12號","121.467926666667","25.077885","6501400","蘆洲區"
"247018","057-VK","2018/06/22 21:09:33","新北市蘆洲區民族路408巷6號","121.474825","25.0917466666667","6501400","蘆洲區"
"247004","053-VK","2018/06/22 21:09:38","新北市蘆洲區永安南路二段286號","121.457576666667","25.0813483333333","6501400","蘆洲區"
"247016","007-UY","2018/06/22 21:09:29","新北市蘆洲區中正路185巷84號","121.46578","25.0840466666667","6501400","蘆洲區"
"247002","002-UY","2018/06/22 21:09:42","新北市蘆洲區永平街18巷1號","121.459396666667","25.09082","6501400","蘆洲區"
"247020","001-UY","2018/06/22 21:09:42","新北市蘆洲區民族路488號","121.471115","25.0912683333333","6501400","蘆洲區"
"251001","011-UM","2018/06/22 21:09:39","新北市淡水區新市一路三段2號","121.44489","25.1828083333333","6501000","淡水區"
"251002","012-UM","2018/06/22 21:09:44","新北市淡水區學府路172巷21號","121.448205","25.1746216666667","6501000","淡水區"
"251010","413-VK","2018/06/22 21:09:48","新北市淡水區中正路一段63巷9號","121.422495","25.1770833333333","6501000","淡水區"
"251012","441-VK","2018/06/22 21:09:44","新北市淡水區淡金路五段168號","121.456948333333","25.2396383333333","6501000","淡水區"
"251007","442-VK","2018/06/22 21:09:40","新北市淡水區學府路96號","121.449718333333","25.1715616666667","6501000","淡水區"
"251005","443-VK","2018/06/22 21:09:31","新北市淡水區博愛街26號","121.446236666667","25.1695316666667","6501000","淡水區"
"251006","561-UM","2018/06/22 21:02:46","新北市淡水區中正路二段31號","121.419185","25.1818883333333","6501000","淡水區"
"251009","575-R6","2018/06/22 21:09:35","新北市淡水區民族路112巷45號","121.462088333333","25.13461","6501000","淡水區"
"251011","650-BX","2018/06/22 21:09:30","新北市淡水區新民街180巷25號","121.437733333333","25.1796866666667","6501000","淡水區"
"251003","673-BX","2018/06/22 21:09:43","新北市淡水區新春街100號","121.439378333333","25.18246","6501000","淡水區"
"252001","702-TV","2018/06/22 21:01:18","新北市三芝區埔坪里埔頭坑41號","121.504521666667","25.264395","6502100","三芝區"
"242058","986-R7","2018/06/22 21:09:46","新北市板橋區大觀路三段50巷47號","121.4327","24.9955833333333","6500500","新莊區"
"221029","298-VK","2018/06/22 21:09:33","新北市汐止區康寧街901號","121.651725","25.0749416666667","6501100","汐止區"
"220070","AAC-253","2018/06/22 21:09:42","新北市八里區中山路三段133號","121.388348333333","25.1423266666667","6500100","板橋區"
