"lineid","car","time","location","longitude","latitude","cityid","cityname"
"247010","341-TH","2018/06/22 22:29:28","新北市五股區中興路三段2巷10號","121.449103333333","25.08112","6501400","蘆洲區"
"247005","336-TH","2018/06/22 22:29:36","新北市五股區中興路三段2巷10號","121.449343333333","25.0809166666667","6501400","蘆洲區"
"251004","009-UM","2018/06/22 22:29:34","新北市淡水區民族路33號","121.462246666667","25.1358033333333","6501000","淡水區"
"251008","181-VK","2018/06/22 22:29:43","新北市淡水區學府路104號","121.449828333333","25.17178","6501000","淡水區"
"251010","413-VK","2018/06/22 22:29:39","新北市淡水區沙崙路200號","121.424686666667","25.18393","6501000","淡水區"
"251007","442-VK","2018/06/22 22:29:40","新北市淡水區北新路135號","121.449351666667","25.17887","6501000","淡水區"
"251011","650-BX","2018/06/22 22:29:49","新北市淡水區水碓街7號","121.443178333333","25.1771283333333","6501000","淡水區"
