"lineid","car","time","location","longitude","latitude","cityid","cityname"
"234005","207-UY","2018/06/23 06:39:28","新北市永和區福和路1號","121.526353333333","25.0097333333333","6500400","永和區"
"232004","290-BY","2018/06/23 06:39:25","新北市坪林區北宜路八段558號","121.717966666667","24.9097066666667","6502000","坪林區"
"232016","291-BY","2018/06/23 06:39:19","新北市坪林區北宜路八段558號","121.718143333333","24.9092533333333","6502000","坪林區"
"232010","375-UM","2018/06/23 06:39:15","新北市坪林區北宜路八段558號","121.717993333333","24.909245","6502000","坪林區"
"232009","758-BX","2018/06/23 06:39:26","新北市坪林區北宜路八段558號","121.717958333333","24.90926","6502000","坪林區"
"244005","248-BX","2018/06/23 06:39:22","新北市林口區粉寮路二段160巷28號","121.40516","25.0907316666667","6501700","林口區"
"235001","611-BX","2018/06/23 06:39:21","新北市中和區圓通路367巷7號","121.492443333333","24.988085","6500300","中和區"
"223006","022-BY","2018/06/23 06:39:27","新北市石碇區楓子林61號","121.644648333333","25.0108783333333","6501900","石碇區"
"223002","KEA-2673","2018/06/23 06:39:15","新北市石碇區碇坪路一段115號","121.664705","24.98806","6501900","石碇區"
"223001","592-UM","2018/06/23 06:36:02","新北市石碇區小粗坑(潭邊里)9-2號","121.678665","24.9856016666667","6501900","石碇區"
"223007","661-BX","2018/06/23 06:39:21","新北市石碇區靜安路一段81號","121.652006666667","25.0069516666667","6501900","石碇區"
"227006","030-BX","2018/06/23 06:39:19","新北市雙溪區三貂里定福路1號","121.849596666667","25.0640866666667","6502500","雙溪區"
