"lineid","car","time","location","longitude","latitude","cityid","cityname"
"248005","653-BX","2018/09/03 07:58:41","新北市五股區明德路12巷3號","121.433305","25.0718166666667","6501500","五股區"
"232001","290-BY","2018/09/03 07:58:52","新北市坪林區坪雙路一段72號","121.715996666667","24.943145","6502000","坪林區"
"232012","291-BY","2018/09/03 07:58:57","新北市坪林區金瓜寮24號","121.678041666667","24.9088","6502000","坪林區"
"232010","375-UM","2018/09/03 07:58:55","新北市坪林區磨壁潭12-2號","121.725155","24.938465","6502000","坪林區"
"232017","705-BZ","2018/09/03 07:58:52","新北市坪林區坪雙路二段97號","121.752673333333","24.9661016666667","6502000","坪林區"
"232005","758-BX","2018/09/03 07:58:42","新北市坪林區魚堀49號","121.700538333333","24.9300766666667","6502000","坪林區"
"244001","248-BX","2018/09/03 07:58:54","新北市林口區頂福28號","121.35201","25.0971833333333","6501700","林口區"
"244012","KEA-2802","2018/09/03 07:58:54","新北市林口區粉寮路二段88巷100-12號","121.40951","25.0901983333333","6501700","林口區"
"244022","483-VK","2018/09/03 07:58:48","新北市林口區粉寮62號","121.4073","25.0895766666667","6501700","林口區"
"244010","657-BX","2018/09/03 07:58:41","新北市林口區粉寮路二段88巷100-12號","121.40968","25.0901833333333","6501700","林口區"
"244024","837-TS","2018/09/03 07:58:48","新北市林口區粉寮路二段88巷100-12號","121.40965","25.0902183333333","6501700","林口區"
"222005","289-BY","2018/09/03 07:58:53","新北市深坑區文化街45號","121.616926666667","25.001765","6501800","深坑區"
"231007","189-VK","2018/09/03 07:58:53","新北市新店區華城路6號","121.530228333333","24.960525","6500600","新店區"
"231008","192-VK","2018/09/03 07:58:54","新北市新店區安一路一段1-1號","121.519228333333","24.961335","6500600","新店區"
"235001","611-BX","2018/09/03 07:58:45","新北市中和區圓通路367巷4號","121.491426666667","24.989285","6500300","中和區"
"226005","4501-MT","2018/09/03 07:58:55","新北市平溪區石底里公園街18-3號","121.733298333333","25.0258316666667","6502400","平溪區"
"226001","7418-A5","2018/09/03 07:58:53","新北市平溪區南山里乾坑11號","121.782703333333","25.047155","6502400","平溪區"
"226003","AGD-0702","2018/09/03 07:58:43","新北市平溪區新寮里頂寮子3-1號","121.767426666667","25.0504433333333","6502400","平溪區"
"223006","022-BY","2018/09/03 07:58:53","新北市石碇區番子坑24號","121.67839","25.0012766666667","6501900","石碇區"
"223002","KEA-2673","2018/09/03 07:58:54","新北市石碇區北宜路五段57號","121.632575","24.952225","6501900","石碇區"
"223003","205-TH","2018/09/03 07:55:01","新北市石碇區烏塗窟46-1號","121.655875","24.9727566666667","6501900","石碇區"
"223001","592-UM","2018/09/03 07:58:56","新北市石碇區橫坪8-1號","121.659733333333","24.9715433333333","6501900","石碇區"
"223004","660-BX","2018/09/03 07:58:42","新北市石碇區雙溪33-6號","121.649886666667","25.00842","6501900","石碇區"
"223007","661-BX","2018/09/03 07:58:47","新北市石碇區大溪墘2-4號","121.698868333333","25.012895","6501900","石碇區"
"223005","677-TV","2018/09/03 07:58:44","新北市石碇區外按11-5號","121.651668333333","24.9993183333333","6501900","石碇區"
"227005","282-VK","2018/09/03 07:58:52","新北市雙溪區平林里梅竹蹊16號","121.86199","25.03595","6502500","雙溪區"
"252006","073-UM","2018/09/03 07:58:50","新北市三芝區後厝里北勢子12-1號","121.47483","25.2553316666667","6502100","三芝區"
"252004","249-BX","2018/09/03 07:58:43","新北市三芝區店子里菜公坑81號","121.512978333333","25.20197","6502100","三芝區"
"237001","159-UY","2018/09/03 07:58:57","新北市三峽區大學路77號","121.376146666667","24.9416166666667","6500900","三峽區"
"236001","165-UM","2018/09/03 07:58:44","新北市土城區永豐路270巷19弄3號","121.469871666667","24.9770033333333","6501300","土城區"
"236001","KEA-2877","2018/09/03 07:58:44","新北市土城區龍泉路89-2號","121.445601666667","24.9422766666667","6501300","土城區"
"242033","AAC-296","2018/09/03 07:58:42","新北市新莊區新泰路34號","121.449633333333","25.034045","6500500","新莊區"
"242057","986-R7","2018/09/03 07:58:43","新北市新莊區中正路715號","121.42501","25.0297216666667","6500500","新莊區"
"242052","751-BX","2018/09/03 07:58:50","新北市新莊區瓊林南路307號","121.433965","25.0061733333333","6500500","新莊區"
"242024","705-TV","2018/09/03 07:58:51","新北市新莊區復興路二段31號","121.454293333333","25.044105","6500500","新莊區"
"242026","615-BX","2018/09/03 07:58:52","新北市新莊區思源路32號","121.460283333333","25.0411583333333","6500500","新莊區"
"242040","566-BX","2018/09/03 07:58:57","新北市新莊區新樹路113巷33號","121.439521666667","25.02641","6500500","新莊區"
"242045","497-BY","2018/09/03 07:58:55","新北市新莊區新樹路12-1號","121.439731666667","25.0313283333333","6500500","新莊區"
"242049","441-UM","2018/09/03 07:58:50","新北市新莊區新樹路403號","121.432718333333","25.0144066666667","6500500","新莊區"
"242055","440-UM","2018/09/03 07:58:46","新北市新莊區新泰路83號","121.44926","25.0346233333333","6500500","新莊區"
"242035","415-TV","2018/09/03 07:58:51","新北市新莊區建國二路5-3號","121.434826666667","25.0236966666667","6500500","新莊區"
"242006","413-TV","2018/09/03 07:58:44","新北市新莊區福樂街118巷5號","121.457265","25.0480433333333","6500500","新莊區"
"242043","400-BY","2018/09/03 07:58:55","新北市新莊區富國路101-1號","121.42135","25.0255116666667","6500500","新莊區"
"242022","362-BY","2018/09/03 07:58:47","新北市新莊區中華路一段110號","121.45241","25.0402116666667","6500500","新莊區"
"242059","353-BY","2018/09/03 07:58:56","新北市新莊區瓊林南路12-3號","121.436255","25.0188066666667","6500500","新莊區"
"242008","132-UY","2018/09/03 07:58:52","新北市新莊區中華路二段131號","121.452943333333","25.0506116666667","6500500","新莊區"
"242038","133-UY","2018/09/03 07:58:46","新北市新莊區民安路272號","121.427671666667","25.0213266666667","6500500","新莊區"
"242030","135-UY","2018/09/03 07:58:55","新北市新莊區新泰路401巷28-1號","121.442358333333","25.044205","6500500","新莊區"
"242047","172-VK","2018/09/03 07:58:50","新北市新莊區四維路213號","121.421628333333","25.0200016666667","6500500","新莊區"
"242016","175-VK","2018/09/03 07:58:56","新北市新莊區中華路一段101號","121.45262","25.043705","6500500","新莊區"
"242014","346-TH","2018/09/03 07:58:52","新北市新莊區建中街72號","121.44751","25.03696","6500500","新莊區"
"242020","348-TH","2018/09/03 07:59:00","新北市新莊區中華路一段18號","121.451985","25.0371383333333","6500500","新莊區"
"242001","349-TH","2018/09/03 07:58:41","新北市新莊區新莊路211號","121.45531","25.0354566666667","6500500","新莊區"
"242018","350-TH","2018/09/03 07:58:52","新北市新莊區中港路92號","121.455546666667","25.03935","6500500","新莊區"
"242012","351-TH","2018/09/03 07:58:45","新北市新莊區中誠街16巷12號","121.451995","25.0486166666667","6500500","新莊區"
"242010","281-VK","2018/09/03 07:58:41","新北市新莊區中港路435號","121.452481666667","25.04792","6500500","新莊區"
