"lineid","car","time","location","longitude","latitude","cityid","cityname"
"248005","653-BX","2018/09/03 08:08:21","新北市五股區明德路12巷3號","121.433298333333","25.0718466666667","6501500","五股區"
"232001","290-BY","2018/09/03 08:07:52","新北市坪林區坪雙路一段106號","121.723411666667","24.9468266666667","6502000","坪林區"
"232012","291-BY","2018/09/03 08:08:17","新北市坪林區九芎根2-1號","121.668426666667","24.888295","6502000","坪林區"
"232010","375-UM","2018/09/03 08:08:15","新北市坪林區厚德岡坑8-5號","121.733163333333","24.9410016666667","6502000","坪林區"
"232017","705-BZ","2018/09/03 08:08:12","新北市坪林區坪雙路二段128號","121.755901666667","24.961485","6502000","坪林區"
"232005","758-BX","2018/09/03 08:08:22","新北市坪林區九芎林24-2號","121.70406","24.9248533333333","6502000","坪林區"
"244006","080-UY","2018/09/03 08:08:11","新北市林口區粉寮路一段105號","121.397908333333","25.08032","6501700","林口區"
"244001","248-BX","2018/09/03 08:08:13","新北市林口區嘉寶里11鄰22號","121.339038333333","25.10799","6501700","林口區"
"244012","KEA-2802","2018/09/03 08:08:14","新北市林口區粉寮路一段77-2號","121.397055","25.0793283333333","6501700","林口區"
"244022","483-VK","2018/09/03 08:08:28","新北市林口區仁愛路一段304號","121.392111666667","25.0762833333333","6501700","林口區"
"244016","485-VK","2018/09/03 08:08:26","新北市林口區粉寮路二段88巷99-1號","121.407235","25.090115","6501700","林口區"
"244010","657-BX","2018/09/03 08:08:20","新北市林口區仁愛路一段280號","121.393233333333","25.0761016666667","6501700","林口區"
"244024","837-TS","2018/09/03 08:08:08","新北市林口區中山路188-2號","121.389316666667","25.0789433333333","6501700","林口區"
"222005","289-BY","2018/09/03 08:08:13","新北市深坑區文化街45號","121.616926666667","25.0017516666667","6501800","深坑區"
"231007","189-VK","2018/09/03 08:08:13","新北市新店區華潭街31號","121.52959","24.9551633333333","6500600","新店區"
"231008","192-VK","2018/09/03 08:06:01","新北市新店區安康路一段319號","121.522148333333","24.9637016666667","6500600","新店區"
"231053","719-UY","2018/09/03 08:08:21","新北市新店區安華路28-1號","121.519911666667","24.96101","6500600","新店區"
"235001","611-BX","2018/09/03 08:08:25","新北市中和區圓通路367巷33弄109號","121.49522","24.98404","6500300","中和區"
"226005","4501-MT","2018/09/03 08:08:15","新北市平溪區靜安路二段551號","121.748156666667","25.0248716666667","6502400","平溪區"
"226001","7418-A5","2018/09/03 08:08:14","新北市平溪區十分里姜仔坑11號","121.769231666667","25.0359633333333","6502400","平溪區"
"226003","AGD-0702","2018/09/03 08:08:23","新北市平溪區十分里十分街286號","121.7771","25.0484683333333","6502400","平溪區"
"223006","022-BY","2018/09/03 08:05:39","新北市石碇區靜安路一段292巷10號","121.691876666667","25.00588","6501900","石碇區"
"223002","KEA-2673","2018/09/03 08:08:14","新北市石碇區北宜路五段80號","121.646578333333","24.951745","6501900","石碇區"
"223003","205-TH","2018/09/03 08:08:21","新北市石碇區樟空子10-5號","121.666486666667","24.96407","6501900","石碇區"
"223008","406-TH","2018/09/03 08:08:12","新北市石碇區靜安路一段266號","121.684048333333","25.009085","6501900","石碇區"
"223001","592-UM","2018/09/03 08:08:16","新北市石碇區樟空子10-5號","121.666476666667","24.9640716666667","6501900","石碇區"
"223004","660-BX","2018/09/03 08:08:22","新北市石碇區外按16-1號","121.65062","24.9975266666667","6501900","石碇區"
"223005","677-TV","2018/09/03 08:08:25","新北市石碇區外按16-1號","121.650661666667","24.9975416666667","6501900","石碇區"
"227005","282-VK","2018/09/03 08:08:12","新北市雙溪區上林里內平林62號","121.832101666667","25.0295433333333","6502500","雙溪區"
"252006","073-UM","2018/09/03 08:07:50","新北市三芝區海景一街47號","121.47528","25.2467483333333","6502100","三芝區"
"252004","249-BX","2018/09/03 08:08:23","新北市三芝區興華里車埕24-2號","121.502081666667","25.19573","6502100","三芝區"
"237001","159-UY","2018/09/03 08:08:17","新北市三峽區大學路35號","121.377073333333","24.9405433333333","6500900","三峽區"
"236001","165-UM","2018/09/03 08:08:24","新北市土城區清水路194巷14號","121.460545","24.9813983333333","6501300","土城區"
"236001","KEA-2877","2018/09/03 08:08:24","新北市土城區龍泉路80-1號","121.435541666667","24.9423933333333","6501300","土城區"
"236005","498-BY","2018/09/03 08:08:23","新北市土城區永平街51號","121.427653333333","24.95921","6501300","土城區"
"242033","AAC-296","2018/09/03 08:08:22","新北市新莊區新莊路621號","121.445646666667","25.0328616666667","6500500","新莊區"
"242057","986-R7","2018/09/03 08:08:23","新北市新莊區中正路730-16號","121.414341666667","25.0234133333333","6500500","新莊區"
"242052","751-BX","2018/09/03 08:08:30","新北市新莊區樹新路120巷49弄1號","121.430273333333","24.9957816666667","6500500","新莊區"
"242024","705-TV","2018/09/03 08:08:31","新北市新莊區思源路157號","121.459528333333","25.0444916666667","6500500","新莊區"
"242026","615-BX","2018/09/03 08:08:12","新北市新莊區福壽街101號","121.45801","25.05051","6500500","新莊區"
"242040","566-BX","2018/09/03 08:08:19","新北市新莊區中正路514巷43號","121.432366666667","25.033455","6500500","新莊區"
"242045","497-BY","2018/09/03 08:08:18","新北市新莊區福營路103號","121.43401","25.0322733333333","6500500","新莊區"
"242049","441-UM","2018/09/03 08:08:19","新北市新莊區西盛街247號","121.428105","25.0160566666667","6500500","新莊區"
"242055","440-UM","2018/09/03 08:08:26","新北市新莊區新泰路3巷33號","121.448985","25.0320183333333","6500500","新莊區"
"242035","415-TV","2018/09/03 08:08:11","新北市新莊區建福路59巷45號","121.428585","25.0278683333333","6500500","新莊區"
"242006","413-TV","2018/09/03 08:08:24","新北市新莊區福樂街156巷12弄20號","121.456841666667","25.0486816666667","6500500","新莊區"
"242043","400-BY","2018/09/03 08:08:15","新北市新莊區富國路10號","121.418186666667","25.0262866666667","6500500","新莊區"
"242022","362-BY","2018/09/03 08:08:31","新北市新莊區民樂街37號","121.45782","25.0411916666667","6500500","新莊區"
"242059","353-BY","2018/09/03 08:08:16","新北市新莊區瓊林南路206號","121.434063333333","25.00652","6500500","新莊區"
"242008","132-UY","2018/09/03 08:08:12","新北市新莊區昌明街12號","121.457408333333","25.0524683333333","6500500","新莊區"
"242038","133-UY","2018/09/03 08:08:26","新北市新莊區民全街11號","121.428986666667","25.0214416666667","6500500","新莊區"
"242030","135-UY","2018/09/03 08:08:15","新北市新莊區新泰路320號","121.4451","25.0416766666667","6500500","新莊區"
"242047","172-VK","2018/09/03 08:08:10","新北市新莊區萬安街114號","121.4205","25.0221066666667","6500500","新莊區"
"242016","175-VK","2018/09/03 08:08:25","新北市新莊區復興路一段149巷21弄5號","121.449926666667","25.044085","6500500","新莊區"
"242014","346-TH","2018/09/03 08:08:22","新北市新莊區新泰路324號","121.445051666667","25.0417383333333","6500500","新莊區"
"242020","348-TH","2018/09/03 08:08:20","新北市新莊區中華路一段182號","121.452676666667","25.042315","6500500","新莊區"
"242001","349-TH","2018/09/03 08:08:22","新北市新莊區新莊路324號","121.450573333333","25.0336716666667","6500500","新莊區"
"242018","350-TH","2018/09/03 08:08:13","新北市新莊區中港路124號","121.455306666667","25.0403116666667","6500500","新莊區"
"242012","351-TH","2018/09/03 08:08:25","新北市新莊區中誠街144號","121.44873","25.0475916666667","6500500","新莊區"
"242010","281-VK","2018/09/03 08:08:27","新北市新莊區中港路601號","121.451435","25.0530333333333","6500500","新莊區"
