"lineid","car","time","location","longitude","latitude","cityid","cityname"
"248005","653-BX","2018/09/03 09:14:59","新北市五股區水碓路10號","121.433895","25.0722283333333","6501500","五股區"
"244006","080-UY","2018/09/03 09:14:51","新北市林口區林口路113巷6弄25號","121.388308333333","25.080335","6501700","林口區"
"244018","403-UM","2018/09/03 09:14:43","新北市林口區忠孝路551號","121.372446666667","25.0685966666667","6501700","林口區"
"244012","KEA-2802","2018/09/03 09:14:54","新北市林口區麗園一街6巷7-2號","121.375218333333","25.07075","6501700","林口區"
"244022","483-VK","2018/09/03 09:14:57","新北市林口區東湖路153巷9號","121.382678333333","25.0727983333333","6501700","林口區"
"244016","485-VK","2018/09/03 09:14:46","新北市林口區八德路78號","121.365501666667","25.0655833333333","6501700","林口區"
"244008","656-BX","2018/09/03 09:15:01","新北市林口區文化一路二段285-1號","121.384851666667","25.0845766666667","6501700","林口區"
"244010","657-BX","2018/09/03 09:14:41","新北市林口區粉寮路一段7號","121.396301666667","25.0762266666667","6501700","林口區"
"244001","658-BX","2018/09/03 09:14:56","新北市林口區建國路2號","121.388078333333","25.0928433333333","6501700","林口區"
"244024","837-TS","2018/09/03 09:14:48","新北市林口區文化北路一段400-1號","121.364083333333","25.075755","6501700","林口區"
"244020","838-TS","2018/09/03 09:14:55","新北市林口區自強一街2號","121.39762","25.0787566666667","6501700","林口區"
"222005","289-BY","2018/09/03 09:14:53","新北市深坑區土庫尖路75-1號","121.63121","25.0182166666667","6501800","深坑區"
"231007","189-VK","2018/09/03 09:14:53","新北市新店區新潭路三段215巷25號","121.50812","24.9040533333333","6500600","新店區"
"231008","192-VK","2018/09/03 09:14:59","新北市新店區廣興路60巷1-1號","121.539321666667","24.914","6500600","新店區"
"231053","719-UY","2018/09/03 09:15:00","新北市新店區雙峰路130號","121.595245","24.938225","6500600","新店區"
"235001","611-BX","2018/09/03 09:14:45","新北市中和區自治街10號","121.474346666667","25.0032133333333","6500300","中和區"
"226003","AGD-0702","2018/09/03 09:14:43","新北市平溪區望古里望古坑26號","121.763351666667","25.0343766666667","6502400","平溪區"
"223006","022-BY","2018/09/03 09:14:59","新北市深坑區文山路一段79號","121.626573333333","25.0017533333333","6501900","石碇區"
"223003","205-TH","2018/09/03 09:15:01","新北市石碇區北宜路六段水底寮巷18號","121.662116666667","24.9412566666667","6501900","石碇區"
"223008","406-TH","2018/09/03 09:14:54","新北市石碇區光明路27號","121.694811666667","25.0244316666667","6501900","石碇區"
"223001","592-UM","2018/09/03 09:14:56","新北市石碇區北宜路六段水底寮巷6號","121.663308333333","24.949995","6501900","石碇區"
"223004","660-BX","2018/09/03 09:14:42","新北市石碇區磨石坑36號","121.692155","24.9666733333333","6501900","石碇區"
"223005","677-TV","2018/09/03 09:14:56","新北市石碇區磨石坑36-6號","121.692058333333","24.9664683333333","6501900","石碇區"
"227005","282-VK","2018/09/03 09:12:12","新北市雙溪區泰平里料角坑19號","121.812058333333","24.9728133333333","6502500","雙溪區"
"252004","249-BX","2018/09/03 09:14:42","新北市三芝區興華里田心子21-1號","121.494553333333","25.20152","6502100","三芝區"
"237001","159-UY","2018/09/03 09:14:57","新北市三峽區學成路303號","121.376568333333","24.9438616666667","6500900","三峽區"
"236001","165-UM","2018/09/03 09:14:44","新北市土城區中央路三段238-3號","121.428355","24.96427","6501300","土城區"
"236001","KEA-2877","2018/09/03 09:14:44","新北市土城區裕民路242號","121.453923333333","24.98332","6501300","土城區"
"242033","AAC-296","2018/09/03 09:15:02","新北市新莊區建中街90巷3弄18號","121.445885","25.0371","6500500","新莊區"
"242057","986-R7","2018/09/03 09:14:43","新北市新莊區龍安路288-1號","121.422498333333","25.0191266666667","6500500","新莊區"
"242052","751-BX","2018/09/03 09:14:50","新北市新莊區民安西路288號","121.426123333333","25.0124983333333","6500500","新莊區"
"242024","705-TV","2018/09/03 09:14:51","新北市新莊區五工二路59號","121.460461666667","25.0655233333333","6500500","新莊區"
"242026","615-BX","2018/09/03 09:14:53","新北市新莊區思源路319號","121.46001","25.0492983333333","6500500","新莊區"
"242040","566-BX","2018/09/03 09:14:57","新北市新莊區天祥街54巷2弄1號","121.416695","25.0291716666667","6500500","新莊區"
"242045","497-BY","2018/09/03 09:14:55","新北市新莊區裕民街90巷1號","121.418125","25.0235933333333","6500500","新莊區"
"242049","441-UM","2018/09/03 09:14:50","新北市新莊區民安西路157號","121.426205","25.0165216666667","6500500","新莊區"
"242055","440-UM","2018/09/03 09:14:46","新北市新莊區新莊路649巷13弄14號","121.44558","25.0318183333333","6500500","新莊區"
"242035","415-TV","2018/09/03 09:14:51","新北市新莊區建安街62巷1弄12號","121.42648","25.0247183333333","6500500","新莊區"
"242043","400-BY","2018/09/03 09:14:55","新北市新莊區中正路730-9號","121.414633333333","25.0234933333333","6500500","新莊區"
"242022","362-BY","2018/09/03 09:14:58","新北市新莊區化成路770號","121.46526","25.05894","6500500","新莊區"
"242059","353-BY","2018/09/03 09:14:56","新北市新莊區瓊泰路51巷3號","121.443458333333","25.0283283333333","6500500","新莊區"
"242008","132-UY","2018/09/03 09:14:51","新北市新莊區幸福路35號","121.458595","25.04942","6500500","新莊區"
"242038","133-UY","2018/09/03 09:14:46","新北市新莊區民安路236號","121.42633","25.0220883333333","6500500","新莊區"
"242030","135-UY","2018/09/03 09:14:55","新北市新莊區公園一路71號","121.443175","25.0370516666667","6500500","新莊區"
"242047","172-VK","2018/09/03 09:14:54","新北市新莊區龍安路230號","121.420473333333","25.01976","6500500","新莊區"
"242014","346-TH","2018/09/03 09:14:52","新北市新莊區中平路82巷27號","121.446205","25.04515","6500500","新莊區"
"242020","348-TH","2018/09/03 09:15:00","新北市新莊區和興街7號","121.447468333333","25.0391466666667","6500500","新莊區"
"242001","349-TH","2018/09/03 09:15:01","新北市新莊區中正路48號","121.463948333333","25.0412016666667","6500500","新莊區"
"242018","350-TH","2018/09/03 09:14:52","新北市新莊區銘德街115號","121.455508333333","25.043205","6500500","新莊區"
"242012","351-TH","2018/09/03 09:14:44","新北市新莊區中和街191巷43號","121.447348333333","25.0512916666667","6500500","新莊區"
"242010","281-VK","2018/09/03 09:15:01","新北市新莊區中信街23巷1號","121.451043333333","25.0506216666667","6500500","新莊區"
