"lineid","car","time","location","longitude","latitude","cityid","cityname"
"244019","403-UM","2018/09/03 10:59:23","新北市林口區粉寮路二段88巷100-12號","121.40967","25.090225","6501700","林口區"
"244001","658-BX","2018/09/03 10:44:50","新北市林口區粉寮路二段88巷100-10號","121.409178333333","25.0902666666667","6501700","林口區"
"231007","189-VK","2018/09/03 10:59:33","新北市新店區新潭路二段62巷5-1號","121.518998333333","24.925045","6500600","新店區"
"231008","192-VK","2018/09/03 10:57:39","新北市新店區成功路126號","121.53368","24.8945333333333","6500600","新店區"
"231053","719-UY","2018/09/03 10:59:20","新北市新店區車子路10-3號","121.504651666667","24.9546366666667","6500600","新店區"
"227005","282-VK","2018/09/03 10:59:31","新北市雙溪區泰平里泰平58號","121.827646666667","24.9722833333333","6502500","雙溪區"
