"lineid","car","time","location","longitude","latitude","cityid","cityname"
"234044","148-BY","2018/09/03 13:29:33","新北市永和區秀朗路二段255號","121.526393333333","24.9993283333333","6500400","永和區"
"234005","207-UY","2018/09/03 13:29:18","新北市永和區中山路一段224號","121.50809","25.0082416666667","6500400","永和區"
"234078","298-R6","2018/09/03 13:29:31","新北市永和區環河東路三段52巷2弄2號","121.526585","25.006145","6500400","永和區"
"234036","336-UY","2018/09/03 13:29:26","新北市永和區民樂街38號","121.52754","25.000725","6500400","永和區"
"234062","337-UY","2018/09/03 13:29:17","新北市永和區中正路368巷1弄86號","121.52044","25.0007533333333","6500400","永和區"
"234084","338-UY","2018/09/03 13:29:28","新北市永和區國中路2號","121.524158333333","25.0042183333333","6500400","永和區"
"234068","552-UM","2018/09/03 13:29:24","新北市永和區竹林路182號","121.520378333333","25.00975","6500400","永和區"
"234015","745-BX","2018/09/03 13:29:30","新北市永和區環河西路一段87-1號","121.512555","25.0179966666667","6500400","永和區"
"234028","746-BX","2018/09/03 13:29:22","新北市永和區民生路55號","121.522721666667","24.9976316666667","6500400","永和區"
"234052","KEA-2590","2018/09/03 13:29:36","新北市永和區復興街21號","121.516095","25.0131116666667","6500400","永和區"
"234060","AAD-866","2018/09/03 13:29:27","新北市永和區中正路530號","121.517211666667","25.00515","6500400","永和區"
"234012","847-RS","2018/09/03 13:29:20","新北市永和區信義路14-1號","121.5143","25.01215","6500400","永和區"
"234040","862-TW","2018/09/03 13:29:29","新北市永和區中和路573號","121.51169","25.0034766666667","6500400","永和區"
"234048","863-TW","2018/09/03 13:29:18","新北市永和區保福路二段148號","121.50946","25.0147283333333","6500400","永和區"
"234025","9371-KE","2018/09/03 13:29:22","新北市永和區豫溪街52巷6號","121.51579","25.00954","6500400","永和區"
"234010","9373-KE","2018/09/03 13:29:31","新北市永和區仁愛路141巷5弄9號","121.512103333333","25.0121983333333","6500400","永和區"
"248015","026-BX","2018/09/03 13:29:23","新北市五股區凌雲路一段83巷22弄1號","121.449875","25.1007516666667","6501500","五股區"
"248005","077-UY","2018/09/03 13:29:29","新北市五股區四維路44號","121.467366666667","25.071985","6501500","五股區"
"248007","095-VK","2018/09/03 13:29:24","新北市五股區中興路二段78-5號","121.461353333333","25.0786016666667","6501500","五股區"
"248019","225-UY","2018/09/03 13:29:25","新北市五股區天乙路116號","121.447565","25.1143316666667","6501500","五股區"
"248011","247-BX","2018/09/03 13:29:36","新北市五股區御史路52巷2號","121.442065","25.0934516666667","6501500","五股區"
"248013","261-SL","2018/09/03 13:29:29","新北市五股區明德路7巷27號","121.43483","25.0708316666667","6501500","五股區"
"248003","677-BX","2018/09/03 13:29:29","新北市五股區六合街3號","121.431891666667","25.088535","6501500","五股區"
"248001","678-BX","2018/09/03 13:29:26","新北市五股區西雲路148號","121.44617","25.09431","6501500","五股區"
"248009","682-TV","2018/09/03 13:29:28","新北市五股區成泰路一段191號","121.434843333333","25.076555","6501500","五股區"
"234022","9380-KE","2018/09/03 13:29:26","新北市永和區竹林路91巷45號","121.521413333333","25.0128816666667","6500400","永和區"
"234076","969-R7","2018/09/03 13:29:26","新北市永和區智光街28號","121.517893333333","24.998895","6500400","永和區"
"234072","AAC-211","2018/09/03 13:29:28","新北市永和區永和路二段105號","121.514883333333","25.011885","6500400","永和區"
"234066","AAC-212","2018/09/03 13:29:26","新北市永和區保平路174巷12號","121.510523333333","25.007105","6500400","永和區"
"234001","AAC-295","2018/09/03 13:29:14","新北市永和區永平路152巷4號","121.511581666667","25.0089833333333","6500400","永和區"
"244001","248-BX","2018/09/03 13:29:34","新北市林口區瑞平里60-2號","121.337368333333","25.12398","6501700","林口區"
"244001","658-BX","2018/09/03 13:29:25","新北市林口區文化北路一段472號","121.365436666667","25.0776233333333","6501700","林口區"
"243005","AAD-798","2018/09/03 13:27:44","新北市泰山區明志路三段206巷1號","121.423346666667","25.0379233333333","6501600","泰山區"
"243008","KEA-2801","2018/09/03 13:29:29","新北市泰山區犁頭窠3-1號","121.422103333333","25.0604616666667","6501600","泰山區"
"243003","KEA-2215","2018/09/03 13:29:18","新北市泰山區黎明路25號","121.421956666667","25.0610133333333","6501600","泰山區"
"243004","646-TV","2018/09/03 13:29:23","新北市泰山區犁頭窠3-1號","121.421998333333","25.060565","6501600","泰山區"
"231002","002-UM","2018/09/03 13:29:28","新北市新店區環河路66號","121.536743333333","24.9628266666667","6500600","新店區"
"231027","0293-UT","2018/09/03 13:29:18","新北市新店區北新路一段43號","121.538033333333","24.9594566666667","6500600","新店區"
"231028","046-UY","2018/09/03 13:29:19","新北市新店區安華路28-1號","121.519511666667","24.96076","6500600","新店區"
"231001","047-UY","2018/09/03 13:29:15","新北市新店區環河路116號","121.537003333333","24.9673016666667","6500600","新店區"
"231005","106-UY","2018/09/03 13:29:22","新北市新店區北新路一段91號","121.53877","24.96184","6500600","新店區"
"231010","107-UY","2018/09/03 13:29:34","新北市新店區中央路7號","121.533495","24.9785516666667","6500600","新店區"
"231019","108-UY","2018/09/03 13:29:34","新北市新店區北宜路一段123-1號","121.540576666667","24.9535666666667","6500600","新店區"
"231035","110-UY","2018/09/03 13:29:22","新北市新店區安一路一段1-1號","121.519758333333","24.96107","6500600","新店區"
"231011","187-VK","2018/09/03 13:29:30","新北市新店區北新路一段285號","121.541273333333","24.9668566666667","6500600","新店區"
"231031","188-VK","2018/09/03 13:29:23","新北市新店區安豐路54-1號","121.499806666667","24.95417","6500600","新店區"
"231023","KEA-2219","2018/09/03 13:29:35","新北市新店區新店路13號","121.540316666667","24.95286","6500600","新店區"
"231026","256-BX","2018/09/03 13:29:28","新北市新店區環河路29巷1-1號","121.535716666667","24.9610033333333","6500600","新店區"
"231003","268-BY","2018/09/03 13:29:28","新北市新店區秀山路72號","121.531453333333","24.960845","6500600","新店區"
"231018","278-BY","2018/09/03 13:29:19","新北市新店區中央路67號","121.532553333333","24.9769666666667","6500600","新店區"
"231014","AAD-862","2018/09/03 13:29:25","新北市新店區北宜路二段30巷5弄10號","121.548408333333","24.9507","6500600","新店區"
"231038","3712-VJ","2018/09/03 13:29:20","新北市新店區安華路3號","121.519105","24.960375","6500600","新店區"
"231037","4716-K9","2018/09/03 13:29:18","新北市新店區安豐路54-1號","121.499991666667","24.9540316666667","6500600","新店區"
"231025","4715-K9","2018/09/03 13:29:25","新北市新店區中央六街53號","121.528053333333","24.9757966666667","6500600","新店區"
"231036","512-UM","2018/09/03 13:29:25","新北市新店區建業路102號","121.478776666667","24.955115","6500600","新店區"
"231013","513-UM","2018/09/03 13:29:18","新北市新店區中央路97號","121.531361666667","24.975265","6500600","新店區"
"231030","619-UM","2018/09/03 13:29:20","新北市新店區安華路1-1號","121.519718333333","24.960455","6500600","新店區"
"231034","641-BX","2018/09/03 13:29:22","新北市新店區安華路16號","121.517285","24.9580883333333","6500600","新店區"
"231029","897-TW","2018/09/03 13:29:26","新北市新店區安忠路57巷11弄14號","121.515305","24.9579033333333","6500600","新店區"
"231006","898-TW","2018/09/03 13:29:33","新北市新店區秀山路66號","121.530741666667","24.9609833333333","6500600","新店區"
"231004","899-TW","2018/09/03 13:29:27","新北市新店區安康路一段279號","121.523725","24.9635183333333","6500600","新店區"
"231024","AKT-0513","2018/09/03 13:29:37","新北市新店區中正路187號","121.540626666667","24.972325","6500600","新店區"
"235030","003-UY","2018/09/03 13:29:37","新北市中和區中山路二段122號","121.502606666667","25.0037833333333","6500300","中和區"
"235028","005-UY","2018/09/03 13:29:23","新北市中和區圓通路143號","121.498871666667","24.9957566666667","6500300","中和區"
"235027","006-UY","2018/09/03 13:29:21","新北市中和區連城路347巷16號","121.488376666667","24.9951033333333","6500300","中和區"
"235020","096-UM","2018/09/03 13:29:23","新北市中和區新生街116巷1號","121.483416666667","25.00201","6500300","中和區"
"235003","097-UM","2018/09/03 13:29:22","新北市中和區景平路166號","121.517138333333","24.992285","6500300","中和區"
"235029","098-UM","2018/09/03 13:29:34","新北市中和區莊敬路49巷19號","121.501428333333","25.00582","6500300","中和區"
"235004","150-BY","2018/09/03 13:29:28","新北市中和區安平路59號","121.50955","24.9950883333333","6500300","中和區"
"235022","151-BY","2018/09/03 13:29:29","新北市中和區圓通路369巷152號","121.487981666667","24.9815716666667","6500300","中和區"
"235019","183-VK","2018/09/03 13:29:23","新北市中和區莒光路207號","121.470013333333","24.9956383333333","6500300","中和區"
"235002","185-VK","2018/09/03 13:29:19","新北市中和區立人街57號","121.520255","24.9942466666667","6500300","中和區"
"235013","186-VK","2018/09/03 13:29:22","新北市中和區景安路179號","121.505128333333","24.9940783333333","6500300","中和區"
"235031","255-BX","2018/09/03 13:29:35","新北市中和區新生街288號","121.483635","24.9965533333333","6500300","中和區"
"235036","301-VK","2018/09/03 13:29:32","新北市中和區連城路259號","121.492683333333","24.996755","6500300","中和區"
"235007","352-BY","2018/09/03 13:29:27","新北市中和區景平路329巷2弄2號","121.505838333333","24.99304","6500300","中和區"
"235006","KEA-2878","2018/09/03 13:29:21","新北市中和區大智街57號","121.521143333333","24.9920566666667","6500300","中和區"
"235014","4979-A6","2018/09/03 13:29:24","新北市中和區景新街362巷3號","121.512031666667","24.9901","6500300","中和區"
"235033","4980-A6","2018/09/03 13:29:32","新北市中和區連城路127巷23號","121.496955","24.99786","6500300","中和區"
"235034","558-UM","2018/09/03 13:29:24","新北市中和區南華路69號","121.50462","24.997275","6500300","中和區"
"235009","565-BX","2018/09/03 13:29:25","新北市中和區南山路236巷22弄23號","121.504938333333","24.98926","6500300","中和區"
"235018","640-BX","2018/09/03 13:29:29","新北市中和區國光街6巷2號","121.472041666667","25.0003566666667","6500300","中和區"
"235024","647-TV","2018/09/03 13:29:36","新北市中和區員山路168號","121.4813","24.99976","6500300","中和區"
"235011","732-UM","2018/09/03 13:29:30","新北市中和區南山路493號","121.508015","24.9878766666667","6500300","中和區"
"235035","783-BX","2018/09/03 13:29:35","新北市中和區中板路30號","121.48307","25.0120733333333","6500300","中和區"
"235026","800-TS","2018/09/03 13:29:25","新北市中和區景平路989巷2號","121.495575","25.0054716666667","6500300","中和區"
"235021","801-TS","2018/09/03 13:29:23","新北市中和區民享街97巷11號","121.475311666667","24.999545","6500300","中和區"
"235005","802-TS","2018/09/03 13:29:34","新北市永和區中和路453號","121.509975","25.00143","6500300","中和區"
"235016","805-TS","2018/09/03 13:29:31","新北市中和區興南路二段96號","121.504973333333","24.9841016666667","6500300","中和區"
"235012","896-TW","2018/09/03 13:29:29","新北市中和區中正路637巷52弄1號","121.485406666667","24.9934333333333","6500300","中和區"
"235017","900-TW","2018/09/03 13:29:16","新北市中和區民享街457號","121.47038","24.9931416666667","6500300","中和區"
"235015","157-BY","2018/09/03 13:29:26","新北市中和區興南路二段142巷35弄2號","121.502373333333","24.9846116666667","6500300","中和區"
"235001","AAC-213","2018/09/03 13:29:18","新北市中和區景德街88號","121.516196666667","24.99145","6500300","中和區"
"235023","AAC-215","2018/09/03 13:29:22","新北市中和區員山路36巷13號","121.484176666667","24.9906916666667","6500300","中和區"
"220013","072-UY","2018/09/03 13:29:25","新北市板橋區南雅南路二段114號","121.453363333333","25.000585","6500100","板橋區"
"220034","073-UY","2018/09/03 13:29:22","新北市板橋區華東街1-10號","121.448265","24.99506","6500100","板橋區"
"247009","056-VK","2018/09/03 13:29:26","新北市五股區中興路三段2巷10號","121.449138333333","25.081015","6501400","蘆洲區"
"253003","6232-TK","2018/09/03 13:29:24","新北市石門區內石門50-4號","121.570848333333","25.2632466666667","6502200","石門區"
"253001","6251-TK","2018/09/03 13:29:37","新北市石門區崁子腳1號","121.532395","25.2882166666667","6502200","石門區"
"253002","637-UY","2018/09/03 13:29:19","新北市石門區九芎林6-3號","121.561015","25.2669766666667","6502200","石門區"
"253004","8270-PC","2018/09/03 13:29:11","新北市石門區竹子湖11號","121.61821","25.2573733333333","6502200","石門區"
"207002","749-BX","2018/09/03 13:29:23","新北市萬里區崁腳里崁腳路166號","121.645053333333","25.1557883333333","6502800","萬里區"
"252005","073-UM","2018/09/03 13:29:22","新北市三芝區福德里土地公埔65號","121.517836666667","25.226095","6502100","三芝區"
"207001","662-BX","2018/09/03 13:29:33","新北市萬里區龜吼里翡翠路18號","121.683285","25.1881816666667","6502800","萬里區"
"236005","498-BY","2018/09/03 13:29:27","新北市土城區亞洲路11巷1弄35號","121.436091666667","24.972","6501300","土城區"
"242047","172-VK","2018/09/03 13:29:22","新北市新莊區龍安路355號","121.423081666667","25.0190083333333","6500500","新莊區"
"221010","269-BY","2018/09/03 13:29:26","新北市汐止區汐萬路一段256巷3號","121.653068333333","25.07442","6501100","汐止區"
"221032","280-BY","2018/09/03 13:29:18","新北市汐止區水源路一段56號","121.657406666667","25.0655883333333","6501100","汐止區"
"220027","145-BY","2018/09/03 13:29:29","新北市板橋區華東街1-10號","121.44833","24.9950933333333","6500100","板橋區"
"220028","200-UY","2018/09/03 13:29:37","新北市板橋區華東街1-9號","121.44816","24.9948666666667","6500100","板橋區"
"220030","610-BX","2018/09/03 13:29:33","新北市板橋區華東街1-9號","121.448251666667","24.994905","6500100","板橋區"
"220019","283-VK","2018/09/03 13:29:31","新北市板橋區華東街1-10號","121.448665","24.9948733333333","6500100","板橋區"
"220031","286-VK","2018/09/03 13:29:27","新北市板橋區華東街1-10號","121.448326666667","24.9950766666667","6500100","板橋區"
"220032","296-UM","2018/09/03 13:29:26","新北市板橋區華東街1-9號","121.44814","24.9949883333333","6500100","板橋區"
"220023","303-R5","2018/09/03 13:29:17","新北市板橋區華東街1-9號","121.448181666667","24.9949916666667","6500100","板橋區"
"220012","486-VK","2018/09/03 13:29:26","新北市板橋區南雅南路二段4巷2號","121.454296666667","25.0037716666667","6500100","板橋區"
"220005","686-BX","2018/09/03 13:29:21","新北市板橋區華東街1-9號","121.448205","24.9949133333333","6500100","板橋區"
"220025","687-BX","2018/09/03 13:29:23","新北市板橋區篤行路一段30號","121.431925","24.9940216666667","6500100","板橋區"
"220002","741-BX","2018/09/03 13:29:24","新北市板橋區華東街1-9號","121.448093333333","24.9949116666667","6500100","板橋區"
"220014","830-TW","2018/09/03 13:29:26","新北市板橋區縣民大道三段137號","121.477733333333","25.0234866666667","6500100","板橋區"
"220022","895-R6","2018/09/03 13:29:29","新北市板橋區四川路二段130巷27號","121.449338333333","24.9942616666667","6500100","板橋區"
"220021","985-R7","2018/09/03 13:29:22","新北市板橋區華東街1-10號","121.44827","24.9949866666667","6500100","板橋區"
"235032","KEA-2873","2018/09/03 13:29:12","新北市中和區中正路271-5號","121.495826666667","24.9933483333333","6500300","中和區"
"235025","KEA-2875","2018/09/03 13:29:19","新北市中和區民享街97巷11號","121.4753","24.9995433333333","6500300","中和區"
