"lineid","car","time","location","longitude","latitude","cityid","cityname"
"234044","148-BY","2018/09/03 13:39:33","新北市永和區永利路133號","121.524048333333","25.0032583333333","6500400","永和區"
"234005","207-UY","2018/09/03 13:39:18","新北市永和區中山路一段26號","121.513705","25.0106683333333","6500400","永和區"
"234078","298-R6","2018/09/03 13:39:35","新北市永和區福和路7巷16弄8號","121.525141666667","25.0068433333333","6500400","永和區"
"234036","336-UY","2018/09/03 13:39:18","新北市永和區民樂街31巷10弄1號","121.528163333333","25.0007666666667","6500400","永和區"
"234062","337-UY","2018/09/03 13:39:17","新北市永和區秀朗路一段192巷6弄12號","121.51907","25.0023316666667","6500400","永和區"
"234084","338-UY","2018/09/03 13:39:28","新北市永和區林森路41巷31號","121.526231666667","25.0042966666667","6500400","永和區"
"234068","552-UM","2018/09/03 13:39:24","新北市永和區永和路二段237-2號","121.515686666667","25.01451","6500400","永和區"
"234015","745-BX","2018/09/03 13:39:30","新北市永和區文化路90巷32弄7號","121.513415","25.0169083333333","6500400","永和區"
"234028","746-BX","2018/09/03 13:39:22","新北市永和區民權路29巷19號","121.520973333333","24.99801","6500400","永和區"
"234052","KEA-2590","2018/09/03 13:39:33","新北市永和區竹林路39巷24弄3號","121.51912","25.0144966666667","6500400","永和區"
"234060","AAD-866","2018/09/03 13:39:27","新北市永和區中正路446號","121.517506666667","25.0027833333333","6500400","永和區"
"234012","847-RS","2018/09/03 13:39:27","新北市永和區中山路一段184巷10弄16號","121.508973333333","25.0096366666667","6500400","永和區"
"234040","862-TW","2018/09/03 13:39:30","新北市永和區水源街40號","121.510748333333","25.0044583333333","6500400","永和區"
"234048","863-TW","2018/09/03 13:39:18","新北市永和區環河西路一段107號","121.51105","25.0175066666667","6500400","永和區"
"234025","9371-KE","2018/09/03 13:39:22","新北市永和區永和路一段212號","121.514445","25.0094916666667","6500400","永和區"
"234010","9373-KE","2018/09/03 13:39:27","新北市永和區保福路二段23巷19號","121.510096666667","25.01119","6500400","永和區"
"248015","026-BX","2018/09/03 13:39:23","新北市五股區凌雲路一段149巷13-1號","121.4486","25.100885","6501500","五股區"
"248005","077-UY","2018/09/03 13:39:19","新北市五股區中興路一段24號","121.468741666667","25.07237","6501500","五股區"
"248007","095-VK","2018/09/03 13:39:24","新北市五股區中興路一段150巷10號","121.464686666667","25.0743616666667","6501500","五股區"
"248019","225-UY","2018/09/03 13:38:05","新北市五股區孝義路87號","121.444471666667","25.1199433333333","6501500","五股區"
"248011","247-BX","2018/09/03 13:39:21","新北市五股區成泰路三段2巷1-20號","121.441211666667","25.0866733333333","6501500","五股區"
"248013","261-SL","2018/09/03 13:39:28","新北市五股區中興路四段67-2號","121.436948333333","25.083365","6501500","五股區"
"248003","677-BX","2018/09/03 13:39:29","新北市五股區民義路一段242-3號","121.426531666667","25.09218","6501500","五股區"
"248001","678-BX","2018/09/03 13:39:26","新北市五股區西雲路221號","121.448813333333","25.0969516666667","6501500","五股區"
"248009","682-TV","2018/09/03 13:39:28","新北市五股區明德路8號","121.433341666667","25.0716733333333","6501500","五股區"
"234022","9380-KE","2018/09/03 13:39:26","新北市永和區中正路702巷18號","121.51647","25.0105583333333","6500400","永和區"
"234076","969-R7","2018/09/03 13:39:25","新北市永和區民權路3號","121.520321666667","24.9985066666667","6500400","永和區"
"234072","AAC-211","2018/09/03 13:39:28","新北市永和區竹林路213巷21號","121.52216","25.0089816666667","6500400","永和區"
"234066","AAC-212","2018/09/03 13:39:26","新北市永和區永貞路406巷28號","121.509735","25.00794","6500400","永和區"
"234001","AAC-295","2018/09/03 13:39:34","新北市永和區秀朗路一段39號","121.514098333333","25.006815","6500400","永和區"
"244001","248-BX","2018/09/03 13:39:34","新北市林口區瑞樹坑34-8號","121.3515","25.129655","6501700","林口區"
"244001","658-BX","2018/09/03 13:39:25","新北市林口區文化北路一段472號","121.365496666667","25.0777166666667","6501700","林口區"
"243005","AAD-798","2018/09/03 13:27:44","新北市泰山區明志路三段206巷1號","121.423346666667","25.0379233333333","6501600","泰山區"
"243001","297-R6","2018/09/03 13:39:33","新北市泰山區黎明路25號","121.421823333333","25.0608883333333","6501600","泰山區"
"243008","KEA-2801","2018/09/03 13:39:29","新北市泰山區泰林路二段544號","121.423425","25.0637983333333","6501600","泰山區"
"243007","421-VK","2018/09/03 13:39:28","新北市泰山區犁頭窠3-1號","121.422081666667","25.060605","6501600","泰山區"
"243003","KEA-2215","2018/09/03 13:39:18","新北市泰山區黎明路33號","121.4217","25.06057","6501600","泰山區"
"243002","KEA-2216","2018/09/03 13:39:33","新北市泰山區黎明路25號","121.421886666667","25.06065","6501600","泰山區"
"243004","646-TV","2018/09/03 13:39:23","新北市泰山區黎明路25號","121.421906666667","25.0606083333333","6501600","泰山區"
"231002","002-UM","2018/09/03 13:39:28","新北市新店區中央三街127號","121.524075","24.9768116666667","6500600","新店區"
"231027","0293-UT","2018/09/03 13:38:58","新北市新店區國校路76-1號","121.538618333333","24.9531166666667","6500600","新店區"
"231028","046-UY","2018/09/03 13:39:25","新北市新店區安和路一段25號","121.516913333333","24.9650533333333","6500600","新店區"
"231001","047-UY","2018/09/03 13:39:35","新北市新店區中央路45號","121.532855","24.97763","6500600","新店區"
"231005","106-UY","2018/09/03 13:39:22","新北市新店區寶中路72號","121.547858333333","24.9806183333333","6500600","新店區"
"231010","107-UY","2018/09/03 13:39:34","新北市新店區中正路307巷17號","121.535803333333","24.9735433333333","6500600","新店區"
"231019","108-UY","2018/09/03 13:39:34","新北市新店區永興路88-1號","121.544066666667","24.9336883333333","6500600","新店區"
"231035","110-UY","2018/09/03 13:39:22","新北市新店區安忠路56巷6號","121.513018333333","24.9594216666667","6500600","新店區"
"231011","187-VK","2018/09/03 13:39:30","新北市新店區德正街23巷12-1號","121.544626666667","24.972205","6500600","新店區"
"231031","188-VK","2018/09/03 13:39:23","新北市新店區莒光路28號","121.523621666667","24.9592616666667","6500600","新店區"
"231023","KEA-2219","2018/09/03 13:39:15","新北市新店區新店路112號","121.537153333333","24.95477","6500600","新店區"
"231026","256-BX","2018/09/03 13:39:28","新北市新店區北新路一段343號","121.541935","24.9689616666667","6500600","新店區"
"231003","268-BY","2018/09/03 13:39:28","新北市新店區中正路59號","121.544195","24.969865","6500600","新店區"
"231018","278-BY","2018/09/03 13:39:19","新北市新店區百忍街38號","121.533675","24.97589","6500600","新店區"
"231014","AAD-862","2018/09/03 13:39:25","新北市新店區竹林路30巷10號","121.551573333333","24.9510833333333","6500600","新店區"
"231038","3712-VJ","2018/09/03 13:39:20","新北市新店區安華路1-1號","121.51915","24.9604616666667","6500600","新店區"
"231037","4716-K9","2018/09/03 13:39:18","新北市新店區薏仁坑路35號","121.493285","24.96285","6500600","新店區"
"231025","4715-K9","2018/09/03 13:39:26","新北市新店區中央六街56號","121.528011666667","24.9758133333333","6500600","新店區"
"231036","512-UM","2018/09/03 13:39:25","新北市新店區安祥路142號","121.474301666667","24.955485","6500600","新店區"
"231013","513-UM","2018/09/03 13:39:18","新北市新店區中正路454-5號","121.534433333333","24.9790716666667","6500600","新店區"
"231030","619-UM","2018/09/03 13:39:20","新北市新店區安康路一段222-3號","121.522641666667","24.963765","6500600","新店區"
"231034","641-BX","2018/09/03 13:39:22","新北市新店區車子路134號","121.505063333333","24.94875","6500600","新店區"
"231029","897-TW","2018/09/03 13:39:26","新北市新店區安康路二段269號","121.504406666667","24.957865","6500600","新店區"
"231006","898-TW","2018/09/03 13:39:33","新北市新店區北宜路一段80號","121.538761666667","24.95587","6500600","新店區"
"231004","899-TW","2018/09/03 13:39:27","新北市新店區北新路二段13號","121.542616666667","24.97146","6500600","新店區"
"231024","AKT-0513","2018/09/03 13:39:36","新北市新店區中華路47巷3號","121.539778333333","24.9675683333333","6500600","新店區"
"235030","003-UY","2018/09/03 13:39:17","新北市中和區水源路39號","121.50461","25.0035533333333","6500300","中和區"
"235028","005-UY","2018/09/03 13:39:23","新北市中和區連城路109巷49號","121.49708","24.9982683333333","6500300","中和區"
"235027","006-UY","2018/09/03 13:39:21","新北市中和區連城路389巷20號","121.48657","24.9951","6500300","中和區"
"235020","096-UM","2018/09/03 13:39:26","新北市中和區員山路466巷21弄16號","121.480983333333","25.0069066666667","6500300","中和區"
"235003","097-UM","2018/09/03 13:39:22","新北市中和區景平路278巷14弄16號","121.51498","24.9932466666667","6500300","中和區"
"235029","098-UM","2018/09/03 13:39:31","新北市中和區中山路二段2巷81弄1號","121.501111666667","25.0076633333333","6500300","中和區"
"235004","150-BY","2018/09/03 13:39:27","新北市中和區安平路59號","121.509478333333","24.9952033333333","6500300","中和區"
"235022","151-BY","2018/09/03 13:39:29","新北市中和區圓通路369巷39-23號","121.490118333333","24.985245","6500300","中和區"
"235019","183-VK","2018/09/03 13:39:23","新北市中和區莒光路120巷19弄1-4號","121.47172","25.000815","6500300","中和區"
"235002","185-VK","2018/09/03 13:39:19","新北市永和區民有街69號","121.517828333333","24.9957083333333","6500300","中和區"
"235013","186-VK","2018/09/03 13:39:22","新北市中和區景安路132巷33號","121.503766666667","24.9944983333333","6500300","中和區"
"235031","255-BX","2018/09/03 13:39:35","新北市中和區新生街220巷4號","121.482928333333","24.99862","6500300","中和區"
"235008","293-VK","2018/09/03 13:39:26","新北市中和區復興路268號","121.5029","24.9904066666667","6500300","中和區"
"235036","301-VK","2018/09/03 13:39:32","新北市中和區連城路171巷41弄1號","121.496283333333","24.9965066666667","6500300","中和區"
"235007","352-BY","2018/09/03 13:39:27","新北市中和區景平路165號","121.512291666667","24.99244","6500300","中和區"
"235006","KEA-2878","2018/09/03 13:39:21","新北市中和區成功路127巷21號","121.527068333333","24.9910816666667","6500300","中和區"
"247011","KEA-2869","2018/09/03 13:39:20","新北市五股區中興路三段163號","121.449231666667","25.0806416666667","6501400","蘆洲區"
"235014","4979-A6","2018/09/03 13:39:24","新北市中和區景新街496巷28弄12號","121.512915","24.9859383333333","6500300","中和區"
"235033","4980-A6","2018/09/03 13:39:32","新北市中和區連城路89巷1號","121.496696666667","25.000135","6500300","中和區"
"235034","558-UM","2018/09/03 13:39:24","新北市中和區景平路590號","121.501101666667","24.9960766666667","6500300","中和區"
"235009","565-BX","2018/09/03 13:39:25","新北市中和區南山路236巷63弄1號","121.503806666667","24.9876616666667","6500300","中和區"
"235018","640-BX","2018/09/03 13:39:29","新北市中和區民享街105號","121.474838333333","24.99966","6500300","中和區"
"235024","647-TV","2018/09/03 13:39:16","新北市中和區員山路446號","121.48009","25.00556","6500300","中和區"
"235011","732-UM","2018/09/03 13:39:30","新北市中和區南山路320巷10弄1號","121.506968333333","24.9863466666667","6500300","中和區"
"235035","783-BX","2018/09/03 13:39:35","新北市中和區中原街92號","121.48808","25.010175","6500300","中和區"
"235026","800-TS","2018/09/03 13:39:33","新北市中和區中山路二段312巷1弄1號","121.495538333333","25.0025783333333","6500300","中和區"
"235021","801-TS","2018/09/03 13:39:23","新北市中和區民安街42巷36號","121.478936666667","25.00126","6500300","中和區"
"235005","802-TS","2018/09/03 13:39:34","新北市中和區中和路402號","121.511176666667","25.0027216666667","6500300","中和區"
"235016","805-TS","2018/09/03 13:39:31","新北市中和區興南路三段61號","121.493228333333","24.9751433333333","6500300","中和區"
"235012","896-TW","2018/09/03 13:39:29","新北市中和區中正路83號","121.500626666667","24.9934816666667","6500300","中和區"
"235017","900-TW","2018/09/03 13:39:36","新北市土城區延壽路118-6號","121.46907","24.9944916666667","6500300","中和區"
"235015","157-BY","2018/09/03 13:39:26","新北市中和區華新街143巷106弄32號","121.506226666667","24.97876","6500300","中和區"
"235001","AAC-213","2018/09/03 13:39:38","新北市中和區景德街52號","121.5176","24.991455","6500300","中和區"
"235023","AAC-215","2018/09/03 13:39:22","新北市中和區中正路501號","121.488856666667","24.9935533333333","6500300","中和區"
"220016","013-TV","2018/09/03 13:39:32","新北市板橋區民生路二段89-6號","121.47051","25.01941","6500100","板橋區"
"220013","072-UY","2018/09/03 13:39:25","新北市板橋區漢生東路270-3號","121.468773333333","25.0129083333333","6500100","板橋區"
"220034","073-UY","2018/09/03 13:39:22","新北市板橋區南雅西路二段177號","121.4518","25.0125666666667","6500100","板橋區"
"220017","AAD-861","2018/09/03 13:39:32","新北市板橋區華東街1-10號","121.448268333333","24.994925","6500100","板橋區"
"247009","056-VK","2018/09/03 13:39:26","新北市蘆洲區中正路520巷9號","121.462316666667","25.0994983333333","6501400","蘆洲區"
"253003","6232-TK","2018/09/03 13:39:24","新北市石門區內石門18-3號","121.57242","25.2743616666667","6502200","石門區"
"253001","6251-TK","2018/09/03 13:39:17","新北市石門區下員坑21-1號","121.511295","25.276985","6502200","石門區"
"253002","637-UY","2018/09/03 13:39:39","新北市石門區內石門79號","121.566325","25.2602933333333","6502200","石門區"
"253004","8270-PC","2018/09/03 13:39:23","新北市石門區阿里荖62號","121.607816666667","25.2674333333333","6502200","石門區"
"207002","749-BX","2018/09/03 13:39:23","新北市萬里區崁腳里崁腳路166號","121.645155","25.155855","6502800","萬里區"
"252005","073-UM","2018/09/03 13:39:22","新北市三芝區圓山里木屐寮30號","121.533136666667","25.2230866666667","6502100","三芝區"
"207001","662-BX","2018/09/03 13:39:33","新北市萬里區大鵬里萬里加投35-1號","121.646133333333","25.2112283333333","6502800","萬里區"
"236040","107-UM","2018/09/03 13:39:33","新北市土城區城林路6巷80號","121.438573333333","24.9797266666667","6501300","土城區"
"236029","253-BX","2018/09/03 13:39:18","新北市土城區城林路6巷80號","121.438573333333","24.9797566666667","6501300","土城區"
"236016","401-BY","2018/09/03 13:39:21","新北市土城區城林路6巷80號","121.438733333333","24.97982","6501300","土城區"
"236005","498-BY","2018/09/03 13:39:27","新北市土城區慶祥街19號","121.43679","24.974215","6501300","土城區"
"236045","913-UM","2018/09/03 13:39:22","新北市土城區城林路6巷80號","121.4386","24.9797183333333","6501300","土城區"
"242047","172-VK","2018/09/03 13:38:43","新北市新莊區龍安路541號","121.427853333333","25.0179416666667","6500500","新莊區"
"221010","269-BY","2018/09/03 13:39:26","新北市汐止區康寧街753巷10弄11-8號","121.639635","25.0754316666667","6501100","汐止區"
"221032","280-BY","2018/09/03 13:39:18","新北市汐止區仁愛路27號","121.659455","25.06373","6501100","汐止區"
"220027","145-BY","2018/09/03 13:39:29","新北市板橋區南雅西路二段183號","121.451856666667","25.0127966666667","6500100","板橋區"
"220028","200-UY","2018/09/03 13:39:29","新北市板橋區大觀路二段265巷76弄31號","121.441338333333","24.996695","6500100","板橋區"
"220030","610-BX","2018/09/03 13:39:33","新北市板橋區篤行路一段33號","121.432048333333","24.9943066666667","6500100","板橋區"
"220004","276-BY","2018/09/03 13:39:24","新北市土城區廣興街38號","121.453435","24.9914716666667","6500100","板橋區"
"220020","277-BY","2018/09/03 13:39:26","新北市板橋區大觀路三段62巷2號","121.433278333333","24.9951983333333","6500100","板橋區"
"220043","283-UM","2018/09/03 13:39:28","新北市板橋區民生路二段161巷1號","121.470068333333","25.020075","6500100","板橋區"
"220019","283-VK","2018/09/03 13:39:31","新北市土城區四川路2號","121.4559","24.99623","6500100","板橋區"
"220031","286-VK","2018/09/03 13:39:27","新北市板橋區大觀路二段55號","121.44673","25.0028083333333","6500100","板橋區"
"220029","287-VK","2018/09/03 13:39:33","新北市板橋區大觀路一段79號","121.447006666667","25.00421","6500100","板橋區"
"220009","295-UM","2018/09/03 13:39:28","新北市板橋區民生路二段120號","121.470313333333","25.0199633333333","6500100","板橋區"
"220032","296-UM","2018/09/03 13:39:26","新北市板橋區板城路421號","121.447943333333","24.9964733333333","6500100","板橋區"
"220010","299-UM","2018/09/03 13:39:19","新北市板橋區民生路二段226巷6弄2號","121.469615","25.0216966666667","6500100","板橋區"
"220023","303-R5","2018/09/03 13:39:37","新北市板橋區華東街328號","121.452821666667","25.0034416666667","6500100","板橋區"
"220047","317-R6","2018/09/03 13:39:18","新北市板橋區民生路二段188號","121.470248333333","25.0206233333333","6500100","板橋區"
"220012","486-VK","2018/09/03 13:39:26","新北市板橋區民生路二段36-1號","121.472143333333","25.016695","6500100","板橋區"
"220052","561-BX","2018/09/03 13:39:17","新北市板橋區民生路二段161巷1號","121.469963333333","25.019855","6500100","板橋區"
"220011","609-BX","2018/09/03 13:39:36","新北市板橋區民生路二段179號","121.469518333333","25.020285","6500100","板橋區"
"220005","686-BX","2018/09/03 13:39:21","新北市板橋區華東街1-9號","121.448228333333","24.9949683333333","6500100","板橋區"
"220025","687-BX","2018/09/03 13:39:23","新北市板橋區大觀路三段180巷30號","121.429836666667","24.99385","6500100","板橋區"
"220002","741-BX","2018/09/03 13:39:24","新北市板橋區南雅南路二段144巷60號","121.450185","24.997335","6500100","板橋區"
"220051","KEA-2699","2018/09/03 13:39:32","新北市板橋區民生路二段188號","121.47007","25.0207416666667","6500100","板橋區"
"220003","827-TW","2018/09/03 13:39:24","新北市板橋區華東街11號","121.451425","24.9984433333333","6500100","板橋區"
"220014","830-TW","2018/09/03 13:39:34","新北市板橋區三民路二段218號","121.478853333333","25.0116583333333","6500100","板橋區"
"220022","895-R6","2018/09/03 13:39:29","新北市板橋區南雅東路1號","121.455576666667","25.0056583333333","6500100","板橋區"
"220021","985-R7","2018/09/03 13:39:22","新北市板橋區館前西路90號","121.457406666667","25.00716","6500100","板橋區"
"235032","KEA-2873","2018/09/03 13:39:12","新北市中和區圓通路265巷29號","121.496273333333","24.9925116666667","6500300","中和區"
"235025","KEA-2875","2018/09/03 13:39:19","新北市中和區民享街90巷24號","121.473325","25.000085","6500300","中和區"
