"lineid","car","time","location","longitude","latitude","cityid","cityname"
"234044","148-BY","2018/09/03 13:59:33","新北市永和區成功路一段20號","121.527051666667","25.00496","6500400","永和區"
"234005","207-UY","2018/09/03 13:59:18","新北市中和區中和路382號","121.510726666667","25.0022633333333","6500400","永和區"
"234078","298-R6","2018/09/03 13:59:34","新北市永和區永利路83-1號","121.521401666667","25.0034366666667","6500400","永和區"
"234036","336-UY","2018/09/03 13:59:18","新北市永和區成功路二段179-1號","121.526631666667","24.9966533333333","6500400","永和區"
"234062","337-UY","2018/09/03 13:59:27","新北市永和區中正路368巷1弄43號","121.519035","25.0010566666667","6500400","永和區"
"234084","338-UY","2018/09/03 13:59:28","新北市永和區福和路158號","121.521465","25.0079133333333","6500400","永和區"
"234068","552-UM","2018/09/03 13:59:24","新北市永和區國光路16號","121.519026666667","25.0083666666667","6500400","永和區"
"234015","745-BX","2018/09/03 13:59:36","新北市永和區文化路123號","121.51221","25.0153666666667","6500400","永和區"
"234028","746-BX","2018/09/03 13:59:22","新北市永和區四維街103巷11號","121.524043333333","24.9976816666667","6500400","永和區"
"234052","KEA-2590","2018/09/03 13:59:17","新北市永和區竹林路39巷42弄1號","121.520041666667","25.0151616666667","6500400","永和區"
"234060","AAD-866","2018/09/03 13:59:27","新北市永和區中正路283巷82號","121.515516666667","24.9988933333333","6500400","永和區"
"234012","847-RS","2018/09/03 13:59:35","新北市永和區永平路304號","121.507238333333","25.01244","6500400","永和區"
"234040","862-TW","2018/09/03 13:59:29","新北市永和區中和路305巷2弄29號","121.507468333333","25.00003","6500400","永和區"
"234048","863-TW","2018/09/03 13:59:18","新北市永和區保安路258號","121.506118333333","25.0124066666667","6500400","永和區"
"234010","9373-KE","2018/09/03 13:59:27","新北市永和區仁愛路352巷114號","121.500533333333","25.0082766666667","6500400","永和區"
"248015","026-BX","2018/09/03 13:59:37","新北市五股區成泰路三段543巷12弄1號","121.451106666667","25.102125","6501500","五股區"
"248007","095-VK","2018/09/03 13:59:24","新北市五股區中興路一段120號","121.465906666667","25.073625","6501500","五股區"
"248019","225-UY","2018/09/03 13:59:04","新北市五股區凌雲路三段57號","121.425305","25.12502","6501500","五股區"
"248011","247-BX","2018/09/03 13:59:21","新北市五股區成泰路二段195巷1號","121.44033","25.0873416666667","6501500","五股區"
"248003","677-BX","2018/09/03 13:59:29","新北市五股區民義路二段83號","121.408526666667","25.1059683333333","6501500","五股區"
"248001","678-BX","2018/09/03 13:59:26","新北市五股區凌雲路一段156巷1號","121.448878333333","25.1026783333333","6501500","五股區"
"248009","682-TV","2018/09/03 13:59:28","新北市五股區水碓三路1號","121.428853333333","25.0707733333333","6501500","五股區"
"234022","9380-KE","2018/09/03 13:59:26","新北市永和區永和路二段271號","121.515926666667","25.0154383333333","6500400","永和區"
"234076","969-R7","2018/09/03 13:59:25","新北市永和區民族街43巷11號","121.519035","24.9984216666667","6500400","永和區"
"234072","AAC-211","2018/09/03 13:59:28","新北市永和區豫溪街148號","121.521795","25.0104033333333","6500400","永和區"
"234066","AAC-212","2018/09/03 13:59:26","新北市永和區永貞路358號","121.51018","25.006545","6500400","永和區"
"234001","AAC-295","2018/09/03 13:59:34","新北市永和區福和路318號","121.51579","25.0072583333333","6500400","永和區"
"244001","658-BX","2018/09/03 13:59:25","新北市林口區文化北路一段472號","121.365431666667","25.0776616666667","6501700","林口區"
"243005","AAD-798","2018/09/03 13:59:23","新北市泰山區明志路三段239號","121.423533333333","25.0377716666667","6501600","泰山區"
"243001","297-R6","2018/09/03 13:59:33","新北市泰山區泰林路二段236號","121.432346666667","25.0621466666667","6501600","泰山區"
"243008","KEA-2801","2018/09/03 13:59:29","新北市泰山區明志路二段137號","121.427745","25.0507066666667","6501600","泰山區"
"243007","421-VK","2018/09/03 13:59:32","新北市泰山區泰林路二段216號","121.432726666667","25.0618616666667","6501600","泰山區"
"243003","KEA-2215","2018/09/03 13:59:18","新北市泰山區明志路二段257號","121.427135","25.0477166666667","6501600","泰山區"
"243002","KEA-2216","2018/09/03 13:59:36","新北市泰山區辭修路28號","121.429066666667","25.0583033333333","6501600","泰山區"
"243004","646-TV","2018/09/03 13:59:23","新北市泰山區福興三街164號","121.432735","25.0570416666667","6501600","泰山區"
"243006","680-BX","2018/09/03 13:59:29","新北市泰山區黎明路13號","121.421055","25.0631733333333","6501600","泰山區"
"231002","002-UM","2018/09/03 13:59:28","新北市新店區溪園路205號","121.527173333333","24.9846783333333","6500600","新店區"
"231027","0293-UT","2018/09/03 13:59:18","新北市新店區中興路一段34號","121.538611666667","24.9586183333333","6500600","新店區"
"231028","046-UY","2018/09/03 13:59:19","新北市新店區安和路三段4號","121.51797","24.98093","6500600","新店區"
"231001","047-UY","2018/09/03 13:59:35","新北市新店區三民路45號","121.53713","24.97095","6500600","新店區"
"231005","106-UY","2018/09/03 13:59:22","新北市新店區中興路三段216號","121.54355","24.9824866666667","6500600","新店區"
"231010","107-UY","2018/09/03 13:59:34","新北市新店區環河路182-3號","121.534403333333","24.9697433333333","6500600","新店區"
"231019","108-UY","2018/09/03 13:59:34","新北市新店區新烏路二段40號","121.544841666667","24.9283333333333","6500600","新店區"
"231035","110-UY","2018/09/03 13:59:22","新北市新店區安康路二段85號","121.513535","24.9627416666667","6500600","新店區"
"231011","187-VK","2018/09/03 13:59:30","新北市新店區德正街27巷26號","121.545426666667","24.9710716666667","6500600","新店區"
"231031","188-VK","2018/09/03 13:59:23","新北市新店區莒光路87巷15號","121.52592","24.953515","6500600","新店區"
"231023","KEA-2219","2018/09/03 13:59:35","新北市新店區文中路54號","121.540238333333","24.95655","6500600","新店區"
"231026","256-BX","2018/09/03 13:59:28","新北市新店區環河路22-1號","121.536888333333","24.961905","6500600","新店區"
"231003","268-BY","2018/09/03 13:59:28","新北市新店區中興路一段110-1號","121.54133","24.9623266666667","6500600","新店區"
"231018","278-BY","2018/09/03 13:59:29","新北市新店區中央路137號","121.53037","24.9736416666667","6500600","新店區"
"231014","AAD-862","2018/09/03 13:59:25","新北市新店區郵政路70號","121.555283333333","24.9517533333333","6500600","新店區"
"231038","3712-VJ","2018/09/03 13:59:20","新北市新店區安華路30巷1號","121.519565","24.9592533333333","6500600","新店區"
"231037","4716-K9","2018/09/03 13:59:18","新北市新店區安康路三段359巷10弄2號","121.484226666667","24.9504066666667","6500600","新店區"
"231025","4715-K9","2018/09/03 13:59:25","新北市新店區建安街43號","121.538681666667","24.975805","6500600","新店區"
"231036","512-UM","2018/09/03 13:59:25","新北市新店區安祥路110巷30弄1號","121.473856666667","24.9563466666667","6500600","新店區"
"231013","513-UM","2018/09/03 13:59:38","新北市新店區明德路66號","121.541563333333","24.9795016666667","6500600","新店區"
"231030","619-UM","2018/09/03 13:59:19","新北市新店區安康路一段240-1號","121.521885","24.96379","6500600","新店區"
"231034","641-BX","2018/09/03 13:59:22","新北市新店區達觀路14巷1號","121.504516666667","24.941835","6500600","新店區"
"231029","897-TW","2018/09/03 13:59:26","新北市新店區安康路二段128號","121.512648333333","24.9624966666667","6500600","新店區"
"231006","898-TW","2018/09/03 13:59:33","新北市新店區北宜路二段209號","121.553118333333","24.953455","6500600","新店區"
"231004","899-TW","2018/09/03 13:59:27","新北市新店區北新路二段163號","121.542775","24.9762733333333","6500600","新店區"
"231024","AKT-0513","2018/09/03 13:59:17","新北市新店區力行路5號","121.539428333333","24.9646033333333","6500600","新店區"
"235030","003-UY","2018/09/03 13:59:17","新北市中和區中山路二段131巷2弄1號","121.502748333333","25.0027183333333","6500300","中和區"
"235028","005-UY","2018/09/03 13:59:23","新北市中和區連城路47巷3號","121.498386666667","25.0016316666667","6500300","中和區"
"235027","006-UY","2018/09/03 13:59:24","新北市中和區中正路462號","121.490173333333","24.99427","6500300","中和區"
"235020","096-UM","2018/09/03 13:59:22","新北市中和區中正路1214號","121.479905","25.01068","6500300","中和區"
"235003","097-UM","2018/09/03 13:59:22","新北市中和區秀朗路三段179號","121.52444","24.9908316666667","6500300","中和區"
"235029","098-UM","2018/09/03 13:59:31","新北市中和區中山路二段2巷71號","121.501523333333","25.0074583333333","6500300","中和區"
"235004","150-BY","2018/09/03 13:59:30","新北市中和區保健路65號","121.509756666667","24.9972516666667","6500300","中和區"
"235022","151-BY","2018/09/03 13:59:29","新北市中和區連城路534巷2號","121.4753","24.9914133333333","6500300","中和區"
"235019","183-VK","2018/09/03 13:59:23","新北市板橋區民族路304號","121.470573333333","25.00652","6500300","中和區"
"235002","185-VK","2018/09/03 13:59:19","新北市中和區立人街12號","121.519356666667","24.99439","6500300","中和區"
"235013","186-VK","2018/09/03 13:59:33","新北市中和區景新街216號","121.507078333333","24.995135","6500300","中和區"
"235031","255-BX","2018/09/03 13:59:34","新北市中和區新生街264號","121.483523333333","24.9972066666667","6500300","中和區"
"235008","293-VK","2018/09/03 13:59:26","新北市中和區中興街161巷10弄1號","121.50131","24.990855","6500300","中和區"
"235036","301-VK","2018/09/03 13:59:31","新北市中和區中山路二段41號","121.504661666667","25.0051733333333","6500300","中和區"
"235007","352-BY","2018/09/03 13:59:27","新北市中和區秀朗路三段101號","121.526563333333","24.9948566666667","6500300","中和區"
"235006","KEA-2878","2018/09/03 13:59:21","新北市中和區秀朗路三段128巷1弄4-5號","121.524388333333","24.99218","6500300","中和區"
"247011","KEA-2869","2018/09/03 13:59:20","新北市蘆洲區中興街10號","121.480295","25.0868533333333","6501400","蘆洲區"
"235014","4979-A6","2018/09/03 13:59:24","新北市中和區華新街71號","121.508173333333","24.9839516666667","6500300","中和區"
"235033","4980-A6","2018/09/03 13:59:32","新北市中和區景平路459巷2弄1號","121.500328333333","24.9963933333333","6500300","中和區"
"235034","558-UM","2018/09/03 13:59:24","新北市中和區中和路245號","121.504833333333","24.999785","6500300","中和區"
"235009","565-BX","2018/09/03 13:59:25","新北市中和區景新街467巷20弄126號","121.514911666667","24.9872266666667","6500300","中和區"
"235018","640-BX","2018/09/03 13:59:29","新北市中和區民治街30號","121.475278333333","25.0035816666667","6500300","中和區"
"235024","647-TV","2018/09/03 13:59:36","新北市中和區中山路三段206號","121.471573333333","25.006515","6500300","中和區"
"235011","732-UM","2018/09/03 13:59:30","新北市中和區興南路二段54巷11弄2號","121.505716666667","24.9857033333333","6500300","中和區"
"235010","733-UM","2018/09/03 13:59:30","新北市中和區興南路一段135巷22弄2號","121.509151666667","24.9868816666667","6500300","中和區"
"235035","783-BX","2018/09/03 13:59:35","新北市中和區立德街148巷2號","121.487556666667","25.0088016666667","6500300","中和區"
"235026","800-TS","2018/09/03 13:59:25","新北市中和區橋安街18號","121.492791666667","25.0049433333333","6500300","中和區"
"235021","801-TS","2018/09/03 13:59:23","新北市中和區民利街14巷5弄20號","121.479816666667","24.99929","6500300","中和區"
"235005","802-TS","2018/09/03 13:59:34","新北市中和區永貞路239巷15號","121.512725","25.0030866666667","6500300","中和區"
"235016","805-TS","2018/09/03 13:59:31","新北市中和區興南路二段261巷6-21號","121.502461666667","24.9796066666667","6500300","中和區"
"235012","896-TW","2018/09/03 13:59:29","新北市中和區華新街57號","121.50796","24.9842616666667","6500300","中和區"
"235017","900-TW","2018/09/03 13:59:36","新北市中和區民德路376號","121.465488333333","24.99447","6500300","中和區"
"235015","157-BY","2018/09/03 13:59:26","新北市中和區忠孝街19巷18號","121.510126666667","24.9833533333333","6500300","中和區"
"235001","AAC-213","2018/09/03 13:59:18","新北市永和區民生路83號","121.52263","24.99676","6500300","中和區"
"235023","AAC-215","2018/09/03 13:59:22","新北市中和區圓通路367巷20弄29號","121.4913","24.9882783333333","6500300","中和區"
"220016","013-TV","2018/09/03 13:59:32","新北市板橋區中山路二段465巷74弄2-2號","121.481266666667","25.0220383333333","6500100","板橋區"
"220013","072-UY","2018/09/03 13:59:25","新北市板橋區漢生東路319號","121.471866666667","25.00796","6500100","板橋區"
"220034","073-UY","2018/09/03 13:59:34","新北市板橋區中正路236巷19號","121.456791666667","25.01932","6500100","板橋區"
"220105","075-UY","2018/09/03 13:59:36","新北市板橋區莒光路42號","121.470466666667","25.02445","6500100","板橋區"
"220017","AAD-861","2018/09/03 13:59:32","新北市板橋區華興街61號","121.457388333333","25.004895","6500100","板橋區"
"247015","546-UM","2018/09/03 13:59:33","新北市蘆洲區光華路30號","121.469325","25.083265","6501400","蘆洲區"
"247013","339-TH","2018/09/03 13:59:32","新北市蘆洲區中正路148號","121.468986666667","25.0853466666667","6501400","蘆洲區"
"247005","337-TH","2018/09/03 13:59:33","新北市蘆洲區永安南路二段50號","121.466106666667","25.077635","6501400","蘆洲區"
"247007","336-TH","2018/09/03 13:59:28","新北市蘆洲區重陽街86號","121.481793333333","25.0844183333333","6501400","蘆洲區"
"247019","057-VK","2018/09/03 13:59:27","新北市蘆洲區民族路422巷29號","121.473533333333","25.0933716666667","6501400","蘆洲區"
"247009","056-VK","2018/09/03 13:59:25","新北市蘆洲區中興街38號","121.481295","25.0870483333333","6501400","蘆洲區"
"247017","007-UY","2018/09/03 13:59:19","新北市蘆洲區民族路255巷8號","121.476313333333","25.08989","6501400","蘆洲區"
"247003","002-UY","2018/09/03 13:59:26","新北市蘆洲區長榮路1號","121.46387","25.0819716666667","6501400","蘆洲區"
"247021","001-UY","2018/09/03 13:59:26","新北市蘆洲區中正路261號","121.467435","25.087385","6501400","蘆洲區"
"253003","6232-TK","2018/09/03 13:59:24","新北市石門區尖子鹿51號","121.580676666667","25.2731116666667","6502200","石門區"
"253001","6251-TK","2018/09/03 13:59:17","新北市石門區八甲58-2號","121.522211666667","25.2743683333333","6502200","石門區"
"253002","637-UY","2018/09/03 13:59:39","新北市石門區尖山湖3-1號","121.564011666667","25.241035","6502200","石門區"
"253004","8270-PC","2018/09/03 13:59:19","新北市石門區小坑40號","121.599313333333","25.2649416666667","6502200","石門區"
"207002","749-BX","2018/09/03 13:58:23","新北市萬里區溪底里烏塗炭9號","121.637238333333","25.1515766666667","6502800","萬里區"
"252005","073-UM","2018/09/03 13:59:22","新北市三芝區圓山里二坪頂71號","121.537836666667","25.2414466666667","6502100","三芝區"
"207001","662-BX","2018/09/03 13:59:33","新北市萬里區磺潭里磺溪12-1號","121.632766666667","25.2024716666667","6502800","萬里區"
"236064","105-UM","2018/09/03 13:59:21","新北市土城區城林路6巷80號","121.438683333333","24.9796466666667","6501300","土城區"
"236040","107-UM","2018/09/03 13:59:33","新北市土城區城林路6巷80號","121.438538333333","24.9797366666667","6501300","土城區"
"236074","166-UM","2018/09/03 13:59:34","新北市土城區永寧路32巷10弄23號","121.428883333333","24.961045","6501300","土城區"
"236029","253-BX","2018/09/03 13:59:26","新北市土城區興城路79號","121.439826666667","24.970775","6501300","土城區"
"236024","269-VK","2018/09/03 13:59:20","新北市土城區中華路二段210號","121.437605","24.9689616666667","6501300","土城區"
"236012","270-VK","2018/09/03 13:59:33","新北市土城區城林路6巷80號","121.43858","24.9797933333333","6501300","土城區"
"236032","271-VK","2018/09/03 13:59:21","新北市土城區城林路6巷80號","121.438385","24.9798116666667","6501300","土城區"
"236016","401-BY","2018/09/03 13:59:21","新北市土城區城林路6巷80號","121.438695","24.9797766666667","6501300","土城區"
"236005","498-BY","2018/09/03 13:59:27","新北市土城區中央路一段365巷10號","121.443781666667","24.9808133333333","6501300","土城區"
"236057","912-UM","2018/09/03 13:59:37","新北市土城區中央路三段280號","121.426741666667","24.963715","6501300","土城區"
"236045","913-UM","2018/09/03 13:59:22","新北市土城區城林路6巷80號","121.438466666667","24.9797616666667","6501300","土城區"
"236060","915-UM","2018/09/03 13:59:35","新北市土城區城林路6巷80號","121.438446666667","24.979755","6501300","土城區"
"236054","AAC-216","2018/09/03 13:59:35","新北市土城區城林路6巷80號","121.438566666667","24.979795","6501300","土城區"
"242047","172-VK","2018/09/03 13:59:23","新北市樹林區八德街437-1號","121.405256666667","24.969365","6500500","新莊區"
"221010","269-BY","2018/09/03 13:59:26","新北市汐止區八連路二段618號","121.621578333333","25.1102916666667","6501100","汐止區"
"221032","280-BY","2018/09/03 13:59:18","新北市汐止區龍安路44號","121.654236666667","25.0635733333333","6501100","汐止區"
"220027","145-BY","2018/09/03 13:59:29","新北市板橋區民權路117號","121.45859","25.0132466666667","6500100","板橋區"
"220028","200-UY","2018/09/03 13:59:17","新北市板橋區大觀路二段265巷20弄2號","121.442856666667","24.9982883333333","6500100","板橋區"
"220030","610-BX","2018/09/03 13:59:33","新北市板橋區滿平街139號","121.428941666667","24.9881933333333","6500100","板橋區"
"220050","245-BX","2018/09/03 13:59:19","新北市板橋區文化路二段182巷19號","121.472381666667","25.0268366666667","6500100","板橋區"
"220040","267-BY","2018/09/03 13:59:25","新北市板橋區大同街38號","121.47844","25.0274766666667","6500100","板橋區"
"220004","276-BY","2018/09/03 13:59:24","新北市板橋區信義路165號","121.458735","24.992185","6500100","板橋區"
"220020","277-BY","2018/09/03 13:59:38","新北市板橋區溪北路111號","121.43018","24.9887566666667","6500100","板橋區"
"220038","280-UM","2018/09/03 13:59:20","新北市板橋區文聖街20號","121.475838333333","25.0319","6500100","板橋區"
"220043","283-UM","2018/09/03 13:59:28","新北市板橋區光武街35-3號","121.4678","25.02513","6500100","板橋區"
"220019","283-VK","2018/09/03 13:59:31","新北市板橋區重慶路245巷54號","121.465226666667","25.000765","6500100","板橋區"
"220001","285-VK","2018/09/03 13:59:28","新北市板橋區中山路二段89巷44號","121.473731666667","25.0171016666667","6500100","板橋區"
"220031","286-VK","2018/09/03 13:59:27","新北市板橋區龍興街103巷1號","121.444493333333","25.0033833333333","6500100","板橋區"
"220029","287-VK","2018/09/03 13:59:33","新北市板橋區光華街19巷2號","121.453935","25.0121833333333","6500100","板橋區"
"220039","288-VK","2018/09/03 13:59:34","新北市板橋區互助街25巷9號","121.463216666667","25.0269416666667","6500100","板橋區"
"220009","295-UM","2018/09/03 13:59:28","新北市板橋區富山街98-1號","121.47639","25.0220066666667","6500100","板橋區"
"220032","296-UM","2018/09/03 13:59:26","新北市板橋區大觀路二段142-1號","121.442643333333","24.99908","6500100","板橋區"
"220010","299-UM","2018/09/03 13:59:19","新北市板橋區三民路二段245巷36號","121.480635","25.01256","6500100","板橋區"
"220023","303-R5","2018/09/03 13:59:37","新北市板橋區南雅西路二段190號","121.451625","25.014465","6500100","板橋區"
"220041","307-R5","2018/09/03 13:59:04","新北市板橋區文化路一段104巷15號","121.465196666667","25.018065","6500100","板橋區"
"220047","317-R6","2018/09/03 13:59:18","新北市板橋區民有街49號","121.465593333333","25.0260216666667","6500100","板橋區"
"220012","486-VK","2018/09/03 13:59:32","新北市板橋區板新路161號","121.469528333333","25.0156583333333","6500100","板橋區"
"220037","491-VK","2018/09/03 13:59:26","新北市板橋區民生路二段206號","121.469653333333","25.021135","6500100","板橋區"
"220104","560-BX","2018/09/03 13:59:36","新北市板橋區中正路294號","121.454933333333","25.020505","6500100","板橋區"
"220052","561-BX","2018/09/03 13:59:17","新北市板橋區介壽街86號","121.470291666667","25.0183733333333","6500100","板橋區"
"220011","609-BX","2018/09/03 13:59:16","新北市板橋區中山路二段125號","121.475011666667","25.0164533333333","6500100","板橋區"
"220005","686-BX","2018/09/03 13:59:25","新北市板橋區重慶路182號","121.462506666667","25.0034516666667","6500100","板橋區"
"220025","687-BX","2018/09/03 13:59:23","新北市板橋區大觀路二段174巷120號","121.44118","25.0019916666667","6500100","板橋區"
"220042","689-BX","2018/09/03 13:59:32","新北市板橋區民生路三段120-2號","121.466386666667","25.02671","6500100","板橋區"
"220002","741-BX","2018/09/03 13:59:24","新北市板橋區重慶路141號","121.462341666667","25.00439","6500100","板橋區"
"220051","KEA-2699","2018/09/03 13:59:33","新北市板橋區懷德街235巷2-1號","121.481418333333","25.0279766666667","6500100","板橋區"
"220003","827-TW","2018/09/03 13:59:24","新北市板橋區民安街26-1號","121.466893333333","25.011385","6500100","板橋區"
"220014","830-TW","2018/09/03 13:59:34","新北市板橋區三民路二段正隆巷12弄23號","121.477375","25.0138033333333","6500100","板橋區"
"220045","831-TW","2018/09/03 13:59:19","新北市板橋區莒光路101號","121.472575","25.0241533333333","6500100","板橋區"
"220022","895-R6","2018/09/03 13:59:29","新北市板橋區館前西路122號","121.456685","25.0078033333333","6500100","板橋區"
"220021","985-R7","2018/09/03 13:59:22","新北市板橋區中正路69號","121.456403333333","25.0139116666667","6500100","板橋區"
"220046","AAC-210","2018/09/03 13:59:33","新北市板橋區國光路197巷2號","121.46179","25.0188416666667","6500100","板橋區"
"220018","AAC-253","2018/09/03 13:59:33","新北市板橋區四川路一段489號","121.45713","24.9971716666667","6500100","板橋區"
"235032","KEA-2873","2018/09/03 13:59:12","新北市中和區連勝街11號","121.498896666667","24.9983766666667","6500300","中和區"
"235025","KEA-2875","2018/09/03 13:59:19","新北市中和區民治街128巷12號","121.47462","25.002905","6500300","中和區"
