"lineid","car","time","location","longitude","latitude","cityid","cityname"
"234044","148-BY","2018/09/03 14:09:33","新北市永和區得和路393號","121.525255","24.999265","6500400","永和區"
"234005","207-UY","2018/09/03 14:09:18","新北市中和區中和路302-1號","121.508718333333","25.0000083333333","6500400","永和區"
"234078","298-R6","2018/09/03 14:09:34","新北市永和區國中路53號","121.524561666667","25.006095","6500400","永和區"
"234036","336-UY","2018/09/03 14:08:58","新北市永和區成功路一段74號","121.526696666667","25.00346","6500400","永和區"
"234062","337-UY","2018/09/03 14:09:17","新北市永和區永利路96號","121.520916666667","25.0036716666667","6500400","永和區"
"234084","338-UY","2018/09/03 14:09:28","新北市永和區福和路289號","121.517248333333","25.00728","6500400","永和區"
"234068","552-UM","2018/09/03 14:09:24","新北市永和區福和路223號","121.518821666667","25.0074983333333","6500400","永和區"
"234015","745-BX","2018/09/03 14:09:30","新北市永和區文化路10號","121.515498333333","25.0150666666667","6500400","永和區"
"234028","746-BX","2018/09/03 14:09:22","新北市永和區民生路22巷10號","121.521981666667","24.99725","6500400","永和區"
"234052","KEA-2590","2018/09/03 14:09:33","新北市永和區環河東路一段106號","121.520041666667","25.016115","6500400","永和區"
"234060","AAD-866","2018/09/03 14:09:27","新北市中和區安平路222號","121.514075","25.000095","6500400","永和區"
"234012","847-RS","2018/09/03 14:09:20","新北市永和區仁愛路289號","121.505438333333","25.009405","6500400","永和區"
"234040","862-TW","2018/09/03 14:09:34","新北市永和區雙和街16巷20號","121.510016666667","25.0027666666667","6500400","永和區"
"234048","863-TW","2018/09/03 14:09:38","新北市永和區環河西路二段103號","121.506466666667","25.01466","6500400","永和區"
"234025","9371-KE","2018/09/03 14:09:22","新北市永和區永貞路216號","121.515288333333","25.0041683333333","6500400","永和區"
"234010","9373-KE","2018/09/03 14:09:34","新北市永和區環河西路二段241號","121.50058","25.0092516666667","6500400","永和區"
"248015","026-BX","2018/09/03 14:09:23","新北市五股區成泰路三段543巷54號","121.449581666667","25.103085","6501500","五股區"
"248007","095-VK","2018/09/03 14:09:24","新北市五股區中興路一段118巷20號","121.466025","25.0743766666667","6501500","五股區"
"248019","225-UY","2018/09/03 13:59:04","新北市五股區凌雲路三段57號","121.425305","25.12502","6501500","五股區"
"248011","247-BX","2018/09/03 14:09:21","新北市五股區工商路36巷16號","121.4398","25.084245","6501500","五股區"
"248003","677-BX","2018/09/03 14:09:29","新北市五股區六合街3號","121.431811666667","25.0886","6501500","五股區"
"248001","678-BX","2018/09/03 14:09:26","新北市五股區成泰路三段577巷52號","121.450738333333","25.1032366666667","6501500","五股區"
"248009","682-TV","2018/09/03 14:09:28","新北市五股區水碓二路1號","121.430635","25.0712666666667","6501500","五股區"
"234022","9380-KE","2018/09/03 14:09:26","新北市永和區博愛街32巷17-1號","121.518886666667","25.0152483333333","6500400","永和區"
"234076","969-R7","2018/09/03 14:09:25","新北市永和區民有街75巷10弄33號","121.519295","24.996025","6500400","永和區"
"234072","AAC-211","2018/09/03 14:09:28","新北市永和區竹林路201巷24弄9號","121.522688333333","25.0097666666667","6500400","永和區"
"234066","AAC-212","2018/09/03 14:09:28","新北市永和區保平路236巷7弄2號","121.508588333333","25.006125","6500400","永和區"
"234001","AAC-295","2018/09/03 14:09:34","新北市永和區中正路708號","121.516073333333","25.0099683333333","6500400","永和區"
"244001","658-BX","2018/09/03 14:09:25","新北市林口區文化北路一段472號","121.365425","25.0776683333333","6501700","林口區"
"243005","AAD-798","2018/09/03 14:09:23","新北市泰山區台麗街16巷12號","121.424313333333","25.0376616666667","6501600","泰山區"
"243001","297-R6","2018/09/03 14:09:33","新北市泰山區楓樹街15巷3號","121.434948333333","25.0630466666667","6501600","泰山區"
"243008","KEA-2801","2018/09/03 14:09:29","新北市泰山區明志路二段355號","121.425393333333","25.0443433333333","6501600","泰山區"
"243007","421-VK","2018/09/03 14:09:28","新北市泰山區明志路一段509號","121.430506666667","25.0543933333333","6501600","泰山區"
"243003","KEA-2215","2018/09/03 14:09:18","新北市泰山區明志路二段318號","121.426221666667","25.046015","6501600","泰山區"
"243002","KEA-2216","2018/09/03 14:08:53","新北市泰山區明志路一段483巷1弄1號","121.43108","25.0554333333333","6501600","泰山區"
"243004","646-TV","2018/09/03 14:09:23","新北市泰山區辭修路36巷8弄5號","121.427866666667","25.058565","6501600","泰山區"
"243006","680-BX","2018/09/03 14:09:29","新北市泰山區泰林路二段440號","121.426488333333","25.0643416666667","6501600","泰山區"
"231002","002-UM","2018/09/03 14:09:28","新北市新店區中正路602號","121.533866666667","24.98807","6500600","新店區"
"231027","0293-UT","2018/09/03 14:09:18","新北市新店區光明街79號","121.53896","24.9607","6500600","新店區"
"231028","046-UY","2018/09/03 14:09:28","新北市新店區安和路三段57號","121.51798","24.9829683333333","6500600","新店區"
"231001","047-UY","2018/09/03 14:09:35","新北市新店區中華路64號","121.539231666667","24.9690333333333","6500600","新店區"
"231005","106-UY","2018/09/03 14:09:22","新北市新店區中興路三段297號","121.542156666667","24.985195","6500600","新店區"
"231010","107-UY","2018/09/03 14:09:34","新北市新店區安一路一段1-1號","121.519675","24.961085","6500600","新店區"
"231019","108-UY","2018/09/03 14:09:34","新北市新店區屈尺路75號","121.54555","24.9227","6500600","新店區"
"231035","110-UY","2018/09/03 14:09:22","新北市新店區安和路一段52巷2-1號","121.517675","24.966305","6500600","新店區"
"231011","187-VK","2018/09/03 14:09:30","新北市新店區五峰路70巷1號","121.546325","24.9681183333333","6500600","新店區"
"231031","188-VK","2018/09/03 14:09:23","新北市新店區碧潭路44號","121.534328333333","24.95662","6500600","新店區"
"231023","KEA-2219","2018/09/03 14:09:15","新北市新店區文中路45號","121.539556666667","24.9565633333333","6500600","新店區"
"231003","268-BY","2018/09/03 14:09:28","新北市新店區中興路一段56號","121.53917","24.9595033333333","6500600","新店區"
"231018","278-BY","2018/09/03 14:09:19","新北市新店區中央五街46號","121.528155","24.9751933333333","6500600","新店區"
"231014","AAD-862","2018/09/03 14:09:25","新北市新店區北宜路二段458號","121.570623333333","24.956035","6500600","新店區"
"231038","3712-VJ","2018/09/03 14:09:20","新北市新店區安康路一段321巷7號","121.52195","24.9626666666667","6500600","新店區"
"231037","4716-K9","2018/09/03 14:09:17","新北市新店區安康路三段207巷15號","121.488408333333","24.950825","6500600","新店區"
"231025","4715-K9","2018/09/03 14:09:25","新北市新店區二十張路129巷1弄1號","121.53608","24.9791416666667","6500600","新店區"
"231036","512-UM","2018/09/03 14:09:25","新北市新店區安祥路109巷3弄3號","121.478043333333","24.96133","6500600","新店區"
"231013","513-UM","2018/09/03 14:09:18","新北市新店區二十張路1巷3弄3號","121.540635","24.9821266666667","6500600","新店區"
"231030","619-UM","2018/09/03 14:09:19","新北市新店區安興路7-1號","121.515028333333","24.968535","6500600","新店區"
"231034","641-BX","2018/09/03 14:09:22","新北市新店區黎明路3號","121.503176666667","24.9522266666667","6500600","新店區"
"231029","897-TW","2018/09/03 14:09:26","新北市新店區安康路二段78號","121.514136666667","24.9633733333333","6500600","新店區"
"231006","898-TW","2018/09/03 14:09:33","新北市新店區北宜路二段126號","121.556891666667","24.95389","6500600","新店區"
"231004","899-TW","2018/09/03 14:09:27","新北市新店區北新路二段150號","121.54299","24.9749916666667","6500600","新店區"
"235030","003-UY","2018/09/03 14:09:37","新北市中和區廣福路12-1號","121.505505","25.0027383333333","6500300","中和區"
"235028","005-UY","2018/09/03 14:09:23","新北市中和區連城路28號","121.498663333333","25.0020866666667","6500300","中和區"
"235027","006-UY","2018/09/03 14:09:21","新北市中和區中正路636號","121.485676666667","24.9962633333333","6500300","中和區"
"235020","096-UM","2018/09/03 14:09:22","新北市中和區員山路524號","121.478891666667","25.0096766666667","6500300","中和區"
"235003","097-UM","2018/09/03 14:09:22","新北市中和區秀峰街119巷4弄1號","121.519786666667","24.9901883333333","6500300","中和區"
"235029","098-UM","2018/09/03 14:09:31","新北市中和區中山路二段2巷3弄2號","121.504856666667","25.0062466666667","6500300","中和區"
"235004","150-BY","2018/09/03 14:09:27","新北市中和區保健路67巷3弄3號","121.509768333333","24.997455","6500300","中和區"
"235022","151-BY","2018/09/03 14:09:29","新北市中和區員山路143巷21號","121.479831666667","24.9956566666667","6500300","中和區"
"235019","183-VK","2018/09/03 14:09:23","新北市中和區德光路132號","121.467978333333","25.0031833333333","6500300","中和區"
"235002","185-VK","2018/09/03 14:09:19","新北市中和區大仁街10巷27弄4號","121.519231666667","24.99273","6500300","中和區"
"235013","186-VK","2018/09/03 14:09:22","新北市中和區明仁街4號","121.505915","24.9954216666667","6500300","中和區"
"235031","255-BX","2018/09/03 14:09:34","新北市中和區新生街176巷24號","121.482525","24.999905","6500300","中和區"
"235008","293-VK","2018/09/03 14:09:26","新北市中和區復興路348號","121.50009","24.9904066666667","6500300","中和區"
"235036","301-VK","2018/09/03 14:09:32","新北市中和區中山路二段170號","121.501223333333","25.0029183333333","6500300","中和區"
"235007","352-BY","2018/09/03 14:09:26","新北市中和區景平路116號","121.519548333333","24.991545","6500300","中和區"
"235006","KEA-2878","2018/09/03 14:09:21","新北市中和區自強路15巷2號","121.520588333333","24.9934883333333","6500300","中和區"
"247011","KEA-2869","2018/09/03 14:09:20","新北市蘆洲區信義路333號","121.478081666667","25.0868616666667","6501400","蘆洲區"
"235014","4979-A6","2018/09/03 14:09:24","新北市中和區復興路249巷11弄3號","121.503491666667","24.98978","6500300","中和區"
"235033","4980-A6","2018/09/03 14:09:32","新北市中和區中和路217巷18弄1號","121.504726666667","25.0003416666667","6500300","中和區"
"235034","558-UM","2018/09/03 14:09:24","新北市中和區中和路31號","121.499948333333","25.00181","6500300","中和區"
"235009","565-BX","2018/09/03 14:09:24","新北市中和區景新街467巷15弄12號","121.513801666667","24.9888133333333","6500300","中和區"
"235018","640-BX","2018/09/03 14:09:34","新北市中和區國光街8巷2號","121.471718333333","25.000245","6500300","中和區"
"235024","647-TV","2018/09/03 14:09:36","新北市中和區民治街17巷2號","121.475288333333","25.0028483333333","6500300","中和區"
"235011","732-UM","2018/09/03 14:09:30","新北市中和區興南路一段64巷2號","121.510811666667","24.99029","6500300","中和區"
"235010","733-UM","2018/09/03 14:09:30","新北市中和區忠孝街1巷17號","121.508566666667","24.9838283333333","6500300","中和區"
"235035","783-BX","2018/09/03 14:09:35","新北市中和區中山路二段482巷11弄1號","121.488493333333","25.0063133333333","6500300","中和區"
"235026","800-TS","2018/09/03 14:09:25","新北市中和區中山路二段362號","121.492481666667","25.0030183333333","6500300","中和區"
"235021","801-TS","2018/09/03 14:09:04","新北市中和區民利街68巷5弄34號","121.4775","24.9988866666667","6500300","中和區"
"235005","802-TS","2018/09/03 14:09:34","新北市中和區中安街178巷13弄1號","121.51024","24.9986833333333","6500300","中和區"
"235016","805-TS","2018/09/03 14:09:31","新北市中和區興南路二段142巷19弄40號","121.50251","24.9834266666667","6500300","中和區"
"235012","896-TW","2018/09/03 14:09:36","新北市中和區工專路147號","121.508505","24.9788583333333","6500300","中和區"
"235017","900-TW","2018/09/03 14:09:36","新北市中和區華福街71巷32號","121.467728333333","24.9969816666667","6500300","中和區"
"235015","157-BY","2018/09/03 14:09:26","新北市中和區興南路一段77號","121.510145","24.98913","6500300","中和區"
"235001","AAC-213","2018/09/03 14:09:18","新北市中和區秀朗路三段58-3號","121.525843333333","24.9951033333333","6500300","中和區"
"235023","AAC-215","2018/09/03 14:09:22","新北市中和區圓通路294巷15號","121.488771666667","24.990205","6500300","中和區"
"220016","013-TV","2018/09/03 14:09:32","新北市板橋區翠華街6巷25號","121.481318333333","25.0243416666667","6500100","板橋區"
"220013","072-UY","2018/09/03 14:09:25","新北市板橋區民族路219巷7號","121.469366666667","25.0080316666667","6500100","板橋區"
"220034","073-UY","2018/09/03 14:09:22","新北市板橋區中正路216巷45號","121.457251666667","25.0189516666667","6500100","板橋區"
"220105","075-UY","2018/09/03 14:09:32","新北市板橋區雙十路三段10巷13號","121.472243333333","25.0309616666667","6500100","板橋區"
"220017","AAD-861","2018/09/03 14:09:32","新北市板橋區貴興路1號","121.457848333333","25.0045883333333","6500100","板橋區"
"247001","893-R6","2018/09/03 14:09:24","新北市蘆洲區永平街56號","121.457621666667","25.0914683333333","6501400","蘆洲區"
"247015","546-UM","2018/09/03 14:09:33","新北市蘆洲區光華路46巷35號","121.467816666667","25.084195","6501400","蘆洲區"
"247023","500-BY","2018/09/03 14:09:18","新北市蘆洲區光榮路88號","121.463608333333","25.0888783333333","6501400","蘆洲區"
"247013","339-TH","2018/09/03 14:09:32","新北市蘆洲區忠孝路39-1號","121.471333333333","25.0859266666667","6501400","蘆洲區"
"247005","337-TH","2018/09/03 14:09:33","新北市蘆洲區九芎街13號","121.468251666667","25.078455","6501400","蘆洲區"
"247007","336-TH","2018/09/03 14:09:28","新北市三重區三和路四段420號","121.480781666667","25.0801716666667","6501400","蘆洲區"
"247019","057-VK","2018/09/03 14:09:27","新北市蘆洲區仁愛街36巷18號","121.472851666667","25.0935433333333","6501400","蘆洲區"
"247009","056-VK","2018/09/03 14:09:25","新北市蘆洲區三民路52號","121.475363333333","25.0836183333333","6501400","蘆洲區"
"247017","007-UY","2018/09/03 14:09:19","新北市蘆洲區復興路105巷11號","121.476335","25.0884966666667","6501400","蘆洲區"
"247003","002-UY","2018/09/03 14:09:26","新北市蘆洲區中華街6巷26號","121.462885","25.0821983333333","6501400","蘆洲區"
"247021","001-UY","2018/09/03 14:09:26","新北市蘆洲區三民路169號","121.471216666667","25.0871683333333","6501400","蘆洲區"
"253003","6232-TK","2018/09/03 14:09:24","新北市石門區阿里磅80號","121.5842","25.2673316666667","6502200","石門區"
"253001","6251-TK","2018/09/03 14:09:17","新北市石門區下員坑50-1號","121.518606666667","25.2723333333333","6502200","石門區"
"253002","637-UY","2018/09/03 14:08:58","新北市石門區七股59號","121.553148333333","25.25322","6502200","石門區"
"253004","8270-PC","2018/09/03 14:09:19","新北市石門區坪林50號","121.589091666667","25.26906","6502200","石門區"
"207002","749-BX","2018/09/03 14:08:43","新北市萬里區溪底里瑞泉路3號","121.610598333333","25.1443216666667","6502800","萬里區"
"252005","073-UM","2018/09/03 14:09:22","新北市三芝區橫山里橫山49號","121.534641666667","25.257325","6502100","三芝區"
"207001","662-BX","2018/09/03 14:09:33","新北市萬里區磺潭里清水18號","121.637818333333","25.1977016666667","6502800","萬里區"
"236064","105-UM","2018/09/03 14:09:21","新北市土城區明德路一段295號","121.46005","24.9772483333333","6501300","土城區"
"236040","107-UM","2018/09/03 14:09:33","新北市土城區中華路一段257號","121.440501666667","24.9808516666667","6501300","土城區"
"236074","166-UM","2018/09/03 14:09:34","新北市土城區永寧路25號","121.430538333333","24.9634633333333","6501300","土城區"
"236029","253-BX","2018/09/03 14:09:26","新北市土城區中央路三段1號","121.439791666667","24.9707383333333","6501300","土城區"
"236024","269-VK","2018/09/03 14:09:20","新北市土城區承天路22號","121.43965","24.9633766666667","6501300","土城區"
"236012","270-VK","2018/09/03 14:09:33","新北市土城區學府路一段60號","121.457191666667","24.98848","6501300","土城區"
"236032","271-VK","2018/09/03 14:09:21","新北市土城區明德路一段375-1號","121.454971666667","24.9781366666667","6501300","土城區"
"236016","401-BY","2018/09/03 14:09:21","新北市土城區城林路6巷80號","121.438678333333","24.9797816666667","6501300","土城區"
"236005","498-BY","2018/09/03 14:09:27","新北市土城區中央路一段25號","121.448431666667","24.9909183333333","6501300","土城區"
"236057","912-UM","2018/09/03 14:09:17","新北市土城區中央路四段139-1號","121.415776666667","24.9573033333333","6501300","土城區"
"236045","913-UM","2018/09/03 14:09:22","新北市土城區明德路一段365-1號","121.45356","24.979055","6501300","土城區"
"236060","915-UM","2018/09/03 14:09:35","新北市土城區金城路一段112號","121.446915","24.9758033333333","6501300","土城區"
"236054","AAC-216","2018/09/03 14:09:35","新北市土城區城林路6巷80號","121.43838","24.9795533333333","6501300","土城區"
"221010","269-BY","2018/09/03 14:09:26","新北市汐止區長青路210巷61號","121.61446","25.116065","6501100","汐止區"
"221032","280-BY","2018/09/03 14:09:18","新北市汐止區龍安路28巷8號","121.654941666667","25.0644066666667","6501100","汐止區"
"220027","145-BY","2018/09/03 14:09:29","新北市板橋區民權路202巷9弄24號","121.45944","25.01577","6500100","板橋區"
"220028","200-UY","2018/09/03 14:09:37","新北市板橋區大觀路二段5號","121.447138333333","25.0039183333333","6500100","板橋區"
"220030","610-BX","2018/09/03 14:09:33","新北市板橋區溪崑二街63號","121.428075","24.9904233333333","6500100","板橋區"
"220050","245-BX","2018/09/03 14:09:19","新北市板橋區萬板路35號","121.470716666667","25.0210916666667","6500100","板橋區"
"220040","267-BY","2018/09/03 14:09:25","新北市板橋區縣民大道247巷80號","121.482106666667","25.026935","6500100","板橋區"
"220004","276-BY","2018/09/03 14:09:24","新北市板橋區信義路110巷2弄2號","121.457928333333","24.9923583333333","6500100","板橋區"
"220020","277-BY","2018/09/03 14:09:38","新北市板橋區金門街372巷40號","121.427498333333","24.9849883333333","6500100","板橋區"
"220038","280-UM","2018/09/03 14:09:20","新北市板橋區文化路二段239號","121.471158333333","25.02864","6500100","板橋區"
"220043","283-UM","2018/09/03 14:09:28","新北市板橋區光武街138號","121.465373333333","25.0300783333333","6500100","板橋區"
"220019","283-VK","2018/09/03 14:09:31","新北市板橋區重慶路247-3號","121.46331","25.000325","6500100","板橋區"
"220001","285-VK","2018/09/03 14:09:28","新北市板橋區懷仁街24巷23號","121.475663333333","25.0192283333333","6500100","板橋區"
"220031","286-VK","2018/09/03 14:09:36","新北市板橋區大觀路二段174巷165弄2號","121.44185","25.0033666666667","6500100","板橋區"
"220029","287-VK","2018/09/03 14:09:33","新北市板橋區南雅西路二段160號","121.451731666667","25.01343","6500100","板橋區"
"220039","288-VK","2018/09/03 14:09:35","新北市板橋區裕民街47號","121.46146","25.0285316666667","6500100","板橋區"
"220009","295-UM","2018/09/03 14:09:28","新北市板橋區三民路二段21巷15號","121.4799","25.0181983333333","6500100","板橋區"
"220032","296-UM","2018/09/03 14:09:30","新北市板橋區溪崑一街45號","121.430226666667","24.990975","6500100","板橋區"
"220010","299-UM","2018/09/03 14:09:19","新北市板橋區三民路二段居仁巷1弄22號","121.479866666667","25.013615","6500100","板橋區"
"220023","303-R5","2018/09/03 14:09:37","新北市板橋區府中路141-1號","121.455638333333","25.0094416666667","6500100","板橋區"
"220041","307-R5","2018/09/03 14:09:27","新北市板橋區文化路二段225巷60弄32號","121.469155","25.0291933333333","6500100","板橋區"
"220047","317-R6","2018/09/03 14:09:18","新北市板橋區四維路100號","121.465751666667","25.0243816666667","6500100","板橋區"
"220012","486-VK","2018/09/03 14:09:34","新北市板橋區板新路96號","121.47233","25.0147033333333","6500100","板橋區"
"220037","491-VK","2018/09/03 14:09:26","新北市板橋區莊敬路56號","121.472725","25.026945","6500100","板橋區"
"220104","560-BX","2018/09/03 14:09:36","新北市板橋區中正路379巷18號","121.453626666667","25.0218233333333","6500100","板橋區"
"220052","561-BX","2018/09/03 14:09:17","新北市板橋區介壽街84巷48號","121.468755","25.0184883333333","6500100","板橋區"
"220011","609-BX","2018/09/03 14:09:36","新北市板橋區三民路二段31號","121.479395","25.0178033333333","6500100","板橋區"
"220005","686-BX","2018/09/03 14:09:08","新北市板橋區重慶路342號","121.464256666667","24.9973933333333","6500100","板橋區"
"220025","687-BX","2018/09/03 14:09:26","新北市板橋區龍興街97巷2號","121.444138333333","25.0026266666667","6500100","板橋區"
"220042","689-BX","2018/09/03 14:09:25","新北市板橋區民生路三段175號","121.46563","25.0272433333333","6500100","板橋區"
"220002","741-BX","2018/09/03 14:09:25","新北市板橋區重慶路89巷13號","121.462598333333","25.0066016666667","6500100","板橋區"
"220051","KEA-2699","2018/09/03 14:09:35","新北市板橋區田單街49巷1弄1號","121.482701666667","25.028325","6500100","板橋區"
"220003","827-TW","2018/09/03 14:09:24","新北市板橋區新民街11號","121.463758333333","25.0098683333333","6500100","板橋區"
"220014","830-TW","2018/09/03 14:09:14","新北市板橋區中山路二段90巷43弄11號","121.476765","25.0152083333333","6500100","板橋區"
"220045","831-TW","2018/09/03 14:09:23","新北市板橋區大同街2號","121.476855","25.0267583333333","6500100","板橋區"
"220022","895-R6","2018/09/03 14:09:29","新北市板橋區西門街59號","121.454466666667","25.0091966666667","6500100","板橋區"
"220021","985-R7","2018/09/03 14:09:29","新北市板橋區中正路154號","121.45664","25.0166783333333","6500100","板橋區"
"220046","AAC-210","2018/09/03 14:05:09","新北市板橋區新海路174號","121.460576666667","25.0235566666667","6500100","板橋區"
"220018","AAC-253","2018/09/03 14:09:33","新北市板橋區忠孝路110-1號","121.462333333333","25.0021783333333","6500100","板橋區"
"235032","KEA-2873","2018/09/03 14:09:12","新北市中和區景平路493巷12弄9號","121.498808333333","24.997125","6500300","中和區"
"235025","KEA-2875","2018/09/03 14:09:18","新北市中和區民享街51號","121.474081666667","25.00276","6500300","中和區"
