"lineid","car","time","location","longitude","latitude","cityid","cityname"
"234078","298-R6","2018/09/03 14:39:34","新北市永和區永貞路82號","121.520196666667","25.0049416666667","6500400","永和區"
"234028","746-BX","2018/09/03 14:39:22","新北市永和區民權路55號","121.52008","24.9968466666667","6500400","永和區"
"234048","863-TW","2018/09/03 14:39:18","新北市永和區保福路二段165號","121.509006666667","25.0149733333333","6500400","永和區"
"234025","9371-KE","2018/09/03 14:39:22","新北市中和區中和路402號","121.511323333333","25.0025316666667","6500400","永和區"
"234010","9373-KE","2018/09/03 14:31:32","新北市永和區保生路55-1號","121.50454","25.0109566666667","6500400","永和區"
"248015","026-BX","2018/09/03 14:39:23","新北市五股區成泰路四段24-6號","121.453746666667","25.1068333333333","6501500","五股區"
"248007","095-VK","2018/09/03 14:39:24","新北市五股區四維路153號","121.46762","25.0745233333333","6501500","五股區"
"248019","225-UY","2018/09/03 14:39:32","新北市五股區凌雲路三段96號","121.429235","25.1213266666667","6501500","五股區"
"248011","247-BX","2018/09/03 14:39:33","新北市五股區成泰路一段237-12號","121.436718333333","25.080365","6501500","五股區"
"248013","261-SL","2018/09/03 14:39:36","新北市五股區五福路52巷11弄2號","121.433835","25.0898833333333","6501500","五股區"
"248003","677-BX","2018/09/03 14:39:29","新北市五股區成泰路一段237-9號","121.436651666667","25.0802066666667","6501500","五股區"
"248001","678-BX","2018/09/03 14:39:35","新北市五股區成泰路三段309號","121.44772","25.094725","6501500","五股區"
"248009","682-TV","2018/09/03 14:39:28","新北市五股區登林路88-1號","121.428965","25.0694183333333","6501500","五股區"
"234072","AAC-211","2018/09/03 14:39:28","新北市永和區環河東路一段126號","121.520695","25.015375","6500400","永和區"
"234001","AAC-295","2018/09/03 14:39:34","新北市永和區中正路624巷2號","121.517148333333","25.0079066666667","6500400","永和區"
"244001","248-BX","2018/09/03 14:39:34","新北市林口區竹林路267號","121.389576666667","25.08084","6501700","林口區"
"244001","658-BX","2018/09/03 14:39:25","新北市林口區文化二路一段380號","121.37423","25.076615","6501700","林口區"
"243005","AAD-798","2018/09/03 14:35:51","新北市泰山區應化街7號","121.423881666667","25.0436916666667","6501600","泰山區"
"243001","297-R6","2018/09/03 14:39:33","新北市泰山區明志路一段122巷16號","121.431953333333","25.0640866666667","6501600","泰山區"
"243008","KEA-2801","2018/09/03 14:39:29","新北市泰山區明志路三段488號","121.421091666667","25.0313933333333","6501600","泰山區"
"243007","421-VK","2018/09/03 14:39:28","新北市泰山區明志路二段214巷16弄2號","121.426868333333","25.049075","6501600","泰山區"
"243003","KEA-2215","2018/09/03 14:39:37","新北市泰山區明志路三段204巷10弄20號","121.422961666667","25.0387516666667","6501600","泰山區"
"243002","KEA-2216","2018/09/03 14:39:33","新北市泰山區明志路二段136巷21弄6號","121.425998333333","25.0518333333333","6501600","泰山區"
"243004","646-TV","2018/09/03 14:39:23","新北市泰山區全興路1-1號","121.432063333333","25.0594733333333","6501600","泰山區"
"243006","680-BX","2018/09/03 14:39:32","新北市泰山區泰林路二段119號","121.434256666667","25.0596166666667","6501600","泰山區"
"231002","002-UM","2018/09/03 14:39:28","新北市新店區中央路31號","121.532993333333","24.9779033333333","6500600","新店區"
"231027","0293-UT","2018/09/03 14:39:18","新北市新店區北新路二段2號","121.54286","24.9707366666667","6500600","新店區"
"231028","046-UY","2018/09/03 14:39:19","新北市新店區安成街27號","121.50998","24.96083","6500600","新店區"
"231001","047-UY","2018/09/03 14:39:35","新北市新店區中正路10號","121.545483333333","24.9695583333333","6500600","新店區"
"231005","106-UY","2018/09/03 14:39:21","新北市新店區順安街50號","121.540993333333","24.9858983333333","6500600","新店區"
"231019","108-UY","2018/09/03 14:39:34","新北市新店區桂山路35號","121.559006666667","24.90291","6500600","新店區"
"231035","110-UY","2018/09/03 14:39:22","新北市新店區安光路13-1號","121.513325","24.9638033333333","6500600","新店區"
"231011","187-VK","2018/09/03 14:39:30","新北市新店區中興路二段236巷7號","121.547851666667","24.976035","6500600","新店區"
"231031","188-VK","2018/09/03 14:39:23","新北市新店區安德街148巷35號","121.50704","24.9611616666667","6500600","新店區"
"231023","KEA-2219","2018/09/03 14:39:31","新北市新店區檳榔路16號","121.541098333333","24.9644466666667","6500600","新店區"
"231003","268-BY","2018/09/03 14:39:28","新北市新店區中興路一段285號","121.54537","24.9685566666667","6500600","新店區"
"231018","278-BY","2018/09/03 14:39:39","新北市新店區中央路153號","121.529843333333","24.9728716666667","6500600","新店區"
"231014","AAD-862","2018/09/03 14:39:25","新北市新店區北宜路二段617號","121.57117","24.9567466666667","6500600","新店區"
"231038","3712-VJ","2018/09/03 14:39:20","新北市新店區安康路一段76巷34-1號","121.528565","24.9634183333333","6500600","新店區"
"231037","4716-K9","2018/09/03 14:39:17","新北市新店區安康路二段320巷3弄2號","121.50437","24.9589316666667","6500600","新店區"
"231036","512-UM","2018/09/03 14:39:25","新北市新店區安祥路109巷8號","121.475381666667","24.9587916666667","6500600","新店區"
"231013","513-UM","2018/09/03 14:39:38","新北市新店區明德路11號","121.542305","24.9768066666667","6500600","新店區"
"231030","619-UM","2018/09/03 14:39:30","新北市新店區安民街169號","121.516698333333","24.9702666666667","6500600","新店區"
"231034","641-BX","2018/09/03 14:39:22","新北市新店區黎明路53巷1號","121.502351666667","24.9487366666667","6500600","新店區"
"231039","718-UY","2018/09/03 14:39:17","新北市新店區寶中路94-5號","121.549306666667","24.9796266666667","6500600","新店區"
"231029","897-TW","2018/09/03 14:39:26","新北市新店區安康路三段228號","121.488175","24.9518033333333","6500600","新店區"
"231006","898-TW","2018/09/03 14:39:33","新北市新店區北宜路二段133號","121.551125","24.9531","6500600","新店區"
"231004","899-TW","2018/09/03 14:39:27","新北市新店區中正路283號","121.537425","24.9744883333333","6500600","新店區"
"231024","AKT-0513","2018/09/03 14:39:36","新北市新店區新生街1號","121.540465","24.9656833333333","6500600","新店區"
"235030","003-UY","2018/09/03 14:39:17","新北市中和區景新街164號","121.505811666667","24.997105","6500300","中和區"
"235028","005-UY","2018/09/03 14:39:23","新北市中和區南山路127巷18弄22號","121.503513333333","24.9970783333333","6500300","中和區"
"235027","006-UY","2018/09/03 14:39:21","新北市中和區連城路231號","121.493891666667","24.9974233333333","6500300","中和區"
"235020","096-UM","2018/09/03 14:39:22","新北市中和區員山路581巷2弄26號","121.477295","25.009945","6500300","中和區"
"235003","097-UM","2018/09/03 14:39:22","新北市中和區安平路186號","121.51292","24.999045","6500300","中和區"
"235029","098-UM","2018/09/03 14:39:34","新北市中和區福祥路100號","121.499096666667","25.0060566666667","6500300","中和區"
"235004","150-BY","2018/09/03 14:39:27","新北市中和區宜安路23巷15號","121.51247","24.9952483333333","6500300","中和區"
"235022","151-BY","2018/09/03 14:39:29","新北市中和區連城路376號","121.481301666667","24.9952066666667","6500300","中和區"
"235019","183-VK","2018/09/03 14:39:23","新北市中和區德光路30號","121.470663333333","25.0044716666667","6500300","中和區"
"235002","185-VK","2018/09/03 14:39:19","新北市中和區自立路20巷10號","121.521738333333","24.9933116666667","6500300","中和區"
"235013","186-VK","2018/09/03 14:39:22","新北市中和區安平路10號","121.509196666667","24.9940533333333","6500300","中和區"
"235031","255-BX","2018/09/03 14:39:25","新北市中和區員山路148巷49號","121.482741666667","24.9972083333333","6500300","中和區"
"235008","293-VK","2018/09/03 14:39:26","新北市中和區捷運路6號","121.51008","24.9894733333333","6500300","中和區"
"235036","301-VK","2018/09/03 14:39:31","新北市中和區泰和街25號","121.499403333333","24.9999866666667","6500300","中和區"
"235007","352-BY","2018/09/03 14:39:26","新北市中和區南華路20號","121.502913333333","24.9957716666667","6500300","中和區"
"247011","KEA-2869","2018/09/03 14:39:20","新北市蘆洲區集賢路224巷37弄2號","121.48052","25.08798","6501400","蘆洲區"
"235014","4979-A6","2018/09/03 14:39:23","新北市中和區中正路1號","121.503291666667","24.9934983333333","6500300","中和區"
"235034","558-UM","2018/09/03 14:39:24","新北市中和區連勝街22號","121.498545","24.99822","6500300","中和區"
"235009","565-BX","2018/09/03 14:39:24","新北市中和區景新街467巷22號","121.514173333333","24.98834","6500300","中和區"
"235018","640-BX","2018/09/03 14:39:29","新北市中和區莒光路65號","121.472288333333","25.0034466666667","6500300","中和區"
"235024","647-TV","2018/09/03 14:39:36","新北市中和區員山路314巷7弄4號","121.482198333333","25.0031033333333","6500300","中和區"
"235011","732-UM","2018/09/03 14:39:30","新北市中和區和平街107號","121.504655","24.9923266666667","6500300","中和區"
"235010","733-UM","2018/09/03 14:39:30","新北市中和區忠孝街136號","121.512103333333","24.986755","6500300","中和區"
"235035","783-BX","2018/09/03 14:39:36","新北市中和區建一路136-1號","121.488035","24.9991483333333","6500300","中和區"
"235026","800-TS","2018/09/03 14:39:25","新北市中和區中山路二段526巷32號","121.485955","25.006025","6500300","中和區"
"235021","801-TS","2018/09/03 14:39:33","新北市中和區員山路385-1號","121.48125","25.0026283333333","6500300","中和區"
"235005","802-TS","2018/09/03 14:39:34","新北市中和區安平路105號","121.511525","24.99737","6500300","中和區"
"235016","805-TS","2018/09/03 14:39:31","新北市中和區華新街133號","121.506698333333","24.98175","6500300","中和區"
"235012","896-TW","2018/09/03 14:39:29","新北市中和區四維街37巷1號","121.512496666667","24.9868966666667","6500300","中和區"
"235017","900-TW","2018/09/03 14:39:36","新北市中和區民德路145號","121.46887","25.0003516666667","6500300","中和區"
"235015","157-BY","2018/09/03 14:39:26","新北市中和區中興街180巷52弄3號","121.498463333333","24.98832","6500300","中和區"
"235001","AAC-213","2018/09/03 14:39:38","新北市中和區秀朗路三段93號","121.526556666667","24.9951866666667","6500300","中和區"
"235023","AAC-215","2018/09/03 14:39:22","新北市中和區圓通路305巷9號","121.493733333333","24.989915","6500300","中和區"
"220016","013-TV","2018/09/03 14:39:32","新北市板橋區中山路二段412巷16-1號","121.483335","25.0202133333333","6500100","板橋區"
"220013","072-UY","2018/09/03 14:39:25","新北市中和區民生街93-2號","121.468513333333","25.00478","6500100","板橋區"
"220034","073-UY","2018/09/03 14:39:30","新北市板橋區林園街4-1號","121.454253333333","25.0094633333333","6500100","板橋區"
"220105","075-UY","2018/09/03 14:39:31","新北市板橋區文化路二段319號","121.4724","25.0299566666667","6500100","板橋區"
"220017","AAD-861","2018/09/03 14:39:32","新北市板橋區南雅南路一段131號","121.455208333333","25.0042283333333","6500100","板橋區"
"247001","893-R6","2018/09/03 14:39:24","新北市蘆洲區環堤大道184號","121.456645","25.0904066666667","6501400","蘆洲區"
"247015","546-UM","2018/09/03 14:39:33","新北市蘆洲區正和街58號","121.468961666667","25.08141","6501400","蘆洲區"
"247023","500-BY","2018/09/03 14:39:18","新北市蘆洲區正和街63巷18號","121.46919","25.0806216666667","6501400","蘆洲區"
"247013","339-TH","2018/09/03 14:39:32","新北市蘆洲區中正路96號","121.470116666667","25.0838533333333","6501400","蘆洲區"
"247005","337-TH","2018/09/03 14:39:33","新北市蘆洲區中華街55號","121.46258","25.081055","6501400","蘆洲區"
"247007","336-TH","2018/09/03 14:39:28","新北市蘆洲區信義路34巷16號","121.474685","25.07878","6501400","蘆洲區"
"247019","057-VK","2018/09/03 14:39:27","新北市蘆洲區民權路117號","121.472213333333","25.0897816666667","6501400","蘆洲區"
"247009","056-VK","2018/09/03 14:39:26","新北市蘆洲區信義路222巷36號","121.480926666667","25.0854683333333","6501400","蘆洲區"
"247017","007-UY","2018/09/03 14:39:39","新北市蘆洲區民族路313號","121.474696666667","25.09137","6501400","蘆洲區"
"247003","002-UY","2018/09/03 14:39:25","新北市蘆洲區長安街267巷7弄1號","121.458358333333","25.083675","6501400","蘆洲區"
"247021","001-UY","2018/09/03 14:39:26","新北市蘆洲區三民路242號","121.468063333333","25.089815","6501400","蘆洲區"
"253003","6232-TK","2018/09/03 14:39:24","新北市石門區尖子鹿36號","121.582","25.2564283333333","6502200","石門區"
"253001","6251-TK","2018/09/03 14:39:17","新北市石門區崁子腳65-1號","121.532088333333","25.2860283333333","6502200","石門區"
"253002","637-UY","2018/09/03 14:39:19","新北市石門區楓林30號","121.543453333333","25.286755","6502200","石門區"
"253004","8270-PC","2018/09/03 14:39:19","新北市石門區內阿里磅43號","121.579973333333","25.2377233333333","6502200","石門區"
"207002","749-BX","2018/09/03 14:39:03","新北市萬里區溪底里香員林路17-2號","121.636571666667","25.1596966666667","6502800","萬里區"
"252005","073-UM","2018/09/03 14:39:22","新北市三芝區埔坪里埔頭坑85號","121.50761","25.2545316666667","6502100","三芝區"
"207001","662-BX","2018/09/03 14:39:34","新北市萬里區磺潭里員潭路59號","121.64312","25.190165","6502800","萬里區"
"236064","105-UM","2018/09/03 14:39:21","新北市土城區永豐路282號","121.470833333333","24.9780166666667","6501300","土城區"
"236040","107-UM","2018/09/03 14:39:38","新北市土城區裕民路57號","121.44897","24.9878733333333","6501300","土城區"
"236074","166-UM","2018/09/03 14:39:33","新北市土城區中央路四段52巷10號","121.420001666667","24.9608666666667","6501300","土城區"
"236029","253-BX","2018/09/03 14:39:26","新北市土城區中華路二段175號","121.438546666667","24.9749716666667","6501300","土城區"
"236024","269-VK","2018/09/03 14:39:29","新北市土城區忠義路47號","121.440525","24.9693166666667","6501300","土城區"
"236012","270-VK","2018/09/03 14:39:32","新北市土城區清水路221號","121.460728333333","24.9821633333333","6501300","土城區"
"236032","271-VK","2018/09/03 14:39:20","新北市土城區明德路一段283號","121.460663333333","24.9773683333333","6501300","土城區"
"236016","401-BY","2018/09/03 14:39:21","新北市土城區延吉街327-1號","121.46561","24.9841583333333","6501300","土城區"
"236005","498-BY","2018/09/03 14:39:27","新北市土城區城林路6巷80號","121.438671666667","24.9797283333333","6501300","土城區"
"236057","912-UM","2018/09/03 14:39:37","新北市土城區中央路三段149號","121.432413333333","24.9653533333333","6501300","土城區"
"236045","913-UM","2018/09/03 14:39:22","新北市土城區青雲路84號","121.459388333333","24.9867333333333","6501300","土城區"
"236060","915-UM","2018/09/03 14:39:35","新北市土城區延壽路13巷17號","121.469988333333","24.9913133333333","6501300","土城區"
"236054","AAC-216","2018/09/03 14:39:35","新北市土城區中華路一段49號","121.445731666667","24.9882966666667","6501300","土城區"
"221010","269-BY","2018/09/03 14:39:26","新北市汐止區長青路210巷85-3號","121.618605","25.117445","6501100","汐止區"
"221032","280-BY","2018/09/03 14:39:38","新北市汐止區明峰街179-1號","121.628696666667","25.070015","6501100","汐止區"
"220027","145-BY","2018/09/03 14:39:29","新北市板橋區建國街5號","121.45725","25.0169133333333","6500100","板橋區"
"220028","200-UY","2018/09/03 14:39:37","新北市板橋區大觀路二段37巷41號","121.448821666667","25.0027033333333","6500100","板橋區"
"220030","610-BX","2018/09/03 14:39:33","新北市板橋區金門街171號","121.432596666667","24.99024","6500100","板橋區"
"220050","245-BX","2018/09/03 14:39:19","新北市板橋區縣民大道三段35號","121.473873333333","25.0207983333333","6500100","板橋區"
"220040","267-BY","2018/09/03 14:39:30","新北市板橋區懷德街191巷18號","121.480565","25.0296733333333","6500100","板橋區"
"220004","276-BY","2018/09/03 14:39:37","新北市板橋區四川路一段489號","121.45721","24.9970283333333","6500100","板橋區"
"220020","277-BY","2018/09/03 14:39:35","新北市板橋區金門街215巷2弄28號","121.43242","24.9889116666667","6500100","板橋區"
"220038","280-UM","2018/09/03 14:39:20","新北市板橋區英士路51號","121.460973333333","25.0245683333333","6500100","板橋區"
"220043","283-UM","2018/09/03 14:39:28","新北市板橋區長江路二段250號","121.469105","25.032425","6500100","板橋區"
"220019","283-VK","2018/09/03 14:39:31","新北市板橋區廣權路39號","121.463085","24.99168","6500100","板橋區"
"220001","285-VK","2018/09/03 14:39:36","新北市板橋區富山街53巷1弄74號","121.477916666667","25.0201783333333","6500100","板橋區"
"220031","286-VK","2018/09/03 14:39:27","新北市板橋區龍興街63巷46號","121.442086666667","25.0017916666667","6500100","板橋區"
"220029","287-VK","2018/09/03 14:39:33","新北市板橋區大觀路一段29巷179弄22號","121.449255","25.0046466666667","6500100","板橋區"
"220039","288-VK","2018/09/03 14:39:37","新北市板橋區新海路431巷1號","121.457818333333","25.0275133333333","6500100","板橋區"
"220009","295-UM","2018/09/03 14:39:27","新北市板橋區漢生東路166號","121.467086666667","25.014865","6500100","板橋區"
"220032","296-UM","2018/09/03 14:39:06","新北市板橋區滿平二街2巷1弄8號","121.42514","24.9863866666667","6500100","板橋區"
"220010","299-UM","2018/09/03 14:39:19","新北市板橋區三民路二段81巷26號","121.480536666667","25.0166233333333","6500100","板橋區"
"220023","303-R5","2018/09/03 14:39:37","新北市板橋區大勇街22號","121.454276666667","25.0171883333333","6500100","板橋區"
"220041","307-R5","2018/09/03 14:39:24","新北市板橋區文化路一段379號","121.46715","25.0215966666667","6500100","板橋區"
"220047","317-R6","2018/09/03 14:39:18","新北市板橋區裕民街111巷8號","121.459815","25.027365","6500100","板橋區"
"220012","486-VK","2018/09/03 14:39:26","新北市板橋區民族路47號","121.462898333333","25.0095566666667","6500100","板橋區"
"220037","491-VK","2018/09/03 14:39:27","新北市板橋區雙十路二段76巷2號","121.4752","25.0279016666667","6500100","板橋區"
"220104","560-BX","2018/09/03 14:39:15","新北市板橋區金華街85巷26號","121.458653333333","25.0212833333333","6500100","板橋區"
"220052","561-BX","2018/09/03 14:39:31","新北市板橋區文化路一段369-1號","121.466918333333","25.021085","6500100","板橋區"
"220011","609-BX","2018/09/03 14:39:36","新北市板橋區三民路二段251號","121.478996666667","25.0120633333333","6500100","板橋區"
"220005","686-BX","2018/09/03 14:39:21","新北市板橋區國慶路158巷11弄7號","121.46222","24.9959783333333","6500100","板橋區"
"220025","687-BX","2018/09/03 14:39:23","新北市板橋區僑中二街90巷2號","121.446431666667","25.0092166666667","6500100","板橋區"
"220042","689-BX","2018/09/03 14:39:25","新北市板橋區新海路360號","121.459878333333","25.0250483333333","6500100","板橋區"
"220002","741-BX","2018/09/03 14:39:29","新北市板橋區忠孝路213號","121.465405","25.0028066666667","6500100","板橋區"
"220051","KEA-2699","2018/09/03 14:39:33","新北市板橋區松柏街50巷18號","121.475955","25.0296616666667","6500100","板橋區"
"220003","827-TW","2018/09/03 14:39:24","新北市板橋區國慶路149巷2弄1-4號","121.461353333333","24.9965533333333","6500100","板橋區"
"220014","830-TW","2018/09/03 14:39:34","新北市板橋區長安街253號","121.47283","25.0102616666667","6500100","板橋區"
"220045","831-TW","2018/09/03 14:39:39","新北市板橋區民生路二段234巷67號","121.470141666667","25.0226716666667","6500100","板橋區"
"220022","895-R6","2018/09/03 14:39:29","新北市板橋區府中路29-2號","121.458455","25.00802","6500100","板橋區"
"220021","985-R7","2018/09/03 14:39:32","新北市板橋區大仁街23號","121.455623333333","25.0168383333333","6500100","板橋區"
"220046","AAC-210","2018/09/03 14:39:34","新北市板橋區幸福路32巷20號","121.46137","25.0210366666667","6500100","板橋區"
"220018","AAC-253","2018/09/03 14:39:33","新北市板橋區民族路260號","121.469438333333","25.0071266666667","6500100","板橋區"
"235032","KEA-2873","2018/09/03 14:39:12","新北市中和區景平路736巷5弄3號","121.497396666667","25.0034183333333","6500300","中和區"
"235025","KEA-2875","2018/09/03 14:39:18","新北市中和區民利街71號","121.478731666667","24.9982383333333","6500300","中和區"
