"lineid","car","time","location","longitude","latitude","cityid","cityname"
"234010","9373-KE","2018/09/03 15:29:37","新北市永和區保生路55-1號","121.504561666667","25.0109483333333","6500400","永和區"
"244001","658-BX","2018/09/03 15:29:25","新北市林口區中山路522號","121.378473333333","25.083395","6501700","林口區"
"243001","297-R6","2018/09/03 15:29:33","新北市泰山區泰林路三段745巷145號","121.405641666667","25.0678083333333","6501600","泰山區"
"231002","002-UM","2018/09/03 15:29:28","新北市新店區環河路152號","121.535558333333","24.9658966666667","6500600","新店區"
"231028","046-UY","2018/09/03 15:29:33","新北市新店區僑信路104號","121.500071666667","24.9472166666667","6500600","新店區"
"231005","106-UY","2018/09/03 15:29:22","新北市新店區建國路293巷2號","121.536781666667","24.9862183333333","6500600","新店區"
"231019","108-UY","2018/09/03 15:29:34","新北市新店區永福路98-1號","121.562855","24.9288933333333","6500600","新店區"
"231011","187-VK","2018/09/03 15:29:30","新北市新店區寶元路一段109號","121.545691666667","24.9831166666667","6500600","新店區"
"231031","188-VK","2018/09/03 15:29:23","新北市新店區裕合街143號","121.489113333333","24.9491083333333","6500600","新店區"
"231023","KEA-2219","2018/09/03 15:29:35","新北市新店區北新路一段88巷3號","121.542191666667","24.9675883333333","6500600","新店區"
"231026","256-BX","2018/09/03 15:29:38","新北市新店區三民路117巷7弄1號","121.534103333333","24.9710233333333","6500600","新店區"
"231003","268-BY","2018/09/03 15:29:28","新北市新店區寶高路120巷1號","121.55462","24.97604","6500600","新店區"
"231018","278-BY","2018/09/03 15:29:19","新北市新店區民生路149巷16號","121.528678333333","24.9791216666667","6500600","新店區"
"231014","AAD-862","2018/09/03 15:29:25","新北市新店區明山路45號","121.563565","24.9557916666667","6500600","新店區"
"231037","4716-K9","2018/09/03 15:29:17","新北市新店區安興路91巷47號","121.511933333333","24.9745133333333","6500600","新店區"
"231025","4715-K9","2018/09/03 15:29:25","新北市新店區安康路一段104號","121.527375","24.9624316666667","6500600","新店區"
"231036","512-UM","2018/09/03 15:29:25","新北市新店區安祥路69巷54弄34號","121.48305","24.9585633333333","6500600","新店區"
"231030","619-UM","2018/09/03 15:29:19","新北市新店區安和路三段59號","121.517943333333","24.9830583333333","6500600","新店區"
"231034","641-BX","2018/09/03 15:29:22","新北市新店區玫瑰路28號","121.495063333333","24.9503","6500600","新店區"
"231039","718-UY","2018/09/03 15:29:37","新北市新店區寶元路一段85巷8號","121.543073333333","24.9858033333333","6500600","新店區"
"231029","897-TW","2018/09/03 15:29:26","新北市新店區安康路三段550號","121.481966666667","24.9489066666667","6500600","新店區"
"231004","899-TW","2018/09/03 15:29:29","新北市新店區民族路185號","121.537405","24.976425","6500600","新店區"
"241011","013-R5","2018/09/03 15:29:29","新北市三重區福德南路53號","121.503365","25.0612666666667","6500200","三重區"
"241003","091-VK","2018/09/03 15:29:26","新北市三重區自強路四段32-2號","121.489095","25.0770383333333","6500200","三重區"
"241016","266-UM","2018/09/03 15:29:21","新北市三重區重新路四段121號","121.483995","25.0527033333333","6500200","三重區"
"241013","270-UM","2018/09/03 15:29:19","新北市三重區正義北路291號","121.494873333333","25.0705833333333","6500200","三重區"
"241020","478-VK","2018/09/03 15:29:24","新北市三重區忠孝路二段52號","121.485041666667","25.0704766666667","6500200","三重區"
"241005","887-TS","2018/09/03 15:29:25","新北市三重區重新路四段121號","121.485031666667","25.0523983333333","6500200","三重區"
"241029","942-UM","2018/09/03 15:29:39","新北市三重區成功路112-4號","121.485721666667","25.052","6500200","三重區"
"241033","AAC-255","2018/09/03 15:29:22","新北市三重區重新路四段121號","121.483378333333","25.051245","6500200","三重區"
"235030","003-UY","2018/09/03 15:29:37","新北市中和區光華街31巷22弄6號","121.505503333333","25.0046583333333","6500300","中和區"
"235014","4979-A6","2018/09/03 15:29:23","新北市中和區景新街160巷2號","121.505561666667","24.9971616666667","6500300","中和區"
"235033","4980-A6","2018/09/03 15:29:32","新北市中和區中正路546號","121.487238333333","24.9944433333333","6500300","中和區"
"235018","640-BX","2018/09/03 15:29:29","新北市樹林區中山路三段214號","121.379723333333","24.967675","6500300","中和區"
"235023","AAC-215","2018/09/03 15:29:25","新北市中和區員山路22-1號","121.483796666667","24.984905","6500300","中和區"
"253003","6232-TK","2018/09/03 15:29:24","新北市石門區小坑9號","121.594416666667","25.288395","6502200","石門區"
"253001","6251-TK","2018/09/03 15:28:17","新北市石門區小坑9號","121.593773333333","25.2885283333333","6502200","石門區"
"253002","637-UY","2018/09/03 15:29:18","新北市石門區阿里磅1號","121.59008","25.29101","6502200","石門區"
"207001","662-BX","2018/09/03 15:28:13","新北市萬里區野柳里八斗60-1號","121.676718333333","25.200335","6502800","萬里區"
"236064","105-UM","2018/09/03 15:29:21","新北市土城區中央路二段192巷5號","121.44121","24.9759066666667","6501300","土城區"
"236040","107-UM","2018/09/03 15:29:33","新北市土城區學府路一段164巷21號","121.453455","24.9874216666667","6501300","土城區"
"236074","166-UM","2018/09/03 15:29:33","新北市土城區溪頭路151號","121.409168333333","24.9508683333333","6501300","土城區"
"236029","253-BX","2018/09/03 15:29:26","新北市土城區中央路一段240號","121.444535","24.9850033333333","6501300","土城區"
"236024","269-VK","2018/09/03 15:29:20","新北市土城區員林街5號","121.442586666667","24.9781966666667","6501300","土城區"
"236012","270-VK","2018/09/03 15:29:32","新北市土城區廣明街22號","121.455841666667","24.9923866666667","6501300","土城區"
"236032","271-VK","2018/09/03 15:29:21","新北市土城區延吉街353巷6號","121.46453","24.983655","6501300","土城區"
"236016","401-BY","2018/09/03 15:29:21","新北市土城區延吉街137巷6號","121.470875","24.9857916666667","6501300","土城區"
"236057","912-UM","2018/09/03 15:29:37","新北市土城區員福街8號","121.4418","24.9785","6501300","土城區"
"236045","913-UM","2018/09/03 15:29:28","新北市土城區青雲路145號","121.458688333333","24.9843216666667","6501300","土城區"
"236060","915-UM","2018/09/03 15:29:35","新北市土城區金城路三段33巷14號","121.465383333333","24.987265","6501300","土城區"
"236054","AAC-216","2018/09/03 15:29:35","新北市土城區金城路三段173號","121.469301666667","24.9886433333333","6501300","土城區"
"238002","755-BX","2018/09/03 15:29:22","新北市樹林區復興路196號","121.420013333333","24.99101","6500700","樹林區"
"238010","601-UM","2018/09/03 15:29:20","新北市樹林區三福街42號","121.407875","25.0165366666667","6500700","樹林區"
"238006","599-UM","2018/09/03 15:29:28","新北市樹林區太元街66號","121.418626666667","24.9790933333333","6500700","樹林區"
"238005","571-TV","2018/09/03 15:29:30","新北市樹林區鎮前街57號","121.425005","24.991385","6500700","樹林區"
"238011","5061-A6","2018/09/03 15:29:28","新北市樹林區八德街212巷2號","121.417426666667","24.973035","6500700","樹林區"
"238008","KEA-2217","2018/09/03 15:29:36","新北市樹林區柑園街一段64號","121.40257","24.9603916666667","6500700","樹林區"
"238009","KEA-2213","2018/09/03 15:29:39","新北市樹林區仁愛街26號","121.422596666667","24.9820983333333","6500700","樹林區"
"238025","303-VK","2018/09/03 15:29:35","新北市樹林區中山路一段338號","121.419561666667","24.9860783333333","6500700","樹林區"
"238001","283-BY","2018/09/03 15:29:39","新北市樹林區中正路286-1號","121.415846666667","25.008885","6500700","樹林區"
"238001","282-BY","2018/09/03 15:29:32","新北市樹林區中正路47號","121.426888333333","24.9997133333333","6500700","樹林區"
"238007","268-VK","2018/09/03 15:29:38","新北市樹林區俊英街116巷29弄3號","121.428158333333","25.0064316666667","6500700","樹林區"
"238013","172-UY","2018/09/03 15:29:09","新北市樹林區新興街37巷5弄5號","121.401185","24.97247","6500700","樹林區"
"238003","169-UY","2018/09/03 15:29:29","新北市樹林區日新街39號","121.422711666667","24.9921433333333","6500700","樹林區"
"220050","245-BX","2018/09/03 15:29:38","新北市板橋區漢生東路83巷1號","121.466403333333","25.0159916666667","6500100","板橋區"
"220038","280-UM","2018/09/03 15:29:23","新北市板橋區四維路137巷19號","121.46416","25.02485","6500100","板橋區"
"220031","286-VK","2018/09/03 15:29:27","新北市板橋區僑中二街108巷17號","121.445026666667","25.0073616666667","6500100","板橋區"
"220052","561-BX","2018/09/03 15:29:30","新北市板橋區漢生東路63巷28號","121.466943333333","25.017205","6500100","板橋區"
"220011","609-BX","2018/09/03 15:29:32","新北市板橋區三民路一段89號","121.479591666667","25.0219183333333","6500100","板橋區"
"220042","689-BX","2018/09/03 15:29:31","新北市板橋區民生路三段315號","121.462111666667","25.0307616666667","6500100","板橋區"
"220018","AAC-253","2018/09/03 15:29:33","新北市板橋區華東街1-10號","121.448475","24.9950083333333","6500100","板橋區"
