"lineid","car","time","location","longitude","latitude","cityid","cityname"
"249005","172-UM","2018/09/03 16:26:27","新北市八里區挖子尾街16號","121.415271666667","25.1644266666667","6502300","八里區"
"249002","305-UY","2018/09/03 16:26:35","新北市八里區挖子尾街12號","121.415428333333","25.1644283333333","6502300","八里區"
"231046","107-UY","2018/09/03 16:26:21","新北市新店區灣潭路3-2號","121.538366666667","24.9508283333333","6500600","新店區"
"241011","013-R5","2018/09/03 16:26:29","新北市三重區龍濱路285號","121.501103333333","25.073355","6500200","三重區"
"241028","022-UY","2018/09/03 16:26:35","新北市三重區重安街170巷4號","121.496281666667","25.0546466666667","6500200","三重區"
"241008","059-VK","2018/09/03 16:26:22","新北市三重區力行路二段136巷45弄12號","121.479051666667","25.0753466666667","6500200","三重區"
"241022","060-VK","2018/09/03 16:26:37","新北市三重區新北大道一段68號","121.486903333333","25.0615166666667","6500200","三重區"
"241031","061-VK","2018/09/03 16:26:34","新北市三重區重陽路一段45號","121.48671","25.0580716666667","6500200","三重區"
"241015","062-VK","2018/09/03 16:26:26","新北市三重區福德北路79號","121.501913333333","25.0658866666667","6500200","三重區"
"241017","063-VK","2018/09/03 16:26:29","新北市三重區大同北路85號","121.494851666667","25.0636383333333","6500200","三重區"
"241024","065-VK","2018/09/03 16:26:38","新北市三重區中正北路193巷27號","121.476185","25.0705566666667","6500200","三重區"
"241026","066-VK","2018/09/03 16:26:20","新北市三重區福德南路150號","121.50062","25.05823","6500200","三重區"
"241002","090-VK","2018/09/03 16:26:32","新北市三重區仁義街101巷2號","121.498073333333","25.07946","6500200","三重區"
"241003","091-VK","2018/09/03 16:26:32","新北市三重區仁義街228巷10號","121.494428333333","25.0844683333333","6500200","三重區"
"241016","266-UM","2018/09/03 16:26:21","新北市三重區大仁街126號","121.493606666667","25.0660666666667","6500200","三重區"
"241009","267-UM","2018/09/03 16:26:32","新北市三重區三和路四段203巷189號","121.486208333333","25.080415","6500200","三重區"
"241018","268-UM","2018/09/03 16:26:28","新北市三重區重陽路三段144號","121.489443333333","25.06743","6500200","三重區"
"241032","269-UM","2018/09/03 16:26:34","新北市三重區三陽路100巷3弄13號","121.483061666667","25.058045","6500200","三重區"
"241013","270-UM","2018/09/03 16:26:39","新北市三重區三和路三段83巷140號","121.498201666667","25.0732033333333","6500200","三重區"
"241025","271-UM","2018/09/03 16:26:25","新北市三重區中正北路560巷100弄2號","121.472611666667","25.0682516666667","6500200","三重區"
"241007","398-BY","2018/09/03 16:26:37","新北市三重區溪尾街160號","121.488765","25.0802183333333","6500200","三重區"
"241004","475-VK","2018/09/03 16:26:31","新北市三重區仁愛街377巷2號","121.491655","25.0804183333333","6500200","三重區"
"241020","478-VK","2018/09/03 16:26:24","新北市三重區後竹圍街243號","121.484078333333","25.07132","6500200","三重區"
"241030","480-VK","2018/09/03 16:26:23","新北市三重區重新路四段121號","121.484526666667","25.052445","6500200","三重區"
"241014","543-UM","2018/09/03 16:26:37","新北市三重區河邊北街96-1號","121.503971666667","25.06988","6500200","三重區"
"241023","545-UM","2018/09/03 16:26:32","新北市三重區忠孝路三段50巷43號","121.482865","25.064395","6500200","三重區"
"241001","547-UM","2018/09/03 16:26:30","新北市三重區仁愛街277號","121.492758333333","25.0788216666667","6500200","三重區"
"241019","KEA-2593","2018/09/03 16:26:30","新北市三重區重陽路三段97號","121.490208333333","25.0680933333333","6500200","三重區"
"241006","AAD-863","2018/09/03 16:26:39","新北市三重區永福街10巷5號","121.4829","25.0778516666667","6500200","三重區"
"241005","887-TS","2018/09/03 16:26:34","新北市三重區溪尾街305號","121.487565","25.0837","6500200","三重區"
"241012","941-UM","2018/09/03 16:26:35","新北市三重區河邊北街317號","121.502425","25.074895","6500200","三重區"
"241029","942-UM","2018/09/03 16:26:39","新北市三重區環河南路220-8號","121.493348333333","25.05273","6500200","三重區"
"241033","AAC-255","2018/09/03 16:26:22","新北市三重區重新路五段317巷1弄20號","121.478101666667","25.0494366666667","6500200","三重區"
"247012","KEA-2869","2018/09/03 16:25:53","新北市五股區中興路三段163號","121.449178333333","25.08076","6501400","蘆洲區"
"235026","800-TS","2018/09/03 16:26:25","新北市中和區建八路155號","121.491186666667","24.99867","6500300","中和區"
"247020","057-VK","2018/09/03 16:26:35","新北市五股區中興路三段2巷10號","121.449291666667","25.0809583333333","6501400","蘆洲區"
"224007","275-VK","2018/09/03 16:26:21","新北市瑞芳區大埔路276號","121.759835","25.1025966666667","6501200","瑞芳區"
"224005","271-BY","2018/09/03 16:26:06","新北市瑞芳區阿美家園7號","121.82098","25.1158466666667","6501200","瑞芳區"
"227008","642-TC","2018/09/03 16:26:33","新北市雙溪區三港里雙澳路37號","121.872921666667","25.0501116666667","6502500","雙溪區"
"227001","400-TW","2018/09/03 16:26:36","新北市雙溪區上林里內平林111號","121.82636","25.027075","6502500","雙溪區"
"251013","KEA-2871","2018/09/03 16:26:18","新北市淡水區北新路三段162號","121.492358333333","25.19152","6501000","淡水區"
"251014","180-VK","2018/09/03 16:26:34","新北市淡水區中正路二段31號","121.419466666667","25.1816733333333","6501000","淡水區"
"251015","181-VK","2018/09/03 16:26:31","新北市淡水區中正路二段31號","121.419426666667","25.182305","6501000","淡水區"
"251008","443-VK","2018/09/03 16:26:22","新北市淡水區民生路123號","121.465225","25.1387783333333","6501000","淡水區"
"252002","178-VK","2018/09/03 16:26:31","新北市三芝區埔坪里埔頭坑107號","121.504618333333","25.26175","6502100","三芝區"
"252001","292-VK","2018/09/03 16:26:38","新北市三芝區埔坪里埔頭坑41號","121.504545","25.2644966666667","6502100","三芝區"
"238025","303-VK","2018/09/03 16:26:37","新北市樹林區中正路22-1號","121.427931666667","24.999405","6500700","樹林區"
"238001","282-BY","2018/09/03 16:26:32","新北市樹林區大慶街99-1號","121.427663333333","24.999705","6500700","樹林區"
