"lineid","car","time","location","longitude","latitude","cityid","cityname"
"249005","172-UM","2018/09/03 17:19:27","新北市五股區中直路70號","121.416238333333","25.1238766666667","6502300","八里區"
"249001","173-UM","2018/09/03 17:19:38","新北市八里區中華路二段165巷3號","121.407663333333","25.1508483333333","6502300","八里區"
"249004","303-UY","2018/09/03 17:19:33","新北市八里區文化街76號","121.421906666667","25.16006","6502300","八里區"
"249002","305-UY","2018/09/03 17:19:35","新北市八里區龍米路二段117巷30弄2號","121.444638333333","25.1426666666667","6502300","八里區"
"249003","593-UM","2018/09/03 17:19:36","新北市八里區中山路二段447巷11號","121.397156666667","25.145895","6502300","八里區"
"244007","080-UY","2018/09/03 17:19:27","新北市林口區湖子17-5號","121.385736666667","25.0908616666667","6501700","林口區"
"244019","403-UM","2018/09/03 17:19:22","新北市林口區公園路231-3號","121.375258333333","25.07524","6501700","林口區"
"244013","KEA-2802","2018/09/03 17:19:24","新北市林口區粉寮路二段88巷100-12號","121.40958","25.09017","6501700","林口區"
"244023","483-VK","2018/09/03 17:19:34","新北市林口區興林路2號","121.389405","25.07658","6501700","林口區"
"244017","485-VK","2018/09/03 17:19:39","新北市林口區粉寮路一段105號","121.398216666667","25.08048","6501700","林口區"
"244004","656-BX","2018/09/03 17:19:39","新北市林口區文化北路二段550巷20弄37號","121.37794","25.0912233333333","6501700","林口區"
"244011","657-BX","2018/09/03 17:19:30","新北市林口區中山路2號","121.396775","25.0784066666667","6501700","林口區"
"244025","837-TS","2018/09/03 17:19:21","新北市林口區仁愛二路96號","121.368618333333","25.0754283333333","6501700","林口區"
"244021","838-TS","2018/09/03 17:19:34","新北市林口區粉寮路二段358-6號","121.40619","25.097785","6501700","林口區"
"231046","107-UY","2018/09/03 17:19:21","新北市新店區直潭路92號","121.530923333333","24.9376583333333","6500600","新店區"
"241011","013-R5","2018/09/03 17:19:29","新北市三重區河邊北街100巷13號","121.503338333333","25.0703116666667","6500200","三重區"
"241028","022-UY","2018/09/03 17:19:35","新北市三重區仁化街63-6號","121.493936666667","25.0588916666667","6500200","三重區"
"241008","059-VK","2018/09/03 17:19:42","新北市三重區永福街72巷37-3號","121.480435","25.0762266666667","6500200","三重區"
"241022","060-VK","2018/09/03 17:19:28","新北市三重區中正北路64巷9號","121.486373333333","25.0640916666667","6500200","三重區"
"241015","062-VK","2018/09/03 17:19:25","新北市三重區長元街82-1號","121.501906666667","25.0662766666667","6500200","三重區"
"241017","063-VK","2018/09/03 17:19:29","新北市三重區大同北路44巷33號","121.494388333333","25.0627933333333","6500200","三重區"
"241024","065-VK","2018/09/03 17:19:38","新北市三重區中正北路193巷21弄48號","121.4791","25.07114","6500200","三重區"
"241026","066-VK","2018/09/03 17:19:40","新北市三重區和平街1號","121.500061666667","25.0622383333333","6500200","三重區"
"241002","090-VK","2018/09/03 17:19:32","新北市三重區自強路五段18號","121.492523333333","25.0805766666667","6500200","三重區"
"241003","091-VK","2018/09/03 17:14:52","新北市三重區富福街60號","121.49192","25.0845583333333","6500200","三重區"
"241016","266-UM","2018/09/03 17:19:21","新北市三重區大同北路54巷3號","121.494075","25.0635216666667","6500200","三重區"
"241009","267-UM","2018/09/03 17:19:32","新北市三重區仁愛街622號","121.48346","25.0806766666667","6500200","三重區"
"241018","268-UM","2018/09/03 17:19:28","新北市三重區安慶街143號","121.494493333333","25.0688366666667","6500200","三重區"
"241032","269-UM","2018/09/03 17:19:34","新北市三重區興華街132號","121.483171666667","25.0597583333333","6500200","三重區"
"241013","270-UM","2018/09/03 17:19:39","新北市三重區仁愛街106號","121.495355","25.074215","6500200","三重區"
"241025","271-UM","2018/09/03 17:19:25","新北市三重區中正北路291號","121.474725","25.0711583333333","6500200","三重區"
"241007","398-BY","2018/09/03 17:19:36","新北市三重區三和路四段155巷14號","121.48401","25.07863","6500200","三重區"
"241020","478-VK","2018/09/03 17:19:24","新北市三重區自強路三段45號","121.486946666667","25.0727116666667","6500200","三重區"
"241030","480-VK","2018/09/03 17:19:39","新北市三重區成功路73巷6號","121.489243333333","25.0516533333333","6500200","三重區"
"241014","543-UM","2018/09/03 17:19:37","新北市三重區長榮路6號","121.500053333333","25.0686133333333","6500200","三重區"
"241023","545-UM","2018/09/03 17:19:31","新北市三重區三民街197號","121.482095","25.0657683333333","6500200","三重區"
"241019","KEA-2593","2018/09/03 17:19:30","新北市三重區忠孝路二段13號","121.486745","25.0714366666667","6500200","三重區"
"241005","887-TS","2018/09/03 17:19:34","新北市三重區仁華街22號","121.483375","25.0818166666667","6500200","三重區"
"241012","941-UM","2018/09/03 17:19:35","新北市三重區河邊北街248巷5號","121.50155","25.0759433333333","6500200","三重區"
"241033","AAC-255","2018/09/03 17:19:22","新北市三重區中興北街195號","121.469058333333","25.05729","6500200","三重區"
"235064","005-UY","2018/09/03 17:17:03","新北市中和區員山路36巷16-3號","121.485068333333","24.9912283333333","6500300","中和區"
"247012","KEA-2869","2018/09/03 17:19:25","新北市蘆洲區信義路319巷10弄17號","121.477475","25.0865466666667","6501400","蘆洲區"
"247002","893-R6","2018/09/03 17:19:37","新北市蘆洲區永樂街38巷33弄2號","121.458095","25.0894733333333","6501400","蘆洲區"
"247016","546-UM","2018/09/03 17:19:22","新北市蘆洲區正和街96巷28號","121.46763","25.0813583333333","6501400","蘆洲區"
"247024","500-BY","2018/09/03 17:19:37","新北市蘆洲區光榮路2號","121.46034","25.0861333333333","6501400","蘆洲區"
"247014","339-TH","2018/09/03 17:19:40","新北市蘆洲區中正路50號","121.470911666667","25.082775","6501400","蘆洲區"
"247006","337-TH","2018/09/03 17:19:36","新北市蘆洲區長安街46巷5號","121.463603333333","25.0801116666667","6501400","蘆洲區"
"247008","336-TH","2018/09/03 17:19:23","新北市蘆洲區信義路30巷137號","121.475336666667","25.0766283333333","6501400","蘆洲區"
"247020","057-VK","2018/09/03 17:19:35","新北市蘆洲區仁愛街25號","121.472298333333","25.0925833333333","6501400","蘆洲區"
"247010","056-VK","2018/09/03 17:19:33","新北市蘆洲區中山一路120巷21弄1號","121.477751666667","25.0820383333333","6501400","蘆洲區"
"247018","007-UY","2018/09/03 17:19:24","新北市蘆洲區民權路88號","121.474428333333","25.087715","6501400","蘆洲區"
"247004","002-UY","2018/09/03 17:19:21","新北市蘆洲區長安街233巷17號","121.458751666667","25.082355","6501400","蘆洲區"
"247022","001-UY","2018/09/03 17:19:23","新北市蘆洲區三民路128巷51號","121.46963","25.0900616666667","6501400","蘆洲區"
"228003","097-TW","2018/09/03 17:19:29","新北市貢寮區福隆里興隆街14號","121.945046666667","25.0167533333333","6502600","貢寮區"
"228002","663-BX","2018/09/03 17:19:23","新北市貢寮區雙玉里田寮洋街42號","121.92547","25.012225","6502600","貢寮區"
"228001","670-TC","2018/09/03 17:19:34","新北市貢寮區仁理村尖山腳街18-3號","121.925606666667","25.0483966666667","6502600","貢寮區"
"224006","676-BX","2018/09/03 17:19:39","新北市瑞芳區傑魚坑路245巷2號","121.788508333333","25.1064183333333","6501200","瑞芳區"
"224008","285-BY","2018/09/03 17:19:34","新北市瑞芳區侯硐路48號","121.825753333333","25.08301","6501200","瑞芳區"
"224009","273-VK","2018/09/03 17:19:28","新北市瑞芳區汽車路60-1號","121.84493","25.1107116666667","6501200","瑞芳區"
"224005","271-BY","2018/09/03 17:19:26","新北市瑞芳區鼻頭路111-1號","121.916226666667","25.122895","6501200","瑞芳區"
"227008","642-TC","2018/09/03 17:19:33","新北市雙溪區牡丹里牡丹58號","121.850683333333","25.06173","6502500","雙溪區"
"227001","400-TW","2018/09/03 17:19:36","新北市雙溪區上林里內平林90號","121.827545","25.0274616666667","6502500","雙溪區"
"251004","009-UM","2018/09/03 17:19:39","新北市淡水區中正東路一段3巷14弄1號","121.450735","25.1641616666667","6501000","淡水區"
"251005","010-UM","2018/09/03 17:19:33","新北市淡水區鄧公路19號","121.451426666667","25.1700316666667","6501000","淡水區"
"251013","KEA-2871","2018/09/03 17:19:38","新北市淡水區竹圍子8-5號","121.478685","25.19316","6501000","淡水區"
"251016","179-VK","2018/09/03 17:19:26","新北市淡水區大竹圍63號","121.462745","25.1910083333333","6501000","淡水區"
"251014","180-VK","2018/09/03 17:19:34","新北市淡水區番子田120-1號","121.464625","25.2277783333333","6501000","淡水區"
"251015","181-VK","2018/09/03 17:19:11","新北市淡水區樹林口7-1號","121.479501666667","25.1670716666667","6501000","淡水區"
"251010","413-VK","2018/09/03 17:19:26","新北市淡水區沙崙路165號","121.424191666667","25.1835983333333","6501000","淡水區"
"251012","441-VK","2018/09/03 17:19:27","新北市淡水區中山北路一段158號","121.444218333333","25.17785","6501000","淡水區"
"251007","442-VK","2018/09/03 17:19:23","新北市淡水區民生路47-4號","121.462071666667","25.1379666666667","6501000","淡水區"
"251008","443-VK","2018/09/03 17:19:22","新北市淡水區大同路269號","121.467338333333","25.1422183333333","6501000","淡水區"
"251006","561-UM","2018/09/03 17:19:37","新北市淡水區重建街204號","121.441208333333","25.1745116666667","6501000","淡水區"
"251011","650-BX","2018/09/03 17:19:28","新北市淡水區坪頂路128號","121.465186666667","25.1611066666667","6501000","淡水區"
"251002","672-BX","2018/09/03 17:19:23","新北市淡水區中正路二段31號","121.419405","25.1815383333333","6501000","淡水區"
"251003","766-UM","2018/09/03 17:19:40","新北市淡水區中正路二段31號","121.419441666667","25.181485","6501000","淡水區"
"207003","550-UM","2018/09/03 17:19:33","新北市萬里區萬里里獅頭路23號","121.693223333333","25.1782766666667","6502800","萬里區"
"252002","178-VK","2018/09/03 17:19:31","新北市三芝區忠孝街1-14號","121.505516666667","25.25392","6502100","三芝區"
"252001","292-VK","2018/09/03 17:19:38","新北市三芝區長安街119號","121.498038333333","25.25966","6502100","三芝區"
"242034","AAC-296","2018/09/03 17:19:35","新北市新莊區中環路二段392-1號","121.442445","25.0453583333333","6500500","新莊區"
"242058","986-R7","2018/09/03 17:19:34","新北市新莊區中正路400號","121.441668333333","25.033905","6500500","新莊區"
"242053","751-BX","2018/09/03 17:19:19","新北市新莊區瓊林路59-89號","121.442211666667","25.0245183333333","6500500","新莊區"
"242025","705-TV","2018/09/03 17:19:27","新北市新莊區中平路82巷29號","121.44611","25.0449566666667","6500500","新莊區"
"242027","615-BX","2018/09/03 17:19:38","新北市新莊區中港一街161號","121.44703","25.0449366666667","6500500","新莊區"
"242042","566-BX","2018/09/03 17:19:31","新北市新莊區中正路471號","121.441748333333","25.033825","6500500","新莊區"
"242046","497-BY","2018/09/03 17:19:37","新北市新莊區新樹路65-5號","121.439468333333","25.03081","6500500","新莊區"
"242050","441-UM","2018/09/03 17:19:30","新北市新莊區瓊林南路33-9號","121.435965","25.0178033333333","6500500","新莊區"
"242056","440-UM","2018/09/03 17:19:21","新北市新莊區中正路473-1號","121.441916666667","25.0331966666667","6500500","新莊區"
"242036","415-TV","2018/09/03 17:19:22","新北市新莊區中正路481號","121.44141","25.033755","6500500","新莊區"
"242007","413-TV","2018/09/03 17:19:21","新北市新莊區中平路82巷20號","121.445668333333","25.04496","6500500","新莊區"
"242043","400-BY","2018/09/03 17:19:37","新北市新莊區福營路371號","121.423611666667","25.0276333333333","6500500","新莊區"
"242023","362-BY","2018/09/03 17:19:22","新北市新莊區中環路二段392-1號","121.442495","25.0454","6500500","新莊區"
"242060","353-BY","2018/09/03 17:19:34","新北市新莊區新樹路452號","121.431505","25.001125","6500500","新莊區"
"242009","132-UY","2018/09/03 17:19:23","新北市新莊區中華路二段143號","121.452968333333","25.0511066666667","6500500","新莊區"
"242039","133-UY","2018/09/03 17:19:29","新北市新莊區新樹路223號","121.435473333333","25.0231383333333","6500500","新莊區"
"242031","135-UY","2018/09/03 17:19:29","新北市新莊區三和路12-18號","121.442013333333","25.037625","6500500","新莊區"
"242048","172-VK","2018/09/03 17:19:23","新北市新莊區富國路77巷1號","121.420348333333","25.02602","6500500","新莊區"
"242017","175-VK","2018/09/03 17:19:25","新北市新莊區中平路82巷29號","121.445905","25.04493","6500500","新莊區"
"242021","348-TH","2018/09/03 17:19:24","新北市新莊區中正路147-20號","121.457045","25.0370383333333","6500500","新莊區"
"242002","349-TH","2018/09/03 17:19:25","新北市新莊區新莊路771巷10號","121.442016666667","25.0318833333333","6500500","新莊區"
"242019","350-TH","2018/09/03 17:19:39","新北市新莊區新泰路502巷18號","121.443031666667","25.0465033333333","6500500","新莊區"
"242013","351-TH","2018/09/03 17:19:35","新北市新莊區新泰路421-7號","121.44255","25.0449783333333","6500500","新莊區"
"238019","599-UM","2018/09/03 17:19:28","新北市樹林區八德街251巷10弄2號","121.422323333333","24.9787","6500700","樹林區"
"238018","571-TV","2018/09/03 17:19:38","新北市樹林區樹中街63-1號","121.421223333333","24.9853166666667","6500700","樹林區"
"238024","5061-A6","2018/09/03 17:19:34","新北市樹林區保安街一段48巷31號","121.42661","24.99544","6500700","樹林區"
"238021","KEA-2217","2018/09/03 17:19:31","新北市樹林區西圳街一段126號","121.397891666667","24.963905","6500700","樹林區"
"238022","KEA-2213","2018/09/03 17:19:24","新北市樹林區忠孝街19號","121.423431666667","24.982545","6500700","樹林區"
"238025","303-VK","2018/09/03 17:19:37","新北市樹林區保安二街69號","121.424555","24.9950016666667","6500700","樹林區"
"238017","283-BY","2018/09/03 17:19:19","新北市樹林區光武街34號","121.416625","25.0064733333333","6500700","樹林區"
"238014","282-BY","2018/09/03 17:19:32","新北市樹林區長壽街70巷19-1號","121.42186","24.9947066666667","6500700","樹林區"
"238020","268-VK","2018/09/03 17:19:37","新北市樹林區千歲街61巷8-1號","121.426246666667","24.9980983333333","6500700","樹林區"
"238026","172-UY","2018/09/03 17:19:33","新北市樹林區味王街40號","121.404581666667","24.97385","6500700","樹林區"
"238016","169-UY","2018/09/03 17:19:36","新北市樹林區中山路一段163號","121.421716666667","24.9886016666667","6500700","樹林區"
"239007","AAC-297","2018/09/03 17:19:23","新北市鶯歌區行政路7號","121.35125","24.9555366666667","6500800","鶯歌區"
"239006","891-R6","2018/09/03 17:19:32","新北市鶯歌區福昌街22號","121.333001666667","24.9609616666667","6500800","鶯歌區"
"239008","527-UM","2018/09/03 17:19:38","新北市鶯歌區中山路130號","121.350301666667","24.9570166666667","6500800","鶯歌區"
"239005","526-UM","2018/09/03 17:19:24","新北市鶯歌區福德三街18號","121.329523333333","24.967495","6500800","鶯歌區"
"239001","417-VK","2018/09/03 17:19:26","新北市鶯歌區黃厝街31巷39-1號","121.342701666667","24.94546","6500800","鶯歌區"
"239003","360-BY","2018/09/03 17:19:39","新北市鶯歌區德昌二街3巷1-1號","121.333198333333","24.95957","6500800","鶯歌區"
"239002","359-BY","2018/09/03 17:19:35","新北市鶯歌區建國路278號","121.346563333333","24.953305","6500800","鶯歌區"
"239004","193-VK","2018/09/03 17:19:33","新北市鶯歌區文化路256巷15弄31號","121.352248333333","24.9468366666667","6500800","鶯歌區"
"242011","281-VK","2018/09/03 17:19:38","新北市新莊區三和路12-16號","121.442236666667","25.0374466666667","6500500","新莊區"
