"lineid","car","time","location","longitude","latitude","cityid","cityname"
"234026","9371-KE","2018/09/03 17:59:34","新北市永和區永和路一段45-1號","121.5128","25.0062816666667","6500400","永和區"
"249005","172-UM","2018/09/03 17:59:27","新北市八里區荖阡坑路22號","121.39913","25.1357033333333","6502300","八里區"
"249001","173-UM","2018/09/03 17:59:38","新北市八里區龍米路二段30號","121.448558333333","25.14002","6502300","八里區"
"249004","303-UY","2018/09/03 17:59:33","新北市八里區龍米路三段49-1號","121.424135","25.1589316666667","6502300","八里區"
"249002","305-UY","2018/09/03 17:59:35","新北市八里區龍形五街5號","121.450428333333","25.1335583333333","6502300","八里區"
"249003","593-UM","2018/09/03 17:59:36","新北市八里區中華路二段203號","121.405496666667","25.1495333333333","6502300","八里區"
"248006","077-UY","2018/09/03 17:59:41","新北市五股區中興路二段83巷26-6號","121.459433333333","25.07522","6501500","五股區"
"248008","095-VK","2018/09/03 17:59:38","新北市五股區更洲路40號","121.457755","25.079305","6501500","五股區"
"248018","225-UY","2018/09/03 17:59:28","新北市五股區中興路二段83巷26-6號","121.460051666667","25.07524","6501500","五股區"
"248012","247-BX","2018/09/03 17:59:21","新北市五股區中興路二段57-6號","121.46055","25.0752883333333","6501500","五股區"
"248014","261-SL","2018/09/03 17:59:27","新北市五股區中興路二段182巷3號","121.456503333333","25.0780216666667","6501500","五股區"
"248004","677-BX","2018/09/03 17:59:38","新北市五股區中興路二段157巷11-1號","121.45806","25.0768133333333","6501500","五股區"
"248002","678-BX","2018/09/03 17:59:24","新北市五股區中興路二段37巷28號","121.4603","25.0748716666667","6501500","五股區"
"248010","682-TV","2018/09/03 17:59:33","新北市五股區更洲路47號","121.456878333333","25.079105","6501500","五股區"
"232011","375-UM","2018/09/03 17:59:30","新北市坪林區北宜路八段227號","121.708998333333","24.934985","6502000","坪林區"
"244007","080-UY","2018/09/03 17:59:27","新北市林口區林口路235號","121.386893333333","25.083455","6501700","林口區"
"244019","403-UM","2018/09/03 17:59:22","新北市林口區文化一路一段122號","121.374736666667","25.072155","6501700","林口區"
"244013","KEA-2802","2018/09/03 17:59:24","新北市林口區中山路37號","121.394926666667","25.07841","6501700","林口區"
"244023","483-VK","2018/09/03 17:59:34","新北市林口區東湖路41巷13號","121.386313333333","25.0731783333333","6501700","林口區"
"244017","485-VK","2018/09/03 17:59:39","新北市林口區忠孝路472號","121.370146666667","25.0706783333333","6501700","林口區"
"244004","656-BX","2018/09/03 17:59:39","新北市林口區佳林路56巷31號","121.385325","25.080965","6501700","林口區"
"244011","657-BX","2018/09/03 17:59:30","新北市林口區中正路224號","121.390395","25.077715","6501700","林口區"
"244025","837-TS","2018/09/03 17:59:21","新北市林口區文化三路一段39巷118號","121.359383333333","25.0679883333333","6501700","林口區"
"244021","838-TS","2018/09/03 17:59:34","新北市林口區仁愛路一段2-1號","121.397913333333","25.067205","6501700","林口區"
"243013","AAD-798","2018/09/03 17:59:34","新北市泰山區黎明路31號","121.421748333333","25.0606133333333","6501600","泰山區"
"243011","KEA-2215","2018/09/03 17:59:30","新北市泰山區犁頭窠29鄰16號","121.421435","25.0555366666667","6501600","泰山區"
"222003","436-BY","2018/09/03 17:59:26","新北市深坑區炮子崙24號","121.605471666667","24.987865","6501800","深坑區"
"222002","659-BX","2018/09/03 17:59:43","新北市深坑區文化街102號","121.616653333333","25.0018966666667","6501800","深坑區"
"231046","107-UY","2018/09/03 17:59:41","新北市新店區康雅崙路24號","121.535266666667","24.9267033333333","6500600","新店區"
"231042","268-BY","2018/09/03 17:59:36","新北市新店區安華路1-1號","121.519405","24.96054","6500600","新店區"
"231058","3713-VJ","2018/09/03 17:59:32","新北市新店區安華路28-1號","121.519255","24.9607483333333","6500600","新店區"
"231063","641-BX","2018/09/03 17:59:36","新北市新店區安華路28-1號","121.519696666667","24.9606183333333","6500600","新店區"
"231055","AKT-0513","2018/09/03 17:59:20","新北市新店區安華路1-1號","121.519421666667","24.9605133333333","6500600","新店區"
"241016","266-UM","2018/09/03 17:59:41","新北市三重區新北大道一段56號","121.487436666667","25.0614333333333","6500200","三重區"
"241024","462-BY","2018/09/03 17:59:32","新北市三重區中正北路193巷35弄78號","121.478678333333","25.0714633333333","6500200","三重區"
"241005","887-TS","2018/09/03 17:59:34","新北市三重區五華街141巷57號","121.493488333333","25.0864516666667","6500200","三重區"
"241033","AAC-255","2018/09/03 17:59:22","新北市三重區重新路五段625號","121.467923333333","25.0441033333333","6500200","三重區"
"235066","003-UY","2018/09/03 17:59:33","新北市中和區中正路637巷52弄1號","121.485505","24.9935783333333","6500300","中和區"
"235064","005-UY","2018/09/03 17:59:41","新北市中和區員山路36巷16-3號","121.485166666667","24.9912916666667","6500300","中和區"
"235063","006-UY","2018/09/03 17:59:24","新北市中和區員山路36巷16-3號","121.484968333333","24.9913766666667","6500300","中和區"
"235065","098-UM","2018/09/03 17:59:30","新北市中和區中山路二段472號","121.488231666667","25.0048116666667","6500300","中和區"
"235058","151-BY","2018/09/03 17:59:29","新北市中和區圓通路367巷18-3號","121.491806666667","24.9886883333333","6500300","中和區"
"235038","185-VK","2018/09/03 17:59:40","新北市中和區中正路250號","121.495668333333","24.9939683333333","6500300","中和區"
"235042","KEA-2878","2018/09/03 17:59:29","新北市中和區和城路一段271巷1號","121.485501666667","24.9918866666667","6500300","中和區"
"247012","KEA-2869","2018/09/03 17:59:34","新北市蘆洲區民族路175號","121.479075","25.0885766666667","6501400","蘆洲區"
"235062","800-TS","2018/09/03 17:59:29","新北市中和區員山路36巷16-2號","121.4852","24.9917216666667","6500300","中和區"
"235052","805-TS","2018/09/03 17:59:42","新北市中和區員山路36巷16號","121.484373333333","24.99152","6500300","中和區"
"235048","896-TW","2018/09/03 17:59:37","新北市中和區員山路36巷16-3號","121.485008333333","24.9917833333333","6500300","中和區"
"235051","157-BY","2018/09/03 17:59:23","新北市中和區員山路36巷13號","121.484115","24.9910733333333","6500300","中和區"
"235037","AAC-213","2018/09/03 17:59:31","新北市中和區錦和路350-1號","121.490563333333","24.9935583333333","6500300","中和區"
"247002","893-R6","2018/09/03 17:59:36","新北市蘆洲區永平街32巷57弄20號","121.45902","25.0932933333333","6501400","蘆洲區"
"247016","546-UM","2018/09/03 17:59:32","新北市蘆洲區長樂路2-15號","121.464985","25.0837533333333","6501400","蘆洲區"
"247024","500-BY","2018/09/03 17:59:37","新北市蘆洲區光復路30巷31-1號","121.463685","25.08452","6501400","蘆洲區"
"247014","339-TH","2018/09/03 17:59:40","新北市蘆洲區忠孝路53號","121.471331666667","25.0865716666667","6501400","蘆洲區"
"247006","337-TH","2018/09/03 17:59:36","新北市蘆洲區永康街29號","121.457608333333","25.085225","6501400","蘆洲區"
"247008","336-TH","2018/09/03 17:59:30","新北市蘆洲區成功路38巷2號","121.47323","25.079485","6501400","蘆洲區"
"247020","057-VK","2018/09/03 17:59:35","新北市蘆洲區民權路121巷16弄1號","121.471256666667","25.0893116666667","6501400","蘆洲區"
"247010","056-VK","2018/09/03 17:59:33","新北市蘆洲區信義路271巷13號","121.478273333333","25.08479","6501400","蘆洲區"
"247018","007-UY","2018/09/03 17:59:24","新北市蘆洲區復興路195號","121.479321666667","25.0894466666667","6501400","蘆洲區"
"226004","312-R5","2018/09/03 17:59:39","新北市平溪區石底里公園街18-3號","121.733285","25.0258483333333","6502400","平溪區"
"228003","097-TW","2018/09/03 17:59:29","新北市貢寮區真理里美艷山街6-2號","121.928878333333","25.0607133333333","6502600","貢寮區"
"228002","663-BX","2018/09/03 17:59:43","新北市貢寮區福連里香蘭街5號","121.974641666667","25.0242616666667","6502600","貢寮區"
"228001","670-TC","2018/09/03 17:59:34","新北市貢寮區仁理村仁愛路106巷36號","121.928926666667","25.0534333333333","6502600","貢寮區"
"224006","676-BX","2018/09/03 17:59:39","新北市瑞芳區大寮路356-1號","121.784875","25.1032466666667","6501200","瑞芳區"
"224002","639-TC","2018/09/03 17:59:39","新北市瑞芳區三爪子坑路32巷112號","121.809751666667","25.10586","6501200","瑞芳區"
"224008","285-BY","2018/09/03 17:59:34","新北市瑞芳區明燈路一段45巷97號","121.822118333333","25.10424","6501200","瑞芳區"
"224009","273-VK","2018/09/03 17:59:28","新北市瑞芳區金光路316巷11號","121.850683333333","25.1079916666667","6501200","瑞芳區"
"224005","271-BY","2018/09/03 17:59:27","新北市瑞芳區弘祥新村36號","121.81777","25.128495","6501200","瑞芳區"
"253006","032-BX","2018/09/03 17:59:25","新北市石門區大丘田45-2號","121.549763333333","25.27482","6502200","石門區"
"253005","295-VK","2018/09/03 17:59:33","新北市石門區中山路62-11號","121.567505","25.289655","6502200","石門區"
"222001","KEA-2212","2018/09/03 17:59:33","新北市深坑區北深路三段16號","121.609595","25.001085","6501800","深坑區"
"208002","KEA-2872","2018/09/03 17:59:33","新北市金山區三界壇路38號","121.625166666667","25.22858","6502700","金山區"
"208003","665-BX","2018/09/03 17:59:20","新北市金山區磺港里磺港路309號","121.644108333333","25.2275983333333","6502700","金山區"
"208001","761-BX","2018/09/03 17:59:34","新北市金山區磺港里磺港路248號","121.643808333333","25.22502","6502700","金山區"
"251004","009-UM","2018/09/03 17:59:32","新北市淡水區民權路157號","121.459911666667","25.1361133333333","6501000","淡水區"
"251005","010-UM","2018/09/03 17:59:33","新北市淡水區英專路135號","121.446533333333","25.172735","6501000","淡水區"
"251013","KEA-2871","2018/09/03 17:59:38","新北市淡水區泉洲厝30號","121.479698333333","25.19099","6501000","淡水區"
"251016","179-VK","2018/09/03 17:59:26","新北市淡水區淡金路三段26號","121.447756666667","25.1982566666667","6501000","淡水區"
"251014","180-VK","2018/09/03 17:59:40","新北市淡水區南平1號","121.481606666667","25.2224533333333","6501000","淡水區"
"251015","181-VK","2018/09/03 17:59:31","新北市淡水區興福寮88巷1號","121.48533","25.164995","6501000","淡水區"
"251010","413-VK","2018/09/03 17:59:26","新北市淡水區中正路一段87巷7號","121.419723333333","25.1783","6501000","淡水區"
"251012","441-VK","2018/09/03 17:59:27","新北市淡水區北新路三段38巷7號","121.48455","25.187035","6501000","淡水區"
"251007","442-VK","2018/09/03 17:59:23","新北市淡水區中正東路二段161巷11弄10號","121.461481666667","25.1460916666667","6501000","淡水區"
"251008","443-VK","2018/09/03 17:59:22","新北市淡水區八勢一街33號","121.461765","25.1564433333333","6501000","淡水區"
"251001","559-UM","2018/09/03 17:59:38","新北市淡水區民權路14號","121.462975","25.1245166666667","6501000","淡水區"
"251006","561-UM","2018/09/03 17:59:28","新北市淡水區真理街1-1號","121.438166666667","25.173055","6501000","淡水區"
"251009","575-R6","2018/09/03 17:59:25","新北市淡水區大智街35號","121.44251","25.174545","6501000","淡水區"
"251011","650-BX","2018/09/03 17:59:28","新北市淡水區三空泉8-1號","121.475583333333","25.1609516666667","6501000","淡水區"
"251002","672-BX","2018/09/03 17:59:23","新北市淡水區中正東路8-8號","121.447906666667","25.1666666666667","6501000","淡水區"
"251003","766-UM","2018/09/03 17:59:39","新北市淡水區大忠街45號","121.444676666667","25.1763916666667","6501000","淡水區"
"207003","550-UM","2018/09/03 17:59:33","新北市萬里區港東路野柳風景區攤販51號","121.691611666667","25.20591","6502800","萬里區"
"207004","225-TW","2018/09/03 17:59:37","新北市萬里區中幅里中福路48號","121.68328","25.1740633333333","6502800","萬里區"
"252002","178-VK","2018/09/03 17:59:30","新北市三芝區中山路二段45號","121.502971666667","25.2548283333333","6502100","三芝區"
"252003","249-BX","2018/09/03 17:59:27","新北市三芝區埔坪里埔頭坑41號","121.50458","25.264585","6502100","三芝區"
"252001","292-VK","2018/09/03 17:59:38","新北市三芝區中興街二段2號","121.49843","25.2566333333333","6502100","三芝區"
"237007","153-BY","2018/09/03 17:59:28","新北市三峽區中園街110-1號","121.366936666667","24.9228766666667","6500900","三峽區"
"237009","210-TH","2018/09/03 17:59:33","新北市三峽區中山路106巷13號","121.366103333333","24.936225","6500900","三峽區"
"237013","252-BX","2018/09/03 17:59:29","新北市三峽區介壽路一段51號","121.375593333333","24.93295","6500900","三峽區"
"237012","275-BY","2018/09/03 17:59:31","新北市三峽區民生街27巷1號","121.376061666667","24.9361733333333","6500900","三峽區"
"237008","302-VK","2018/09/03 17:59:32","新北市三峽區白雞24號","121.368438333333","24.912485","6500900","三峽區"
"237014","433-BY","2018/09/03 17:59:31","新北市三峽區復興路101巷1弄79號","121.371083333333","24.9376333333333","6500900","三峽區"
"237006","5529-G3","2018/09/03 17:59:30","新北市三峽區介壽路二段138巷1弄88號","121.39786","24.9321","6500900","三峽區"
"237011","KEA-2596","2018/09/03 17:59:33","新北市三峽區光明路48號","121.374635","24.9297383333333","6500900","三峽區"
"237015","649-BX","2018/09/03 17:59:28","新北市三峽區詩朗139號","121.405601666667","24.9109483333333","6500900","三峽區"
"237010","706-TV","2018/09/03 17:59:42","新北市三峽區中山路62號","121.36819","24.9345633333333","6500900","三峽區"
"237005","AKY-6261","2018/09/03 17:59:27","新北市三峽區和平街89巷8號","121.369905","24.9375733333333","6500900","三峽區"
"236069","105-UM","2018/09/03 17:59:31","新北市土城區城林路6巷80號","121.438451666667","24.9799333333333","6501300","土城區"
"236042","107-UM","2018/09/03 17:59:29","新北市土城區城林路6巷80號","121.438653333333","24.97967","6501300","土城區"
"236078","166-UM","2018/09/03 17:59:32","新北市土城區永寧路57-1號","121.429126666667","24.9599533333333","6501300","土城區"
"236030","253-BX","2018/09/03 17:59:42","新北市土城區城林路6巷80號","121.438636666667","24.9796466666667","6501300","土城區"
"236026","269-VK","2018/09/03 17:59:29","新北市土城區承天路1號","121.435826666667","24.9665433333333","6501300","土城區"
"236014","270-VK","2018/09/03 17:59:28","新北市土城區城林路6巷80號","121.438528333333","24.9795966666667","6501300","土城區"
"236039","271-VK","2018/09/03 17:59:24","新北市土城區城林路6巷80號","121.438575","24.9795866666667","6501300","土城區"
"236020","401-BY","2018/09/03 17:59:39","新北市土城區城林路6巷80號","121.438748333333","24.9796933333333","6501300","土城區"
"236059","912-UM","2018/09/03 17:59:26","新北市土城區中央路三段260號","121.427185","24.963995","6501300","土城區"
"236048","913-UM","2018/09/03 17:59:33","新北市土城區城林路6巷80號","121.438485","24.9795766666667","6501300","土城區"
"236055","AAC-216","2018/09/03 17:59:37","新北市土城區城林路6巷80號","121.438466666667","24.97961","6501300","土城區"
"242034","AAC-296","2018/09/03 17:59:35","新北市新莊區景德路414號","121.444706666667","25.03339","6500500","新莊區"
"242058","986-R7","2018/09/03 17:59:34","新北市新莊區壽山路160巷21號","121.417451666667","25.0319433333333","6500500","新莊區"
"242053","751-BX","2018/09/03 17:59:39","新北市新莊區光華街4號","121.42866","25.010645","6500500","新莊區"
"242025","705-TV","2018/09/03 17:59:27","新北市新莊區五權一路5-7號","121.458211666667","25.06626","6500500","新莊區"
"242027","615-BX","2018/09/03 17:59:37","新北市新莊區思源路336號","121.460025","25.0510766666667","6500500","新莊區"
"242042","566-BX","2018/09/03 17:59:32","新北市新莊區壽山路31號","121.419983333333","25.0286616666667","6500500","新莊區"
"242046","497-BY","2018/09/03 17:59:36","新北市新莊區福營路197號","121.431203333333","25.0303966666667","6500500","新莊區"
"242050","441-UM","2018/09/03 17:59:31","新北市新莊區西盛街153巷6號","121.42863","25.0180783333333","6500500","新莊區"
"242056","440-UM","2018/09/03 17:59:34","新北市新莊區豐年街124巷10號","121.445808333333","25.0298216666667","6500500","新莊區"
"242036","415-TV","2018/09/03 17:59:22","新北市新莊區建福路22號","121.426201666667","25.0288016666667","6500500","新莊區"
"242007","413-TV","2018/09/03 17:59:21","新北市新莊區自信街2號","121.453213333333","25.04804","6500500","新莊區"
"242044","400-BY","2018/09/03 17:59:37","新北市新莊區雙鳳路119號","121.413426666667","25.02806","6500500","新莊區"
"242023","362-BY","2018/09/03 17:59:42","新北市新莊區福壽街48號","121.458251666667","25.0486183333333","6500500","新莊區"
"242060","353-BY","2018/09/03 17:59:34","新北市新莊區新樹路399號","121.43281","25.0158966666667","6500500","新莊區"
"242009","132-UY","2018/09/03 17:59:43","新北市新莊區中華路二段314號","121.452598333333","25.0539316666667","6500500","新莊區"
"242039","133-UY","2018/09/03 17:59:29","新北市新莊區民安西路2號","121.426463333333","25.0219083333333","6500500","新莊區"
"242031","135-UY","2018/09/03 17:59:34","新北市新莊區新泰路289巷50號","121.443301666667","25.04041","6500500","新莊區"
"242048","172-VK","2018/09/03 17:58:03","新北市新莊區萬安街51號","121.42158","25.02449","6500500","新莊區"
"242017","175-VK","2018/09/03 17:59:24","新北市新莊區中和街60巷15號","121.448628333333","25.0448416666667","6500500","新莊區"
"242015","346-TH","2018/09/03 17:59:32","新北市新莊區中平路81巷8號","121.444258333333","25.0456116666667","6500500","新莊區"
"242021","348-TH","2018/09/03 17:59:23","新北市新莊區建興街41巷2號","121.450011666667","25.03732","6500500","新莊區"
"242002","349-TH","2018/09/03 17:59:25","新北市新莊區中正路153-2號","121.455953333333","25.03668","6500500","新莊區"
"242019","350-TH","2018/09/03 17:59:39","新北市新莊區明中街18號","121.457445","25.0393483333333","6500500","新莊區"
"242013","351-TH","2018/09/03 17:59:35","新北市新莊區幸福路819號","121.445461666667","25.0489416666667","6500500","新莊區"
"238015","755-BX","2018/09/03 17:59:28","新北市樹林區大安路307巷1弄1號","121.418145","24.9920633333333","6500700","樹林區"
"238023","601-UM","2018/09/03 17:59:24","新北市樹林區龍興街55號","121.403328333333","25.01534","6500700","樹林區"
"238019","599-UM","2018/09/03 17:59:28","新北市樹林區中華路73號","121.423058333333","24.983035","6500700","樹林區"
"238018","571-TV","2018/09/03 17:59:29","新北市樹林區中正路241號","121.430298333333","24.998635","6500700","樹林區"
"238021","KEA-2217","2018/09/03 17:59:31","新北市樹林區柑園街一段21巷2號","121.404701666667","24.9605033333333","6500700","樹林區"
"238022","KEA-2213","2018/09/03 17:59:24","新北市樹林區太元街53號","121.418925","24.9787666666667","6500700","樹林區"
"238025","303-VK","2018/09/03 17:59:37","新北市樹林區三俊街104號","121.41464","25.0155733333333","6500700","樹林區"
"238017","283-BY","2018/09/03 17:59:39","新北市樹林區中正路636號","121.410061666667","25.01623","6500700","樹林區"
"238014","282-BY","2018/09/03 17:59:32","新北市樹林區大安路11號","121.425031666667","25.00046","6500700","樹林區"
"238020","268-VK","2018/09/03 17:59:37","新北市新莊區龍安路254巷18-1號","121.42062","25.0184833333333","6500700","樹林區"
"238026","172-UY","2018/09/03 17:59:33","新北市樹林區育德街2號","121.392776666667","24.970595","6500700","樹林區"
"238016","169-UY","2018/09/03 17:59:36","新北市樹林區中山路一段242巷16弄5號","121.420598333333","24.9883616666667","6500700","樹林區"
"239007","AAC-297","2018/09/03 17:59:43","新北市鶯歌區鶯桃路94巷59弄16號","121.34152","24.9552533333333","6500800","鶯歌區"
"239006","891-R6","2018/09/03 17:59:32","新北市鶯歌區鶯桃路451號","121.33196","24.9653866666667","6500800","鶯歌區"
"239008","527-UM","2018/09/03 17:59:38","新北市鶯歌區香賓街10巷2號","121.336695","24.9792","6500800","鶯歌區"
"239005","526-UM","2018/09/03 17:59:24","新北市鶯歌區鶯桃路658巷49-2號","121.3308","24.97025","6500800","鶯歌區"
"239001","417-VK","2018/09/03 17:59:25","新北市鶯歌區中正三路76號","121.338465","24.9410816666667","6500800","鶯歌區"
"239003","360-BY","2018/09/03 17:59:39","新北市鶯歌區永吉街7巷1號","121.336708333333","24.9585533333333","6500800","鶯歌區"
"239002","359-BY","2018/09/03 17:59:35","新北市鶯歌區國華路81號","121.34305","24.9541216666667","6500800","鶯歌區"
"221008","489-VK","2018/09/03 17:59:26","新北市汐止區明峰街19號","121.634571666667","25.0713966666667","6501100","汐止區"
"221036","130-UY","2018/09/03 17:59:24","新北市汐止區大同路三段62巷1號","121.667605","25.077005","6501100","汐止區"
"221015","131-UY","2018/09/03 17:59:42","新北市汐止區長江街333號","121.666748333333","25.0817666666667","6501100","汐止區"
"221010","269-BY","2018/09/03 17:59:22","新北市汐止區汐萬路二段245巷29號","121.644363333333","25.087525","6501100","汐止區"
"221012","278-VK","2018/09/03 17:59:30","新北市汐止區長興街二段30號","121.673241666667","25.081455","6501100","汐止區"
"221023","279-VK","2018/09/03 17:59:25","新北市汐止區明峰街162號","121.629195","25.0706166666667","6501100","汐止區"
"221032","280-BY","2018/09/03 17:59:27","新北市汐止區橫科路73巷2-2號","121.619436666667","25.050765","6501100","汐止區"
"221027","281-BY","2018/09/03 17:59:39","新北市汐止區大同路二段374號","121.657858333333","25.0671783333333","6501100","汐止區"
"221029","298-VK","2018/09/03 17:59:26","新北市汐止區樟樹二路332號","121.641448333333","25.0703466666667","6501100","汐止區"
"221021","299-VK","2018/09/03 17:59:34","新北市汐止區龍安路16號","121.655725","25.064175","6501100","汐止區"
"221031","353-TW","2018/09/03 17:59:22","新北市汐止區中興路143號","121.631446666667","25.065675","6501100","汐止區"
"221035","622-UM","2018/09/03 17:59:42","新北市汐止區新江北路30巷17號","121.651985","25.06938","6501100","汐止區"
"221025","623-UM","2018/09/03 17:59:28","新北市汐止區仁愛路12號","121.659506666667","25.06333","6501100","汐止區"
"221038","646-BX","2018/09/03 17:59:39","新北市汐止區連興街128巷7弄9號","121.653568333333","25.0611766666667","6501100","汐止區"
"221033","647-BX","2018/09/03 17:59:43","新北市汐止區合順街39巷1號","121.620663333333","25.0432833333333","6501100","汐止區"
"221018","753-BX","2018/09/03 17:59:38","新北市汐止區招商街11巷3號","121.666653333333","25.06886","6501100","汐止區"
"242011","281-VK","2018/09/03 17:59:38","新北市新莊區中原路90號","121.451138333333","25.0544316666667","6500500","新莊區"
"235068","KEA-2873","2018/09/03 17:59:24","新北市中和區員山路36巷16-3號","121.485243333333","24.991105","6500300","中和區"
