"lineid","car","time","location","longitude","latitude","cityid","cityname"
"234046","148-BY","2018/09/03 18:39:41","新北市永和區永元路66號","121.522576666667","25.0013783333333","6500400","永和區"
"234007","207-UY","2018/09/03 18:39:30","新北市永和區文化路123號","121.512208333333","25.0153533333333","6500400","永和區"
"234081","298-R6","2018/09/03 18:39:37","新北市永和區林森路81號","121.523968333333","25.00382","6500400","永和區"
"234038","336-UY","2018/09/03 18:39:27","新北市永和區福和路1號","121.526678333333","25.0102216666667","6500400","永和區"
"234064","337-UY","2018/09/03 18:39:25","新北市永和區福和路1號","121.526593333333","25.0100833333333","6500400","永和區"
"234086","338-UY","2018/09/03 18:39:29","新北市永和區中正路127號","121.515926666667","24.9977816666667","6500400","永和區"
"234070","552-UM","2018/09/03 18:39:33","新北市永和區福和路1號","121.52562","25.0090833333333","6500400","永和區"
"234017","745-BX","2018/09/03 18:39:37","新北市永和區福和路1號","121.526385","25.0096033333333","6500400","永和區"
"234030","746-BX","2018/09/03 18:39:21","新北市永和區得和路328號","121.523363333333","24.9994766666667","6500400","永和區"
"234054","KEA-2590","2018/09/03 18:39:38","新北市永和區福和路1號","121.526165","25.0094083333333","6500400","永和區"
"234013","847-RS","2018/09/03 18:39:41","新北市永和區保福路二段105號","121.510245","25.01338","6500400","永和區"
"234042","862-TW","2018/09/03 18:39:27","新北市永和區永貞路308號","121.51186","25.0048716666667","6500400","永和區"
"234026","9371-KE","2018/09/03 18:39:33","新北市永和區永貞路415號","121.507376666667","25.009385","6500400","永和區"
"234011","9373-KE","2018/09/03 18:39:26","新北市永和區文化路9巷22弄1號","121.515223333333","25.0145533333333","6500400","永和區"
"249005","172-UM","2018/09/03 18:39:38","新北市八里區中華路三段200號","121.388645","25.1257033333333","6502300","八里區"
"249001","173-UM","2018/09/03 18:39:37","新北市八里區龍米路一段382號","121.45154","25.131835","6502300","八里區"
"249004","303-UY","2018/09/03 18:39:33","新北市八里區觀海大道91號","121.427001666667","25.1618466666667","6502300","八里區"
"249002","305-UY","2018/09/03 18:39:35","新北市八里區龍形一街31號","121.449656666667","25.1304283333333","6502300","八里區"
"248016","025-BX","2018/09/03 18:39:27","新北市五股區凌雲路一段133巷36號","121.448718333333","25.1009433333333","6501500","五股區"
"248008","095-VK","2018/09/03 18:39:38","新北市五股區中興路一段148號","121.464645","25.0739416666667","6501500","五股區"
"248018","225-UY","2018/09/03 18:39:28","新北市五股區民義路二段52巷3-6號","121.411181666667","25.1058516666667","6501500","五股區"
"248012","247-BX","2018/09/03 18:39:44","新北市五股區成泰路三段2巷1-20號","121.44117","25.086485","6501500","五股區"
"248014","261-SL","2018/09/03 18:39:27","新北市五股區蓬萊路24號","121.43421","25.0798216666667","6501500","五股區"
"248004","677-BX","2018/09/03 18:39:37","新北市五股區民義路一段217號","121.429866666667","25.0895916666667","6501500","五股區"
"248002","678-BX","2018/09/03 18:39:24","新北市五股區西雲路218號","121.448118333333","25.0961","6501500","五股區"
"248010","682-TV","2018/09/03 18:39:33","新北市五股區水碓三路120號","121.431731666667","25.0735766666667","6501500","五股區"
"234023","9380-KE","2018/09/03 18:39:27","新北市永和區竹林路225巷25號","121.522245","25.008705","6500400","永和區"
"234077","969-R7","2018/09/03 18:39:28","新北市永和區中正路324號","121.517486666667","24.9996583333333","6500400","永和區"
"234067","AAC-212","2018/09/03 18:39:37","新北市永和區永貞路40號","121.520845","25.0065333333333","6500400","永和區"
"234003","AAC-295","2018/09/03 18:39:24","新北市永和區福和路1號","121.526608333333","25.0099433333333","6500400","永和區"
"244007","080-UY","2018/09/03 18:39:27","新北市林口區瑞樹坑22號","121.380843333333","25.11021","6501700","林口區"
"244019","403-UM","2018/09/03 18:39:22","新北市林口區忠孝路648號","121.379201666667","25.0685183333333","6501700","林口區"
"244013","KEA-2802","2018/09/03 18:39:44","新北市林口區文化一路二段92號","121.381795","25.0787433333333","6501700","林口區"
"244023","483-VK","2018/09/03 18:39:34","新北市林口區文化二路二段105號","121.37821","25.080695","6501700","林口區"
"244017","485-VK","2018/09/03 18:39:39","新北市林口區文化二路一段60-1號","121.365201666667","25.068235","6501700","林口區"
"244004","656-BX","2018/09/03 18:39:39","新北市林口區竹林路326巷21號","121.39221","25.0822383333333","6501700","林口區"
"244011","657-BX","2018/09/03 18:39:30","新北市林口區中正路277號","121.389958333333","25.0776366666667","6501700","林口區"
"244025","837-TS","2018/09/03 18:39:41","新北市林口區南勢六街246號","121.355863333333","25.0747483333333","6501700","林口區"
"244021","838-TS","2018/09/03 18:39:34","新北市林口區自強二街34號","121.39836","25.0776833333333","6501700","林口區"
"243013","AAD-798","2018/09/03 18:32:25","新北市泰山區明志路三段206巷1號","121.423355","25.0379033333333","6501600","泰山區"
"243016","KEA-2801","2018/09/03 18:39:32","新北市泰山區黎明路13號","121.421","25.0631666666667","6501600","泰山區"
"243015","421-VK","2018/09/03 18:39:35","新北市泰山區黎明路31號","121.421525","25.0607133333333","6501600","泰山區"
"243011","KEA-2215","2018/09/03 18:39:29","新北市泰山區黎明路25號","121.421816666667","25.061015","6501600","泰山區"
"243010","KEA-2216","2018/09/03 18:39:28","新北市泰山區黎明路26號","121.420728333333","25.0600783333333","6501600","泰山區"
"243012","646-TV","2018/09/03 18:39:22","新北市泰山區福興三街9號","121.434683333333","25.057875","6501600","泰山區"
"222003","436-BY","2018/09/03 18:39:26","新北市深坑區翠谷街37巷1號","121.626505","25.0094133333333","6501800","深坑區"
"222002","659-BX","2018/09/03 18:39:28","新北市深坑區雲鄉路1號","121.621033333333","24.9997183333333","6501800","深坑區"
"231041","002-UM","2018/09/03 18:39:38","新北市新店區安華路28-1號","121.519733333333","24.9605716666667","6500600","新店區"
"231059","046-UY","2018/09/03 18:39:36","新北市新店區安華路28-1號","121.519736666667","24.9608733333333","6500600","新店區"
"231040","047-UY","2018/09/03 18:39:42","新北市新店區安華路28-1號","121.519161666667","24.960845","6500600","新店區"
"231044","106-UY","2018/09/03 18:39:25","新北市新店區光明街129號","121.539318333333","24.96191","6500600","新店區"
"231046","107-UY","2018/09/03 18:39:41","新北市新店區直潭二街1號","121.535496666667","24.9431833333333","6500600","新店區"
"231052","108-UY","2018/09/03 18:39:21","新北市新店區永興路7號","121.544668333333","24.9396316666667","6500600","新店區"
"231064","110-UY","2018/09/03 18:39:31","新北市新店區安一路一段1-1號","121.519811666667","24.9613033333333","6500600","新店區"
"231047","187-VK","2018/09/03 18:39:26","新北市新店區安華路8號","121.519813333333","24.962415","6500600","新店區"
"231062","188-VK","2018/09/03 18:39:37","新北市新店區安一路一段1-1號","121.519113333333","24.9617483333333","6500600","新店區"
"231054","KEA-2219","2018/09/03 18:39:37","新北市新店區安一路一段1-1號","121.519828333333","24.96141","6500600","新店區"
"231057","256-BX","2018/09/03 18:39:30","新北市新店區新烏路一段205號","121.547265","24.9329216666667","6500600","新店區"
"231042","268-BY","2018/09/03 18:39:36","新北市新店區安華路28-1號","121.519478333333","24.96059","6500600","新店區"
"231051","278-BY","2018/09/03 18:39:28","新北市新店區中央路91號","121.5318","24.9758966666667","6500600","新店區"
"231050","AAD-862","2018/09/03 18:39:31","新北市新店區安一路一段1-1號","121.519763333333","24.9611366666667","6500600","新店區"
"231058","3713-VJ","2018/09/03 18:39:32","新北市新店區新店路12號","121.53806","24.9525366666667","6500600","新店區"
"231066","4716-K9","2018/09/03 18:39:40","新北市新店區安一路一段1-1號","121.519286666667","24.9614183333333","6500600","新店區"
"231056","4715-K9","2018/09/03 18:39:35","新北市新店區建國路207號","121.537775","24.9801183333333","6500600","新店區"
"231067","4772-VM","2018/09/03 18:39:26","新北市新店區安華路1-1號","121.519075","24.9605416666667","6500600","新店區"
"231065","512-UM","2018/09/03 18:39:24","新北市新店區安一路一段1-1號","121.519513333333","24.9611516666667","6500600","新店區"
"231049","513-UM","2018/09/03 18:39:36","新北市新店區安一路一段1-1號","121.519773333333","24.96123","6500600","新店區"
"231061","619-UM","2018/09/03 18:39:37","新北市新店區安華路28-1號","121.519675","24.96077","6500600","新店區"
"231063","641-BX","2018/09/03 18:39:36","新北市新店區安華路28-1號","121.519658333333","24.9606283333333","6500600","新店區"
"231060","897-TW","2018/09/03 18:39:29","新北市新店區安華路28-1號","121.519675","24.9608166666667","6500600","新店區"
"231045","898-TW","2018/09/03 18:39:36","新北市新店區安華路28-1號","121.51921","24.960945","6500600","新店區"
"231043","899-TW","2018/09/03 18:39:37","新北市新店區安華路28-1號","121.519111666667","24.9608866666667","6500600","新店區"
"231055","AKT-0513","2018/09/03 18:39:41","新北市新店區中華路125號","121.538598333333","24.969655","6500600","新店區"
"235066","003-UY","2018/09/03 18:39:33","新北市中和區水源路39號","121.504651666667","25.003575","6500300","中和區"
"235064","005-UY","2018/09/03 18:39:41","新北市中和區連城路89巷1號","121.49662","24.99999","6500300","中和區"
"235063","006-UY","2018/09/03 18:39:24","新北市中和區連城路347巷4弄9號","121.487943333333","24.9955383333333","6500300","中和區"
"235056","096-UM","2018/09/03 18:39:31","新北市中和區員山路611巷1號","121.47787","25.0113533333333","6500300","中和區"
"235039","097-UM","2018/09/03 18:39:35","新北市中和區宜安路18巷7號","121.513676666667","24.9960683333333","6500300","中和區"
"235065","098-UM","2018/09/03 18:39:29","新北市中和區莊敬路33巷38弄1號","121.500636666667","25.0065566666667","6500300","中和區"
"235040","150-BY","2018/09/03 18:39:43","新北市中和區宜安路47巷2號","121.511675","24.9964383333333","6500300","中和區"
"235058","151-BY","2018/09/03 18:39:29","新北市中和區員山路76號","121.480871666667","24.9938566666667","6500300","中和區"
"235055","183-VK","2018/09/03 18:39:26","新北市中和區中山路三段229巷53號","121.469116666667","25.0053616666667","6500300","中和區"
"235038","185-VK","2018/09/03 18:39:20","新北市中和區大勇街60巷2號","121.518335","24.9947383333333","6500300","中和區"
"235049","186-VK","2018/09/03 18:39:42","新北市中和區景平路488號","121.504601666667","24.9937333333333","6500300","中和區"
"235067","255-BX","2018/09/03 18:39:31","新北市中和區新生街3號","121.483176666667","25.0046883333333","6500300","中和區"
"235044","293-VK","2018/09/03 18:39:27","新北市中和區復興路268號","121.502916666667","24.9905016666667","6500300","中和區"
"235072","301-VK","2018/09/03 18:39:28","新北市中和區連城路45號","121.498193333333","25.001925","6500300","中和區"
"235043","352-BY","2018/09/03 18:39:27","新北市中和區景平路151號","121.513706666667","24.992085","6500300","中和區"
"235042","KEA-2878","2018/09/03 18:39:29","新北市中和區成功路41巷1號","121.526311666667","24.9932766666667","6500300","中和區"
"235050","4979-A6","2018/09/03 18:39:33","新北市中和區景新街496巷28弄6號","121.51325","24.9858866666667","6500300","中和區"
"235069","4980-A6","2018/09/03 18:39:41","新北市中和區連勝街38巷28號","121.497511666667","24.9982166666667","6500300","中和區"
"235070","558-UM","2018/09/03 18:39:35","新北市中和區南華路12號","121.502356666667","24.9954916666667","6500300","中和區"
"235045","565-BX","2018/09/03 18:39:39","新北市中和區南山路236巷61號","121.50438","24.98802","6500300","中和區"
"235054","640-BX","2018/09/03 18:39:30","新北市中和區民享街32巷19號","121.472586666667","25.0031333333333","6500300","中和區"
"235060","647-TV","2018/09/03 18:39:30","新北市中和區中山路二段481號","121.482976666667","25.0049716666667","6500300","中和區"
"235047","732-UM","2018/09/03 18:39:29","新北市中和區南山路320巷10弄11號","121.50689","24.9865366666667","6500300","中和區"
"235046","733-UM","2018/09/03 18:39:29","新北市中和區仁愛街128號","121.511945","24.9865733333333","6500300","中和區"
"235071","783-BX","2018/09/03 18:39:41","新北市中和區員山路36巷16-2號","121.485366666667","24.9909383333333","6500300","中和區"
"235062","800-TS","2018/09/03 18:39:29","新北市中和區景平路677巷2弄1號","121.496151666667","25.0027066666667","6500300","中和區"
"235057","801-TS","2018/09/03 18:39:22","新北市中和區員山路327巷41號","121.479781666667","25.0019966666667","6500300","中和區"
"235041","802-TS","2018/09/03 18:39:39","新北市中和區中安街178巷2號","121.511033333333","24.9996766666667","6500300","中和區"
"235052","805-TS","2018/09/03 18:39:22","新北市中和區興南路三段46號","121.495578333333","24.9763233333333","6500300","中和區"
"235048","896-TW","2018/09/03 18:39:37","新北市中和區南山路313號","121.504953333333","24.991475","6500300","中和區"
"235053","900-TW","2018/09/03 18:39:39","新北市土城區延壽路118-6號","121.469071666667","24.9946416666667","6500300","中和區"
"235051","157-BY","2018/09/03 18:39:43","新北市中和區華新街137號","121.506511666667","24.98176","6500300","中和區"
"235037","AAC-213","2018/09/03 18:39:31","新北市中和區景德街26號","121.518456666667","24.99135","6500300","中和區"
"235059","AAC-215","2018/09/03 18:39:41","新北市中和區錦和路350-1號","121.490545","24.993505","6500300","中和區"
"220068","013-TV","2018/09/03 18:39:34","新北市板橋區民生路二段148號","121.471526666667","25.0199166666667","6500100","板橋區"
"220065","072-UY","2018/09/03 18:39:42","新北市板橋區海山路51號","121.466931666667","25.0103283333333","6500100","板橋區"
"220086","073-UY","2018/09/03 18:39:28","新北市板橋區南雅西路二段192巷1弄48號","121.452511666667","25.0153566666667","6500100","板橋區"
"220069","AAD-861","2018/09/03 18:39:26","新北市板橋區華東街1-10號","121.448408333333","24.9951316666667","6500100","板橋區"
"226004","312-R5","2018/09/03 18:39:39","新北市平溪區石底里公園街18-3號","121.733231666667","25.0258266666667","6502400","平溪區"
"228003","097-TW","2018/09/03 18:39:33","新北市貢寮區和美里龍洞街40-1號","121.91546","25.1116366666667","6502600","貢寮區"
"228002","663-BX","2018/09/03 18:39:43","新北市貢寮區福隆里東興街6-11號","121.950793333333","25.0210816666667","6502600","貢寮區"
"228001","670-TC","2018/09/03 18:39:34","新北市貢寮區仁理村保健街73號","121.923716666667","25.051665","6502600","貢寮區"
"224010","AGQ-8101","2018/09/03 18:38:36","新北市瑞芳區崙頂路47號","121.844583333333","25.107355","6501200","瑞芳區"
"224006","676-BX","2018/09/03 18:39:39","新北市瑞芳區明燈路三段120號","121.804605","25.1083966666667","6501200","瑞芳區"
"224002","639-TC","2018/09/03 18:39:39","新北市瑞芳區明燈路二段56號","121.809961666667","25.107605","6501200","瑞芳區"
"224008","285-BY","2018/09/03 18:39:34","新北市瑞芳區岳王路162號","121.80797","25.1113233333333","6501200","瑞芳區"
"224009","273-VK","2018/09/03 18:39:28","新北市瑞芳區祈堂路72號","121.859051666667","25.109915","6501200","瑞芳區"
"224005","271-BY","2018/09/03 18:39:25","新北市瑞芳區瑞濱路155-1號","121.818575","25.1181716666667","6501200","瑞芳區"
"227008","642-TC","2018/09/03 18:39:29","新北市雙溪區牡丹里下坑11號","121.851026666667","25.0561733333333","6502500","雙溪區"
"227001","400-TW","2018/09/03 18:39:36","新北市雙溪區魚行里坤溪12號","121.873933333333","25.022385","6502500","雙溪區"
"253006","032-BX","2018/09/03 18:39:25","新北市石門區崁子腳58-53號","121.530281666667","25.28666","6502200","石門區"
"253005","295-VK","2018/09/03 18:39:33","新北市石門區中山路52號","121.566591666667","25.290365","6502200","石門區"
"222001","KEA-2212","2018/09/03 18:39:33","新北市深坑區北深路一段78號","121.636496666667","25.010775","6501800","深坑區"
"208002","KEA-2872","2018/09/03 18:39:33","新北市金山區龜子山路15-10號","121.63837","25.2182466666667","6502700","金山區"
"208003","665-BX","2018/09/03 18:39:40","新北市金山區中山路254號","121.635676666667","25.2239033333333","6502700","金山區"
"208001","761-BX","2018/09/03 18:39:33","新北市金山區文化三路24號","121.63576","25.22455","6502700","金山區"
"251004","009-UM","2018/09/03 18:39:32","新北市淡水區大同路7號","121.461645","25.1408466666667","6501000","淡水區"
"251013","KEA-2871","2018/09/03 18:39:38","新北市淡水區椿子林2號","121.486226666667","25.2041733333333","6501000","淡水區"
"251016","179-VK","2018/09/03 18:39:25","新北市淡水區下圭柔山84-1號","121.440166666667","25.2050783333333","6501000","淡水區"
"251014","180-VK","2018/09/03 18:39:34","新北市淡水區崙頂12-8號","121.495596666667","25.21722","6501000","淡水區"
"251015","181-VK","2018/09/03 18:39:30","新北市淡水區興福寮66巷283號","121.486181666667","25.1619383333333","6501000","淡水區"
"251010","413-VK","2018/09/03 18:39:26","新北市淡水區沙崙路156巷7號","121.423751666667","25.1827166666667","6501000","淡水區"
"251012","441-VK","2018/09/03 18:39:27","新北市淡水區北新路180號","121.449106666667","25.1786983333333","6501000","淡水區"
"251007","442-VK","2018/09/03 18:39:43","新北市淡水區中正東路二段143巷2弄1號","121.460555","25.1473516666667","6501000","淡水區"
"251008","443-VK","2018/09/03 18:39:42","新北市淡水區北投子15-1號","121.452326666667","25.182845","6501000","淡水區"
"251001","559-UM","2018/09/03 18:39:38","新北市淡水區自強路419號","121.465566666667","25.1342233333333","6501000","淡水區"
"251006","561-UM","2018/09/03 18:39:28","新北市淡水區崁頂37-11號","121.438738333333","25.1945566666667","6501000","淡水區"
"251011","650-BX","2018/09/03 18:39:28","新北市淡水區鄧公路30巷2弄42號","121.454511666667","25.169015","6501000","淡水區"
"251002","672-BX","2018/09/03 18:39:23","新北市淡水區中正東路一段3巷14弄1號","121.450851666667","25.1641933333333","6501000","淡水區"
"251003","766-UM","2018/09/03 18:39:39","新北市淡水區北新路69巷52號","121.44685","25.1801183333333","6501000","淡水區"
"207003","550-UM","2018/09/03 18:39:39","新北市萬里區野柳里港西路55號","121.685375","25.2032066666667","6502800","萬里區"
"207004","225-TW","2018/09/03 18:39:37","新北市萬里區萬里里獅頭路7號","121.692021666667","25.1783583333333","6502800","萬里區"
"252002","178-VK","2018/09/03 18:39:30","新北市三芝區民生街66號","121.503383333333","25.2554766666667","6502100","三芝區"
"252003","249-BX","2018/09/03 18:39:27","新北市三芝區後厝里土地公坑54-18號","121.465495","25.24942","6502100","三芝區"
"252001","292-VK","2018/09/03 18:39:38","新北市三芝區中興街二段260號","121.501913333333","25.2529583333333","6502100","三芝區"
"237004","KEA-2597","2018/09/03 18:39:27","新北市三峽區金敏7號","121.387046666667","24.8731033333333","6500900","三峽區"
"237007","153-BY","2018/09/03 18:39:28","新北市三峽區中正路三段170巷7號","121.352571666667","24.9039683333333","6500900","三峽區"
"237009","210-TH","2018/09/03 18:39:33","新北市三峽區大同路274號","121.365236666667","24.9252516666667","6500900","三峽區"
"237013","252-BX","2018/09/03 18:39:29","新北市三峽區光明路69巷25號","121.376783333333","24.9291533333333","6500900","三峽區"
"237012","275-BY","2018/09/03 18:39:30","新北市樹林區佳園路三段486號","121.382741666667","24.944005","6500900","三峽區"
"237008","302-VK","2018/09/03 18:39:32","新北市三峽區白雞62號","121.386581666667","24.9122733333333","6500900","三峽區"
"237014","433-BY","2018/09/03 18:39:31","新北市三峽區復興路465-1號","121.36182","24.9386166666667","6500900","三峽區"
"237006","5529-G3","2018/09/03 18:39:30","新北市三峽區溪東路371巷2弄2號","121.4119","24.9295533333333","6500900","三峽區"
"237011","KEA-2596","2018/09/03 18:39:33","新北市三峽區溪東路405號","121.41219","24.9288616666667","6500900","三峽區"
"237015","649-BX","2018/09/03 18:39:28","新北市三峽區竹崙路79號","121.431786666667","24.92036","6500900","三峽區"
"237010","706-TV","2018/09/03 18:39:41","新北市三峽區復興路487號","121.36128","24.938435","6500900","三峽區"
"237005","AKY-6261","2018/09/03 18:39:27","新北市三峽區新興街24號","121.372701666667","24.9353466666667","6500900","三峽區"
"236069","105-UM","2018/09/03 18:39:31","新北市土城區永豐路157巷29弄6-1號","121.468391666667","24.9814783333333","6501300","土城區"
"236042","107-UM","2018/09/03 18:39:28","新北市土城區學成路110號","121.44978","24.9892316666667","6501300","土城區"
"236078","166-UM","2018/09/03 18:39:38","新北市土城區大暖路36號","121.423388333333","24.9595266666667","6501300","土城區"
"236030","253-BX","2018/09/03 18:39:42","新北市土城區福仁街65號","121.43953","24.9746583333333","6501300","土城區"
"236026","269-VK","2018/09/03 18:39:36","新北市土城區忠義路51-1號","121.440531666667","24.9688916666667","6501300","土城區"
"236014","270-VK","2018/09/03 18:39:08","新北市土城區青雲路183巷18號","121.459648333333","24.982725","6501300","土城區"
"236039","271-VK","2018/09/03 18:39:24","新北市土城區明德路一段238號","121.460253333333","24.9773516666667","6501300","土城區"
"236020","401-BY","2018/09/03 18:39:39","新北市土城區明德路一段53號","121.465445","24.984745","6501300","土城區"
"236059","912-UM","2018/09/03 18:39:26","新北市土城區永寧路3號","121.430405","24.9647066666667","6501300","土城區"
"236048","913-UM","2018/09/03 18:39:33","新北市土城區金城路二段348號","121.460525","24.9848833333333","6501300","土城區"
"236063","915-UM","2018/09/03 18:39:36","新北市土城區延壽路55巷9弄2號","121.469478333333","24.99163","6501300","土城區"
"236055","AAC-216","2018/09/03 18:39:37","新北市土城區中華路一段23號","121.446883333333","24.9892083333333","6501300","土城區"
"242058","986-R7","2018/09/03 18:39:34","新北市泰山區新北大道六段379號","121.42205","25.032535","6500500","新莊區"
"242053","751-BX","2018/09/03 18:39:39","新北市新莊區樹新路120巷38號","121.430111666667","24.996055","6500500","新莊區"
"242044","400-BY","2018/09/03 18:39:37","新北市泰山區磚雅厝6-1號","121.441601666667","25.0428633333333","6500500","新莊區"
"242060","353-BY","2018/09/03 18:39:34","新北市新莊區民安路232號","121.426135","25.0222866666667","6500500","新莊區"
"238023","601-UM","2018/09/03 18:39:39","新北市樹林區三福街114號","121.406476666667","25.01652","6500700","樹林區"
"238019","599-UM","2018/09/03 18:39:28","新北市樹林區中華路190-16號","121.411713333333","24.9806266666667","6500700","樹林區"
"238018","571-TV","2018/09/03 18:39:28","新北市樹林區中山路1段191巷1-1號","121.422413333333","24.9874683333333","6500700","樹林區"
"238024","5061-A6","2018/09/03 18:39:34","新北市樹林區太順街49巷20弄22號","121.417696666667","24.9782766666667","6500700","樹林區"
"238022","KEA-2213","2018/09/03 18:39:24","新北市樹林區中華路190-1號","121.411416666667","24.9805233333333","6500700","樹林區"
"238025","303-VK","2018/09/03 18:39:37","新北市樹林區中山路三段210-2號","121.381563333333","24.9654683333333","6500700","樹林區"
"238020","268-VK","2018/09/03 18:39:38","新北市樹林區俊安街42-1號","121.419381666667","25.01325","6500700","樹林區"
"238026","172-UY","2018/09/03 18:39:32","新北市樹林區中山路三段176號","121.388233333333","24.9695533333333","6500700","樹林區"
"238016","169-UY","2018/09/03 18:39:36","新北市樹林區文化街28號","121.419361666667","24.98774","6500700","樹林區"
"239007","AAC-297","2018/09/03 18:39:43","新北市鶯歌區中山路91號","121.350486666667","24.9570083333333","6500800","鶯歌區"
"239008","527-UM","2018/09/03 18:33:28","新北市鶯歌區朝陽街1號","121.336293333333","24.9765566666667","6500800","鶯歌區"
"239005","526-UM","2018/09/03 18:39:04","新北市鶯歌區鳳吉二街11號","121.32565","24.9728316666667","6500800","鶯歌區"
"239001","417-VK","2018/09/03 18:39:25","新北市鶯歌區中正二路192-1號","121.339583333333","24.94334","6500800","鶯歌區"
"239003","360-BY","2018/09/03 18:39:39","新北市鶯歌區永和街69號","121.33305","24.96785","6500800","鶯歌區"
"239002","359-BY","2018/09/03 18:39:35","新北市鶯歌區中正一路161號","121.352686666667","24.9565533333333","6500800","鶯歌區"
"239004","193-VK","2018/09/03 18:39:32","新北市鶯歌區尖山路267號","121.341081666667","24.9436383333333","6500800","鶯歌區"
"221008","489-VK","2018/09/03 18:39:26","新北市汐止區康寧街901號","121.651433333333","25.0749916666667","6501100","汐止區"
"221036","130-UY","2018/09/03 18:39:24","新北市汐止區水碓街47號","121.665283333333","25.0694733333333","6501100","汐止區"
"221015","131-UY","2018/09/03 18:39:21","新北市汐止區吉祥街12巷23號","121.668771666667","25.080725","6501100","汐止區"
"221010","269-BY","2018/09/03 18:39:42","新北市汐止區汐萬路三段209號","121.64245","25.0996283333333","6501100","汐止區"
"221012","278-VK","2018/09/03 18:39:30","新北市汐止區保長路1號","121.67136","25.08017","6501100","汐止區"
"221023","279-VK","2018/09/03 18:39:25","新北市汐止區民族二街84巷46號","121.633036666667","25.0705483333333","6501100","汐止區"
"221032","280-BY","2018/09/03 18:39:42","台北市南港區福山街44巷15弄31號","121.617946666667","25.0454566666667","6501100","汐止區"
"221027","281-BY","2018/09/03 18:39:39","新北市汐止區汐萬路一段121號","121.654135","25.0710716666667","6501100","汐止區"
"221029","298-VK","2018/09/03 18:39:26","新北市汐止區樟樹一路131號","121.642088333333","25.06506","6501100","汐止區"
"221021","299-VK","2018/09/03 18:39:34","新北市汐止區新台五路一段159號","121.653963333333","25.06245","6501100","汐止區"
"221031","353-TW","2018/09/03 18:39:41","新北市汐止區中興路110巷3-1號","121.633205","25.0638266666667","6501100","汐止區"
"221002","129-UY","2018/09/03 18:39:22","新北市汐止區中興路20號","121.637076666667","25.0596183333333","6501100","汐止區"
"221035","622-UM","2018/09/03 18:39:42","新北市汐止區大同路二段302號","121.655305","25.0667133333333","6501100","汐止區"
"221025","623-UM","2018/09/03 18:39:28","新北市汐止區仁愛路130-2號","121.662985","25.0642766666667","6501100","汐止區"
"221038","646-BX","2018/09/03 18:39:39","新北市汐止區汐萬路一段256巷3號","121.653341666667","25.0747433333333","6501100","汐止區"
"221033","647-BX","2018/09/03 18:39:23","新北市汐止區南勢街3號","121.627093333333","25.0374083333333","6501100","汐止區"
"221018","753-BX","2018/09/03 18:39:38","新北市汐止區茄苳路250巷18號","121.671486666667","25.0677","6501100","汐止區"
"220079","145-BY","2018/09/03 18:39:22","新北市板橋區大觀路一段31號","121.449895","25.00848","6500100","板橋區"
"220080","200-UY","2018/09/03 18:39:38","新北市板橋區大觀路二段265巷76弄27號","121.441548333333","24.99666","6500100","板橋區"
"220082","610-BX","2018/09/03 18:39:36","新北市板橋區篤行路二段65號","121.431726666667","24.9922233333333","6500100","板橋區"
"220056","276-BY","2018/09/03 18:39:40","新北市板橋區四川路二段橋頭6號","121.448325","24.994055","6500100","板橋區"
"220072","277-BY","2018/09/03 18:39:31","新北市板橋區大觀路三段133巷12號","121.433301666667","24.993875","6500100","板橋區"
"220094","283-UM","2018/09/03 18:39:35","新北市板橋區民生路二段120號","121.47039","25.019805","6500100","板橋區"
"220071","283-VK","2018/09/03 18:39:31","新北市板橋區四川路二段60號","121.452666666667","24.9949866666667","6500100","板橋區"
"220083","286-VK","2018/09/03 18:39:29","新北市板橋區大觀路二段153巷46弄1號","121.448545","24.9986316666667","6500100","板橋區"
"220081","287-VK","2018/09/03 18:39:22","新北市板橋區大觀路一段35巷1號","121.449331666667","25.008445","6500100","板橋區"
"220090","288-VK","2018/09/03 18:39:34","新北市板橋區民生路二段148號","121.471335","25.0198516666667","6500100","板橋區"
"220084","296-UM","2018/09/03 18:39:38","新北市板橋區大觀路二段153巷46弄21-2號","121.448365","24.9969466666667","6500100","板橋區"
"220075","303-R5","2018/09/03 18:39:29","新北市板橋區南雅南路二段120-2號","121.452365","24.9998366666667","6500100","板橋區"
"220064","486-VK","2018/09/03 18:39:25","新北市板橋區縣民大道二段200巷33號","121.47053","25.0180016666667","6500100","板橋區"
"220035","560-BX","2018/09/03 18:39:39","新北市板橋區南雅西路二段145巷10號","121.451561666667","25.0119366666667","6500100","板橋區"
"220103","561-BX","2018/09/03 18:39:23","新北市板橋區民生路二段120號","121.470891666667","25.019995","6500100","板橋區"
"220057","686-BX","2018/09/03 18:39:40","新北市板橋區華東街1-10號","121.448253333333","24.994945","6500100","板橋區"
"220077","687-BX","2018/09/03 18:39:30","新北市板橋區大觀路二段174巷104弄1號","121.441031666667","25.001475","6500100","板橋區"
"220054","741-BX","2018/09/03 18:39:33","新北市板橋區南雅南路二段120-16號","121.452026666667","24.9990533333333","6500100","板橋區"
"220102","KEA-2699","2018/09/03 18:39:29","新北市板橋區民生路二段182號","121.471128333333","25.0204466666667","6500100","板橋區"
"220055","827-TW","2018/09/03 18:39:38","新北市板橋區南雅南路二段120-16號","121.45201","24.9992383333333","6500100","板橋區"
"220074","895-R6","2018/09/03 18:39:37","新北市板橋區南雅南路一段131號","121.455043333333","25.0042716666667","6500100","板橋區"
"220073","985-R7","2018/09/03 18:39:40","新北市板橋區南雅南路二段120-1號","121.452331666667","24.99969","6500100","板橋區"
"220070","AAC-253","2018/09/03 18:39:35","新北市板橋區華東街1-9號","121.44825","24.9948783333333","6500100","板橋區"
"235068","KEA-2873","2018/09/03 18:39:24","新北市中和區中正路215號","121.496665","24.9936916666667","6500300","中和區"
"235061","KEA-2875","2018/09/03 18:39:33","新北市中和區民享街114巷3號","121.474393333333","24.99922","6500300","中和區"
