"lineid","car","time","location","longitude","latitude","cityid","cityname"
"234077","969-R7","2018/09/03 21:19:27","新北市八里區商港路6號","121.397003333333","25.14428","6500400","永和區"
"231059","046-UY","2018/09/03 21:19:36","新北市新店區薏仁坑路自強巷6號","121.496668333333","24.9584683333333","6500600","新店區"
"231040","047-UY","2018/09/03 21:19:42","新北市新店區北新路一段209號","121.5404","24.9650516666667","6500600","新店區"
"231047","187-VK","2018/09/03 21:19:26","新北市新店區民生路158巷33號","121.527698333333","24.9808866666667","6500600","新店區"
"231062","188-VK","2018/09/03 21:19:37","新北市新店區薏仁坑路自強巷6號","121.496601666667","24.9583933333333","6500600","新店區"
"231054","KEA-2219","2018/09/03 21:19:37","新北市新店區環河路6號","121.53822","24.9617166666667","6500600","新店區"
"231051","278-BY","2018/09/03 21:19:28","新北市新店區安和路三段2-2號","121.517766666667","24.980025","6500600","新店區"
"231050","AAD-862","2018/09/03 21:19:31","新北市新店區中正路183巷10號","121.540298333333","24.9717966666667","6500600","新店區"
"231063","641-BX","2018/09/03 21:19:35","新北市新店區吉祥街15巷1號","121.497746666667","24.94565","6500600","新店區"
"231060","897-TW","2018/09/03 21:19:29","新北市新店區薏仁坑路自強巷1號","121.496908333333","24.95814","6500600","新店區"
"241011","013-R5","2018/09/03 21:19:31","新北市三重區龍濱路120-6號","121.501841666667","25.0713283333333","6500200","三重區"
"241028","022-UY","2018/09/03 21:19:35","新北市三重區正義南路169號","121.498918333333","25.05749","6500200","三重區"
"241008","059-VK","2018/09/03 21:19:42","新北市三重區自強路一段153號","121.493641666667","25.0670016666667","6500200","三重區"
"241031","061-VK","2018/09/03 21:19:34","新北市三重區重新路五段408巷19號","121.475763333333","25.0455583333333","6500200","三重區"
"241017","063-VK","2018/09/03 21:19:29","新北市三重區中正北路25巷2號","121.493261666667","25.06272","6500200","三重區"
"241024","065-VK","2018/09/03 21:19:28","新北市三重區中正北路115巷6號","121.48406","25.0677466666667","6500200","三重區"
"241026","066-VK","2018/09/03 21:19:39","新北市三重區大同南路218號","121.496811666667","25.0563583333333","6500200","三重區"
"241002","090-VK","2018/09/03 21:19:32","新北市三重區自強路五段59號","121.494546666667","25.0818566666667","6500200","三重區"
"241003","091-VK","2018/09/03 21:19:43","新北市三重區仁義街317號","121.495426666667","25.08417","6500200","三重區"
"241016","266-UM","2018/09/03 21:19:41","新北市三重區自強路一段95號","121.495896666667","25.066365","6500200","三重區"
"241009","267-UM","2018/09/03 21:19:32","新北市三重區中華路76巷27號","121.48248","25.062595","6500200","三重區"
"241018","268-UM","2018/09/03 21:19:38","新北市三重區忠孝路二段160號","121.482255","25.0680766666667","6500200","三重區"
"241032","269-UM","2018/09/03 21:19:38","新北市三重區光復路二段175號","121.472185","25.0617716666667","6500200","三重區"
"241013","270-UM","2018/09/03 21:19:45","新北市三重區仁愛街81-1號","121.495893333333","25.073155","6500200","三重區"
"241025","271-UM","2018/09/03 21:19:38","新北市三重區忠孝路三段40巷16弄10號","121.48232","25.0668983333333","6500200","三重區"
"241007","398-BY","2018/09/03 21:19:36","新北市三重區忠孝路一段61號","121.490898333333","25.0719566666667","6500200","三重區"
"241004","475-VK","2018/09/03 21:19:44","新北市三重區仁愛街423-3號","121.490183333333","25.0816516666667","6500200","三重區"
"241030","480-VK","2018/09/03 21:19:43","新北市三重區五谷王北街181-1號","121.477505","25.0545666666667","6500200","三重區"
"241014","543-UM","2018/09/03 21:19:37","新北市三重區萬全街9號","121.499363333333","25.06971","6500200","三重區"
"241023","545-UM","2018/09/03 21:19:31","新北市三重區中正北路176巷27號","121.482623333333","25.065935","6500200","三重區"
"241019","KEA-2593","2018/09/03 21:19:40","新北市三重區重陽路三段7-3號","121.489133333333","25.0665916666667","6500200","三重區"
"241006","AAD-863","2018/09/03 21:19:19","新北市三重區新北大道一段112號","121.484953333333","25.0614166666667","6500200","三重區"
"241005","887-TS","2018/09/03 21:19:34","新北市三重區三信路182號","121.487993333333","25.0861766666667","6500200","三重區"
"241033","AAC-255","2018/09/03 21:19:42","新北市三重區光復路二段126巷6號","121.470781666667","25.0587966666667","6500200","三重區"
"247012","KEA-2869","2018/09/03 21:19:29","新北市蘆洲區集賢路224巷32號","121.48136","25.08754","6501400","蘆洲區"
"247002","893-R6","2018/09/03 21:19:40","新北市蘆洲區永樂街57號","121.456748333333","25.0885533333333","6501400","蘆洲區"
"247016","546-UM","2018/09/03 21:19:42","新北市蘆洲區環堤大道92號","121.455436666667","25.0851816666667","6501400","蘆洲區"
"247024","500-BY","2018/09/03 21:19:42","新北市蘆洲區長興路198號","121.46113","25.086915","6501400","蘆洲區"
"247014","339-TH","2018/09/03 21:19:39","新北市蘆洲區保和街50-6號","121.469821666667","25.0863566666667","6501400","蘆洲區"
"247006","337-TH","2018/09/03 21:19:40","新北市蘆洲區中華街73號","121.46222","25.0804016666667","6501400","蘆洲區"
"247008","336-TH","2018/09/03 21:19:43","新北市蘆洲區三民路1號","121.475688333333","25.0816483333333","6501400","蘆洲區"
"247020","057-VK","2018/09/03 21:19:32","新北市蘆洲區民族路422巷112號","121.47273","25.0942216666667","6501400","蘆洲區"
"247018","007-UY","2018/09/03 21:19:34","新北市蘆洲區復興路51-2號","121.475856666667","25.0871","6501400","蘆洲區"
"247004","002-UY","2018/09/03 21:19:45","新北市蘆洲區長安街267巷31號","121.456878333333","25.08289","6501400","蘆洲區"
"247022","001-UY","2018/09/03 21:19:25","新北市蘆洲區三民路249-2號","121.46855","25.089215","6501400","蘆洲區"
"251005","010-UM","2018/09/03 21:19:33","新北市淡水區水源街一段122巷37號","121.447096666667","25.1704366666667","6501000","淡水區"
"251013","KEA-2871","2018/09/03 21:19:37","新北市淡水區行忠路328號","121.460376666667","25.1995833333333","6501000","淡水區"
"251016","179-VK","2018/09/03 21:19:25","新北市淡水區前洲子11號","121.441073333333","25.21939","6501000","淡水區"
"251014","180-VK","2018/09/03 21:19:33","新北市淡水區六塊厝2-1號","121.450061666667","25.2403666666667","6501000","淡水區"
"251015","181-VK","2018/09/03 21:19:30","新北市淡水區淡金路四段542巷83弄13號","121.456478333333","25.2267133333333","6501000","淡水區"
"251010","413-VK","2018/09/03 21:19:46","新北市淡水區中正路一段156巷51號","121.421818333333","25.1809016666667","6501000","淡水區"
"251012","441-VK","2018/09/03 21:19:27","新北市淡水區淡金路五段35巷46號","121.45248","25.2347666666667","6501000","淡水區"
"251008","443-VK","2018/09/03 21:19:42","新北市淡水區水源街二段212號","121.459623333333","25.1766316666667","6501000","淡水區"
"251001","559-UM","2018/09/03 21:19:38","新北市淡水區濱海路一段308號","121.440928333333","25.1894083333333","6501000","淡水區"
"251006","561-UM","2018/09/03 21:19:28","新北市淡水區中正路一段1號","121.427018333333","25.175975","6501000","淡水區"
"251011","650-BX","2018/09/03 21:19:43","新北市淡水區新民街120巷29號","121.438878333333","25.1788083333333","6501000","淡水區"
"251003","766-UM","2018/09/03 21:19:39","新北市淡水區崁頂15-5號","121.439","25.1859183333333","6501000","淡水區"
"242050","441-UM","2018/09/03 21:19:30","新北市樹林區中山路三段214號","121.380456666667","24.96776","6500500","新莊區"
"220080","200-UY","2018/09/03 21:19:38","新北市板橋區僑中一街124巷70-5號","121.448921666667","25.0160083333333","6500100","板橋區"
"220070","AAC-253","2018/09/03 21:19:34","新北市五股區成泰路四段18-9號","121.453828333333","25.1051833333333","6500100","板橋區"
