"lineid","car","time","location","longitude","latitude","cityid","cityname"
"231040","047-UY","2018/09/03 21:49:42","新北市新店區安忠路101號","121.51127","24.9561066666667","6500600","新店區"
"231062","188-VK","2018/09/03 21:49:37","新北市新店區安華路30巷1號","121.519465","24.95981","6500600","新店區"
"241005","887-TS","2018/09/03 21:49:34","新北市五股區四維路185巷1號","121.468135","25.0761466666667","6500200","三重區"
"247012","KEA-2869","2018/09/03 21:49:29","新北市八里區中山路三段409號","121.368861666667","25.1357633333333","6501400","蘆洲區"
"251004","009-UM","2018/09/03 21:49:42","新北市淡水區民權路92巷35-1號","121.462125","25.1267516666667","6501000","淡水區"
"251005","010-UM","2018/09/03 21:49:32","新北市淡水區鄧公路30巷30弄1號","121.45362","25.1698333333333","6501000","淡水區"
"251014","180-VK","2018/09/03 21:48:50","新北市淡水區淡金路二段599號","121.446441666667","25.1919066666667","6501000","淡水區"
"251010","413-VK","2018/09/03 21:49:26","新北市淡水區中正路二段215號","121.426306666667","25.1894166666667","6501000","淡水區"
"251012","441-VK","2018/09/03 21:49:27","新北市淡水區淡金路三段315號","121.44907","25.20581","6501000","淡水區"
"251007","442-VK","2018/09/03 21:49:43","新北市淡水區水源街二段179號","121.455296666667","25.1759433333333","6501000","淡水區"
"251008","443-VK","2018/09/03 21:48:37","新北市淡水區學府路112號","121.450251666667","25.1721133333333","6501000","淡水區"
"251001","559-UM","2018/09/03 21:49:38","新北市淡水區新市二路三段152號","121.435383333333","25.1942716666667","6501000","淡水區"
"251006","561-UM","2018/09/03 21:49:28","新北市淡水區中正路11巷3號","121.437838333333","25.1707766666667","6501000","淡水區"
"251009","575-R6","2018/09/03 21:49:45","新北市淡水區民族路35巷46號","121.465426666667","25.1373083333333","6501000","淡水區"
"251011","650-BX","2018/09/03 21:49:43","新北市淡水區新民街322巷6號","121.4361","25.1831166666667","6501000","淡水區"
"251002","672-BX","2018/09/03 21:49:43","新北市淡水區大忠街159號","121.448271666667","25.1766216666667","6501000","淡水區"
"251003","766-UM","2018/09/03 21:49:39","新北市淡水區新春街83號","121.438805","25.1824183333333","6501000","淡水區"
"220070","AAC-253","2018/09/03 21:49:34","新北市板橋區華東街1-9號","121.448265","24.994865","6500100","板橋區"
