"lineid","car","time","location","longitude","latitude","cityid","cityname"
"231062","188-VK","2018/09/03 21:53:02","新北市新店區安一路一段1-1號","121.519245","24.9611716666667","6500600","新店區"
"241005","887-TS","2018/09/03 22:09:34","新北市林口區太平里180號","121.368118333333","25.1344816666667","6500200","三重區"
"247012","KEA-2869","2018/09/03 22:09:29","新北市八里區荖阡坑路41-3號","121.400188333333","25.1317233333333","6501400","蘆洲區"
"251004","009-UM","2018/09/03 22:09:42","新北市淡水區民族路33巷16-19號","121.462328333333","25.1359633333333","6501000","淡水區"
"251005","010-UM","2018/09/03 22:09:32","新北市淡水區鄧公路19號","121.45138","25.1699983333333","6501000","淡水區"
"251010","413-VK","2018/09/03 22:09:26","新北市淡水區沙崙路200號","121.424668333333","25.1839066666667","6501000","淡水區"
"251007","442-VK","2018/09/03 22:09:43","新北市淡水區中山北路一段245號","121.444601666667","25.1799483333333","6501000","淡水區"
"251008","443-VK","2018/09/03 21:54:22","新北市淡水區學府路104號","121.4499","25.1719333333333","6501000","淡水區"
"251011","650-BX","2018/09/03 22:09:43","新北市淡水區水碓街7號","121.443138333333","25.177215","6501000","淡水區"
