"lineid","car","time","location","longitude","latitude","cityid","cityname"
"231062","188-VK","2018/09/03 21:53:02","新北市新店區安一路一段1-1號","121.519245","24.9611716666667","6500600","新店區"
"247012","KEA-2869","2018/09/03 22:19:29","新北市五股區中興路二段182巷3號","121.456148333333","25.0780933333333","6501400","蘆洲區"
"251004","009-UM","2018/09/03 22:19:43","新北市淡水區民族路33號","121.462273333333","25.13586","6501000","淡水區"
"251010","413-VK","2018/09/03 22:19:46","新北市淡水區沙崙路200號","121.424693333333","25.18391","6501000","淡水區"
"251008","443-VK","2018/09/03 21:54:22","新北市淡水區學府路104號","121.4499","25.1719333333333","6501000","淡水區"
"251011","650-BX","2018/09/03 22:19:43","新北市淡水區水碓街7號","121.443108333333","25.1771816666667","6501000","淡水區"
