"lineid","car","time","location","longitude","latitude","cityid","cityname"
"248005","653-BX","2018/07/19 08:45:51","新北市五股區明德路12巷6號","121.433385","25.0718183333333","6501500","五股區"
"232001","290-BY","2018/07/19 08:49:23","新北市坪林區粗石斛6-1號","121.750091666667","24.952415","6502000","坪林區"
"244006","080-UY","2018/07/19 08:49:25","新北市林口區竹林路155號","121.388773333333","25.0798083333333","6501700","林口區"
"244003","248-BX","2018/07/19 08:49:13","新北市林口區下福里99-99號","121.28546","25.11652","6501700","林口區"
"244018","403-UM","2018/07/19 08:49:20","新北市林口區文化一路一段89-5號","121.37181","25.0704783333333","6501700","林口區"
"244012","742-UY","2018/07/19 08:49:10","新北市林口區中山路160巷16號","121.391635","25.079275","6501700","林口區"
"244008","410-SL","2018/07/19 08:49:17","新北市林口區佳林路56巷6弄24號","121.384986666667","25.0825316666667","6501700","林口區"
"244022","483-VK","2018/07/19 08:49:28","新北市林口區育林街30號","121.385801666667","25.0736933333333","6501700","林口區"
"244016","485-VK","2018/07/19 08:49:27","新北市林口區忠孝路504巷14號","121.370143333333","25.06981","6501700","林口區"
"244011","657-BX","2018/07/19 08:49:30","新北市林口區仁愛路一段270號","121.393826666667","25.0759916666667","6501700","林口區"
"244024","837-TS","2018/07/19 08:49:18","新北市林口區源泉街62號","121.356686666667","25.0729866666667","6501700","林口區"
"244020","838-TS","2018/07/19 08:49:09","新北市林口區自強二街33號","121.398483333333","25.0776933333333","6501700","林口區"
"222006","289-BY","2018/07/19 08:49:23","新北市深坑區風格街31巷17號","121.62718","25.01755","6501800","深坑區"
"231069","189-VK","2018/07/19 08:48:44","新北市新店區新潭路三段236號","121.501743333333","24.9025083333333","6500600","新店區"
"231008","192-VK","2018/07/19 08:49:24","新北市新店區新烏路三段寶島巷6號","121.551723333333","24.899005","6500600","新店區"
"235001","611-BX","2018/07/19 08:49:22","新北市中和區莒光路84巷24號","121.471643333333","25.002365","6500300","中和區"
"226005","5620-A6","2018/07/19 08:49:21","新北市平溪區十分里十分街132-1號","121.777291666667","25.043245","6502400","平溪區"
"226007","7418-A5","2018/07/19 08:49:27","新北市平溪區東勢里芊蓁坑30號","121.727515","24.9791883333333","6502400","平溪區"
"226003","AGD-0702","2018/07/19 08:49:31","新北市平溪區十分里十分街259號","121.778233333333","25.04492","6502400","平溪區"
"223006","022-BY","2018/07/19 08:49:23","新北市深坑區文山路一段1號","121.646883333333","25.0083183333333","6501900","石碇區"
"223003","205-TH","2018/07/19 08:49:26","新北市石碇區北宜路五段70-1號","121.639003333333","24.9526183333333","6501900","石碇區"
"223008","406-TH","2018/07/19 08:49:21","新北市石碇區光明路13號","121.679325","25.033285","6501900","石碇區"
"223001","592-UM","2018/07/19 08:49:26","新北市石碇區北宜路五段十股寮巷11號","121.643088333333","24.953335","6501900","石碇區"
"223004","660-BX","2018/07/19 08:49:23","新北市石碇區崩山53號","121.682415","24.9687066666667","6501900","石碇區"
"223005","677-TV","2018/07/19 08:49:27","新北市石碇區崩山53號","121.682393333333","24.96887","6501900","石碇區"
"252004","249-BX","2018/07/19 08:49:11","新北市三芝區興華里田心子12-2號","121.492661666667","25.2058316666667","6502100","三芝區"
"252007","AAC-283","2018/07/19 08:49:25","新北市三芝區後厝里北勢子22號","121.473248333333","25.253435","6502100","三芝區"
"237001","159-UY","2018/07/19 08:49:19","新北市三峽區大德路137號","121.375995","24.94476","6500900","三峽區"
"236009","165-UM","2018/07/19 08:49:14","新北市土城區石門路36號","121.457795","24.9647733333333","6501300","土城區"
"236003","339-SR","2018/07/19 08:49:23","新北市土城區中央路三段281巷11弄3號","121.426548333333","24.962865","6501300","土城區"
"236005","498-BY","2018/07/19 08:49:28","新北市土城區永和街79-1號","121.43579","24.9583633333333","6501300","土城區"
"242033","AAC-296","2018/07/19 08:49:19","新北市新莊區仁愛街28號","121.444346666667","25.0360933333333","6500500","新莊區"
"242057","986-R7","2018/07/19 08:49:23","新北市新莊區中正路895號","121.412335","25.0221116666667","6500500","新莊區"
"242052","751-BX","2018/07/19 08:49:19","新北市新莊區光華街60巷1號","121.428343333333","25.0117666666667","6500500","新莊區"
"242026","705-TV","2018/07/19 08:49:10","新北市新莊區中平路377巷28號","121.442946666667","25.05259","6500500","新莊區"
"242024","613-BX","2018/07/19 08:49:14","新北市新莊區五工三路86巷14號","121.459063333333","25.0656783333333","6500500","新莊區"
"242028","612-BX","2018/07/19 08:49:14","新北市新莊區中榮街79號","121.44555","25.0527766666667","6500500","新莊區"
"242040","566-BX","2018/07/19 08:49:12","新北市新莊區天祥街53號","121.41499","25.0304166666667","6500500","新莊區"
"242045","497-BY","2018/07/19 08:49:30","新北市新莊區中正路803巷60號","121.421948333333","25.0277433333333","6500500","新莊區"
"242016","442-UM","2018/07/19 08:49:28","新北市新莊區中港二街136號","121.448235","25.0456066666667","6500500","新莊區"
"242049","441-UM","2018/07/19 08:49:20","新北市新莊區民安西路185號","121.426063333333","25.0156433333333","6500500","新莊區"
"242055","440-UM","2018/07/19 08:49:11","新北市新莊區瓊林路59-75號","121.44464","25.026955","6500500","新莊區"
"242035","415-TV","2018/07/19 08:49:29","新北市新莊區民安路207巷30弄26號","121.428158333333","25.0240033333333","6500500","新莊區"
"242006","413-TV","2018/07/19 08:49:29","新北市新莊區福壽街202巷24號","121.459146666667","25.0536583333333","6500500","新莊區"
"242043","400-BY","2018/07/19 08:49:22","新北市新莊區龍安路71號","121.415775","25.0219066666667","6500500","新莊區"
"242022","362-BY","2018/07/19 08:49:28","新北市新莊區化成路303號","121.46603","25.0552966666667","6500500","新莊區"
"242059","353-BY","2018/07/19 08:49:21","新北市新莊區新樹路69-5號","121.438733333333","25.0296966666667","6500500","新莊區"
"242008","132-UY","2018/07/19 08:49:23","新北市新莊區昌盛街35巷3弄2號","121.453995","25.0506333333333","6500500","新莊區"
"242038","133-UY","2018/07/19 08:49:29","新北市新莊區民安路291-1號","121.429465","25.0225716666667","6500500","新莊區"
"242047","172-VK","2018/07/19 08:49:16","新北市新莊區建安街92巷11號","121.425715","25.0242416666667","6500500","新莊區"
"242003","176-VK","2018/07/19 08:49:28","新北市新莊區復興路三段64號","121.463748333333","25.0445533333333","6500500","新莊區"
"242014","346-TH","2018/07/19 08:49:15","新北市新莊區中平路26巷19號","121.44571","25.0433483333333","6500500","新莊區"
"242020","348-TH","2018/07/19 08:49:17","新北市新莊區建中街26號","121.449135","25.0374516666667","6500500","新莊區"
"242001","349-TH","2018/07/19 08:49:18","新北市新莊區中正路190號","121.449715","25.0354983333333","6500500","新莊區"
"242018","350-TH","2018/07/19 08:49:16","新北市新莊區長青街17號","121.45875","25.0423166666667","6500500","新莊區"
"242012","351-TH","2018/07/19 08:49:28","新北市新莊區幸福路710巷8號","121.449716666667","25.0496833333333","6500500","新莊區"
"242030","281-VK","2018/07/19 08:49:20","新北市新莊區新泰路279號","121.44562","25.0404216666667","6500500","新莊區"
