"lineid","car","time","location","longitude","latitude","cityid","cityname"
"248005","653-BX","2018/07/19 08:59:16","新北市五股區明德路12巷3號","121.433318333333","25.071805","6501500","五股區"
"232001","290-BY","2018/07/19 08:59:03","新北市坪林區坪雙路一段100號","121.729565","24.9482566666667","6502000","坪林區"
"244006","080-UY","2018/07/19 08:59:25","新北市林口區林口路124巷10弄1號","121.389078333333","25.0818066666667","6501700","林口區"
"244003","248-BX","2018/07/19 08:59:13","新北市林口區嘉寶里6鄰49號","121.312796666667","25.12154","6501700","林口區"
"244018","403-UM","2018/07/19 08:59:20","新北市林口區忠孝路542巷10弄3號","121.372361666667","25.0669166666667","6501700","林口區"
"244012","742-UY","2018/07/19 08:59:30","新北市林口區中山路299號","121.383658333333","25.0795516666667","6501700","林口區"
"244008","410-SL","2018/07/19 08:59:17","新北市林口區文化三路二段366號","121.378956666667","25.0859983333333","6501700","林口區"
"244022","483-VK","2018/07/19 08:59:28","新北市林口區東湖路120號","121.384798333333","25.0734833333333","6501700","林口區"
"244016","485-VK","2018/07/19 08:59:27","新北市林口區八德路48巷36號","121.367056666667","25.0671666666667","6501700","林口區"
"244011","657-BX","2018/07/19 08:59:22","新北市林口區中正路279號","121.38986","25.0774433333333","6501700","林口區"
"244024","837-TS","2018/07/19 08:59:18","新北市林口區南勢五街22號","121.356776666667","25.075285","6501700","林口區"
"244020","838-TS","2018/07/19 08:59:29","新北市林口區工六路27號","121.401303333333","25.0766883333333","6501700","林口區"
"222006","289-BY","2018/07/19 08:59:23","新北市深坑區土庫尖路75-1號","121.631175","25.0182","6501800","深坑區"
"231069","189-VK","2018/07/19 08:48:44","新北市新店區新潭路三段236號","121.501743333333","24.9025083333333","6500600","新店區"
"231008","192-VK","2018/07/19 08:59:24","新北市新店區廣興路5巷19號","121.545521666667","24.9142583333333","6500600","新店區"
"235001","611-BX","2018/07/19 08:59:22","新北市中和區華安街102號","121.468773333333","24.9951916666667","6500300","中和區"
"226007","7418-A5","2018/07/19 08:59:27","新北市平溪區東勢里芊蓁坑30號","121.727515","24.9792016666667","6502400","平溪區"
"226003","AGD-0702","2018/07/19 08:59:10","新北市平溪區十分里十分街239號","121.778105","25.0442766666667","6502400","平溪區"
"223006","022-BY","2018/07/19 08:59:12","新北市深坑區文山路一段10號","121.643025","25.008635","6501900","石碇區"
"223003","205-TH","2018/07/19 08:59:27","新北市石碇區北宜路五段坑內巷5號","121.635325","24.95291","6501900","石碇區"
"223008","406-TH","2018/07/19 08:59:21","新北市石碇區光明路13號","121.68002","25.033625","6501900","石碇區"
"223001","592-UM","2018/07/19 08:59:24","新北市石碇區北宜路五段52號","121.63221","24.9520183333333","6501900","石碇區"
"223004","660-BX","2018/07/19 08:59:23","新北市石碇區磨石坑36號","121.691861666667","24.9668583333333","6501900","石碇區"
"223005","677-TV","2018/07/19 08:59:27","新北市石碇區磨石坑36-6號","121.69172","24.9662083333333","6501900","石碇區"
"252004","249-BX","2018/07/19 08:59:11","新北市三芝區興華里田心子22-1號","121.492131666667","25.1997466666667","6502100","三芝區"
"252007","AAC-283","2018/07/19 08:59:25","新北市三芝區古庄里四棧橋24號","121.486788333333","25.260265","6502100","三芝區"
"237001","159-UY","2018/07/19 08:59:19","新北市三峽區大學路192號","121.372455","24.94674","6500900","三峽區"
"236009","165-UM","2018/07/19 08:59:14","新北市土城區清水路100號","121.457481666667","24.9814833333333","6501300","土城區"
"236003","339-SR","2018/07/19 08:59:23","新北市土城區中央路三段149號","121.432185","24.9654283333333","6501300","土城區"
"236005","498-BY","2018/07/19 08:59:28","新北市土城區承天路4巷2-15號","121.43665","24.9630916666667","6501300","土城區"
"242033","AAC-296","2018/07/19 08:59:19","新北市新莊區建中街90巷1弄21號","121.445921666667","25.0366833333333","6500500","新莊區"
"242057","986-R7","2018/07/19 08:59:23","新北市新莊區富國路124號","121.422396666667","25.025185","6500500","新莊區"
"242052","751-BX","2018/07/19 08:59:19","新北市新莊區西盛街427號","121.427265","25.0121483333333","6500500","新莊區"
"242026","705-TV","2018/07/19 08:59:30","新北市新莊區立信一街10巷14號","121.444196666667","25.0498833333333","6500500","新莊區"
"242024","613-BX","2018/07/19 08:59:14","新北市新莊區五工三路78巷19號","121.459553333333","25.0657933333333","6500500","新莊區"
"242028","612-BX","2018/07/19 08:59:14","新北市新莊區中原路132號","121.449783333333","25.0544633333333","6500500","新莊區"
"242040","566-BX","2018/07/19 08:59:12","新北市新莊區青山路一段24號","121.411038333333","25.027595","6500500","新莊區"
"242045","497-BY","2018/07/19 08:59:23","新北市新莊區福營路470號","121.419425","25.0244816666667","6500500","新莊區"
"242016","442-UM","2018/07/19 08:59:28","新北市新莊區中港三街105號","121.448971666667","25.046135","6500500","新莊區"
"242049","441-UM","2018/07/19 08:59:20","新北市新莊區民安西路212巷5弄26號","121.424886666667","25.0139266666667","6500500","新莊區"
"242055","440-UM","2018/07/19 08:59:11","新北市新莊區瓊林路13-8號","121.448076666667","25.0301433333333","6500500","新莊區"
"242035","415-TV","2018/07/19 08:59:20","新北市新莊區後港一路130巷31號","121.429878333333","25.0261216666667","6500500","新莊區"
"242006","413-TV","2018/07/19 08:59:29","新北市新莊區福壽街94巷15號","121.459063333333","25.0501016666667","6500500","新莊區"
"242043","400-BY","2018/07/19 08:59:22","新北市新莊區新北大道七段780號","121.412983333333","25.0248516666667","6500500","新莊區"
"242022","362-BY","2018/07/19 08:59:28","新北市新莊區化成路445號","121.464646666667","25.0608","6500500","新莊區"
"242059","353-BY","2018/07/19 08:59:21","新北市新莊區富國路176巷1號","121.424246666667","25.02438","6500500","新莊區"
"242008","132-UY","2018/07/19 08:59:23","新北市新莊區昌盛街81巷4弄1號","121.455546666667","25.0506366666667","6500500","新莊區"
"242038","133-UY","2018/07/19 08:59:09","新北市新莊區民安西路110號","121.426805","25.0189583333333","6500500","新莊區"
"242047","172-VK","2018/07/19 08:59:16","新北市新莊區富國路109巷2號","121.423768333333","25.025105","6500500","新莊區"
"242003","176-VK","2018/07/19 08:59:28","新北市新莊區化成路63巷9號","121.464593333333","25.0458266666667","6500500","新莊區"
"242014","346-TH","2018/07/19 08:59:14","新北市新莊區中和街49號","121.448023333333","25.0445766666667","6500500","新莊區"
"242020","348-TH","2018/07/19 08:59:17","新北市新莊區新泰路150巷10弄15號","121.448195","25.038055","6500500","新莊區"
"242001","349-TH","2018/07/19 08:59:18","新北市新莊區中正路97號","121.460648333333","25.038975","6500500","新莊區"
"242018","350-TH","2018/07/19 08:59:15","新北市新莊區復興路二段185號","121.459058333333","25.0444883333333","6500500","新莊區"
"242012","351-TH","2018/07/19 08:59:28","新北市新莊區中平路270巷7弄35號","121.44624","25.0509566666667","6500500","新莊區"
"242030","281-VK","2018/07/19 08:59:28","新北市新莊區新泰路213巷31號","121.44486","25.038425","6500500","新莊區"
