"lineid","car","time","location","longitude","latitude","cityid","cityname"
"234044","148-BY","2018/07/19 12:49:47","新北市永和區得和路373巷31弄8號","121.524688333333","25.00077","6500400","永和區"
"234070","149-BY","2018/07/19 12:49:48","新北市永和區豫溪街217巷29號","121.524561666667","25.0104783333333","6500400","永和區"
"234005","207-UY","2018/07/19 12:49:44","新北市永和區文化路146號","121.512558333333","25.0152566666667","6500400","永和區"
"234078","298-R6","2018/07/19 12:49:51","新北市永和區永利路95號","121.521703333333","25.0031433333333","6500400","永和區"
"234036","336-UY","2018/07/19 12:49:45","新北市永和區成功路二段91號","121.526923333333","24.9992433333333","6500400","永和區"
"234062","337-UY","2018/07/19 12:49:35","新北市永和區福和路1號","121.526001666667","25.0097916666667","6500400","永和區"
"234084","338-UY","2018/07/19 12:49:50","新北市永和區中正路87號","121.515356666667","24.9971616666667","6500400","永和區"
"234068","552-UM","2018/07/19 12:49:46","新北市永和區中興街100號","121.519086666667","25.0121633333333","6500400","永和區"
"234015","745-BX","2018/07/19 12:49:43","新北市永和區忠孝街26巷8號","121.515298333333","25.0169","6500400","永和區"
"234028","746-BX","2018/07/19 12:49:50","新北市永和區得和路321號","121.523396666667","24.9995733333333","6500400","永和區"
"234052","KEA-2590","2018/07/19 12:49:41","新北市永和區竹林路53號","121.51814","25.013835","6500400","永和區"
"234012","KEA-2591","2018/07/19 12:49:36","新北市永和區保福路二段133巷35號","121.509051666667","25.0134366666667","6500400","永和區"
"234060","AAD-866","2018/07/19 12:49:35","新北市永和區福和路307號","121.516205","25.0071116666667","6500400","永和區"
"234066","847-RS","2018/07/19 12:49:53","新北市永和區中和路625號","121.51298","25.0048766666667","6500400","永和區"
"234040","862-TW","2018/07/19 12:49:36","新北市永和區永貞路306號","121.511881666667","25.0048633333333","6500400","永和區"
"234048","863-TW","2018/07/19 12:49:47","新北市永和區福和路1號","121.52632","25.0096683333333","6500400","永和區"
"234025","9371-KE","2018/07/19 12:49:36","新北市永和區永和路一段202號","121.514338333333","25.0091783333333","6500400","永和區"
"234010","9373-KE","2018/07/19 12:49:39","新北市永和區保福路二段158巷1號","121.509101666667","25.0150416666667","6500400","永和區"
"248013","025-BX","2018/07/19 12:46:01","新北市五股區中興路二段63巷17號","121.460223333333","25.0756116666667","6501500","五股區"
"248015","026-BX","2018/07/19 12:44:18","新北市五股區中興路二段83巷26-6號","121.460031666667","25.0752933333333","6501500","五股區"
"248017","225-UY","2018/07/19 12:49:52","新北市五股區中興路二段83巷26-6號","121.460133333333","25.0751683333333","6501500","五股區"
"234022","9380-KE","2018/07/19 12:49:53","新北市永和區竹林路119巷45號","121.521928333333","25.0118133333333","6500400","永和區"
"234076","969-R7","2018/07/19 12:49:41","新北市永和區中正路4號","121.51237","24.9936083333333","6500400","永和區"
"234072","AAC-211","2018/07/19 12:49:38","新北市永和區福和路1號","121.526215","25.0099166666667","6500400","永和區"
"234001","AAC-295","2018/07/19 12:49:54","新北市永和區中正路647號","121.515175","25.01018","6500400","永和區"
"244003","248-BX","2018/07/19 12:49:47","新北市林口區粉寮路二段160巷28號","121.405163333333","25.09078","6501700","林口區"
"243004","646-TV","2018/07/19 12:27:57","新北市泰山區黎明路31號","121.421856666667","25.06058","6501600","泰山區"
"231002","002-UM","2018/07/19 12:49:52","新北市新店區安華路28-1號","121.519766666667","24.9608616666667","6500600","新店區"
"231028","046-UY","2018/07/19 12:49:54","新北市新店區安華路28-1號","121.519528333333","24.9609866666667","6500600","新店區"
"231001","047-UY","2018/07/19 12:49:38","新北市新店區安華路28-1號","121.51932","24.960905","6500600","新店區"
"231005","106-UY","2018/07/19 12:49:50","新北市新店區安華路28-1號","121.519598333333","24.9607716666667","6500600","新店區"
"231010","107-UY","2018/07/19 12:49:48","新北市新店區安一路一段1-1號","121.519455","24.9613516666667","6500600","新店區"
"231003","268-BY","2018/07/19 12:49:42","新北市新店區安華路28-1號","121.519383333333","24.960635","6500600","新店區"
"231018","278-BY","2018/07/19 12:49:43","新北市新店區安一路一段1-1號","121.51993","24.9612066666667","6500600","新店區"
"231017","AAD-862","2018/07/19 12:49:45","新北市新店區安一路一段1-1號","121.519718333333","24.961145","6500600","新店區"
"231036","512-UM","2018/07/19 12:49:41","新北市新店區安一路一段1-1號","121.519193333333","24.961415","6500600","新店區"
"231013","513-UM","2018/07/19 12:49:40","新北市新店區安一路一段1-1號","121.519696666667","24.9612133333333","6500600","新店區"
"231034","616-UM","2018/07/19 12:49:53","新北市新店區安華路28-1號","121.519441666667","24.9605933333333","6500600","新店區"
"231035","719-UM","2018/07/19 12:49:45","新北市新店區安一路一段1-1號","121.519518333333","24.9613616666667","6500600","新店區"
"231031","720-UM","2018/07/19 12:49:49","新北市新店區安一路一段1-1號","121.519431666667","24.9613066666667","6500600","新店區"
"231029","897-TW","2018/07/19 12:49:50","新北市新店區安華路28-1號","121.51953","24.9607483333333","6500600","新店區"
"231024","AKT-0513","2018/07/19 12:49:51","新北市新店區安華路1-1號","121.519491666667","24.960405","6500600","新店區"
"235029","098-UM","2018/07/19 12:49:45","新北市中和區板南路413號","121.492658333333","25.0001883333333","6500300","中和區"
"235022","151-BY","2018/07/19 12:49:50","新北市中和區員山路36巷16-2號","121.485285","24.9916266666667","6500300","中和區"
"235002","185-VK","2018/07/19 12:49:44","新北市中和區中正路501號","121.488865","24.994115","6500300","中和區"
"235031","255-BX","2018/07/19 12:49:39","新北市中和區中山路二段568巷4號","121.482798333333","25.0057","6500300","中和區"
"235008","293-VK","2018/07/19 12:49:42","新北市中和區和城路一段271巷1號","121.485618333333","24.991725","6500300","中和區"
"235001","611-BX","2018/07/19 12:49:39","新北市中和區民享街249-3號","121.472606666667","24.9964166666667","6500300","中和區"
"235035","783-BX","2018/07/19 12:49:49","新北市中和區員山路36巷16-3號","121.484963333333","24.9913216666667","6500300","中和區"
"235016","805-TS","2018/07/19 12:49:53","新北市中和區員山路36巷13號","121.484281666667","24.99151","6500300","中和區"
"235023","AAC-215","2018/07/19 12:49:46","新北市中和區員山路36巷16-3號","121.485005","24.991275","6500300","中和區"
"235028","251-BX","2018/07/19 12:49:43","新北市中和區員山路36巷16-3號","121.485055","24.9913083333333","6500300","中和區"
"228005","097-TW","2018/07/19 12:49:35","新北市貢寮區福連里福連街34-1號","121.98869","25.0111016666667","6502600","貢寮區"
"228004","212-TW","2018/07/19 12:49:49","新北市貢寮區吉林里內寮街20-1號","121.889873333333","24.994685","6502600","貢寮區"
"207002","749-BX","2018/07/19 12:49:49","新北市萬里區雙興里二坪路32號","121.644715","25.1687033333333","6502800","萬里區"
"207001","662-BX","2018/07/19 12:49:37","新北市萬里區萬里里瑪鋉路124號","121.690633333333","25.1791283333333","6502800","萬里區"
"236005","498-BY","2018/07/19 12:49:48","新北市土城區中央路三段183號","121.431133333333","24.9651766666667","6501300","土城區"
"221002","269-BY","2018/07/19 12:49:48","新北市汐止區忠三街8號","121.624631666667","25.07849","6501100","汐止區"
"221032","280-BY","2018/07/19 12:49:34","新北市汐止區大同路二段527號","121.661801666667","25.0690366666667","6501100","汐止區"
