"lineid","car","time","location","longitude","latitude","cityid","cityname"
"234044","148-BY","2018/07/19 13:09:46","新北市永和區永元路18巷5號","121.522658333333","25.0003933333333","6500400","永和區"
"234070","149-BY","2018/07/19 13:09:48","新北市永和區民生路25巷22號","121.524336666667","24.99847","6500400","永和區"
"234005","207-UY","2018/07/19 13:09:44","新北市永和區中山路一段145號","121.5103","25.0095866666667","6500400","永和區"
"234078","298-R6","2018/07/19 13:09:37","新北市永和區永亨路83號","121.522091666667","25.0056916666667","6500400","永和區"
"234036","336-UY","2018/07/19 13:09:45","新北市永和區民樂街71巷2號","121.527356666667","24.99737","6500400","永和區"
"234062","337-UY","2018/07/19 13:09:39","新北市永和區秀朗路二段33號","121.521358333333","25.0024016666667","6500400","永和區"
"234084","338-UY","2018/07/19 13:09:50","新北市永和區永利路4巷29號","121.517715","25.0047833333333","6500400","永和區"
"234068","552-UM","2018/07/19 13:09:46","新北市永和區豫溪街137巷1弄15號","121.518975","25.010425","6500400","永和區"
"234015","745-BX","2018/07/19 13:09:43","新北市永和區文化路90巷16號","121.513901666667","25.015935","6500400","永和區"
"234028","746-BX","2018/07/19 13:09:50","新北市永和區四維街101號","121.52401","24.9982033333333","6500400","永和區"
"234052","KEA-2590","2018/07/19 13:09:41","新北市永和區竹林路72巷2號","121.519193333333","25.012925","6500400","永和區"
"234012","KEA-2591","2018/07/19 13:09:56","新北市永和區保福路二段30號","121.511006666667","25.0116833333333","6500400","永和區"
"234060","AAD-866","2018/07/19 13:09:55","新北市永和區安樂路328號","121.514446666667","25.0057566666667","6500400","永和區"
"234066","847-RS","2018/07/19 13:09:53","新北市永和區保平路5號","121.513143333333","25.00759","6500400","永和區"
"234040","862-TW","2018/07/19 13:09:36","新北市永和區保平路93巷1號","121.511735","25.00675","6500400","永和區"
"234048","863-TW","2018/07/19 13:09:46","新北市永和區文化路135巷6號","121.510745","25.0158","6500400","永和區"
"234025","9371-KE","2018/07/19 13:09:47","新北市永和區秀朗路一段10巷21號","121.513303333333","25.00623","6500400","永和區"
"234010","9373-KE","2018/07/19 13:09:39","新北市永和區仁愛路31巷2弄5號","121.513893333333","25.012815","6500400","永和區"
"248013","025-BX","2018/07/19 13:09:42","新北市五股區成泰路二段56號","121.437353333333","25.0818933333333","6501500","五股區"
"248015","026-BX","2018/07/19 13:09:50","新北市五股區成泰路三段221巷14號","121.445811666667","25.0934266666667","6501500","五股區"
"248005","077-UY","2018/07/19 13:09:45","新北市五股區中興路二段87號","121.460648333333","25.0773066666667","6501500","五股區"
"248007","095-VK","2018/07/19 13:09:47","新北市蘆洲區永安南路二段292號","121.457326666667","25.0816733333333","6501500","五股區"
"248017","225-UY","2018/07/19 13:09:52","新北市五股區成泰路三段146號","121.444338333333","25.0897983333333","6501500","五股區"
"248011","247-BX","2018/07/19 13:09:52","新北市五股區成泰路三段101-1號","121.444215","25.0902733333333","6501500","五股區"
"248003","677-BX","2018/07/19 13:09:49","新北市五股區成泰路二段110號","121.437985","25.0831866666667","6501500","五股區"
"248001","678-BX","2018/07/19 13:09:38","新北市五股區芳洲路49號","121.441538333333","25.0834966666667","6501500","五股區"
"248009","682-TV","2018/07/19 13:09:37","新北市五股區成泰路一段231-19號","121.435098333333","25.077705","6501500","五股區"
"234022","9380-KE","2018/07/19 13:09:53","新北市永和區中興街12號","121.515765","25.0118583333333","6500400","永和區"
"234076","969-R7","2018/07/19 13:09:41","新北市永和區民光街5號","121.515325","24.9963516666667","6500400","永和區"
"234072","AAC-211","2018/07/19 13:09:38","新北市永和區竹林路198號","121.52047","25.0095816666667","6500400","永和區"
"234001","AAC-295","2018/07/19 13:09:54","新北市永和區永和路二段6號","121.514586666667","25.0100466666667","6500400","永和區"
"244003","248-BX","2018/07/19 13:09:47","新北市林口區嘉溪雅坑5-8號","121.346056666667","25.0999616666667","6501700","林口區"
"243005","AAD-798","2018/07/19 13:09:47","新北市泰山區南林路99巷1-1號","121.415525","25.0511216666667","6501600","泰山區"
"231002","002-UM","2018/07/19 13:09:52","新北市新店區安華路28-1號","121.519596666667","24.9609066666667","6500600","新店區"
"231027","0293-UT","2018/07/19 13:09:37","新北市新店區安華路1-1號","121.519805","24.960445","6500600","新店區"
"231028","046-UY","2018/07/19 13:09:54","新北市新店區安華路28-1號","121.519728333333","24.960825","6500600","新店區"
"231001","047-UY","2018/07/19 13:09:38","新北市新店區安華路28-1號","121.519303333333","24.9609033333333","6500600","新店區"
"231005","106-UY","2018/07/19 13:09:50","新北市新店區安華路28-1號","121.51972","24.9608466666667","6500600","新店區"
"231010","107-UY","2018/07/19 13:09:49","新北市新店區安一路一段1-1號","121.519363333333","24.9613516666667","6500600","新店區"
"231011","187-VK","2018/07/19 13:09:51","新北市新店區安一路一段1-1號","121.519616666667","24.9611033333333","6500600","新店區"
"231026","256-BX","2018/07/19 13:09:47","新北市新店區安一路一段1-1號","121.519746666667","24.9611383333333","6500600","新店區"
"231003","268-BY","2018/07/19 13:09:42","新北市新店區安華路28-1號","121.519351666667","24.9605716666667","6500600","新店區"
"231018","278-BY","2018/07/19 13:07:55","新北市新店區安康路一段299-1號","121.522226666667","24.9637133333333","6500600","新店區"
"231017","AAD-862","2018/07/19 13:09:45","新北市新店區安一路一段1-1號","121.519986666667","24.9611333333333","6500600","新店區"
"231004","355-BY","2018/07/19 13:09:36","新北市新店區安華路28-1號","121.519171666667","24.960915","6500600","新店區"
"231037","4716-K9","2018/07/19 13:09:45","新北市新店區安華路28-1號","121.519786666667","24.9610266666667","6500600","新店區"
"231025","4715-K9","2018/07/19 13:09:46","新北市新店區安康路一段240-1號","121.521878333333","24.9637583333333","6500600","新店區"
"231036","512-UM","2018/07/19 13:09:41","新北市新店區安一路一段1-1號","121.519426666667","24.961325","6500600","新店區"
"231013","513-UM","2018/07/19 13:09:40","新北市新店區安一路一段1-1號","121.519701666667","24.9612366666667","6500600","新店區"
"231034","616-UM","2018/07/19 13:09:53","新北市新店區安華路1-1號","121.519491666667","24.96051","6500600","新店區"
"231006","617-UM","2018/07/19 13:09:49","新北市新店區安華路28-1號","121.519526666667","24.960915","6500600","新店區"
"231030","619-UM","2018/07/19 13:09:51","新北市新店區安華路28-1號","121.519553333333","24.96087","6500600","新店區"
"231035","719-UM","2018/07/19 13:09:45","新北市新店區安一路一段1-1號","121.51958","24.9613533333333","6500600","新店區"
"231021","719-UY","2018/07/19 13:09:46","新北市新店區安一路一段1-1號","121.5199","24.961165","6500600","新店區"
"231031","720-UM","2018/07/19 13:09:49","新北市新店區安一路一段1-1號","121.519325","24.9611683333333","6500600","新店區"
"231029","897-TW","2018/07/19 13:09:50","新北市新店區安華路28-1號","121.519716666667","24.96073","6500600","新店區"
"231024","AKT-0513","2018/07/19 13:09:50","新北市新店區安華路28-1號","121.519681666667","24.9605016666667","6500600","新店區"
"235003","097-UM","2018/07/19 13:09:41","新北市中和區錦和路350-1號","121.490546666667","24.9935433333333","6500300","中和區"
"235029","098-UM","2018/07/19 13:09:45","新北市中和區莊敬路49巷20弄22號","121.502721666667","25.0057983333333","6500300","中和區"
"235004","150-BY","2018/07/19 13:09:49","新北市中和區錦和路350-1號","121.490408333333","24.9935633333333","6500300","中和區"
"235022","151-BY","2018/07/19 13:09:50","新北市中和區圓通路367巷66號","121.493316666667","24.9832066666667","6500300","中和區"
"235019","183-VK","2018/07/19 13:09:45","新北市中和區員山路36巷16-3號","121.485021666667","24.9914","6500300","中和區"
"235002","185-VK","2018/07/19 13:09:44","新北市中和區景平路116號","121.51938","24.991745","6500300","中和區"
"235031","255-BX","2018/07/19 13:09:39","新北市中和區新生街195號","121.48385","25.0001366666667","6500300","中和區"
"235008","293-VK","2018/07/19 13:09:41","新北市中和區員山路36巷16-2號","121.48514","24.99156","6500300","中和區"
"235006","KEA-2878","2018/07/19 13:09:55","新北市中和區中正路275-1號","121.495493333333","24.99361","6500300","中和區"
"235014","4979-A6","2018/07/19 13:09:42","新北市中和區中正路637巷52弄1號","121.485566666667","24.9935583333333","6500300","中和區"
"235034","558-UM","2018/07/19 13:09:34","新北市中和區圓通路207號","121.497066666667","24.994415","6500300","中和區"
"235009","565-BX","2018/07/19 13:09:51","新北市中和區員山路36巷13號","121.484146666667","24.99111","6500300","中和區"
"235018","640-BX","2018/07/19 13:09:47","新北市中和區國光街104號","121.470158333333","25.0004983333333","6500300","中和區"
"235011","732-UM","2018/07/19 13:09:41","新北市中和區中正路273號","121.49572","24.9936833333333","6500300","中和區"
"235010","733-UM","2018/07/19 13:09:37","新北市中和區員山路36巷13號","121.484195","24.990795","6500300","中和區"
"235035","783-BX","2018/07/19 13:09:49","新北市中和區板南路520巷15號","121.483658333333","25.0088833333333","6500300","中和區"
"235026","800-TS","2018/07/19 13:09:39","新北市中和區中正路748號","121.485368333333","24.9983566666667","6500300","中和區"
"235005","802-TS","2018/07/19 13:09:52","新北市中和區連城路249號","121.492865","24.9967233333333","6500300","中和區"
"235016","805-TS","2018/07/19 13:09:52","新北市中和區中正路275-1號","121.495541666667","24.9935766666667","6500300","中和區"
"235012","896-TW","2018/07/19 13:09:40","新北市中和區員山路36巷16-3號","121.48489","24.9918833333333","6500300","中和區"
"235017","900-TW","2018/07/19 13:09:49","新北市中和區員山路36巷16-2號","121.485035","24.9918416666667","6500300","中和區"
"235021","911-UM","2018/07/19 13:09:40","新北市中和區員山路36巷16-2號","121.485346666667","24.9917133333333","6500300","中和區"
"235015","157-BY","2018/07/19 13:09:47","新北市中和區景安路208巷35號","121.502288333333","24.992545","6500300","中和區"
"235001","AAC-213","2018/07/19 13:09:43","新北市中和區景平路151號","121.51388","24.99193","6500300","中和區"
"235023","AAC-215","2018/07/19 13:09:46","新北市中和區員山路36巷16-3號","121.485006666667","24.9912833333333","6500300","中和區"
"235028","251-BX","2018/07/19 13:09:43","新北市中和區中正路171號","121.49783","24.9936466666667","6500300","中和區"
"228005","097-TW","2018/07/19 13:09:35","新北市貢寮區仁理村仁和路1號","121.923818333333","25.0480333333333","6502600","貢寮區"
"228004","212-TW","2018/07/19 13:09:49","新北市貢寮區吉林里內寮街71-1號","121.892623333333","24.973255","6502600","貢寮區"
"253003","6232-TK","2018/07/19 13:09:53","新北市石門區石崩山27-2號","121.564918333333","25.2798866666667","6502200","石門區"
"253001","6251-TK","2018/07/19 13:09:46","新北市石門區老梅路43號","121.54532","25.2896033333333","6502200","石門區"
"253002","637-UY","2018/07/19 13:09:52","新北市石門區九芎林3-1號","121.556983333333","25.2736283333333","6502200","石門區"
"253004","8270-PC","2018/07/19 13:09:51","新北市石門區阿里荖42-1號","121.604746666667","25.2841116666667","6502200","石門區"
"207002","749-BX","2018/07/19 13:09:49","新北市萬里區崁腳里崁腳路118-1號","121.64519","25.1582983333333","6502800","萬里區"
"207001","662-BX","2018/07/19 13:09:37","新北市萬里區萬里里瑪鋉路28號","121.689261666667","25.1773933333333","6502800","萬里區"
"252005","AAC-283","2018/07/19 13:09:47","新北市三芝區八賢里八連溪18號","121.510848333333","25.24192","6502100","三芝區"
"236005","498-BY","2018/07/19 13:09:53","新北市土城區亞洲路68號","121.435125","24.9732183333333","6501300","土城區"
"221036","130-UY","2018/07/19 13:09:46","新北市汐止區茄苳路157號","121.669733333333","25.0695616666667","6501100","汐止區"
"221002","269-BY","2018/07/19 13:09:48","台北市內湖區康樂街163號","121.619968333333","25.0749833333333","6501100","汐止區"
"221032","280-BY","2018/07/19 13:09:34","新北市汐止區龍安路179號","121.653123333333","25.0631016666667","6501100","汐止區"
"220010","295-UM","2018/07/19 13:09:45","新北市板橋區民生路二段120號","121.47044","25.01978","6500100","板橋區"
"235025","KEA-2875","2018/07/19 13:09:54","新北市中和區國光街215巷61-2號","121.467598333333","24.999875","6500300","中和區"
