"lineid","car","time","location","longitude","latitude","cityid","cityname"
"234070","149-BY","2018/07/19 14:49:38","新北市八里區中山路三段409號","121.368473333333","25.1352733333333","6500400","永和區"
"234028","746-BX","2018/07/19 14:49:50","新北市永和區民權路84號","121.519888333333","24.99699","6500400","永和區"
"234025","9371-KE","2018/07/19 14:49:36","新北市永和區雙和街25巷3號","121.509023333333","25.00196","6500400","永和區"
"248013","025-BX","2018/07/19 14:49:33","新北市五股區五福路22巷7號","121.434611666667","25.0890433333333","6501500","五股區"
"248015","026-BX","2018/07/19 14:49:50","新北市五股區成泰路三段577巷80弄24號","121.449556666667","25.1045233333333","6501500","五股區"
"248007","095-VK","2018/07/19 14:49:46","新北市五股區四維路183號","121.468113333333","25.0754433333333","6501500","五股區"
"248017","225-UY","2018/07/19 14:21:52","新北市五股區壟路16號","121.41526","25.085565","6501500","五股區"
"248011","247-BX","2018/07/19 14:49:52","新北市五股區五福路127-1號","121.431625","25.0908666666667","6501500","五股區"
"248003","677-BX","2018/07/19 14:49:49","新北市五股區成泰路一段82號","121.435703333333","25.070745","6501500","五股區"
"248001","678-BX","2018/07/19 14:49:38","新北市五股區成泰路三段165號","121.445205","25.0918166666667","6501500","五股區"
"248009","682-TV","2018/07/19 14:49:37","新北市五股區登林路46巷3號","121.431941666667","25.068685","6501500","五股區"
"244003","248-BX","2018/07/19 14:49:47","新北市林口區瑞平里33-1號","121.348363333333","25.12885","6501700","林口區"
"243002","267-VK","2018/07/19 14:49:36","新北市泰山區明志路二段273巷3弄2號","121.427341666667","25.0472266666667","6501600","泰山區"
"243005","AAD-798","2018/07/19 14:49:42","新北市泰山區明志路三段76號","121.424881666667","25.0417866666667","6501600","泰山區"
"243001","297-R6","2018/07/19 14:49:33","新北市泰山區泰林路二段116巷3弄1號","121.435021666667","25.0595233333333","6501600","泰山區"
"243008","380-SR","2018/07/19 14:49:35","新北市泰山區貴陽街90巷26號","121.423186666667","25.030995","6501600","泰山區"
"243007","421-VK","2018/07/19 14:49:44","新北市泰山區明志路一段464號","121.43057","25.055385","6501600","泰山區"
"243003","KEA-2215","2018/07/19 14:49:49","新北市新莊區丹鳳街40號","121.42168","25.0295933333333","6501600","泰山區"
"243004","646-TV","2018/07/19 14:49:49","新北市泰山區楓江路86巷9號","121.437481666667","25.0626933333333","6501600","泰山區"
"243006","680-BX","2018/07/19 14:49:37","新北市泰山區信義街2號","121.433383333333","25.06511","6501600","泰山區"
"231002","002-UM","2018/07/19 14:49:52","新北市新店區民權路99號","121.536866666667","24.9829433333333","6500600","新店區"
"231027","0293-UT","2018/07/19 14:49:37","新北市新店區安和路三段2-2號","121.517803333333","24.9800816666667","6500600","新店區"
"231028","046-UY","2018/07/19 14:49:54","新北市新店區安德街120巷6號","121.50899","24.96082","6500600","新店區"
"231001","047-UY","2018/07/19 14:49:38","新北市新店區三民路40號","121.536233333333","24.971495","6500600","新店區"
"231005","106-UY","2018/07/19 14:49:50","新北市新店區復興路2號","121.532531666667","24.9882516666667","6500600","新店區"
"231011","187-VK","2018/07/19 14:49:31","新北市新店區寶橋路78巷3號","121.546891666667","24.9750983333333","6500600","新店區"
"231023","KEA-2219","2018/07/19 14:49:45","新北市新店區檳榔路150號","121.544336666667","24.9615483333333","6500600","新店區"
"231003","268-BY","2018/07/19 14:49:41","新北市新店區中興路二段121巷1號","121.54745","24.97207","6500600","新店區"
"231018","278-BY","2018/07/19 14:49:52","新北市新店區中央路153號","121.529895","24.9730416666667","6500600","新店區"
"231017","AAD-862","2018/07/19 14:49:45","新北市新店區北宜路三段62號","121.573866666667","24.9512766666667","6500600","新店區"
"231004","355-BY","2018/07/19 14:49:51","新北市新店區民族路91號","121.538671666667","24.97765","6500600","新店區"
"231038","3712-VJ","2018/07/19 14:49:40","新北市新店區安華路28-1號","121.51962","24.960885","6500600","新店區"
"231037","4716-K9","2018/07/19 14:49:45","新北市新店區柴埕路60巷1號","121.509668333333","24.9643366666667","6500600","新店區"
"231025","4715-K9","2018/07/19 14:49:46","新北市新店區民族路110號","121.537696666667","24.9769933333333","6500600","新店區"
"231036","512-UM","2018/07/19 14:49:41","新北市新店區安祥路104-10號","121.479103333333","24.962075","6500600","新店區"
"231013","513-UM","2018/07/19 14:49:40","新北市新店區北新路二段35號","121.54282","24.972465","6500600","新店區"
"231034","616-UM","2018/07/19 14:49:33","新北市新店區安康路二段362-5號","121.50167","24.95741","6500600","新店區"
"231006","617-UM","2018/07/19 14:49:49","新北市新店區北宜路一段107-2號","121.539488333333","24.9550066666667","6500600","新店區"
"231030","619-UM","2018/07/19 14:49:32","新北市新店區安民街296號","121.517633333333","24.973565","6500600","新店區"
"231039","718-UY","2018/07/19 14:49:36","新北市新店區安一路一段1-1號","121.519326666667","24.961315","6500600","新店區"
"231035","719-UM","2018/07/19 14:49:45","新北市新店區安利街32號","121.519036666667","24.9747866666667","6500600","新店區"
"231021","719-UY","2018/07/19 14:49:47","新北市新店區桂山路51巷6-1號","121.561998333333","24.9016133333333","6500600","新店區"
"231031","720-UM","2018/07/19 14:49:49","新北市新店區安康路二段385-1號","121.494821666667","24.95455","6500600","新店區"
"231029","897-TW","2018/07/19 14:49:32","新北市新店區安康路三段466-2號","121.484178333333","24.95108","6500600","新店區"
"231024","AKT-0513","2018/07/19 14:49:31","新北市新店區力行路5號","121.539396666667","24.9645966666667","6500600","新店區"
"235030","003-UY","2018/07/19 14:49:41","新北市中和區南工路8號","121.505386666667","25.0003333333333","6500300","中和區"
"235020","096-UM","2018/07/19 14:49:33","新北市中和區民富街46號","121.476696666667","25.0069116666667","6500300","中和區"
"235003","097-UM","2018/07/19 14:49:41","新北市永和區中正路3號","121.513783333333","24.995605","6500300","中和區"
"235029","098-UM","2018/07/19 14:49:45","新北市中和區永和路90巷2弄1號","121.497418333333","25.0058","6500300","中和區"
"235004","150-BY","2018/07/19 14:49:49","新北市中和區景安路79巷21號","121.507003333333","24.99676","6500300","中和區"
"235022","151-BY","2018/07/19 14:49:50","新北市中和區員山路148巷14號","121.48176","24.9970533333333","6500300","中和區"
"235019","183-VK","2018/07/19 14:49:45","新北市中和區民德路12號","121.468758333333","25.002725","6500300","中和區"
"235002","185-VK","2018/07/19 14:49:44","新北市中和區自立路15巷1號","121.522413333333","24.9962733333333","6500300","中和區"
"235013","186-VK","2018/07/19 14:49:50","新北市中和區景平路572號","121.501755","24.9953616666667","6500300","中和區"
"235031","255-BX","2018/07/19 14:49:39","新北市中和區中正路806號","121.485068333333","25.0024833333333","6500300","中和區"
"235008","293-VK","2018/07/19 14:49:41","新北市中和區南山路176-1號","121.505081666667","24.9910583333333","6500300","中和區"
"235036","301-VK","2018/07/19 14:49:42","新北市中和區中和路74號","121.500515","25.0002083333333","6500300","中和區"
"235007","352-BY","2018/07/19 14:49:49","新北市中和區安和路47號","121.509126666667","24.994815","6500300","中和區"
"235006","KEA-2878","2018/07/19 14:49:35","新北市中和區泰和街9號","121.499516666667","25.0002783333333","6500300","中和區"
"247009","KEA-2869","2018/07/19 14:49:40","新北市蘆洲區永安北路一段2號","121.475813333333","25.0746533333333","6501400","蘆洲區"
"235014","4979-A6","2018/07/19 14:49:42","新北市中和區景平路241巷84弄54號","121.506105","24.9923983333333","6500300","中和區"
"235033","4980-A6","2018/07/19 14:49:49","新北市中和區中正路589巷15號","121.485683333333","24.9935416666667","6500300","中和區"
"235034","558-UM","2018/07/19 14:49:34","新北市中和區連勝街17號","121.498698333333","24.998215","6500300","中和區"
"235018","640-BX","2018/07/19 14:49:47","新北市中和區莒光路175-3號","121.472773333333","24.9994916666667","6500300","中和區"
"235024","647-TV","2018/07/19 14:49:50","新北市中和區中山路二段523巷15弄5號","121.48216","25.0041883333333","6500300","中和區"
"235011","732-UM","2018/07/19 14:49:41","新北市中和區和平街74號","121.50785","24.991025","6500300","中和區"
"235010","733-UM","2018/07/19 14:49:37","新北市中和區景新街496巷29號","121.513475","24.9862516666667","6500300","中和區"
"235035","783-BX","2018/07/19 14:49:49","新北市中和區建六路62號","121.486098333333","25.0020133333333","6500300","中和區"
"235026","800-TS","2018/07/19 14:49:40","新北市中和區錦和路6號","121.486056666667","25.0032783333333","6500300","中和區"
"235005","802-TS","2018/07/19 14:49:32","新北市中和區中正路406號","121.492418333333","24.99419","6500300","中和區"
"235016","805-TS","2018/07/19 14:49:52","新北市中和區華新街144巷17號","121.507358333333","24.9833","6500300","中和區"
"235012","896-TW","2018/07/19 14:49:40","新北市中和區忠孝街160號","121.51267","24.9877133333333","6500300","中和區"
"235017","900-TW","2018/07/19 14:49:49","新北市中和區國光街215巷22-3號","121.467113333333","25.0005516666667","6500300","中和區"
"235021","911-UM","2018/07/19 14:49:40","新北市中和區員山路123號","121.480963333333","24.9954566666667","6500300","中和區"
"235015","157-BY","2018/07/19 14:49:47","新北市中和區復興路73號","121.503618333333","24.9903","6500300","中和區"
"235001","AAC-213","2018/07/19 14:49:43","新北市中和區秀朗路三段173-2號","121.524396666667","24.9913216666667","6500300","中和區"
"235023","AAC-215","2018/07/19 14:49:46","新北市中和區圓通路305巷5弄41號","121.494778333333","24.9903266666667","6500300","中和區"
"220013","072-UY","2018/07/19 14:49:36","新北市板橋區國泰街39巷7弄5號","121.468795","25.0057216666667","6500100","板橋區"
"220034","073-UY","2018/07/19 14:49:43","新北市板橋區南雅西路二段4號","121.453583333333","25.0090916666667","6500100","板橋區"
"220017","AAD-861","2018/07/19 14:49:32","新北市板橋區稚暉街2巷44號","121.455293333333","25.0029916666667","6500100","板橋區"
"220105","120-SR","2018/07/19 14:49:46","新北市板橋區文化路二段650巷15號","121.478098333333","25.0351666666667","6500100","板橋區"
"247013","546-UM","2018/07/19 14:49:34","新北市蘆洲區中央路54號","121.47335","25.0835366666667","6501400","蘆洲區"
"247021","500-BY","2018/07/19 14:49:35","新北市蘆洲區三民路285-1號","121.46703","25.0903216666667","6501400","蘆洲區"
"247015","007-UY","2018/07/19 14:49:40","新北市蘆洲區和平路211號","121.465791666667","25.08177","6501400","蘆洲區"
"247001","002-UY","2018/07/19 14:49:31","新北市蘆洲區長安街335號","121.457265","25.0867933333333","6501400","蘆洲區"
"247019","001-UY","2018/07/19 14:49:49","新北市蘆洲區民義街71巷29號","121.472203333333","25.091025","6501400","蘆洲區"
"235028","251-BX","2018/07/19 14:49:43","新北市中和區安邦街83號","121.496835","24.9966183333333","6500300","中和區"
"228005","097-TW","2018/07/19 14:49:35","新北市貢寮區美豐里丹裡街69號","121.90625","25.0578116666667","6502600","貢寮區"
"228004","212-TW","2018/07/19 14:49:49","新北市貢寮區福隆里裕隆街5號","121.946128333333","25.0159583333333","6502600","貢寮區"
"253003","6232-TK","2018/07/19 14:49:33","新北市石門區尖子鹿87號","121.578756666667","25.2917483333333","6502200","石門區"
"253001","6251-TK","2018/07/19 14:49:46","新北市石門區崁子腳36-1號","121.538936666667","25.2709716666667","6502200","石門區"
"253002","637-UY","2018/07/19 14:49:32","新北市石門區七股10-5號","121.54487","25.2690883333333","6502200","石門區"
"253004","8270-PC","2018/07/19 14:49:51","新北市石門區阿里磅26號","121.58925","25.2577833333333","6502200","石門區"
"207002","749-BX","2018/07/19 14:49:49","新北市萬里區崁腳里崁腳路73號","121.647663333333","25.15961","6502800","萬里區"
"207001","662-BX","2018/07/19 14:36:57","新北市萬里區磺潭里員潭路53-1號","121.644045","25.1937233333333","6502800","萬里區"
"252005","AAC-283","2018/07/19 14:49:46","新北市三芝區埔坪里埔頭坑147號","121.510318333333","25.24991","6502100","三芝區"
"236040","107-UM","2018/07/19 14:49:38","新北市土城區裕民路136巷15號","121.451163333333","24.9856183333333","6501300","土城區"
"236074","166-UM","2018/07/19 14:49:37","新北市土城區中央路四段185巷32弄1號","121.41587","24.9558283333333","6501300","土城區"
"236029","253-BX","2018/07/19 14:49:31","新北市土城區忠義路26巷10號","121.439805","24.96989","6501300","土城區"
"236024","269-VK","2018/07/19 14:49:50","新北市土城區慶安街78號","121.440716666667","24.9728033333333","6501300","土城區"
"236012","270-VK","2018/07/19 14:49:41","新北市土城區金城路二段356號","121.461655","24.9851633333333","6501300","土城區"
"236032","271-VK","2018/07/19 14:49:36","新北市土城區仁愛路48-6號","121.462086666667","24.9789916666667","6501300","土城區"
"236068","KEA-2877","2018/07/19 14:49:34","新北市土城區明德路一段76號","121.465046666667","24.9802016666667","6501300","土城區"
"236017","401-BY","2018/07/19 14:49:33","新北市土城區金城路三段50號","121.465978333333","24.986375","6501300","土城區"
"236057","912-UM","2018/07/19 14:49:38","新北市土城區金城路一段66號","121.442928333333","24.9712433333333","6501300","土城區"
"236045","913-UM","2018/07/19 14:49:36","新北市土城區青雲路108號","121.45913","24.98615","6501300","土城區"
"236060","915-UM","2018/07/19 14:49:44","新北市土城區金城路三段233號","121.471233333333","24.9895716666667","6501300","土城區"
"236054","AAC-216","2018/07/19 14:49:34","新北市土城區裕民路145-1號","121.451646666667","24.986245","6501300","土城區"
"238012","303-VK","2018/07/19 14:49:37","新北市樹林區育德街78號","121.387845","24.9684633333333","6500700","樹林區"
"238001","282-BY","2018/07/19 14:49:42","新北市樹林區中山路三段204號","121.386726666667","24.968175","6500700","樹林區"
"221036","130-UY","2018/07/19 14:49:46","新北市汐止區橫科路407巷30弄29號","121.626508333333","25.04758","6501100","汐止區"
"221002","269-BY","2018/07/19 14:49:48","新北市汐止區八連路一段207號","121.6409","25.0805283333333","6501100","汐止區"
"220028","200-UY","2018/07/19 14:49:43","新北市板橋區大觀路二段153巷39弄1號","121.446968333333","25.0005366666667","6500100","板橋區"
"220030","610-BX","2018/07/19 14:49:39","新北市板橋區大觀路三段180巷30號","121.429861666667","24.993815","6500100","板橋區"
"220050","245-BX","2018/07/19 14:47:34","新北市板橋區縣民大道三段93巷23號","121.474728333333","25.0224233333333","6500100","板橋區"
"220004","276-BY","2018/07/19 14:49:42","新北市板橋區四川路二段47巷3弄2號","121.454293333333","24.99458","6500100","板橋區"
"220020","277-BY","2018/07/19 14:49:34","新北市板橋區篤行路二段77巷14號","121.432543333333","24.99169","6500100","板橋區"
"220019","283-VK","2018/07/19 14:49:43","新北市中和區和平路200巷33號","121.465105","24.9945716666667","6500100","板橋區"
"220043","285-UM","2018/07/19 14:49:35","新北市板橋區長江路一段123號","121.460178333333","25.0299633333333","6500100","板橋區"
"220001","285-VK","2018/07/19 14:49:49","新北市板橋區民享街95號","121.477093333333","25.01604","6500100","板橋區"
"220031","286-VK","2018/07/19 14:49:51","新北市板橋區僑中二街26號","121.445938333333","25.0106883333333","6500100","板橋區"
"220029","287-VK","2018/07/19 14:49:46","新北市板橋區大觀路一段28巷104號","121.45008","25.0110916666667","6500100","板橋區"
"220039","288-VK","2018/07/19 14:49:24","新北市板橋區綠堤街27號","121.455903333333","25.0263983333333","6500100","板橋區"
"220009","293-UM","2018/07/19 14:49:49","新北市板橋區觀光街1巷6號","121.471868333333","25.015425","6500100","板橋區"
"220010","295-UM","2018/07/19 14:49:45","新北市板橋區光復街45號","121.481985","25.01867","6500100","板橋區"
"220032","296-UM","2018/07/19 14:49:43","新北市板橋區溪崑二街112巷28號","121.425768333333","24.9890883333333","6500100","板橋區"
"220023","303-R5","2018/07/19 14:49:45","新北市板橋區金華街10巷15號","121.456321666667","25.020155","6500100","板橋區"
"220041","307-R5","2018/07/19 14:49:33","新北市板橋區四維路259巷13號","121.462661666667","25.0277883333333","6500100","板橋區"
"220047","317-R6","2018/07/19 14:49:49","新北市板橋區新海路385巷26號","121.457773333333","25.0255216666667","6500100","板橋區"
"220012","486-VK","2018/07/19 14:49:49","新北市板橋區公園街50號","121.462148333333","25.0080766666667","6500100","板橋區"
"220037","491-VK","2018/07/19 14:49:33","新北市板橋區文化路二段410巷2號","121.473986666667","25.0316866666667","6500100","板橋區"
"220104","560-BX","2018/07/19 14:49:51","新北市板橋區新生街29巷15弄1號","121.456578333333","25.021885","6500100","板橋區"
"220052","561-BX","2018/07/19 14:49:51","新北市板橋區陽明街29巷11號","121.464848333333","25.02186","6500100","板橋區"
"220027","568-UM","2018/07/19 14:49:47","新北市板橋區中正路183巷48號","121.454901666667","25.0159583333333","6500100","板橋區"
"220011","609-BX","2018/07/19 14:49:48","新北市板橋區三民路一段31巷87弄13號","121.481403333333","25.0234116666667","6500100","板橋區"
"220040","637-BX","2018/07/19 14:49:34","新北市板橋區民治街81巷15號","121.480363333333","25.0321666666667","6500100","板橋區"
"220005","686-BX","2018/07/19 14:49:48","新北市板橋區廣權路9號","121.460683333333","24.991345","6500100","板橋區"
"220025","687-BX","2018/07/19 14:49:42","新北市板橋區僑中三街8號","121.446646666667","25.0046383333333","6500100","板橋區"
"220042","689-BX","2018/07/19 14:49:49","新北市板橋區長江路一段365號","121.461556666667","25.0305516666667","6500100","板橋區"
"220002","741-BX","2018/07/19 14:49:34","新北市板橋區實踐路93巷60號","121.466228333333","25.00493","6500100","板橋區"
"220051","KEA-2699","2018/07/19 14:49:48","新北市板橋區松柏街31號","121.475173333333","25.0302883333333","6500100","板橋區"
"220003","827-TW","2018/07/19 14:49:44","新北市板橋區仁愛路64號","121.459851666667","24.9994416666667","6500100","板橋區"
"220014","829-TW","2018/07/19 14:49:52","新北市板橋區漢生東路193巷87-3號","121.473026666667","25.011985","6500100","板橋區"
"220016","830-TW","2018/07/19 14:49:51","新北市板橋區光復街107巷5號","121.484265","25.0194","6500100","板橋區"
"220045","831-TW","2018/07/19 14:49:48","新北市板橋區民生路二段226巷31弄1號","121.47102","25.02208","6500100","板橋區"
"220038","833-TW","2018/07/19 14:49:41","新北市板橋區新海路181號","121.458301666667","25.0240216666667","6500100","板橋區"
"220022","895-R6","2018/07/19 14:49:36","新北市板橋區文化路一段52巷10號","121.460536666667","25.0115333333333","6500100","板橋區"
"220021","985-R7","2018/07/19 14:49:45","新北市板橋區大仁街90號","121.453695","25.0161883333333","6500100","板橋區"
"220046","AAC-210","2018/07/19 14:49:47","新北市板橋區漢生西路60號","121.463123333333","25.01886","6500100","板橋區"
"220018","AAC-253","2018/07/19 14:49:49","新北市板橋區民族路243號","121.470098333333","25.0070583333333","6500100","板橋區"
"235032","KEA-2873","2018/07/19 14:49:22","新北市中和區福祥路85巷2弄5號","121.49855","25.0060283333333","6500300","中和區"
"235025","KEA-2875","2018/07/19 14:49:54","新北市中和區員山路174巷8號","121.481991666667","24.9997783333333","6500300","中和區"
