"lineid","car","time","location","longitude","latitude","cityid","cityname"
"234070","149-BY","2018/07/19 15:29:38","新北市永和區福和路1號","121.526148333333","25.0096066666667","6500400","永和區"
"244003","248-BX","2018/07/19 15:29:47","新北市林口區粉寮69號","121.405008333333","25.0909066666667","6501700","林口區"
"231002","002-UM","2018/07/19 15:29:52","新北市新店區環河路152號","121.534978333333","24.9673133333333","6500600","新店區"
"231028","046-UY","2018/07/19 15:29:54","新北市新店區僑信路43號","121.499335","24.9500083333333","6500600","新店區"
"231005","106-UY","2018/07/19 15:29:50","新北市新店區建國路293巷2號","121.536738333333","24.986245","6500600","新店區"
"231011","187-VK","2018/07/19 15:29:51","新北市新店區寶元路一段109號","121.545711666667","24.9831166666667","6500600","新店區"
"231023","KEA-2219","2018/07/19 15:29:44","新北市新店區北新路一段90號","121.54202","24.96871","6500600","新店區"
"231026","256-BX","2018/07/19 15:29:34","新北市新店區三民路117巷7弄1號","121.534038333333","24.9709666666667","6500600","新店區"
"231003","268-BY","2018/07/19 15:29:41","新北市新店區寶高路120巷1號","121.554588333333","24.9761183333333","6500600","新店區"
"231018","278-BY","2018/07/19 15:29:52","新北市新店區中央五街83號","121.526541666667","24.9764383333333","6500600","新店區"
"231017","AAD-862","2018/07/19 15:29:45","新北市新店區明山路45號","121.56383","24.9560166666667","6500600","新店區"
"231004","355-BY","2018/07/19 15:29:36","新北市新店區中正路397號","121.534588333333","24.9772866666667","6500600","新店區"
"231038","3712-VJ","2018/07/19 15:29:40","新北市新店區安華路28-1號","121.519661666667","24.9609516666667","6500600","新店區"
"231037","4716-K9","2018/07/19 15:29:45","新北市新店區安興路91巷16號","121.512963333333","24.9753733333333","6500600","新店區"
"231025","4715-K9","2018/07/19 15:29:46","新北市新店區環河路82號","121.536803333333","24.9634916666667","6500600","新店區"
"231036","512-UM","2018/07/19 15:29:43","新北市新店區安祥路69巷54弄49號","121.483261666667","24.9585566666667","6500600","新店區"
"231034","616-UM","2018/07/19 15:29:53","新北市新店區富貴街10巷2號","121.494176666667","24.9496733333333","6500600","新店區"
"231030","619-UM","2018/07/19 15:29:52","新北市新店區安和路三段95號","121.51787","24.98423","6500600","新店區"
"231039","718-UY","2018/07/19 15:29:35","新北市新店區寶元路一段85巷6弄1號","121.543241666667","24.9858016666667","6500600","新店區"
"231035","719-UM","2018/07/19 15:29:45","新北市新店區安興路83-3號","121.515385","24.9754966666667","6500600","新店區"
"231021","719-UY","2018/07/19 15:29:46","新北市新店區湖興路128-3號","121.567436666667","24.9321833333333","6500600","新店區"
"231031","720-UM","2018/07/19 15:29:49","新北市新店區雙城路20巷4號","121.491628333333","24.9505966666667","6500600","新店區"
"231029","897-TW","2018/07/19 15:29:50","新北市新店區安康路三段527號","121.482118333333","24.9473666666667","6500600","新店區"
"241011","013-R5","2018/07/19 15:29:30","新北市三重區環河南路261號","121.490531666667","25.049775","6500200","三重區"
"241028","022-UY","2018/07/19 15:29:35","新北市三重區重新路四段121號","121.484735","25.0525283333333","6500200","三重區"
"241017","063-VK","2018/07/19 15:29:54","新北市三重區重新路四段121號","121.48478","25.0521666666667","6500200","三重區"
"241005","265-UM","2018/07/19 15:29:38","新北市三重區重新路四段121號","121.485008333333","25.0521783333333","6500200","三重區"
"241016","266-UM","2018/07/19 15:29:35","新北市三重區重新路四段121號","121.484776666667","25.0522616666667","6500200","三重區"
"241013","270-UM","2018/07/19 15:29:54","新北市三重區忠孝路三段32號","121.481331666667","25.0668116666667","6500200","三重區"
"241004","475-VK","2018/07/19 15:29:34","新北市三重區重新路四段121號","121.485023333333","25.0525","6500200","三重區"
"241014","543-UM","2018/07/19 15:29:51","新北市三重區重新路四段121號","121.485076666667","25.0523766666667","6500200","三重區"
"241029","942-UM","2018/07/19 15:29:35","新北市三重區成功路92號","121.487911666667","25.051355","6500200","三重區"
"241033","AAC-255","2018/07/19 15:29:34","新北市三重區重新路四段121號","121.482783333333","25.0509866666667","6500200","三重區"
"235030","003-UY","2018/07/19 15:29:41","新北市中和區光華街31巷22弄6號","121.505516666667","25.00468","6500300","中和區"
"247009","KEA-2869","2018/07/19 15:26:38","新北市五股區中興路三段2巷10號","121.44933","25.080885","6501400","蘆洲區"
"235014","4979-A6","2018/07/19 15:29:49","新北市中和區景新街160巷8-2號","121.505233333333","24.9969216666667","6500300","中和區"
"235033","4980-A6","2018/07/19 15:29:48","新北市中和區中正路588號","121.486015","24.99502","6500300","中和區"
"235023","AAC-215","2018/07/19 15:29:46","新北市中和區圓通路356-3號","121.484425","24.987215","6500300","中和區"
"220017","AAD-861","2018/07/19 15:29:32","新北市板橋區僑中一街124巷74-5號","121.448356666667","25.0178183333333","6500100","板橋區"
"253003","6232-TK","2018/07/19 15:29:33","新北市石門區小坑9號","121.594358333333","25.2884216666667","6502200","石門區"
"253001","6251-TK","2018/07/19 15:29:06","新北市石門區小坑9號","121.594428333333","25.2884133333333","6502200","石門區"
"207001","662-BX","2018/07/19 15:29:37","新北市萬里區龜吼里美崙路96號","121.68278","25.18475","6502800","萬里區"
"236040","107-UM","2018/07/19 15:29:38","新北市土城區學府路一段114號","121.455553333333","24.9877216666667","6501300","土城區"
"236074","166-UM","2018/07/19 15:29:37","新北市土城區溪頭路73號","121.411473333333","24.954295","6501300","土城區"
"236029","253-BX","2018/07/19 15:29:51","新北市土城區中央路一段186-1號","121.44555","24.98639","6501300","土城區"
"236024","269-VK","2018/07/19 15:29:50","新北市土城區明德路二段102巷5號","121.445438333333","24.98442","6501300","土城區"
"236012","270-VK","2018/07/19 15:29:41","新北市土城區廣明街10號","121.455965","24.99206","6501300","土城區"
"236032","271-VK","2018/07/19 15:29:47","新北市土城區延吉街353巷4號","121.464611666667","24.9837083333333","6501300","土城區"
"236068","KEA-2877","2018/07/19 15:29:53","新北市土城區明德路二段69號","121.451651666667","24.9811116666667","6501300","土城區"
"236017","401-BY","2018/07/19 15:29:33","新北市土城區延吉街139號","121.470688333333","24.9861466666667","6501300","土城區"
"236057","912-UM","2018/07/19 15:29:38","新北市土城區城林路6巷80號","121.438768333333","24.9796966666667","6501300","土城區"
"236045","913-UM","2018/07/19 15:29:36","新北市土城區青雲路261號","121.459083333333","24.9807266666667","6501300","土城區"
"236060","915-UM","2018/07/19 15:29:44","新北市土城區金城路三段73巷4弄28號","121.466316666667","24.9881916666667","6501300","土城區"
"236054","AAC-216","2018/07/19 15:29:34","新北市土城區金城路三段189-2號","121.469828333333","24.9888866666667","6501300","土城區"
"238002","755-BX","2018/07/19 15:29:42","新北市樹林區復興路138號","121.420773333333","24.9921916666667","6500700","樹林區"
"238010","601-UM","2018/07/19 15:29:37","新北市樹林區三福街44號","121.407863333333","25.016495","6500700","樹林區"
"238006","599-UM","2018/07/19 15:29:50","新北市樹林區太元街66號","121.418583333333","24.97907","6500700","樹林區"
"238005","571-TV","2018/07/19 15:29:51","新北市樹林區太平路45號","121.419156666667","24.9829466666667","6500700","樹林區"
"238011","5061-A6","2018/07/19 15:29:41","新北市樹林區太平路235-1號","121.41918","24.974105","6500700","樹林區"
"238009","KEA-2213","2018/07/19 15:29:37","新北市樹林區仁愛街35號","121.421923333333","24.9819533333333","6500700","樹林區"
"238008","KEA-2539","2018/07/19 15:29:44","新北市樹林區柑園街一段60號","121.402918333333","24.9603066666667","6500700","樹林區"
"238012","303-VK","2018/07/19 15:29:37","新北市樹林區中山路一段163號","121.421815","24.9885633333333","6500700","樹林區"
"238001","283-BY","2018/07/19 15:29:33","新北市樹林區保安街二段333巷2號","121.41232","25.0075366666667","6500700","樹林區"
"238001","282-BY","2018/07/19 15:29:42","新北市樹林區潭興街105號","121.425098333333","24.9989216666667","6500700","樹林區"
"238007","268-VK","2018/07/19 15:29:45","新北市樹林區俊英街116巷41弄1號","121.428898333333","25.0062733333333","6500700","樹林區"
"238013","172-UY","2018/07/19 15:29:40","新北市樹林區中山路三段27巷3弄12-5號","121.402033333333","24.9735716666667","6500700","樹林區"
"238003","169-UY","2018/07/19 15:29:18","新北市樹林區長壽街4號","121.423758333333","24.9934183333333","6500700","樹林區"
"220050","245-BX","2018/07/19 15:29:34","新北市板橋區縣民大道二段106號","121.466821666667","25.0153966666667","6500100","板橋區"
"220029","287-VK","2018/07/19 15:29:46","新北市板橋區金門街369巷63號","121.43114","24.98195","6500100","板橋區"
"220037","491-VK","2018/07/19 15:29:53","新北市板橋區民治街84號","121.479431666667","25.0321633333333","6500100","板橋區"
"220052","561-BX","2018/07/19 15:29:47","新北市板橋區漢生東路45號","121.46577","25.0168716666667","6500100","板橋區"
"220042","689-BX","2018/07/19 15:29:49","新北市板橋區溪頭街4-1號","121.457385","25.029065","6500100","板橋區"
"220038","833-TW","2018/07/19 15:29:41","新北市板橋區四維路162號","121.464871666667","25.0260033333333","6500100","板橋區"
"220018","AAC-253","2018/07/19 15:29:48","新北市板橋區四川路二段245巷47號","121.451976666667","24.9924966666667","6500100","板橋區"
