"lineid","car","time","location","longitude","latitude","cityid","cityname"
"234070","149-BY","2018/07/19 15:49:38","新北市永和區福和路1號","121.526311666667","25.0098683333333","6500400","永和區"
"231046","107-UY","2018/07/19 15:49:41","新北市新店區安一路一段1-1號","121.519795","24.96112","6500600","新店區"
"231011","187-VK","2018/07/19 15:49:51","新北市新店區文化路38號","121.544066666667","24.9801933333333","6500600","新店區"
"231023","KEA-2219","2018/07/19 15:49:44","新北市新店區中興路一段222號","121.543926666667","24.9659016666667","6500600","新店區"
"231026","256-BX","2018/07/19 15:49:54","新北市新店區民生路45號","121.53229","24.9859233333333","6500600","新店區"
"231003","268-BY","2018/07/19 15:49:41","新北市新店區寶興路62巷4號","121.549933333333","24.9717516666667","6500600","新店區"
"231018","278-BY","2018/07/19 15:49:52","新北市新店區中正路663巷1弄2號","121.532973333333","24.9899933333333","6500600","新店區"
"231017","AAD-862","2018/07/19 15:49:45","新北市新店區中華路117巷6弄2號","121.537795","24.9687666666667","6500600","新店區"
"231038","3712-VJ","2018/07/19 15:49:42","新北市新店區安康路二段238號","121.509193333333","24.959285","6500600","新店區"
"231037","4716-K9","2018/07/19 15:49:45","新北市新店區安興路61號","121.516071666667","24.9725916666667","6500600","新店區"
"231013","513-UM","2018/07/19 15:49:40","新北市新店區華潭街26巷1弄11號","121.529623333333","24.9540983333333","6500600","新店區"
"231034","616-UM","2018/07/19 15:49:53","新北市新店區吉祥街6巷1號","121.497683333333","24.94562","6500600","新店區"
"231030","619-UM","2018/07/19 15:49:52","新北市新店區永安街52號","121.518451666667","24.98684","6500600","新店區"
"231039","718-UY","2018/07/19 15:49:35","新北市新店區中興路三段3號","121.545941666667","24.9777","6500600","新店區"
"231035","719-UM","2018/07/19 15:49:32","新北市新店區安民街381號","121.516293333333","24.9764183333333","6500600","新店區"
"231021","719-UY","2018/07/19 15:49:46","新北市新店區花園二路一段9號","121.556681666667","24.93239","6500600","新店區"
"231031","720-UM","2018/07/19 15:49:49","新北市新店區雙城路41巷1號","121.492368333333","24.9490083333333","6500600","新店區"
"231029","897-TW","2018/07/19 15:49:50","新北市新店區薏仁坑路自強巷1號","121.496881666667","24.9581233333333","6500600","新店區"
"241011","013-R5","2018/07/19 15:49:50","新北市三重區文化北路248號","121.497365","25.0698583333333","6500200","三重區"
"241028","022-UY","2018/07/19 15:49:55","新北市三重區中正南路47號","121.493986666667","25.0596483333333","6500200","三重區"
"241008","059-VK","2018/07/19 15:49:43","新北市三重區重新路四段121號","121.485103333333","25.052435","6500200","三重區"
"241015","062-VK","2018/07/19 15:49:42","新北市三重區重新路四段121號","121.485133333333","25.05212","6500200","三重區"
"241017","063-VK","2018/07/19 15:49:53","新北市三重區中正北路33號","121.491386666667","25.062855","6500200","三重區"
"241024","065-VK","2018/07/19 15:49:49","新北市三重區重新路四段121號","121.485066666667","25.052315","6500200","三重區"
"241026","066-VK","2018/07/19 15:49:37","新北市三重區重新路三段147號","121.490281666667","25.05902","6500200","三重區"
"241003","091-VK","2018/07/19 15:49:36","新北市三重區泉州街84巷18號","121.49586","25.0542766666667","6500200","三重區"
"241005","265-UM","2018/07/19 15:49:38","新北市三重區長元街105號","121.504596666667","25.0669183333333","6500200","三重區"
"241016","266-UM","2018/07/19 15:49:35","新北市三重區重新路四段121號","121.485125","25.052305","6500200","三重區"
"241018","268-UM","2018/07/19 15:49:44","新北市三重區重新路四段121號","121.484688333333","25.052565","6500200","三重區"
"241013","270-UM","2018/07/19 15:49:54","新北市三重區三和路三段40號","121.495955","25.0707833333333","6500200","三重區"
"241025","271-UM","2018/07/19 15:49:44","新北市三重區新北大道一段250號","121.479843333333","25.0613883333333","6500200","三重區"
"241007","413-TH","2018/07/19 15:49:41","新北市三重區重新路四段121號","121.485183333333","25.0522","6500200","三重區"
"241004","475-VK","2018/07/19 15:49:54","新北市三重區重新路四段121號","121.48496","25.0524916666667","6500200","三重區"
"241020","478-VK","2018/07/19 15:49:40","新北市三重區忠孝路二段52號","121.485028333333","25.0704233333333","6500200","三重區"
"241014","543-UM","2018/07/19 15:49:51","新北市三重區重新路四段121號","121.485105","25.0523533333333","6500200","三重區"
"241023","545-UM","2018/07/19 15:49:36","新北市三重區忠孝路三段84巷16-1號","121.480745","25.0646866666667","6500200","三重區"
"241019","KEA-2593","2018/07/19 15:49:47","新北市三重區自強路三段77巷1號","121.487185","25.0739266666667","6500200","三重區"
"241006","AAD-863","2018/07/19 15:49:45","新北市三重區力行路二段134號","121.482276666667","25.07557","6500200","三重區"
"241001","887-TS","2018/07/19 15:49:53","新北市三重區重新路四段121號","121.484515","25.052145","6500200","三重區"
"241012","941-UM","2018/07/19 15:49:46","新北市三重區文化北路75-1號","121.49848","25.0668983333333","6500200","三重區"
"241029","942-UM","2018/07/19 15:49:55","新北市三重區大同南路246號","121.496965","25.055725","6500200","三重區"
"241033","AAC-255","2018/07/19 15:49:54","新北市三重區光復路一段53號","121.472051666667","25.0489916666667","6500200","三重區"
"247009","KEA-2869","2018/07/19 15:26:38","新北市五股區中興路三段2巷10號","121.44933","25.080885","6501400","蘆洲區"
"235033","4980-A6","2018/07/19 15:49:48","新北市中和區連城路469巷21弄3號","121.483985","24.9951066666667","6500300","中和區"
"235023","AAC-215","2018/07/19 15:49:46","新北市中和區員山路49-8號","121.48062","24.991375","6500300","中和區"
"247006","336-TH","2018/07/19 15:48:31","新北市五股區中興路三段2巷10號","121.449186666667","25.0808616666667","6501400","蘆洲區"
"227010","642-TC","2018/07/19 15:49:54","新北市雙溪區牡丹里中正路54號","121.865391666667","25.0400233333333","6502500","雙溪區"
"227004","400-TW","2018/07/19 15:49:39","新北市雙溪區平林里外平林44號","121.852933333333","25.0363566666667","6502500","雙溪區"
"236074","166-UM","2018/07/19 15:49:37","新北市土城區中州路30巷5號","121.41348","24.9587133333333","6501300","土城區"
"236024","269-VK","2018/07/19 15:49:50","新北市土城區中央路一段211巷6弄4號","121.446305","24.986215","6501300","土城區"
"236012","270-VK","2018/07/19 15:49:41","新北市土城區廣明街61號","121.454996666667","24.9936416666667","6501300","土城區"
"236068","KEA-2877","2018/07/19 15:49:53","新北市土城區大安路22號","121.432816666667","24.9662816666667","6501300","土城區"
"236017","401-BY","2018/07/19 15:49:33","新北市土城區金城路三段22-1號","121.465298333333","24.9863516666667","6501300","土城區"
"236057","912-UM","2018/07/19 15:49:38","新北市土城區中央路一段191號","121.446066666667","24.9871333333333","6501300","土城區"
"236045","913-UM","2018/07/19 15:49:36","新北市土城區金城路三段13號","121.46484","24.9862383333333","6501300","土城區"
"236054","AAC-216","2018/07/19 15:49:54","新北市土城區中華路二段88號","121.438588333333","24.9755183333333","6501300","土城區"
"238002","755-BX","2018/07/19 15:49:49","新北市樹林區樹德街136巷13弄3號","121.41972","24.9934083333333","6500700","樹林區"
"238010","601-UM","2018/07/19 15:49:53","新北市樹林區福興街31號","121.4043","25.0156083333333","6500700","樹林區"
"238006","599-UM","2018/07/19 15:49:50","新北市樹林區水源街32巷67號","121.425018333333","24.9801333333333","6500700","樹林區"
"238005","571-TV","2018/07/19 15:49:53","新北市樹林區鎮前街8號","121.426391666667","24.993505","6500700","樹林區"
"238011","5061-A6","2018/07/19 15:49:41","新北市樹林區山佳街57-1號","121.392946666667","24.9724416666667","6500700","樹林區"
"238009","KEA-2213","2018/07/19 15:49:37","新北市樹林區太順街62巷1弄36號","121.416513333333","24.9790016666667","6500700","樹林區"
"238008","KEA-2539","2018/07/19 15:49:44","新北市樹林區柑園街二段175號","121.380465","24.9529416666667","6500700","樹林區"
"238012","303-VK","2018/07/19 15:49:37","新北市樹林區保安街一段72號","121.42488","24.9943333333333","6500700","樹林區"
"238001","283-BY","2018/07/19 15:49:53","新北市樹林區保安街二段167巷11號","121.41467","25.00285","6500700","樹林區"
"238001","282-BY","2018/07/19 15:49:42","新北市樹林區千歲街17號","121.424923333333","24.9956416666667","6500700","樹林區"
"238007","268-VK","2018/07/19 15:49:45","新北市樹林區三俊街231號","121.421486666667","25.0149566666667","6500700","樹林區"
"238013","172-UY","2018/07/19 15:49:40","新北市樹林區育德街2號","121.392808333333","24.97063","6500700","樹林區"
"238003","169-UY","2018/07/19 15:49:39","新北市樹林區啟智街137巷10弄2號","121.417001666667","24.988305","6500700","樹林區"
"220050","245-BX","2018/07/19 15:49:34","新北市板橋區文化路二段656號","121.48145","25.0385583333333","6500100","板橋區"
