"lineid","car","time","location","longitude","latitude","cityid","cityname"
"234070","149-BY","2018/07/19 15:59:38","新北市永和區福和路1號","121.526221666667","25.0098166666667","6500400","永和區"
"231028","046-UY","2018/07/19 15:59:33","新北市新店區安華路28-1號","121.51962","24.9610166666667","6500600","新店區"
"231046","107-UY","2018/07/19 15:59:41","新北市新店區安康路一段83-1號","121.529623333333","24.9613233333333","6500600","新店區"
"231011","187-VK","2018/07/19 15:59:51","新北市新店區民族路184號","121.53693","24.9760983333333","6500600","新店區"
"231003","268-BY","2018/07/19 15:59:41","新北市新店區寶興路53號","121.549601666667","24.9728633333333","6500600","新店區"
"231018","278-BY","2018/07/19 15:59:52","新北市新店區中正路663巷1弄15號","121.53282","24.9898716666667","6500600","新店區"
"231017","AAD-862","2018/07/19 15:59:45","新北市新店區中正路284巷4弄3號","121.53845","24.97475","6500600","新店區"
"231038","3712-VJ","2018/07/19 15:59:40","新北市新店區安康路二段205巷3號","121.509223333333","24.95856","6500600","新店區"
"231037","4716-K9","2018/07/19 15:59:52","新北市新店區吉安街14號","121.51681","24.9658283333333","6500600","新店區"
"231034","616-UM","2018/07/19 15:59:33","新北市新店區如意街85號","121.49478","24.9470733333333","6500600","新店區"
"231030","619-UM","2018/07/19 15:59:56","新北市新店區永平街30號","121.516376666667","24.9839116666667","6500600","新店區"
"231035","719-UM","2018/07/19 15:57:25","新北市新店區安民街303巷9弄2號","121.516923333333","24.9734183333333","6500600","新店區"
"231021","719-UY","2018/07/19 15:59:46","新北市新店區新烏路一段179-1號","121.545411666667","24.9341633333333","6500600","新店區"
"241011","013-R5","2018/07/19 15:59:50","新北市三重區文化北路224巷30-1號","121.497061666667","25.0687066666667","6500200","三重區"
"241028","022-UY","2018/07/19 15:59:55","新北市三重區電信街33號","121.497056666667","25.058455","6500200","三重區"
"241008","059-VK","2018/07/19 15:59:43","新北市三重區重新路四段121號","121.484966666667","25.052045","6500200","三重區"
"241022","060-VK","2018/07/19 15:59:42","新北市三重區中正北路176巷1號","121.483163333333","25.0666583333333","6500200","三重區"
"241031","061-VK","2018/07/19 15:59:48","新北市三重區重新路四段121號","121.484851666667","25.052","6500200","三重區"
"241015","062-VK","2018/07/19 15:59:42","新北市三重區重新路四段121號","121.485141666667","25.0521083333333","6500200","三重區"
"241017","063-VK","2018/07/19 15:59:54","新北市三重區大仁街48巷46號","121.490431666667","25.064265","6500200","三重區"
"241024","065-VK","2018/07/19 15:59:49","新北市三重區中正北路216號","121.482281666667","25.06752","6500200","三重區"
"241026","066-VK","2018/07/19 15:59:37","新北市三重區文化南路42號","121.500398333333","25.0603683333333","6500200","三重區"
"241002","090-VK","2018/07/19 15:59:39","新北市三重區成功路40號","121.489471666667","25.0504733333333","6500200","三重區"
"241003","091-VK","2018/07/19 15:59:56","新北市三重區自強路五段114號","121.496861666667","25.0836766666667","6500200","三重區"
"241005","265-UM","2018/07/19 15:59:38","新北市三重區溪尾街305號","121.48756","25.0837633333333","6500200","三重區"
"241016","266-UM","2018/07/19 15:59:35","新北市三重區重新路四段121號","121.485113333333","25.05225","6500200","三重區"
"241018","268-UM","2018/07/19 15:59:44","新北市三重區中正北路23號","121.492483333333","25.061865","6500200","三重區"
"241013","270-UM","2018/07/19 15:59:34","新北市三重區三和路三段18號","121.49685","25.0702133333333","6500200","三重區"
"241025","271-UM","2018/07/19 15:59:44","新北市三重區三民街201號","121.481871666667","25.065905","6500200","三重區"
"241007","413-TH","2018/07/19 15:59:41","新北市三重區力行路二段170號","121.483095","25.0769083333333","6500200","三重區"
"241004","475-VK","2018/07/19 15:59:34","新北市三重區環河南路261號","121.490323333333","25.049885","6500200","三重區"
"241020","478-VK","2018/07/19 15:59:50","新北市三重區力行路一段247號","121.482665","25.0707","6500200","三重區"
"241014","543-UM","2018/07/19 15:59:51","新北市三重區重新路四段121號","121.485136666667","25.0523016666667","6500200","三重區"
"241023","545-UM","2018/07/19 15:59:36","新北市三重區中正北路119號","121.483325","25.0669183333333","6500200","三重區"
"241019","KEA-2593","2018/07/19 15:59:47","新北市三重區忠孝路二段1號","121.48712","25.0717933333333","6500200","三重區"
"241006","AAD-863","2018/07/19 15:59:45","新北市三重區車路頭街135-1號","121.484316666667","25.0760083333333","6500200","三重區"
"241001","887-TS","2018/07/19 15:59:53","新北市三重區自強路三段97號","121.487623333333","25.075245","6500200","三重區"
"241012","941-UM","2018/07/19 15:59:46","新北市三重區文化北路118巷34號","121.497743333333","25.066195","6500200","三重區"
"241029","942-UM","2018/07/19 15:59:35","新北市三重區大同南路212巷29號","121.49762","25.0566366666667","6500200","三重區"
"241033","AAC-255","2018/07/19 15:59:54","新北市三重區重新路五段447號","121.474388333333","25.0472766666667","6500200","三重區"
"235026","800-TS","2018/07/19 15:59:40","新北市中和區橋和路172號","121.49477","25.0063733333333","6500300","中和區"
"247006","336-TH","2018/07/19 15:59:36","新北市五股區中興路三段163號","121.449196666667","25.080785","6501400","蘆洲區"
"224007","275-VK","2018/07/19 15:59:51","新北市瑞芳區大埔路吉慶公園城39號","121.764973333333","25.0983966666667","6501200","瑞芳區"
"227010","642-TC","2018/07/19 15:59:34","新北市雙溪區三港里雙澳路32-2號","121.87068","25.0496633333333","6502500","雙溪區"
"227004","400-TW","2018/07/19 15:59:54","新北市雙溪區平林里外平林71號","121.842008333333","25.03487","6502500","雙溪區"
"236074","166-UM","2018/07/19 15:59:37","新北市土城區三民路49巷10號","121.41931","24.9640666666667","6501300","土城區"
"236068","KEA-2877","2018/07/19 15:59:53","新北市土城區福安街46號","121.418953333333","24.96473","6501300","土城區"
"236017","401-BY","2018/07/19 15:59:53","新北市土城區自由街21號","121.422236666667","24.9669066666667","6501300","土城區"
"236057","912-UM","2018/07/19 15:59:51","新北市土城區中央路二段51號","121.442673333333","24.9796333333333","6501300","土城區"
"238002","755-BX","2018/07/19 15:59:51","新北市樹林區文德街29號","121.418125","24.9920116666667","6500700","樹林區"
"238010","601-UM","2018/07/19 15:59:37","新北市樹林區龍興街29號","121.40326","25.015975","6500700","樹林區"
"238006","599-UM","2018/07/19 15:59:50","新北市樹林區八德街82號","121.420076666667","24.9812866666667","6500700","樹林區"
"238005","571-TV","2018/07/19 15:59:51","新北市樹林區博愛街155號","121.42552","24.9902633333333","6500700","樹林區"
"238011","5061-A6","2018/07/19 15:59:41","新北市樹林區佳園路一段70號","121.393201666667","24.9701116666667","6500700","樹林區"
"238009","KEA-2213","2018/07/19 15:59:37","新北市樹林區國凱街21-1號","121.4189","24.978175","6500700","樹林區"
"238012","303-VK","2018/07/19 15:59:37","新北市樹林區保安街一段53號","121.423696666667","24.9948266666667","6500700","樹林區"
"238001","283-BY","2018/07/19 15:59:33","新北市樹林區中正路433-1號","121.414836666667","25.0080916666667","6500700","樹林區"
"238001","282-BY","2018/07/19 15:59:42","新北市樹林區千歲街30巷21號","121.426355","24.996205","6500700","樹林區"
"238007","268-VK","2018/07/19 15:59:45","新北市樹林區三俊街199巷35-1號","121.420758333333","25.0179216666667","6500700","樹林區"
"238013","172-UY","2018/07/19 15:59:40","新北市樹林區佳園路一段75巷9號","121.393883333333","24.97021","6500700","樹林區"
"238003","169-UY","2018/07/19 15:59:18","新北市樹林區文化街22號","121.419565","24.9876983333333","6500700","樹林區"
"220050","245-BX","2018/07/19 15:59:14","新北市五股區中直路21號","121.421486666667","25.1119016666667","6500100","板橋區"
