"lineid","car","time","location","longitude","latitude","cityid","cityname"
"234070","149-BY","2018/07/19 16:59:38","新北市永和區福和路1號","121.52632","25.0098116666667","6500400","永和區"
"234042","862-TW","2018/07/19 16:59:36","新北市永和區福和路1號","121.526401666667","25.0097966666667","6500400","永和區"
"249005","172-UM","2018/07/19 16:59:36","新北市八里區渡船頭3-7號","121.43387","25.1536733333333","6502300","八里區"
"249001","173-UM","2018/07/19 16:59:23","新北市八里區中山路三段109號","121.390218333333","25.1420933333333","6502300","八里區"
"249004","303-UY","2018/07/19 16:59:39","新北市八里區挖子尾街46號","121.415565","25.166215","6502300","八里區"
"249002","305-UY","2018/07/19 16:57:38","新北市八里區牛寮埔19-1號","121.431725","25.1428733333333","6502300","八里區"
"249003","593-UM","2018/07/19 16:59:37","新北市八里區中山路二段370號","121.40104","25.148135","6502300","八里區"
"244019","403-UM","2018/07/19 16:59:27","新北市林口區粉寮路19號","121.399763333333","25.081955","6501700","林口區"
"244013","742-UY","2018/07/19 16:59:42","新北市林口區粉寮69號","121.40482","25.0908233333333","6501700","林口區"
"244023","483-VK","2018/07/19 16:59:34","新北市林口區工四路42號","121.400563333333","25.0840083333333","6501700","林口區"
"244025","837-TS","2018/07/19 16:59:32","新北市林口區粉寮路二段160巷28號","121.405256666667","25.09069","6501700","林口區"
"244021","838-TS","2018/07/19 16:59:29","新北市林口區粉寮路二段24號","121.402853333333","25.0862616666667","6501700","林口區"
"231046","107-UY","2018/07/19 16:59:41","新北市新店區直潭一街1號","121.53578","24.9438333333333","6500600","新店區"
"241011","013-R5","2018/07/19 16:59:30","新北市三重區仁愛街55巷150號","121.499463333333","25.073015","6500200","三重區"
"241028","022-UY","2018/07/19 16:59:35","新北市三重區光興街207號","121.494803333333","25.0595183333333","6500200","三重區"
"241008","059-VK","2018/07/19 16:59:23","新北市三重區永福街179巷27號","121.477943333333","25.07489","6500200","三重區"
"241022","060-VK","2018/07/19 16:59:42","新北市三重區中華路112號","121.48349","25.06359","6500200","三重區"
"241031","061-VK","2018/07/19 16:59:28","新北市三重區三寧街42號","121.489983333333","25.0602483333333","6500200","三重區"
"241015","062-VK","2018/07/19 16:59:42","新北市三重區三和路二段13號","121.50139","25.0668266666667","6500200","三重區"
"241017","063-VK","2018/07/19 16:59:33","新北市三重區大同北路120巷1-4號","121.49306","25.06394","6500200","三重區"
"241024","065-VK","2018/07/19 16:59:29","新北市三重區力行路二段23號","121.481846666667","25.0724966666667","6500200","三重區"
"241026","066-VK","2018/07/19 16:59:37","新北市三重區文化南路42號","121.500476666667","25.060265","6500200","三重區"
"241002","090-VK","2018/07/19 16:59:39","新北市三重區仁義街101巷2號","121.497605","25.0801866666667","6500200","三重區"
"241003","091-VK","2018/07/19 16:59:35","新北市三重區五華街141巷60號","121.493595","25.0868316666667","6500200","三重區"
"241005","265-UM","2018/07/19 16:59:38","新北市三重區仁華街82號","121.48519","25.0831933333333","6500200","三重區"
"241016","266-UM","2018/07/19 16:59:35","新北市三重區大智街12號","121.495278333333","25.0645183333333","6500200","三重區"
"241009","267-UM","2018/07/19 16:59:32","新北市三重區仁美街110號","121.485548333333","25.0807666666667","6500200","三重區"
"241018","268-UM","2018/07/19 16:59:44","新北市三重區民生東街6號","121.492685","25.0684433333333","6500200","三重區"
"241032","269-UM","2018/07/19 16:59:26","新北市三重區重陽路一段130巷26號","121.485738333333","25.0603933333333","6500200","三重區"
"241013","270-UM","2018/07/19 16:59:34","新北市三重區仁和街42-1號","121.496886666667","25.07377","6500200","三重區"
"241025","271-UM","2018/07/19 16:59:24","新北市三重區中正北路508巷9號","121.472731666667","25.0711383333333","6500200","三重區"
"241024","KEA-2210","2018/07/19 16:59:26","新北市三重區重新路四段121號","121.485146666667","25.0522","6500200","三重區"
"241007","413-TH","2018/07/19 16:59:41","新北市三重區溪尾街130號","121.489183333333","25.079425","6500200","三重區"
"241004","475-VK","2018/07/19 16:59:34","新北市三重區五華街98巷25-1號","121.491436666667","25.0817383333333","6500200","三重區"
"241020","478-VK","2018/07/19 16:59:39","新北市三重區後竹圍街175巷20號","121.48566","25.072755","6500200","三重區"
"241030","480-VK","2018/07/19 16:59:33","新北市三重區昌隆街57號","121.491101666667","25.0511533333333","6500200","三重區"
"241014","543-UM","2018/07/19 16:59:31","新北市三重區介壽路39巷102號","121.500815","25.0707016666667","6500200","三重區"
"241023","545-UM","2018/07/19 16:59:36","新北市三重區新北大道一段252號","121.479923333333","25.06175","6500200","三重區"
"241019","KEA-2593","2018/07/19 16:59:27","新北市三重區自強路二段74巷19號","121.48796","25.06993","6500200","三重區"
"241006","AAD-863","2018/07/19 16:59:45","新北市三重區車路頭街117巷54號","121.4855","25.0757783333333","6500200","三重區"
"241001","887-TS","2018/07/19 16:59:33","新北市三重區仁愛街245巷34號","121.49427","25.0785166666667","6500200","三重區"
"241012","941-UM","2018/07/19 16:59:26","新北市三重區仁壽街198號","121.50083","25.074925","6500200","三重區"
"241029","942-UM","2018/07/19 16:59:35","新北市三重區泉州街72號","121.49485","25.05483","6500200","三重區"
"241033","AAC-255","2018/07/19 16:59:34","新北市三重區中興北街271號","121.469056666667","25.06062","6500200","三重區"
"247010","KEA-2869","2018/07/19 16:59:42","新北市蘆洲區信義路158號","121.47944","25.0835216666667","6501400","蘆洲區"
"247024","893-R6","2018/07/19 16:59:36","新北市蘆洲區長興路202號","121.460553333333","25.0875083333333","6501400","蘆洲區"
"247014","546-UM","2018/07/19 16:59:32","新北市蘆洲區中山二路36巷31號","121.474026666667","25.0832033333333","6501400","蘆洲區"
"247004","337-TH","2018/07/19 16:59:38","新北市蘆洲區長安街108巷5弄1號","121.461255","25.0816683333333","6501400","蘆洲區"
"247006","336-TH","2018/07/19 16:59:45","新北市蘆洲區永安南路二段240號","121.460296666667","25.0797866666667","6501400","蘆洲區"
"247018","057-VK","2018/07/19 16:59:35","新北市蘆洲區民族路227巷12-1號","121.477163333333","25.089445","6501400","蘆洲區"
"247008","056-VK","2018/07/19 16:59:43","新北市蘆洲區信義路60號","121.47576","25.07953","6501400","蘆洲區"
"247016","007-UY","2018/07/19 16:59:40","新北市蘆洲區中正路71號","121.47045","25.0827833333333","6501400","蘆洲區"
"247020","001-UY","2018/07/19 16:59:37","新北市蘆洲區民族路422巷82弄2號","121.473645","25.09365","6501400","蘆洲區"
"228003","097-TW","2018/07/19 16:59:26","新北市貢寮區福隆里興隆街24-1號","121.944301666667","25.0166216666667","6502600","貢寮區"
"228001","212-TW","2018/07/19 16:59:27","新北市貢寮區貢寮里朝陽街1-2號","121.912286666667","25.021305","6502600","貢寮區"
"228002","663-BX","2018/07/19 16:59:32","新北市貢寮區貢寮里朝陽街122號","121.907946666667","25.0223666666667","6502600","貢寮區"
"224006","676-BX","2018/07/19 16:59:25","新北市瑞芳區大寮路2-2號","121.785535","25.1014333333333","6501200","瑞芳區"
"224008","285-BY","2018/07/19 16:59:44","新北市瑞芳區明燈路一段223號","121.818095","25.1081316666667","6501200","瑞芳區"
"224007","275-VK","2018/07/19 16:59:31","新北市瑞芳區大埔路17-1號","121.766566666667","25.1034933333333","6501200","瑞芳區"
"224009","273-VK","2018/07/19 16:59:32","新北市瑞芳區濱二路23號","121.836243333333","25.1129116666667","6501200","瑞芳區"
"224005","271-BY","2018/07/19 16:59:14","新北市瑞芳區明里路4號","121.868795","25.1209566666667","6501200","瑞芳區"
"227010","642-TC","2018/07/19 16:59:34","新北市雙溪區牡丹里石1-1號","121.862891666667","25.047795","6502500","雙溪區"
"227004","400-TW","2018/07/19 16:59:39","新北市雙溪區長源里柑腳35號","121.803996666667","25.01368","6502500","雙溪區"
"251009","008-UM","2018/07/19 16:59:33","新北市淡水區中正路259號","121.432878333333","25.17457","6501000","淡水區"
"251004","009-UM","2018/07/19 16:59:41","新北市淡水區中正路一段156巷1號","121.421011666667","25.179805","6501000","淡水區"
"251013","KEA-2871","2018/07/19 16:59:31","新北市淡水區泉洲厝32號","121.489298333333","25.1925666666667","6501000","淡水區"
"251016","179-VK","2018/07/19 16:59:38","新北市淡水區瓦坑3號","121.477565","25.1808233333333","6501000","淡水區"
"251014","180-VK","2018/07/19 16:59:40","新北市淡水區八里堆2-12號","121.454523333333","25.2245316666667","6501000","淡水區"
"251015","181-VK","2018/07/19 16:59:33","新北市淡水區忠愛街14號","121.45808","25.1747133333333","6501000","淡水區"
"251010","413-VK","2018/07/19 16:59:43","新北市淡水區新市二路三段20號","121.431868333333","25.193425","6501000","淡水區"
"251012","441-VK","2018/07/19 16:59:25","新北市淡水區沙崙路333號","121.427703333333","25.187705","6501000","淡水區"
"251008","442-VK","2018/07/19 16:59:36","新北市淡水區樹梅坑9號","121.47274","25.1427216666667","6501000","淡水區"
"251005","443-VK","2018/07/19 16:59:42","新北市淡水區中正路257號","121.433095","25.1745066666667","6501000","淡水區"
"251006","561-UM","2018/07/19 16:59:33","新北市淡水區中正東路36-1號","121.448946666667","25.165765","6501000","淡水區"
"251007","577-R6","2018/07/19 16:59:31","新北市淡水區中正東路一段127巷2號","121.455076666667","25.1594166666667","6501000","淡水區"
"251011","650-BX","2018/07/19 16:59:29","新北市淡水區文化路61號","121.438486666667","25.1728566666667","6501000","淡水區"
"252002","178-VK","2018/07/19 16:59:24","新北市三芝區忠孝街173號","121.505411666667","25.26138","6502100","三芝區"
"252001","292-VK","2018/07/19 16:59:31","新北市三芝區淡金路二段43號","121.503421666667","25.260465","6502100","三芝區"
"242053","751-BX","2018/07/19 16:59:32","新北市新莊區新泰路357巷3弄57號","121.441915","25.039005","6500500","新莊區"
"242029","612-BX","2018/07/19 16:59:35","新北市新莊區新泰路357巷3弄57號","121.442003333333","25.0391616666667","6500500","新莊區"
"242036","415-TV","2018/07/19 16:59:40","新北市新莊區新泰路357巷3弄57號","121.441936666667","25.0391516666667","6500500","新莊區"
"242007","413-TV","2018/07/19 16:59:27","新北市新莊區新泰路357巷3弄57號","121.441973333333","25.03945","6500500","新莊區"
"242023","362-BY","2018/07/19 16:59:26","新北市新莊區三和路12-21號","121.442116666667","25.0387566666667","6500500","新莊區"
"242048","172-VK","2018/07/19 16:44:10","新北市新莊區三和路12-21號","121.442071666667","25.03879","6500500","新莊區"
"242021","348-TH","2018/07/19 16:59:32","新北市新莊區新泰路357巷3弄57號","121.441755","25.0394783333333","6500500","新莊區"
"242002","349-TH","2018/07/19 16:59:40","新北市新莊區三和路12-13號","121.441771666667","25.0371733333333","6500500","新莊區"
"242013","351-TH","2018/07/19 16:59:24","新北市新莊區新泰路357巷3弄57號","121.441916666667","25.0395366666667","6500500","新莊區"
"238023","601-UM","2018/07/19 16:59:37","新北市樹林區大安路261號","121.419116666667","24.9938933333333","6500700","樹林區"
"238005","571-TV","2018/07/19 16:59:28","新北市樹林區育德街78-1號","121.388528333333","24.9680266666667","6500700","樹林區"
"238022","KEA-2213","2018/07/19 16:59:37","新北市樹林區八德街263-1號","121.419288333333","24.9737766666667","6500700","樹林區"
"238025","303-VK","2018/07/19 16:59:42","新北市樹林區中正路22-1號","121.427955","24.9993583333333","6500700","樹林區"
"238001","283-BY","2018/07/19 16:59:33","新北市樹林區中正路433-2號","121.414926666667","25.0081466666667","6500700","樹林區"
"238014","282-BY","2018/07/19 16:59:42","新北市樹林區大慶街99-1號","121.427616666667","24.99986","6500700","樹林區"
"238007","268-VK","2018/07/19 16:59:25","新北市樹林區中山路三段125-7號","121.398056666667","24.9738583333333","6500700","樹林區"
"239007","AAC-297","2018/07/19 16:59:43","新北市鶯歌區二甲路13-16號","121.345346666667","24.935085","6500800","鶯歌區"
"239006","891-R6","2018/07/19 16:59:38","新北市鶯歌區二甲路13號","121.344181666667","24.9354","6500800","鶯歌區"
"239001","417-VK","2018/07/19 16:36:32","新北市鶯歌區二甲路171-1號","121.344058333333","24.9356616666667","6500800","鶯歌區"
