"lineid","car","time","location","longitude","latitude","cityid","cityname"
"234042","862-TW","2018/07/19 17:49:35","新北市永和區福和路1號","121.526386666667","25.0098083333333","6500400","永和區"
"234026","9371-KE","2018/07/19 17:49:43","新北市永和區和平街95巷5號","121.511306666667","25.009555","6500400","永和區"
"249005","172-UM","2018/07/19 17:49:36","新北市八里區荖阡坑路41-10號","121.402305","25.132795","6502300","八里區"
"249001","173-UM","2018/07/19 17:49:43","新北市八里區龍米路二段131號","121.445345","25.1474266666667","6502300","八里區"
"249004","303-UY","2018/07/19 17:49:39","新北市八里區中華路一段81巷18號","121.419565","25.1555416666667","6502300","八里區"
"249002","305-UY","2018/07/19 17:49:38","新北市八里區龍形五街35巷3號","121.449213333333","25.1330483333333","6502300","八里區"
"249003","593-UM","2018/07/19 17:49:37","新北市八里區中山路二段125號","121.405486666667","25.1518616666667","6502300","八里區"
"248016","026-BX","2018/07/19 17:49:40","新北市五股區中興路二段83巷26-6號","121.459958333333","25.0753","6501500","五股區"
"248006","077-UY","2018/07/19 17:49:34","新北市五股區中興路二段37巷28號","121.460086666667","25.07497","6501500","五股區"
"248010","682-TV","2018/07/19 17:49:43","新北市五股區中興路二段63巷17號","121.460273333333","25.0753866666667","6501500","五股區"
"232011","375-UM","2018/07/19 17:49:28","新北市坪林區北宜路八段152號","121.70701","24.9344416666667","6502000","坪林區"
"244007","080-UY","2018/07/19 17:49:27","新北市林口區佳林路1號","121.387276666667","25.0824533333333","6501700","林口區"
"244019","403-UM","2018/07/19 17:49:27","新北市林口區忠孝路512巷42號","121.371828333333","25.0685","6501700","林口區"
"244013","742-UY","2018/07/19 17:49:42","新北市林口區佳林路166號","121.383503333333","25.07687","6501700","林口區"
"244009","410-SL","2018/07/19 17:49:33","新北市林口區寶林路269號","121.384656666667","25.084655","6501700","林口區"
"244023","483-VK","2018/07/19 17:49:34","新北市林口區東湖路93巷84號","121.385333333333","25.0710533333333","6501700","林口區"
"244017","485-VK","2018/07/19 17:49:29","新北市林口區文化二路一段230巷15號","121.370776666667","25.072405","6501700","林口區"
"244011","657-BX","2018/07/19 17:49:34","新北市林口區仁愛路一段380號","121.38819","25.0767116666667","6501700","林口區"
"244025","837-TS","2018/07/19 17:49:32","新北市林口區忠孝三路42號","121.360171666667","25.0702283333333","6501700","林口區"
"244021","838-TS","2018/07/19 17:49:29","新北市林口區新寮28號","121.399396666667","25.0665216666667","6501700","林口區"
"222003","436-BY","2018/07/19 17:49:35","新北市深坑區阿柔洋60-1號","121.608625","24.9985366666667","6501800","深坑區"
"222002","659-BX","2018/07/19 17:49:29","新北市深坑區平埔街22巷8號","121.615011666667","25.0008483333333","6501800","深坑區"
"231046","107-UY","2018/07/19 17:49:41","新北市新店區下石厝路2-1號","121.53159","24.928125","6500600","新店區"
"241005","265-UM","2018/07/19 17:49:38","新北市三重區碧華街297號","121.490563333333","25.0839583333333","6500200","三重區"
"241016","266-UM","2018/07/19 17:49:35","新北市三重區重新路二段132號","121.496088333333","25.061625","6500200","三重區"
"241024","KEA-2210","2018/07/19 17:49:46","新北市三重區車路頭街62巷39號","121.483233333333","25.07251","6500200","三重區"
"241006","AAD-863","2018/07/19 17:49:45","新北市八里區中山路三段252號","121.381151666667","25.1400266666667","6500200","三重區"
"241033","AAC-255","2018/07/19 17:49:34","新北市三重區光復路一段7號","121.472058333333","25.0471383333333","6500200","三重區"
"247010","KEA-2869","2018/07/19 17:49:26","新北市蘆洲區民族路31-12號","121.477788333333","25.0851133333333","6501400","蘆洲區"
"247024","893-R6","2018/07/19 17:49:36","新北市蘆洲區長樂路118號","121.46217","25.0897383333333","6501400","蘆洲區"
"247014","546-UM","2018/07/19 17:49:32","新北市蘆洲區保和街67號","121.469466666667","25.0859066666667","6501400","蘆洲區"
"247022","500-BY","2018/07/19 17:49:25","新北市蘆洲區中正路367號","121.464833333333","25.0903983333333","6501400","蘆洲區"
"247012","339-TH","2018/07/19 17:49:28","新北市蘆洲區復興路107號","121.476938333333","25.0878333333333","6501400","蘆洲區"
"247004","337-TH","2018/07/19 17:49:38","新北市蘆洲區長榮路211巷1號","121.460896666667","25.0850233333333","6501400","蘆洲區"
"247006","336-TH","2018/07/19 17:49:35","新北市蘆洲區九芎街90巷8號","121.465823333333","25.0802333333333","6501400","蘆洲區"
"247018","057-VK","2018/07/19 17:49:32","新北市蘆洲區復興路102號","121.47594","25.087095","6501400","蘆洲區"
"247008","056-VK","2018/07/19 17:49:43","新北市蘆洲區中山一路225號","121.473798333333","25.0808233333333","6501400","蘆洲區"
"247016","007-UY","2018/07/19 17:49:40","新北市蘆洲區中正路185巷23弄26號","121.467563333333","25.0839583333333","6501400","蘆洲區"
"247002","002-UY","2018/07/19 17:49:40","新北市蘆洲區永平街32巷21弄7號","121.458793333333","25.0917866666667","6501400","蘆洲區"
"247020","001-UY","2018/07/19 17:49:37","新北市蘆洲區民義街73號","121.473128333333","25.0901316666667","6501400","蘆洲區"
"235064","251-BX","2018/07/19 17:49:32","新北市中和區員山路36巷16-3號","121.485105","24.991325","6500300","中和區"
"228003","097-TW","2018/07/19 17:49:26","新北市貢寮區真理里延平街36號","121.924531666667","25.056355","6502600","貢寮區"
"228002","663-BX","2018/07/19 17:49:32","新北市貢寮區福隆里龜壽谷街26號","121.953548333333","25.0072983333333","6502600","貢寮區"
"224010","AGQ-8101","2018/07/19 17:49:38","新北市瑞芳區明燈路一段267號","121.817013333333","25.1084766666667","6501200","瑞芳區"
"224006","676-BX","2018/07/19 17:49:25","新北市瑞芳區傑魚坑路183號","121.78841","25.1082433333333","6501200","瑞芳區"
"224008","285-BY","2018/07/19 17:49:44","新北市瑞芳區明燈路一段45巷2-3號","121.821126666667","25.106985","6501200","瑞芳區"
"224009","273-VK","2018/07/19 17:49:33","新北市瑞芳區金光路372號","121.849733333333","25.1105","6501200","瑞芳區"
"224005","271-BY","2018/07/19 17:49:34","新北市瑞芳區海濱路153號","121.830008333333","25.1220933333333","6501200","瑞芳區"
"227010","642-TC","2018/07/19 17:49:34","新北市雙溪區三貂里政光路3-1號","121.850726666667","25.0633216666667","6502500","雙溪區"
"253006","295-VK","2018/07/19 17:49:45","新北市石門區中央路3-1號","121.565883333333","25.2914533333333","6502200","石門區"
"222001","KEA-2212","2018/07/19 17:49:34","新北市深坑區文山路三段110號","121.608681666667","24.9994583333333","6501800","深坑區"
"208001","761-BX","2018/07/19 17:49:34","新北市金山區磺清路135號","121.639268333333","25.2276366666667","6502700","金山區"
"251009","008-UM","2018/07/19 17:49:33","新北市淡水區長興街48號","121.444238333333","25.17173","6501000","淡水區"
"251004","009-UM","2018/07/19 17:49:31","新北市淡水區民權一街1號","121.459335","25.136945","6501000","淡水區"
"251013","KEA-2871","2018/07/19 17:49:31","新北市淡水區泉洲厝30號","121.479715","25.1909833333333","6501000","淡水區"
"251016","179-VK","2018/07/19 17:49:38","新北市淡水區埤島39-15號","121.452695","25.1959216666667","6501000","淡水區"
"251014","180-VK","2018/07/19 17:49:37","新北市淡水區公埔子16-6號","121.481015","25.2245916666667","6501000","淡水區"
"251015","181-VK","2018/07/19 17:49:33","新北市淡水區興福寮3-1號","121.491765","25.1657166666667","6501000","淡水區"
"251010","413-VK","2018/07/19 17:49:43","新北市淡水區淡海路280巷33弄34-2號","121.418475","25.1883583333333","6501000","淡水區"
"251012","441-VK","2018/07/19 17:49:25","新北市淡水區北投子86-5號","121.469065","25.1835033333333","6501000","淡水區"
"251008","442-VK","2018/07/19 17:49:36","新北市淡水區八勢路一段156號","121.468121666667","25.156545","6501000","淡水區"
"251005","443-VK","2018/07/19 17:49:42","新北市淡水區學府路102巷1號","121.45042","25.17204","6501000","淡水區"
"251001","559-UM","2018/07/19 17:49:37","新北市淡水區民權路92巷35-1號","121.462246666667","25.126705","6501000","淡水區"
"251006","561-UM","2018/07/19 17:49:33","新北市淡水區新生街51巷45號","121.441216666667","25.176115","6501000","淡水區"
"251007","577-R6","2018/07/19 17:49:31","新北市淡水區民生路54號","121.461845","25.1379483333333","6501000","淡水區"
"251011","650-BX","2018/07/19 17:49:09","新北市淡水區吳(仔)厝36號","121.479501666667","25.1494766666667","6501000","淡水區"
"251002","672-BX","2018/07/19 17:49:32","新北市淡水區長興街2巷2號","121.443848333333","25.1705083333333","6501000","淡水區"
"251003","766-UM","2018/07/19 17:49:44","新北市淡水區大忠街8號","121.443103333333","25.1762616666667","6501000","淡水區"
"207003","550-UM","2018/07/19 17:49:26","新北市萬里區野柳里東澳路55號","121.69199","25.203285","6502800","萬里區"
"207004","225-TW","2018/07/19 17:49:41","新北市萬里區萬里里瑪鋉頂街100-1號","121.687885","25.1805133333333","6502800","萬里區"
"252002","178-VK","2018/07/19 17:49:24","新北市三芝區智成街33號","121.503731666667","25.256575","6502100","三芝區"
"252001","292-VK","2018/07/19 17:49:31","新北市三芝區中興街一段12號","121.497428333333","25.2592866666667","6502100","三芝區"
"237004","KEA-2597","2018/07/19 17:49:37","新北市三峽區中山路146號","121.365023333333","24.9363883333333","6500900","三峽區"
"237007","153-BY","2018/07/19 17:49:30","新北市三峽區中園街156號","121.366785","24.919835","6500900","三峽區"
"237009","210-TH","2018/07/19 17:49:32","新北市三峽區大勇路3巷35號","121.36759","24.9367416666667","6500900","三峽區"
"237013","252-BX","2018/07/19 17:49:42","新北市三峽區愛國路33-9號","121.374631666667","24.9328566666667","6500900","三峽區"
"237012","275-BY","2018/07/19 17:49:36","新北市三峽區文化路16號","121.373273333333","24.935875","6500900","三峽區"
"237014","433-BY","2018/07/19 17:49:38","新北市三峽區文化路120巷7號","121.371033333333","24.9365216666667","6500900","三峽區"
"237006","5529-G3","2018/07/19 17:49:29","新北市三峽區介壽路二段38巷10-3號","121.391605","24.93504","6500900","三峽區"
"237011","KEA-2596","2018/07/19 17:49:43","新北市三峽區大同路176號","121.372566666667","24.9268216666667","6500900","三峽區"
"237016","649-BX","2018/07/19 17:49:29","新北市三峽區白雞149-2號","121.400168333333","24.90559","6500900","三峽區"
"237010","706-TV","2018/07/19 17:49:33","新北市三峽區文化路117號","121.370093333333","24.9360633333333","6500900","三峽區"
"237005","AKY-6261","2018/07/19 17:49:30","新北市三峽區中山路459巷52-1號","121.356608333333","24.9360116666667","6500900","三峽區"
"236042","107-UM","2018/07/19 17:49:27","新北市土城區城林路6巷80號","121.438578333333","24.9796566666667","6501300","土城區"
"236078","166-UM","2018/07/19 17:49:40","新北市土城區中央路三段180號","121.43075","24.9650383333333","6501300","土城區"
"236030","253-BX","2018/07/19 17:49:34","新北市土城區城林路6巷80號","121.438636666667","24.979625","6501300","土城區"
"236014","270-VK","2018/07/19 17:49:33","新北市土城區城林路6巷80號","121.438473333333","24.9795816666667","6501300","土城區"
"236038","271-VK","2018/07/19 17:49:42","新北市土城區城林路6巷80號","121.438511666667","24.97974","6501300","土城區"
"236021","401-BY","2018/07/19 17:49:26","新北市土城區城林路6巷80號","121.438725","24.9797083333333","6501300","土城區"
"236059","912-UM","2018/07/19 17:49:35","新北市土城區中華路二段180號","121.437433333333","24.9717633333333","6501300","土城區"
"236049","913-UM","2018/07/19 17:49:44","新北市土城區城林路6巷80號","121.43844","24.9797033333333","6501300","土城區"
"236063","915-UM","2018/07/19 17:49:27","新北市土城區城林路6巷80號","121.438568333333","24.9795533333333","6501300","土城區"
"236055","AAC-216","2018/07/19 17:49:31","新北市土城區城林路6巷80號","121.438605","24.9798233333333","6501300","土城區"
"242034","AAC-296","2018/07/19 17:49:41","新北市新莊區新莊路783號","121.441125","25.0326216666667","6500500","新莊區"
"242058","986-R7","2018/07/19 17:49:42","新北市新莊區中正路730-11號","121.41454","25.0234833333333","6500500","新莊區"
"242053","751-BX","2018/07/19 17:49:32","新北市新莊區新樹路300號","121.432835","25.0066316666667","6500500","新莊區"
"242027","705-TV","2018/07/19 17:49:38","新北市新莊區福壽街171號","121.458006666667","25.0538033333333","6500500","新莊區"
"242025","613-BX","2018/07/19 17:49:02","新北市新莊區新北大道二段147號","121.465593333333","25.06116","6500500","新莊區"
"242029","612-BX","2018/07/19 17:49:38","新北市新莊區復興路一段37號","121.446658333333","25.0420233333333","6500500","新莊區"
"242042","566-BX","2018/07/19 17:49:29","新北市新莊區中正路612-1號","121.426156666667","25.0302116666667","6500500","新莊區"
"242046","497-BY","2018/07/19 17:49:41","新北市新莊區福營路143號","121.432493333333","25.0316483333333","6500500","新莊區"
"242017","442-UM","2018/07/19 17:49:39","新北市新莊區中港路304號","121.452748333333","25.045035","6500500","新莊區"
"242051","441-UM","2018/07/19 17:49:27","新北市新莊區西盛街232巷15號","121.427346666667","25.0164166666667","6500500","新莊區"
"242056","440-UM","2018/07/19 17:49:46","新北市新莊區豐年街118號","121.446483333333","25.0303433333333","6500500","新莊區"
"242036","415-TV","2018/07/19 17:49:40","新北市新莊區建福路57號","121.426855","25.0273666666667","6500500","新莊區"
"242007","413-TV","2018/07/19 17:49:27","新北市新莊區福樂街134號","121.456696666667","25.0481366666667","6500500","新莊區"
"242044","400-BY","2018/07/19 17:49:38","新北市新莊區雙鳳路8號","121.41733","25.0267466666667","6500500","新莊區"
"242023","362-BY","2018/07/19 17:49:46","新北市新莊區福樂街82號","121.457736666667","25.0469166666667","6500500","新莊區"
"242061","353-BY","2018/07/19 17:49:29","新北市新莊區瓊林南路220號","121.433495","25.0056166666667","6500500","新莊區"
"242009","132-UY","2018/07/19 17:49:32","新北市新莊區昌明街32號","121.456675","25.0524566666667","6500500","新莊區"
"242039","133-UY","2018/07/19 17:49:27","新北市新莊區民安路162號","121.42476","25.0244566666667","6500500","新莊區"
"242048","172-VK","2018/07/19 17:49:30","新北市新莊區萬安街60巷1號","121.4207","25.0236033333333","6500500","新莊區"
"242011","173-VK","2018/07/19 17:49:32","新北市新莊區中港路689號","121.450646666667","25.0565866666667","6500500","新莊區"
"242004","176-VK","2018/07/19 17:49:27","新北市新莊區自立街248號","121.458773333333","25.0454983333333","6500500","新莊區"
"242015","346-TH","2018/07/19 17:49:24","新北市新莊區新泰路502巷42弄7號","121.443708333333","25.0461566666667","6500500","新莊區"
"242021","348-TH","2018/07/19 17:49:32","新北市新莊區公園路43號","121.453261666667","25.0401666666667","6500500","新莊區"
"242002","349-TH","2018/07/19 17:49:41","新北市新莊區景德路119號","121.451381666667","25.0342833333333","6500500","新莊區"
"242019","350-TH","2018/07/19 17:49:40","新北市新莊區民樂街79號","121.457978333333","25.0427983333333","6500500","新莊區"
"242013","351-TH","2018/07/19 17:49:24","新北市新莊區中和街108巷11號","121.44821","25.04692","6500500","新莊區"
"238002","755-BX","2018/07/19 17:49:32","新北市樹林區樹德街71號","121.42073","24.9920283333333","6500700","樹林區"
"238023","601-UM","2018/07/19 17:49:37","桃園市龜山區萬壽路一段369巷7弄2號","121.401703333333","25.0158483333333","6500700","樹林區"
"238019","599-UM","2018/07/19 17:49:30","新北市樹林區太平路206號","121.418845","24.97496","6500700","樹林區"
"238018","571-TV","2018/07/19 17:49:28","新北市樹林區鎮前街94號","121.425218333333","24.9917","6500700","樹林區"
"238022","KEA-2213","2018/07/19 17:49:37","新北市樹林區太順街86巷30號","121.416555","24.9785533333333","6500700","樹林區"
"238021","KEA-2539","2018/07/19 17:49:39","新北市樹林區柑園街一段26號","121.405773333333","24.9618283333333","6500700","樹林區"
"238025","303-VK","2018/07/19 17:49:42","新北市樹林區俊興街211巷7弄19號","121.416825","25.0136333333333","6500700","樹林區"
"238017","283-BY","2018/07/19 17:49:33","新北市樹林區三德街3號","121.412788333333","25.01282","6500700","樹林區"
"238014","282-BY","2018/07/19 17:49:42","新北市樹林區大安路143號","121.422221666667","24.99678","6500700","樹林區"
"238020","268-VK","2018/07/19 17:49:25","新北市樹林區三俊街201號","121.420056666667","25.0154983333333","6500700","樹林區"
"238026","172-UY","2018/07/19 17:49:39","新北市樹林區中洲街30巷6弄10號","121.397201666667","24.9712416666667","6500700","樹林區"
"238003","169-UY","2018/07/19 17:41:47","新北市樹林區國凱街106號","121.422288333333","24.9797433333333","6500700","樹林區"
"239007","AAC-297","2018/07/19 17:49:43","新北市鶯歌區鶯桃路94巷23號","121.340543333333","24.954225","6500800","鶯歌區"
"239006","891-R6","2018/07/19 17:49:38","新北市鶯歌區鶯桃路413巷37弄1號","121.330565","24.96341","6500800","鶯歌區"
"239008","527-UM","2018/07/19 17:49:29","新北市鶯歌區大湖路718號","121.332898333333","24.9763766666667","6500800","鶯歌區"
"239005","526-UM","2018/07/19 17:49:28","新北市鶯歌區鳳吉四街51號","121.327631666667","24.9733916666667","6500800","鶯歌區"
"239001","417-VK","2018/07/19 17:49:32","新北市鶯歌區中正三路367-3號","121.327361666667","24.9346816666667","6500800","鶯歌區"
"239003","360-BY","2018/07/19 17:49:29","新北市鶯歌區德昌二街75號","121.333803333333","24.957915","6500800","鶯歌區"
"239002","359-BY","2018/07/19 17:49:37","新北市鶯歌區育德街12號","121.344698333333","24.9552533333333","6500800","鶯歌區"
"239004","193-VK","2018/07/19 17:49:42","新北市鶯歌區文化路393巷11號","121.35271","24.950795","6500800","鶯歌區"
"221008","489-VK","2018/07/19 17:49:35","新北市汐止區康寧街901號","121.651386666667","25.0750433333333","6501100","汐止區"
"221036","130-UY","2018/07/19 17:49:46","新北市汐止區汐萬路一段39-3號","121.654905","25.0695133333333","6501100","汐止區"
"221015","131-UY","2018/07/19 17:49:28","新北市汐止區長江街213號","121.661276666667","25.07763","6501100","汐止區"
"221010","269-BY","2018/07/19 17:49:40","新北市汐止區汐萬路二段122巷3號","121.648361666667","25.0857466666667","6501100","汐止區"
"221012","278-VK","2018/07/19 17:49:28","新北市汐止區長江街59號","121.656528333333","25.07171","6501100","汐止區"
"221023","279-VK","2018/07/19 17:49:41","新北市汐止區民族二街36號","121.634853333333","25.0704866666667","6501100","汐止區"
"221032","280-BY","2018/07/19 17:49:30","新北市汐止區大同路一段207號","121.633601666667","25.0572633333333","6501100","汐止區"
"221027","281-BY","2018/07/19 17:49:25","新北市汐止區汐萬路一段312號","121.650578333333","25.0754183333333","6501100","汐止區"
"221033","297-VK","2018/07/19 17:49:33","新北市汐止區林森街76號","121.623516666667","25.0406416666667","6501100","汐止區"
"221029","298-VK","2018/07/19 17:49:36","新北市汐止區康寧街901號","121.651328333333","25.0750683333333","6501100","汐止區"
"221021","299-VK","2018/07/19 17:49:27","新北市汐止區汐萬路一段5號","121.656056666667","25.067395","6501100","汐止區"
"221031","353-TW","2018/07/19 17:49:38","新北市汐止區中興路96巷1-3號","121.635235","25.062485","6501100","汐止區"
"221035","622-UM","2018/07/19 17:49:34","新北市汐止區汐萬路一段211巷15號","121.651421666667","25.071775","6501100","汐止區"
"221025","623-UM","2018/07/19 17:49:32","新北市汐止區大同路二段173號","121.651653333333","25.0645983333333","6501100","汐止區"
"221038","646-BX","2018/07/19 17:49:41","新北市汐止區大同路二段187巷33號","121.651861666667","25.0656133333333","6501100","汐止區"
"221018","753-BX","2018/07/19 17:49:44","新北市汐止區大同路二段537號","121.662008333333","25.0691283333333","6501100","汐止區"
"242031","281-VK","2018/07/19 17:49:34","新北市新莊區新泰路321巷37號","121.443135","25.0412216666667","6500500","新莊區"
"235061","KEA-2875","2018/07/19 17:49:30","新北市中和區員山路36巷13號","121.484183333333","24.9912583333333","6500300","中和區"
