"lineid","car","time","location","longitude","latitude","cityid","cityname"
"234007","207-UY","2018/07/19 18:19:35","新北市永和區保生路55號","121.504773333333","25.0107166666667","6500400","永和區"
"234030","746-BX","2018/07/19 18:19:35","新北市永和區福和路1號","121.526435","25.0096666666667","6500400","永和區"
"234042","862-TW","2018/07/19 18:19:35","新北市永和區福和路1號","121.526133333333","25.0099033333333","6500400","永和區"
"234026","9371-KE","2018/07/19 18:19:43","新北市永和區大新街19巷4號","121.515035","25.00891","6500400","永和區"
"234011","9373-KE","2018/07/19 18:19:34","新北市永和區文化路165號","121.510086666667","25.0165","6500400","永和區"
"249005","172-UM","2018/07/19 18:19:36","新北市八里區荖阡坑路15-40號","121.401646666667","25.139875","6502300","八里區"
"249001","173-UM","2018/07/19 18:19:43","新北市八里區龍米路一段133號","121.45216","25.1267783333333","6502300","八里區"
"249004","303-UY","2018/07/19 18:19:39","新北市八里區龍米路二段236-2號","121.431538333333","25.15896","6502300","八里區"
"249002","305-UY","2018/07/19 18:19:38","新北市八里區龍形二街28號","121.450561666667","25.132935","6502300","八里區"
"248014","025-BX","2018/07/19 18:19:39","新北市五股區自強路19巷11號","121.434658333333","25.0736533333333","6501500","五股區"
"248016","026-BX","2018/07/19 18:19:43","新北市五股區西雲路290號","121.449638333333","25.099185","6501500","五股區"
"248006","077-UY","2018/07/19 18:19:34","新北市五股區中興路一段164-1號","121.464138333333","25.0739766666667","6501500","五股區"
"248008","095-VK","2018/07/19 18:19:24","新北市五股區更洲路32巷8弄17號","121.459275","25.079635","6501500","五股區"
"248020","225-UY","2018/07/19 18:19:39","新北市五股區孝義路19-1號","121.452338333333","25.1094866666667","6501500","五股區"
"248012","247-BX","2018/07/19 18:19:40","新北市五股區御成路2號","121.442061666667","25.0907516666667","6501500","五股區"
"248004","677-BX","2018/07/19 18:19:37","新北市五股區成泰路二段222-2號","121.439088333333","25.0854333333333","6501500","五股區"
"248002","678-BX","2018/07/19 18:19:28","新北市五股區西雲路45號","121.443398333333","25.0908683333333","6501500","五股區"
"248010","682-TV","2018/07/19 18:19:43","新北市五股區成泰路一段139巷2弄2號","121.43514","25.072965","6501500","五股區"
"232011","375-UM","2018/07/19 18:19:28","新北市坪林區坪雙路一段51號","121.712535","24.9433416666667","6502000","坪林區"
"244007","080-UY","2018/07/19 18:19:27","新北市林口區湖子17-3號","121.385005","25.0911966666667","6501700","林口區"
"244019","403-UM","2018/07/19 18:19:27","新北市林口區麗園路52巷2號","121.373748333333","25.0695416666667","6501700","林口區"
"244013","742-UY","2018/07/19 18:19:42","新北市林口區中山路140號","121.391623333333","25.0786466666667","6501700","林口區"
"244009","410-SL","2018/07/19 18:19:33","新北市林口區文化二路二段128號","121.380041666667","25.08292","6501700","林口區"
"244023","483-VK","2018/07/19 18:18:14","新北市林口區四維路251號","121.381553333333","25.0748366666667","6501700","林口區"
"244017","485-VK","2018/07/19 18:19:29","新北市林口區公園路19號","121.366733333333","25.0675733333333","6501700","林口區"
"244011","657-BX","2018/07/19 18:19:34","新北市林口區新生街22號","121.39401","25.0766283333333","6501700","林口區"
"244025","837-TS","2018/07/19 18:19:32","新北市林口區南勢二街85巷1號","121.355823333333","25.069495","6501700","林口區"
"244021","838-TS","2018/07/19 18:19:40","新北市林口區自強三街1-1號","121.397348333333","25.0781816666667","6501700","林口區"
"243013","AAD-798","2018/07/19 18:18:58","新北市泰山區南林路103號","121.414551666667","25.0429116666667","6501600","泰山區"
"222003","436-BY","2018/07/19 18:19:35","新北市深坑區旺耽路67號","121.626295","25.0030033333333","6501800","深坑區"
"222002","659-BX","2018/07/19 18:19:29","新北市深坑區文化街17巷7弄18號","121.62092","25.0003416666667","6501800","深坑區"
"231041","002-UM","2018/07/19 18:19:42","新北市新店區安華路28-1號","121.519635","24.9607983333333","6500600","新店區"
"231059","046-UY","2018/07/19 18:19:33","新北市新店區安華路28-1號","121.519646666667","24.960845","6500600","新店區"
"231040","047-UY","2018/07/19 18:19:38","新北市新店區安華路28-1號","121.519321666667","24.9609516666667","6500600","新店區"
"231044","106-UY","2018/07/19 18:19:34","新北市新店區安華路28-1號","121.519715","24.9607583333333","6500600","新店區"
"231046","107-UY","2018/07/19 18:19:41","新北市新店區直潭七街60號","121.532276666667","24.939795","6500600","新店區"
"231047","187-VK","2018/07/19 18:19:47","新北市新店區安一路一段1-1號","121.519568333333","24.9611416666667","6500600","新店區"
"231054","KEA-2219","2018/07/19 18:19:36","新北市新店區安一路一段1-1號","121.519878333333","24.9612","6500600","新店區"
"231057","256-BX","2018/07/19 18:19:37","新北市新店區安一路一段1-1號","121.519768333333","24.9610783333333","6500600","新店區"
"231042","268-BY","2018/07/19 18:19:46","新北市新店區安華路28-1號","121.519533333333","24.9607","6500600","新店區"
"231051","278-BY","2018/07/19 18:19:34","新北市新店區安一路一段1-1號","121.51958","24.961115","6500600","新店區"
"231050","AAD-862","2018/07/19 18:19:35","新北市新店區安一路一段1-1號","121.519693333333","24.96117","6500600","新店區"
"231043","355-BY","2018/07/19 18:19:41","新北市新店區安華路28-1號","121.519356666667","24.960965","6500600","新店區"
"231058","3713-VJ","2018/07/19 18:19:30","新北市新店區秀山路14號","121.532793333333","24.9602683333333","6500600","新店區"
"231066","4716-K9","2018/07/19 18:19:30","新北市新店區安一路一段1-1號","121.519551666667","24.96145","6500600","新店區"
"231056","4715-K9","2018/07/19 18:19:42","新北市新店區百忍街90號","121.532663333333","24.977355","6500600","新店區"
"231067","4772-VM","2018/07/19 18:19:27","新北市新店區安華路28-1號","121.519381666667","24.9605483333333","6500600","新店區"
"231065","512-UM","2018/07/19 18:19:43","新北市新店區安一路一段1-1號","121.51937","24.9612516666667","6500600","新店區"
"231049","513-UM","2018/07/19 18:19:28","新北市新店區安一路一段1-1號","121.519678333333","24.96112","6500600","新店區"
"231063","616-UM","2018/07/19 18:19:29","新北市新店區安華路28-1號","121.519486666667","24.9605566666667","6500600","新店區"
"231045","617-UM","2018/07/19 18:19:37","新北市新店區安華路28-1號","121.519468333333","24.9609016666667","6500600","新店區"
"231061","619-UM","2018/07/19 18:19:38","新北市新店區安華路28-1號","121.519628333333","24.960835","6500600","新店區"
"231064","719-UM","2018/07/19 18:19:32","新北市新店區安一路一段1-1號","121.51964","24.96121","6500600","新店區"
"231052","719-UY","2018/07/19 18:19:40","新北市新店區環河路17號","121.537425","24.9614116666667","6500600","新店區"
"231062","720-UM","2018/07/19 18:19:34","新北市新店區安一路一段1-1號","121.51947","24.9616133333333","6500600","新店區"
"231060","897-TW","2018/07/19 18:19:42","新北市新店區安華路28-1號","121.519625","24.9607833333333","6500600","新店區"
"231055","AKT-0513","2018/07/19 18:19:39","新北市新店區力行路11巷57號","121.538635","24.9617366666667","6500600","新店區"
"241024","KEA-2210","2018/07/19 18:19:26","新北市五股區中興路二段182巷15弄13-3號","121.457388333333","25.0810683333333","6500200","三重區"
"241006","AAD-863","2018/07/19 18:19:45","新北市三重區車路頭街135-1號","121.484193333333","25.076125","6500200","三重區"
"241033","AAC-255","2018/07/19 18:19:41","新北市三重區中興北街42巷30號","121.468623333333","25.0491633333333","6500200","三重區"
"235066","003-UY","2018/07/19 18:19:45","新北市中和區南山路13號","121.502031666667","24.9992716666667","6500300","中和區"
"235063","006-UY","2018/07/19 18:19:32","新北市中和區中正路589巷15號","121.485993333333","24.9937433333333","6500300","中和區"
"235056","096-UM","2018/07/19 18:19:40","新北市板橋區民生路一段1-2號","121.477143333333","25.0117516666667","6500300","中和區"
"235039","097-UM","2018/07/19 18:19:33","新北市中和區景平路257號","121.508583333333","24.9929366666667","6500300","中和區"
"235065","098-UM","2018/07/19 18:19:41","新北市中和區莊敬路49巷18號","121.501668333333","25.006125","6500300","中和區"
"235040","150-BY","2018/07/19 18:19:35","新北市中和區圓通路208號","121.496021666667","24.99401","6500300","中和區"
"235058","151-BY","2018/07/19 18:19:42","新北市中和區圓通路369巷35號","121.48925","24.9864433333333","6500300","中和區"
"235055","183-VK","2018/07/19 18:19:34","新北市中和區中正路637巷60弄61號","121.485386666667","24.9932566666667","6500300","中和區"
"235038","185-VK","2018/07/19 18:19:41","新北市中和區大智街70號","121.523346666667","24.9924166666667","6500300","中和區"
"235067","255-BX","2018/07/19 18:19:23","新北市中和區和城路一段271巷1號","121.485673333333","24.9918466666667","6500300","中和區"
"235044","293-VK","2018/07/19 18:19:45","新北市中和區中正路305號","121.492543333333","24.9938383333333","6500300","中和區"
"235072","301-VK","2018/07/19 18:19:30","新北市中和區錦和路107號","121.490136666667","24.9952266666667","6500300","中和區"
"235043","352-BY","2018/07/19 18:19:27","新北市中和區中正路273號","121.49566","24.9938066666667","6500300","中和區"
"235042","KEA-2878","2018/07/19 18:19:35","新北市中和區大仁街20巷25弄39號","121.519461666667","24.99366","6500300","中和區"
"235050","4979-A6","2018/07/19 18:19:31","新北市中和區捷運路61巷9號","121.509035","24.9893033333333","6500300","中和區"
"235069","4980-A6","2018/07/19 18:19:30","新北市中和區連城路297號","121.49007","24.99631","6500300","中和區"
"235070","558-UM","2018/07/19 18:19:45","新北市中和區圓通路119號","121.49927","24.9963133333333","6500300","中和區"
"235045","565-BX","2018/07/19 18:19:26","新北市中和區景安路200巷5號","121.503518333333","24.9915666666667","6500300","中和區"
"235054","640-BX","2018/07/19 18:19:46","新北市中和區民享街91-12號","121.474671666667","25.000715","6500300","中和區"
"235060","647-TV","2018/07/19 18:19:31","新北市中和區連城路469-1號","121.483575","24.9957116666667","6500300","中和區"
"235047","732-UM","2018/07/19 18:19:42","新北市中和區南山路493號","121.507976666667","24.987885","6500300","中和區"
"235062","800-TS","2018/07/19 18:19:31","新北市中和區景平路999巷2號","121.495106666667","25.0064466666667","6500300","中和區"
"235041","802-TS","2018/07/19 18:19:43","新北市中和區中正路589巷15號","121.485745","24.9935983333333","6500300","中和區"
"235052","805-TS","2018/07/19 18:19:33","新北市中和區興南路二段96號","121.505028333333","24.9839866666667","6500300","中和區"
"235048","896-TW","2018/07/19 18:19:32","新北市中和區錦和路350-1號","121.490371666667","24.993525","6500300","中和區"
"235053","900-TW","2018/07/19 18:19:39","新北市中和區中正路637巷52弄1號","121.485368333333","24.99358","6500300","中和區"
"235057","911-UM","2018/07/19 18:19:28","新北市中和區民治街29巷26號","121.47567","25.0000366666667","6500300","中和區"
"235051","157-BY","2018/07/19 18:19:39","新北市中和區仁愛街93號","121.511903333333","24.9869","6500300","中和區"
"235037","AAC-213","2018/07/19 18:19:25","新北市中和區景德街83號","121.516395","24.991405","6500300","中和區"
"235059","AAC-215","2018/07/19 18:19:26","新北市中和區員山路36巷16-3號","121.485166666667","24.99112","6500300","中和區"
"220065","072-UY","2018/07/19 18:19:42","新北市板橋區華東街1-9號","121.448171666667","24.9949583333333","6500100","板橋區"
"226004","312-R5","2018/07/19 18:19:30","新北市平溪區靜安路二段63號","121.715426666667","25.0206116666667","6502400","平溪區"
"235064","251-BX","2018/07/19 18:19:32","新北市中和區圓通路167巷6號","121.498001666667","24.9950466666667","6500300","中和區"
"228003","097-TW","2018/07/19 18:19:26","新北市貢寮區真理里美艷山街64-2號","121.920006666667","25.07232","6502600","貢寮區"
"228001","212-TW","2018/07/19 18:19:39","新北市貢寮區真理里新港街26巷55弄2-1號","121.927066666667","25.0526016666667","6502600","貢寮區"
"228002","663-BX","2018/07/19 18:19:32","新北市貢寮區福連里馬崗街1號","121.99566","25.0158433333333","6502600","貢寮區"
"224010","AGQ-8101","2018/07/19 17:58:58","新北市瑞芳區汽車路3號","121.848478333333","25.11068","6501200","瑞芳區"
"224006","676-BX","2018/07/19 18:19:31","新北市瑞芳區三爪子坑路106巷120號","121.809163333333","25.10431","6501200","瑞芳區"
"224002","639-TC","2018/07/19 18:19:35","新北市瑞芳區三爪子坑路107號","121.81075","25.107155","6501200","瑞芳區"
"224008","285-BY","2018/07/19 18:19:44","新北市瑞芳區逢甲路15號","121.809786666667","25.10869","6501200","瑞芳區"
"224007","275-VK","2018/07/19 18:19:31","新北市瑞芳區大埔路國宅新村29號","121.765181666667","25.1005333333333","6501200","瑞芳區"
"224009","273-VK","2018/07/19 18:19:32","新北市瑞芳區五號路4號","121.854755","25.1103783333333","6501200","瑞芳區"
"224005","271-BY","2018/07/19 18:19:34","新北市瑞芳區建基路二段7號","121.807605","25.1327916666667","6501200","瑞芳區"
"227010","642-TC","2018/07/19 18:19:34","新北市雙溪區牡丹里牡丹73號","121.851756666667","25.0593266666667","6502500","雙溪區"
"253005","032-BX","2018/07/19 18:19:25","新北市石門區中山路72號","121.567581666667","25.291885","6502200","石門區"
"253006","295-VK","2018/07/19 18:19:45","新北市石門區老梅路85號","121.546403333333","25.289205","6502200","石門區"
"222001","KEA-2212","2018/07/19 18:19:34","新北市深坑區北深路二段66號","121.618923333333","25.004205","6501800","深坑區"
"208002","KEA-2872","2018/07/19 18:19:44","新北市金山區清泉里清水路1-2號","121.628773333333","25.23632","6502700","金山區"
"208003","665-BX","2018/07/19 18:19:38","新北市金山區民生路160號","121.64688","25.2230283333333","6502700","金山區"
"208001","761-BX","2018/07/19 18:19:34","新北市金山區中山路16號","121.641251666667","25.2176183333333","6502700","金山區"
"251004","009-UM","2018/07/19 18:19:31","新北市淡水區民族路51號","121.462828333333","25.135315","6501000","淡水區"
"251013","KEA-2871","2018/07/19 18:19:31","新北市淡水區行忠路796號","121.474126666667","25.199855","6501000","淡水區"
"251016","179-VK","2018/07/19 18:19:38","新北市淡水區淡金路三段228巷17號","121.449628333333","25.2049633333333","6501000","淡水區"
"251014","180-VK","2018/07/19 18:19:37","新北市淡水區崙頂13號","121.49227","25.2199233333333","6501000","淡水區"
"251015","181-VK","2018/07/19 18:19:32","新北市淡水區興福寮66巷541號","121.484465","25.1651683333333","6501000","淡水區"
"251010","413-VK","2018/07/19 18:19:43","新北市淡水區淡海路190號","121.420331666667","25.1852566666667","6501000","淡水區"
"251012","441-VK","2018/07/19 18:19:45","新北市淡水區北新路二段77-5號","121.480588333333","25.1855216666667","6501000","淡水區"
"251008","442-VK","2018/07/19 18:19:36","新北市淡水區淡金路12-3號","121.458246666667","25.16038","6501000","淡水區"
"251005","443-VK","2018/07/19 18:19:42","新北市淡水區水源街一段122巷37號","121.447035","25.1704","6501000","淡水區"
"251001","559-UM","2018/07/19 18:19:37","新北市淡水區自強路299號","121.461575","25.131395","6501000","淡水區"
"251006","561-UM","2018/07/19 18:19:33","新北市淡水區新民街76巷36弄2號","121.439371666667","25.17789","6501000","淡水區"
"251011","650-BX","2018/07/19 18:19:29","新北市淡水區坪頂路50號","121.457865","25.1624666666667","6501000","淡水區"
"251002","672-BX","2018/07/19 18:19:32","新北市淡水區中正東路一段87-2號","121.452915","25.1619066666667","6501000","淡水區"
"251003","766-UM","2018/07/19 18:19:44","新北市淡水區北新路180號","121.449386666667","25.1787783333333","6501000","淡水區"
"207003","550-UM","2018/07/19 18:19:46","新北市萬里區野柳里港東路6號","121.68644","25.203065","6502800","萬里區"
"207004","225-TW","2018/07/19 18:19:28","新北市萬里區中幅里中福路39-2號","121.676855","25.1658316666667","6502800","萬里區"
"252002","178-VK","2018/07/19 18:19:45","新北市三芝區中山路二段35號","121.502881666667","25.2552016666667","6502100","三芝區"
"252003","249-BX","2018/07/19 18:19:32","新北市三芝區錫板里南勢崗2號","121.481233333333","25.263495","6502100","三芝區"
"252001","292-VK","2018/07/19 18:19:31","新北市三芝區中興街二段2號","121.498476666667","25.2566583333333","6502100","三芝區"
"237004","KEA-2597","2018/07/19 18:19:37","新北市三峽區五寮36-1號","121.372493333333","24.868255","6500900","三峽區"
"237007","153-BY","2018/07/19 18:19:30","新北市三峽區中正路二段574號","121.35951","24.9061266666667","6500900","三峽區"
"237009","210-TH","2018/07/19 18:19:32","新北市三峽區大勇路36巷23號","121.365561666667","24.9370583333333","6500900","三峽區"
"237013","252-BX","2018/07/19 18:19:42","新北市三峽區永安街70號","121.376108333333","24.9301533333333","6500900","三峽區"
"237012","275-BY","2018/07/19 18:19:36","新北市三峽區民生街1巷3-5號","121.37708","24.9363783333333","6500900","三峽區"
"237008","302-VK","2018/07/19 18:19:41","新北市三峽區白雞68-317號","121.391645","24.90994","6500900","三峽區"
"237014","433-BY","2018/07/19 18:19:38","新北市三峽區復興路110巷1弄2號","121.37279","24.9381433333333","6500900","三峽區"
"237006","5529-G3","2018/07/19 18:19:29","新北市三峽區溪東路235號","121.406476666667","24.9326083333333","6500900","三峽區"
"237011","KEA-2596","2018/07/19 18:19:43","新北市三峽區溪東路213號","121.405686666667","24.9329766666667","6500900","三峽區"
"237016","649-BX","2018/07/19 18:19:29","新北市三峽區紫微路42-1號","121.422336666667","24.9201566666667","6500900","三峽區"
"237010","706-TV","2018/07/19 18:19:33","新北市三峽區民權街147號","121.368861666667","24.9316283333333","6500900","三峽區"
"237005","AKY-6261","2018/07/19 18:19:30","新北市三峽區秀川街28號","121.371701666667","24.9343","6500900","三峽區"
"236070","105-UM","2018/07/19 18:19:34","新北市土城區永豐路342-1號","121.474376666667","24.97674","6501300","土城區"
"236042","107-UM","2018/07/19 18:19:27","新北市土城區樂利街3巷1號","121.44818","24.9860483333333","6501300","土城區"
"236078","166-UM","2018/07/19 18:19:40","新北市土城區中央路三段281巷23弄1號","121.42594","24.9620083333333","6501300","土城區"
"236030","253-BX","2018/07/19 18:19:34","新北市土城區順風路31號","121.440753333333","24.9767316666667","6501300","土城區"
"236026","269-VK","2018/07/19 18:19:40","新北市土城區承天路18號","121.439505","24.9634716666667","6501300","土城區"
"236014","270-VK","2018/07/19 18:19:33","新北市土城區青雲路39巷7號","121.460263333333","24.98743","6501300","土城區"
"236038","271-VK","2018/07/19 18:19:42","新北市土城區青雲路483巷7號","121.459373333333","24.9741033333333","6501300","土城區"
"236021","401-BY","2018/07/19 18:19:26","新北市土城區明德路一段371號","121.45295","24.9796716666667","6501300","土城區"
"236059","912-UM","2018/07/19 18:19:35","新北市土城區中央路四段420-2號","121.411008333333","24.9520566666667","6501300","土城區"
"236049","913-UM","2018/07/19 18:19:24","新北市土城區明德路一段355-5號","121.45683","24.9775566666667","6501300","土城區"
"236063","915-UM","2018/07/19 18:19:27","新北市土城區金城路三段206巷1號","121.471595","24.989765","6501300","土城區"
"236055","AAC-216","2018/07/19 18:19:31","新北市土城區中華路二段114號","121.43794","24.9740033333333","6501300","土城區"
"242058","986-R7","2018/07/19 18:19:42","桃園市龜山區萬壽路一段80巷6-1號","121.408303333333","25.0195966666667","6500500","新莊區"
"242053","751-BX","2018/07/19 18:19:32","新北市新莊區民安西路301號","121.426761666667","25.0117366666667","6500500","新莊區"
"242027","705-TV","2018/07/19 18:19:38","新北市新莊區幸福路815號","121.445636666667","25.0490483333333","6500500","新莊區"
"242025","613-BX","2018/07/19 18:19:41","新北市新莊區五工三路86巷5號","121.458658333333","25.0656366666667","6500500","新莊區"
"242042","566-BX","2018/07/19 18:19:26","新北市新莊區天祥街71巷21號","121.415628333333","25.0285783333333","6500500","新莊區"
"242046","497-BY","2018/07/19 18:19:41","新北市新莊區中正路831-15號","121.420893333333","25.0276983333333","6500500","新莊區"
"242051","441-UM","2018/07/19 18:19:47","新北市新莊區民安東路35號","121.428721666667","25.0209683333333","6500500","新莊區"
"242056","440-UM","2018/07/19 18:19:46","新北市新莊區瓊林路38-1號","121.448563333333","25.0307483333333","6500500","新莊區"
"242044","400-BY","2018/07/19 18:19:39","新北市新莊區鳳山街56巷8號","121.414253333333","25.0263","6500500","新莊區"
"242061","353-BY","2018/07/19 18:19:29","新北市新莊區新樹路138-1號","121.435393333333","25.023455","6500500","新莊區"
"242009","132-UY","2018/07/19 18:19:32","新北市新莊區中華路二段150號","121.453253333333","25.0504166666667","6500500","新莊區"
"242011","173-VK","2018/07/19 18:19:25","新北市新莊區中港路591巷17號","121.450333333333","25.0522683333333","6500500","新莊區"
"242021","348-TH","2018/07/19 18:19:31","新北市新莊區中正路170號","121.450706666667","25.0358816666667","6500500","新莊區"
"242002","349-TH","2018/07/19 18:19:40","新北市新莊區大觀街2號","121.454526666667","25.034125","6500500","新莊區"
"242019","350-TH","2018/07/19 18:19:39","新北市新莊區新泰路321巷37號","121.443003333333","25.041175","6500500","新莊區"
"242013","351-TH","2018/07/19 18:19:24","新北市板橋區大觀路三段6-1號","121.435183333333","24.9958316666667","6500500","新莊區"
"238002","755-BX","2018/07/19 18:19:32","新北市樹林區文化街79巷1號","121.416811666667","24.98908","6500700","樹林區"
"238023","601-UM","2018/07/19 18:19:37","新北市樹林區忠義街25號","121.40958","25.0149983333333","6500700","樹林區"
"238019","599-UM","2018/07/19 18:19:30","新北市樹林區中華路190-16號","121.411786666667","24.9806266666667","6500700","樹林區"
"238018","571-TV","2018/07/19 18:19:41","新北市樹林區樹新路19號","121.426968333333","24.994645","6500700","樹林區"
"238024","5061-A6","2018/07/19 18:19:45","新北市樹林區育英街2巷1-1號","121.422858333333","24.9888433333333","6500700","樹林區"
"238025","303-VK","2018/07/19 18:19:42","新北市樹林區保安二街55號","121.424596666667","24.9945533333333","6500700","樹林區"
"238017","283-BY","2018/07/19 18:19:32","新北市樹林區光榮街3巷1號","121.41311","25.0040066666667","6500700","樹林區"
"238020","268-VK","2018/07/19 18:19:25","新北市樹林區三俊街42號","121.41198","25.0154916666667","6500700","樹林區"
"238026","172-UY","2018/07/19 18:19:43","新北市樹林區佳園路一段75巷208號","121.397151666667","24.9703516666667","6500700","樹林區"
"238003","169-UY","2018/07/19 18:19:27","新北市樹林區文化街28號","121.419368333333","24.9876516666667","6500700","樹林區"
"239007","AAC-297","2018/07/19 18:19:43","新北市鶯歌區重慶街69-1號","121.349151666667","24.951865","6500800","鶯歌區"
"239006","891-R6","2018/07/19 18:19:38","新北市鶯歌區鶯桃路179號","121.337965","24.9584416666667","6500800","鶯歌區"
"239008","527-UM","2018/07/19 18:19:29","新北市鶯歌區朝陽街2號","121.336236666667","24.9765633333333","6500800","鶯歌區"
"239005","526-UM","2018/07/19 18:19:28","新北市鶯歌區鶯桃路668巷73號","121.329928333333","24.971805","6500800","鶯歌區"
"239001","417-VK","2018/07/19 18:19:32","新北市鶯歌區中正三路福德巷7號","121.340126666667","24.9411266666667","6500800","鶯歌區"
"239003","360-BY","2018/07/19 18:19:29","新北市鶯歌區福安街58號","121.335645","24.96522","6500800","鶯歌區"
"239002","359-BY","2018/07/19 18:19:37","新北市鶯歌區中山路329巷26弄5號","121.34526","24.9564433333333","6500800","鶯歌區"
"221008","489-VK","2018/07/19 18:19:35","新北市汐止區康寧街706-2號","121.638476666667","25.07309","6501100","汐止區"
"221036","130-UY","2018/07/19 18:19:46","新北市汐止區鄉長路一段297號","121.669436666667","25.07925","6501100","汐止區"
"221015","131-UY","2018/07/19 18:19:27","新北市汐止區鄉長路二段23巷13號","121.6677","25.0826583333333","6501100","汐止區"
"221010","269-BY","2018/07/19 18:19:40","新北市汐止區祥雲街39號","121.647118333333","25.0901233333333","6501100","汐止區"
"221012","278-VK","2018/07/19 18:19:28","新北市汐止區保長路35巷15弄2號","121.67325","25.0801066666667","6501100","汐止區"
"221023","279-VK","2018/07/19 18:19:41","新北市汐止區康寧街474巷18-1號","121.63138","25.067615","6501100","汐止區"
"221032","280-BY","2018/07/19 18:19:30","新北市汐止區力行街2號","121.617135","25.0513816666667","6501100","汐止區"
"221027","281-BY","2018/07/19 18:19:25","新北市汐止區和平街6巷3弄2號","121.663426666667","25.0715433333333","6501100","汐止區"
"221033","297-VK","2018/07/19 18:19:33","新北市汐止區宜興街59巷7號","121.622098333333","25.0427833333333","6501100","汐止區"
"221029","298-VK","2018/07/19 18:19:36","新北市汐止區汐萬路一段256巷3號","121.653336666667","25.074675","6501100","汐止區"
"221021","299-VK","2018/07/19 18:19:27","新北市汐止區大同路二段184巷8號","121.653236666667","25.063835","6501100","汐止區"
"221031","353-TW","2018/07/19 18:19:37","新北市汐止區大同路一段160號","121.633206666667","25.0569983333333","6501100","汐止區"
"221035","622-UM","2018/07/19 18:19:34","新北市汐止區大同路二段187巷43號","121.652435","25.065665","6501100","汐止區"
"221025","623-UM","2018/07/19 18:19:32","新北市汐止區勤進路12巷29號","121.659188333333","25.0624416666667","6501100","汐止區"
"221038","646-BX","2018/07/19 18:19:41","新北市汐止區仁愛路311號","121.664701666667","25.06749","6501100","汐止區"
"221002","707-TV","2018/07/19 18:19:31","新北市汐止區福德一路201巷19號","121.636068333333","25.06492","6501100","汐止區"
"221018","753-BX","2018/07/19 18:19:24","新北市汐止區茄苳路118號","121.668171666667","25.0703216666667","6501100","汐止區"
"242031","281-VK","2018/07/19 18:19:34","新北市新莊區新泰路277巷25號","121.444875","25.0402483333333","6500500","新莊區"
"235068","KEA-2873","2018/07/19 18:19:19","新北市中和區員山路36巷16-3號","121.485108333333","24.9911966666667","6500300","中和區"
"235061","KEA-2875","2018/07/19 18:19:30","新北市中和區國光街215巷51號","121.467295","25.00014","6500300","中和區"
