"lineid","car","time","location","longitude","latitude","cityid","cityname"
"234046","148-BY","2018/07/19 19:29:23","新北市永和區秀朗路二段231號","121.526431666667","25.000245","6500400","永和區"
"234007","207-UY","2018/07/19 19:29:16","新北市永和區永和路二段2號","121.51445","25.0098833333333","6500400","永和區"
"234081","298-R6","2018/07/19 19:29:14","新北市永和區環河東路三段54號","121.526593333333","25.0061016666667","6500400","永和區"
"234038","336-UY","2018/07/19 19:29:10","新北市永和區成功路二段65號","121.527443333333","25.0000833333333","6500400","永和區"
"234064","337-UY","2018/07/19 19:29:14","新北市永和區秀朗路二段24巷13號","121.520571666667","25.002335","6500400","永和區"
"234086","338-UY","2018/07/19 19:29:16","新北市永和區林森路29巷2號","121.526183333333","25.0050683333333","6500400","永和區"
"234070","552-UM","2018/07/19 19:29:16","新北市永和區警光街2號","121.520156666667","25.0096883333333","6500400","永和區"
"234017","745-BX","2018/07/19 19:29:21","新北市永和區環河西路一段63號","121.513408333333","25.0180983333333","6500400","永和區"
"234030","746-BX","2018/07/19 19:29:17","新北市永和區民生路49號","121.522726666667","24.9978566666667","6500400","永和區"
"234054","KEA-2590","2018/07/19 19:29:14","新北市永和區復興街19巷2號","121.516135","25.0131933333333","6500400","永和區"
"234013","KEA-2591","2018/07/19 19:29:13","新北市永和區中山路一段147號","121.510155","25.0095683333333","6500400","永和區"
"234061","AAD-866","2018/07/19 19:29:18","新北市永和區中正路526號","121.51725","25.0049583333333","6500400","永和區"
"234067","847-RS","2018/07/19 19:29:21","新北市永和區永貞路335號","121.50963","25.007035","6500400","永和區"
"234042","862-TW","2018/07/19 19:29:15","新北市永和區中和路519巷8號","121.510905","25.0030666666667","6500400","永和區"
"234050","863-TW","2018/07/19 19:29:10","新北市永和區信義路79號","121.51246","25.013375","6500400","永和區"
"234026","9371-KE","2018/07/19 19:29:23","新北市中和區安樂路215號","121.514265","24.9988166666667","6500400","永和區"
"234011","9373-KE","2018/07/19 19:29:14","新北市永和區保福路二段66號","121.510733333333","25.0126216666667","6500400","永和區"
"249002","305-UY","2018/07/19 19:29:18","新北市八里區龍形一街33巷6-2號","121.44933","25.1294966666667","6502300","八里區"
"249003","593-UM","2018/07/19 19:29:25","新北市八里區商港六路23號","121.39665","25.14858","6502300","八里區"
"248014","025-BX","2018/07/19 19:29:19","新北市五股區民義路一段183巷9-3號","121.430045","25.08663","6501500","五股區"
"248008","095-VK","2018/07/19 19:29:24","新北市五股區中興路一段95巷7號","121.46665","25.0725616666667","6501500","五股區"
"248020","225-UY","2018/07/19 19:29:19","新北市五股區凌雲路三段41-2號","121.430241666667","25.11795","6501500","五股區"
"248012","247-BX","2018/07/19 19:29:17","新北市五股區成泰路二段97號","121.438011666667","25.0842666666667","6501500","五股區"
"248004","677-BX","2018/07/19 19:29:17","新北市五股區工商路142號","121.4348","25.0866233333333","6501500","五股區"
"248002","678-BX","2018/07/19 19:29:28","新北市五股區凌雲路一段158巷13號","121.447746666667","25.1035","6501500","五股區"
"248010","682-TV","2018/07/19 19:29:23","新北市五股區水碓一路23號","121.430621666667","25.0713233333333","6501500","五股區"
"234023","9380-KE","2018/07/19 19:29:25","新北市永和區竹林路91巷21弄11號","121.520925","25.0125","6500400","永和區"
"234077","969-R7","2018/07/19 19:29:21","新北市永和區民族街43巷15號","121.519188333333","24.9984183333333","6500400","永和區"
"234074","AAC-211","2018/07/19 19:29:26","新北市永和區永和路二段254號","121.516131666667","25.0148433333333","6500400","永和區"
"234003","AAC-295","2018/07/19 19:29:23","新北市永和區永和路一段120號","121.513983333333","25.0077433333333","6500400","永和區"
"244019","403-UM","2018/07/19 19:29:07","新北市林口區菁湖里70-1號","121.371908333333","25.0920733333333","6501700","林口區"
"243013","AAD-798","2018/07/19 19:29:14","新北市泰山區貴子路36巷24號","121.425728333333","25.04086","6501600","泰山區"
"243009","297-R6","2018/07/19 19:29:09","新北市泰山區半山雅3號","121.431313333333","25.06744","6501600","泰山區"
"243016","380-SR","2018/07/19 19:29:21","新北市泰山區明志路三段191號","121.424258333333","25.0388583333333","6501600","泰山區"
"243015","421-VK","2018/07/19 19:29:24","新北市泰山區明志路二段134號","121.427586666667","25.0510483333333","6501600","泰山區"
"243011","KEA-2215","2018/07/19 19:29:26","新北市泰山區貴子路120號","121.428251666667","25.0406533333333","6501600","泰山區"
"243010","KEA-2216","2018/07/19 19:29:18","新北市泰山區民生路17巷39號","121.429493333333","25.051565","6501600","泰山區"
"243012","646-TV","2018/07/19 19:29:23","新北市泰山區仁愛路18號","121.431298333333","25.05441","6501600","泰山區"
"243014","680-BX","2018/07/19 19:29:15","新北市泰山區仁愛路6巷4弄1號","121.431361666667","25.0536183333333","6501600","泰山區"
"222003","436-BY","2018/07/19 19:29:15","新北市深坑區深南路51-1號","121.621265","25.009725","6501800","深坑區"
"222002","659-BX","2018/07/19 19:29:09","新北市深坑區北深路一段177號","121.632411666667","25.0108583333333","6501800","深坑區"
"231041","002-UM","2018/07/19 19:29:22","新北市新店區中正路616號","121.534031666667","24.9886833333333","6500600","新店區"
"231059","046-UY","2018/07/19 19:29:13","新北市新店區安和路三段23號","121.517921666667","24.98105","6500600","新店區"
"231040","047-UY","2018/07/19 19:29:18","新北市新店區北新路一段293號","121.541243333333","24.967095","6500600","新店區"
"231044","106-UY","2018/07/19 19:29:14","新北市新店區中興路三段173號","121.544245","24.9807","6500600","新店區"
"231046","107-UY","2018/07/19 19:29:21","新北市新店區光明街127號","121.5392","24.9619016666667","6500600","新店區"
"231047","187-VK","2018/07/19 19:29:27","新北市新店區五峰路149號","121.544956666667","24.965665","6500600","新店區"
"231054","KEA-2219","2018/07/19 19:29:16","新北市新店區文中路40號","121.539571666667","24.9565566666667","6500600","新店區"
"231057","256-BX","2018/07/19 19:29:25","新北市新店區花園一路二段21號","121.551075","24.9327783333333","6500600","新店區"
"231042","268-BY","2018/07/19 19:29:27","新北市新店區北宜路一段3號","121.538476666667","24.9583866666667","6500600","新店區"
"231051","278-BY","2018/07/19 19:29:14","新北市新店區中央五街60號","121.527731666667","24.9754","6500600","新店區"
"231050","AAD-862","2018/07/19 19:29:15","新北市新店區竹林路157-1號","121.556388333333","24.9479533333333","6500600","新店區"
"231043","355-BY","2018/07/19 19:29:21","新北市新店區北新路二段226號","121.542803333333","24.97726","6500600","新店區"
"231058","3713-VJ","2018/07/19 19:29:10","新北市新店區寶橋路85巷5弄3號","121.545816666667","24.9758316666667","6500600","新店區"
"231066","4716-K9","2018/07/19 19:29:11","新北市新店區安康路三段355巷23號","121.484898333333","24.9501383333333","6500600","新店區"
"231067","4772-VM","2018/07/19 19:29:07","新北市新店區安康路一段197號","121.526403333333","24.9628633333333","6500600","新店區"
"231065","512-UM","2018/07/19 19:29:23","新北市新店區安祥路109巷1弄91號","121.478768333333","24.9602716666667","6500600","新店區"
"231049","513-UM","2018/07/19 19:29:28","新北市新店區北新路三段65巷12弄1號","121.540866666667","24.9812333333333","6500600","新店區"
"231063","616-UM","2018/07/19 19:29:09","新北市新店區達觀路16-7號","121.502213333333","24.9408383333333","6500600","新店區"
"231045","617-UM","2018/07/19 19:29:17","新北市新店區北宜路二段209號","121.553196666667","24.95325","6500600","新店區"
"231061","619-UM","2018/07/19 19:29:17","新北市新店區安康路一段275-2號","121.523875","24.9634466666667","6500600","新店區"
"231064","719-UM","2018/07/19 19:29:12","新北市新店區安康路二段85巷13號","121.513803333333","24.9621616666667","6500600","新店區"
"231052","719-UY","2018/07/19 19:29:20","新北市新店區新烏路二段202號","121.547546666667","24.9165266666667","6500600","新店區"
"231062","720-UM","2018/07/19 19:29:15","新北市新店區安康路一段67號","121.53029","24.961055","6500600","新店區"
"231060","897-TW","2018/07/19 19:29:22","新北市新店區安康路二段51號","121.514341666667","24.9634283333333","6500600","新店區"
"231055","AKT-0513","2018/07/19 19:29:19","新北市新店區環河路121號","121.529316666667","24.97176","6500600","新店區"
"241028","022-UY","2018/07/19 19:29:15","新北市三重區中寮街70號","121.493066666667","25.0582883333333","6500200","三重區"
"241008","059-VK","2018/07/19 19:29:11","新北市三重區永福街135巷32弄7號","121.476996666667","25.0771333333333","6500200","三重區"
"241022","060-VK","2018/07/19 19:29:25","新北市三重區三民街155巷2號","121.48399","25.0644516666667","6500200","三重區"
"241031","061-VK","2018/07/19 19:29:08","新北市三重區集美街61號","121.488435","25.0543616666667","6500200","三重區"
"241017","063-VK","2018/07/19 19:29:13","新北市三重區大智街41號","121.493663333333","25.0660816666667","6500200","三重區"
"241026","066-VK","2018/07/19 19:29:17","新北市三重區文化南路47巷6號","121.49969","25.06124","6500200","三重區"
"241005","265-UM","2018/07/19 19:24:26","新北市三重區仁華街146-1號","121.487475","25.0830833333333","6500200","三重區"
"241009","267-UM","2018/07/19 19:29:11","新北市三重區溪尾街242巷70號","121.486128333333","25.0813916666667","6500200","三重區"
"241032","269-UM","2018/07/19 19:29:12","新北市三重區三陽路42號","121.485046666667","25.0586716666667","6500200","三重區"
"241013","270-UM","2018/07/19 19:29:14","新北市三重區仁愛街106號","121.495313333333","25.0743133333333","6500200","三重區"
"241025","271-UM","2018/07/19 19:29:25","新北市三重區頂崁街210巷28弄3號","121.475811666667","25.067675","6500200","三重區"
"241007","413-TH","2018/07/19 19:29:21","新北市三重區溪尾街124-1號","121.489438333333","25.0793366666667","6500200","三重區"
"241035","462-BY","2018/07/19 19:29:22","新北市三重區信義西街1巷3號","121.498028333333","25.0650416666667","6500200","三重區"
"241020","478-VK","2018/07/19 19:29:24","新北市三重區大智街175號","121.489778333333","25.0726466666667","6500200","三重區"
"241030","480-VK","2018/07/19 19:29:13","新北市三重區成功路41巷10號","121.490273333333","25.0515583333333","6500200","三重區"
"241006","AAD-863","2018/07/19 19:29:25","新北市三重區自強路三段73號","121.486905","25.0735933333333","6500200","三重區"
"241029","942-UM","2018/07/19 19:29:12","新北市三重區中正南路216號","121.493831666667","25.0551216666667","6500200","三重區"
"235066","003-UY","2018/07/19 19:29:25","新北市中和區景新街48號","121.503896666667","24.9991016666667","6500300","中和區"
"235063","006-UY","2018/07/19 19:29:12","新北市中和區連城路164號","121.494063333333","24.9977166666667","6500300","中和區"
"235056","096-UM","2018/07/19 19:29:20","新北市中和區民富街9號","121.476515","25.0072616666667","6500300","中和區"
"235039","097-UM","2018/07/19 19:29:13","新北市中和區秀峰街103巷8弄2號","121.520206666667","24.989585","6500300","中和區"
"235065","098-UM","2018/07/19 19:29:21","新北市中和區中山路二段2巷5弄17號","121.504168333333","25.0059133333333","6500300","中和區"
"235040","150-BY","2018/07/19 19:29:15","新北市中和區保健路46巷20弄8號","121.508738333333","24.99637","6500300","中和區"
"235058","151-BY","2018/07/19 19:29:22","新北市中和區連城路467-5號","121.483591666667","24.9960566666667","6500300","中和區"
"235055","183-VK","2018/07/19 19:29:14","新北市中和區莒光路120巷58號","121.471655","25.000765","6500300","中和區"
"235038","185-VK","2018/07/19 19:29:21","新北市中和區立人街13號","121.521571666667","24.99404","6500300","中和區"
"235049","186-VK","2018/07/19 19:29:12","新北市中和區景新街285巷6號","121.510118333333","24.9934366666667","6500300","中和區"
"235067","255-BX","2018/07/19 19:29:23","新北市中和區連城路475號","121.48325","24.995815","6500300","中和區"
"235044","293-VK","2018/07/19 19:29:26","新北市中和區南山路160號","121.504403333333","24.9918183333333","6500300","中和區"
"235072","301-VK","2018/07/19 19:29:09","新北市中和區連城路263號","121.491656666667","24.9963816666667","6500300","中和區"
"235043","352-BY","2018/07/19 19:29:07","新北市中和區南山路187號","121.5028","24.9949366666667","6500300","中和區"
"235042","KEA-2878","2018/07/19 19:29:15","新北市中和區中和路350巷8弄1號","121.510581666667","25.00037","6500300","中和區"
"235050","4979-A6","2018/07/19 19:29:11","新北市中和區中正路458號","121.490653333333","24.99416","6500300","中和區"
"235070","558-UM","2018/07/19 19:29:25","新北市中和區圓通路54號","121.500648333333","24.9974983333333","6500300","中和區"
"235045","565-BX","2018/07/19 19:29:06","新北市中和區景新街399巷8號","121.513011666667","24.98985","6500300","中和區"
"235054","640-BX","2018/07/19 19:29:19","新北市中和區國光街112巷22弄16號","121.47037","25.0023666666667","6500300","中和區"
"235060","647-TV","2018/07/19 19:29:11","新北市中和區員山路294巷21號","121.48235","25.00262","6500300","中和區"
"235047","732-UM","2018/07/19 19:29:22","新北市中和區景平路241巷66號","121.507701666667","24.9922483333333","6500300","中和區"
"235046","733-UM","2018/07/19 19:29:11","新北市中和區忠孝街37巷2號","121.511071666667","24.9836916666667","6500300","中和區"
"235071","783-BX","2018/07/19 19:29:25","新北市中和區中正路637巷18弄4號","121.484371666667","24.9951033333333","6500300","中和區"
"235041","802-TS","2018/07/19 19:29:23","新北市中和區中安街76號","121.512275","25.001945","6500300","中和區"
"235052","805-TS","2018/07/19 19:29:12","新北市中和區華新街143巷67弄2號","121.506946666667","24.978745","6500300","中和區"
"235048","896-TW","2018/07/19 19:29:12","新北市中和區四維街7號","121.51356","24.9872966666667","6500300","中和區"
"235053","900-TW","2018/07/19 19:29:19","新北市中和區華順街2巷2號","121.46756","24.9988616666667","6500300","中和區"
"235057","911-UM","2018/07/19 19:29:28","新北市中和區員山路427號","121.480763333333","25.003505","6500300","中和區"
"235051","157-BY","2018/07/19 19:29:19","新北市中和區景新街130號","121.505223333333","24.9980166666667","6500300","中和區"
"235037","AAC-213","2018/07/19 19:29:24","新北市中和區秀朗路三段10巷14弄18號","121.524928333333","24.9965866666667","6500300","中和區"
"235059","AAC-215","2018/07/19 19:29:26","新北市中和區圓通路252巷6號","121.492976666667","24.99174","6500300","中和區"
"220065","072-UY","2018/07/19 19:29:22","新北市板橋區國泰街75巷28弄52號","121.467716666667","25.0048283333333","6500100","板橋區"
"220086","073-UY","2018/07/19 19:29:15","新北市板橋區中正路236巷8號","121.456138333333","25.01904","6500100","板橋區"
"220069","AAD-861","2018/07/19 19:29:22","新北市板橋區華興街31巷20號","121.458191666667","25.00384","6500100","板橋區"
"220106","120-SR","2018/07/19 19:29:16","新北市板橋區文化路二段417巷1號","121.473716666667","25.0334083333333","6500100","板橋區"
"226004","312-R5","2018/07/19 19:29:10","新北市平溪區靜安路三段388號","121.781278333333","25.04802","6502400","平溪區"
"235064","251-BX","2018/07/19 19:29:11","新北市中和區連城路45號","121.49818","25.0016983333333","6500300","中和區"
"228003","097-TW","2018/07/19 19:29:26","新北市貢寮區和美里和美街22-1號","121.912801666667","25.08263","6502600","貢寮區"
"228001","212-TW","2018/07/19 19:29:19","新北市貢寮區真理里延平街68號","121.925383333333","25.0574266666667","6502600","貢寮區"
"228002","663-BX","2018/07/19 19:29:22","新北市貢寮區龍門里龍門街78號","121.93111","25.0268383333333","6502600","貢寮區"
"224010","AGQ-8101","2018/07/19 19:29:09","新北市瑞芳區基山街127號","121.84407","25.10851","6501200","瑞芳區"
"224002","639-TC","2018/07/19 19:29:15","新北市瑞芳區中山路245號","121.799836666667","25.1072433333333","6501200","瑞芳區"
"227010","642-TC","2018/07/19 19:29:14","新北市雙溪區新基里新基北街43號","121.868175","25.0397283333333","6502500","雙溪區"
"227004","400-TW","2018/07/19 19:29:19","新北市雙溪區雙溪里光復街14號","121.865088333333","25.0354283333333","6502500","雙溪區"
"253005","032-BX","2018/07/19 19:29:25","新北市石門區小坑9號","121.594376666667","25.2886316666667","6502200","石門區"
"253006","295-VK","2018/07/19 19:29:25","新北市石門區中央路42號","121.568058333333","25.2927966666667","6502200","石門區"
"222001","KEA-2212","2018/07/19 19:29:14","新北市深坑區深坑街10號","121.615896666667","25.0028066666667","6501800","深坑區"
"208002","KEA-2872","2018/07/19 19:29:24","新北市金山區中華路131號","121.633151666667","25.22087","6502700","金山區"
"208003","665-BX","2018/07/19 19:29:26","新北市金山區忠孝一路50號","121.637705","25.22019","6502700","金山區"
"208001","761-BX","2018/07/19 19:29:14","新北市金山區金包里街156號","121.637403333333","25.2226316666667","6502700","金山區"
"251009","008-UM","2018/07/19 19:29:13","新北市淡水區大忠街5巷8號","121.443355","25.1765116666667","6501000","淡水區"
"251013","KEA-2871","2018/07/19 19:29:11","新北市淡水區安子內20號","121.474055","25.2184316666667","6501000","淡水區"
"251016","179-VK","2018/07/19 19:29:18","新北市淡水區下圭柔山119-51號","121.450678333333","25.20854","6501000","淡水區"
"251014","180-VK","2018/07/19 19:29:17","新北市淡水區小中寮19-7號","121.484755","25.22958","6501000","淡水區"
"251015","181-VK","2018/07/19 19:29:13","新北市淡水區山子頂24-1號","121.491445","25.18733","6501000","淡水區"
"251010","413-VK","2018/07/19 19:29:23","新北市淡水區中正路二段136-2號","121.421208333333","25.1872466666667","6501000","淡水區"
"251012","441-VK","2018/07/19 19:29:25","新北市淡水區崁頂78-5號","121.429426666667","25.2070533333333","6501000","淡水區"
"251008","442-VK","2018/07/19 19:29:16","新北市淡水區中正路一段49號","121.42439","25.1774883333333","6501000","淡水區"
"251005","443-VK","2018/07/19 19:29:21","新北市淡水區水源街一段53巷12號","121.44421","25.1729216666667","6501000","淡水區"
"251001","559-UM","2018/07/19 19:29:17","新北市淡水區民權路141號","121.46003","25.1364516666667","6501000","淡水區"
"251006","561-UM","2018/07/19 19:29:13","新北市淡水區大義街47號","121.441663333333","25.1783233333333","6501000","淡水區"
"251007","577-R6","2018/07/19 19:29:11","新北市淡水區八勢路30巷19號","121.462555","25.1533916666667","6501000","淡水區"
"251011","650-BX","2018/07/19 19:29:21","新北市淡水區中正東路二段143巷2弄1號","121.460765","25.1473483333333","6501000","淡水區"
"207003","550-UM","2018/07/19 19:29:11","新北市萬里區大鵬里萬里加投191-12號","121.644576666667","25.2143566666667","6502800","萬里區"
"207004","225-TW","2018/07/19 19:29:28","新北市萬里區萬里里瑪鋉路127-8號","121.688908333333","25.1777616666667","6502800","萬里區"
"252002","178-VK","2018/07/19 19:29:24","新北市三芝區淡金路二段18-1號","121.502631666667","25.2595466666667","6502100","三芝區"
"252001","292-VK","2018/07/19 19:29:11","新北市三芝區長勤街63-1號","121.500088333333","25.2561366666667","6502100","三芝區"
"237004","KEA-2597","2018/07/19 19:29:17","新北市三峽區有木206號","121.439133333333","24.8515566666667","6500900","三峽區"
"237007","153-BY","2018/07/19 19:29:10","新北市三峽區二鬮路136巷16弄32號","121.359205","24.9088333333333","6500900","三峽區"
"237009","210-TH","2018/07/19 19:29:12","新北市三峽區民權街49號","121.36967","24.9334333333333","6500900","三峽區"
"237013","252-BX","2018/07/19 19:29:22","新北市三峽區介壽路一段237號","121.379491666667","24.93016","6500900","三峽區"
"237012","275-BY","2018/07/19 19:29:16","新北市三峽區三樹路60號","121.37775","24.9382533333333","6500900","三峽區"
"237008","302-VK","2018/07/19 19:29:27","新北市三峽區光明路106巷95號","121.37436","24.9264316666667","6500900","三峽區"
"237014","433-BY","2018/07/19 19:29:18","新北市三峽區中山路270號","121.361546666667","24.9377233333333","6500900","三峽區"
"237006","5529-G3","2018/07/19 19:29:08","新北市三峽區介壽路一段385-3號","121.388076666667","24.9340383333333","6500900","三峽區"
"237011","KEA-2596","2018/07/19 19:29:23","新北市三峽區介壽路一段588號","121.388926666667","24.9344816666667","6500900","三峽區"
"237016","649-BX","2018/07/19 19:29:09","新北市三峽區安坑46-6號","121.457446666667","24.9321866666667","6500900","三峽區"
"237010","706-TV","2018/07/19 19:29:13","新北市三峽區復興路19號","121.374108333333","24.9362533333333","6500900","三峽區"
"237005","AKY-6261","2018/07/19 19:29:10","新北市三峽區復興路367巷1弄21號","121.364163333333","24.9380016666667","6500900","三峽區"
"236070","105-UM","2018/07/19 19:29:14","新北市土城區學府路一段145號","121.45371","24.9860733333333","6501300","土城區"
"236042","107-UM","2018/07/19 19:29:07","新北市土城區學府路一段239號","121.450481666667","24.983405","6501300","土城區"
"236078","166-UM","2018/07/19 19:29:20","新北市土城區中州路12巷13號","121.41508","24.957475","6501300","土城區"
"236030","253-BX","2018/07/19 19:29:14","新北市土城區中央路一段320號","121.443018333333","24.9817416666667","6501300","土城區"
"236026","269-VK","2018/07/19 19:29:20","新北市土城區中央路二段61巷26號","121.443206666667","24.9785866666667","6501300","土城區"
"236021","401-BY","2018/07/19 19:29:26","新北市土城區金城路三段200-5號","121.468781666667","24.9876283333333","6501300","土城區"
"236059","912-UM","2018/07/19 19:29:15","新北市土城區中央路二段63號","121.442685","24.9789566666667","6501300","土城區"
"236049","913-UM","2018/07/19 19:29:25","新北市土城區清水路205號","121.460198333333","24.981765","6501300","土城區"
"236063","915-UM","2018/07/19 19:29:27","新北市土城區金城路三段202-3號","121.46939","24.98849","6501300","土城區"
"236055","AAC-216","2018/07/19 19:29:10","新北市土城區學府路一段276號","121.450045","24.9832183333333","6501300","土城區"
"242048","172-VK","2018/07/19 19:29:10","新北市新莊區後港一路19號","121.424266666667","25.0261566666667","6500500","新莊區"
"242004","176-VK","2018/07/19 19:29:07","新北市新莊區化成路11巷87號","121.462243333333","25.0434833333333","6500500","新莊區"
"242021","348-TH","2018/07/19 19:29:10","新北市新莊區三和路12-10號","121.442271666667","25.0367783333333","6500500","新莊區"
"242002","349-TH","2018/07/19 19:29:20","新北市新莊區三和路12-20號","121.44185","25.03784","6500500","新莊區"
"242013","351-TH","2018/07/19 19:29:24","新北市新莊區新泰路500號","121.44259","25.0460316666667","6500500","新莊區"
"238002","755-BX","2018/07/19 19:29:25","新北市樹林區復興路196號","121.42003","24.9910383333333","6500700","樹林區"
"238023","601-UM","2018/07/19 19:29:17","新北市樹林區中正路825號","121.409331666667","25.017115","6500700","樹林區"
"238019","599-UM","2018/07/19 19:29:24","新北市樹林區東榮街31號","121.417693333333","24.9832533333333","6500700","樹林區"
"238024","5061-A6","2018/07/19 19:29:18","新北市樹林區中山路三段155巷14弄1號","121.3961","24.9725383333333","6500700","樹林區"
"238022","KEA-2213","2018/07/19 19:29:17","新北市樹林區太順街35號","121.41886","24.9795133333333","6500700","樹林區"
"238021","KEA-2539","2018/07/19 19:29:06","新北市樹林區學成路543號","121.38037","24.9458516666667","6500700","樹林區"
"238025","303-VK","2018/07/19 19:29:22","新北市樹林區中山路一段47號","121.423941666667","24.9923933333333","6500700","樹林區"
"238017","283-BY","2018/07/19 19:29:12","新北市樹林區光興街8號","121.412488333333","25.002885","6500700","樹林區"
"238020","268-VK","2018/07/19 19:29:24","新北市樹林區俊英街83巷1-1號","121.425818333333","25.00794","6500700","樹林區"
"238026","172-UY","2018/07/19 19:29:19","新北市樹林區柑園街一段375號","121.388453333333","24.9557916666667","6500700","樹林區"
"238003","169-UY","2018/07/19 19:29:27","新北市樹林區大安路593號","121.41179","24.9830583333333","6500700","樹林區"
"239007","AAC-297","2018/07/19 19:29:22","新北市鶯歌區大湖路77號","121.342065","24.96282","6500800","鶯歌區"
"239006","891-R6","2018/07/19 19:29:18","新北市鶯歌區永昌街1號","121.343216666667","24.9497583333333","6500800","鶯歌區"
"239005","526-UM","2018/07/19 19:29:08","新北市鶯歌區東湖路36號","121.356568333333","24.97226","6500800","鶯歌區"
"239001","417-VK","2018/07/19 19:29:12","新北市鶯歌區建國路550號","121.338263333333","24.9504066666667","6500800","鶯歌區"
"239003","360-BY","2018/07/19 19:29:09","新北市鶯歌區中山路257號","121.345541666667","24.956965","6500800","鶯歌區"
"239004","193-VK","2018/07/19 19:29:22","新北市鶯歌區中正三路335巷12號","121.328446666667","24.934975","6500800","鶯歌區"
"221008","489-VK","2018/07/19 19:29:15","新北市汐止區康寧街241號","121.62444","25.0668033333333","6501100","汐止區"
"221036","130-UY","2018/07/19 19:29:06","新北市汐止區汐萬路一段312號","121.650671666667","25.07528","6501100","汐止區"
"221015","131-UY","2018/07/19 19:29:27","新北市汐止區康寧街901號","121.651493333333","25.0748183333333","6501100","汐止區"
"221010","269-BY","2018/07/19 19:29:20","新北市汐止區連峰街7號","121.646395","25.077275","6501100","汐止區"
"221012","278-VK","2018/07/19 19:29:21","新北市汐止區大同路三段174號","121.674023333333","25.0750233333333","6501100","汐止區"
"221023","279-VK","2018/07/19 19:29:20","新北市汐止區康寧街753巷1-1號","121.639115","25.073715","6501100","汐止區"
"221027","281-BY","2018/07/19 19:29:25","新北市汐止區忠孝東路9號","121.6583","25.0659216666667","6501100","汐止區"
"221033","297-VK","2018/07/19 19:29:13","新北市汐止區南勢街1巷1號","121.627058333333","25.0374316666667","6501100","汐止區"
"221029","298-VK","2018/07/19 19:29:16","新北市汐止區康寧街901號","121.651598333333","25.0748766666667","6501100","汐止區"
"221021","299-VK","2018/07/19 19:29:07","新北市汐止區康寧街901號","121.651435","25.0750483333333","6501100","汐止區"
"221031","353-TW","2018/07/19 19:29:17","新北市汐止區康寧街901號","121.650875","25.0752583333333","6501100","汐止區"
"221025","623-UM","2018/07/19 19:29:25","新北市汐止區新台五路二段2號","121.660063333333","25.0649366666667","6501100","汐止區"
"221038","646-BX","2018/07/19 19:29:21","新北市汐止區汐萬路一段22號","121.655868333333","25.06779","6501100","汐止區"
"221002","707-TV","2018/07/19 19:29:11","新北市汐止區大同路一段337巷9號","121.638078333333","25.059845","6501100","汐止區"
"220080","200-UY","2018/07/19 19:29:25","新北市板橋區大觀路二段37巷64號","121.44954","25.002255","6500100","板橋區"
"220082","610-BX","2018/07/19 19:29:22","新北市板橋區金門街40號","121.433243333333","24.99352","6500100","板橋區"
"220101","245-BX","2018/07/19 19:29:19","新北市板橋區縣民大道三段127巷25號","121.476886666667","25.0237816666667","6500100","板橋區"
"220056","276-BY","2018/07/19 19:29:10","新北市板橋區國慶路49巷17號","121.459378333333","24.9962066666667","6500100","板橋區"
"220072","277-BY","2018/07/19 19:29:23","新北市板橋區金門街215巷2弄21號","121.43315","24.9887533333333","6500100","板橋區"
"220071","283-VK","2018/07/19 19:29:20","新北市板橋區忠孝路24巷22號","121.460195","25.000995","6500100","板橋區"
"220094","285-UM","2018/07/19 19:29:15","新北市板橋區吳鳳路50巷9號","121.467911666667","25.0305066666667","6500100","板橋區"
"220053","285-VK","2018/07/19 19:29:20","新北市板橋區永豐街106號","121.47602","25.0205983333333","6500100","板橋區"
"220083","286-VK","2018/07/19 19:29:17","新北市板橋區大觀路二段174巷163弄10號","121.441313333333","25.0033333333333","6500100","板橋區"
"220081","287-VK","2018/07/19 19:29:17","新北市板橋區大觀路一段28巷1弄102號","121.451843333333","25.0063466666667","6500100","板橋區"
"220090","288-VK","2018/07/19 19:29:18","新北市板橋區長江路一段106巷18弄7號","121.460038333333","25.0284083333333","6500100","板橋區"
"220061","293-UM","2018/07/19 19:29:19","新北市板橋區中山路二段187號","121.476138333333","25.0171666666667","6500100","板橋區"
"220062","295-UM","2018/07/19 19:29:22","新北市板橋區三民路二段123巷26-3號","121.480406666667","25.0155683333333","6500100","板橋區"
"220084","296-UM","2018/07/19 19:29:23","新北市板橋區滿平街84巷100弄8號","121.426211666667","24.9864316666667","6500100","板橋區"
"242031","281-VK","2018/07/19 19:29:25","新北市新莊區新泰路225巷24號","121.445236666667","25.0390533333333","6500500","新莊區"
"220075","303-R5","2018/07/19 19:29:19","新北市板橋區中正路253巷72號","121.452721666667","25.0171983333333","6500100","板橋區"
"220092","307-R5","2018/07/19 19:29:19","新北市板橋區文化路二段125巷14號","121.469505","25.0268616666667","6500100","板橋區"
"220098","317-R6","2018/07/19 19:29:24","新北市板橋區四維路266巷5弄14號","121.463675","25.02886","6500100","板橋區"
"220064","486-VK","2018/07/19 19:29:21","新北市板橋區中山路一段28號","121.46055","25.00837","6500100","板橋區"
"220088","491-VK","2018/07/19 19:29:21","新北市板橋區文化路二段389號","121.473575","25.0314033333333","6500100","板橋區"
"220035","560-BX","2018/07/19 19:29:16","新北市板橋區中正路399巷30-8號","121.452891666667","25.0230716666667","6500100","板橋區"
"220103","561-BX","2018/07/19 19:29:23","新北市板橋區文化路一段268號","121.467023333333","25.0209983333333","6500100","板橋區"
"220063","609-BX","2018/07/19 19:29:18","新北市板橋區三民路一段31巷87弄13號","121.481421666667","25.0234516666667","6500100","板橋區"
"220079","630-UY","2018/07/19 19:29:07","新北市板橋區民權路202巷17弄7號","121.460408333333","25.016475","6500100","板橋區"
"220091","637-BX","2018/07/19 19:29:19","新北市板橋區文聖街149巷16號","121.479268333333","25.0283083333333","6500100","板橋區"
"220057","686-BX","2018/07/19 19:29:11","新北市板橋區和平路64號","121.461196666667","24.99448","6500100","板橋區"
"220077","687-BX","2018/07/19 19:29:23","新北市板橋區僑中二街102巷1-4號","121.446065","25.00816","6500100","板橋區"
"220093","689-BX","2018/07/19 19:29:14","新北市板橋區新海路186號","121.460715","25.023575","6500100","板橋區"
"220054","741-BX","2018/07/19 19:29:22","新北市中和區德光路120號","121.467961666667","25.0039883333333","6500100","板橋區"
"220102","KEA-2699","2018/07/19 19:29:22","新北市板橋區雙十路二段130巷2弄7號","121.474381666667","25.0291116666667","6500100","板橋區"
"220055","827-TW","2018/07/19 19:29:09","新北市板橋區重慶路290巷22弄19號","121.462245","24.999215","6500100","板橋區"
"220067","829-TW","2018/07/19 19:29:21","新北市板橋區漢生東路313巷2弄38-8號","121.472421666667","25.0078033333333","6500100","板橋區"
"220068","830-TW","2018/07/19 19:29:10","新北市板橋區林森街1巷4號","121.48217","25.024115","6500100","板橋區"
"220096","831-TW","2018/07/19 19:29:24","新北市板橋區大同街35巷33號","121.476491666667","25.027415","6500100","板橋區"
"220089","833-TW","2018/07/19 19:29:21","新北市板橋區文化路一段27-1號","121.459926666667","25.0127366666667","6500100","板橋區"
"220074","895-R6","2018/07/19 19:29:16","新北市板橋區後菜園街4號","121.457721666667","25.0104833333333","6500100","板橋區"
"220073","985-R7","2018/07/19 19:29:22","新北市板橋區國光路29號","121.457048333333","25.01747","6500100","板橋區"
"220097","AAC-210","2018/07/19 19:29:08","新北市板橋區漢生西路151巷1號","121.463138333333","25.0222583333333","6500100","板橋區"
"220070","AAC-253","2018/07/19 19:29:14","新北市板橋區四川路一段64號","121.459586666667","25.0055666666667","6500100","板橋區"
"235068","KEA-2873","2018/07/19 19:29:19","新北市中和區景平路493巷12弄21-4號","121.498841666667","24.9972583333333","6500300","中和區"
"235061","KEA-2875","2018/07/19 19:28:59","新北市中和區員山路251號","121.4813","24.998795","6500300","中和區"
