"lineid","car","time","location","longitude","latitude","cityid","cityname"
"234007","207-UY","2018/07/19 20:19:35","新北市永和區環河西路二段217巷5號","121.501606666667","25.0099616666667","6500400","永和區"
"234081","298-R6","2018/07/19 20:19:34","新北市永和區福和路19巷1弄3號","121.524271666667","25.007855","6500400","永和區"
"234038","336-UY","2018/07/19 20:19:37","新北市永和區成功路一段93巷20弄1號","121.528615","25.0026716666667","6500400","永和區"
"234064","337-UY","2018/07/19 20:19:28","新北市永和區中正路342號","121.517971666667","25.0002533333333","6500400","永和區"
"234086","338-UY","2018/07/19 20:19:36","新北市永和區永和路二段181號","121.515393333333","25.0134083333333","6500400","永和區"
"234070","552-UM","2018/07/19 20:19:27","新北市永和區福和路263巷20號","121.517963333333","25.0065116666667","6500400","永和區"
"234017","745-BX","2018/07/19 20:19:32","新北市永和區仁愛路29號","121.514375","25.013265","6500400","永和區"
"234030","746-BX","2018/07/19 20:19:37","新北市永和區民有街73號","121.518165","24.9956783333333","6500400","永和區"
"234054","KEA-2590","2018/07/19 20:19:35","新北市永和區光復街2巷18號","121.517201666667","25.0165933333333","6500400","永和區"
"234013","KEA-2591","2018/07/19 20:19:33","新北市永和區保生路58號","121.505393333333","25.0088083333333","6500400","永和區"
"234061","AAD-866","2018/07/19 20:19:39","新北市永和區得和路25號","121.515625","25.0004016666667","6500400","永和區"
"234067","847-RS","2018/07/19 20:19:34","新北市永和區保平路236巷1弄16號","121.50843","25.0054416666667","6500400","永和區"
"234042","862-TW","2018/07/19 20:19:35","新北市中和區中安街166號","121.51087","25.0000933333333","6500400","永和區"
"234050","863-TW","2018/07/19 20:19:30","新北市永和區新生路28巷8號","121.508388333333","25.0161016666667","6500400","永和區"
"234026","9371-KE","2018/07/19 20:19:23","新北市永和區保生路55號","121.504528333333","25.0107533333333","6500400","永和區"
"249005","172-UM","2018/07/19 20:19:36","新北市八里區下罟子8-1號","121.385398333333","25.1399866666667","6502300","八里區"
"249001","173-UM","2018/07/19 20:19:29","新北市八里區中華路二段538-1號","121.39899","25.1450483333333","6502300","八里區"
"249004","303-UY","2018/07/19 20:19:30","新北市八里區中山路一段129巷20號","121.413798333333","25.1586283333333","6502300","八里區"
"249002","305-UY","2018/07/19 20:19:38","新北市八里區龍米路一段398-1號","121.451298333333","25.13314","6502300","八里區"
"249003","593-UM","2018/07/19 20:19:25","新北市八里區中山路二段447巷17號","121.39709","25.1453433333333","6502300","八里區"
"248014","025-BX","2018/07/19 20:19:33","新北市八里區荖阡坑路41-3號","121.400176666667","25.1319783333333","6501500","五股區"
"248016","026-BX","2018/07/19 20:19:36","新北市五股區凌雲路一段158巷26號","121.447851666667","25.10369","6501500","五股區"
"248012","247-BX","2018/07/19 20:19:36","新北市五股區民義路一段208號","121.430575","25.08928","6501500","五股區"
"248002","678-BX","2018/07/19 20:19:28","新北市五股區成泰路三段165號","121.445225","25.0918566666667","6501500","五股區"
"248010","682-TV","2018/07/19 20:19:23","新北市泰山區楓江路112巷6號","121.43896","25.0638366666667","6501500","五股區"
"234023","9380-KE","2018/07/19 20:19:25","新北市永和區永和路二段135號","121.515086666667","25.012415","6500400","永和區"
"234074","AAC-211","2018/07/19 20:19:26","新北市永和區竹林路201巷22弄3號","121.522241666667","25.0093016666667","6500400","永和區"
"234003","AAC-295","2018/07/19 20:19:22","新北市永和區大新街12號","121.514945","25.0084183333333","6500400","永和區"
"243013","AAD-798","2018/07/19 20:19:26","新北市泰山區新民路14巷1號","121.426625","25.0446966666667","6501600","泰山區"
"243009","297-R6","2018/07/19 20:19:29","新北市泰山區福泰街22號","121.433096666667","25.0600233333333","6501600","泰山區"
"243016","380-SR","2018/07/19 20:19:21","新北市泰山區明志路三段98號","121.425041666667","25.0411266666667","6501600","泰山區"
"243015","421-VK","2018/07/19 20:19:24","新北市泰山區仁愛路57號","121.432793333333","25.0553383333333","6501600","泰山區"
"243011","KEA-2215","2018/07/19 20:19:26","新北市新莊區壽山路160巷21號","121.41745","25.0318916666667","6501600","泰山區"
"243010","KEA-2216","2018/07/19 20:19:18","新北市泰山區明志路二段254巷16弄8號","121.426343333333","25.048275","6501600","泰山區"
"243012","646-TV","2018/07/19 20:19:34","新北市泰山區楓江路169號","121.440298333333","25.0665016666667","6501600","泰山區"
"243014","680-BX","2018/07/19 20:19:35","新北市泰山區泰林路二段353號","121.428316666667","25.0637866666667","6501600","泰山區"
"222003","436-BY","2018/07/19 20:19:28","新北市深坑區文化街43號","121.617603333333","25.0018783333333","6501800","深坑區"
"222002","659-BX","2018/07/19 20:19:29","新北市深坑區萬福路12號","121.601733333333","25.0080533333333","6501800","深坑區"
"231041","002-UM","2018/07/19 20:19:22","新北市新店區民權路44號","121.540175","24.9830566666667","6500600","新店區"
"231059","046-UY","2018/07/19 20:19:33","新北市新店區安成街39號","121.509728333333","24.9611916666667","6500600","新店區"
"231040","047-UY","2018/07/19 20:19:18","新北市新店區中正路190號","121.540745","24.9723083333333","6500600","新店區"
"231044","106-UY","2018/07/19 20:19:34","新北市新店區北新路三段89號","121.54157","24.9816966666667","6500600","新店區"
"231047","187-VK","2018/07/19 20:19:27","新北市新店區中興路二段252號","121.547463333333","24.97591","6500600","新店區"
"231054","KEA-2219","2018/07/19 20:19:36","新北市新店區檳榔路109號","121.544485","24.9616383333333","6500600","新店區"
"231057","256-BX","2018/07/19 20:19:31","新北市新店區花園五路二段27號","121.55472","24.9348083333333","6500600","新店區"
"231042","268-BY","2018/07/19 20:19:26","新北市新店區中興路二段186號","121.548111666667","24.97266","6500600","新店區"
"231051","278-BY","2018/07/19 20:19:34","新北市新店區中央六街86號","121.526525","24.976635","6500600","新店區"
"231050","AAD-862","2018/07/19 20:19:35","新北市新店區博愛街6巷1號","121.541063333333","24.9732466666667","6500600","新店區"
"231043","355-BY","2018/07/19 20:19:41","新北市新店區建國路131號","121.539351666667","24.97815","6500600","新店區"
"231058","3713-VJ","2018/07/19 20:19:30","新北市新店區中正路347號","121.535438333333","24.975735","6500600","新店區"
"231066","4716-K9","2018/07/19 20:19:30","新北市新店區安民街121巷12號","121.515275","24.9692666666667","6500600","新店區"
"231056","4715-K9","2018/07/19 20:19:23","新北市新店區中正路328巷42弄14號","121.538565","24.975865","6500600","新店區"
"231067","4772-VM","2018/07/19 20:19:27","新北市新店區安康路一段32號","121.531683333333","24.9610416666667","6500600","新店區"
"231065","512-UM","2018/07/19 20:19:23","新北市新店區安祥路104-10號","121.479138333333","24.9620716666667","6500600","新店區"
"231049","513-UM","2018/07/19 20:19:27","新北市新店區北新路二段35號","121.542608333333","24.9726016666667","6500600","新店區"
"231063","616-UM","2018/07/19 20:19:29","新北市新店區車子路1-1號","121.504731666667","24.95773","6500600","新店區"
"231045","617-UM","2018/07/19 20:19:17","新北市新店區新坡一街85號","121.548946666667","24.9645316666667","6500600","新店區"
"231061","619-UM","2018/07/19 20:19:37","新北市新店區安興路33-1號","121.515816666667","24.97041","6500600","新店區"
"231068","718-UY","2018/07/19 20:19:28","新北市新店區寶安街30號","121.541995","24.9823116666667","6500600","新店區"
"231064","719-UM","2018/07/19 20:19:32","新北市新店區安利街32號","121.519015","24.97478","6500600","新店區"
"231052","719-UY","2018/07/19 20:19:20","新北市新店區新烏路二段397號","121.55113","24.9096583333333","6500600","新店區"
"231062","720-UM","2018/07/19 20:19:24","新北市新店區安泰路7巷16號","121.485688333333","24.9509733333333","6500600","新店區"
"231060","897-TW","2018/07/19 20:19:22","新北市新店區錦秀路3號","121.47928","24.944995","6500600","新店區"
"231055","AKT-0513","2018/07/19 20:19:39","新北市新店區新明街2號","121.541193333333","24.9680083333333","6500600","新店區"
"241011","013-R5","2018/07/19 20:19:30","新北市三重區龍門路148號","121.498506666667","25.0730716666667","6500200","三重區"
"241028","022-UY","2018/07/19 20:19:35","新北市三重區大同南路162號","121.496636666667","25.0575483333333","6500200","三重區"
"241008","059-VK","2018/07/19 20:19:31","新北市三重區永福街211巷17號","121.47933","25.0741533333333","6500200","三重區"
"241022","060-VK","2018/07/19 20:19:37","新北市三重區市前街14號","121.489151666667","25.0623883333333","6500200","三重區"
"241031","061-VK","2018/07/19 20:19:28","新北市三重區三寧街15號","121.489453333333","25.05971","6500200","三重區"
"241015","062-VK","2018/07/19 20:19:33","新北市三重區重新路一段105號","121.500601666667","25.063205","6500200","三重區"
"241017","063-VK","2018/07/19 20:19:33","新北市三重區自強路一段155-1號","121.493466666667","25.0670733333333","6500200","三重區"
"241024","065-VK","2018/07/19 20:19:21","新北市三重區中正北路240號","121.48179","25.0679216666667","6500200","三重區"
"241026","066-VK","2018/07/19 20:19:40","新北市三重區重新路一段52號","121.502718333333","25.0636416666667","6500200","三重區"
"241002","090-VK","2018/07/19 20:19:38","新北市三重區五華街9-1號","121.495076666667","25.0801066666667","6500200","三重區"
"241003","091-VK","2018/07/19 20:19:32","新北市三重區富華街44號","121.490111666667","25.0828566666667","6500200","三重區"
"241005","265-UM","2018/07/19 20:19:24","新北市三重區碧華街251號","121.489423333333","25.083025","6500200","三重區"
"241016","266-UM","2018/07/19 20:19:35","新北市三重區大同北路97-3號","121.494388333333","25.06356","6500200","三重區"
"241009","267-UM","2018/07/19 20:19:36","新北市三重區三和路四段382巷65號","121.480906666667","25.0784583333333","6500200","三重區"
"241018","268-UM","2018/07/19 20:19:29","新北市三重區自強路一段236號","121.4932","25.0670083333333","6500200","三重區"
"241032","269-UM","2018/07/19 20:19:32","新北市三重區捷運路19巷6弄21號","121.484323333333","25.0568333333333","6500200","三重區"
"241013","270-UM","2018/07/19 20:19:34","新北市三重區三和路三段167巷6號","121.492096666667","25.0741783333333","6500200","三重區"
"241025","271-UM","2018/07/19 20:19:25","新北市三重區三民街274號","121.478868333333","25.0680633333333","6500200","三重區"
"241007","413-TH","2018/07/19 20:19:41","新北市三重區仁美街55號","121.486985","25.0781566666667","6500200","三重區"
"241035","462-BY","2018/07/19 20:19:22","新北市三重區文化北路18號","121.499286666667","25.0639666666667","6500200","三重區"
"241004","475-VK","2018/07/19 20:19:22","新北市三重區仁愛街390號","121.490903333333","25.0808666666667","6500200","三重區"
"241020","478-VK","2018/07/19 20:19:23","新北市三重區三和路三段109號","121.49317","25.0729216666667","6500200","三重區"
"241030","480-VK","2018/07/19 20:19:33","新北市三重區集美街89巷31號","121.488221666667","25.0524916666667","6500200","三重區"
"241014","543-UM","2018/07/19 20:19:31","新北市三重區長樂街135巷2號","121.50353","25.06993","6500200","三重區"
"241023","545-UM","2018/07/19 20:19:36","新北市三重區大有街1-1號","121.477666666667","25.0656733333333","6500200","三重區"
"241019","KEA-2593","2018/07/19 20:19:25","新北市三重區忠孝路一段81號","121.490295","25.0721483333333","6500200","三重區"
"241006","AAD-863","2018/07/19 20:19:24","新北市三重區車路頭街139巷14號","121.484321666667","25.0761966666667","6500200","三重區"
"241001","887-TS","2018/07/19 20:19:33","新北市三重區自強路四段3巷30號","121.48969","25.07657","6500200","三重區"
"241012","941-UM","2018/07/19 20:19:26","新北市三重區河邊北街266號","121.501648333333","25.0764733333333","6500200","三重區"
"241029","942-UM","2018/07/19 20:19:32","新北市三重區光明路116號","121.492695","25.0560183333333","6500200","三重區"
"241033","AAC-255","2018/07/19 20:19:39","新北市三重區五谷王北街50巷42號","121.47509","25.0513833333333","6500200","三重區"
"235066","003-UY","2018/07/19 20:19:25","新北市中和區保平路370號","121.50634","25.0036166666667","6500300","中和區"
"235039","097-UM","2018/07/19 20:19:32","新北市中和區大勇街27巷8號","121.517045","24.9938233333333","6500300","中和區"
"235065","098-UM","2018/07/19 20:19:21","新北市中和區橋和路284號","121.496545","25.006775","6500300","中和區"
"247010","KEA-2869","2018/07/19 20:19:34","新北市蘆洲區信義路188巷2弄3號","121.479628333333","25.0842933333333","6501400","蘆洲區"
"235050","4979-A6","2018/07/19 20:19:31","新北市中和區景平路400號","121.509336666667","24.9929666666667","6500300","中和區"
"235069","4980-A6","2018/07/19 20:19:29","新北市中和區圓通路198巷2弄2號","121.496295","24.9947083333333","6500300","中和區"
"235070","558-UM","2018/07/19 20:19:25","新北市三重區光復路二段129巷2號","121.474953333333","25.0594066666667","6500300","中和區"
"235059","AAC-215","2018/07/19 20:19:26","新北市中和區圓通路356-10號","121.485221666667","24.9867783333333","6500300","中和區"
"247024","893-R6","2018/07/19 20:19:21","新北市蘆洲區光榮路120巷8弄41號","121.464553333333","25.087775","6501400","蘆洲區"
"247014","546-UM","2018/07/19 20:19:26","新北市蘆洲區中山二路137巷10號","121.472056666667","25.08128","6501400","蘆洲區"
"247022","500-BY","2018/07/19 20:19:26","新北市蘆洲區民族路451號","121.46744","25.0886416666667","6501400","蘆洲區"
"247012","339-TH","2018/07/19 20:19:28","新北市蘆洲區中興街51號","121.4813","25.08722","6501400","蘆洲區"
"247004","337-TH","2018/07/19 20:19:31","新北市蘆洲區長安街285巷1號","121.458183333333","25.0842616666667","6501400","蘆洲區"
"247006","336-TH","2018/07/19 20:19:31","新北市蘆洲區九芎街140號","121.464935","25.0787566666667","6501400","蘆洲區"
"247018","057-VK","2018/07/19 20:19:35","新北市蘆洲區民族路408巷6號","121.474818333333","25.0917883333333","6501400","蘆洲區"
"247008","056-VK","2018/07/19 20:19:29","新北市蘆洲區集賢路204號","121.4834","25.087385","6501400","蘆洲區"
"247016","007-UY","2018/07/19 20:19:40","新北市蘆洲區中正路185巷53號","121.465485","25.0837966666667","6501400","蘆洲區"
"247002","002-UY","2018/07/19 20:19:25","新北市蘆洲區長安街331巷32號","121.456015","25.0867066666667","6501400","蘆洲區"
"247020","001-UY","2018/07/19 20:19:34","新北市蘆洲區仁愛街47號","121.471926666667","25.093165","6501400","蘆洲區"
"224010","AGQ-8101","2018/07/19 20:19:36","新北市瑞芳區汽車路13-1號","121.845773333333","25.1108216666667","6501200","瑞芳區"
"224002","639-TC","2018/07/19 20:19:35","新北市瑞芳區三爪子坑路64-36號","121.808995","25.1059433333333","6501200","瑞芳區"
"222001","KEA-2212","2018/07/19 20:19:34","新北市深坑區北深路三段257號","121.599111666667","25.004405","6501800","深坑區"
"251004","009-UM","2018/07/19 20:19:31","新北市淡水區竹林路161號","121.463198333333","25.1418233333333","6501000","淡水區"
"251013","KEA-2871","2018/07/19 20:19:31","新北市淡水區相公山1-1號","121.474358333333","25.20665","6501000","淡水區"
"251016","179-VK","2018/07/19 20:19:38","新北市淡水區淡金路四段660號","121.452523333333","25.232015","6501000","淡水區"
"251014","180-VK","2018/07/19 20:19:36","新北市淡水區石頭厝1號","121.458713333333","25.2355416666667","6501000","淡水區"
"251015","181-VK","2018/07/19 20:19:32","新北市淡水區淡金路二段600號","121.446595","25.1928816666667","6501000","淡水區"
"251010","413-VK","2018/07/19 20:19:35","新北市淡水區中正路二段301號","121.426151666667","25.1903066666667","6501000","淡水區"
"251012","441-VK","2018/07/19 20:19:24","新北市淡水區下圭柔山431-1號","121.449848333333","25.2102466666667","6501000","淡水區"
"251008","442-VK","2018/07/19 20:19:36","新北市淡水區沙崙路131巷11號","121.42195","25.183015","6501000","淡水區"
"251001","559-UM","2018/07/19 20:19:37","新北市淡水區新市二路四段265號","121.44573","25.1924883333333","6501000","淡水區"
"251006","561-UM","2018/07/19 20:19:33","新北市淡水區北新路169巷2號","121.450291666667","25.179375","6501000","淡水區"
"251007","577-R6","2018/07/19 20:19:31","新北市淡水區淡金路一段69號","121.458183333333","25.17348","6501000","淡水區"
"251002","672-BX","2018/07/19 20:19:32","新北市淡水區中正路129號","121.439311666667","25.1703816666667","6501000","淡水區"
"251003","766-UM","2018/07/19 20:19:24","新北市淡水區中山北路一段229號","121.444486666667","25.1794533333333","6501000","淡水區"
"207004","225-TW","2018/07/19 20:19:28","新北市萬里區北基里仁三街2號","121.682306666667","25.17552","6502800","萬里區"
"252002","178-VK","2018/07/19 20:19:24","新北市三芝區中正路一段23號","121.502933333333","25.258595","6502100","三芝區"
"252001","292-VK","2018/07/19 20:19:31","新北市三芝區中山路一段14號","121.500716666667","25.2579983333333","6502100","三芝區"
"237008","302-VK","2018/07/19 20:19:27","新北市三峽區中正路一段174巷9號","121.37185","24.9288583333333","6500900","三峽區"
"237006","5529-G3","2018/07/19 20:19:28","新北市三峽區中正路二段66號","121.366686666667","24.9185233333333","6500900","三峽區"
"237016","649-BX","2018/07/19 20:19:28","新北市三峽區介壽路二段138巷16號","121.39575","24.9348616666667","6500900","三峽區"
"237005","AKY-6261","2018/07/19 20:19:30","新北市三峽區三樹路98巷93號","121.381996666667","24.939905","6500900","三峽區"
"236070","105-UM","2018/07/19 20:19:34","新北市土城區中山路34號","121.424743333333","24.96375","6501300","土城區"
"236078","166-UM","2018/07/19 20:19:20","新北市土城區德安街20-1號","121.42154","24.964375","6501300","土城區"
"236030","253-BX","2018/07/19 20:19:34","新北市土城區學成路128巷11號","121.449533333333","24.99007","6501300","土城區"
"236026","269-VK","2018/07/19 20:19:40","新北市土城區中央路一段249巷10弄1號","121.445723333333","24.9853966666667","6501300","土城區"
"236014","270-VK","2018/07/19 20:19:33","新北市土城區廣明街90巷29號","121.455653333333","24.9947433333333","6501300","土城區"
"236021","401-BY","2018/07/19 20:19:26","新北市土城區金城路一段112號","121.447075","24.9758566666667","6501300","土城區"
"236059","912-UM","2018/07/19 20:19:35","新北市土城區大安路101-5號","121.433476666667","24.96859","6501300","土城區"
"242034","AAC-296","2018/07/19 20:19:27","新北市新莊區建中街141-3號","121.44458","25.0364233333333","6500500","新莊區"
"242058","986-R7","2018/07/19 20:19:29","新北市新莊區八德街165號","121.423363333333","25.019195","6500500","新莊區"
"242053","751-BX","2018/07/19 20:19:32","新北市新莊區民安西路263號","121.426181666667","25.0131066666667","6500500","新莊區"
"242027","705-TV","2018/07/19 20:19:28","新北市新莊區幸福路558號","121.454665","25.04943","6500500","新莊區"
"242025","613-BX","2018/07/19 19:54:14","新北市新莊區五工路68巷17號","121.458635","25.0644183333333","6500500","新莊區"
"242029","612-BX","2018/07/19 20:19:33","新北市新莊區中華路二段190號","121.453043333333","25.051595","6500500","新莊區"
"242042","566-BX","2018/07/19 20:19:33","新北市新莊區壽山路75號","121.409528333333","25.0327466666667","6500500","新莊區"
"242046","497-BY","2018/07/19 20:19:41","新北市新莊區中正路新生巷15號","121.416871666667","25.0239116666667","6500500","新莊區"
"242017","442-UM","2018/07/19 20:19:29","新北市新莊區中港二街98號","121.449136666667","25.0458033333333","6500500","新莊區"
"242051","441-UM","2018/07/19 20:19:27","新北市新莊區民安西路212巷3弄1號","121.42529","25.014875","6500500","新莊區"
"242056","440-UM","2018/07/19 20:19:20","新北市新莊區新莊路649巷7號","121.445093333333","25.03229","6500500","新莊區"
"242036","415-TV","2018/07/19 20:19:20","新北市新莊區建安街76巷5弄1號","121.426096666667","25.0251383333333","6500500","新莊區"
"242007","413-TV","2018/07/19 20:19:27","新北市新莊區福壽街124巷41弄2號","121.459376666667","25.0513283333333","6500500","新莊區"
"242044","400-BY","2018/07/19 20:19:28","新北市新莊區中正路新建巷28弄2號","121.414178333333","25.0218","6500500","新莊區"
"242023","362-BY","2018/07/19 20:19:37","新北市新莊區化成路844號","121.464848333333","25.060425","6500500","新莊區"
"242061","353-BY","2018/07/19 20:19:29","新北市新莊區新樹路208號","121.433995","25.0205433333333","6500500","新莊區"
"242009","132-UY","2018/07/19 20:19:31","新北市新莊區昌平街7號","121.454853333333","25.0516716666667","6500500","新莊區"
"242039","133-UY","2018/07/19 20:19:33","新北市新莊區龍安路439號","121.42421","25.01867","6500500","新莊區"
"242048","172-VK","2018/07/19 20:19:30","新北市新莊區萬安街149巷23弄1號","121.421345","25.0211933333333","6500500","新莊區"
"242011","173-VK","2018/07/19 20:19:32","新北市新莊區幸福路670巷14弄7號","121.45125","25.0503533333333","6500500","新莊區"
"242004","176-VK","2018/07/19 20:19:27","新北市新莊區頭前路60-5號","121.466665","25.05268","6500500","新莊區"
"242015","346-TH","2018/07/19 20:19:26","新北市新莊區永樂街243號","121.445971666667","25.0443566666667","6500500","新莊區"
"242021","348-TH","2018/07/19 20:19:39","新北市新莊區和興街41號","121.446825","25.0403466666667","6500500","新莊區"
"242002","349-TH","2018/07/19 20:19:20","新北市新莊區中正路32號","121.465033333333","25.0417183333333","6500500","新莊區"
"242019","350-TH","2018/07/19 20:19:27","新北市新莊區復興路二段94號","121.456075","25.04419","6500500","新莊區"
"242013","351-TH","2018/07/19 20:19:33","新北市新莊區中和街186巷1號","121.447615","25.0497933333333","6500500","新莊區"
"239006","891-R6","2018/07/19 20:19:38","新北市鶯歌區二甲路12-2號","121.345651666667","24.9348483333333","6500800","鶯歌區"
"221008","489-VK","2018/07/19 20:19:35","台北市內湖區康樂街12號","121.617785","25.06793","6501100","汐止區"
"221036","130-UY","2018/07/19 20:19:26","新北市汐止區仁愛路152巷31號","121.664901666667","25.063785","6501100","汐止區"
"221015","131-UY","2018/07/19 20:19:27","新北市汐止區建成路160巷16號","121.66186","25.0740316666667","6501100","汐止區"
"221010","269-BY","2018/07/19 20:19:33","新北市汐止區八連路二段428-1號","121.628721666667","25.1031283333333","6501100","汐止區"
"221012","278-VK","2018/07/19 20:19:28","新北市汐止區保新街267號","121.690998333333","25.0681883333333","6501100","汐止區"
"221023","279-VK","2018/07/19 20:19:20","新北市汐止區明峰街86號","121.6313","25.071195","6501100","汐止區"
"221032","280-BY","2018/07/19 20:19:30","新北市汐止區民權街二段30號","121.619448333333","25.0497866666667","6501100","汐止區"
"221027","281-BY","2018/07/19 20:19:38","新北市汐止區水源路一段3號","121.657201666667","25.0672116666667","6501100","汐止區"
"221033","297-VK","2018/07/19 20:19:33","新北市汐止區東勢街201巷32號","121.635056666667","25.0434566666667","6501100","汐止區"
"221029","298-VK","2018/07/19 20:19:36","新北市汐止區工建路90號","121.639656666667","25.063365","6501100","汐止區"
"221021","299-VK","2018/07/19 20:19:27","新北市汐止區水源路一段284號","121.654223333333","25.0582783333333","6501100","汐止區"
"221031","353-TW","2018/07/19 20:19:37","新北市汐止區中興路150巷13號","121.633048333333","25.0650333333333","6501100","汐止區"
"221035","622-UM","2018/07/19 20:19:33","新北市汐止區長江街101-5號","121.658725","25.073195","6501100","汐止區"
"221025","623-UM","2018/07/19 20:19:32","新北市汐止區水源路二段34號","121.65504","25.05724","6501100","汐止區"
"221038","646-BX","2018/07/19 20:19:21","新北市汐止區忠孝東路478號","121.666363333333","25.073675","6501100","汐止區"
"221002","707-TV","2018/07/19 20:19:32","新北市汐止區福德三路75號","121.636341666667","25.0691066666667","6501100","汐止區"
"221018","753-BX","2018/07/19 20:19:24","新北市汐止區茄安路14號","121.67312","25.0678016666667","6501100","汐止區"
"220101","245-BX","2018/07/19 20:19:39","新北市板橋區莊敬路56號","121.4729","25.0268533333333","6500100","板橋區"
"220083","286-VK","2018/07/19 20:19:37","新北市板橋區僑中二街102巷12號","121.445643333333","25.0085033333333","6500100","板橋區"
"220081","287-VK","2018/07/19 20:19:37","新北市板橋區僑中一街80巷5弄20號","121.44684","25.0126366666667","6500100","板橋區"
"220061","293-UM","2018/07/19 20:19:39","新北市板橋區四川路一段274巷11號","121.457786666667","25.0013633333333","6500100","板橋區"
"242031","281-VK","2018/07/19 20:19:25","新北市新莊區三和路76-5號","121.437713333333","25.0409433333333","6500500","新莊區"
"220092","307-R5","2018/07/19 20:19:31","新北市板橋區民權路101巷2號","121.459283333333","25.013255","6500100","板橋區"
"220088","491-VK","2018/07/19 20:19:37","新北市三重區光復路二段198-1號","121.470105","25.06334","6500100","板橋區"
"220103","561-BX","2018/07/19 20:19:23","新北市板橋區新海路134號","121.460935","25.02314","6500100","板橋區"
"220102","KEA-2699","2018/07/19 20:19:22","新北市板橋區漢生東路83巷8號","121.46735","25.0159783333333","6500100","板橋區"
"220055","827-TW","2018/07/19 20:19:29","新北市板橋區仁愛路21號","121.458856666667","24.9994333333333","6500100","板橋區"
"220089","833-TW","2018/07/19 20:19:21","新北市板橋區四維路137巷17號","121.464288333333","25.024925","6500100","板橋區"
"220070","AAC-253","2018/07/19 20:19:34","新北市板橋區四川路二段245巷16-2號","121.451078333333","24.99301","6500100","板橋區"
"235068","KEA-2873","2018/07/19 20:19:19","新北市中和區福美路262號","121.498156666667","25.00512","6500300","中和區"
