"lineid","car","time","location","longitude","latitude","cityid","cityname"
"234030","746-BX","2018/07/19 20:49:34","新北市五股區孝義路9-18號","121.449481666667","25.1069283333333","6500400","永和區"
"234023","9380-KE","2018/07/19 20:49:25","新北市永和區竹林路23號","121.517275","25.0146766666667","6500400","永和區"
"234074","AAC-211","2018/07/19 20:49:33","新北市永和區環河東路二段26號","121.522485","25.0128116666667","6500400","永和區"
"222003","436-BY","2018/07/19 20:49:28","新北市深坑區文山路三段48-1號","121.60994","24.99854","6501800","深坑區"
"222002","659-BX","2018/07/19 20:49:29","新北市深坑區北深路三段93巷51號","121.60426","25.0005083333333","6501800","深坑區"
"231059","046-UY","2018/07/19 20:49:32","新北市新店區僑信路120巷21號","121.499486666667","24.9457666666667","6500600","新店區"
"231040","047-UY","2018/07/19 20:49:38","新北市新店區中正路272號","121.539001666667","24.9737133333333","6500600","新店區"
"231044","106-UY","2018/07/19 20:49:34","新北市新店區中正路429號","121.534121666667","24.9781766666667","6500600","新店區"
"231047","187-VK","2018/07/19 20:49:27","新北市新店區寶元路二段1巷2號","121.550726666667","24.98405","6500600","新店區"
"231054","KEA-2219","2018/07/19 20:49:36","新北市新店區中正路75巷71號","121.543076666667","24.9688333333333","6500600","新店區"
"231057","256-BX","2018/07/19 20:49:31","新北市新店區永興路41號","121.543728333333","24.9383766666667","6500600","新店區"
"231042","268-BY","2018/07/19 20:49:26","新北市新店區寶高路120巷1號","121.554563333333","24.9760433333333","6500600","新店區"
"231051","278-BY","2018/07/19 20:49:34","新北市新店區民生路156巷47號","121.52795","24.9815416666667","6500600","新店區"
"231050","AAD-862","2018/07/19 20:49:35","新北市新店區三民路43號","121.537125","24.97086","6500600","新店區"
"231043","355-BY","2018/07/19 20:49:41","新北市新店區建國路62號","121.540638333333","24.9758233333333","6500600","新店區"
"231058","3713-VJ","2018/07/19 20:49:30","新北市新店區中央路133巷27弄41號","121.532451666667","24.974395","6500600","新店區"
"231066","4716-K9","2018/07/19 20:49:30","新北市新店區安興路56號","121.516655","24.9743366666667","6500600","新店區"
"231056","4715-K9","2018/07/19 20:49:23","新北市新店區柴埕路116號","121.505248333333","24.96008","6500600","新店區"
"231067","4772-VM","2018/07/19 20:49:27","新北市新店區安華路28-1號","121.519718333333","24.9608366666667","6500600","新店區"
"231065","512-UM","2018/07/19 20:49:23","新北市新店區安祥路104巷11弄15號","121.480891666667","24.9632833333333","6500600","新店區"
"231049","513-UM","2018/07/19 20:49:27","新北市新店區永業路96-1號","121.530001666667","24.9511116666667","6500600","新店區"
"231063","616-UM","2018/07/19 20:49:29","新北市新店區如意街11號","121.4951","24.9483783333333","6500600","新店區"
"231045","617-UM","2018/07/19 20:49:37","新北市新店區力行路11巷57號","121.53852","24.9617166666667","6500600","新店區"
"231061","619-UM","2018/07/19 20:49:37","新北市新店區新和街77號","121.520576666667","24.98611","6500600","新店區"
"231068","718-UY","2018/07/19 20:49:28","新北市新店區寶元路一段107號","121.545528333333","24.9829116666667","6500600","新店區"
"231064","719-UM","2018/07/19 20:49:32","新北市新店區安民街365巷3號","121.516218333333","24.9756316666667","6500600","新店區"
"231052","719-UY","2018/07/19 20:49:20","新北市新店區永興路102-4號","121.546218333333","24.9302733333333","6500600","新店區"
"231062","720-UM","2018/07/19 20:49:24","新北市新店區和成街19巷43號","121.488373333333","24.945985","6500600","新店區"
"231060","897-TW","2018/07/19 20:49:22","新北市新店區安康路三段758號","121.473273333333","24.9415466666667","6500600","新店區"
"241011","013-R5","2018/07/19 20:49:30","新北市三重區龍濱路251號","121.501546666667","25.072655","6500200","三重區"
"241028","022-UY","2018/07/19 20:49:35","新北市三重區中正南路54號","121.493991666667","25.05986","6500200","三重區"
"241008","059-VK","2018/07/19 20:49:31","新北市三重區永福街72巷11號","121.479411666667","25.0767283333333","6500200","三重區"
"241022","060-VK","2018/07/19 20:49:25","新北市三重區過圳街27-5號","121.488038333333","25.0623833333333","6500200","三重區"
"241031","061-VK","2018/07/19 20:49:28","新北市三重區重陽路一段113巷2弄1號","121.487613333333","25.0599016666667","6500200","三重區"
"241015","062-VK","2018/07/19 20:49:33","新北市三重區三和路二段172號","121.498991666667","25.0686716666667","6500200","三重區"
"241017","063-VK","2018/07/19 20:49:33","新北市三重區民生街9號","121.491788333333","25.0672916666667","6500200","三重區"
"241024","065-VK","2018/07/19 20:49:21","新北市三重區國道路一段58巷20號","121.481241666667","25.072045","6500200","三重區"
"241026","066-VK","2018/07/19 20:49:37","新北市三重區文化南路7號","121.500026666667","25.0623483333333","6500200","三重區"
"241002","090-VK","2018/07/19 20:49:38","新北市三重區仁義街159巷1號","121.497426666667","25.0811633333333","6500200","三重區"
"241005","265-UM","2018/07/19 20:49:24","新北市三重區碧華街454號","121.493283333333","25.086085","6500200","三重區"
"241016","266-UM","2018/07/19 20:49:35","新北市三重區正義北路204號","121.496346666667","25.06729","6500200","三重區"
"241009","267-UM","2018/07/19 20:49:31","新北市三重區三和路四段388-2號","121.482105","25.0791333333333","6500200","三重區"
"241018","268-UM","2018/07/19 20:49:35","新北市三重區正義北路219號","121.495988333333","25.0687116666667","6500200","三重區"
"241032","269-UM","2018/07/19 20:49:37","新北市三重區重陽路一段120巷37號","121.485013333333","25.060255","6500200","三重區"
"241013","270-UM","2018/07/19 20:49:34","新北市三重區仁賢街12-1號","121.495621666667","25.0748783333333","6500200","三重區"
"241025","271-UM","2018/07/19 20:49:25","新北市三重區新北大道一段148號","121.484266666667","25.0618666666667","6500200","三重區"
"241007","413-TH","2018/07/19 20:49:20","新北市三重區慈愛街8號","121.484391666667","25.0784283333333","6500200","三重區"
"241004","475-VK","2018/07/19 20:49:22","新北市三重區分子尾街19號","121.489515","25.0810066666667","6500200","三重區"
"241020","478-VK","2018/07/19 20:49:23","新北市三重區忠孝路一段101號","121.489508333333","25.0721066666667","6500200","三重區"
"241030","480-VK","2018/07/19 20:49:33","新北市三重區昌隆街26號","121.49201","25.05229","6500200","三重區"
"241014","543-UM","2018/07/19 20:49:31","新北市三重區萬全街66號","121.501156666667","25.0701066666667","6500200","三重區"
"241023","545-UM","2018/07/19 20:49:36","新北市三重區忠孝路三段99巷4號","121.48007","25.064245","6500200","三重區"
"241019","KEA-2593","2018/07/19 20:49:25","新北市三重區三張街80號","121.48896","25.0703366666667","6500200","三重區"
"241006","AAD-863","2018/07/19 20:49:25","新北市三重區車路頭街139巷14號","121.48434","25.0761483333333","6500200","三重區"
"241001","887-TS","2018/07/19 20:49:33","新北市三重區自強路三段76巷28弄2號","121.485155","25.0740616666667","6500200","三重區"
"241012","941-UM","2018/07/19 20:49:26","新北市三重區仁信街27號","121.501278333333","25.075545","6500200","三重區"
"241029","942-UM","2018/07/19 20:49:32","新北市三重區重安街14號","121.490323333333","25.058195","6500200","三重區"
"241033","AAC-255","2018/07/19 20:49:39","新北市三重區興德路100號","121.472351666667","25.05319","6500200","三重區"
"247010","KEA-2869","2018/07/19 20:49:33","新北市蘆洲區鷺江街87號","121.476905","25.08364","6501400","蘆洲區"
"235069","4980-A6","2018/07/19 20:49:29","新北市中和區新生街262號","121.483675","24.99729","6500300","中和區"
"247024","893-R6","2018/07/19 20:49:40","新北市蘆洲區長樂路136號","121.462236666667","25.0900633333333","6501400","蘆洲區"
"247022","500-BY","2018/07/19 20:49:26","新北市蘆洲區中正路185巷46弄12號","121.467153333333","25.0852066666667","6501400","蘆洲區"
"247012","339-TH","2018/07/19 20:49:28","新北市蘆洲區中興街56號","121.481913333333","25.087475","6501400","蘆洲區"
"247004","337-TH","2018/07/19 20:49:31","新北市蘆洲區長安街103號","121.461561666667","25.08089","6501400","蘆洲區"
"247006","336-TH","2018/07/19 20:49:31","新北市蘆洲區永安南路二段18號","121.467725","25.0771766666667","6501400","蘆洲區"
"247008","056-VK","2018/07/19 20:49:29","新北市蘆洲區永安北路二段44號","121.482453333333","25.0832916666667","6501400","蘆洲區"
"247016","007-UY","2018/07/19 20:49:33","新北市蘆洲區中正路71號","121.470483333333","25.0827666666667","6501400","蘆洲區"
"247002","002-UY","2018/07/19 20:49:25","新北市蘆洲區光明路1號","121.460083333333","25.0864866666667","6501400","蘆洲區"
"247020","001-UY","2018/07/19 20:49:34","新北市蘆洲區仁愛街75號","121.471446666667","25.0938433333333","6501400","蘆洲區"
"222001","KEA-2212","2018/07/19 20:49:34","新北市深坑區北深路三段137號","121.603915","25.002515","6501800","深坑區"
"251013","KEA-2871","2018/07/19 20:49:31","新北市淡水區行忠路112號","121.452258333333","25.19875","6501000","淡水區"
"251016","179-VK","2018/07/19 20:49:38","新北市淡水區淡金路四段469號","121.45154","25.2238466666667","6501000","淡水區"
"251014","180-VK","2018/07/19 20:49:36","新北市淡水區公埔子32-8號","121.46165","25.2323466666667","6501000","淡水區"
"251015","181-VK","2018/07/19 20:49:32","新北市淡水區淡金路四段542巷17號","121.45266","25.2271083333333","6501000","淡水區"
"251010","413-VK","2018/07/19 20:49:23","新北市淡水區沙崙路126號","121.423393333333","25.1829283333333","6501000","淡水區"
"251012","441-VK","2018/07/19 20:49:24","新北市淡水區淡金路四段514號","121.452085","25.2257533333333","6501000","淡水區"
"251008","442-VK","2018/07/19 20:49:36","新北市淡水區崁頂128號","121.431828333333","25.2043983333333","6501000","淡水區"
"251001","559-UM","2018/07/19 20:49:37","新北市淡水區淡金路一段69號","121.458803333333","25.1731516666667","6501000","淡水區"
"251007","577-R6","2018/07/19 20:49:31","新北市淡水區鄧公路29巷7號","121.451778333333","25.1701533333333","6501000","淡水區"
"251011","650-BX","2018/07/19 20:49:21","新北市淡水區新民街一段13-1號","121.433026666667","25.1845016666667","6501000","淡水區"
"251002","672-BX","2018/07/19 20:49:32","新北市淡水區中正東路6號","121.447008333333","25.1670583333333","6501000","淡水區"
"251003","766-UM","2018/07/19 20:49:24","新北市淡水區中山北路一段207巷52號","121.44242","25.179265","6501000","淡水區"
"242034","AAC-296","2018/07/19 20:49:27","新北市新莊區中正路365號","121.446608333333","25.0347533333333","6500500","新莊區"
"242058","986-R7","2018/07/19 20:49:29","新北市新莊區四維路101號","121.423361666667","25.0236866666667","6500500","新莊區"
"242053","751-BX","2018/07/19 20:47:12","新北市新莊區民安西路191號","121.426098333333","25.01545","6500500","新莊區"
"242027","705-TV","2018/07/19 20:49:28","新北市新莊區環河路636-1號","121.436868333333","25.0105416666667","6500500","新莊區"
"242042","566-BX","2018/07/19 20:49:33","新北市新莊區天祥街42號","121.416951666667","25.0288016666667","6500500","新莊區"
"242051","441-UM","2018/07/19 20:49:27","新北市新莊區民安西路90-2號","121.426968333333","25.0190183333333","6500500","新莊區"
"242036","415-TV","2018/07/19 20:49:40","新北市新莊區中正路455-2號","121.442626666667","25.0339383333333","6500500","新莊區"
"242023","362-BY","2018/07/19 20:49:37","新北市新莊區瓊林路13-9號","121.448258333333","25.0297166666667","6500500","新莊區"
"242009","132-UY","2018/07/19 20:49:31","新北市新莊區幸福路64巷3弄1號","121.45705","25.0499483333333","6500500","新莊區"
"242039","133-UY","2018/07/19 20:49:27","新北市新莊區瓊林北路1號","121.439798333333","25.02272","6500500","新莊區"
"242015","346-TH","2018/07/19 20:49:26","新北市新莊區中港三街78號","121.449566666667","25.0463483333333","6500500","新莊區"
"242002","349-TH","2018/07/19 20:49:35","新北市新莊區中港路五守新村12號","121.454835","25.038565","6500500","新莊區"
"221036","130-UY","2018/07/19 20:49:26","新北市汐止區仁愛路321-1號","121.664468333333","25.0676933333333","6501100","汐止區"
"221015","131-UY","2018/07/19 20:49:27","新北市汐止區大同路二段605號","121.664145","25.070645","6501100","汐止區"
"221027","281-BY","2018/07/19 20:49:25","新北市汐止區汐萬路一段39號","121.6551","25.0691166666667","6501100","汐止區"
"221033","297-VK","2018/07/19 20:49:33","新北市汐止區合順街18巷8弄5號","121.620316666667","25.04192","6501100","汐止區"
"221035","622-UM","2018/07/19 20:49:33","新北市汐止區汐萬路一段312號","121.650645","25.0753166666667","6501100","汐止區"
"221038","646-BX","2018/07/19 20:49:21","新北市汐止區汐萬路一段256巷1號","121.65201","25.0746966666667","6501100","汐止區"
"221002","707-TV","2018/07/19 20:49:32","新北市汐止區福德二路189號","121.63005","25.0649483333333","6501100","汐止區"
"221018","753-BX","2018/07/19 20:49:24","新北市汐止區茄苳路3號","121.664645","25.0707666666667","6501100","汐止區"
"220070","AAC-253","2018/07/19 20:49:34","新北市八里區中山路三段386號","121.3685","25.1358216666667","6500100","板橋區"
