"lineid","car","time","location","longitude","latitude","cityid","cityname"
"232003","290-BY","2018/07/20 06:49:44","新北市坪林區北宜路八段383號","121.708061666667","24.9306766666667","6502000","坪林區"
"232015","291-BY","2018/07/20 06:49:37","新北市坪林區北宜路八段17號","121.702745","24.9364","6502000","坪林區"
"232019","705-BZ","2018/07/20 06:49:36","新北市坪林區北宜路八段337號","121.710985","24.93371","6502000","坪林區"
"232008","758-BX","2018/07/20 06:49:43","新北市坪林區鶯子瀨9-8號","121.708841666667","24.916135","6502000","坪林區"
"244004","248-BX","2018/07/20 06:49:41","新北市林口區粉寮路二段160巷28號","121.405135","25.0907683333333","6501700","林口區"
"235001","611-BX","2018/07/20 06:49:37","新北市中和區圓通路367巷4號","121.491423333333","24.989255","6500300","中和區"
"223006","022-BY","2018/07/20 06:49:45","新北市石碇區楓子林30號","121.64232","25.00963","6501900","石碇區"
"223002","KEA-2673","2018/07/20 06:49:54","新北市石碇區烏塗窟48-2號","121.65437","24.9704466666667","6501900","石碇區"
"223003","205-TH","2018/07/20 06:49:34","新北市石碇區湳窟37-1號","121.662615","24.9946083333333","6501900","石碇區"
"223008","406-TH","2018/07/20 06:49:50","新北市石碇區雙溪84-1號","121.661155","25.0089716666667","6501900","石碇區"
"223001","592-UM","2018/07/20 06:49:34","新北市石碇區石崁40-9號","121.660518333333","24.99599","6501900","石碇區"
"223004","660-BX","2018/07/20 06:49:44","新北市石碇區碇坪路一段130號","121.65936","24.9913883333333","6501900","石碇區"
"223007","661-BX","2018/07/20 06:49:36","新北市深坑區文山路一段8號","121.644141666667","25.0086466666667","6501900","石碇區"
"223005","677-TV","2018/07/20 06:49:36","新北市石碇區碇坪路一段136號","121.659683333333","24.9914933333333","6501900","石碇區"
"227005","282-VK","2018/07/20 06:49:49","新北市雙溪區新基里自強路5號","121.866356666667","25.0389966666667","6502500","雙溪區"
