"lineid","car","time","location","longitude","latitude","cityid","cityname"
"244002","248-BX","2018/12/11 08:19:33","新北市林口區下福147-12號","121.300375","25.1163416666667","6501700","林口區"
"222004","289-BY","2018/12/11 08:15:08","新北市深坑區昇高坑路66號","121.630196666667","24.9923933333333","6501800","深坑區"
"231009","192-VK","2018/12/11 08:19:36","新北市新店區新烏路140號","121.546038333333","24.9323883333333","6500600","新店區"
"231007","260-TV","2018/12/11 08:19:39","新北市新店區新潭路一段142號","121.528945","24.9346583333333","6500600","新店區"
"235001","611-BX","2018/12/11 08:19:29","新北市中和區錦和路216號","121.490266666667","24.9939333333333","6500300","中和區"
"235035","783-BX","2018/12/11 08:19:45","新北市鶯歌區永樂街22號","121.342041666667","24.953175","6500300","中和區"
"226005","5620-A6","2018/12/11 08:19:36","新北市平溪區南山里南山坪126號","121.785596666667","25.0464733333333","6502400","平溪區"
"226002","7418-A5","2018/12/11 08:19:28","新北市平溪區望古里灰3-1號","121.755028333333","25.0289883333333","6502400","平溪區"
"226006","AGD-0702","2018/12/11 08:19:36","新北市平溪區新寮里新寮路1-2號","121.789556666667","25.05843","6502400","平溪區"
"223006","022-BY","2018/12/11 08:19:37","新北市坪林區北宜路八段558號","121.716531666667","24.9090833333333","6501900","石碇區"
"223002","KEA-2673","2018/12/11 08:19:42","新北市石碇區崩山33-6號","121.676688333333","24.9623466666667","6501900","石碇區"
"223003","205-TH","2018/12/11 08:19:31","新北市石碇區月扇湖3-1號","121.658736666667","24.957515","6501900","石碇區"
"223008","406-TH","2018/12/11 08:19:28","新北市石碇區靜安路一段194號","121.672128333333","25.0063616666667","6501900","石碇區"
"223004","437-BY","2018/12/11 08:19:46","新北市石碇區碇坪路一段39號","121.65825","24.9913983333333","6501900","石碇區"
"223001","592-UM","2018/12/11 08:19:39","新北市石碇區月扇湖3-1號","121.65843","24.9580683333333","6501900","石碇區"
"223005","677-TV","2018/12/11 08:19:43","新北市石碇區碇坪路一段39號","121.658105","24.99145","6501900","石碇區"
"227006","282-VK","2018/12/11 08:19:28","新北市雙溪區牡丹里下坑7號","121.850871666667","25.0554","6502500","雙溪區"
"227012","030-BX","2018/12/11 08:19:33","新北市雙溪區上林里內平林90號","121.82773","25.02761","6502500","雙溪區"
"252004","249-BX","2018/12/11 08:19:39","新北市三芝區興華里車埕59號","121.498678333333","25.1969366666667","6502100","三芝區"
"252007","AAC-283","2018/12/11 08:19:26","新北市三芝區後厝里大片頭72-1號","121.462203333333","25.245685","6502100","三芝區"
"237001","159-UY","2018/12/11 08:19:46","新北市三峽區學成路269號","121.375665","24.9429966666667","6500900","三峽區"
