"lineid","car","time","location","longitude","latitude","cityid","cityname"
"244002","248-BX","2018/12/11 08:29:33","新北市林口區下福87號","121.28959","25.1118866666667","6501700","林口區"
"222004","289-BY","2018/12/11 08:29:27","新北市深坑區昇高坑路33號","121.628328333333","24.99891","6501800","深坑區"
"231009","192-VK","2018/12/11 08:29:36","新北市新店區新烏路三段165巷64號","121.553955","24.9014433333333","6500600","新店區"
"231007","260-TV","2018/12/11 08:29:39","新北市新店區小坑二路2巷1號","121.531921666667","24.9156816666667","6500600","新店區"
"235001","611-BX","2018/12/11 08:29:29","新北市中和區中山路二段523巷32弄4號","121.481565","25.0037183333333","6500300","中和區"
"235035","783-BX","2018/12/11 08:29:35","新北市鶯歌區永樂街22號","121.342075","24.9532233333333","6500300","中和區"
"226005","5620-A6","2018/12/11 08:29:36","新北市平溪區南山里六分11-1號","121.79783","25.0498033333333","6502400","平溪區"
"226002","7418-A5","2018/12/11 08:29:28","新北市平溪區東勢里芊蓁林44號","121.750576666667","25.0130666666667","6502400","平溪區"
"226006","AGD-0702","2018/12/11 08:29:36","新北市平溪區十分里十分街259號","121.778178333333","25.0450133333333","6502400","平溪區"
"223006","022-BY","2018/12/11 08:29:46","新北市坪林區北宜路八段422號","121.70872","24.9260933333333","6501900","石碇區"
"223002","KEA-2673","2018/12/11 08:29:42","新北市石碇區小粗坑(潭邊里)9號","121.676348333333","24.9840416666667","6501900","石碇區"
"223003","205-TH","2018/12/11 08:25:31","新北市石碇區北宜路六段十三股巷1號","121.648555","24.948035","6501900","石碇區"
"223008","406-TH","2018/12/11 08:29:32","新北市石碇區石碇子埔93號","121.671688333333","25.0055566666667","6501900","石碇區"
"223004","437-BY","2018/12/11 08:29:26","新北市石碇區碇坪路一段280號","121.675926666667","24.9770216666667","6501900","石碇區"
"223001","592-UM","2018/12/11 08:28:19","新北市石碇區北宜路六段獅子頭坑巷6-1號","121.64511","24.9415466666667","6501900","石碇區"
"223005","677-TV","2018/12/11 08:29:43","新北市石碇區碇坪路一段280號","121.67619","24.9769066666667","6501900","石碇區"
"227006","282-VK","2018/12/11 08:29:29","新北市雙溪區平林里竹寮坑10號","121.843323333333","25.0448533333333","6502500","雙溪區"
"227012","030-BX","2018/12/11 08:26:33","新北市雙溪區長源里柑腳56號","121.795431666667","25.0072233333333","6502500","雙溪區"
"252004","249-BX","2018/12/11 08:29:39","新北市三芝區興華里車埕9-1號","121.502161666667","25.20057","6502100","三芝區"
"252007","AAC-283","2018/12/11 08:29:46","新北市三芝區後厝里番子崙17-1號","121.479933333333","25.2387366666667","6502100","三芝區"
"237001","159-UY","2018/12/11 08:29:26","新北市三峽區大義路189號","121.37806","24.94525","6500900","三峽區"
