"lineid","car","time","location","longitude","latitude","cityid","cityname"
"244002","248-BX","2018/12/11 08:49:33","新北市林口區嘉溪雅坑39號","121.316678333333","25.1211166666667","6501700","林口區"
"222004","289-BY","2018/12/11 08:49:48","新北市深坑區王軍寮1號","121.619963333333","24.98653","6501800","深坑區"
"231009","192-VK","2018/12/11 08:49:36","新北市新店區廣興路66巷3號","121.538856666667","24.913725","6500600","新店區"
"231007","260-TV","2018/12/11 08:49:39","新北市新店區小坑二路15號","121.529636666667","24.9167083333333","6500600","新店區"
"235001","611-BX","2018/12/11 08:49:29","新北市中和區國光街112巷24弄2號","121.470698333333","25.002425","6500300","中和區"
"235035","783-BX","2018/12/11 08:49:35","新北市鶯歌區文化路134號","121.35191","24.9514983333333","6500300","中和區"
"226005","5620-A6","2018/12/11 08:49:36","新北市平溪區十分里十分街96-1號","121.776668333333","25.0425483333333","6502400","平溪區"
"226002","7418-A5","2018/12/11 08:42:48","新北市平溪區東勢里東勢格17號","121.734326666667","25.002205","6502400","平溪區"
"226006","AGD-0702","2018/12/11 08:49:38","新北市平溪區望古里望古坑25號","121.763133333333","25.0343416666667","6502400","平溪區"
"223006","022-BY","2018/12/11 08:49:46","新北市石碇區八分寮47-1號","121.642826666667","25.0138433333333","6501900","石碇區"
"223003","205-TH","2018/12/11 08:49:31","新北市石碇區北宜路六段直潭巷10號","121.660385","24.9350666666667","6501900","石碇區"
"223008","406-TH","2018/12/11 08:49:12","新北市石碇區光明路16-1號","121.685691666667","25.0337716666667","6501900","石碇區"
"223004","437-BY","2018/12/11 08:49:45","新北市石碇區崩山24-2號","121.67862","24.96783","6501900","石碇區"
"223001","592-UM","2018/12/11 08:49:39","新北市石碇區北宜路六段直潭巷18號","121.66114","24.9344416666667","6501900","石碇區"
"223005","677-TV","2018/12/11 08:49:43","新北市石碇區崩山24-2號","121.679271666667","24.9675966666667","6501900","石碇區"
"227006","282-VK","2018/12/11 08:49:28","新北市雙溪區上林里大瀨1號","121.829991666667","25.02524","6502500","雙溪區"
"227012","030-BX","2018/12/11 08:44:33","新北市雙溪區泰平里料角坑32號","121.795305","24.9748516666667","6502500","雙溪區"
"252004","249-BX","2018/12/11 08:49:39","新北市三芝區興華里田心子15-14號","121.492828333333","25.2042916666667","6502100","三芝區"
"252007","AAC-283","2018/12/11 08:49:46","新北市三芝區錫板里番婆林44號","121.492183333333","25.2367733333333","6502100","三芝區"
"237001","159-UY","2018/12/11 08:49:46","新北市三峽區中山路459巷163-1號","121.349191666667","24.933405","6500900","三峽區"
