"lineid","car","time","location","longitude","latitude","cityid","cityname"
"234036","336-UY","2018/12/11 14:19:29","新北市永和區成功路一段93巷1號","121.527233333333","25.0027966666667","6500400","永和區"
"234062","337-UY","2018/12/11 14:19:31","新北市永和區得和路131號","121.519135","25.0002016666667","6500400","永和區"
"234068","552-UM","2018/12/11 14:19:21","新北市永和區福和路263巷7弄1號","121.517928333333","25.0070233333333","6500400","永和區"
"234078","553-UM","2018/12/11 14:19:33","新北市永和區國中路132巷15號","121.523961666667","25.0076016666667","6500400","永和區"
"234005","693-BX","2018/12/11 14:19:16","新北市永和區中正路738-1號","121.515286666667","25.0103633333333","6500400","永和區"
"234028","746-BX","2018/12/11 14:19:30","新北市永和區民權路49巷9號","121.520661666667","24.99735","6500400","永和區"
"234052","KEA-2590","2018/12/11 14:19:22","新北市永和區光復街27號","121.516575","25.0175933333333","6500400","永和區"
"234012","KEA-2591","2018/12/11 14:19:25","新北市永和區保生路55號","121.504756666667","25.010615","6500400","永和區"
"234060","AAD-866","2018/12/11 14:19:28","新北市永和區安樂路194巷24號","121.516475","25.0011166666667","6500400","永和區"
"234084","748-BX","2018/12/11 14:19:21","新北市永和區永和路二段59號","121.514646666667","25.0109866666667","6500400","永和區"
"234040","862-TW","2018/12/11 14:19:31","新北市永和區安樂路218號","121.515003333333","25.00226","6500400","永和區"
"234048","863-TW","2018/12/11 14:19:33","新北市永和區文化路187號","121.509645","25.017075","6500400","永和區"
"234025","9371-KE","2018/12/11 14:19:26","新北市永和區得和路42巷23號","121.515333333333","24.9996866666667","6500400","永和區"
"234010","9373-KE","2018/12/11 14:19:18","新北市永和區保生路55號","121.504495","25.0106633333333","6500400","永和區"
"248017","225-UY","2018/12/11 14:19:21","新北市五股區壟路14-6號","121.415365","25.08653","6501500","五股區"
"234076","969-R7","2018/12/11 14:19:25","新北市永和區民族街81巷60號","121.520128333333","24.9966","6500400","永和區"
"234072","AAC-211","2018/12/11 14:19:35","新北市永和區竹林路119巷22弄3-3號","121.521851666667","25.0115833333333","6500400","永和區"
"234066","AAC-212","2018/12/11 14:19:26","新北市永和區保平路268巷51弄22號","121.506705","25.00613","6500400","永和區"
"234001","AAC-295","2018/12/11 14:19:26","新北市永和區自強街39號","121.516016666667","25.0080716666667","6500400","永和區"
"244002","248-BX","2018/12/11 14:19:34","新北市林口區文化北路一段386號","121.36284","25.0747333333333","6501700","林口區"
"231002","002-UM","2018/12/11 14:19:15","新北市新店區中央路228號","121.52956","24.9727333333333","6500600","新店區"
"231027","0291-UT","2018/12/11 14:19:15","新北市新店區光明街286巷21號","121.54114","24.9634916666667","6500600","新店區"
"231028","046-UY","2018/12/11 14:19:27","新北市新店區安和路二段221號","121.517445","24.97583","6500600","新店區"
"231001","047-UY","2018/12/11 14:19:32","新北市新店區中正路75巷71號","121.543105","24.9689083333333","6500600","新店區"
"231005","106-UY","2018/12/11 14:19:28","新北市新店區中興路三段160號","121.544295","24.9807166666667","6500600","新店區"
"231020","108-UY","2018/12/11 14:19:26","新北市新店區新烏路二段385號","121.550891666667","24.9099583333333","6500600","新店區"
"231012","187-VK","2018/12/11 14:19:33","新北市新店區五峰路63巷8弄106號","121.54794","24.96852","6500600","新店區"
"231023","KEA-2219","2018/12/11 14:19:14","新北市新店區光明街89號","121.53897","24.9609183333333","6500600","新店區"
"231003","268-BY","2018/12/11 14:19:35","新北市新店區中興路一段191號","121.543216666667","24.9650833333333","6500600","新店區"
"231018","278-BY","2018/12/11 14:19:23","新北市新店區中央路135號","121.530323333333","24.9737766666667","6500600","新店區"
"231015","AAD-862","2018/12/11 14:19:21","新北市新店區北宜路三段66號","121.575398333333","24.95058","6500600","新店區"
"231038","3712-VJ","2018/12/11 14:19:20","新北市新店區溪洲路6巷40-1號","121.53365","24.9630366666667","6500600","新店區"
"231037","4716-K9","2018/12/11 14:19:19","新北市新店區安康路三段2號","121.493901666667","24.9539083333333","6500600","新店區"
"231036","512-UM","2018/12/11 14:19:31","新北市新店區安祥路109巷83號","121.477706666667","24.9602883333333","6500600","新店區"
"231013","513-UM","2018/12/11 14:19:17","新北市新店區大豐路73號","121.539076666667","24.979445","6500600","新店區"
"231034","616-UM","2018/12/11 14:19:31","新北市新店區車子路11號","121.503053333333","24.9520616666667","6500600","新店區"
"231030","619-UM","2018/12/11 14:19:15","新北市新店區安民街3巷15號","121.514306666667","24.9641933333333","6500600","新店區"
"231035","719-UM","2018/12/11 14:18:28","新北市新店區安和路二段113巷3弄5號","121.518035","24.9699766666667","6500600","新店區"
"231032","720-UM","2018/12/11 14:19:30","新北市新店區溪洲路56號","121.532628333333","24.9617366666667","6500600","新店區"
"231029","897-TW","2018/12/11 14:19:33","新北市新店區安康路二段161號","121.510238333333","24.959345","6500600","新店區"
"231006","898-TW","2018/12/11 14:19:15","新北市新店區玉山路22號","121.568073333333","24.9557233333333","6500600","新店區"
"231004","899-TW","2018/12/11 14:19:36","新北市新店區中正路219號","121.539703333333","24.9729283333333","6500600","新店區"
"235030","003-UY","2018/12/11 14:19:26","新北市中和區中和路102號","121.502691666667","24.999715","6500300","中和區"
"235028","005-UY","2018/12/11 14:19:23","新北市中和區南山路81巷53號","121.504038333333","24.99822","6500300","中和區"
"235027","006-UY","2018/12/11 14:19:31","新北市中和區板南路335號","121.494143333333","24.997755","6500300","中和區"
"235020","096-UM","2018/12/11 14:19:21","新北市中和區民富街40號","121.476676666667","25.006765","6500300","中和區"
"235003","097-UM","2018/12/11 14:19:29","新北市中和區秀峰街127巷4號","121.519308333333","24.9910633333333","6500300","中和區"
"235004","150-BY","2018/12/11 14:19:27","新北市中和區安平路36巷41號","121.51095","24.9950483333333","6500300","中和區"
"235022","151-BY","2018/12/11 14:19:28","新北市中和區連城路469巷14號","121.483405","24.9952766666667","6500300","中和區"
"235019","183-VK","2018/12/11 14:19:24","新北市中和區中山路三段209號","121.471935","25.006445","6500300","中和區"
"235002","185-VK","2018/12/11 14:19:31","新北市中和區景平路126巷2弄15號","121.519801666667","24.9923916666667","6500300","中和區"
"235013","186-VK","2018/12/11 14:19:27","新北市中和區景新街230號","121.508245","24.9942183333333","6500300","中和區"
"235031","255-BX","2018/12/11 14:19:19","新北市中和區連城路280號","121.484426666667","24.9962983333333","6500300","中和區"
"235008","293-VK","2018/12/11 14:19:16","新北市中和區復興路318號","121.50083","24.990395","6500300","中和區"
"235036","301-VK","2018/12/11 14:19:29","新北市中和區福美路238號","121.498846666667","25.00524","6500300","中和區"
"235007","352-BY","2018/12/11 14:19:23","新北市中和區景平路288號","121.513281666667","24.9928883333333","6500300","中和區"
"235006","KEA-2878","2018/12/11 14:19:26","新北市中和區安樂路143巷2弄5號","121.51406","24.9977966666667","6500300","中和區"
"247011","KEA-2869","2018/12/11 14:19:29","新北市蘆洲區民權路3巷20號","121.475338333333","25.0850866666667","6501400","蘆洲區"
"247005","KED-0682","2018/12/11 14:19:19","新北市蘆洲區長安街22巷35-1號","121.464841666667","25.0801316666667","6501400","蘆洲區"
"235014","4979-A6","2018/12/11 14:19:19","新北市中和區板南路202號","121.4993","24.9931633333333","6500300","中和區"
"235033","4980-A6","2018/12/11 14:19:29","新北市中和區景平路736巷1弄1號","121.497118333333","25.0039916666667","6500300","中和區"
"235016","551-UM","2018/12/11 14:19:15","新北市中和區興南路二段242巷11號","121.502771666667","24.9826666666667","6500300","中和區"
"235034","558-UM","2018/12/11 14:19:17","新北市中和區中和路49號","121.50016","25.00131","6500300","中和區"
"235009","565-BX","2018/12/11 14:19:31","新北市中和區景新街423巷31號","121.513923333333","24.9896033333333","6500300","中和區"
"235018","640-BX","2018/12/11 14:19:28","新北市中和區國光街112巷15號","121.469656666667","25.0019833333333","6500300","中和區"
"235024","647-TV","2018/12/11 14:19:31","新北市中和區員山路433號","121.48084","25.00376","6500300","中和區"
"235011","732-UM","2018/12/11 14:19:21","新北市中和區景平路241巷21號","121.509028333333","24.9925133333333","6500300","中和區"
"235010","733-UM","2018/12/11 14:19:33","新北市中和區忠孝街2巷12號","121.510421666667","24.981835","6500300","中和區"
"235035","783-BX","2018/12/11 14:19:19","新北市中和區連城路521-2號","121.481843333333","24.9952733333333","6500300","中和區"
"235026","800-TS","2018/12/11 14:19:29","新北市中和區中山路二段488-1號","121.48752","25.0049833333333","6500300","中和區"
"235021","801-TS","2018/12/11 14:19:23","新北市中和區員山路423巷14弄1-1號","121.480361666667","25.002905","6500300","中和區"
"235012","896-TW","2018/12/11 14:19:22","新北市中和區華新街109巷1-3號","121.509011666667","24.98227","6500300","中和區"
"235017","900-TW","2018/12/11 14:19:22","新北市中和區華安街16巷1號","121.466161666667","24.9984983333333","6500300","中和區"
"235029","911-UM","2018/12/11 14:19:29","新北市中和區中山路二段2巷13弄2號","121.503523333333","25.00653","6500300","中和區"
"235015","157-BY","2018/12/11 14:19:25","新北市中和區板南路100號","121.503715","24.9923983333333","6500300","中和區"
"235001","AAC-213","2018/12/11 14:19:23","新北市中和區秀朗路三段10巷37弄13號","121.524106666667","24.9957183333333","6500300","中和區"
"235023","AAC-215","2018/12/11 14:19:30","新北市中和區圓通路252巷5弄42號","121.4922","24.9917","6500300","中和區"
"220013","072-UY","2018/12/11 14:19:19","新北市板橋區國泰街75巷2弄1號","121.467458333333","25.0062033333333","6500100","板橋區"
"220034","073-UY","2018/12/11 14:19:25","新北市板橋區中正路250巷111號","121.460195","25.0202666666667","6500100","板橋區"
"220105","075-UY","2018/12/11 14:19:36","新北市板橋區江寧路三段46號","121.471615","25.0319633333333","6500100","板橋區"
"220017","AAD-861","2018/12/11 14:19:21","新北市板橋區大明街20巷19弄6號","121.458401666667","25.0033416666667","6500100","板橋區"
"247001","893-R6","2018/12/11 14:19:32","新北市蘆洲區永樂街83號","121.455945","25.0887083333333","6501400","蘆洲區"
"247023","500-BY","2018/12/11 14:19:20","新北市蘆洲區長榮路673號","121.460228333333","25.0917716666667","6501400","蘆洲區"
"247019","057-VK","2018/12/11 14:19:20","新北市蘆洲區仁愛街35巷10號","121.471685","25.0927483333333","6501400","蘆洲區"
"247009","056-VK","2018/12/11 14:19:28","新北市蘆洲區鷺江街65號","121.477326666667","25.0827783333333","6501400","蘆洲區"
"247017","007-UY","2018/12/11 14:19:22","新北市蘆洲區民權路75號","121.473345","25.0884733333333","6501400","蘆洲區"
"247003","002-UY","2018/12/11 14:19:30","新北市蘆洲區中原路12巷24號","121.460761666667","25.0839316666667","6501400","蘆洲區"
"247021","001-UY","2018/12/11 14:19:28","新北市蘆洲區中正路476巷5號","121.463025","25.0958033333333","6501400","蘆洲區"
"228004","212-TW","2018/12/11 14:19:29","新北市貢寮區雙玉里下雙溪街26號","121.92426","25.010525","6502600","貢寮區"
"228005","828-UM","2018/12/11 14:19:32","新北市貢寮區美豐里雞母嶺街57號","121.897198333333","25.0639866666667","6502600","貢寮區"
"207002","749-BX","2018/12/11 14:19:25","新北市萬里區溪底里溪底路21號","121.612133333333","25.148345","6502800","萬里區"
"207001","662-BX","2018/12/11 14:19:16","新北市萬里區磺潭里清水18號","121.637801666667","25.1977333333333","6502800","萬里區"
"252005","AAC-283","2018/12/11 14:19:24","新北市三芝區橫山里大坑12-1號","121.523303333333","25.2560283333333","6502100","三芝區"
"236065","105-UM","2018/12/11 14:19:20","新北市土城區明德路一段109號","121.465595","24.9821166666667","6501300","土城區"
"236040","KED-0685","2018/12/11 14:19:21","新北市土城區裕生路21巷1弄2號","121.44868","24.9872633333333","6501300","土城區"
"236074","166-UM","2018/12/11 14:19:29","新北市土城區中央路三段281巷23弄11號","121.426118333333","24.961815","6501300","土城區"
"236029","253-BX","2018/12/11 14:19:24","新北市土城區順風路30號","121.440038333333","24.977075","6501300","土城區"
"236024","269-VK","2018/12/11 14:19:25","新北市土城區承天路67號","121.439546666667","24.96346","6501300","土城區"
"236013","270-VK","2018/12/11 14:19:31","新北市土城區青雲路39巷7號","121.46032","24.987505","6501300","土城區"
"236032","271-VK","2018/12/11 14:19:32","新北市土城區青雲路483巷9號","121.459361666667","24.97364","6501300","土城區"
"247007","KED-0683","2018/12/11 14:19:30","新北市蘆洲區民生街6號","121.475765","25.0792133333333","6501400","蘆洲區"
"236017","401-BY","2018/12/11 14:19:23","新北市土城區金城路二段392號","121.4637","24.98575","6501300","土城區"
"236057","912-UM","2018/12/11 14:19:30","新北市土城區中央路四段466號","121.410015","24.9507116666667","6501300","土城區"
"236045","913-UM","2018/12/11 14:19:24","新北市土城區明德路一段369號","121.456071666667","24.9778333333333","6501300","土城區"
"236060","915-UM","2018/12/11 14:19:31","新北市土城區延壽路30號","121.471126666667","24.991035","6501300","土城區"
"236054","AAC-216","2018/12/11 14:19:24","新北市土城區中華路二段102號","121.438078333333","24.9743133333333","6501300","土城區"
"221010","297-VK","2018/12/11 14:19:30","新北市汐止區長青路12號","121.609721666667","25.106655","6501100","汐止區"
"220027","145-BY","2018/12/11 14:19:35","新北市板橋區民權路260巷35號","121.459138333333","25.0153416666667","6500100","板橋區"
"220028","200-UY","2018/12/11 14:19:20","新北市板橋區大觀路二段3巷35號","121.44859","25.00362","6500100","板橋區"
"220030","610-BX","2018/12/11 14:19:36","新北市板橋區滿平街84巷86號","121.426321666667","24.98696","6500100","板橋區"
"220050","245-BX","2018/12/11 14:19:30","新北市板橋區雙十路一段7號","121.477816666667","25.0238833333333","6500100","板橋區"
"220040","267-BY","2018/12/11 14:19:31","新北市板橋區文聖街225號","121.480521666667","25.02571","6500100","板橋區"
"220004","276-BY","2018/12/11 14:19:32","新北市板橋區信義路279巷19號","121.464695","24.99035","6500100","板橋區"
"220020","277-BY","2018/12/11 14:19:33","新北市板橋區金門街337巷5弄1號","121.429956666667","24.9850516666667","6500100","板橋區"
"220019","283-VK","2018/12/11 14:18:46","新北市板橋區重慶路232號","121.462698333333","25.0015883333333","6500100","板橋區"
"220043","285-UM","2018/12/11 14:19:20","新北市板橋區吳鳳路50巷73號","121.469733333333","25.0303066666667","6500100","板橋區"
"220001","285-VK","2018/12/11 14:19:24","新北市板橋區縣民大道三段270巷12號","121.47842","25.022925","6500100","板橋區"
"220031","286-VK","2018/12/11 14:19:26","新北市板橋區龍興街71巷38號","121.442201666667","25.0025716666667","6500100","板橋區"
"220029","287-VK","2018/12/11 14:19:32","新北市板橋區南雅西路一段7巷11號","121.454185","25.0042683333333","6500100","板橋區"
"220039","288-VK","2018/12/11 14:19:18","新北市板橋區裕民街54號","121.461441666667","25.0286983333333","6500100","板橋區"
"220009","293-UM","2018/12/11 14:19:19","新北市板橋區成功路6巷25號","121.4762","25.0172566666667","6500100","板橋區"
"220029","295-UM","2018/12/11 14:19:23","新北市板橋區三民路二段居仁巷1弄3號","121.47948","25.0136466666667","6500100","板橋區"
"220032","296-UM","2018/12/11 14:19:28","新北市板橋區滿平街136巷10弄12號","121.427208333333","24.9874533333333","6500100","板橋區"
"220041","299-UM","2018/12/11 14:19:15","新北市板橋區松江街8號","121.469236666667","25.0261833333333","6500100","板橋區"
"220023","303-R5","2018/12/11 14:19:29","新北市板橋區南雅西路一段61號","121.453391666667","25.0055983333333","6500100","板橋區"
"220010","305-R5","2018/12/11 13:59:38","新北市板橋區民生路二段56-6號","121.471091666667","25.018695","6500100","板橋區"
"220047","317-R6","2018/12/11 14:19:18","新北市板橋區自由路51巷16號","121.464778333333","25.0235083333333","6500100","板橋區"
"220038","487-VK","2018/12/11 14:19:24","新北市板橋區新生街96號","121.458468333333","25.0221016666667","6500100","板橋區"
"220037","491-VK","2018/12/11 14:19:28","新北市板橋區雙十路二段6號","121.476903333333","25.0259083333333","6500100","板橋區"
"220104","560-BX","2018/12/11 14:19:27","新北市板橋區中正路433巷1號","121.454145","25.02324","6500100","板橋區"
"220052","561-BX","2018/12/11 14:19:29","新北市板橋區文化路一段341號","121.466598333333","25.0208366666667","6500100","板橋區"
"220011","609-BX","2018/12/11 14:19:30","新北市板橋區三民路二段253-1號","121.479098333333","25.011725","6500100","板橋區"
"220005","686-BX","2018/12/11 14:19:32","新北市中和區壽德街21號","121.465933333333","24.9953533333333","6500100","板橋區"
"220025","687-BX","2018/12/11 14:19:19","新北市板橋區大觀路二段112號","121.443853333333","24.9993066666667","6500100","板橋區"
"220042","689-BX","2018/12/11 14:19:19","新北市板橋區新海路364號","121.459651666667","25.0252766666667","6500100","板橋區"
"220002","741-BX","2018/12/11 14:19:26","新北市板橋區光明街142號","121.463983333333","25.0031883333333","6500100","板橋區"
"220051","KEA-2699","2018/12/11 14:19:29","新北市板橋區雙十路二段130巷2弄29號","121.474926666667","25.028705","6500100","板橋區"
"220003","827-TW","2018/12/11 14:19:33","新北市板橋區新民街4巷2號","121.464088333333","25.0100966666667","6500100","板橋區"
"220016","830-TW","2018/12/11 14:19:31","新北市板橋區翠華街12巷21號","121.482248333333","25.0243316666667","6500100","板橋區"
"220014","831-TW","2018/12/11 14:19:23","新北市板橋區長安街138巷5弄60號","121.474006666667","25.009635","6500100","板橋區"
"220022","895-R6","2018/12/11 14:19:25","新北市板橋區北門街57號","121.456173333333","25.0117566666667","6500100","板橋區"
"220021","985-R7","2018/12/11 14:19:35","新北市板橋區中正路249號","121.4558","25.0182666666667","6500100","板橋區"
"220046","AAC-210","2018/12/11 14:19:26","新北市板橋區漢生西路89巷2弄16號","121.461771666667","25.0196883333333","6500100","板橋區"
"220012","AAC-253","2018/12/11 14:19:36","新北市板橋區館前東路1號","121.459473333333","25.0071566666667","6500100","板橋區"
"235032","KEA-2873","2018/12/11 14:19:27","新北市中和區枋寮街71號","121.501101666667","25.0011166666667","6500300","中和區"
"235025","KEA-2875","2018/12/11 14:19:23","新北市中和區員山路169號","121.481176666667","24.9968366666667","6500300","中和區"
"235005","KEA-2876","2018/12/11 14:19:21","新北市中和區宜安路102號","121.510481666667","24.99782","6500300","中和區"
