"lineid","car","time","location","longitude","latitude","cityid","cityname"
"234062","337-UY","2018/12/11 14:29:31","新北市永和區中正路417-1號","121.517035","25.0049166666667","6500400","永和區"
"234068","552-UM","2018/12/11 14:29:21","新北市永和區永亨路7號","121.51937","25.0057233333333","6500400","永和區"
"234078","553-UM","2018/12/11 14:29:26","新北市永和區永貞路68號","121.520526666667","25.005475","6500400","永和區"
"234005","693-BX","2018/12/11 14:29:16","新北市永和區中正路486號","121.517435","25.0038766666667","6500400","永和區"
"234028","746-BX","2018/12/11 14:29:26","新北市永和區民有街1號","121.515733333333","24.997315","6500400","永和區"
"234052","KEA-2590","2018/12/11 14:29:22","新北市永和區環河東路一段76號","121.519546666667","25.0165383333333","6500400","永和區"
"234060","AAD-866","2018/12/11 14:29:28","新北市永和區秀朗路一段185號","121.51738","25.0036316666667","6500400","永和區"
"234084","748-BX","2018/12/11 14:29:21","新北市永和區光復街27號","121.516581666667","25.017585","6500400","永和區"
"234040","862-TW","2018/12/11 14:29:31","新北市永和區自由街20號","121.514443333333","25.0065583333333","6500400","永和區"
"234048","863-TW","2018/12/11 14:29:30","新北市永和區環河西路二段107號","121.506318333333","25.01469","6500400","永和區"
"234025","9371-KE","2018/12/11 14:29:26","新北市中和區安樂路177號","121.514928333333","24.9977716666667","6500400","永和區"
"234010","9373-KE","2018/12/11 14:29:18","新北市永和區環河東路二段20號","121.522438333333","25.013","6500400","永和區"
"248017","225-UY","2018/12/11 14:29:21","新北市五股區外寮路6-1號","121.425163333333","25.0752366666667","6501500","五股區"
"234076","969-R7","2018/12/11 14:29:25","新北市永和區民權路55號","121.520123333333","24.99665","6500400","永和區"
"234072","AAC-211","2018/12/11 14:29:35","新北市永和區環河東路一段124號","121.52071","25.0154083333333","6500400","永和區"
"234001","AAC-295","2018/12/11 14:29:26","新北市永和區大新街63巷1號","121.516281666667","25.0083766666667","6500400","永和區"
"244002","248-BX","2018/12/11 14:29:14","新北市林口區文化北路一段386號","121.362806666667","25.074735","6501700","林口區"
"231002","002-UM","2018/12/11 14:29:15","新北市新店區中央路15號","121.533315","24.9783766666667","6500600","新店區"
"231027","0291-UT","2018/12/11 14:29:35","新北市新店區北新路二段228巷11號","121.543426666667","24.9772066666667","6500600","新店區"
"231028","046-UY","2018/12/11 14:29:27","新北市新店區吉安街2號","121.517321666667","24.9656733333333","6500600","新店區"
"231001","047-UY","2018/12/11 14:29:32","新北市新店區中正路75巷71號","121.543166666667","24.9688616666667","6500600","新店區"
"231005","106-UY","2018/12/11 14:29:28","新北市新店區北新路三段179號","121.540818333333","24.9842633333333","6500600","新店區"
"231020","108-UY","2018/12/11 14:29:26","新北市新店區桂山路55-1號","121.564305","24.9009616666667","6500600","新店區"
"231012","187-VK","2018/12/11 14:29:33","新北市新店區中興路二段22號","121.547186666667","24.9705533333333","6500600","新店區"
"231023","KEA-2219","2018/12/11 14:29:34","新北市新店區光明街71號","121.538856666667","24.96057","6500600","新店區"
"231003","268-BY","2018/12/11 14:29:15","新北市新店區中興路一段266-5號","121.544995","24.9676166666667","6500600","新店區"
"231018","278-BY","2018/12/11 14:29:23","新北市新店區中央路216-1號","121.529855","24.9733366666667","6500600","新店區"
"231015","AAD-862","2018/12/11 14:29:21","新北市新店區北宜路三段221號","121.592448333333","24.9532766666667","6500600","新店區"
"231038","3712-VJ","2018/12/11 14:29:20","新北市新店區溪洲路101號","121.53259","24.9618316666667","6500600","新店區"
"231037","4716-K9","2018/12/11 14:29:19","新北市新店區車子路1號","121.50458","24.9564016666667","6500600","新店區"
"231036","512-UM","2018/12/11 14:29:31","新北市新店區安祥路109巷151弄10號","121.47816","24.958945","6500600","新店區"
"231013","513-UM","2018/12/11 14:29:17","新北市新店區民權路108-1號","121.53601","24.9835383333333","6500600","新店區"
"231034","616-UM","2018/12/11 14:29:31","新北市新店區車子路11號","121.503065","24.9520633333333","6500600","新店區"
"231030","619-UM","2018/12/11 14:29:15","新北市新店區安民街65巷6號","121.516085","24.96694","6500600","新店區"
"231035","719-UM","2018/12/11 14:28:28","新北市新店區安民街5號","121.515233333333","24.964315","6500600","新店區"
"231032","720-UM","2018/12/11 14:29:30","新北市新店區安業街215巷12號","121.523355","24.9718983333333","6500600","新店區"
"231029","897-TW","2018/12/11 14:29:33","新北市新店區安康路二段426號","121.496105","24.9550983333333","6500600","新店區"
"231006","898-TW","2018/12/11 14:29:35","新北市新店區北宜路二段417號","121.560018333333","24.95445","6500600","新店區"
"231004","899-TW","2018/12/11 14:29:36","新北市新店區中正路263-5號","121.538265","24.9738883333333","6500600","新店區"
"235030","003-UY","2018/12/11 14:29:26","新北市中和區景新街51號","121.504378333333","24.9991116666667","6500300","中和區"
"235028","005-UY","2018/12/11 14:29:23","新北市中和區南山路81巷68號","121.50411","24.9977266666667","6500300","中和區"
"235027","006-UY","2018/12/11 14:29:31","新北市中和區連城路171巷41弄1號","121.496236666667","24.99664","6500300","中和區"
"235020","096-UM","2018/12/11 14:29:17","新北市中和區員山路514巷1號","121.47924","25.00962","6500300","中和區"
"235003","097-UM","2018/12/11 14:29:29","新北市中和區秀峰街119巷8弄1號","121.519366666667","24.9890066666667","6500300","中和區"
"235004","150-BY","2018/12/11 14:29:27","新北市中和區宜安路1巷27號","121.512486666667","24.9942116666667","6500300","中和區"
"235022","151-BY","2018/12/11 14:29:28","新北市中和區連城路469巷46號","121.483508333333","24.994545","6500300","中和區"
"235019","183-VK","2018/12/11 14:29:24","新北市中和區中山路三段181巷18弄5號","121.472626666667","25.0051766666667","6500300","中和區"
"235002","185-VK","2018/12/11 14:29:31","新北市中和區自立路99巷1號","121.521955","24.99491","6500300","中和區"
"235013","186-VK","2018/12/11 14:29:27","新北市中和區景平路396-1號","121.509888333333","24.9931933333333","6500300","中和區"
"235031","255-BX","2018/12/11 14:29:19","新北市中和區新生街220巷4號","121.483006666667","24.99862","6500300","中和區"
"235008","293-VK","2018/12/11 14:29:36","新北市中和區捷運路100-1號","121.505986666667","24.9915466666667","6500300","中和區"
"235036","301-VK","2018/12/11 14:29:29","新北市中和區中山路二段3巷22弄38號","121.505813333333","25.0041216666667","6500300","中和區"
"235007","352-BY","2018/12/11 14:29:23","新北市中和區景平路157號","121.512948333333","24.992465","6500300","中和區"
"235006","KEA-2878","2018/12/11 14:29:35","新北市中和區中和路350巷8弄14號","121.510291666667","25.0002166666667","6500300","中和區"
"247011","KEA-2869","2018/12/11 14:29:31","新北市蘆洲區中興街181號","121.48189","25.0900183333333","6501400","蘆洲區"
"247005","KED-0682","2018/12/11 14:29:19","新北市蘆洲區長安街71號","121.462663333333","25.0799883333333","6501400","蘆洲區"
"235014","4979-A6","2018/12/11 14:29:19","新北市中和區員山路36巷16-2號","121.485358333333","24.9916983333333","6500300","中和區"
"235033","4980-A6","2018/12/11 14:29:29","新北市中和區連城路134巷11號","121.495275","25.0000016666667","6500300","中和區"
"235016","551-UM","2018/12/11 14:29:35","新北市中和區華新街143巷69弄1號","121.507173333333","24.9786116666667","6500300","中和區"
"235034","558-UM","2018/12/11 14:29:17","新北市中和區泰和街46巷3號","121.498543333333","24.9997316666667","6500300","中和區"
"235009","565-BX","2018/12/11 14:29:31","新北市中和區景新街369號","121.512111666667","24.990555","6500300","中和區"
"235018","640-BX","2018/12/11 14:29:28","新北市中和區德光路12號","121.471481666667","25.0046466666667","6500300","中和區"
"235024","647-TV","2018/12/11 14:29:31","新北市中和區新生街114巷37弄3號","121.482478333333","25.0020633333333","6500300","中和區"
"235011","732-UM","2018/12/11 14:29:21","新北市中和區和平街182巷10號","121.50531","24.992715","6500300","中和區"
"235010","733-UM","2018/12/11 14:29:32","新北市中和區忠孝街37巷52號","121.511185","24.98493","6500300","中和區"
"235035","783-BX","2018/12/11 14:29:31","新北市中和區連城路469巷6號","121.48356","24.99549","6500300","中和區"
"235026","800-TS","2018/12/11 14:29:29","新北市中和區中山路二段544巷10號","121.48527","25.00561","6500300","中和區"
"235021","801-TS","2018/12/11 14:29:23","新北市中和區中山路三段5號","121.479745","25.0059766666667","6500300","中和區"
"235012","896-TW","2018/12/11 14:29:21","新北市中和區忠孝街60巷7號","121.511788333333","24.983875","6500300","中和區"
"235017","900-TW","2018/12/11 14:29:35","新北市中和區民德路197號","121.46909","24.9982583333333","6500300","中和區"
"235029","911-UM","2018/12/11 14:29:34","新北市中和區永和路1-4號","121.499698333333","25.0030933333333","6500300","中和區"
"235015","157-BY","2018/12/11 14:29:15","新北市中和區中興街178號","121.499665","24.9910066666667","6500300","中和區"
"235001","AAC-213","2018/12/11 14:29:18","新北市中和區秀朗路三段10巷14弄16號","121.525015","24.9966666666667","6500300","中和區"
"235023","AAC-215","2018/12/11 14:29:30","新北市中和區圓通路333號","121.491973333333","24.9906233333333","6500300","中和區"
"220013","072-UY","2018/12/11 14:29:19","新北市板橋區實踐路93巷101號","121.467318333333","25.0058983333333","6500100","板橋區"
"220034","073-UY","2018/12/11 14:29:26","新北市板橋區國光路33號","121.457173333333","25.01766","6500100","板橋區"
"220105","075-UY","2018/12/11 14:29:23","新北市板橋區文化路二段652號","121.478546666667","25.0356783333333","6500100","板橋區"
"220017","AAD-861","2018/12/11 14:29:29","新北市板橋區稚暉街2巷50號","121.45522","25.0028633333333","6500100","板橋區"
"247001","893-R6","2018/12/11 14:29:32","新北市蘆洲區永樂街38巷33弄8號","121.457771666667","25.08965","6501400","蘆洲區"
"247015","546-UM","2018/12/11 14:29:32","新北市蘆洲區中正路185巷78弄17號","121.465726666667","25.0847416666667","6501400","蘆洲區"
"247023","500-BY","2018/12/11 14:29:20","新北市蘆洲區中正路263巷2號","121.467293333333","25.08762","6501400","蘆洲區"
"247019","057-VK","2018/12/11 14:29:25","新北市蘆洲區水湳街285號","121.46952","25.09314","6501400","蘆洲區"
"247009","056-VK","2018/12/11 14:29:28","新北市蘆洲區信義路146號","121.479528333333","25.083135","6501400","蘆洲區"
"247017","007-UY","2018/12/11 14:29:22","新北市蘆洲區復興路216號","121.47898","25.0892566666667","6501400","蘆洲區"
"247003","002-UY","2018/12/11 14:29:30","新北市蘆洲區長安街271號","121.45848","25.08393","6501400","蘆洲區"
"228004","212-TW","2018/12/11 14:29:29","新北市貢寮區雙玉里田寮洋街33-1號","121.932166666667","25.013775","6502600","貢寮區"
"228005","828-UM","2018/12/11 14:29:32","新北市貢寮區美豐里巫里岸9-1號","121.90197","25.070115","6502600","貢寮區"
"207002","749-BX","2018/12/11 14:27:25","新北市萬里區溪底里福德坑路10號","121.626075","25.1566033333333","6502800","萬里區"
"207001","662-BX","2018/12/11 14:29:16","新北市萬里區磺潭里清水9號","121.640423333333","25.1999866666667","6502800","萬里區"
"252005","AAC-283","2018/12/11 14:29:24","新北市三芝區埔坪里埔頭坑93號","121.509115","25.2503916666667","6502100","三芝區"
"236065","105-UM","2018/12/11 14:29:20","新北市土城區永豐路255巷27弄45號","121.477065","24.9737683333333","6501300","土城區"
"236040","KED-0685","2018/12/11 14:29:35","新北市土城區裕民路67巷11號","121.449778333333","24.988185","6501300","土城區"
"236074","166-UM","2018/12/11 14:29:29","新北市土城區大暖路52號","121.42312","24.9593066666667","6501300","土城區"
"236029","253-BX","2018/12/11 14:29:24","新北市土城區水源街33號","121.440866666667","24.975545","6501300","土城區"
"236024","269-VK","2018/12/11 14:29:25","新北市土城區承天路20號","121.439548333333","24.963335","6501300","土城區"
"236013","270-VK","2018/12/11 14:29:31","新北市土城區青雲路39巷7號","121.460325","24.987485","6501300","土城區"
"236032","271-VK","2018/12/11 14:29:32","新北市土城區明德路一段297號","121.459956666667","24.9772966666667","6501300","土城區"
"247007","KED-0683","2018/12/11 14:29:29","新北市蘆洲區民生街64號","121.473481666667","25.0787916666667","6501400","蘆洲區"
"236017","401-BY","2018/12/11 14:29:23","新北市土城區永豐路202巷14號","121.466353333333","24.9835383333333","6501300","土城區"
"236057","912-UM","2018/12/11 14:29:30","新北市土城區中央路四段47號","121.422233333333","24.96161","6501300","土城區"
"236045","913-UM","2018/12/11 14:29:23","新北市土城區青雲路364號","121.458718333333","24.9738933333333","6501300","土城區"
"236060","915-UM","2018/12/11 14:29:31","新北市土城區延壽路77巷6弄9號","121.468458333333","24.9926983333333","6501300","土城區"
"236054","AAC-216","2018/12/11 14:29:24","新北市土城區中華路二段1號","121.439743333333","24.97929","6501300","土城區"
"221010","297-VK","2018/12/11 14:29:30","台北市內湖區成功路五段190巷26號","121.608901666667","25.0810233333333","6501100","汐止區"
"220027","145-BY","2018/12/11 14:29:29","新北市板橋區建國街54巷36號","121.460128333333","25.016845","6500100","板橋區"
"220028","200-UY","2018/12/11 14:29:20","新北市板橋區大觀路二段37巷190號","121.449638333333","25.001755","6500100","板橋區"
"220030","610-BX","2018/12/11 14:29:35","新北市板橋區金門街298號","121.429123333333","24.985645","6500100","板橋區"
"220050","245-BX","2018/12/11 14:29:26","新北市板橋區莊敬路220巷23號","121.472683333333","25.020545","6500100","板橋區"
"220040","267-BY","2018/12/11 14:29:31","新北市板橋區文聖街149巷23弄2號","121.479351666667","25.0286716666667","6500100","板橋區"
"220004","276-BY","2018/12/11 14:29:27","新北市板橋區信義路129號","121.457833333333","24.9931916666667","6500100","板橋區"
"220020","277-BY","2018/12/11 14:29:13","新北市板橋區金門街222號","121.43098","24.9880416666667","6500100","板橋區"
"220019","283-VK","2018/12/11 14:29:25","新北市板橋區忠孝路48巷28號","121.460798333333","25.0008666666667","6500100","板橋區"
"220043","285-UM","2018/12/11 14:29:14","新北市板橋區銘傳街41-2號","121.469111666667","25.03142","6500100","板橋區"
"220001","285-VK","2018/12/11 14:29:24","新北市板橋區永豐街130號","121.477636666667","25.021295","6500100","板橋區"
"220031","286-VK","2018/12/11 14:29:26","新北市板橋區龍興街65巷3號","121.443276666667","25.0013066666667","6500100","板橋區"
"220029","287-VK","2018/12/11 14:29:32","新北市板橋區大觀路一段71巷1號","121.447418333333","25.0047033333333","6500100","板橋區"
"220039","288-VK","2018/12/11 14:29:18","新北市板橋區長江路一段48巷12號","121.459428333333","25.0278766666667","6500100","板橋區"
"220009","293-UM","2018/12/11 14:29:19","新北市板橋區中山路一段265巷36弄2號","121.469115","25.0150266666667","6500100","板橋區"
"220010","295-UM","2018/12/11 14:29:23","新北市板橋區三民路二段153巷31號","121.480978333333","25.0152116666667","6500100","板橋區"
"220032","296-UM","2018/12/11 14:29:16","新北市板橋區滿平街84巷100弄20號","121.425998333333","24.9862333333333","6500100","板橋區"
"220041","299-UM","2018/12/11 14:29:29","新北市板橋區陽明街164巷21號","121.464386666667","25.024625","6500100","板橋區"
"220023","303-R5","2018/12/11 14:29:29","新北市板橋區中正路253巷5號","121.455375","25.0182016666667","6500100","板橋區"
"220010","305-R5","2018/12/11 13:59:38","新北市板橋區民生路二段56-6號","121.471091666667","25.018695","6500100","板橋區"
"220047","317-R6","2018/12/11 14:29:21","新北市板橋區四維路266巷2弄20號","121.463925","25.028155","6500100","板橋區"
"220038","487-VK","2018/12/11 14:29:24","新北市板橋區英士路45號","121.461363333333","25.0247283333333","6500100","板橋區"
"220037","491-VK","2018/12/11 14:29:28","新北市板橋區雙十路二段52號","121.475401666667","25.0276666666667","6500100","板橋區"
"220104","560-BX","2018/12/11 14:29:27","新北市板橋區中正路372巷8號","121.454985","25.0241316666667","6500100","板橋區"
"220052","561-BX","2018/12/11 14:29:28","新北市板橋區陽明街29巷1弄24號","121.464068333333","25.02219","6500100","板橋區"
"220011","609-BX","2018/12/11 14:29:30","新北市板橋區三民路二段140號","121.479085","25.015905","6500100","板橋區"
"220005","686-BX","2018/12/11 14:29:33","新北市板橋區國慶路182巷28-1號","121.463188333333","24.9954483333333","6500100","板橋區"
"220025","687-BX","2018/12/11 14:29:35","新北市板橋區大觀路一段28巷10號","121.450076666667","25.008885","6500100","板橋區"
"220042","689-BX","2018/12/11 14:29:24","新北市板橋區民生路三段321號","121.463038333333","25.0310283333333","6500100","板橋區"
"220002","741-BX","2018/12/11 14:29:26","新北市板橋區忠孝路103號","121.462536666667","25.00238","6500100","板橋區"
"220051","KEA-2699","2018/12/11 14:29:04","新北市板橋區雙十路二段52號","121.475346666667","25.0278766666667","6500100","板橋區"
"220003","827-TW","2018/12/11 14:29:33","新北市板橋區重慶路290巷22弄16號","121.46228","24.99957","6500100","板橋區"
"220016","830-TW","2018/12/11 14:29:30","新北市板橋區萬安街7巷3號","121.484571666667","25.0223","6500100","板橋區"
"220014","831-TW","2018/12/11 14:29:31","新北市板橋區漢生東路299巷11號","121.472565","25.0088583333333","6500100","板橋區"
"220022","895-R6","2018/12/11 14:29:25","新北市板橋區福德街2巷17號","121.455631666667","25.0090966666667","6500100","板橋區"
"220021","985-R7","2018/12/11 14:29:35","新北市板橋區中正路360巷39號","121.455861666667","25.023435","6500100","板橋區"
"220046","AAC-210","2018/12/11 14:29:26","新北市板橋區漢生西路58巷1弄2號","121.463533333333","25.01908","6500100","板橋區"
"220012","AAC-253","2018/12/11 14:29:20","新北市板橋區民權路31號","121.462445","25.011065","6500100","板橋區"
"235032","KEA-2873","2018/12/11 14:29:09","新北市中和區莊敬路16巷10號","121.500001666667","25.0039083333333","6500300","中和區"
"235025","KEA-2875","2018/12/11 14:29:23","新北市中和區員山路327巷3號","121.480613333333","25.0012633333333","6500300","中和區"
"235005","KEA-2876","2018/12/11 14:29:21","新北市中和區景安路58號","121.506748333333","24.997765","6500300","中和區"
