"lineid","car","time","location","longitude","latitude","cityid","cityname"
"234028","746-BX","2018/12/11 14:59:26","新北市八里區荖阡坑路7-2號","121.398645","25.1411466666667","6500400","永和區"
"234025","9371-KE","2018/12/11 14:59:26","新北市永和區水源街21巷14弄4號","121.511418333333","25.0038166666667","6500400","永和區"
"248017","225-UY","2018/12/11 14:59:33","新北市五股區水碓九路41號","121.428511666667","25.0728216666667","6501500","五股區"
"244002","248-BX","2018/12/11 14:59:34","新北市林口區竹林路266號","121.389716666667","25.0807916666667","6501700","林口區"
"231002","002-UM","2018/12/11 14:59:35","新北市新店區民權路124號","121.535195","24.982875","6500600","新店區"
"231027","0291-UT","2018/12/11 14:59:35","新北市新店區中正路336號","121.53675","24.9750316666667","6500600","新店區"
"231028","046-UY","2018/12/11 14:59:27","新北市新店區安康路二段309-1號","121.501445","24.9571183333333","6500600","新店區"
"231001","047-UY","2018/12/11 14:59:32","新北市新店區中正路276號","121.538811666667","24.9736783333333","6500600","新店區"
"231005","106-UY","2018/12/11 14:59:32","新北市新店區復興路38號","121.538836666667","24.986755","6500600","新店區"
"231020","108-UY","2018/12/11 14:59:26","新北市新店區永福路38-1號","121.553006666667","24.92942","6500600","新店區"
"231012","187-VK","2018/12/11 14:59:33","新北市新店區寶橋路132號","121.54741","24.9761","6500600","新店區"
"231023","KEA-2219","2018/12/11 14:59:14","新北市新店區檳榔路174號","121.543896666667","24.96194","6500600","新店區"
"231026","256-BX","2018/12/11 14:59:29","新北市新店區博愛街27巷1號","121.541465","24.9740316666667","6500600","新店區"
"231003","268-BY","2018/12/11 14:59:14","新北市新店區中興路二段89號","121.547235","24.9711733333333","6500600","新店區"
"231018","278-BY","2018/12/11 14:59:23","新北市新店區中央六街3號","121.530398333333","24.9744883333333","6500600","新店區"
"231015","AAD-862","2018/12/11 14:59:21","新北市新店區北宜路二段585號","121.566511666667","24.9542183333333","6500600","新店區"
"231038","3712-VJ","2018/12/11 14:59:20","新北市新店區安一路一段1-1號","121.519713333333","24.961125","6500600","新店區"
"231037","4716-K9","2018/12/11 14:59:19","新北市新店區柴埕路60巷34號","121.50583","24.9691716666667","6500600","新店區"
"231025","4715-K9","2018/12/11 14:59:31","新北市新店區二十張路33巷16號","121.538986666667","24.9809283333333","6500600","新店區"
"231036","512-UM","2018/12/11 14:59:31","新北市新店區安祥路102巷46弄31號","121.485691666667","24.963735","6500600","新店區"
"231034","616-UM","2018/12/11 14:59:31","新北市新店區玫瑰路4-1號","121.493595","24.9514383333333","6500600","新店區"
"231030","619-UM","2018/12/11 14:59:15","新北市新店區安民街341-1號","121.516843333333","24.9749383333333","6500600","新店區"
"231039","718-UY","2018/12/11 14:59:23","新北市新店區寶中路45-3號","121.545173333333","24.9789383333333","6500600","新店區"
"231035","719-UM","2018/12/11 14:59:28","新北市新店區安和路二段240號","121.516575","24.9782166666667","6500600","新店區"
"231029","897-TW","2018/12/11 14:59:33","新北市新店區安康路三段738號","121.473841666667","24.942005","6500600","新店區"
"231006","898-TW","2018/12/11 14:59:35","新北市新店區新坡一街102號","121.547786666667","24.9639816666667","6500600","新店區"
"231004","899-TW","2018/12/11 14:59:17","新北市新店區民族路12號","121.541478333333","24.9789283333333","6500600","新店區"
"231024","AKT-0513","2018/12/11 14:59:20","新北市新店區中華路83巷2弄2號","121.53905","24.9685833333333","6500600","新店區"
"235030","003-UY","2018/12/11 14:59:26","新北市中和區中山路二段3巷28號","121.506765","25.0053083333333","6500300","中和區"
"235020","096-UM","2018/12/11 14:59:17","新北市中和區中山路三段170巷2弄19號","121.473381666667","25.006785","6500300","中和區"
"235003","097-UM","2018/12/11 14:59:29","新北市中和區宜安路52巷14號","121.512296666667","24.9971533333333","6500300","中和區"
"235004","150-BY","2018/12/11 14:59:27","新北市中和區景安路79巷23號","121.50698","24.9966116666667","6500300","中和區"
"235013","186-VK","2018/12/11 14:59:27","新北市中和區南華路13號","121.502333333333","24.9957183333333","6500300","中和區"
"235031","255-BX","2018/12/11 14:59:19","新北市板橋區民生路二段232-14號","121.468751666667","25.02205","6500300","中和區"
"235036","301-VK","2018/12/11 14:59:29","新北市中和區連城路90號","121.496751666667","25.0005083333333","6500300","中和區"
"235007","352-BY","2018/12/11 14:59:30","新北市中和區華新街232巷9-4號","121.505901666667","24.981845","6500300","中和區"
"235006","KEA-2878","2018/12/11 14:59:26","新北市新店區柴埕路116號","121.504848333333","24.9599583333333","6500300","中和區"
"235014","4979-A6","2018/12/11 14:59:19","新北市中和區景平路155巷24號","121.513515","24.99166","6500300","中和區"
"235033","4980-A6","2018/12/11 14:56:59","新北市中和區景平路634-2號","121.500815","24.9983883333333","6500300","中和區"
"235034","558-UM","2018/12/11 14:59:37","新北市中和區圓通路172號","121.497305","24.994625","6500300","中和區"
"235018","640-BX","2018/12/11 14:59:33","新北市中和區民享街35巷8弄1-4號","121.474633333333","25.0037983333333","6500300","中和區"
"235010","733-UM","2018/12/11 14:59:32","新北市中和區興南路一段105巷20弄6號","121.510291666667","24.9856166666667","6500300","中和區"
"235035","783-BX","2018/12/11 14:59:18","新北市中和區建康路21號","121.486155","25.0005","6500300","中和區"
"235012","896-TW","2018/12/11 14:59:21","新北市中和區忠孝街1巷2-1號","121.509161666667","24.98307","6500300","中和區"
"235017","900-TW","2018/12/11 14:59:15","新北市中和區華安街106號","121.468745","24.9954","6500300","中和區"
"235029","911-UM","2018/12/11 14:59:29","新北市中和區橋和路322號","121.497658333333","25.007155","6500300","中和區"
"235001","AAC-213","2018/12/11 14:59:18","新北市中和區自立路119號","121.521885","24.9943666666667","6500300","中和區"
"235023","AAC-215","2018/12/11 14:59:30","新北市中和區圓通路335巷3弄5號","121.492598333333","24.9902","6500300","中和區"
"220013","072-UY","2018/12/11 14:59:19","新北市板橋區民族路83-1號","121.465906666667","25.0085733333333","6500100","板橋區"
"220105","075-UY","2018/12/11 14:59:23","新北市板橋區文聖街61號","121.47683","25.03103","6500100","板橋區"
"247023","500-BY","2018/12/11 14:59:33","新北市五股區中興路三段2巷10號","121.449346666667","25.0809233333333","6501400","蘆洲區"
"228004","212-TW","2018/12/11 14:56:49","新北市貢寮區福隆里興隆街21-2號","121.932438333333","25.0183433333333","6502600","貢寮區"
"207002","749-BX","2018/12/11 14:59:25","新北市萬里區崁腳里崁腳路73號","121.647661666667","25.1596583333333","6502800","萬里區"
"207001","662-BX","2018/12/11 14:59:36","新北市萬里區雙興里二坪路1-1號","121.650661666667","25.1763183333333","6502800","萬里區"
"236065","105-UM","2018/12/11 14:59:33","新北市土城區裕生路84巷4號","121.44709","24.985555","6501300","土城區"
"236040","KED-0685","2018/12/11 14:59:21","新北市土城區學府路一段254號","121.451346666667","24.9845966666667","6501300","土城區"
"236074","166-UM","2018/12/11 14:59:29","新北市土城區中州路14號","121.414668333333","24.9572283333333","6501300","土城區"
"236029","253-BX","2018/12/11 14:59:24","新北市土城區福仁街34號","121.439915","24.975505","6501300","土城區"
"236024","269-VK","2018/12/11 14:59:25","新北市土城區中正路29號","121.443593333333","24.975405","6501300","土城區"
"236013","270-VK","2018/12/11 14:59:31","新北市土城區永豐路13巷2號","121.461856666667","24.9886933333333","6501300","土城區"
"236032","271-VK","2018/12/11 14:59:32","新北市土城區清水路141巷3號","121.458266666667","24.9818416666667","6501300","土城區"
"247008","KED-0683","2018/12/11 14:59:26","新北市五股區中興路三段2巷10號","121.449218333333","25.08102","6501400","蘆洲區"
"236017","401-BY","2018/12/11 14:59:30","新北市土城區延吉街217巷1弄2號","121.468621666667","24.9850316666667","6501300","土城區"
"236057","912-UM","2018/12/11 14:59:30","新北市土城區金城路二段236號","121.456698333333","24.9829966666667","6501300","土城區"
"236045","913-UM","2018/12/11 14:59:27","新北市土城區青雲路322巷2弄4號","121.458085","24.977355","6501300","土城區"
"236054","AAC-216","2018/12/11 14:59:24","新北市土城區學成路32號","121.452698333333","24.9872883333333","6501300","土城區"
"221010","297-VK","2018/12/11 14:59:30","新北市汐止區汐萬路一段256巷3號","121.653","25.074425","6501100","汐止區"
"220027","145-BY","2018/12/11 14:59:15","新北市板橋區中正路12巷135弄13號","121.45648","25.0122066666667","6500100","板橋區"
"220028","200-UY","2018/12/11 14:59:29","新北市板橋區大觀路二段177號","121.444996666667","25.000125","6500100","板橋區"
"220030","610-BX","2018/12/11 14:59:35","新北市板橋區存德街3號","121.429936666667","24.9919833333333","6500100","板橋區"
"220050","245-BX","2018/12/11 14:59:26","新北市板橋區萬板路330-1號","121.478333333333","25.0251983333333","6500100","板橋區"
"220040","267-BY","2018/12/11 14:59:31","新北市板橋區懷德街174巷1-16號","121.478958333333","25.0295166666667","6500100","板橋區"
"220004","276-BY","2018/12/11 14:59:32","新北市板橋區四川路二段99巷3號","121.452778333333","24.9944083333333","6500100","板橋區"
"220020","277-BY","2018/12/11 14:59:33","新北市板橋區篤行路二段119-2號","121.431261666667","24.990755","6500100","板橋區"
"220019","283-VK","2018/12/11 14:59:29","新北市板橋區五權街30巷24弄27號","121.463633333333","24.993735","6500100","板橋區"
"220043","285-UM","2018/12/11 14:59:34","新北市板橋區文化路一段144號","121.465293333333","25.018945","6500100","板橋區"
"220001","285-VK","2018/12/11 14:59:29","新北市板橋區懷仁街23號","121.476408333333","25.0197233333333","6500100","板橋區"
"220031","286-VK","2018/12/11 14:59:31","新北市板橋區僑中二街102巷29號","121.444931666667","25.0084166666667","6500100","板橋區"
"220029","287-VK","2018/12/11 14:59:35","新北市板橋區僑中一街124巷20弄13-3號","121.446771666667","25.0141016666667","6500100","板橋區"
"220039","288-VK","2018/12/11 14:59:38","新北市板橋區雨農路27巷9號","121.461563333333","25.0238133333333","6500100","板橋區"
"220009","293-UM","2018/12/11 14:59:19","新北市板橋區中山路一段91號","121.461638333333","25.0101233333333","6500100","板橋區"
"220010","295-UM","2018/12/11 14:59:23","新北市板橋區中山路二段318巷4號","121.480158333333","25.0192533333333","6500100","板橋區"
"220041","299-UM","2018/12/11 14:59:35","新北市板橋區文化路一段81巷5號","121.460758333333","25.014085","6500100","板橋區"
"220047","317-R6","2018/12/11 14:59:18","新北市板橋區新海路385巷24號","121.45795","25.0256066666667","6500100","板橋區"
"220038","487-VK","2018/12/11 14:59:27","新北市板橋區四維路255號","121.463366666667","25.0279166666667","6500100","板橋區"
"220037","491-VK","2018/12/11 14:59:28","新北市板橋區懷德街99號","121.478413333333","25.031605","6500100","板橋區"
"220052","561-BX","2018/12/11 14:59:36","新北市板橋區漢生東路43巷28號","121.466483333333","25.0175983333333","6500100","板橋區"
"220011","609-BX","2018/12/11 14:59:30","新北市板橋區三民路一段89號","121.479635","25.02199","6500100","板橋區"
"220005","686-BX","2018/12/11 14:59:32","新北市板橋區四川路二段245巷87號","121.452775","24.993","6500100","板橋區"
"220025","687-BX","2018/12/11 14:59:18","新北市板橋區僑中一街134號","121.445496666667","25.01188","6500100","板橋區"
"220042","689-BX","2018/12/11 14:59:30","新北市板橋區長江路一段158號","121.461156666667","25.0303683333333","6500100","板橋區"
"220002","741-BX","2018/12/11 14:59:26","新北市板橋區忠孝路忠義巷7號","121.465526666667","25.0036616666667","6500100","板橋區"
"220051","KEA-2699","2018/12/11 14:59:24","新北市板橋區莒光路133巷24號","121.472673333333","25.024525","6500100","板橋區"
"220003","827-TW","2018/12/11 14:59:33","新北市板橋區忠孝路48巷11弄13號","121.461876666667","24.9999066666667","6500100","板橋區"
"220016","830-TW","2018/12/11 14:59:30","新北市板橋區中山路二段408號","121.482721666667","25.02083","6500100","板橋區"
"220014","831-TW","2018/12/11 14:59:31","新北市板橋區中山路一段216巷2號","121.471138333333","25.0129016666667","6500100","板橋區"
"220022","895-R6","2018/12/11 14:59:25","新北市板橋區民權路65號","121.461575","25.0111883333333","6500100","板橋區"
"220021","985-R7","2018/12/11 14:59:35","新北市板橋區南雅西路二段72號","121.452701666667","25.0103733333333","6500100","板橋區"
"220046","AAC-210","2018/12/11 14:59:26","新北市板橋區公館街29號","121.461225","25.0153933333333","6500100","板橋區"
"220012","AAC-253","2018/12/11 14:59:16","新北市板橋區民族路304號","121.470645","25.00675","6500100","板橋區"
"235032","KEA-2873","2018/12/11 14:59:09","新北市中和區連城路72號","121.497436666667","25.0013066666667","6500300","中和區"
