"lineid","car","time","location","longitude","latitude","cityid","cityname"
"248017","225-UY","2018/12/11 15:09:33","新北市五股區登林路105-6號","121.407868333333","25.0788866666667","6501500","五股區"
"244002","248-BX","2018/12/11 15:09:34","新北市林口區竹林路266號","121.389711666667","25.0808316666667","6501700","林口區"
"231002","002-UM","2018/12/11 15:09:35","新北市新店區中正路537號","121.53344","24.986125","6500600","新店區"
"231028","046-UY","2018/12/11 15:09:27","新北市新店區僑信路119號","121.500751666667","24.945985","6500600","新店區"
"231001","047-UY","2018/12/11 15:09:32","新北市新店區中正路276號","121.538813333333","24.9736483333333","6500600","新店區"
"231005","106-UY","2018/12/11 15:09:28","新北市新店區順安街38號","121.541016666667","24.9856166666667","6500600","新店區"
"231020","108-UY","2018/12/11 15:09:26","新北市新店區永福路54-2號","121.558151666667","24.9287316666667","6500600","新店區"
"231012","187-VK","2018/12/11 15:09:33","新北市新店區寶元路一段63巷8號","121.542253333333","24.985885","6500600","新店區"
"231023","KEA-2219","2018/12/11 15:09:34","新北市新店區檳榔路174號","121.543936666667","24.9619566666667","6500600","新店區"
"231026","256-BX","2018/12/11 15:09:29","新北市新店區建安街26號","121.53972","24.9755016666667","6500600","新店區"
"231003","268-BY","2018/12/11 15:09:35","新北市新店區寶橋路132號","121.547461666667","24.976035","6500600","新店區"
"231018","278-BY","2018/12/11 15:09:23","新北市新店區中央七街125號","121.525023333333","24.9781183333333","6500600","新店區"
"231015","AAD-862","2018/12/11 15:07:41","新北市新店區明山路131-1號","121.567438333333","24.9612166666667","6500600","新店區"
"231038","3712-VJ","2018/12/11 15:09:20","新北市新店區安一路一段1-1號","121.519736666667","24.9611383333333","6500600","新店區"
"231025","4715-K9","2018/12/11 15:09:31","新北市新店區中正路489號","121.53375","24.98227","6500600","新店區"
"231036","512-UM","2018/12/11 15:09:31","新北市新店區安祥路104巷11弄16號","121.480908333333","24.9636533333333","6500600","新店區"
"231034","616-UM","2018/12/11 15:09:31","新北市新店區玫瑰路4-1號","121.493593333333","24.9514566666667","6500600","新店區"
"231030","619-UM","2018/12/11 15:09:35","新北市新店區安民街341-1號","121.516806666667","24.97489","6500600","新店區"
"231039","718-UY","2018/12/11 15:09:23","新北市新店區寶安街33號","121.541946666667","24.9824266666667","6500600","新店區"
"231035","719-UM","2018/12/11 15:09:28","新北市新店區永安街34巷9號","121.517998333333","24.985975","6500600","新店區"
"231029","897-TW","2018/12/11 15:09:33","新北市新店區安康路三段738號","121.473926666667","24.9420183333333","6500600","新店區"
"231006","898-TW","2018/12/11 15:09:15","新北市新店區新坡一街18巷5弄23號","121.550763333333","24.9618933333333","6500600","新店區"
"231004","899-TW","2018/12/11 15:09:36","新北市新店區建國路37巷1號","121.540483333333","24.9747683333333","6500600","新店區"
"231024","AKT-0513","2018/12/11 15:09:20","新北市新店區北新路一段307號","121.541291666667","24.967735","6500600","新店區"
"235030","003-UY","2018/12/11 15:09:28","新北市中和區光華街77號","121.506856666667","25.0026616666667","6500300","中和區"
"235004","150-BY","2018/12/11 15:09:27","新北市中和區保健路21-1號","121.508136666667","24.9981433333333","6500300","中和區"
"235007","352-BY","2018/12/11 15:09:23","新北市中和區興南路二段159巷10號","121.505128333333","24.9832266666667","6500300","中和區"
"235006","KEA-2878","2018/12/11 15:09:26","新北市新店區安康路二段318-1號","121.504748333333","24.9581816666667","6500300","中和區"
"235014","4979-A6","2018/12/11 15:09:19","新北市中和區景平路207號","121.510951666667","24.9925683333333","6500300","中和區"
"235033","4980-A6","2018/12/11 15:09:29","新北市中和區景新街64巷7弄6號","121.504088333333","24.9986133333333","6500300","中和區"
"235034","558-UM","2018/12/11 15:09:17","新北市中和區中正路434號","121.491261666667","24.9942716666667","6500300","中和區"
"235035","783-BX","2018/12/11 15:09:18","新北市中和區中板路47巷15號","121.482255","25.0117483333333","6500300","中和區"
"235012","896-TW","2018/12/11 15:09:21","新北市中和區興南路一段142-6號","121.508471666667","24.987175","6500300","中和區"
"235029","911-UM","2018/12/11 15:09:29","新北市中和區永和路39巷2號","121.498001666667","25.0050266666667","6500300","中和區"
"235001","AAC-213","2018/12/11 15:09:18","新北市中和區自立路173號","121.523188333333","24.9923566666667","6500300","中和區"
"235023","AAC-215","2018/12/11 15:09:30","新北市中和區圓通路367巷13弄26號","121.492986666667","24.9883616666667","6500300","中和區"
"220013","072-UY","2018/12/11 15:09:19","新北市板橋區忠孝路92號","121.461713333333","25.0020783333333","6500100","板橋區"
"228004","212-TW","2018/12/11 15:09:29","新北市貢寮區雙玉里田寮洋街16-2號","121.921836666667","25.0251283333333","6502600","貢寮區"
"207002","749-BX","2018/12/11 15:09:05","新北市萬里區崁腳里內中福路103號","121.653558333333","25.1634616666667","6502800","萬里區"
"207001","662-BX","2018/12/11 15:09:16","新北市萬里區雙興里麗水路3-2號","121.65336","25.18234","6502800","萬里區"
"236065","105-UM","2018/12/11 15:09:20","新北市土城區學成路76巷1號","121.451186666667","24.9883783333333","6501300","土城區"
"236040","KED-0685","2018/12/11 15:09:29","新北市土城區學士路26號","121.45303","24.98248","6501300","土城區"
"236074","166-UM","2018/12/11 15:09:29","新北市土城區中州路27巷78號","121.412593333333","24.9563966666667","6501300","土城區"
"236029","253-BX","2018/12/11 15:09:24","新北市土城區中央路二段80巷8弄2號","121.441943333333","24.97911","6501300","土城區"
"236024","269-VK","2018/12/11 15:09:25","新北市土城區中央路二段193號","121.44214","24.9752533333333","6501300","土城區"
"236013","270-VK","2018/12/11 15:09:31","新北市土城區學府路一段23巷28號","121.457525","24.987135","6501300","土城區"
"236032","271-VK","2018/12/11 15:09:32","新北市土城區國際路158巷54號","121.46797","24.9748216666667","6501300","土城區"
"247008","KED-0683","2018/12/11 14:59:26","新北市五股區中興路三段2巷10號","121.449218333333","25.08102","6501400","蘆洲區"
"236017","401-BY","2018/12/11 15:09:23","新北市土城區延峰街14號","121.468703333333","24.9864","6501300","土城區"
"236057","912-UM","2018/12/11 15:09:30","新北市土城區金城路一段27號","121.439971666667","24.9693016666667","6501300","土城區"
"236045","913-UM","2018/12/11 15:09:20","新北市土城區清水路260號","121.461548333333","24.9831733333333","6501300","土城區"
"236060","915-UM","2018/12/11 15:09:31","新北市土城區延和路105巷7弄1號","121.467213333333","24.9913166666667","6501300","土城區"
"236054","AAC-216","2018/12/11 15:09:23","新北市土城區學府路一段276號","121.45024","24.9834083333333","6501300","土城區"
"221010","297-VK","2018/12/11 15:06:42","新北市汐止區汐萬路一段256巷3號","121.652101666667","25.0748166666667","6501100","汐止區"
"220027","145-BY","2018/12/11 15:09:35","新北市板橋區金門街369巷83-1號","121.430923333333","24.981685","6500100","板橋區"
"220030","610-BX","2018/12/11 15:09:35","新北市板橋區金門街182-3號","121.432741666667","24.9909466666667","6500100","板橋區"
"220050","245-BX","2018/12/11 15:09:26","新北市板橋區雙十路二段47巷4弄29號","121.4748","25.026595","6500100","板橋區"
"220019","283-VK","2018/12/11 15:09:25","新北市板橋區四川路二段130巷25弄10號","121.448973333333","24.9945816666667","6500100","板橋區"
"220031","286-VK","2018/12/11 15:09:26","新北市板橋區僑中二街112巷1號","121.445741666667","25.0069833333333","6500100","板橋區"
"220029","287-VK","2018/12/11 15:09:32","新北市板橋區僑中一街80巷5弄8號","121.447435","25.0125566666667","6500100","板橋區"
"220009","293-UM","2018/12/11 15:09:19","新北市板橋區四川路一段286巷6號","121.458405","25.00099","6500100","板橋區"
"220010","295-UM","2018/12/11 15:09:23","新北市板橋區中山路二段529號","121.48328","25.0213666666667","6500100","板橋區"
"220038","487-VK","2018/12/11 15:09:24","新北市板橋區四維路221號","121.46314","25.0271566666667","6500100","板橋區"
"220037","491-VK","2018/12/11 15:09:28","新北市板橋區民治街92號","121.479195","25.0317766666667","6500100","板橋區"
"220011","609-BX","2018/12/11 15:09:30","新北市板橋區中山路二段91號","121.474225","25.015985","6500100","板橋區"
"220005","686-BX","2018/12/11 15:09:32","新北市板橋區四川路二段60號","121.452543333333","24.9948483333333","6500100","板橋區"
"220025","687-BX","2018/12/11 15:09:27","新北市板橋區僑中一街124巷53號","121.446511666667","25.015515","6500100","板橋區"
"220042","689-BX","2018/12/11 15:09:19","新北市板橋區陽明街8號","121.466766666667","25.02164","6500100","板橋區"
"220051","KEA-2699","2018/12/11 15:09:24","新北市板橋區萬板路820號","121.48338","25.0275783333333","6500100","板橋區"
"220003","827-TW","2018/12/11 15:09:33","新北市板橋區國慶路149巷37弄13號","121.460361666667","24.9979616666667","6500100","板橋區"
"220022","895-R6","2018/12/11 15:09:33","新北市板橋區府後街1巷2-2號","121.459096666667","25.0106733333333","6500100","板橋區"
"220012","AAC-253","2018/12/11 15:09:36","新北市板橋區民族路219巷67號","121.4685","25.0091266666667","6500100","板橋區"
