"lineid","car","time","location","longitude","latitude","cityid","cityname"
"248017","225-UY","2018/12/11 15:19:33","新北市五股區新五路二段87號","121.436215","25.0740983333333","6501500","五股區"
"244002","248-BX","2018/12/11 15:19:34","新北市林口區粉寮1號","121.397445","25.0797783333333","6501700","林口區"
"231002","002-UM","2018/12/11 15:19:15","新北市新店區中正路700巷1號","121.533998333333","24.99131","6500600","新店區"
"231028","046-UY","2018/12/11 15:19:27","新北市新店區僑信路114巷42號","121.499123333333","24.9462966666667","6500600","新店區"
"231001","047-UY","2018/12/11 15:19:32","新北市新店區北新路一段311-1號","121.541483333333","24.96803","6500600","新店區"
"231005","106-UY","2018/12/11 15:19:28","新北市新店區建國路134號","121.53908","24.9789516666667","6500600","新店區"
"231020","108-UY","2018/12/11 15:19:26","新北市新店區湖興路128-18號","121.562565","24.9307416666667","6500600","新店區"
"231012","187-VK","2018/12/11 15:19:33","新北市新店區寶慶街74號","121.541658333333","24.9868166666667","6500600","新店區"
"231023","KEA-2219","2018/12/11 15:19:34","新北市新店區北新路一段64巷12弄2號","121.542025","24.9655866666667","6500600","新店區"
"231026","256-BX","2018/12/11 15:19:29","新北市新店區中正路247巷8弄1號","121.538358333333","24.972285","6500600","新店區"
"231003","268-BY","2018/12/11 15:19:34","新北市新店區寶橋路238號","121.551551666667","24.9789183333333","6500600","新店區"
"231018","278-BY","2018/12/11 15:19:23","新北市新店區中央八街76號","121.52758","24.977035","6500600","新店區"
"231015","AAD-862","2018/12/11 15:19:21","新北市新店區明山路45號","121.56354","24.9558383333333","6500600","新店區"
"231038","3712-VJ","2018/12/11 15:19:20","新北市新店區安一路一段1-1號","121.519846666667","24.9611266666667","6500600","新店區"
"231025","4715-K9","2018/12/11 15:19:31","新北市新店區環河路113-1號","121.531128333333","24.97109","6500600","新店區"
"231036","512-UM","2018/12/11 15:19:31","新北市新店區安祥路67巷2號","121.483793333333","24.9596066666667","6500600","新店區"
"231034","616-UM","2018/12/11 15:19:31","新北市新店區如意街1巷2號","121.495761666667","24.94953","6500600","新店區"
"231030","619-UM","2018/12/11 15:19:15","新北市新店區安民街341-1號","121.51684","24.9748716666667","6500600","新店區"
"231039","718-UY","2018/12/11 15:19:23","新北市新店區寶元路一段63巷8號","121.542235","24.9858783333333","6500600","新店區"
"231035","719-UM","2018/12/11 15:19:28","新北市新店區安和路三段53號","121.518011666667","24.9827533333333","6500600","新店區"
"231029","897-TW","2018/12/11 15:19:33","新北市新店區安康路三段754號","121.473533333333","24.9417683333333","6500600","新店區"
"231004","899-TW","2018/12/11 15:19:36","新北市新店區博愛街13巷25號","121.540316666667","24.9741883333333","6500600","新店區"
"231024","AKT-0513","2018/12/11 15:19:20","新北市新店區安康路一段3-1號","121.535385","24.9610933333333","6500600","新店區"
"241011","013-R5","2018/12/11 15:19:25","新北市三重區重新路四段121號","121.484991666667","25.051995","6500200","三重區"
"241028","022-UY","2018/12/11 15:19:15","新北市三重區重新路四段121號","121.484786666667","25.0526033333333","6500200","三重區"
"241018","268-UM","2018/12/11 15:19:27","新北市三重區重新路四段121號","121.4848","25.05204","6500200","三重區"
"235004","150-BY","2018/12/11 15:19:27","新北市中和區安平路38號","121.509861666667","24.995075","6500300","中和區"
"235014","4979-A6","2018/12/11 15:19:19","新北市中和區景安路82巷6弄1號","121.505093333333","24.996285","6500300","中和區"
"235033","4980-A6","2018/12/11 15:19:29","新北市中和區中正路304號","121.494216666667","24.9941983333333","6500300","中和區"
"235012","896-TW","2018/12/11 15:19:34","新北市中和區景新街367號","121.51214","24.990605","6500300","中和區"
"235023","AAC-215","2018/12/11 15:19:30","新北市中和區圓通路435-6號","121.485766666667","24.987185","6500300","中和區"
"207002","749-BX","2018/12/11 15:19:25","新北市萬里區崁腳里內中福路28號","121.659943333333","25.165065","6502800","萬里區"
"207001","662-BX","2018/12/11 15:19:35","新北市萬里區大鵬里萬里加投15-2號","121.650448333333","25.209275","6502800","萬里區"
"236065","105-UM","2018/12/11 15:19:20","新北市土城區裕民路185巷36弄10號","121.45436","24.9845866666667","6501300","土城區"
"236040","KED-0685","2018/12/11 15:19:21","新北市土城區金城路二段245巷40號","121.455471666667","24.9831266666667","6501300","土城區"
"236074","166-UM","2018/12/11 15:19:29","新北市土城區溪頭路64號","121.411716666667","24.95484","6501300","土城區"
"236029","253-BX","2018/12/11 15:19:24","新北市土城區中華路一段207號","121.44278","24.9848","6501300","土城區"
"236024","269-VK","2018/12/11 15:19:27","新北市土城區中央路二段89號","121.44229","24.9781383333333","6501300","土城區"
"236013","270-VK","2018/12/11 15:19:31","新北市土城區廣福街92巷2號","121.456555","24.9913716666667","6501300","土城區"
"236032","271-VK","2018/12/11 15:19:32","新北市土城區國際路5號","121.465255","24.980055","6501300","土城區"
"247008","KED-0683","2018/12/11 14:59:26","新北市五股區中興路三段2巷10號","121.449218333333","25.08102","6501400","蘆洲區"
"236017","401-BY","2018/12/11 15:19:36","新北市土城區金城路三段198號","121.468558333333","24.988","6501300","土城區"
"236057","912-UM","2018/12/11 15:19:30","新北市土城區中央路二段151號","121.442001666667","24.9766666666667","6501300","土城區"
"236045","913-UM","2018/12/11 15:19:20","新北市土城區明德路一段143號","121.465073333333","24.9801733333333","6501300","土城區"
"236060","915-UM","2018/12/11 15:19:31","新北市土城區金城路三段73巷4弄5號","121.466263333333","24.9879883333333","6501300","土城區"
"236054","AAC-216","2018/12/11 15:19:31","新北市土城區延和路30號","121.464825","24.9885166666667","6501300","土城區"
"221010","297-VK","2018/12/11 15:06:42","新北市汐止區汐萬路一段256巷3號","121.652101666667","25.0748166666667","6501100","汐止區"
"220027","145-BY","2018/12/11 15:19:15","新北市樹林區中山路三段210-2號","121.381191666667","24.9658883333333","6500100","板橋區"
"220050","245-BX","2018/12/11 15:18:46","新北市板橋區民生路二段89-6號","121.470483333333","25.018835","6500100","板橋區"
"220031","286-VK","2018/12/11 15:19:26","新北市板橋區僑中一街2號","121.449356666667","25.0111983333333","6500100","板橋區"
"220009","293-UM","2018/12/11 15:19:19","新北市板橋區中山路一段7號","121.459918333333","25.00807","6500100","板橋區"
"220025","687-BX","2018/12/11 15:19:18","新北市板橋區大觀路一段28巷1弄104號","121.451601666667","25.0060966666667","6500100","板橋區"
"220022","895-R6","2018/12/11 15:19:25","新北市板橋區僑中一街124巷70-5號","121.448985","25.0166983333333","6500100","板橋區"
"220012","AAC-253","2018/12/11 15:19:16","新北市板橋區長安街331巷8號","121.474228333333","25.01227","6500100","板橋區"
