"lineid","car","time","location","longitude","latitude","cityid","cityname"
"231046","107-UY","2018/12/11 15:49:16","新北市新店區安一路一段1-1號","121.519666666667","24.96131","6500600","新店區"
"231020","108-UY","2018/12/11 15:49:26","新北市新店區新烏路一段87巷9號","121.546426666667","24.9421166666667","6500600","新店區"
"231012","187-VK","2018/12/11 15:49:33","新北市新店區中興路三段161號","121.544193333333","24.98038","6500600","新店區"
"231023","KEA-2219","2018/12/11 15:49:34","新北市新店區檳榔路9-1號","121.541091666667","24.9647633333333","6500600","新店區"
"231026","256-BX","2018/12/11 15:49:29","新北市新店區中正路541-1號","121.533393333333","24.9866883333333","6500600","新店區"
"231003","268-BY","2018/12/11 15:49:34","新北市新店區寶興路60巷3號","121.549911666667","24.9718733333333","6500600","新店區"
"231018","278-BY","2018/12/11 15:49:22","新北市新店區中正路663巷1弄2號","121.532998333333","24.9900733333333","6500600","新店區"
"231015","AAD-862","2018/12/11 15:49:21","新北市新店區中華路83巷2弄19號","121.53839","24.9689266666667","6500600","新店區"
"231038","3712-VJ","2018/12/11 15:49:20","新北市新店區安康路二段228巷17號","121.509558333333","24.9599666666667","6500600","新店區"
"231037","4716-K9","2018/12/11 15:49:19","新北市新店區安興路112號","121.514686666667","24.9776466666667","6500600","新店區"
"231013","513-UM","2018/12/11 15:49:17","新北市新店區華城路16-1號","121.529181666667","24.9575183333333","6500600","新店區"
"231034","616-UM","2018/12/11 15:49:31","新北市新店區吉祥街15巷1號","121.497758333333","24.9456216666667","6500600","新店區"
"231030","619-UM","2018/12/11 15:49:35","新北市新店區永安街64號","121.519426666667","24.9868516666667","6500600","新店區"
"231035","719-UM","2018/12/11 15:49:28","新北市新店區安興路83號","121.51522","24.975365","6500600","新店區"
"241011","013-R5","2018/12/11 15:49:25","新北市三重區三和路二段228號","121.497466666667","25.0696116666667","6500200","三重區"
"241028","022-UY","2018/12/11 15:49:35","新北市三重區中正南路115號","121.494121666667","25.0575466666667","6500200","三重區"
"241008","059-VK","2018/12/11 15:49:28","新北市三重區重新路四段121號","121.48488","25.0520516666667","6500200","三重區"
"241022","060-VK","2018/12/11 15:49:34","新北市三重區三陽路170-1號","121.481066666667","25.0587033333333","6500200","三重區"
"241015","062-VK","2018/12/11 15:49:26","新北市三重區重新路四段121號","121.485081666667","25.0520266666667","6500200","三重區"
"241017","063-VK","2018/12/11 15:49:21","新北市三重區大仁街1號","121.491661666667","25.063695","6500200","三重區"
"241024","065-VK","2018/12/11 15:49:17","新北市三重區成功路106-2號","121.487253333333","25.0516833333333","6500200","三重區"
"241002","090-VK","2018/12/11 15:49:35","新北市三重區重新路四段121號","121.484821666667","25.0518883333333","6500200","三重區"
"241003","091-VK","2018/12/11 15:49:18","新北市三重區環河南路99號","121.500781666667","25.05774","6500200","三重區"
"241005","262-UM","2018/12/11 15:49:23","新北市三重區福德南路108-14號","121.501971666667","25.0584766666667","6500200","三重區"
"241026","265-UM","2018/12/11 15:49:28","新北市三重區泉州街84巷20號","121.49593","25.0543766666667","6500200","三重區"
"241016","266-UM","2018/12/11 15:49:16","新北市三重區重新路四段121號","121.48513","25.0521216666667","6500200","三重區"
"241018","268-UM","2018/12/11 15:49:27","新北市三重區重新路四段121號","121.484828333333","25.0519933333333","6500200","三重區"
"241032","269-UM","2018/12/11 15:49:24","新北市三重區三陽路100巷3弄13號","121.482998333333","25.0581433333333","6500200","三重區"
"241013","270-UM","2018/12/11 15:49:27","新北市三重區六張街24號","121.495401666667","25.0705883333333","6500200","三重區"
"241025","271-UM","2018/12/11 15:49:34","新北市三重區名源街29巷2號","121.480145","25.0605133333333","6500200","三重區"
"241007","398-BY","2018/12/11 15:49:31","新北市三重區忠孝路三段56-1號","121.48041","25.0651116666667","6500200","三重區"
"241004","475-VK","2018/12/11 15:49:33","新北市三重區重新路四段121號","121.48493","25.051895","6500200","三重區"
"241020","478-VK","2018/12/11 15:49:19","新北市三重區忠孝路二段46號","121.485168333333","25.0704483333333","6500200","三重區"
"241014","543-UM","2018/12/11 15:49:34","新北市三重區重新路四段121號","121.485125","25.052","6500200","三重區"
"241023","545-UM","2018/12/11 15:49:24","新北市三重區忠孝路三段84巷16-1號","121.480843333333","25.06481","6500200","三重區"
"241033","557-UM","2018/12/11 15:23:59","新北市三重區重新路四段121號","121.484666666667","25.0520933333333","6500200","三重區"
"241006","AAD-863","2018/12/11 15:49:21","新北市三重區重新路四段121號","121.484615","25.0521283333333","6500200","三重區"
"241012","941-UM","2018/12/11 15:49:26","新北市三重區文化北路61-4號","121.49859","25.0663783333333","6500200","三重區"
"241029","942-UM","2018/12/11 15:49:27","新北市三重區正義南路169號","121.498975","25.0573533333333","6500200","三重區"
"235033","4980-A6","2018/12/11 15:49:29","新北市中和區中正路637巷44弄2號","121.485215","24.9943666666667","6500300","中和區"
"235046","733-UM","2018/12/11 15:35:56","新北市中和區員山路36巷13號","121.484043333333","24.9909083333333","6500300","中和區"
"235026","800-TS","2018/12/11 15:49:29","新北市中和區立德街13-9號","121.489578333333","25.006665","6500300","中和區"
"235023","AAC-215","2018/12/11 15:49:30","新北市中和區連城路523巷13弄22號","121.48219","24.99339","6500300","中和區"
"227003","642-TC","2018/12/11 15:49:24","新北市雙溪區平林里外平林44號","121.852933333333","25.0363483333333","6502500","雙溪區"
"227009","400-TW","2018/12/11 15:49:24","新北市雙溪區牡丹里中正路69號","121.864513333333","25.0440733333333","6502500","雙溪區"
"236065","105-UM","2018/12/11 15:49:20","新北市土城區金安街46號","121.420468333333","24.9653383333333","6501300","土城區"
"236074","166-UM","2018/12/11 15:49:29","新北市土城區三民路63號","121.419573333333","24.964405","6501300","土城區"
"236024","269-VK","2018/12/11 15:49:25","新北市土城區中央路一段211巷6弄13號","121.446713333333","24.9859416666667","6501300","土城區"
"236017","401-BY","2018/12/11 15:49:36","新北市土城區和城路二段253號","121.473083333333","24.9873833333333","6501300","土城區"
"236057","912-UM","2018/12/11 15:49:30","新北市土城區中正路1號","121.44216","24.9750983333333","6501300","土城區"
"236054","AAC-216","2018/12/11 15:49:23","新北市土城區中華路二段62號","121.438855","24.9766116666667","6501300","土城區"
"220012","AAC-253","2018/12/11 15:49:16","新北市板橋區華東街1-10號","121.448383333333","24.9949633333333","6500100","板橋區"
