"lineid","car","time","location","longitude","latitude","cityid","cityname"
"234042","862-TW","2018/12/11 17:09:51","新北市永和區福和路1號","121.526218333333","25.0098183333333","6500400","永和區"
"249005","172-UM","2018/12/11 17:29:33","新北市八里區荖阡坑路28-1號","121.403933333333","25.1296666666667","6502300","八里區"
"249001","173-UM","2018/12/11 17:29:32","新北市八里區大崁腳47-3號","121.42448","25.1589866666667","6502300","八里區"
"249004","303-UY","2018/12/11 17:29:36","新北市八里區民治街61號","121.414213333333","25.15726","6502300","八里區"
"249002","305-UY","2018/12/11 17:29:25","新北市八里區龍米路二段41號","121.448245","25.1401616666667","6502300","八里區"
"249003","593-UM","2018/12/11 17:29:26","新北市八里區中山路二段315號","121.400555","25.147735","6502300","八里區"
"232011","375-UM","2018/12/11 17:29:33","新北市坪林區北宜路八段438號","121.707713333333","24.9244766666667","6502000","坪林區"
"244023","069-UM","2018/12/11 17:29:17","新北市林口區東明一街54號","121.3922","25.0721133333333","6501700","林口區"
"244007","080-UY","2018/12/11 17:29:24","新北市林口區湖北里2鄰9號","121.38785","25.0895616666667","6501700","林口區"
"244019","402-UM","2018/12/11 17:29:22","新北市林口區公園路166號","121.372133333333","25.07221","6501700","林口區"
"244013","KEA-2802","2018/12/11 17:29:17","新北市林口區中山路6號","121.396715","25.0781766666667","6501700","林口區"
"244017","485-VK","2018/12/11 17:29:22","新北市林口區中山路202-1號","121.387591666667","25.079145","6501700","林口區"
"244009","656-BX","2018/12/11 17:29:36","新北市林口區中湖39-54號","121.385141666667","25.0861266666667","6501700","林口區"
"244025","837-TS","2018/12/11 17:29:36","新北市林口區南勢街112號","121.363493333333","25.0746066666667","6501700","林口區"
"244021","838-TS","2018/12/11 17:29:28","新北市林口區中山路2-2號","121.396801666667","25.0786866666667","6501700","林口區"
"231046","107-UY","2018/12/11 17:29:36","新北市新店區直潭路92號","121.530916666667","24.9376183333333","6500600","新店區"
"241011","013-R5","2018/12/11 17:29:25","新北市三重區河邊北街122-1號","121.503625","25.0713833333333","6500200","三重區"
"241022","060-VK","2018/12/11 17:29:34","新北市三重區新北大道一段7號","121.489668333333","25.0612766666667","6500200","三重區"
"241015","062-VK","2018/12/11 17:29:25","新北市三重區長元街65巷22弄20號","121.503673333333","25.065925","6500200","三重區"
"241017","063-VK","2018/12/11 17:29:21","新北市三重區重新路三段47巷5弄1號","121.492893333333","25.0618433333333","6500200","三重區"
"241024","065-VK","2018/12/11 17:29:37","新北市三重區後竹圍街295號","121.478748333333","25.0697383333333","6500200","三重區"
"241003","091-VK","2018/12/11 17:29:18","新北市三重區集賢路71-1號","121.494411666667","25.0864633333333","6500200","三重區"
"251014","742-BX","2018/12/11 17:29:21","新北市淡水區公埔子18號","121.473236666667","25.2268383333333","6501000","淡水區"
"241005","262-UM","2018/12/11 17:29:23","新北市三重區永安北路二段5巷2號","121.481776666667","25.08111","6500200","三重區"
"241016","266-UM","2018/12/11 17:29:36","新北市三重區信義西街41號","121.495216666667","25.0640616666667","6500200","三重區"
"241032","269-UM","2018/12/11 17:29:39","新北市三重區名源街36號","121.482356666667","25.059615","6500200","三重區"
"241013","270-UM","2018/12/11 17:29:21","新北市三重區仁愛街92巷8號","121.49507","25.0736983333333","6500200","三重區"
"241025","271-UM","2018/12/11 17:29:34","新北市三重區中正北路311號","121.47395","25.0714483333333","6500200","三重區"
"241007","398-BY","2018/12/11 17:29:31","新北市三重區慈愛街91號","121.487498333333","25.0795366666667","6500200","三重區"
"241020","478-VK","2018/12/11 17:29:39","新北市三重區忠孝路二段61號","121.48506","25.0705916666667","6500200","三重區"
"241030","480-VK","2018/12/11 17:29:22","新北市三重區中正南路262號","121.493273333333","25.0527683333333","6500200","三重區"
"241014","543-UM","2018/12/11 17:29:34","新北市三重區長壽街65號","121.501855","25.0684566666667","6500200","三重區"
"241023","545-UM","2018/12/11 17:29:23","新北市三重區三民街146巷11號","121.481301666667","25.0644","6500200","三重區"
"241033","557-UM","2018/12/11 17:17:19","新北市新莊區化成路630巷19弄1-1號","121.467286666667","25.055565","6500200","三重區"
"241019","KEA-2593","2018/12/11 17:29:39","新北市三重區六張街170號","121.489036666667","25.0687233333333","6500200","三重區"
"241012","941-UM","2018/12/11 17:29:26","新北市三重區仁興街41號","121.499031666667","25.0757916666667","6500200","三重區"
"235064","005-UY","2018/12/11 17:29:34","新北市中和區員山路36巷16-3號","121.485166666667","24.9912933333333","6500300","中和區"
"247012","KEA-2869","2018/12/11 17:29:24","新北市蘆洲區民族路31-12號","121.477936666667","25.085075","6501400","蘆洲區"
"247006","KED-0682","2018/12/11 17:29:21","新北市蘆洲區長安街68巷29號","121.463726666667","25.080945","6501400","蘆洲區"
"235065","911-UM","2018/12/11 17:29:29","新北市中和區員山路36巷16-2號","121.485218333333","24.9917616666667","6500300","中和區"
"247002","893-R6","2018/12/11 17:29:27","新北市蘆洲區永樂街38巷67弄10號","121.458038333333","25.09078","6501400","蘆洲區"
"247016","546-UM","2018/12/11 17:29:35","新北市蘆洲區光華路22巷42號","121.4683","25.0848533333333","6501400","蘆洲區"
"247024","500-BY","2018/12/11 17:29:24","新北市蘆洲區長興路389號","121.461131666667","25.0917166666667","6501400","蘆洲區"
"247020","057-VK","2018/12/11 17:29:30","新北市蘆洲區水湳街281號","121.469456666667","25.092895","6501400","蘆洲區"
"247010","056-VK","2018/12/11 17:29:31","新北市蘆洲區信義路175號","121.479638333333","25.0821816666667","6501400","蘆洲區"
"247014","053-VK","2018/12/11 17:29:30","新北市蘆洲區三民路33號","121.47548","25.082935","6501400","蘆洲區"
"247018","007-UY","2018/12/11 17:29:36","新北市蘆洲區民義街25號","121.471778333333","25.0889483333333","6501400","蘆洲區"
"247004","002-UY","2018/12/11 17:29:21","新北市蘆洲區長安街152號","121.45981","25.0824916666667","6501400","蘆洲區"
"247022","001-UY","2018/12/11 17:29:19","新北市蘆洲區中正路314號","121.464495","25.09113","6501400","蘆洲區"
"228001","212-TW","2018/12/11 17:29:36","新北市貢寮區仁理村仁愛路60號","121.925565","25.0534066666667","6502600","貢寮區"
"228002","663-BX","2018/12/11 17:29:17","新北市貢寮區福隆里興隆街36號","121.942475","25.0165516666667","6502600","貢寮區"
"228003","828-UM","2018/12/11 17:29:29","新北市貢寮區仁理村研海街62-2號","121.925423333333","25.045955","6502600","貢寮區"
"224010","AGQ-8101","2018/12/11 17:29:27","新北市瑞芳區逢甲路6號","121.811723333333","25.10822","6501200","瑞芳區"
"224006","676-BX","2018/12/11 17:29:16","新北市瑞芳區傑魚坑路77-1號","121.792911666667","25.11041","6501200","瑞芳區"
"224008","285-BY","2018/12/11 17:29:27","新北市瑞芳區侯硐路184號","121.82917","25.08723","6501200","瑞芳區"
"224009","273-VK","2018/12/11 17:29:18","新北市瑞芳區烏勢巷147號","121.846835","25.10762","6501200","瑞芳區"
"224005","271-BY","2018/12/11 17:29:10","新北市瑞芳區南雅路91號","121.884911666667","25.1228866666667","6501200","瑞芳區"
"227003","642-TC","2018/12/11 17:29:23","新北市雙溪區上林里內平林13號","121.83673","25.0287633333333","6502500","雙溪區"
"227009","400-TW","2018/12/11 17:29:24","新北市雙溪區三貂里定福路2號","121.850795","25.0663183333333","6502500","雙溪區"
"251004","009-UM","2018/12/11 17:17:27","新北市淡水區中正東路二段88巷15號","121.459116666667","25.15059","6501000","淡水區"
"251005","010-UM","2018/12/11 17:29:35","新北市淡水區鄧公路31巷14號","121.451835","25.1706483333333","6501000","淡水區"
"251013","KEA-2871","2018/12/11 17:29:31","新北市淡水區水尾子2號","121.463161666667","25.1946533333333","6501000","淡水區"
"251016","179-VK","2018/12/11 17:29:25","新北市淡水區埤島63-3號","121.4598","25.191625","6501000","淡水區"
"251015","180-VK","2018/12/11 17:29:26","新北市淡水區三空泉20號","121.469235","25.16654","6501000","淡水區"
"251008","181-VK","2018/12/11 17:29:34","新北市淡水區大同路113巷6號","121.463505","25.1415266666667","6501000","淡水區"
"251012","441-VK","2018/12/11 17:29:34","新北市淡水區北新路115號","121.448643333333","25.178515","6501000","淡水區"
"251006","561-UM","2018/12/11 17:29:33","新北市淡水區大仁街22號","121.4425","25.1750833333333","6501000","淡水區"
"251009","575-R6","2018/12/11 17:29:18","新北市淡水區建設街1巷7-1號","121.439418333333","25.17298","6501000","淡水區"
"251007","577-R6","2018/12/11 17:29:31","新北市淡水區民生路47-4號","121.46209","25.1380266666667","6501000","淡水區"
"251011","650-BX","2018/12/11 17:29:34","新北市淡水區坪頂路712號","121.4825","25.158505","6501000","淡水區"
"251002","672-BX","2018/12/11 17:29:30","新北市淡水區中正路259號","121.432758333333","25.1745733333333","6501000","淡水區"
"251003","673-BX","2018/12/11 17:29:32","新北市淡水區中山路159-1號","121.440815","25.1729266666667","6501000","淡水區"
"251010","766-UM","2018/12/11 17:29:28","新北市淡水區中正路二段211號","121.426213333333","25.1891316666667","6501000","淡水區"
"207003","550-UM","2018/12/11 17:29:24","新北市萬里區龜吼里翡翠路17號","121.683386666667","25.1872483333333","6502800","萬里區"
"207004","225-TW","2018/12/11 17:29:31","新北市萬里區萬里里景美路11-3號","121.685981666667","25.17297","6502800","萬里區"
"252002","178-VK","2018/12/11 17:29:24","新北市三芝區忠孝街1-14號","121.505523333333","25.2539266666667","6502100","三芝區"
"252001","292-VK","2018/12/11 17:29:31","新北市三芝區長安街119號","121.498075","25.2596633333333","6502100","三芝區"
"237012","275-BY","2018/12/11 17:29:33","新北市三峽區中山路459巷137號","121.35","24.9339366666667","6500900","三峽區"
"237016","649-BX","2018/12/11 17:29:26","新北市三峽區中山路117號","121.365673333333","24.9358116666667","6500900","三峽區"
"247008","KED-0683","2018/12/11 17:29:35","新北市蘆洲區民生街34號","121.474373333333","25.0787483333333","6501400","蘆洲區"
"242037","AAC-296","2018/12/11 17:20:44","新北市新莊區新泰路255巷83號","121.442758333333","25.03924","6500500","新莊區"
"242058","986-R7","2018/12/11 17:29:27","新北市新莊區中正路615號","121.432351666667","25.0319916666667","6500500","新莊區"
"242027","615-BX","2018/12/11 17:29:32","新北市新莊區思源路32號","121.460213333333","25.0405683333333","6500500","新莊區"
"242025","613-BX","2018/12/11 17:29:22","新北市新莊區復興路二段22號","121.454338333333","25.0439516666667","6500500","新莊區"
"242029","612-BX","2018/12/11 17:29:33","新北市新莊區復興路二段178號","121.458808333333","25.0443083333333","6500500","新莊區"
"242044","566-BX","2018/12/11 17:29:24","新北市新莊區富國路101-1號","121.421371666667","25.0255383333333","6500500","新莊區"
"242048","497-BY","2018/12/11 17:29:38","新北市新莊區四維路210號","121.421363333333","25.020095","6500500","新莊區"
"242054","442-UM","2018/12/11 17:29:35","新北市新莊區瓊林南路212號","121.433815","25.0060383333333","6500500","新莊區"
"242002","440-UM","2018/12/11 17:29:36","新北市新莊區新莊路154號","121.455223333333","25.0354483333333","6500500","新莊區"
"242039","415-TV","2018/12/11 17:29:38","新北市新莊區民安路294號","121.428105","25.0216916666667","6500500","新莊區"
"242009","413-TV","2018/12/11 17:29:35","新北市新莊區中原路111號","121.4557","25.0543366666667","6500500","新莊區"
"242046","400-BY","2018/12/11 17:29:24","新北市新莊區新樹路67巷38號","121.44066","25.0303016666667","6500500","新莊區"
"242023","362-BY","2018/12/11 17:29:21","新北市新莊區公園路152號","121.453206666667","25.0400516666667","6500500","新莊區"
"242061","353-BY","2018/12/11 17:29:37","新北市新莊區瓊林北路55號","121.438711666667","25.0207683333333","6500500","新莊區"
"242011","132-UY","2018/12/11 17:29:36","新北市新莊區幸福路602-1號","121.45222","25.0493283333333","6500500","新莊區"
"242034","135-UY","2018/12/11 17:29:24","新北市新莊區新莊路378號","121.449176666667","25.0334233333333","6500500","新莊區"
"242051","172-VK","2018/12/11 17:29:38","新北市新莊區新樹路453號","121.432793333333","25.0134516666667","6500500","新莊區"
"242013","173-VK","2018/12/11 17:29:27","新北市新莊區中誠街101號","121.449848333333","25.0477216666667","6500500","新莊區"
"242007","176-VK","2018/12/11 17:29:21","新北市新莊區自強街61號","121.454715","25.0472233333333","6500500","新莊區"
"242017","KED-0687","2018/12/11 17:29:32","新北市新莊區復興路一段187號","121.451661666667","25.0436966666667","6500500","新莊區"
"242056","346-TH","2018/12/11 17:29:39","新北市新莊區新泰路18號","121.449678333333","25.0331533333333","6500500","新莊區"
"242032","348-TH","2018/12/11 17:29:29","新北市新莊區新泰路401巷14號","121.44301","25.0440683333333","6500500","新莊區"
"242005","349-TH","2018/12/11 17:29:29","新北市新莊區中港路288巷14號","121.453455","25.0444983333333","6500500","新莊區"
"242021","350-TH","2018/12/11 17:29:33","新北市新莊區中華路一段18號","121.451983333333","25.0371083333333","6500500","新莊區"
"242015","351-TH","2018/12/11 17:29:31","新北市新莊區新泰路205號","121.447006666667","25.03824","6500500","新莊區"
"238015","755-BX","2018/12/11 17:29:22","新北市樹林區大安路211號","121.420293333333","24.99523","6500700","樹林區"
"238019","599-UM","2018/12/11 17:29:24","新北市樹林區八德街95號","121.420185","24.9811983333333","6500700","樹林區"
"238018","571-TV","2018/12/11 17:29:25","新北市樹林區博愛街248號","121.424063333333","24.9887683333333","6500700","樹林區"
"238024","5061-A6","2018/12/11 17:29:38","新北市樹林區博愛街207號","121.424011666667","24.9875783333333","6500700","樹林區"
"238022","KEA-2213","2018/12/11 17:29:34","新北市樹林區忠孝街12號","121.423268333333","24.9825516666667","6500700","樹林區"
"238025","303-VK","2018/12/11 17:29:23","新北市樹林區保安街一段204號","121.421148333333","24.9958533333333","6500700","樹林區"
"238017","283-BY","2018/12/11 17:29:35","新北市樹林區光武街11-6號","121.416105","25.0057466666667","6500700","樹林區"
"238014","282-BY","2018/12/11 17:29:36","新北市樹林區長壽街86號","121.420043333333","24.995795","6500700","樹林區"
"238020","268-VK","2018/12/11 17:29:40","新北市樹林區俊英街21-7號","121.429068333333","25.0020216666667","6500700","樹林區"
"238026","172-UY","2018/12/11 17:29:29","新北市樹林區味王街46巷6號","121.404316666667","24.9737616666667","6500700","樹林區"
"238016","169-UY","2018/12/11 17:04:04","新北市樹林區中山路三段204號","121.386941666667","24.9682566666667","6500700","樹林區"
"239007","AAC-297","2018/12/11 17:29:20","新北市鶯歌區中山路300號","121.343031666667","24.957005","6500800","鶯歌區"
"239006","891-R6","2018/12/11 17:29:36","新北市鶯歌區福安街7巷24弄52號","121.334746666667","24.96615","6500800","鶯歌區"
"239008","527-UM","2018/12/11 17:29:36","新北市鶯歌區大湖路590巷9號","121.335998333333","24.9742183333333","6500800","鶯歌區"
"239005","526-UM","2018/12/11 17:29:26","新北市鶯歌區鶯桃路545號","121.33034","24.967775","6500800","鶯歌區"
"239001","417-VK","2018/12/11 17:29:24","新北市鶯歌區高職西街7號","121.338083333333","24.9423783333333","6500800","鶯歌區"
"239003","360-BY","2018/12/11 17:29:40","新北市鶯歌區德昌街21號","121.33343","24.9600083333333","6500800","鶯歌區"
"239002","359-BY","2018/12/11 17:29:29","新北市鶯歌區育才街29號","121.348893333333","24.9550216666667","6500800","鶯歌區"
"239004","193-VK","2018/12/11 17:29:19","新北市鶯歌區文化路224號","121.352778333333","24.9487683333333","6500800","鶯歌區"
"221008","489-VK","2018/12/11 17:29:21","新北市汐止區康寧街901號","121.651313333333","25.0750466666667","6501100","汐止區"
"221010","297-VK","2018/12/11 17:29:28","新北市汐止區汐萬路一段256巷3號","121.652143333333","25.0747716666667","6501100","汐止區"
"242042","281-VK","2018/12/11 17:29:29","新北市新莊區新樹路115號","121.437455","25.0266483333333","6500500","新莊區"
"242019","280-VK","2018/12/11 17:29:28","新北市新莊區中港路75號","121.455421666667","25.038885","6500500","新莊區"
"235061","KEA-2875","2018/12/11 17:29:32","新北市中和區員山路36巷16-2號","121.485321666667","24.9917416666667","6500300","中和區"
