"lineid","car","time","location","longitude","latitude","cityid","cityname"
"234042","862-TW","2018/12/11 17:39:39","新北市永和區福和路1號","121.526308333333","25.00993","6500400","永和區"
"234026","9371-KE","2018/12/11 17:39:39","新北市永和區中正路649號","121.515165","25.0101516666667","6500400","永和區"
"249005","172-UM","2018/12/11 17:39:33","新北市八里區荖阡坑路34-1號","121.402723333333","25.129755","6502300","八里區"
"249001","173-UM","2018/12/11 17:39:24","新北市八里區龍米路二段140巷136號","121.438566666667","25.1542866666667","6502300","八里區"
"249004","303-UY","2018/12/11 17:39:36","新北市八里區中華路一段88號","121.420595","25.15775","6502300","八里區"
"249002","305-UY","2018/12/11 17:39:25","新北市八里區石壁腳19號","121.44171","25.135355","6502300","八里區"
"249003","593-UM","2018/12/11 17:39:26","新北市八里區中山路二段141號","121.4052","25.151275","6502300","八里區"
"232011","375-UM","2018/12/11 17:39:33","新北市坪林區北宜路八段101號","121.706081666667","24.9348633333333","6502000","坪林區"
"244023","069-UM","2018/12/11 17:39:17","新北市林口區興林路152巷16號","121.388166666667","25.0715383333333","6501700","林口區"
"244007","080-UY","2018/12/11 17:39:24","新北市林口區湖北里5鄰24號","121.386325","25.09322","6501700","林口區"
"244019","402-UM","2018/12/11 17:39:22","新北市林口區文化一路一段89-6號","121.371643333333","25.0706016666667","6501700","林口區"
"244013","KEA-2802","2018/12/11 17:39:35","新北市林口區中山路130-1號","121.392055","25.0786","6501700","林口區"
"244017","485-VK","2018/12/11 17:39:22","新北市林口區文化一路一段57-2號","121.37097","25.0699733333333","6501700","林口區"
"244009","656-BX","2018/12/11 17:39:36","新北市林口區民享路160號","121.382036666667","25.0831783333333","6501700","林口區"
"244025","837-TS","2018/12/11 17:39:36","新北市林口區南勢街21號","121.364951666667","25.0736333333333","6501700","林口區"
"244021","838-TS","2018/12/11 17:39:28","新北市林口區仁愛路一段157號","121.398633333333","25.072225","6501700","林口區"
"231046","107-UY","2018/12/11 17:39:36","新北市新店區直潭路109號","121.531793333333","24.9365616666667","6500600","新店區"
"241022","060-VK","2018/12/11 17:39:34","新北市三重區朝陽街26巷1弄22號","121.482501666667","25.056895","6500200","三重區"
"241017","063-VK","2018/12/11 17:39:21","新北市三重區大同北路32號","121.495223333333","25.0625033333333","6500200","三重區"
"241024","065-VK","2018/12/11 17:39:37","新北市三重區大勇街4號","121.483186666667","25.071415","6500200","三重區"
"251014","742-BX","2018/12/11 17:39:41","新北市淡水區公埔子16-6號","121.481026666667","25.2245633333333","6501000","淡水區"
"241005","262-UM","2018/12/11 17:39:23","新北市三重區仁愛街546號","121.486078333333","25.08175","6500200","三重區"
"241016","266-UM","2018/12/11 17:39:36","新北市三重區重新路二段21號","121.49792","25.0623933333333","6500200","三重區"
"241013","270-UM","2018/12/11 17:39:21","新北市三重區龍濱路204號","121.500701666667","25.0734916666667","6500200","三重區"
"241007","398-BY","2018/12/11 17:39:31","新北市蘆洲區永安南路一段178號","121.47508","25.0747633333333","6500200","三重區"
"241014","543-UM","2018/12/11 17:39:34","新北市三重區龍濱路285號","121.501063333333","25.0733733333333","6500200","三重區"
"241023","545-UM","2018/12/11 17:39:28","新北市三重區中華路81號","121.48352","25.0626533333333","6500200","三重區"
"241033","557-UM","2018/12/11 17:17:19","新北市新莊區化成路630巷19弄1-1號","121.467286666667","25.055565","6500200","三重區"
"241012","941-UM","2018/12/11 17:39:25","新北市三重區龍濱路285號","121.500981666667","25.073415","6500200","三重區"
"235064","005-UY","2018/12/11 17:39:34","新北市中和區員山路36巷16-3號","121.48512","24.9913","6500300","中和區"
"247012","KEA-2869","2018/12/11 17:39:24","新北市蘆洲區民權路30號","121.476485","25.08619","6501400","蘆洲區"
"247006","KED-0682","2018/12/11 17:39:21","新北市蘆洲區長安街68巷4號","121.462961666667","25.0803083333333","6501400","蘆洲區"
"235062","800-TS","2018/12/11 17:38:11","新北市中和區員山路36巷16-3號","121.484781666667","24.9915883333333","6500300","中和區"
"235065","911-UM","2018/12/11 17:39:29","新北市中和區員山路36巷16-2號","121.485186666667","24.991795","6500300","中和區"
"247002","893-R6","2018/12/11 17:39:28","新北市蘆洲區環堤大道214號","121.457736666667","25.0919183333333","6501400","蘆洲區"
"247016","546-UM","2018/12/11 17:39:35","新北市蘆洲區光華路70巷4號","121.467926666667","25.08317","6501400","蘆洲區"
"247024","500-BY","2018/12/11 17:39:24","新北市蘆洲區長樂路159號","121.462111666667","25.088115","6501400","蘆洲區"
"247020","057-VK","2018/12/11 17:39:30","新北市蘆洲區民族路331號","121.473761666667","25.0917633333333","6501400","蘆洲區"
"247010","056-VK","2018/12/11 17:39:31","新北市蘆洲區集賢路412號","121.479901666667","25.081375","6501400","蘆洲區"
"247014","053-VK","2018/12/11 17:39:30","新北市蘆洲區中正路3號","121.471533333333","25.08182","6501400","蘆洲區"
"247018","007-UY","2018/12/11 17:39:36","新北市蘆洲區水湳街1號","121.472846666667","25.0887116666667","6501400","蘆洲區"
"247004","002-UY","2018/12/11 17:39:21","新北市蘆洲區長安街249巷29號","121.457803333333","25.0825383333333","6501400","蘆洲區"
"247022","001-UY","2018/12/11 17:39:39","新北市蘆洲區民族路461號","121.467183333333","25.0885016666667","6501400","蘆洲區"
"228001","212-TW","2018/12/11 17:39:36","新北市貢寮區仁理村仁愛路95-1號","121.927656666667","25.055415","6502600","貢寮區"
"228002","663-BX","2018/12/11 17:39:37","新北市貢寮區福隆里龜壽谷街12號","121.95595","25.0062583333333","6502600","貢寮區"
"228003","828-UM","2018/12/11 17:39:29","新北市貢寮區仁理村仁和路33號","121.92393","25.053805","6502600","貢寮區"
"224010","AGQ-8101","2018/12/11 17:39:27","新北市瑞芳區岳王路81號","121.807076666667","25.11192","6501200","瑞芳區"
"224006","676-BX","2018/12/11 17:39:36","新北市瑞芳區中山路326號","121.79651","25.110115","6501200","瑞芳區"
"224008","285-BY","2018/12/11 17:39:27","新北市瑞芳區瑞柑新村30號","121.828961666667","25.1067933333333","6501200","瑞芳區"
"224009","273-VK","2018/12/11 17:39:38","新北市瑞芳區金光路259號","121.849443333333","25.1085266666667","6501200","瑞芳區"
"224005","271-BY","2018/12/11 17:39:30","新北市瑞芳區海濱路8-6號","121.831636666667","25.1261716666667","6501200","瑞芳區"
"227003","642-TC","2018/12/11 17:39:23","新北市雙溪區共和里東榮街52號","121.866288333333","25.033625","6502500","雙溪區"
"251004","009-UM","2018/12/11 17:17:27","新北市淡水區中正東路二段88巷15號","121.459116666667","25.15059","6501000","淡水區"
"251005","010-UM","2018/12/11 17:39:35","新北市淡水區鄧公路33巷7號","121.451763333333","25.1710083333333","6501000","淡水區"
"251013","KEA-2871","2018/12/11 17:39:31","新北市淡水區演戲埔腳12號","121.469385","25.1942066666667","6501000","淡水區"
"251016","179-VK","2018/12/11 17:39:25","新北市淡水區埤島39-15號","121.452748333333","25.1958666666667","6501000","淡水區"
"251015","180-VK","2018/12/11 17:39:26","新北市淡水區樹林口168號","121.474868333333","25.166495","6501000","淡水區"
"251008","181-VK","2018/12/11 17:39:34","新北市淡水區八勢路一段48號","121.465793333333","25.1548983333333","6501000","淡水區"
"251012","441-VK","2018/12/11 17:39:34","新北市淡水區北新路200巷8號","121.451753333333","25.1797583333333","6501000","淡水區"
"251006","561-UM","2018/12/11 17:39:33","新北市淡水區大信街32號","121.44207","25.1771016666667","6501000","淡水區"
"251009","575-R6","2018/12/11 17:39:38","新北市淡水區中正路28號","121.444208333333","25.1691283333333","6501000","淡水區"
"251007","577-R6","2018/12/11 17:39:31","新北市淡水區民生路124巷4弄7號","121.46356","25.1379533333333","6501000","淡水區"
"251011","650-BX","2018/12/11 17:39:34","新北市淡水區小坪頂23-1號","121.484926666667","25.156175","6501000","淡水區"
"251002","672-BX","2018/12/11 17:39:30","新北市淡水區中山路151-7號","121.440403333333","25.1723816666667","6501000","淡水區"
"251003","673-BX","2018/12/11 17:39:32","新北市淡水區中山北路一段69號","121.441903333333","25.1757566666667","6501000","淡水區"
"251010","766-UM","2018/12/11 17:39:28","新北市淡水區淡海路280巷97號","121.419925","25.189155","6501000","淡水區"
"207003","550-UM","2018/12/11 17:39:24","新北市萬里區龜吼里漁澳路61-1號","121.687261666667","25.1952483333333","6502800","萬里區"
"207004","225-TW","2018/12/11 17:39:31","新北市萬里區中幅里中福路20號","121.684636666667","25.1644016666667","6502800","萬里區"
"252002","178-VK","2018/12/11 17:39:24","新北市三芝區中正路二段18號","121.504415","25.2553116666667","6502100","三芝區"
"252001","292-VK","2018/12/11 17:39:31","新北市三芝區淡金路二段4號","121.502373333333","25.2592033333333","6502100","三芝區"
"237012","275-BY","2018/12/11 17:39:33","新北市三峽區中山路459巷163-3號","121.349028333333","24.9333083333333","6500900","三峽區"
"237016","649-BX","2018/12/11 17:39:26","新北市三峽區白雞35號","121.375723333333","24.9119733333333","6500900","三峽區"
"237010","706-TV","2018/12/11 17:39:32","新北市三峽區中山路138-2號","121.365071666667","24.9362316666667","6500900","三峽區"
"236070","105-UM","2018/12/11 17:39:32","新北市土城區中華路一段273號","121.44024","24.980285","6501300","土城區"
"236079","166-UM","2018/12/11 17:39:29","新北市土城區城林路6巷80號","121.438411666667","24.9796616666667","6501300","土城區"
"236014","270-VK","2018/12/11 17:39:38","新北市土城區城林路6巷80號","121.438461666667","24.9795833333333","6501300","土城區"
"247008","KED-0683","2018/12/11 17:39:22","新北市蘆洲區民生街131巷2號","121.472661666667","25.0791233333333","6501400","蘆洲區"
"236021","401-BY","2018/12/11 17:39:23","新北市土城區城林路6巷80號","121.438831666667","24.9795966666667","6501300","土城區"
"242037","AAC-296","2018/12/11 17:20:44","新北市新莊區新泰路255巷83號","121.442758333333","25.03924","6500500","新莊區"
"242058","986-R7","2018/12/11 17:39:27","新北市新莊區中正路723-8號","121.423085","25.02913","6500500","新莊區"
"242027","615-BX","2018/12/11 17:39:32","新北市新莊區福壽街108號","121.45805","25.050565","6500500","新莊區"
"242025","613-BX","2018/12/11 17:39:35","新北市新莊區思源路108號","121.460148333333","25.0465883333333","6500500","新莊區"
"242029","612-BX","2018/12/11 17:39:33","新北市新莊區復興路一段165號","121.451006666667","25.043345","6500500","新莊區"
"242044","566-BX","2018/12/11 17:39:24","新北市新莊區中正路871巷8號","121.418491666667","25.0267566666667","6500500","新莊區"
"242048","497-BY","2018/12/11 17:39:38","新北市新莊區萬安街110號","121.42053","25.022195","6500500","新莊區"
"242054","442-UM","2018/12/11 17:39:35","新北市新莊區新樹路699巷33號","121.43302","25.001335","6500500","新莊區"
"242002","440-UM","2018/12/11 17:39:36","新北市新莊區新莊路294號","121.451253333333","25.0337483333333","6500500","新莊區"
"242039","415-TV","2018/12/11 17:39:38","新北市新莊區民全街11號","121.428965","25.0214766666667","6500500","新莊區"
"242009","413-TV","2018/12/11 17:39:33","新北市新莊區福壽街169巷14號","121.457135","25.05376","6500500","新莊區"
"242046","400-BY","2018/12/11 17:39:32","新北市新莊區福營路25巷18號","121.437145","25.0321166666667","6500500","新莊區"
"242023","362-BY","2018/12/11 17:39:21","新北市新莊區民樂街30號","121.457725","25.0408466666667","6500500","新莊區"
"242061","353-BY","2018/12/11 17:39:38","新北市新莊區瓊林南路70號","121.434435","25.0131933333333","6500500","新莊區"
"242011","132-UY","2018/12/11 17:39:29","新北市新莊區中港路609號","121.451366666667","25.05332","6500500","新莊區"
"242034","135-UY","2018/12/11 17:39:20","新北市新莊區新莊路637號","121.445271666667","25.03289","6500500","新莊區"
"242051","172-VK","2018/12/11 17:39:38","新北市新莊區西盛街187-16號","121.429056666667","25.0171666666667","6500500","新莊區"
"242013","173-VK","2018/12/11 17:39:27","新北市新莊區中誠街97號","121.449978333333","25.0476833333333","6500500","新莊區"
"242007","176-VK","2018/12/11 17:39:25","新北市新莊區福樂街118巷15號","121.457453333333","25.0483516666667","6500500","新莊區"
"242017","KED-0687","2018/12/11 17:39:33","新北市新莊區復興路一段149巷21弄21號","121.449153333333","25.0438816666667","6500500","新莊區"
"242056","346-TH","2018/12/11 17:39:28","新北市新莊區新莊路543巷9弄28號","121.448325","25.0318616666667","6500500","新莊區"
"242032","348-TH","2018/12/11 17:39:25","新北市新莊區新泰路336號","121.44481","25.0420233333333","6500500","新莊區"
"242005","349-TH","2018/12/11 17:39:38","新北市新莊區自立街204號","121.456851666667","25.04549","6500500","新莊區"
"242021","350-TH","2018/12/11 17:39:26","新北市新莊區中華路一段112號","121.452376666667","25.0403216666667","6500500","新莊區"
"242015","351-TH","2018/12/11 17:39:31","新北市新莊區新泰路330號","121.444923333333","25.0419083333333","6500500","新莊區"
"238015","755-BX","2018/12/11 17:39:22","新北市樹林區啟智街34號","121.420668333333","24.9931666666667","6500700","樹林區"
"238019","599-UM","2018/12/11 17:39:34","新北市樹林區太平路117號","121.419196666667","24.9808216666667","6500700","樹林區"
"238018","571-TV","2018/12/11 17:39:25","新北市樹林區鎮前街60號","121.42571","24.9924266666667","6500700","樹林區"
"238022","KEA-2213","2018/12/11 17:39:34","新北市樹林區中華路187巷19號","121.4209","24.9808533333333","6500700","樹林區"
"238021","KEA-2539","2018/12/11 17:39:25","新北市樹林區柑園街一段271號","121.39425","24.9563416666667","6500700","樹林區"
"238025","303-VK","2018/12/11 17:39:23","新北市樹林區保安街二段154號","121.413275","25.0044883333333","6500700","樹林區"
"238017","283-BY","2018/12/11 17:39:35","新北市樹林區中正路248巷28弄16號","121.418908333333","25.008035","6500700","樹林區"
"238014","282-BY","2018/12/11 17:39:31","新北市樹林區保安街一段362號","121.417783333333","24.9985383333333","6500700","樹林區"
"238020","268-VK","2018/12/11 17:39:36","新北市樹林區俊英街116巷29弄12號","121.428203333333","25.006755","6500700","樹林區"
"238026","172-UY","2018/12/11 17:39:29","新北市樹林區新興街16號","121.400138333333","24.9735083333333","6500700","樹林區"
"239007","AAC-297","2018/12/11 17:39:40","新北市鶯歌區鶯桃路182巷12號","121.337195","24.9558516666667","6500800","鶯歌區"
"239006","891-R6","2018/12/11 17:39:36","新北市鶯歌區鶯桃路524-1號","121.331535","24.9667233333333","6500800","鶯歌區"
"239008","527-UM","2018/12/11 17:39:36","新北市鶯歌區大湖路746號","121.332021666667","24.9771083333333","6500800","鶯歌區"
"239005","526-UM","2018/12/11 17:39:25","新北市鶯歌區福隆二街69巷1弄11號","121.323696666667","24.9716766666667","6500800","鶯歌區"
"239001","417-VK","2018/12/11 17:39:24","新北市鶯歌區中正三路248號","121.329968333333","24.9365716666667","6500800","鶯歌區"
"239003","360-BY","2018/12/11 17:39:20","新北市鶯歌區鶯桃路206巷46號","121.337945","24.9600216666667","6500800","鶯歌區"
"239002","359-BY","2018/12/11 17:39:29","新北市鶯歌區育德街41號","121.343926666667","24.9550683333333","6500800","鶯歌區"
"239004","193-VK","2018/12/11 17:39:19","新北市鶯歌區三鶯路102號","121.359056666667","24.9438066666667","6500800","鶯歌區"
"221008","489-VK","2018/12/11 17:39:21","新北市汐止區康寧街901號","121.651413333333","25.0750333333333","6501100","汐止區"
"221023","279-VK","2018/12/11 17:39:19","新北市汐止區汐萬路一段256巷1號","121.651696666667","25.07488","6501100","汐止區"
"221032","280-BY","2018/12/11 17:39:36","新北市汐止區康寧街901號","121.651705","25.0749316666667","6501100","汐止區"
"221010","297-VK","2018/12/11 17:39:28","新北市汐止區康寧街901號","121.65084","25.075195","6501100","汐止區"
"221021","299-VK","2018/12/11 17:39:20","新北市汐止區康寧街901號","121.651083333333","25.0751533333333","6501100","汐止區"
"221031","353-TW","2018/12/11 17:39:31","新北市汐止區康寧街901號","121.650808333333","25.0752383333333","6501100","汐止區"
"221025","623-UM","2018/12/11 17:39:38","新北市汐止區康寧街901號","121.651021666667","25.075195","6501100","汐止區"
"242042","281-VK","2018/12/11 17:39:29","新北市泰山區台麗街93-6號","121.428848333333","25.0358016666667","6500500","新莊區"
"242019","280-VK","2018/12/11 17:39:28","新北市新莊區中港路203號","121.45487","25.0419283333333","6500500","新莊區"
"235061","KEA-2875","2018/12/11 17:34:23","新北市中和區員山路36巷16-2號","121.485321666667","24.9917416666667","6500300","中和區"
