"lineid","car","time","location","longitude","latitude","cityid","cityname"
"234042","862-TW","2018/12/11 17:59:19","新北市永和區福和路1號","121.525538333333","25.009515","6500400","永和區"
"234026","9371-KE","2018/12/11 17:59:38","新北市永和區永和路一段64號","121.513026666667","25.0059466666667","6500400","永和區"
"249005","172-UM","2018/12/11 17:59:33","新北市八里區荖阡坑路16-8號","121.398706666667","25.138625","6502300","八里區"
"249001","173-UM","2018/12/11 17:59:24","新北市八里區龍米路二段35號","121.448425","25.1399866666667","6502300","八里區"
"249004","303-UY","2018/12/11 17:59:36","新北市八里區龍米路二段203-5號","121.43261","25.158275","6502300","八里區"
"249002","305-UY","2018/12/11 17:59:25","新北市八里區龍形五街15號","121.450046666667","25.133425","6502300","八里區"
"249003","593-UM","2018/12/11 17:59:26","新北市八里區中華路二段203號","121.40534","25.14954","6502300","八里區"
"248006","077-UY","2018/12/11 17:59:24","新北市五股區中興路二段103巷16號","121.458896666667","25.0758966666667","6501500","五股區"
"248008","095-VK","2018/12/11 17:59:23","新北市五股區更洲路10號","121.45829","25.0788016666667","6501500","五股區"
"248020","225-UY","2018/12/11 17:59:37","新北市五股區中興路二段83巷26-6號","121.460071666667","25.0752416666667","6501500","五股區"
"248004","677-BX","2018/12/11 17:59:34","新北市五股區中興路二段83巷26-6號","121.45994","25.07517","6501500","五股區"
"248002","678-BX","2018/12/11 17:59:34","新北市五股區中興路二段37巷28號","121.460193333333","25.0748083333333","6501500","五股區"
"232011","375-UM","2018/12/11 17:59:33","新北市坪林區北宜路八段226號","121.708775","24.9348533333333","6502000","坪林區"
"244023","069-UM","2018/12/11 17:59:37","新北市林口區東湖路41巷11號","121.386275","25.073275","6501700","林口區"
"244007","080-UY","2018/12/11 17:59:24","新北市林口區林口路199號","121.387431666667","25.08261","6501700","林口區"
"244019","402-UM","2018/12/11 17:59:22","新北市林口區文化一路一段116號","121.373973333333","25.0715566666667","6501700","林口區"
"244013","KEA-2802","2018/12/11 17:59:35","新北市林口區中山路140號","121.391606666667","25.0786116666667","6501700","林口區"
"244017","485-VK","2018/12/11 17:59:22","新北市林口區文化三路一段402巷2號","121.368515","25.0738966666667","6501700","林口區"
"244009","656-BX","2018/12/11 17:59:36","新北市林口區佳林路56巷43號","121.385178333333","25.0807633333333","6501700","林口區"
"244011","701-TV","2018/12/11 17:59:36","新北市林口區中正路114號","121.393491666667","25.0772333333333","6501700","林口區"
"244025","837-TS","2018/12/11 17:59:36","新北市林口區三民路18號","121.358613333333","25.0666766666667","6501700","林口區"
"244021","838-TS","2018/12/11 17:59:28","新北市林口區自強三街23號","121.397838333333","25.0772983333333","6501700","林口區"
"243013","539-UM","2018/12/11 17:59:27","新北市泰山區犁頭窠12-5號","121.421563333333","25.055865","6501600","泰山區"
"222003","436-BY","2018/12/11 17:59:23","新北市深坑區炮子崙23號","121.607168333333","24.9908383333333","6501800","深坑區"
"222002","659-BX","2018/12/11 17:59:36","新北市深坑區文化街96號","121.617146666667","25.001875","6501800","深坑區"
"231041","002-UM","2018/12/11 17:59:26","新北市新店區安華路28-1號","121.519783333333","24.9608366666667","6500600","新店區"
"231046","107-UY","2018/12/11 17:59:36","新北市新店區直潭路113號","121.532025","24.93476","6500600","新店區"
"231058","3713-VJ","2018/12/11 17:59:26","新北市新店區安華路28-1號","121.519088333333","24.960695","6500600","新店區"
"231045","898-TW","2018/12/11 17:59:27","新北市新店區安一路一段1-1號","121.518903333333","24.9611683333333","6500600","新店區"
"231055","AKT-0513","2018/12/11 17:59:39","新北市新店區安華路1-1號","121.519678333333","24.9604783333333","6500600","新店區"
"241024","065-VK","2018/12/11 17:59:37","新北市三重區車路頭街35號","121.483881666667","25.071515","6500200","三重區"
"251014","742-BX","2018/12/11 17:59:41","新北市淡水區公埔子16-6號","121.481041666667","25.2245683333333","6501000","淡水區"
"241016","266-UM","2018/12/11 17:59:36","新北市五股區中興路三段1-7號","121.452126666667","25.0755183333333","6500200","三重區"
"235064","005-UY","2018/12/11 17:59:34","新北市中和區員山路36巷16-3號","121.485125","24.99133","6500300","中和區"
"235056","096-UM","2018/12/11 17:59:36","新北市中和區員山路36巷13號","121.484278333333","24.9914416666667","6500300","中和區"
"235058","151-BY","2018/12/11 17:59:23","新北市中和區圓通路367巷4號","121.491381666667","24.98924","6500300","中和區"
"235038","185-VK","2018/12/11 17:59:26","新北市中和區中正路273號","121.49567","24.9938166666667","6500300","中和區"
"247012","KEA-2869","2018/12/11 17:59:28","新北市蘆洲區民族路248號","121.479146666667","25.088565","6501400","蘆洲區"
"235062","800-TS","2018/12/11 17:59:22","新北市中和區和城路一段271巷1號","121.485515","24.9920333333333","6500300","中和區"
"235057","801-TS","2018/12/11 17:59:31","新北市中和區員山路36巷16-3號","121.485015","24.9912916666667","6500300","中和區"
"235065","911-UM","2018/12/11 17:59:09","新北市中和區橋和路172號","121.494618333333","25.00619","6500300","中和區"
"235051","157-BY","2018/12/11 17:59:30","新北市中和區員山路36巷12號","121.48404","24.9908516666667","6500300","中和區"
"235037","AAC-213","2018/12/11 17:59:34","新北市中和區錦和路350-1號","121.49029","24.9935866666667","6500300","中和區"
"247002","893-R6","2018/12/11 17:59:27","新北市蘆洲區永平街32巷57弄6號","121.459598333333","25.0928866666667","6501400","蘆洲區"
"247016","546-UM","2018/12/11 17:59:35","新北市蘆洲區中正路185巷78弄17號","121.465741666667","25.0848233333333","6501400","蘆洲區"
"247024","500-BY","2018/12/11 17:59:24","新北市蘆洲區光復路30巷1號","121.463351666667","25.0845866666667","6501400","蘆洲區"
"247014","053-VK","2018/12/11 17:59:30","新北市蘆洲區忠孝路57號","121.471338333333","25.0866983333333","6501400","蘆洲區"
"247018","007-UY","2018/12/11 17:59:36","新北市蘆洲區復興路300號","121.481213333333","25.089995","6501400","蘆洲區"
"228001","212-TW","2018/12/11 17:59:36","新北市貢寮區真理里新港街26巷53號","121.928443333333","25.0536383333333","6502600","貢寮區"
"228002","663-BX","2018/12/11 17:59:37","新北市貢寮區福連里香蘭街2-1號","121.970915","25.0242183333333","6502600","貢寮區"
"228003","828-UM","2018/12/11 17:59:29","新北市貢寮區真理里美艷山街6-2號","121.928811666667","25.0607366666667","6502600","貢寮區"
"224006","676-BX","2018/12/11 17:59:36","新北市瑞芳區大寮路356-1號","121.784853333333","25.1031983333333","6501200","瑞芳區"
"224008","285-BY","2018/12/11 17:59:27","新北市瑞芳區明燈路一段45巷19號","121.821625","25.10578","6501200","瑞芳區"
"224009","273-VK","2018/12/11 17:59:38","新北市瑞芳區金光路117號","121.853668333333","25.1061566666667","6501200","瑞芳區"
"224005","271-BY","2018/12/11 17:59:29","新北市瑞芳區深澳路199-1號","121.819483333333","25.133505","6501200","瑞芳區"
"227003","642-TC","2018/12/11 17:40:10","新北市雙溪區共和里東榮街52號","121.866298333333","25.0336316666667","6502500","雙溪區"
"253006","032-BX","2018/12/11 17:59:32","新北市石門區大丘田45-2號","121.549763333333","25.27488","6502200","石門區"
"253005","295-VK","2018/12/11 17:59:24","新北市石門區中山路62-11號","121.567553333333","25.2896666666667","6502200","石門區"
"222001","KEA-2212","2018/12/11 17:59:39","新北市深坑區北深路二段193號","121.611985","25.00115","6501800","深坑區"
"208002","KEA-2872","2018/12/11 17:59:36","新北市金山區三界壇路44號","121.623351666667","25.22905","6502700","金山區"
"208003","665-BX","2018/12/11 17:59:32","新北市金山區磺港里磺港路310號","121.644146666667","25.227665","6502700","金山區"
"208001","761-BX","2018/12/11 17:59:35","新北市金山區磺港里社寮17號","121.639181666667","25.22642","6502700","金山區"
"251004","009-UM","2018/12/11 17:59:30","新北市淡水區民權路107號","121.460093333333","25.1375433333333","6501000","淡水區"
"251005","010-UM","2018/12/11 17:59:35","新北市淡水區英專路125號","121.445933333333","25.17262","6501000","淡水區"
"251013","KEA-2871","2018/12/11 17:59:31","新北市淡水區泉洲厝31號","121.479603333333","25.19103","6501000","淡水區"
"251016","179-VK","2018/12/11 17:59:37","新北市淡水區淡金路三段46巷13弄1號","121.448253333333","25.1992583333333","6501000","淡水區"
"251015","180-VK","2018/12/11 17:59:26","新北市淡水區興福寮88巷1號","121.485245","25.1649483333333","6501000","淡水區"
"251008","181-VK","2018/12/11 17:59:34","新北市淡水區八勢一街32巷6號","121.461638333333","25.1563","6501000","淡水區"
"251012","441-VK","2018/12/11 17:59:34","新北市淡水區北新路三段38巷5號","121.484495","25.1870033333333","6501000","淡水區"
"251001","559-UM","2018/12/11 17:59:24","新北市淡水區民權路94巷1號","121.463131666667","25.1248216666667","6501000","淡水區"
"251006","561-UM","2018/12/11 17:59:33","新北市淡水區真理街1-1號","121.438166666667","25.1730783333333","6501000","淡水區"
"251009","575-R6","2018/12/11 17:59:38","新北市淡水區大仁街6巷1號","121.442468333333","25.1745883333333","6501000","淡水區"
"251007","577-R6","2018/12/11 17:59:31","新北市淡水區中正東路二段145號","121.459695","25.1468916666667","6501000","淡水區"
"251011","650-BX","2018/12/11 17:59:34","新北市淡水區三空泉6-3號","121.476796666667","25.1624316666667","6501000","淡水區"
"251002","672-BX","2018/12/11 17:59:38","新北市淡水區中正東路79號","121.447523333333","25.1672683333333","6501000","淡水區"
"251003","673-BX","2018/12/11 17:59:32","新北市淡水區大忠街90號","121.444793333333","25.1763433333333","6501000","淡水區"
"251010","766-UM","2018/12/11 17:59:28","新北市淡水區淡海路46號","121.423158333333","25.179985","6501000","淡水區"
"207003","550-UM","2018/12/11 17:59:24","新北市萬里區港東路野柳風景區攤販66號","121.691295","25.2058533333333","6502800","萬里區"
"207004","225-TW","2018/12/11 17:59:31","新北市萬里區中幅里中福路48號","121.683558333333","25.17403","6502800","萬里區"
"252002","178-VK","2018/12/11 17:59:24","新北市三芝區中山路二段38號","121.502986666667","25.25511","6502100","三芝區"
"252001","292-VK","2018/12/11 17:59:31","新北市三芝區中興街二段2號","121.49847","25.2566166666667","6502100","三芝區"
"237004","KEA-2597","2018/12/11 17:59:27","新北市三峽區中園街213號","121.366988333333","24.9204016666667","6500900","三峽區"
"237007","153-BY","2018/12/11 17:59:29","新北市三峽區中正路二段46號","121.366643333333","24.9188716666667","6500900","三峽區"
"237009","210-TH","2018/12/11 17:59:25","新北市三峽區中山路106巷18號","121.366051666667","24.9365916666667","6500900","三峽區"
"237013","252-BX","2018/12/11 17:59:18","新北市三峽區介壽路一段197號","121.377921666667","24.9307316666667","6500900","三峽區"
"237012","275-BY","2018/12/11 17:59:33","新北市三峽區民生街27巷30號","121.376083333333","24.9361516666667","6500900","三峽區"
"237008","302-VK","2018/12/11 17:59:29","新北市三峽區白雞38-20號","121.373556666667","24.9115733333333","6500900","三峽區"
"237014","433-BY","2018/12/11 17:59:29","新北市三峽區復興路101巷1弄79號","121.370945","24.9376866666667","6500900","三峽區"
"237006","5529-G3","2018/12/11 17:59:27","新北市三峽區介壽路二段138巷9號","121.39583","24.9340466666667","6500900","三峽區"
"237011","KEA-2596","2018/12/11 17:59:29","新北市三峽區光明路48號","121.374661666667","24.9296716666667","6500900","三峽區"
"237016","649-BX","2018/12/11 17:59:26","新北市三峽區紫微路105號","121.40934","24.9119233333333","6500900","三峽區"
"237010","706-TV","2018/12/11 17:59:32","新北市三峽區中山路81號","121.366776666667","24.93516","6500900","三峽區"
"237005","AKY-6261","2018/12/11 17:59:33","新北市三峽區復興路235號","121.368186666667","24.9388483333333","6500900","三峽區"
"236070","105-UM","2018/12/11 17:59:32","新北市土城區青雲路474-2號","121.4638","24.966355","6501300","土城區"
"236042","KED-0685","2018/12/11 17:59:34","新北市土城區城林路6巷80號","121.438515","24.97959","6501300","土城區"
"236079","166-UM","2018/12/11 17:59:29","新北市土城區永寧路32巷10弄23號","121.428853333333","24.9610566666667","6501300","土城區"
"236030","253-BX","2018/12/11 17:59:38","新北市土城區城林路6巷80號","121.438651666667","24.9796483333333","6501300","土城區"
"236026","269-VK","2018/12/11 17:59:36","新北市土城區承天路1號","121.435851666667","24.9665916666667","6501300","土城區"
"236014","270-VK","2018/12/11 17:59:38","新北市土城區城林路6巷80號","121.438461666667","24.97957","6501300","土城區"
"236038","271-VK","2018/12/11 17:59:40","新北市土城區城林路6巷80號","121.43847","24.97977","6501300","土城區"
"247008","KED-0683","2018/12/11 17:59:22","新北市五股區四維路185巷36號","121.464441666667","25.07787","6501400","蘆洲區"
"236021","401-BY","2018/12/11 17:59:23","新北市土城區城林路6巷80號","121.438551666667","24.9797066666667","6501300","土城區"
"236059","912-UM","2018/12/11 17:59:32","新北市土城區中央路三段250號","121.427703333333","24.9641766666667","6501300","土城區"
"236049","913-UM","2018/12/11 17:59:38","新北市土城區城林路6巷80號","121.438211666667","24.97982","6501300","土城區"
"236063","915-UM","2018/12/11 17:59:31","新北市土城區城林路6巷80號","121.438541666667","24.979595","6501300","土城區"
"236055","AAC-216","2018/12/11 17:59:37","新北市土城區城林路6巷80號","121.438488333333","24.9795983333333","6501300","土城區"
"242058","986-R7","2018/12/11 17:59:34","新北市新莊區中山路三段551號","121.412455","25.0269483333333","6500500","新莊區"
"242027","615-BX","2018/12/11 17:59:32","新北市新莊區思源路449號","121.459848333333","25.0532716666667","6500500","新莊區"
"242025","613-BX","2018/12/11 17:59:22","新北市新莊區五工路58號","121.458781666667","25.06286","6500500","新莊區"
"242029","612-BX","2018/12/11 17:59:33","新北市新莊區中平路92巷2號","121.444791666667","25.045345","6500500","新莊區"
"242044","566-BX","2018/12/11 17:59:24","新北市新莊區雙鳳路40號","121.416243333333","25.0271283333333","6500500","新莊區"
"242048","497-BY","2018/12/11 17:59:38","新北市新莊區萬安街67巷12號","121.421778333333","25.0239033333333","6500500","新莊區"
"242054","442-UM","2018/12/11 17:59:35","新北市新莊區民安西路390號","121.428306666667","25.01048","6500500","新莊區"
"242002","440-UM","2018/12/11 17:59:36","新北市新莊區中正路145-19號","121.45832","25.0374833333333","6500500","新莊區"
"242039","415-TV","2018/12/11 17:59:18","新北市新莊區民安路168號","121.425043333333","25.0241516666667","6500500","新莊區"
"242009","413-TV","2018/12/11 17:59:33","新北市新莊區中華路二段250號","121.45268","25.0529183333333","6500500","新莊區"
"242046","400-BY","2018/12/11 17:59:24","新北市新莊區福營路165巷43號","121.432901666667","25.0298333333333","6500500","新莊區"
"242023","362-BY","2018/12/11 17:59:21","新北市新莊區福壽街76號","121.458241666667","25.0495166666667","6500500","新莊區"
"242061","353-BY","2018/12/11 17:59:37","新北市新莊區新樹路543號","121.43289","25.0079166666667","6500500","新莊區"
"242011","132-UY","2018/12/11 17:59:28","新北市新莊區中港路672號","121.450776666667","25.0565533333333","6500500","新莊區"
"242034","135-UY","2018/12/11 17:59:20","新北市新莊區福海街22號","121.445248333333","25.03398","6500500","新莊區"
"242051","172-VK","2018/12/11 17:59:38","新北市新莊區民本街53巷13號","121.428633333333","25.0181266666667","6500500","新莊區"
"242013","173-VK","2018/12/11 17:59:27","新北市新莊區中和街125巷5號","121.44703","25.04854","6500500","新莊區"
"242007","176-VK","2018/12/11 17:59:22","新北市新莊區自重街2號","121.45337","25.0474966666667","6500500","新莊區"
"242017","KED-0687","2018/12/11 17:59:35","新北市新莊區中和街60巷7號","121.448315","25.0447966666667","6500500","新莊區"
"242056","346-TH","2018/12/11 17:59:28","新北市新莊區豐年街124巷9號","121.445936666667","25.0297666666667","6500500","新莊區"
"242032","348-TH","2018/12/11 17:59:25","新北市新莊區新泰路289巷51號","121.443311666667","25.0403316666667","6500500","新莊區"
"242005","349-TH","2018/12/11 17:59:25","新北市新莊區福樂街71巷15號","121.456758333333","25.047365","6500500","新莊區"
"242021","350-TH","2018/12/11 17:59:26","新北市新莊區建興街8號","121.450208333333","25.0366366666667","6500500","新莊區"
"242015","351-TH","2018/12/11 17:59:31","新北市新莊區中平路87巷3號","121.444286666667","25.0457383333333","6500500","新莊區"
"238015","755-BX","2018/12/11 17:59:22","新北市樹林區啟智街80巷11號","121.419013333333","24.9921833333333","6500700","樹林區"
"238019","599-UM","2018/12/11 17:59:24","新北市樹林區八德街192號","121.418851666667","24.97405","6500700","樹林區"
"238018","571-TV","2018/12/11 17:59:25","新北市樹林區樹新路106巷7號","121.429893333333","24.9982016666667","6500700","樹林區"
"238022","KEA-2213","2018/12/11 17:59:34","新北市樹林區太順街55號","121.417315","24.9789333333333","6500700","樹林區"
"238021","KEA-2539","2018/12/11 17:59:25","新北市樹林區柑園街一段33巷26號","121.405803333333","24.95594","6500700","樹林區"
"238025","303-VK","2018/12/11 17:59:23","新北市樹林區三俊街117號","121.417488333333","25.01561","6500700","樹林區"
"238017","283-BY","2018/12/11 17:59:35","新北市樹林區三德街64號","121.416191666667","25.0144416666667","6500700","樹林區"
"238014","282-BY","2018/12/11 17:59:31","新北市樹林區大安路19號","121.424905","25.0003233333333","6500700","樹林區"
"238020","268-VK","2018/12/11 17:59:36","新北市樹林區三俊街233號","121.421653333333","25.0148333333333","6500700","樹林區"
"238026","172-UY","2018/12/11 17:59:29","新北市樹林區中洲街51巷6號","121.396678333333","24.9710083333333","6500700","樹林區"
"239007","AAC-297","2018/12/11 17:59:20","新北市鶯歌區尖山埔路213號","121.34511","24.9504266666667","6500800","鶯歌區"
"239006","891-R6","2018/12/11 17:59:36","新北市鶯歌區鶯桃路413巷78弄8-1號","121.32969","24.9633116666667","6500800","鶯歌區"
"239008","527-UM","2018/12/11 17:59:36","新北市鶯歌區明圓街10號","121.337101666667","24.978075","6500800","鶯歌區"
"239005","526-UM","2018/12/11 17:59:25","新北市鶯歌區鶯桃路658巷87號","121.331775","24.9707616666667","6500800","鶯歌區"
"239001","417-VK","2018/12/11 17:59:24","新北市鶯歌區中正三路89號","121.338386666667","24.9409916666667","6500800","鶯歌區"
"239003","360-BY","2018/12/11 17:59:20","新北市鶯歌區鶯桃路334號","121.333973333333","24.9621433333333","6500800","鶯歌區"
"239002","359-BY","2018/12/11 17:59:29","新北市鶯歌區光明街98號","121.346146666667","24.9557783333333","6500800","鶯歌區"
"239004","193-VK","2018/12/11 17:59:27","新北市鶯歌區尖山路101巷4弄2號","121.347903333333","24.94851","6500800","鶯歌區"
"221008","489-VK","2018/12/11 17:59:21","新北市汐止區明峰街16-1號","121.63479","25.0714866666667","6501100","汐止區"
"221036","130-UY","2018/12/11 17:59:39","新北市汐止區大同路三段255號","121.673445","25.0759766666667","6501100","汐止區"
"221015","131-UY","2018/12/11 17:59:37","新北市汐止區長江街293號","121.665645","25.0812866666667","6501100","汐止區"
"221012","278-VK","2018/12/11 17:59:35","新北市汐止區長興街二段50巷2弄1號","121.674048333333","25.081705","6501100","汐止區"
"221023","279-VK","2018/12/11 17:59:35","新北市汐止區明峰街133號","121.629948333333","25.0707616666667","6501100","汐止區"
"221032","280-BY","2018/12/11 17:59:36","新北市汐止區橫科路73巷14號","121.619638333333","25.0511683333333","6501100","汐止區"
"221027","281-BY","2018/12/11 17:59:31","新北市汐止區大同路二段374號","121.657823333333","25.0670166666667","6501100","汐止區"
"221010","297-VK","2018/12/11 17:59:28","新北市汐止區汐萬路二段128號","121.648183333333","25.08534","6501100","汐止區"
"221029","298-VK","2018/12/11 17:59:21","新北市汐止區樟樹二路336號","121.641538333333","25.0704616666667","6501100","汐止區"
"221021","299-VK","2018/12/11 17:59:20","新北市汐止區新興路15號","121.656445","25.06472","6501100","汐止區"
"221031","353-TW","2018/12/11 17:59:31","新北市汐止區中興路181巷1號","121.63019","25.066775","6501100","汐止區"
"221035","622-UM","2018/12/11 17:59:26","新北市汐止區汐萬路一段115巷44號","121.653226666667","25.0702283333333","6501100","汐止區"
"221025","623-UM","2018/12/11 17:59:18","新北市汐止區新台五路一段266號","121.659245","25.0637083333333","6501100","汐止區"
"221038","646-BX","2018/12/11 17:59:19","新北市汐止區連興街128巷7弄9號","121.653531666667","25.0612366666667","6501100","汐止區"
"221033","647-BX","2018/12/11 17:59:33","新北市汐止區合順街3號","121.61956","25.0430983333333","6501100","汐止區"
"221002","707-TV","2018/12/11 17:59:29","新北市汐止區工建路211號","121.635721666667","25.061695","6501100","汐止區"
"221018","753-BX","2018/12/11 17:59:33","新北市汐止區招商街3號","121.666435","25.0690716666667","6501100","汐止區"
"224002","257-TC","2018/12/11 17:59:36","新北市瑞芳區三爪子坑路64-36號","121.809111666667","25.105955","6501200","瑞芳區"
"242042","281-VK","2018/12/11 17:59:29","新北市泰山區壽山路50號","121.42028","25.02915","6500500","新莊區"
"242019","280-VK","2018/12/11 17:59:28","新北市新莊區明中街49巷15號","121.456741666667","25.0389633333333","6500500","新莊區"
"235061","KEA-2875","2018/12/11 17:59:37","新北市中和區員山路36巷16-2號","121.4852","24.9917816666667","6500300","中和區"
