"lineid","car","time","location","longitude","latitude","cityid","cityname"
"234042","862-TW","2018/12/11 18:09:39","新北市永和區福和路1號","121.525533333333","25.0095216666667","6500400","永和區"
"234026","9371-KE","2018/12/11 18:09:39","新北市永和區永和路一段72巷6號","121.513471666667","25.00609","6500400","永和區"
"249005","172-UM","2018/12/11 18:09:33","新北市八里區荖阡坑路15號","121.401553333333","25.140005","6502300","八里區"
"249001","173-UM","2018/12/11 18:09:24","新北市八里區龍米路二段26號","121.448766666667","25.13943","6502300","八里區"
"249004","303-UY","2018/12/11 18:09:36","新北市八里區龍米路二段200巷3號","121.433728333333","25.1587466666667","6502300","八里區"
"249002","305-UY","2018/12/11 18:09:25","新北市八里區龍米路一段356巷46號","121.452076666667","25.1303633333333","6502300","八里區"
"249003","593-UM","2018/12/11 18:09:26","新北市八里區中華路二段249-2號","121.40406","25.1484966666667","6502300","八里區"
"248016","026-BX","2018/12/11 18:09:24","新北市五股區成泰路三段221巷16號","121.445743333333","25.0934266666667","6501500","五股區"
"248006","077-UY","2018/12/11 18:09:24","新北市五股區中興路二段77-1號","121.460871666667","25.07718","6501500","五股區"
"248008","095-VK","2018/12/11 18:09:23","新北市五股區更洲路32巷15弄9號","121.458165","25.0804816666667","6501500","五股區"
"248020","225-UY","2018/12/11 18:09:17","新北市五股區成泰路三段544-1號","121.454571666667","25.1016316666667","6501500","五股區"
"248014","261-SL","2018/12/11 18:09:26","新北市五股區成泰路一段187號","121.435036666667","25.07649","6501500","五股區"
"248010","272-BY","2018/12/11 18:09:39","新北市五股區成泰路一段219-19號","121.434543333333","25.07771","6501500","五股區"
"248004","677-BX","2018/12/11 18:09:34","新北市五股區工商路65號","121.43891","25.0844733333333","6501500","五股區"
"248002","678-BX","2018/12/11 18:09:34","新北市五股區新五路二段258號","121.44107","25.0821383333333","6501500","五股區"
"232011","375-UM","2018/12/11 18:09:34","新北市坪林區國中路1號","121.712651666667","24.93657","6502000","坪林區"
"244023","069-UM","2018/12/11 18:09:37","新北市林口區隆林街240號","121.383708333333","25.07432","6501700","林口區"
"244007","080-UY","2018/12/11 18:09:24","新北市林口區竹林路269號","121.389608333333","25.0809533333333","6501700","林口區"
"244019","402-UM","2018/12/11 18:09:22","新北市林口區忠孝路555號","121.37244","25.06858","6501700","林口區"
"244013","KEA-2802","2018/12/11 18:09:35","新北市林口區中山路62號","121.39433","25.07855","6501700","林口區"
"244017","485-VK","2018/12/11 18:09:22","新北市林口區文化一路一段57-2號","121.371086666667","25.069815","6501700","林口區"
"244009","656-BX","2018/12/11 18:09:36","新北市林口區中山路278號","121.38217","25.0813633333333","6501700","林口區"
"244011","701-TV","2018/12/11 18:09:36","新北市林口區中正路78號","121.394625","25.07744","6501700","林口區"
"244025","837-TS","2018/12/11 18:09:36","新北市林口區文化北路一段301-1號","121.360135","25.0729383333333","6501700","林口區"
"244021","838-TS","2018/12/11 18:09:28","新北市林口區自強一街20號","121.398398333333","25.0781116666667","6501700","林口區"
"243013","539-UM","2018/12/11 18:09:27","新北市泰山區南林路89-4號","121.415508333333","25.05122","6501600","泰山區"
"222003","436-BY","2018/12/11 18:09:37","新北市深坑區文山路三段15號","121.612598333333","24.9979966666667","6501800","深坑區"
"222002","659-BX","2018/12/11 18:09:36","新北市深坑區文化街37號","121.618998333333","25.001485","6501800","深坑區"
"231041","002-UM","2018/12/11 18:09:26","新北市新店區安華路28-1號","121.519673333333","24.96086","6500600","新店區"
"231040","047-UY","2018/12/11 18:09:22","新北市新店區安華路28-1號","121.519206666667","24.960915","6500600","新店區"
"231044","106-UY","2018/12/11 18:09:22","新北市新店區安華路28-1號","121.519626666667","24.96081","6500600","新店區"
"231046","107-UY","2018/12/11 18:09:36","新北市新店區直潭七街60號","121.532255","24.9398616666667","6500600","新店區"
"231053","108-UY","2018/12/11 18:09:38","新北市新店區安華路28-1號","121.519275","24.9609416666667","6500600","新店區"
"231048","187-VK","2018/12/11 18:09:37","新北市新店區安一路一段1-1號","121.519508333333","24.9612","6500600","新店區"
"231054","KEA-2219","2018/12/11 18:09:22","新北市新店區安華路28-1號","121.520105","24.96106","6500600","新店區"
"231057","256-BX","2018/12/11 18:09:29","新北市新店區安一路一段1-1號","121.519645","24.9611033333333","6500600","新店區"
"231042","268-BY","2018/12/11 18:09:27","新北市新店區安華路28-1號","121.519345","24.96066","6500600","新店區"
"231050","AAD-862","2018/12/11 18:09:21","新北市新店區安一路一段1-1號","121.519855","24.96112","6500600","新店區"
"231058","3713-VJ","2018/12/11 18:09:26","新北市新店區安華路28-1號","121.51911","24.9606783333333","6500600","新店區"
"231056","4715-K9","2018/12/11 18:09:34","新北市新店區安康路一段123號","121.528275","24.9618133333333","6500600","新店區"
"231065","512-UM","2018/12/11 18:09:40","新北市新店區安一路一段1-1號","121.519175","24.9611783333333","6500600","新店區"
"231064","719-UM","2018/12/11 18:09:32","新北市新店區安一路一段1-1號","121.519391666667","24.9613866666667","6500600","新店區"
"231060","897-TW","2018/12/11 18:09:23","新北市新店區安華路28-1號","121.519495","24.9608266666667","6500600","新店區"
"231045","898-TW","2018/12/11 18:09:28","新北市新店區安華路28-1號","121.51923","24.9609066666667","6500600","新店區"
"231043","899-TW","2018/12/11 18:09:26","新北市新店區安華路28-1號","121.519291666667","24.9607633333333","6500600","新店區"
"231055","AKT-0513","2018/12/11 18:09:19","新北市新店區安華路28-1號","121.519381666667","24.9607133333333","6500600","新店區"
"241024","065-VK","2018/12/11 18:09:37","新北市三重區中正北路193巷35弄9號","121.476541666667","25.07089","6500200","三重區"
"251014","742-BX","2018/12/11 18:09:21","新北市淡水區南平15號","121.488178333333","25.2193333333333","6501000","淡水區"
"235066","003-UY","2018/12/11 18:09:33","新北市中和區連城路103號","121.49644","24.9997366666667","6500300","中和區"
"235064","005-UY","2018/12/11 18:09:34","新北市中和區中正路175號","121.497456666667","24.9936066666667","6500300","中和區"
"235063","006-UY","2018/12/11 18:09:30","新北市中和區員山路36巷16-3號","121.484936666667","24.9913983333333","6500300","中和區"
"235056","096-UM","2018/12/11 18:09:36","新北市中和區新生街21-3號","121.483238333333","25.0040616666667","6500300","中和區"
"235040","150-BY","2018/12/11 18:09:39","新北市中和區錦和路350-1號","121.490528333333","24.9935616666667","6500300","中和區"
"235058","151-BY","2018/12/11 18:09:23","新北市中和區圓通路367巷66號","121.493316666667","24.983285","6500300","中和區"
"235038","185-VK","2018/12/11 18:09:26","新北市中和區大智街7-3號","121.51961","24.9918933333333","6500300","中和區"
"235043","352-BY","2018/12/11 18:09:22","新北市中和區和城路一段271巷1號","121.485371666667","24.9917666666667","6500300","中和區"
"235042","KEA-2878","2018/12/11 18:09:30","新北市中和區錦和路350-1號","121.490338333333","24.9934966666667","6500300","中和區"
"247012","KEA-2869","2018/12/11 18:09:24","新北市蘆洲區中山一路209號","121.47402","25.0809766666667","6501400","蘆洲區"
"235050","4979-A6","2018/12/11 18:09:22","新北市中和區錦和路350-1號","121.490215","24.9935583333333","6500300","中和區"
"235045","565-BX","2018/12/11 18:09:34","新北市中和區中正路271-2號","121.495765","24.99355","6500300","中和區"
"235054","640-BX","2018/12/11 18:09:30","新北市中和區連城路569巷9弄22號","121.47994","24.993545","6500300","中和區"
"235060","647-TV","2018/12/11 18:09:38","新北市中和區中正路637巷52弄1號","121.485451666667","24.9935083333333","6500300","中和區"
"235062","800-TS","2018/12/11 18:09:22","新北市中和區中山路二段546號","121.484915","25.00502","6500300","中和區"
"235057","801-TS","2018/12/11 18:09:31","新北市中和區員山路72號","121.480941666667","24.9935516666667","6500300","中和區"
"235053","900-TW","2018/12/11 18:09:34","新北市中和區員山路36巷16-3號","121.48491","24.9918066666667","6500300","中和區"
"235065","911-UM","2018/12/11 18:09:29","新北市中和區莊敬路49巷18號","121.501718333333","25.0061366666667","6500300","中和區"
"235051","157-BY","2018/12/11 18:09:30","新北市中和區南山路287號","121.504351666667","24.9920516666667","6500300","中和區"
"235037","AAC-213","2018/12/11 18:09:34","新北市中和區景平路257號","121.508521666667","24.992825","6500300","中和區"
"235059","AAC-215","2018/12/11 18:09:40","新北市中和區員山路36巷16-3號","121.484841666667","24.991385","6500300","中和區"
"226004","205-ST","2018/12/11 18:09:37","新北市平溪區靜安路二段196號","121.723336666667","25.021945","6502400","平溪區"
"235052","251-BX","2018/12/11 18:09:18","新北市中和區中正路637巷52弄1號","121.485463333333","24.9934366666667","6500300","中和區"
"228001","212-TW","2018/12/11 18:09:36","新北市貢寮區真理里新港街26巷55弄2-1號","121.927363333333","25.0528483333333","6502600","貢寮區"
"228002","663-BX","2018/12/11 18:09:37","新北市貢寮區福連里馬崗街1號","121.997726666667","25.01678","6502600","貢寮區"
"228003","828-UM","2018/12/11 18:09:29","新北市貢寮區真理里美艷山街6-2號","121.92882","25.06073","6502600","貢寮區"
"224006","676-BX","2018/12/11 18:09:36","新北市瑞芳區中山路71號","121.804043333333","25.1061683333333","6501200","瑞芳區"
"224008","285-BY","2018/12/11 18:09:27","新北市瑞芳區員山子路23號","121.821391666667","25.1029966666667","6501200","瑞芳區"
"224007","275-VK","2018/12/11 18:09:40","新北市瑞芳區四腳亭坑路9號","121.77764","25.1096433333333","6501200","瑞芳區"
"224009","273-VK","2018/12/11 18:09:38","新北市瑞芳區金光路115號","121.853615","25.106245","6501200","瑞芳區"
"224005","271-BY","2018/12/11 18:09:31","新北市瑞芳區深澳路42號","121.816013333333","25.128245","6501200","瑞芳區"
"227003","642-TC","2018/12/11 18:09:25","新北市雙溪區共和里東榮街52號","121.866268333333","25.0336666666667","6502500","雙溪區"
"253006","032-BX","2018/12/11 18:09:32","新北市石門區老梅路52巷25弄2-1號","121.546578333333","25.287695","6502200","石門區"
"253005","295-VK","2018/12/11 18:09:24","新北市石門區福安街20號","121.568748333333","25.2922533333333","6502200","石門區"
"222001","KEA-2212","2018/12/11 18:09:28","新北市深坑區北深路二段188號","121.614013333333","25.00217","6501800","深坑區"
"208002","KEA-2872","2018/12/11 18:09:36","新北市金山區三界壇路13號","121.620285","25.2334533333333","6502700","金山區"
"208003","665-BX","2018/12/11 18:09:32","新北市金山區民生路31號","121.643596666667","25.2213816666667","6502700","金山區"
"208001","761-BX","2018/12/11 18:09:35","新北市金山區磺港里磺港路112號","121.646263333333","25.2267333333333","6502700","金山區"
"251004","009-UM","2018/12/11 18:09:30","新北市淡水區民權路187巷68號","121.461366666667","25.134295","6501000","淡水區"
"251005","010-UM","2018/12/11 18:09:35","新北市淡水區水源街一段139號","121.447168333333","25.1718733333333","6501000","淡水區"
"251013","KEA-2871","2018/12/11 18:09:31","新北市淡水區竹圍子19-2號","121.477083333333","25.1915016666667","6501000","淡水區"
"251016","179-VK","2018/12/11 18:09:25","新北市淡水區下圭柔山15-5號","121.45167","25.201385","6501000","淡水區"
"251015","180-VK","2018/12/11 18:09:26","新北市淡水區興福寮88巷1號","121.485266666667","25.1649033333333","6501000","淡水區"
"251008","181-VK","2018/12/11 18:09:14","新北市淡水區坪頂路70巷35號","121.46011","25.1608216666667","6501000","淡水區"
"251012","441-VK","2018/12/11 18:09:34","新北市淡水區北新路三段169-8號","121.49084","25.19105","6501000","淡水區"
"251001","559-UM","2018/12/11 18:09:24","新北市淡水區自立路1巷27號","121.462621666667","25.1294866666667","6501000","淡水區"
"251006","561-UM","2018/12/11 18:09:33","新北市淡水區新民街79號","121.438186666667","25.176795","6501000","淡水區"
"251009","575-R6","2018/12/11 18:09:38","新北市淡水區大忠街34巷21號","121.444185","25.1757566666667","6501000","淡水區"
"251011","650-BX","2018/12/11 18:09:34","新北市淡水區三空泉9-2號","121.474146666667","25.1634933333333","6501000","淡水區"
"251002","672-BX","2018/12/11 18:09:30","新北市淡水區中正東路一段105巷7號","121.453105","25.1609266666667","6501000","淡水區"
"251003","673-BX","2018/12/11 18:09:35","新北市淡水區北新路182巷58號","121.448218333333","25.17757","6501000","淡水區"
"251010","766-UM","2018/12/11 18:09:28","新北市淡水區中正路二段50巷10號","121.419841666667","25.18331","6501000","淡水區"
"207003","550-UM","2018/12/11 18:09:23","新北市萬里區野柳里港西路11號","121.6851","25.204125","6502800","萬里區"
"207004","225-TW","2018/12/11 18:09:31","新北市萬里區中幅里中福路93號","121.675828333333","25.1696666666667","6502800","萬里區"
"252002","178-VK","2018/12/11 18:09:24","新北市三芝區中山路二段38號","121.502985","25.2551016666667","6502100","三芝區"
"252003","249-BX","2018/12/11 18:09:32","新北市三芝區埔頭里埔頭37號","121.49842","25.2603","6502100","三芝區"
"252001","292-VK","2018/12/11 18:09:31","新北市三芝區中興街二段2號","121.498421666667","25.2565933333333","6502100","三芝區"
"237004","KEA-2597","2018/12/11 18:09:27","新北市三峽區大埔路357號","121.371238333333","24.8956266666667","6500900","三峽區"
"237007","153-BY","2018/12/11 18:09:29","新北市三峽區中正路二段370巷39號","121.36467","24.9109933333333","6500900","三峽區"
"237009","210-TH","2018/12/11 18:09:25","新北市三峽區大仁路57號","121.365273333333","24.937435","6500900","三峽區"
"237013","252-BX","2018/12/11 18:09:38","新北市三峽區長泰街54號","121.377796666667","24.9325133333333","6500900","三峽區"
"237012","275-BY","2018/12/11 18:09:33","新北市三峽區民生街1巷6-7號","121.377271666667","24.93605","6500900","三峽區"
"237008","302-VK","2018/12/11 18:09:28","新北市三峽區白雞58-23號","121.385978333333","24.9097333333333","6500900","三峽區"
"237014","433-BY","2018/12/11 18:09:29","新北市三峽區國光街63巷8號","121.373868333333","24.937995","6500900","三峽區"
"237006","5529-G3","2018/12/11 18:09:27","新北市三峽區介壽路二段167號","121.394715","24.93592","6500900","三峽區"
"237011","KEA-2596","2018/12/11 18:09:29","新北市三峽區大同路10號","121.378236666667","24.929985","6500900","三峽區"
"237016","649-BX","2018/12/11 18:09:26","新北市三峽區紫新路36巷1號","121.422081666667","24.9223633333333","6500900","三峽區"
"237010","706-TV","2018/12/11 18:09:32","新北市三峽區民權街200號","121.36771","24.9291966666667","6500900","三峽區"
"237005","AKY-6261","2018/12/11 18:09:33","新北市三峽區民生街233號","121.37109","24.934775","6500900","三峽區"
"236070","105-UM","2018/12/11 18:09:32","新北市土城區青雲路581-1號","121.459295","24.9717316666667","6501300","土城區"
"236042","KED-0685","2018/12/11 18:09:34","新北市土城區城林路6巷80號","121.438465","24.979595","6501300","土城區"
"236079","166-UM","2018/12/11 18:09:29","新北市土城區永安街84號","121.431671666667","24.963715","6501300","土城區"
"236030","253-BX","2018/12/11 18:09:38","新北市土城區城林路6巷80號","121.438651666667","24.9796483333333","6501300","土城區"
"236026","269-VK","2018/12/11 18:09:36","新北市土城區承天路24號","121.439433333333","24.9632383333333","6501300","土城區"
"236014","270-VK","2018/12/11 18:09:38","新北市土城區明德路二段135-1號","121.449226666667","24.9826016666667","6501300","土城區"
"236038","271-VK","2018/12/11 18:09:21","新北市土城區青雲路449號","121.458756666667","24.9751366666667","6501300","土城區"
"236021","401-BY","2018/12/11 18:09:23","新北市土城區城林路6巷80號","121.438486666667","24.9797216666667","6501300","土城區"
"236059","912-UM","2018/12/11 18:09:27","新北市土城區中央路四段159-3號","121.415186666667","24.9569333333333","6501300","土城區"
"236049","913-UM","2018/12/11 18:09:38","新北市土城區明德路一段365-1號","121.453521666667","24.9790133333333","6501300","土城區"
"236063","915-UM","2018/12/11 18:09:31","新北市土城區金城路二段26號","121.45025","24.9780283333333","6501300","土城區"
"236055","AAC-216","2018/12/11 18:09:37","新北市土城區中華路二段92號","121.43824","24.9747516666667","6501300","土城區"
"242058","986-R7","2018/12/11 18:09:27","新北市新莊區新北大道七段239號","121.412933333333","25.0296816666667","6500500","新莊區"
"242027","615-BX","2018/12/11 18:09:32","新北市新莊區幸福路513號","121.455663333333","25.0492966666667","6500500","新莊區"
"242025","613-BX","2018/12/11 18:09:22","新北市新莊區五權一路92號","121.459365","25.0675266666667","6500500","新莊區"
"242029","612-BX","2018/12/11 18:09:33","新北市新莊區中平路192號","121.444778333333","25.048245","6500500","新莊區"
"242044","566-BX","2018/12/11 18:09:24","新北市新莊區雙鳳路135號","121.412885","25.0274466666667","6500500","新莊區"
"242054","442-UM","2018/12/11 18:09:35","新北市新莊區光華街66號","121.42826","25.0120266666667","6500500","新莊區"
"242002","440-UM","2018/12/11 18:09:36","新北市新莊區新莊路118號","121.456033333333","25.03597","6500500","新莊區"
"242039","415-TV","2018/12/11 18:09:38","新北市新莊區民安西路88巷2號","121.426346666667","25.019965","6500500","新莊區"
"242009","413-TV","2018/12/11 18:09:33","新北市新莊區中華路二段198號","121.453135","25.0519016666667","6500500","新莊區"
"242046","400-BY","2018/12/11 18:09:24","新北市新莊區福營路227巷31號","121.43021","25.0290383333333","6500500","新莊區"
"242023","362-BY","2018/12/11 18:09:41","新北市泰山區泰林路一段2號","121.441925","25.0478816666667","6500500","新莊區"
"242061","353-BY","2018/12/11 18:09:37","新北市新莊區新樹路341號","121.43304","25.018585","6500500","新莊區"
"242011","132-UY","2018/12/11 18:09:30","新北市新莊區中港路中慶巷39號","121.449178333333","25.053705","6500500","新莊區"
"242034","135-UY","2018/12/11 18:09:40","新北市新莊區景德路295號","121.447511666667","25.03353","6500500","新莊區"
"242051","172-VK","2018/12/11 18:09:38","新北市新莊區民本街11巷2弄19號","121.42873","25.0201016666667","6500500","新莊區"
"242007","176-VK","2018/12/11 18:09:41","新北市新莊區自信街26號","121.454126666667","25.0481666666667","6500500","新莊區"
"242056","346-TH","2018/12/11 18:09:28","新北市新莊區豐年街豐1巷37號","121.44776","25.031275","6500500","新莊區"
"242032","348-TH","2018/12/11 18:09:25","新北市新莊區新泰路251號","121.446048333333","25.039755","6500500","新莊區"
"242005","349-TH","2018/12/11 18:09:24","新北市新莊區中華路二段36-1號","121.45392","25.0453916666667","6500500","新莊區"
"242021","350-TH","2018/12/11 18:09:26","新北市新莊區新興街104號","121.450691666667","25.0389983333333","6500500","新莊區"
"242015","351-TH","2018/12/11 18:09:31","新北市新莊區中平路152巷36號","121.4462","25.047275","6500500","新莊區"
"238015","755-BX","2018/12/11 18:09:22","新北市樹林區文化街120巷1號","121.415958333333","24.989655","6500700","樹林區"
"238019","599-UM","2018/12/11 18:09:24","新北市樹林區水源街42號","121.42559","24.981325","6500700","樹林區"
"238018","571-TV","2018/12/11 18:09:25","新北市樹林區博愛街119號","121.426258333333","24.990705","6500700","樹林區"
"238022","KEA-2213","2018/12/11 18:09:34","新北市樹林區太平路174巷31弄1號","121.417443333333","24.9764766666667","6500700","樹林區"
"238021","KEA-2539","2018/12/11 18:09:25","新北市樹林區佳園路二段175號","121.389855","24.956215","6500700","樹林區"
"238025","303-VK","2018/12/11 18:09:37","新北市樹林區保安街二段73號","121.41599","25.000695","6500700","樹林區"
"238017","283-BY","2018/12/11 18:09:35","新北市樹林區中正路604號","121.410416666667","25.0155833333333","6500700","樹林區"
"238014","282-BY","2018/12/11 18:09:31","新北市樹林區潭興街22號","121.425231666667","24.99889","6500700","樹林區"
"238020","268-VK","2018/12/11 18:09:36","新北市樹林區三俊街201號","121.420005","25.0155383333333","6500700","樹林區"
"238026","172-UY","2018/12/11 18:09:30","新北市樹林區佳園路一段4號","121.392738333333","24.9715566666667","6500700","樹林區"
"239007","AAC-297","2018/12/11 18:09:40","新北市鶯歌區尖山埔路75號","121.347786666667","24.9509566666667","6500800","鶯歌區"
"239006","891-R6","2018/12/11 18:09:36","新北市鶯歌區鶯桃路451-1號","121.332238333333","24.9655616666667","6500800","鶯歌區"
"239008","527-UM","2018/12/11 18:09:36","新北市鶯歌區國際一路14號","121.336116666667","24.9764983333333","6500800","鶯歌區"
"239005","526-UM","2018/12/11 18:09:25","新北市鶯歌區鶯桃路668巷54號","121.329301666667","24.9708733333333","6500800","鶯歌區"
"239001","417-VK","2018/12/11 18:09:24","新北市鶯歌區高職東街3巷7號","121.340013333333","24.94243","6500800","鶯歌區"
"239003","360-BY","2018/12/11 18:09:40","新北市鶯歌區福安街58號","121.335553333333","24.9651866666667","6500800","鶯歌區"
"239002","359-BY","2018/12/11 18:09:29","新北市鶯歌區國慶街21號","121.349623333333","24.956195","6500800","鶯歌區"
"239004","193-VK","2018/12/11 18:09:38","新北市鶯歌區尖山路174巷35弄24號","121.343711666667","24.9483216666667","6500800","鶯歌區"
"221008","489-VK","2018/12/11 18:09:41","新北市汐止區康寧街315號","121.627113333333","25.067935","6501100","汐止區"
"221036","130-UY","2018/12/11 18:09:19","新北市汐止區長安路56號","121.66875","25.0783533333333","6501100","汐止區"
"221015","131-UY","2018/12/11 18:09:37","新北市汐止區鄉長路二段26巷2-4號","121.668336666667","25.0830383333333","6501100","汐止區"
"221012","278-VK","2018/12/11 18:09:28","新北市汐止區保長路37巷42號","121.674173333333","25.0797933333333","6501100","汐止區"
"221023","279-VK","2018/12/11 18:09:39","新北市汐止區明峰街183號","121.628508333333","25.0699183333333","6501100","汐止區"
"221032","280-BY","2018/12/11 18:09:16","新北市汐止區橫科路6號","121.6176","25.05132","6501100","汐止區"
"221027","281-BY","2018/12/11 18:09:32","新北市汐止區大同路二段585號","121.663591666667","25.070515","6501100","汐止區"
"221010","297-VK","2018/12/11 18:09:28","新北市汐止區汐萬路二段245巷33號","121.644101666667","25.087585","6501100","汐止區"
"221029","298-VK","2018/12/11 18:09:21","新北市汐止區樟樹二路134號","121.639913333333","25.0656333333333","6501100","汐止區"
"221021","299-VK","2018/12/11 18:09:20","新北市汐止區龍安路28巷24號","121.654285","25.0642316666667","6501100","汐止區"
"221031","353-TW","2018/12/11 18:09:31","新北市汐止區中興路66號","121.635173333333","25.061485","6501100","汐止區"
"221035","622-UM","2018/12/11 18:09:26","新北市汐止區汐萬路一段4號","121.65621","25.0672766666667","6501100","汐止區"
"221025","623-UM","2018/12/11 18:09:38","新北市汐止區勤進路3巷27號","121.661023333333","25.06177","6501100","汐止區"
"221038","646-BX","2018/12/11 18:09:19","新北市汐止區新興路1號","121.659293333333","25.060745","6501100","汐止區"
"221033","647-BX","2018/12/11 18:09:33","新北市汐止區宜興街40巷20號","121.622598333333","25.041345","6501100","汐止區"
"221002","707-TV","2018/12/11 18:09:29","新北市汐止區福德一路203號","121.635441666667","25.0655633333333","6501100","汐止區"
"221018","753-BX","2018/12/11 18:09:33","新北市汐止區忠孝東路384號","121.66552","25.0701633333333","6501100","汐止區"
"224002","257-TC","2018/12/11 18:09:36","新北市瑞芳區三爪子坑路149巷22-21號","121.811505","25.1062716666667","6501200","瑞芳區"
"242042","281-VK","2018/12/11 18:09:29","新北市新莊區雙鳳路116巷13弄1號","121.4134","25.028715","6500500","新莊區"
"242019","280-VK","2018/12/11 18:09:28","新北市新莊區公園路218號","121.455875","25.0405316666667","6500500","新莊區"
"235061","KEA-2875","2018/12/11 18:09:37","新北市土城區延壽路117號","121.468906666667","24.994315","6500300","中和區"
