"lineid","car","time","location","longitude","latitude","cityid","cityname"
"234046","148-BY","2018/12/11 18:29:40","新北市永和區福和路1號","121.525478333333","25.009525","6500400","永和區"
"234081","553-UM","2018/12/11 18:29:29","新北市永和區福和路7巷15弄19號","121.526003333333","25.007575","6500400","永和區"
"234017","745-BX","2018/12/11 18:29:24","新北市永和區福和路1號","121.526455","25.0095333333333","6500400","永和區"
"234086","748-BX","2018/12/11 18:29:26","新北市永和區福和路243號","121.5182","25.0074766666667","6500400","永和區"
"234042","862-TW","2018/12/11 18:29:19","新北市永和區豫溪街217巷5號","121.524673333333","25.0095266666667","6500400","永和區"
"234026","9371-KE","2018/12/11 18:29:39","新北市永和區中山路一段24號","121.513943333333","25.01051","6500400","永和區"
"234011","9373-KE","2018/12/11 18:29:28","新北市永和區保福路二段158巷1號","121.509138333333","25.0150266666667","6500400","永和區"
"249005","172-UM","2018/12/11 18:29:37","新北市八里區長坑口47-5號","121.389428333333","25.13402","6502300","八里區"
"249001","173-UM","2018/12/11 18:29:24","新北市八里區龍米路一段156號","121.452781666667","25.1259183333333","6502300","八里區"
"249004","303-UY","2018/12/11 18:29:36","新北市八里區忠孝路71-1號","121.42652","25.1603316666667","6502300","八里區"
"249002","305-UY","2018/12/11 18:29:25","新北市八里區龍形三街17號","121.448993333333","25.131695","6502300","八里區"
"248016","026-BX","2018/12/11 18:29:24","新北市五股區凌雲路一段83巷34號","121.449265","25.1010066666667","6501500","五股區"
"248008","095-VK","2018/12/11 18:29:23","新北市五股區四維路185巷42弄1號","121.463491666667","25.076875","6501500","五股區"
"248020","225-UY","2018/12/11 18:29:37","新北市五股區孝義路80號","121.449551666667","25.1148366666667","6501500","五股區"
"248012","247-BX","2018/12/11 18:29:38","新北市五股區御成路110號","121.44157","25.0935416666667","6501500","五股區"
"248014","261-SL","2018/12/11 18:29:26","新北市五股區明德路7巷45號","121.434431666667","25.07082","6501500","五股區"
"248010","272-BY","2018/12/11 18:29:39","新北市五股區自強路89號","121.43252","25.0718316666667","6501500","五股區"
"248004","677-BX","2018/12/11 18:29:34","新北市五股區工商路126號","121.436366666667","25.0858383333333","6501500","五股區"
"248002","678-BX","2018/12/11 18:29:34","新北市五股區西雲路118-1號","121.444876666667","25.0938033333333","6501500","五股區"
"244023","069-UM","2018/12/11 18:29:37","新北市林口區仁愛路二段50號","121.384901666667","25.0757266666667","6501700","林口區"
"244007","080-UY","2018/12/11 18:29:24","新北市林口區林口路113巷47號","121.387923333333","25.0797983333333","6501700","林口區"
"244019","402-UM","2018/12/11 18:29:22","新北市林口區忠孝路646巷29號","121.379123333333","25.06719","6501700","林口區"
"244013","KEA-2802","2018/12/11 18:29:35","新北市林口區中山路297巷86號","121.383103333333","25.0795666666667","6501700","林口區"
"244017","485-VK","2018/12/11 18:29:22","新北市林口區公園路28號","121.366836666667","25.067525","6501700","林口區"
"244009","656-BX","2018/12/11 18:29:36","新北市林口區文化二路二段369號","121.3808","25.0869283333333","6501700","林口區"
"244011","701-TV","2018/12/11 18:29:36","新北市林口區興林路17巷3弄2號","121.390213333333","25.0769833333333","6501700","林口區"
"244025","837-TS","2018/12/11 18:29:36","新北市林口區南勢四街196巷26號","121.357613333333","25.072995","6501700","林口區"
"244021","838-TS","2018/12/11 18:29:28","新北市林口區工六路58號","121.399356666667","25.0779666666667","6501700","林口區"
"243013","539-UM","2018/12/11 18:25:32","新北市泰山區明志路三段206巷3號","121.423271666667","25.0379316666667","6501600","泰山區"
"243012","646-TV","2018/12/11 18:29:26","新北市泰山區泰林路二段387號","121.427396666667","25.0642666666667","6501600","泰山區"
"222003","436-BY","2018/12/11 18:29:23","新北市深坑區翠谷街20號","121.626975","25.0087066666667","6501800","深坑區"
"222002","659-BX","2018/12/11 18:29:36","新北市深坑區雲鄉路137號","121.622466666667","24.9981433333333","6501800","深坑區"
"231041","002-UM","2018/12/11 18:29:26","新北市新店區安華路28-1號","121.519665","24.960835","6500600","新店區"
"231059","046-UY","2018/12/11 18:29:30","新北市新店區安華路28-1號","121.519673333333","24.9607816666667","6500600","新店區"
"231040","047-UY","2018/12/11 18:29:21","新北市新店區安一路一段1-1號","121.519118333333","24.961055","6500600","新店區"
"231044","106-UY","2018/12/11 18:29:22","新北市新店區安華路28-1號","121.519533333333","24.96082","6500600","新店區"
"231046","107-UY","2018/12/11 18:29:36","新北市新店區直潭十街6號","121.532426666667","24.9395033333333","6500600","新店區"
"231053","108-UY","2018/12/11 18:29:38","新北市新店區新烏路一段26巷37-2號","121.545081666667","24.9510516666667","6500600","新店區"
"231048","187-VK","2018/12/11 18:29:37","新北市新店區安一路一段1-1號","121.519523333333","24.961225","6500600","新店區"
"231054","KEA-2219","2018/12/11 18:29:22","新北市新店區安華路28-1號","121.520105","24.9609633333333","6500600","新店區"
"231057","256-BX","2018/12/11 18:29:29","新北市新店區光明街97號","121.538826666667","24.9612083333333","6500600","新店區"
"231042","268-BY","2018/12/11 18:29:27","新北市新店區安華路28-1號","121.519326666667","24.960565","6500600","新店區"
"231051","278-BY","2018/12/11 18:28:52","新北市新店區安一路一段1-1號","121.519593333333","24.9613216666667","6500600","新店區"
"231050","AAD-862","2018/12/11 18:29:41","新北市新店區安華路28-1號","121.520056666667","24.9608883333333","6500600","新店區"
"231058","3713-VJ","2018/12/11 18:29:26","新北市新店區環河路19巷27號","121.537655","24.9597116666667","6500600","新店區"
"231066","4716-K9","2018/12/11 18:29:28","新北市新店區安一路一段1-1號","121.519266666667","24.9612266666667","6500600","新店區"
"231056","4715-K9","2018/12/11 18:29:34","新北市新店區自立街45巷1號","121.537113333333","24.9799033333333","6500600","新店區"
"231067","4772-VM","2018/12/11 18:29:28","新北市新店區安華路3號","121.519065","24.9604533333333","6500600","新店區"
"231065","512-UM","2018/12/11 18:29:20","新北市新店區安一路一段1-1號","121.519108333333","24.9612666666667","6500600","新店區"
"231049","513-UM","2018/12/11 18:29:33","新北市新店區安華路28-1號","121.519656666667","24.9608683333333","6500600","新店區"
"231063","616-UM","2018/12/11 18:29:36","新北市新店區安華路1-1號","121.51946","24.9604433333333","6500600","新店區"
"231064","719-UM","2018/12/11 18:29:32","新北市新店區安一路一段1-1號","121.519438333333","24.96127","6500600","新店區"
"231062","720-UM","2018/12/11 18:29:36","新北市新店區安一路一段1-1號","121.519183333333","24.961215","6500600","新店區"
"231060","897-TW","2018/12/11 18:29:24","新北市新店區安華路28-1號","121.519475","24.96069","6500600","新店區"
"231045","898-TW","2018/12/11 18:29:28","新北市新店區安華路28-1號","121.519215","24.9609366666667","6500600","新店區"
"231043","899-TW","2018/12/11 18:29:26","新北市新店區安華路28-1號","121.519401666667","24.9606583333333","6500600","新店區"
"231055","AKT-0513","2018/12/11 18:29:39","新北市新店區中正路154巷12號","121.541968333333","24.9722066666667","6500600","新店區"
"251014","742-BX","2018/12/11 18:29:41","新北市淡水區南平20號","121.493881666667","25.2166616666667","6501000","淡水區"
"235066","003-UY","2018/12/11 18:29:33","新北市中和區中山路二段120號","121.502685","25.003645","6500300","中和區"
"235064","005-UY","2018/12/11 18:29:34","新北市中和區安邦街95號","121.497086666667","24.9962033333333","6500300","中和區"
"235063","006-UY","2018/12/11 18:29:30","新北市中和區連城路389巷14號","121.486555","24.9953666666667","6500300","中和區"
"235056","096-UM","2018/12/11 18:29:36","新北市中和區員山路611巷1號","121.477826666667","25.0113","6500300","中和區"
"235040","150-BY","2018/12/11 18:29:39","新北市中和區安平路31號","121.509408333333","24.99467","6500300","中和區"
"235058","151-BY","2018/12/11 18:29:23","新北市中和區圓通路369巷30弄32號","121.488948333333","24.9847033333333","6500300","中和區"
"235055","183-VK","2018/12/11 18:29:33","新北市中和區莒光路3巷1號","121.47189","25.0061333333333","6500300","中和區"
"235038","185-VK","2018/12/11 18:29:26","新北市中和區立人街63號","121.520108333333","24.99426","6500300","中和區"
"235049","186-VK","2018/12/11 18:29:35","新北市中和區景安路173號","121.505245","24.994435","6500300","中和區"
"235067","255-BX","2018/12/11 18:29:20","新北市中和區新生街120號","121.483541666667","25.0014533333333","6500300","中和區"
"235072","301-VK","2018/12/11 18:29:40","新北市中和區連城路2號","121.499225","25.0023916666667","6500300","中和區"
"235043","352-BY","2018/12/11 18:29:22","新北市中和區景平路309號","121.50646","24.993155","6500300","中和區"
"235042","KEA-2878","2018/12/11 18:29:30","新北市中和區大智街30號","121.521295","24.9919133333333","6500300","中和區"
"247012","KEA-2869","2018/12/11 18:29:24","新北市八里區中山路三段335號","121.376826666667","25.14033","6501400","蘆洲區"
"235050","4979-A6","2018/12/11 18:29:22","新北市中和區景新街410巷18弄15號","121.511921666667","24.9896266666667","6500300","中和區"
"235069","4980-A6","2018/12/11 18:29:26","新北市中和區連城路127巷36號","121.497","24.99768","6500300","中和區"
"235070","558-UM","2018/12/11 18:29:39","新北市中和區南華路46號","121.503908333333","24.9966016666667","6500300","中和區"
"235045","565-BX","2018/12/11 18:29:34","新北市中和區南山路236巷36弄5號","121.504045","24.9883083333333","6500300","中和區"
"235054","640-BX","2018/12/11 18:29:30","新北市中和區民享街87號","121.474378333333","25.00154","6500300","中和區"
"235060","647-TV","2018/12/11 18:29:38","新北市中和區員山路475號","121.480201666667","25.0049233333333","6500300","中和區"
"235047","732-UM","2018/12/11 18:29:24","新北市中和區南山路300號","121.507898333333","24.9870433333333","6500300","中和區"
"235046","733-UM","2018/12/11 18:29:40","新北市中和區南山路291號","121.504425","24.991965","6500300","中和區"
"235062","800-TS","2018/12/11 18:29:22","新北市中和區景平路740號","121.496741666667","25.0041766666667","6500300","中和區"
"235057","801-TS","2018/12/11 18:29:31","新北市中和區民安街42巷24號","121.479661666667","25.00083","6500300","中和區"
"235048","896-TW","2018/12/11 18:29:33","新北市中和區中正路83號","121.500651666667","24.9934466666667","6500300","中和區"
"235053","900-TW","2018/12/11 18:29:34","新北市中和區民享街492號","121.469655","24.9922566666667","6500300","中和區"
"235065","911-UM","2018/12/11 18:29:29","新北市中和區中山路二段64巷8號","121.50339","25.00507","6500300","中和區"
"235051","157-BY","2018/12/11 18:29:30","新北市中和區興南路二段142巷37弄1號","121.502253333333","24.9846","6500300","中和區"
"235037","AAC-213","2018/12/11 18:29:34","新北市中和區景德街88號","121.516165","24.9914466666667","6500300","中和區"
"235059","AAC-215","2018/12/11 18:29:20","新北市中和區員山路36巷16-3號","121.484915","24.991335","6500300","中和區"
"220065","072-UY","2018/12/11 18:29:36","新北市板橋區華東街262號","121.452606666667","25.00118","6500100","板橋區"
"220069","AAD-861","2018/12/11 18:29:30","新北市板橋區板城路407號","121.447413333333","24.9951516666667","6500100","板橋區"
"226004","205-ST","2018/12/11 18:29:37","新北市平溪區靜安路二段280號","121.728668333333","25.0230616666667","6502400","平溪區"
"235052","251-BX","2018/12/11 18:29:38","新北市中和區興南路二段96號","121.505218333333","24.9842483333333","6500300","中和區"
"228001","212-TW","2018/12/11 18:29:36","新北市貢寮區仁理村仁和路166號","121.923403333333","25.0521766666667","6502600","貢寮區"
"228002","663-BX","2018/12/11 18:29:37","新北市貢寮區福連里香蘭街26-2號","121.984115","25.0215","6502600","貢寮區"
"228003","828-UM","2018/12/11 18:29:29","新北市貢寮區和美里和美街46號","121.914905","25.092805","6502600","貢寮區"
"224006","676-BX","2018/12/11 18:29:36","新北市瑞芳區明燈路二段34-2號","121.810723333333","25.1078383333333","6501200","瑞芳區"
"224008","285-BY","2018/12/11 18:29:27","新北市瑞芳區岳王路1巷41-1號","121.80562","25.1104883333333","6501200","瑞芳區"
"224007","275-VK","2018/12/11 18:29:40","新北市瑞芳區大埔路國宅新村30-1號","121.76469","25.1002316666667","6501200","瑞芳區"
"224009","273-VK","2018/12/11 18:29:38","新北市瑞芳區五號路308號","121.856938333333","25.1114916666667","6501200","瑞芳區"
"224005","271-BY","2018/12/11 18:29:29","新北市瑞芳區建基路一段44-6號","121.819413333333","25.1231316666667","6501200","瑞芳區"
"227003","642-TC","2018/12/11 18:29:38","新北市雙溪區魚行里坤溪35號","121.870325","25.0308216666667","6502500","雙溪區"
"227009","400-TW","2018/12/11 18:29:24","新北市雙溪區牡丹里牡丹111號","121.851043333333","25.0598566666667","6502500","雙溪區"
"253006","032-BX","2018/12/11 18:29:32","新北市石門區老梅路29-1號","121.544743333333","25.2895466666667","6502200","石門區"
"253005","295-VK","2018/12/11 18:29:24","新北市石門區老崩山2-1號","121.553805","25.29171","6502200","石門區"
"222001","KEA-2212","2018/12/11 18:29:28","新北市深坑區北深路一段177號","121.632488333333","25.0107566666667","6501800","深坑區"
"208002","KEA-2872","2018/12/11 18:29:36","新北市金山區中山路108號","121.639951666667","25.2194966666667","6502700","金山區"
"208003","665-BX","2018/12/11 18:29:32","新北市金山區中山路233號","121.637421666667","25.2217433333333","6502700","金山區"
"208001","761-BX","2018/12/11 18:29:35","新北市金山區溫泉路21巷1號","121.63779","25.22281","6502700","金山區"
"251004","009-UM","2018/12/11 18:28:10","新北市淡水區民族路29巷24-1號","121.461755","25.136635","6501000","淡水區"
"251005","010-UM","2018/12/11 18:29:35","新北市淡水區中正東路35巷13號","121.44661","25.1688083333333","6501000","淡水區"
"251013","KEA-2871","2018/12/11 18:29:31","新北市淡水區椿子林19號","121.480798333333","25.2029283333333","6501000","淡水區"
"251016","179-VK","2018/12/11 18:29:25","新北市淡水區下圭柔山105-5號","121.445085","25.21052","6501000","淡水區"
"251015","180-VK","2018/12/11 18:29:26","新北市淡水區興福寮88巷216號","121.486003333333","25.1665816666667","6501000","淡水區"
"251008","181-VK","2018/12/11 18:29:34","新北市淡水區北投子86-5號","121.469111666667","25.1824416666667","6501000","淡水區"
"251012","441-VK","2018/12/11 18:29:34","新北市淡水區北投子55號","121.457793333333","25.1821266666667","6501000","淡水區"
"251001","559-UM","2018/12/11 18:29:24","新北市淡水區自強路122巷1號","121.464495","25.133105","6501000","淡水區"
"251006","561-UM","2018/12/11 18:29:33","新北市淡水區大信街1號","121.441483333333","25.1762666666667","6501000","淡水區"
"251011","650-BX","2018/12/11 18:29:14","新北市淡水區中正東路8號","121.447923333333","25.16655","6501000","淡水區"
"251002","672-BX","2018/12/11 18:29:30","新北市淡水區竿蓁二街19巷28號","121.452995","25.1638133333333","6501000","淡水區"
"251003","673-BX","2018/12/11 18:29:32","新北市淡水區北新路169巷16號","121.44984","25.18016","6501000","淡水區"
"251010","766-UM","2018/12/11 18:29:28","新北市淡水區沙崙路181巷2-2號","121.424188333333","25.1841616666667","6501000","淡水區"
"207003","550-UM","2018/12/11 18:29:24","新北市萬里區野柳里港東路156號","121.689901666667","25.2050483333333","6502800","萬里區"
"207004","225-TW","2018/12/11 18:29:31","新北市萬里區萬里里瑪鋉路8-3號","121.687513333333","25.1754416666667","6502800","萬里區"
"252002","178-VK","2018/12/11 18:29:24","新北市三芝區中山路二段43號","121.50294","25.2550383333333","6502100","三芝區"
"252003","249-BX","2018/12/11 18:29:32","新北市三芝區後厝里北勢子45-30號","121.469206666667","25.2507683333333","6502100","三芝區"
"252001","292-VK","2018/12/11 18:29:31","新北市三芝區中興街二段6號","121.49848","25.2565016666667","6502100","三芝區"
"237004","KEA-2597","2018/12/11 18:29:27","新北市三峽區五寮1-8號","121.377786666667","24.872455","6500900","三峽區"
"237007","153-BY","2018/12/11 18:29:29","新北市三峽區中正路三段170巷7號","121.352561666667","24.9039833333333","6500900","三峽區"
"237009","210-TH","2018/12/11 18:29:25","新北市三峽區大同路272號","121.365393333333","24.9252483333333","6500900","三峽區"
"237013","252-BX","2018/12/11 18:29:38","新北市三峽區光明路69巷24號","121.376608333333","24.9290266666667","6500900","三峽區"
"237012","275-BY","2018/12/11 18:29:33","新北市三峽區三樹路166號","121.37896","24.9406433333333","6500900","三峽區"
"237008","302-VK","2018/12/11 18:29:28","新北市三峽區白雞68-5號","121.395605","24.9085166666667","6500900","三峽區"
"237014","433-BY","2018/12/11 18:29:29","新北市三峽區和平街32號","121.370151666667","24.93703","6500900","三峽區"
"237006","5529-G3","2018/12/11 18:29:27","新北市三峽區溪東路371巷4弄2號","121.412235","24.9298683333333","6500900","三峽區"
"237011","KEA-2596","2018/12/11 18:29:29","新北市三峽區溪東路436號","121.41564","24.92763","6500900","三峽區"
"237016","649-BX","2018/12/11 18:29:26","新北市三峽區紫微南路13-1號","121.422538333333","24.9170933333333","6500900","三峽區"
"237010","706-TV","2018/12/11 18:29:32","新北市三峽區復興路489號","121.361215","24.9384233333333","6500900","三峽區"
"237005","AKY-6261","2018/12/11 18:29:33","新北市三峽區清水街314號","121.37254","24.9344066666667","6500900","三峽區"
"236070","105-UM","2018/12/11 18:29:32","新北市土城區永豐路255巷12號","121.475393333333","24.9731","6501300","土城區"
"236042","KED-0685","2018/12/11 18:29:34","新北市土城區學成路99巷11號","121.450003333333","24.9883283333333","6501300","土城區"
"236079","166-UM","2018/12/11 18:29:29","新北市土城區中央路四段27巷10弄2號","121.424728333333","24.9619183333333","6501300","土城區"
"236030","253-BX","2018/12/11 18:29:38","新北市土城區福仁街30巷10號","121.439398333333","24.9759316666667","6501300","土城區"
"236026","269-VK","2018/12/11 18:29:36","新北市土城區南天母路135巷16號","121.448411666667","24.9546216666667","6501300","土城區"
"236014","270-VK","2018/12/11 18:29:38","新北市土城區青雲路39巷7號","121.460305","24.98741","6501300","土城區"
"236038","271-VK","2018/12/11 18:29:40","新北市土城區明德路一段311號","121.459575","24.9771216666667","6501300","土城區"
"236021","401-BY","2018/12/11 18:29:23","新北市土城區永豐路202巷14號","121.466233333333","24.9834866666667","6501300","土城區"
"236059","912-UM","2018/12/11 18:29:27","新北市土城區中央路四段115號","121.416511666667","24.9577166666667","6501300","土城區"
"236049","913-UM","2018/12/11 18:29:38","新北市土城區青雲路513號","121.458793333333","24.9732116666667","6501300","土城區"
"236063","915-UM","2018/12/11 18:29:31","新北市土城區延壽路75巷1號","121.469218333333","24.99257","6501300","土城區"
"236055","AAC-216","2018/12/11 18:29:37","新北市土城區中華路二段1號","121.439588333333","24.9789633333333","6501300","土城區"
"242058","986-R7","2018/12/11 18:29:34","新北市新莊區新北大道七段850號","121.41381","25.0235133333333","6500500","新莊區"
"242025","613-BX","2018/12/11 18:29:22","新北市新莊區昌平街340號","121.454635","25.0600833333333","6500500","新莊區"
"242044","566-BX","2018/12/11 18:29:24","新北市新莊區新北大道七段339號","121.41294","25.0276216666667","6500500","新莊區"
"242054","442-UM","2018/12/11 18:29:35","新北市新莊區民安西路460巷1號","121.431331666667","25.0081466666667","6500500","新莊區"
"242046","400-BY","2018/12/11 18:29:28","新北市新莊區中正路793號","121.421456666667","25.0281766666667","6500500","新莊區"
"242061","353-BY","2018/12/11 18:29:37","新北市新莊區建國二路5-3號","121.434851666667","25.0236983333333","6500500","新莊區"
"242011","132-UY","2018/12/11 18:29:29","新北市新莊區中港路617號","121.451241666667","25.05346","6500500","新莊區"
"242056","346-TH","2018/12/11 18:29:34","新北市新莊區瓊泰路77巷16號","121.442613333333","25.0292433333333","6500500","新莊區"
"242005","349-TH","2018/12/11 18:29:24","新北市新莊區三和路12-21號","121.442341666667","25.038295","6500500","新莊區"
"242021","350-TH","2018/12/11 18:29:26","新北市新莊區新泰路289巷6號","121.445125","25.0406383333333","6500500","新莊區"
"238015","755-BX","2018/12/11 18:29:22","新北市樹林區復興路376-6號","121.415473333333","24.9857716666667","6500700","樹林區"
"238019","599-UM","2018/12/11 18:29:24","新北市樹林區中華路176號","121.414015","24.9803783333333","6500700","樹林區"
"238018","571-TV","2018/12/11 18:29:25","新北市樹林區樹新路195號","121.429246666667","24.9974316666667","6500700","樹林區"
"238024","5061-A6","2018/12/11 18:29:37","新北市樹林區中山路一段2-3號","121.424331666667","24.9930783333333","6500700","樹林區"
"238025","303-VK","2018/12/11 18:29:23","新北市樹林區大安路586號","121.411721666667","24.9836716666667","6500700","樹林區"
"238017","283-BY","2018/12/11 18:29:35","新北市樹林區保安街二段335號","121.412511666667","25.007865","6500700","樹林區"
"238014","282-BY","2018/12/11 18:29:31","新北市樹林區大安路111巷25號","121.423191666667","24.9974983333333","6500700","樹林區"
"238020","268-VK","2018/12/11 18:29:35","新北市樹林區三龍街78號","121.413966666667","25.0184883333333","6500700","樹林區"
"238026","172-UY","2018/12/11 18:29:29","新北市樹林區佳園路一段75巷40號","121.395958333333","24.9706","6500700","樹林區"
"239007","AAC-297","2018/12/11 18:29:40","新北市鶯歌區中正一路478號","121.366126666667","24.9568966666667","6500800","鶯歌區"
"239006","891-R6","2018/12/11 18:29:36","新北市鶯歌區鶯桃路294-1號","121.334948333333","24.9603","6500800","鶯歌區"
"239008","527-UM","2018/12/11 18:29:36","新北市鶯歌區國際一路179號","121.336278333333","24.97655","6500800","鶯歌區"
"239005","526-UM","2018/12/11 18:29:25","新北市鶯歌區鳳吉二街96號","121.327326666667","24.9741366666667","6500800","鶯歌區"
"239001","417-VK","2018/12/11 18:29:24","新北市鶯歌區二橋街82巷1號","121.337153333333","24.93832","6500800","鶯歌區"
"239003","360-BY","2018/12/11 18:29:40","新北市鶯歌區永和街230-1號","121.337185","24.9717633333333","6500800","鶯歌區"
"239002","359-BY","2018/12/11 18:29:29","新北市鶯歌區中正一路329號","121.357236666667","24.95713","6500800","鶯歌區"
"239004","193-VK","2018/12/11 18:29:38","新北市鶯歌區中正三路156巷2-2號","121.333288333333","24.9400033333333","6500800","鶯歌區"
"221008","489-VK","2018/12/11 18:25:56","新北市汐止區康寧街901號","121.65143","25.0750666666667","6501100","汐止區"
"221036","130-UY","2018/12/11 18:29:39","新北市汐止區忠孝東路339巷9號","121.664396666667","25.0702183333333","6501100","汐止區"
"221015","131-UY","2018/12/11 18:29:37","新北市汐止區鄉長路二段25-1號","121.668251666667","25.0826183333333","6501100","汐止區"
"221012","278-VK","2018/12/11 18:29:28","新北市汐止區保長路51巷14號","121.673853333333","25.0789333333333","6501100","汐止區"
"221023","279-VK","2018/12/11 18:29:39","新北市汐止區康寧街484號","121.632541666667","25.068435","6501100","汐止區"
"221032","280-BY","2018/12/11 18:29:36","新北市汐止區福山街62巷2號","121.617855","25.04673","6501100","汐止區"
"221027","281-BY","2018/12/11 18:29:31","新北市汐止區和平街68號","121.661845","25.0707966666667","6501100","汐止區"
"221010","297-VK","2018/12/11 18:29:30","新北市汐止區汐萬路35號","121.644245","25.0915933333333","6501100","汐止區"
"221029","298-VK","2018/12/11 18:29:21","新北市汐止區樟樹二路330巷72-1號","121.643011666667","25.069895","6501100","汐止區"
"221021","299-VK","2018/12/11 18:29:20","新北市汐止區新台五路一段91號","121.650031666667","25.0614483333333","6501100","汐止區"
"221031","353-TW","2018/12/11 18:29:31","新北市汐止區中興路10號","121.637288333333","25.0592533333333","6501100","汐止區"
"221035","622-UM","2018/12/11 18:29:26","新北市汐止區大同路二段179號","121.651981666667","25.0641666666667","6501100","汐止區"
"221025","623-UM","2018/12/11 18:29:38","新北市汐止區仁愛路122巷14號","121.663255","25.0632883333333","6501100","汐止區"
"221038","646-BX","2018/12/11 18:29:39","新北市汐止區汐萬路一段117號","121.654173333333","25.0709283333333","6501100","汐止區"
"221033","647-BX","2018/12/11 18:29:33","新北市汐止區宜興街1號","121.620855","25.0412183333333","6501100","汐止區"
"221002","707-TV","2018/12/11 18:29:29","新北市汐止區福德一路147號","121.636656666667","25.06671","6501100","汐止區"
"221018","753-BX","2018/12/11 18:29:33","新北市汐止區茄苳路230號","121.671085","25.0685783333333","6501100","汐止區"
"220079","145-BY","2018/12/11 18:29:36","新北市板橋區華東街1-9號","121.447846666667","24.99542","6500100","板橋區"
"220082","610-BX","2018/12/11 18:29:33","新北市板橋區華東街1-9號","121.44824","24.994945","6500100","板橋區"
"224002","257-TC","2018/12/11 18:29:36","新北市瑞芳區三爪子坑路31號","121.813495","25.1074316666667","6501200","瑞芳區"
"220056","276-BY","2018/12/11 18:29:22","新北市板橋區四川路二段130巷25弄8-1號","121.449081666667","24.9944616666667","6500100","板橋區"
"220071","283-VK","2018/12/11 18:29:34","新北市板橋區華東街1-9號","121.448058333333","24.99492","6500100","板橋區"
"220094","285-UM","2018/12/11 18:29:39","新北市板橋區民生路二段161巷1號","121.470088333333","25.0197883333333","6500100","板橋區"
"220081","287-VK","2018/12/11 18:29:40","新北市板橋區華東街1-10號","121.448253333333","24.995015","6500100","板橋區"
"220061","293-UM","2018/12/11 18:29:34","新北市板橋區民生路二段120號","121.470315","25.0196933333333","6500100","板橋區"
"220062","295-UM","2018/12/11 18:29:25","新北市板橋區民生路二段161巷1號","121.469991666667","25.01987","6500100","板橋區"
"220084","296-UM","2018/12/11 18:29:35","新北市板橋區華東街1-9號","121.448141666667","24.9949533333333","6500100","板橋區"
"242042","281-VK","2018/12/11 18:29:29","新北市新莊區天祥街92巷12號","121.41554","25.0299583333333","6500500","新莊區"
"220023","303-R5","2018/12/11 18:29:21","新北市板橋區華東街1-10號","121.448213333333","24.9949966666667","6500100","板橋區"
"220035","560-BX","2018/12/11 18:29:24","新北市板橋區南雅西路一段21巷7-1號","121.453561666667","25.0038133333333","6500100","板橋區"
"220055","827-TW","2018/12/11 18:29:27","新北市板橋區四川路二段橋頭6號","121.4483","24.9940416666667","6500100","板橋區"
"220074","895-R6","2018/12/11 18:29:33","新北市板橋區華東街1-10號","121.44826","24.9949783333333","6500100","板橋區"
"220073","985-R7","2018/12/11 18:29:29","新北市板橋區四川路二段140巷16弄13號","121.44871","24.9935333333333","6500100","板橋區"
"220064","AAC-253","2018/12/11 18:29:28","新北市板橋區南雅南路二段120-7號","121.452123333333","24.9995","6500100","板橋區"
"235068","KEA-2873","2018/12/11 18:29:27","新北市中和區錦和路203巷15號","121.491438333333","24.9906033333333","6500300","中和區"
"235061","KEA-2875","2018/12/11 18:29:37","新北市中和區民享街88巷19號","121.473601666667","25.000325","6500300","中和區"
"235041","KEA-2876","2018/12/11 18:29:22","新北市中和區景新街170號","121.505865","24.99657","6500300","中和區"
