"lineid","car","time","location","longitude","latitude","cityid","cityname"
"234046","148-BY","2018/12/11 19:19:40","新北市永和區得和路376號","121.524583333333","24.999345","6500400","永和區"
"234007","207-UY","2018/12/11 19:19:24","新北市永和區中山路一段224號","121.508115","25.0081833333333","6500400","永和區"
"234038","336-UY","2018/12/11 19:19:41","新北市永和區民樂街70號","121.52738","24.99847","6500400","永和區"
"234064","337-UY","2018/12/11 19:19:39","新北市永和區永元路17巷8號","121.521571666667","25.0004866666667","6500400","永和區"
"234070","552-UM","2018/12/11 19:19:33","新北市永和區中正路696-1號","121.516563333333","25.0098533333333","6500400","永和區"
"234081","553-UM","2018/12/11 19:19:29","新北市永和區福和路38號","121.523813333333","25.0083433333333","6500400","永和區"
"234017","745-BX","2018/12/11 19:19:24","新北市永和區文化路144巷31弄12號","121.512213333333","25.0168183333333","6500400","永和區"
"234030","746-BX","2018/12/11 19:19:34","新北市永和區厚德街84號","121.523648333333","24.998895","6500400","永和區"
"234054","KEA-2590","2018/12/11 19:19:34","新北市永和區中興街28號","121.516235","25.0117883333333","6500400","永和區"
"234013","KEA-2591","2018/12/11 19:19:37","新北市永和區信義路57-1號","121.512785","25.012565","6500400","永和區"
"234061","AAD-866","2018/12/11 19:19:26","新北市永和區秀朗路一段101號","121.515536666667","25.006175","6500400","永和區"
"234086","748-BX","2018/12/11 19:19:26","新北市永和區永利路72-1號","121.520071666667","25.0043983333333","6500400","永和區"
"234042","862-TW","2018/12/11 19:19:39","新北市永和區保平路151巷6弄12號","121.50975","25.0051183333333","6500400","永和區"
"234050","863-TW","2018/12/11 19:19:33","新北市永和區保福路二段78號","121.510495","25.0133233333333","6500400","永和區"
"234026","9371-KE","2018/12/11 19:19:19","新北市永和區安樂路144巷20號","121.515068333333","24.9996816666667","6500400","永和區"
"234011","9373-KE","2018/12/11 19:19:28","新北市永和區保福路二段9巷9號","121.510515","25.0109","6500400","永和區"
"249001","173-UM","2018/12/11 19:19:24","新北市八里區中山路一段418-1號","121.410953333333","25.1577433333333","6502300","八里區"
"249003","593-UM","2018/12/11 19:19:20","新北市八里區中山路二段446號","121.39944","25.1474666666667","6502300","八里區"
"248016","026-BX","2018/12/11 19:19:24","新北市五股區成洲五路12號","121.452335","25.1015483333333","6501500","五股區"
"248008","095-VK","2018/12/11 19:19:23","新北市五股區中興路二段83巷26-3號","121.460023333333","25.0753416666667","6501500","五股區"
"248020","225-UY","2018/12/11 19:19:37","新北市五股區凌雲路三段57號","121.425283333333","25.1249983333333","6501500","五股區"
"248012","247-BX","2018/12/11 19:19:38","新北市五股區中興路四段48巷16號","121.438603333333","25.0834266666667","6501500","五股區"
"248010","272-BY","2018/12/11 19:19:39","新北市五股區自強路90巷72號","121.43066","25.0712433333333","6501500","五股區"
"248004","677-BX","2018/12/11 19:19:34","新北市五股區五福路93號","121.432163333333","25.0904566666667","6501500","五股區"
"248002","678-BX","2018/12/11 19:19:34","新北市五股區凌雲路一段158巷1號","121.447713333333","25.10307","6501500","五股區"
"234023","9380-KE","2018/12/11 19:19:30","新北市永和區竹林路124巷12號","121.519258333333","25.011255","6500400","永和區"
"234077","969-R7","2018/12/11 19:19:35","新北市永和區民治街72巷12號","121.518168333333","24.9985433333333","6500400","永和區"
"234074","AAC-211","2018/12/11 19:19:22","新北市永和區竹林路108號","121.51974","25.0118583333333","6500400","永和區"
"234067","AAC-212","2018/12/11 19:19:36","新北市永和區保平路44號","121.511413333333","25.00712","6500400","永和區"
"234003","AAC-295","2018/12/11 19:19:38","新北市永和區永平路183號","121.510283333333","25.0093416666667","6500400","永和區"
"244023","069-UM","2018/12/11 19:19:37","新北市林口區文林六街13巷18號","121.370381666667","25.080675","6501700","林口區"
"244017","485-VK","2018/12/11 19:19:22","新北市林口區公園路90號","121.369473333333","25.0703983333333","6501700","林口區"
"244025","837-TS","2018/12/11 19:19:36","新北市林口區文化三路一段555巷60號","121.369523333333","25.076385","6501700","林口區"
"243009","297-R6","2018/12/11 19:19:28","新北市泰山區和平街9-2號","121.43415","25.064595","6501600","泰山區"
"243016","KEA-2801","2018/12/11 19:19:25","新北市泰山區明志路三段167號","121.4246","25.0394066666667","6501600","泰山區"
"243015","421-VK","2018/12/11 19:19:25","新北市泰山區公園路16號","121.429556666667","25.0541433333333","6501600","泰山區"
"243013","539-UM","2018/12/11 19:19:39","新北市泰山區明志路三段145巷7號","121.425393333333","25.039985","6501600","泰山區"
"243011","KEA-2215","2018/12/11 19:19:34","新北市泰山區中央路11巷10號","121.426548333333","25.0426216666667","6501600","泰山區"
"243010","KEA-2216","2018/12/11 19:19:30","新北市泰山區明志路一段496號","121.430268333333","25.054565","6501600","泰山區"
"243012","646-TV","2018/12/11 19:19:26","新北市泰山區仁愛路100巷55號","121.433791666667","25.0548983333333","6501600","泰山區"
"243014","680-BX","2018/12/11 19:19:29","新北市泰山區泰林路二段206號","121.433283333333","25.0614","6501600","泰山區"
"222003","436-BY","2018/12/11 19:19:23","新北市深坑區深南路204號","121.626673333333","25.0159716666667","6501800","深坑區"
"222002","659-BX","2018/12/11 19:19:36","新北市深坑區北深路一段177號","121.632561666667","25.0108766666667","6501800","深坑區"
"231041","002-UM","2018/12/11 19:19:26","新北市新店區溪園路203號","121.526463333333","24.9840966666667","6500600","新店區"
"231059","046-UY","2018/12/11 19:19:40","新北市新店區安和路二段155號","121.518991666667","24.9742516666667","6500600","新店區"
"231040","047-UY","2018/12/11 19:19:41","新北市新店區三民路40號","121.536226666667","24.971485","6500600","新店區"
"231044","106-UY","2018/12/11 19:19:29","新北市新店區寶慶街71號","121.541863333333","24.986535","6500600","新店區"
"231046","107-UY","2018/12/11 19:19:36","新北市新店區華城路12-1號","121.529231666667","24.9579183333333","6500600","新店區"
"231053","108-UY","2018/12/11 19:19:38","新北市新店區新烏路二段200巷11號","121.547661666667","24.916565","6500600","新店區"
"231048","187-VK","2018/12/11 19:19:37","新北市新店區中興路二段57巷15號","121.54571","24.97073","6500600","新店區"
"231054","KEA-2219","2018/12/11 19:19:42","新北市新店區國校路59號","121.538261666667","24.954305","6500600","新店區"
"231042","268-BY","2018/12/11 19:19:27","新北市新店區中興路一段115號","121.541413333333","24.96272","6500600","新店區"
"231051","278-BY","2018/12/11 19:19:33","新北市新店區中央路133巷4號","121.530541666667","24.9736833333333","6500600","新店區"
"231050","AAD-862","2018/12/11 19:19:21","新北市新店區竹林路25巷10號","121.552315","24.9513466666667","6500600","新店區"
"231058","3713-VJ","2018/12/11 19:19:26","新北市新店區光明街286巷14號","121.540815","24.9635766666667","6500600","新店區"
"231066","4716-K9","2018/12/11 19:19:28","新北市新店區安康路三段2號","121.494046666667","24.953945","6500600","新店區"
"231056","4715-K9","2018/12/11 19:19:34","新北市新店區安德街116巷26弄3號","121.508973333333","24.9620816666667","6500600","新店區"
"231065","512-UM","2018/12/11 19:19:40","新北市新店區安祥路110巷30弄1號","121.473746666667","24.9564383333333","6500600","新店區"
"231049","513-UM","2018/12/11 19:19:33","新北市新店區北新路三段1號","121.542261666667","24.979215","6500600","新店區"
"231063","616-UM","2018/12/11 19:19:36","新北市新店區達觀路8巷3-4號","121.503925","24.942855","6500600","新店區"
"231061","618-UM","2018/12/11 19:19:34","新北市新店區安康路一段48號","121.530346666667","24.9611016666667","6500600","新店區"
"231064","719-UM","2018/12/11 19:19:38","新北市新店區安忠路57巷1-5號","121.513446666667","24.9594666666667","6500600","新店區"
"231062","720-UM","2018/12/11 19:19:36","新北市新店區莒光路38巷3號","121.522248333333","24.9588983333333","6500600","新店區"
"231060","897-TW","2018/12/11 19:19:30","新北市新店區安康路二段105號","121.51286","24.9624383333333","6500600","新店區"
"231045","898-TW","2018/12/11 19:19:28","新北市新店區北宜路一段260號","121.545663333333","24.9527316666667","6500600","新店區"
"231043","899-TW","2018/12/11 19:19:26","新北市新店區北新路二段108號","121.543086666667","24.9743783333333","6500600","新店區"
"231055","AKT-0513","2018/12/11 19:19:39","新北市新店區薏仁坑路自強巷6號","121.496653333333","24.958495","6500600","新店區"
"241022","060-VK","2018/12/11 19:19:34","新北市三重區重陽路二段50號","121.48714","25.06339","6500200","三重區"
"241031","061-VK","2018/12/11 19:19:26","新北市三重區重新路四段97號","121.485905","25.0549","6500200","三重區"
"241017","063-VK","2018/12/11 19:19:41","新北市三重區大同北路215號","121.491685","25.06597","6500200","三重區"
"251014","742-BX","2018/12/11 19:19:41","新北市淡水區小中寮19-7號","121.484751666667","25.2296","6501000","淡水區"
"241026","265-UM","2018/12/11 19:19:41","新北市三重區光興街61號","121.498711666667","25.0603","6500200","三重區"
"241009","267-UM","2018/12/11 19:19:31","新北市三重區溪尾街230巷67號","121.486135","25.08119","6500200","三重區"
"241025","271-UM","2018/12/11 19:19:36","新北市三重區中正北路406號","121.475353333333","25.0704366666667","6500200","三重區"
"241007","398-BY","2018/12/11 19:19:30","新北市三重區慈愛街56號","121.48657","25.0794283333333","6500200","三重區"
"241035","462-BY","2018/12/11 19:19:34","新北市三重區大智街84號","121.494048333333","25.0659933333333","6500200","三重區"
"241020","478-VK","2018/12/11 19:19:39","新北市三重區大智街193號","121.489338333333","25.0733","6500200","三重區"
"241030","480-VK","2018/12/11 19:19:22","新北市三重區新興路42號","121.491468333333","25.0533133333333","6500200","三重區"
"241006","AAD-863","2018/12/11 19:19:40","新北市三重區車路頭街182號","121.483676666667","25.077235","6500200","三重區"
"235066","003-UY","2018/12/11 19:19:33","新北市中和區中和路102號","121.502666666667","24.999755","6500300","中和區"
"235064","005-UY","2018/12/11 19:19:34","新北市中和區連城路2號","121.49923","25.0024933333333","6500300","中和區"
"235063","006-UY","2018/12/11 19:19:29","新北市中和區連城路249巷24號","121.494041666667","24.9960066666667","6500300","中和區"
"235056","096-UM","2018/12/11 19:19:36","新北市中和區員山路529號","121.47971","25.0069583333333","6500300","中和區"
"235039","097-UM","2018/12/11 19:19:37","新北市中和區秀峰街103巷2弄4號","121.519993333333","24.9905266666667","6500300","中和區"
"235040","150-BY","2018/12/11 19:19:39","新北市中和區安平路55號","121.509428333333","24.99548","6500300","中和區"
"235058","151-BY","2018/12/11 19:19:23","新北市中和區員山路36巷16-3號","121.484545","24.9912066666667","6500300","中和區"
"235055","183-VK","2018/12/11 19:19:33","新北市中和區德光路16號","121.471171666667","25.004535","6500300","中和區"
"235038","185-VK","2018/12/11 19:19:26","新北市中和區大仁街10巷50號","121.520363333333","24.992575","6500300","中和區"
"235049","186-VK","2018/12/11 19:19:35","新北市中和區景新街228號","121.508085","24.9944516666667","6500300","中和區"
"235067","255-BX","2018/12/11 19:19:40","新北市中和區中正路723號","121.48506","24.998895","6500300","中和區"
"235044","293-VK","2018/12/11 19:19:38","新北市中和區復興路302號","121.501406666667","24.9903883333333","6500300","中和區"
"235072","301-VK","2018/12/11 19:19:40","新北市中和區連城路263巷4弄2號","121.491511666667","24.99599","6500300","中和區"
"235043","352-BY","2018/12/11 19:19:22","新北市中和區景平路426號","121.507418333333","24.9932233333333","6500300","中和區"
"235042","KEA-2878","2018/12/11 19:19:30","新北市永和區中正路129巷1號","121.515805","24.99798","6500300","中和區"
"235050","4979-A6","2018/12/11 19:19:22","新北市中和區景安路208巷9號","121.503473333333","24.9911316666667","6500300","中和區"
"235070","558-UM","2018/12/11 19:19:39","新北市中和區中山路二段228號","121.498933333333","25.0026983333333","6500300","中和區"
"235045","565-BX","2018/12/11 19:19:34","新北市中和區景新街423巷33弄10號","121.513756666667","24.9901233333333","6500300","中和區"
"235054","640-BX","2018/12/11 19:19:42","新北市中和區國光街112巷10號","121.469901666667","25.0011633333333","6500300","中和區"
"235060","647-TV","2018/12/11 19:19:38","新北市中和區員山路294巷7號","121.481841666667","25.0024","6500300","中和區"
"235047","732-UM","2018/12/11 19:19:24","新北市中和區景平路241巷57號","121.508046666667","24.992095","6500300","中和區"
"235046","733-UM","2018/12/11 19:19:21","新北市中和區忠孝街2巷12號","121.51047","24.98184","6500300","中和區"
"235071","783-BX","2018/12/11 19:19:30","新北市中和區連城路469巷38號","121.483516666667","24.99476","6500300","中和區"
"235057","801-TS","2018/12/11 19:19:31","新北市中和區員山路423巷9號","121.48056","25.0031383333333","6500300","中和區"
"235048","896-TW","2018/12/11 19:19:33","新北市中和區忠孝街79號","121.512145","24.9852433333333","6500300","中和區"
"235053","900-TW","2018/12/11 19:19:33","新北市中和區民德路244號","121.468076666667","24.9972716666667","6500300","中和區"
"235065","911-UM","2018/12/11 19:19:29","新北市中和區中山路二段64巷7弄21號","121.50296","25.004685","6500300","中和區"
"235051","157-BY","2018/12/11 19:19:36","新北市中和區和平街54巷10弄14號","121.50952","24.9916766666667","6500300","中和區"
"235037","AAC-213","2018/12/11 19:19:34","新北市中和區自立路15巷8號","121.522958333333","24.9959816666667","6500300","中和區"
"235059","AAC-215","2018/12/11 19:19:40","新北市中和區圓通路286巷2號","121.491563333333","24.9911116666667","6500300","中和區"
"220065","072-UY","2018/12/11 19:19:36","新北市板橋區民族路170巷1號","121.467378333333","25.0075133333333","6500100","板橋區"
"220086","073-UY","2018/12/11 19:19:39","新北市板橋區中正路216巷22號","121.456755","25.018505","6500100","板橋區"
"220106","075-UY","2018/12/11 19:19:38","新北市板橋區江寧路三段115-4號","121.473163333333","25.0329466666667","6500100","板橋區"
"220069","AAD-861","2018/12/11 19:19:30","新北市板橋區稚暉街68號","121.457231666667","25.0039866666667","6500100","板橋區"
"226004","205-ST","2018/12/11 19:19:37","新北市平溪區靜安路三段67號","121.765703333333","25.0322566666667","6502400","平溪區"
"235052","251-BX","2018/12/11 19:19:38","新北市中和區興南路二段142巷17弄33號","121.502985","24.9827366666667","6500300","中和區"
"228001","212-TW","2018/12/11 19:19:36","新北市貢寮區真理里新港街10號","121.925491666667","25.05437","6502600","貢寮區"
"228002","663-BX","2018/12/11 19:19:37","新北市貢寮區龍門里復興街14號","121.926438333333","25.02569","6502600","貢寮區"
"228003","828-UM","2018/12/11 19:19:29","新北市貢寮區和美里和美街19-2號","121.912788333333","25.08258","6502600","貢寮區"
"224010","AGQ-8101","2018/12/11 19:19:26","新北市瑞芳區基山街17號","121.845333333333","25.1095283333333","6501200","瑞芳區"
"224008","285-BY","2018/12/11 19:19:27","新北市瑞芳區一坑路285號","121.80116","25.1085133333333","6501200","瑞芳區"
"227003","642-TC","2018/12/11 19:19:25","新北市雙溪區平林里梅竹蹊66-1號","121.860126666667","25.0358166666667","6502500","雙溪區"
"227009","400-TW","2018/12/11 19:19:24","新北市雙溪區新基里新基北街40號","121.868508333333","25.0380266666667","6502500","雙溪區"
"253006","032-BX","2018/12/11 19:19:32","新北市石門區楓林23-19號","121.537586666667","25.2904383333333","6502200","石門區"
"253005","295-VK","2018/12/11 19:19:24","新北市石門區阿里荖42-1號","121.603073333333","25.2856316666667","6502200","石門區"
"222001","KEA-2212","2018/12/11 19:19:28","新北市深坑區北深路二段103號","121.617445","25.00333","6501800","深坑區"
"208002","KEA-2872","2018/12/11 19:19:36","新北市金山區中華路131號","121.633178333333","25.2209","6502700","金山區"
"208003","665-BX","2018/12/11 19:19:32","新北市金山區忠孝一路56號","121.637573333333","25.2204416666667","6502700","金山區"
"208001","761-BX","2018/12/11 19:19:35","新北市金山區民生路69號","121.640188333333","25.21964","6502700","金山區"
"251005","010-UM","2018/12/11 19:19:35","新北市淡水區水源街一段34巷1號","121.443223333333","25.172235","6501000","淡水區"
"251013","KEA-2871","2018/12/11 19:19:31","新北市淡水區安子內12-1號","121.481521666667","25.2191016666667","6501000","淡水區"
"251016","179-VK","2018/12/11 19:19:25","新北市淡水區下圭柔山119-51號","121.450723333333","25.2084816666667","6501000","淡水區"
"251015","180-VK","2018/12/11 19:19:26","新北市淡水區山子邊16巷2號","121.485761666667","25.182985","6501000","淡水區"
"251001","559-UM","2018/12/11 19:19:24","新北市淡水區自強路201巷43號","121.462085","25.1268433333333","6501000","淡水區"
"251009","575-R6","2018/12/11 19:19:38","新北市淡水區中正路38-1號","121.443708333333","25.169275","6501000","淡水區"
"251007","577-R6","2018/12/11 19:19:31","新北市淡水區大同路113巷1號","121.464098333333","25.1409616666667","6501000","淡水區"
"251003","673-BX","2018/12/11 19:19:32","新北市淡水區中山北路一段173號","121.443728333333","25.1777833333333","6501000","淡水區"
"251010","766-UM","2018/12/11 19:19:28","新北市淡水區沙崙路27號","121.42147","25.1815333333333","6501000","淡水區"
"207003","550-UM","2018/12/11 19:19:23","新北市萬里區大鵬里萬里加投79-3號","121.647316666667","25.2123366666667","6502800","萬里區"
"207004","225-TW","2018/12/11 19:19:31","新北市萬里區萬里里成功新村44號","121.687698333333","25.1746133333333","6502800","萬里區"
"252002","178-VK","2018/12/11 19:19:24","新北市三芝區淡金路二段26號","121.502825","25.259705","6502100","三芝區"
"252001","292-VK","2018/12/11 19:19:31","新北市三芝區長勤街9巷8號","121.501506666667","25.255275","6502100","三芝區"
"237004","KEA-2597","2018/12/11 19:19:27","新北市三峽區有木206號","121.4392","24.85153","6500900","三峽區"
"237007","153-BY","2018/12/11 19:19:29","新北市三峽區二鬮路178號","121.359036666667","24.9068366666667","6500900","三峽區"
"237009","210-TH","2018/12/11 19:19:25","新北市三峽區信義街2號","121.370793333333","24.9361433333333","6500900","三峽區"
"237013","252-BX","2018/12/11 19:19:38","新北市三峽區大同路39巷49號","121.37852","24.9275716666667","6500900","三峽區"
"237012","275-BY","2018/12/11 19:19:35","新北市三峽區三樹路98巷106號","121.384915","24.9411066666667","6500900","三峽區"
"237008","302-VK","2018/12/11 19:19:28","新北市三峽區大同路136號","121.37366","24.9267383333333","6500900","三峽區"
"237014","433-BY","2018/12/11 19:19:29","新北市三峽區大智路7號","121.361166666667","24.93742","6500900","三峽區"
"237006","5529-G3","2018/12/11 19:19:27","新北市三峽區中正路一段336巷15弄2號","121.369946666667","24.9249483333333","6500900","三峽區"
"237011","KEA-2596","2018/12/11 19:19:29","新北市三峽區介壽路二段113號","121.392525","24.93559","6500900","三峽區"
"237016","649-BX","2018/12/11 19:19:25","新北市三峽區安坑60-2號","121.465218333333","24.9309616666667","6500900","三峽區"
"237010","706-TV","2018/12/11 19:19:32","新北市三峽區復興路235號","121.36838","24.939065","6500900","三峽區"
"237005","AKY-6261","2018/12/11 19:19:33","新北市鶯歌區三鶯路5號","121.356841666667","24.9406533333333","6500900","三峽區"
"236070","105-UM","2018/12/11 19:19:32","新北市土城區學成路67-1號","121.45136","24.9880916666667","6501300","土城區"
"236042","KED-0685","2018/12/11 19:19:34","新北市土城區學府路一段239號","121.450458333333","24.983405","6501300","土城區"
"236079","166-UM","2018/12/11 19:19:29","新北市土城區中央路四段321巷12號","121.41083","24.9511466666667","6501300","土城區"
"236026","269-VK","2018/12/11 19:19:36","新北市土城區中正路1號","121.44206","24.97506","6501300","土城區"
"236014","270-VK","2018/12/11 19:19:38","新北市土城區學府路一段23巷25弄2號","121.457753333333","24.9867666666667","6501300","土城區"
"236021","401-BY","2018/12/11 19:19:42","新北市土城區峰廷街3號","121.469065","24.9873183333333","6501300","土城區"
"236059","912-UM","2018/12/11 19:19:27","新北市土城區中央路二段280號","121.440876666667","24.9740933333333","6501300","土城區"
"236049","913-UM","2018/12/11 19:19:38","新北市土城區明德路一段365-1號","121.453608333333","24.9790616666667","6501300","土城區"
"242013","173-VK","2018/12/11 19:19:27","新北市新莊區三和路12-21號","121.441958333333","25.0386866666667","6500500","新莊區"
"238015","755-BX","2018/12/11 19:19:25","新北市樹林區備內街1巷25號","121.412773333333","24.986435","6500700","樹林區"
"238019","599-UM","2018/12/11 19:19:29","新北市樹林區東榮街91巷2弄8號","121.415735","24.9823733333333","6500700","樹林區"
"238018","571-TV","2018/12/11 19:19:25","新北市樹林區太元街2巷1號","121.417451666667","24.9810083333333","6500700","樹林區"
"238024","5061-A6","2018/12/11 19:19:37","新北市樹林區福德街26號","121.40085","24.9755883333333","6500700","樹林區"
"238022","KEA-2213","2018/12/11 19:19:34","新北市樹林區中華路190-6號","121.409963333333","24.9805683333333","6500700","樹林區"
"238021","KEA-2539","2018/12/11 19:19:35","新北市樹林區柑園街二段203巷16號","121.376788333333","24.9511316666667","6500700","樹林區"
"238025","303-VK","2018/12/11 19:19:23","新北市樹林區中山路二段153號","121.406336666667","24.978895","6500700","樹林區"
"238017","283-BY","2018/12/11 19:19:35","新北市樹林區光興街193號","121.407391666667","25.0046516666667","6500700","樹林區"
"238014","282-BY","2018/12/11 19:19:31","新北市樹林區中正路23號","121.427535","24.99932","6500700","樹林區"
"238020","268-VK","2018/12/11 19:19:37","新北市樹林區俊英街123巷2號","121.424328333333","25.0106366666667","6500700","樹林區"
"238026","172-UY","2018/12/11 19:19:28","新北市樹林區佳園路一段39號","121.39304","24.9707416666667","6500700","樹林區"
"238016","169-UY","2018/12/11 19:19:24","新北市樹林區中山路一段356巷10號","121.419075","24.9863716666667","6500700","樹林區"
"239007","AAC-297","2018/12/11 19:19:30","新北市鶯歌區大湖路326巷24號","121.346215","24.9698583333333","6500800","鶯歌區"
"239006","891-R6","2018/12/11 19:19:36","新北市鶯歌區尖山埔路114號","121.344338333333","24.9502266666667","6500800","鶯歌區"
"239008","527-UM","2018/12/11 19:19:36","新北市鶯歌區大湖路564號","121.336715","24.9730633333333","6500800","鶯歌區"
"239001","417-VK","2018/12/11 19:19:24","新北市鶯歌區鶯桃路27號","121.343568333333","24.9505483333333","6500800","鶯歌區"
"239003","360-BY","2018/12/11 19:19:20","新北市鶯歌區環河路85號","121.347068333333","24.939285","6500800","鶯歌區"
"239002","359-BY","2018/12/11 19:19:29","新北市鶯歌區大湖路185巷22號","121.342725","24.9705133333333","6500800","鶯歌區"
"239004","193-VK","2018/12/11 19:19:38","新北市鶯歌區二甲路38-1號","121.337833333333","24.93507","6500800","鶯歌區"
"221008","489-VK","2018/12/11 19:19:35","新北市汐止區康寧街332號","121.62754","25.0673016666667","6501100","汐止區"
"221036","130-UY","2018/12/11 19:19:39","新北市汐止區康寧街901號","121.651136666667","25.0751416666667","6501100","汐止區"
"221015","131-UY","2018/12/11 19:19:36","新北市汐止區康寧街901號","121.651518333333","25.0749733333333","6501100","汐止區"
"221012","278-VK","2018/12/11 19:19:28","新北市汐止區汐萬路一段306號","121.65044","25.0745683333333","6501100","汐止區"
"221023","279-VK","2018/12/11 19:19:39","新北市汐止區汐萬路一段256巷1號","121.651758333333","25.07489","6501100","汐止區"
"221027","281-BY","2018/12/11 19:19:31","新北市汐止區汐萬路一段310號","121.65031","25.0747216666667","6501100","汐止區"
"221010","297-VK","2018/12/11 19:19:28","新北市汐止區康寧街901號","121.6515","25.0750183333333","6501100","汐止區"
"221029","298-VK","2018/12/11 19:19:21","新北市汐止區汐萬路一段256巷1號","121.651783333333","25.07483","6501100","汐止區"
"221021","299-VK","2018/12/11 19:19:20","新北市汐止區康寧街901號","121.651421666667","25.0750666666667","6501100","汐止區"
"221031","353-TW","2018/12/11 19:19:31","新北市汐止區康寧街901號","121.651673333333","25.0749583333333","6501100","汐止區"
"221025","623-UM","2018/12/11 19:19:38","新北市汐止區汐萬路一段312號","121.650465","25.0753033333333","6501100","汐止區"
"221038","646-BX","2018/12/11 19:19:39","新北市汐止區汐萬路一段312號","121.650695","25.0753383333333","6501100","汐止區"
"221033","647-BX","2018/12/11 19:19:33","新北市汐止區南勢街3號","121.627075","25.0374266666667","6501100","汐止區"
"221002","707-TV","2018/12/11 19:19:29","新北市汐止區大同路一段341號","121.638655","25.05946","6501100","汐止區"
"220079","145-BY","2018/12/11 19:19:16","新北市板橋區光正街23巷50號","121.461466666667","25.0155416666667","6500100","板橋區"
"220080","200-UY","2018/12/11 19:19:41","新北市板橋區大觀路二段19巷86號","121.449093333333","25.002855","6500100","板橋區"
"220082","610-BX","2018/12/11 19:19:33","新北市板橋區溪崑二街138號","121.425906666667","24.98761","6500100","板橋區"
"220101","245-BX","2018/12/11 19:19:36","新北市板橋區莊敬路208巷4弄4號","121.471525","25.0211083333333","6500100","板橋區"
"220091","267-BY","2018/12/11 19:19:40","新北市板橋區縣民大道三段247巷1號","121.481545","25.0260816666667","6500100","板橋區"
"220056","276-BY","2018/12/11 19:19:36","新北市板橋區廣權路2號","121.460218333333","24.99066","6500100","板橋區"
"220072","277-BY","2018/12/11 19:19:23","新北市板橋區金門街280號","121.429065","24.986315","6500100","板橋區"
"220071","283-VK","2018/12/11 19:19:34","新北市板橋區重慶路269巷35號","121.464338333333","24.9991533333333","6500100","板橋區"
"220094","285-UM","2018/12/11 19:19:19","新北市板橋區松江街124巷7號","121.469478333333","25.0302833333333","6500100","板橋區"
"220053","285-VK","2018/12/11 19:19:38","新北市板橋區富山街12號","121.478493333333","25.0217783333333","6500100","板橋區"
"220083","286-VK","2018/12/11 19:19:38","新北市板橋區大觀路二段174巷186弄14號","121.442821666667","25.00345","6500100","板橋區"
"220081","287-VK","2018/12/11 19:19:40","新北市板橋區南雅西路二段11號","121.45299","25.0092816666667","6500100","板橋區"
"220090","288-VK","2018/12/11 19:19:42","新北市板橋區裕民街87-4號","121.46045","25.028015","6500100","板橋區"
"220061","293-UM","2018/12/11 19:19:41","新北市板橋區成功路6巷25號","121.47618","25.0172716666667","6500100","板橋區"
"220062","295-UM","2018/12/11 19:19:25","新北市板橋區三民路二段153巷30弄35號","121.481145","25.01464","6500100","板橋區"
"220084","296-UM","2018/12/11 19:19:35","新北市板橋區溪北路73巷5號","121.428371666667","24.989865","6500100","板橋區"
"220092","299-UM","2018/12/11 19:19:34","新北市板橋區光武街2巷17號","121.468511666667","25.0252433333333","6500100","板橋區"
"220075","303-R5","2018/12/11 19:19:21","新北市板橋區中正路275巷93號","121.450801666667","25.01808","6500100","板橋區"
"220098","317-R6","2018/12/11 19:19:31","新北市板橋區四維路103巷23號","121.46462","25.0240366666667","6500100","板橋區"
"220089","487-VK","2018/12/11 19:19:35","新北市板橋區陽明街259號","121.46264","25.025445","6500100","板橋區"
"220088","491-VK","2018/12/11 19:19:38","新北市板橋區雙十路二段187號","121.473771666667","25.0288233333333","6500100","板橋區"
"220035","560-BX","2018/12/11 19:19:29","新北市板橋區中正路433巷21號","121.453431666667","25.023555","6500100","板橋區"
"220103","561-BX","2018/12/11 19:19:30","新北市板橋區文化路一段270巷3弄15-1號","121.468378333333","25.020825","6500100","板橋區"
"220063","609-BX","2018/12/11 19:19:40","新北市板橋區三民路一段1巷30號","121.48021","25.0243116666667","6500100","板橋區"
"220057","686-BX","2018/12/11 19:19:32","新北市板橋區五權街30巷1號","121.464775","24.99338","6500100","板橋區"
"220077","687-BX","2018/12/11 19:19:40","新北市板橋區大觀路一段51號","121.447675","25.0066516666667","6500100","板橋區"
"220093","689-BX","2018/12/11 19:19:28","新北市板橋區英士路49號","121.46105","25.0246316666667","6500100","板橋區"
"220054","741-BX","2018/12/11 19:19:23","新北市板橋區校前街38號","121.460938333333","25.0032016666667","6500100","板橋區"
"220102","KEA-2699","2018/12/11 19:19:21","新北市板橋區松柏街22巷9-2號","121.47472","25.0295133333333","6500100","板橋區"
"220055","827-TW","2018/12/11 19:19:43","新北市板橋區新民街1號","121.463848333333","25.0094316666667","6500100","板橋區"
"220068","830-TW","2018/12/11 19:19:30","新北市板橋區萬安街121號","121.483455","25.0250766666667","6500100","板橋區"
"220067","831-TW","2018/12/11 19:19:30","新北市板橋區長安街138巷7弄51號","121.474043333333","25.0091883333333","6500100","板橋區"
"220074","895-R6","2018/12/11 19:19:33","新北市板橋區西門街14號","121.45533","25.0115683333333","6500100","板橋區"
"220073","985-R7","2018/12/11 19:19:29","新北市板橋區新生街89巷18號","121.45754","25.0225466666667","6500100","板橋區"
"220097","AAC-210","2018/12/11 19:19:33","新北市板橋區幸福路34號","121.461585","25.0204666666667","6500100","板橋區"
"220064","AAC-253","2018/12/11 19:19:35","新北市板橋區民族路48號","121.462258333333","25.0096383333333","6500100","板橋區"
"235068","KEA-2873","2018/12/11 19:19:27","新北市中和區連勝街38巷24號","121.497855","24.998265","6500300","中和區"
"235061","KEA-2875","2018/12/11 19:19:37","新北市中和區連城路456巷9號","121.478583333333","24.9950983333333","6500300","中和區"
"235041","KEA-2876","2018/12/11 19:19:22","新北市中和區中和路298號","121.508651666667","24.9997933333333","6500300","中和區"
