"lineid","car","time","location","longitude","latitude","cityid","cityname"
"234046","148-BY","2018/12/11 20:09:40","新北市永和區得和路376號","121.524623333333","24.9992816666667","6500400","永和區"
"234007","207-UY","2018/12/11 20:09:24","新北市永和區保順路37巷1號","121.50322","25.0105033333333","6500400","永和區"
"234038","336-UY","2018/12/11 20:09:21","新北市永和區成功路一段47巷28號","121.527663333333","25.0038816666667","6500400","永和區"
"234064","337-UY","2018/12/11 20:09:39","新北市永和區秀朗路二段67號","121.522063333333","25.0019716666667","6500400","永和區"
"234070","552-UM","2018/12/11 20:09:34","新北市永和區永貞路10巷7號","121.520175","25.007235","6500400","永和區"
"234081","553-UM","2018/12/11 20:09:39","新北市永和區國中路33號","121.524591666667","25.0054766666667","6500400","永和區"
"234017","745-BX","2018/12/11 20:09:24","新北市永和區文化路80號","121.514053333333","25.0151833333333","6500400","永和區"
"234030","746-BX","2018/12/11 20:09:34","新北市永和區民權路49巷5弄22號","121.52156","24.9977633333333","6500400","永和區"
"234054","KEA-2590","2018/12/11 20:09:40","新北市永和區博愛街23號","121.517956666667","25.01584","6500400","永和區"
"234013","KEA-2591","2018/12/11 20:09:37","新北市永和區永貞路387號","121.507986666667","25.008725","6500400","永和區"
"234061","AAD-866","2018/12/11 20:09:26","新北市永和區中正路151巷8弄1號","121.515921666667","24.9986616666667","6500400","永和區"
"234086","748-BX","2018/12/11 20:09:26","新北市永和區中正路545號","121.516855","25.007985","6500400","永和區"
"234042","862-TW","2018/12/11 20:09:40","新北市永和區雙和街64巷22弄3號","121.509725","25.0030833333333","6500400","永和區"
"234050","863-TW","2018/12/11 20:09:33","新北市永和區保安路292號","121.505046666667","25.0118116666667","6500400","永和區"
"249005","172-UM","2018/12/11 20:09:39","新北市八里區下罟子57-8號","121.387683333333","25.13854","6502300","八里區"
"249001","173-UM","2018/12/11 20:09:29","新北市八里區中華路二段326號","121.403308333333","25.147925","6502300","八里區"
"249004","303-UY","2018/12/11 20:09:24","新北市八里區中山路一段153號","121.412681666667","25.15895","6502300","八里區"
"249002","305-UY","2018/12/11 20:09:36","新北市八里區龍米路一段42號","121.456841666667","25.11853","6502300","八里區"
"249003","593-UM","2018/12/11 20:09:40","新北市八里區中山路二段540巷9弄10號","121.39676","25.1469966666667","6502300","八里區"
"248016","026-BX","2018/12/11 20:09:24","新北市五股區凌雲路一段158巷37號","121.446968333333","25.1038","6501500","五股區"
"248008","095-VK","2018/12/11 20:09:23","新北市五股區中興路一段1巷28號","121.469845","25.0702766666667","6501500","五股區"
"248020","225-UY","2018/12/11 20:09:37","新北市五股區凌雲路二段25號","121.44112","25.10218","6501500","五股區"
"248012","247-BX","2018/12/11 20:09:38","新北市五股區六合街118號","121.430301666667","25.0907816666667","6501500","五股區"
"248014","261-SL","2018/12/11 20:09:31","新北市五股區成泰路三段318-1號","121.450525","25.0965566666667","6501500","五股區"
"248010","272-BY","2018/12/11 20:09:39","新北市五股區成泰路一段55號","121.434303333333","25.0674016666667","6501500","五股區"
"248004","677-BX","2018/12/11 20:09:34","新北市五股區成泰路一段194-2號","121.435721666667","25.0781766666667","6501500","五股區"
"248002","678-BX","2018/12/11 20:09:34","新北市五股區成泰路三段271號","121.447006666667","25.094005","6501500","五股區"
"234023","9380-KE","2018/12/11 20:09:43","新北市永和區中正路654巷26號","121.517676666667","25.008565","6500400","永和區"
"234077","969-R7","2018/12/11 20:09:35","新北市永和區民享街23巷5弄8號","121.516141666667","24.9957066666667","6500400","永和區"
"234074","AAC-211","2018/12/11 20:09:42","新北市永和區豫溪街169巷2-1號","121.521991666667","25.01049","6500400","永和區"
"234067","AAC-212","2018/12/11 20:09:25","新北市永和區保平路214巷10弄2號","121.509331666667","25.0063533333333","6500400","永和區"
"234003","AAC-295","2018/12/11 20:09:29","新北市永和區中正路620號","121.516978333333","25.0078733333333","6500400","永和區"
"243009","297-R6","2018/12/11 20:09:25","新北市泰山區泰林路二段121號","121.434286666667","25.05964","6501600","泰山區"
"243016","KEA-2801","2018/12/11 20:09:25","新北市泰山區明志路三段405號","121.421223333333","25.0340433333333","6501600","泰山區"
"243015","421-VK","2018/12/11 20:09:28","新北市泰山區明志路一段266號","121.432058333333","25.0603183333333","6501600","泰山區"
"243013","539-UM","2018/12/11 20:09:41","新北市泰山區明志路三段74巷25弄2號","121.42371","25.0415983333333","6501600","泰山區"
"243011","KEA-2215","2018/12/11 20:09:29","新北市泰山區中山路三段6號","121.42098","25.032465","6501600","泰山區"
"243010","KEA-2216","2018/12/11 20:09:30","新北市泰山區明志路二段214巷16弄41號","121.42685","25.05042","6501600","泰山區"
"243012","646-TV","2018/12/11 20:09:41","新北市泰山區楓江路86巷9號","121.437375","25.062715","6501600","泰山區"
"243014","680-BX","2018/12/11 20:09:29","新北市泰山區泰林路二段216號","121.43289","25.0619316666667","6501600","泰山區"
"222003","436-BY","2018/12/11 20:09:36","新北市深坑區埔新街60號","121.620175","25.0024333333333","6501800","深坑區"
"222002","659-BX","2018/12/11 20:09:36","新北市深坑區北深路三段192巷9號","121.601858333333","25.004165","6501800","深坑區"
"231041","002-UM","2018/12/11 20:09:26","新北市新店區中正路460號","121.534016666667","24.9793833333333","6500600","新店區"
"231059","046-UY","2018/12/11 20:09:30","新北市新店區安成街25號","121.510035","24.96081","6500600","新店區"
"231040","047-UY","2018/12/11 20:09:41","新北市新店區中正路106號","121.543143333333","24.9706166666667","6500600","新店區"
"231044","106-UY","2018/12/11 20:09:22","新北市新店區寶元路一段15巷20號","121.54202","24.986985","6500600","新店區"
"231053","108-UY","2018/12/11 20:09:38","新北市新店區新烏路三段寶島巷4號","121.551101666667","24.8992783333333","6500600","新店區"
"231048","187-VK","2018/12/11 20:09:37","新北市新店區寶橋路61號","121.545161666667","24.97503","6500600","新店區"
"231054","KEA-2219","2018/12/11 20:09:21","新北市新店區檳榔路4號","121.540988333333","24.9648416666667","6500600","新店區"
"231057","256-BX","2018/12/11 20:09:26","新北市新店區百齡一路12號","121.553141666667","24.9324316666667","6500600","新店區"
"231042","268-BY","2018/12/11 20:09:27","新北市新店區中興路二段89號","121.547031666667","24.971415","6500600","新店區"
"231051","278-BY","2018/12/11 20:09:32","新北市新店區中央路208號","121.530181666667","24.973875","6500600","新店區"
"231050","AAD-862","2018/12/11 20:09:41","新北市新店區北新路一段90號","121.541908333333","24.9686466666667","6500600","新店區"
"231056","4715-K9","2018/12/11 20:09:34","新北市新店區中正路275巷40號","121.536616666667","24.9726783333333","6500600","新店區"
"231067","4772-VM","2018/12/11 20:09:28","新北市新店區溪洲路6巷88號","121.533263333333","24.963585","6500600","新店區"
"231065","512-UM","2018/12/11 20:09:40","新北市新店區安祥路106巷149號","121.473466666667","24.9589366666667","6500600","新店區"
"231049","513-UM","2018/12/11 20:09:33","新北市新店區北新路二段139巷9-1號","121.542173333333","24.9755616666667","6500600","新店區"
"231063","616-UM","2018/12/11 20:09:36","新北市新店區黎明路52巷1號","121.50233","24.9486483333333","6500600","新店區"
"231061","618-UM","2018/12/11 20:09:34","新北市新店區安興路32號","121.51565","24.9700933333333","6500600","新店區"
"231068","718-UY","2018/12/11 20:09:26","新北市新店區寶中路45-3號","121.545221666667","24.9788916666667","6500600","新店區"
"231064","719-UM","2018/12/11 19:53:52","新北市新店區安民街113號","121.516311666667","24.96844","6500600","新店區"
"231062","720-UM","2018/12/11 20:09:36","新北市新店區安康路二段178號","121.511658333333","24.9603283333333","6500600","新店區"
"231060","897-TW","2018/12/11 20:09:24","新北市新店區安康路三段277號","121.486075","24.95165","6500600","新店區"
"231045","898-TW","2018/12/11 20:09:28","新北市新店區北宜路一段150號","121.540213333333","24.9539216666667","6500600","新店區"
"231043","899-TW","2018/12/11 20:09:26","新北市新店區民族路162號","121.537393333333","24.9766566666667","6500600","新店區"
"231055","AKT-0513","2018/12/11 20:09:39","新北市新店區北新路一段297巷27號","121.54055","24.9680733333333","6500600","新店區"
"241011","013-R5","2018/12/11 20:09:24","新北市三重區仁愛街30號","121.496325","25.0717016666667","6500200","三重區"
"241028","022-UY","2018/12/11 20:09:35","新北市三重區仁化街137號","121.494661666667","25.0574466666667","6500200","三重區"
"241008","059-VK","2018/12/11 20:09:22","新北市三重區永福街197巷19號","121.478708333333","25.0742066666667","6500200","三重區"
"241022","060-VK","2018/12/11 20:09:34","新北市三重區重陽路二段15號","121.48695","25.0623","6500200","三重區"
"241031","061-VK","2018/12/11 20:09:26","新北市三重區過圳街9-1號","121.488735","25.0601116666667","6500200","三重區"
"241015","062-VK","2018/12/11 20:09:33","新北市三重區福德北路24號","121.502305","25.064845","6500200","三重區"
"241017","063-VK","2018/12/11 20:09:41","新北市三重區自強路一段236號","121.493228333333","25.06696","6500200","三重區"
"241024","065-VK","2018/12/11 20:09:36","新北市三重區中正北路282號","121.480545","25.0685783333333","6500200","三重區"
"241002","090-VK","2018/12/11 20:09:35","新北市三重區五華街35巷54號","121.4957","25.0817916666667","6500200","三重區"
"241003","091-VK","2018/12/11 20:09:32","新北市三重區仁愛街476號","121.489623333333","25.0824033333333","6500200","三重區"
"251014","742-BX","2018/12/11 20:09:21","新北市淡水區石頭厝1號","121.458718333333","25.2355033333333","6501000","淡水區"
"241005","262-UM","2018/12/11 20:09:43","新北市三重區溪尾街327號","121.488481666667","25.08489","6500200","三重區"
"241026","265-UM","2018/12/11 20:09:21","新北市三重區福德南路65巷2號","121.502286666667","25.0604966666667","6500200","三重區"
"241016","266-UM","2018/12/11 20:09:15","新北市三重區大同北路54巷6號","121.493988333333","25.06341","6500200","三重區"
"241009","267-UM","2018/12/11 20:09:30","新北市三重區永福街15-1號","121.481975","25.07826","6500200","三重區"
"241018","268-UM","2018/12/11 20:09:28","新北市三重區大智街49-1號","121.492983333333","25.0676733333333","6500200","三重區"
"241013","270-UM","2018/12/11 20:09:41","新北市三重區三和路三段139巷36號","121.493935","25.0740833333333","6500200","三重區"
"241025","271-UM","2018/12/11 20:09:36","新北市三重區中正北路237號","121.475543333333","25.07069","6500200","三重區"
"241007","398-BY","2018/12/11 20:09:31","新北市三重區三和路四段111-9號","121.486433333333","25.0775633333333","6500200","三重區"
"241035","462-BY","2018/12/11 20:09:34","新北市三重區文化北路25號","121.499598333333","25.0636883333333","6500200","三重區"
"241004","475-VK","2018/12/11 20:09:39","新北市三重區自強路四段80號","121.490595","25.07891","6500200","三重區"
"241020","478-VK","2018/12/11 20:09:34","新北市三重區三和路三段188號","121.49196","25.0736333333333","6500200","三重區"
"241030","480-VK","2018/12/11 20:09:21","新北市三重區成功路145巷33號","121.487716666667","25.0532183333333","6500200","三重區"
"241014","543-UM","2018/12/11 20:09:34","新北市三重區龍濱路80號","121.502206666667","25.069615","6500200","三重區"
"241023","545-UM","2018/12/11 20:09:23","新北市三重區頂崁街220巷2號","121.476978333333","25.068075","6500200","三重區"
"241001","547-UM","2018/12/11 20:09:26","新北市三重區三和路四段91號","121.488973333333","25.075645","6500200","三重區"
"241019","KEA-2593","2018/12/11 20:09:31","新北市三重區大智街178號","121.491176666667","25.0700483333333","6500200","三重區"
"241006","AAD-863","2018/12/11 20:09:40","新北市三重區車路頭街139巷14號","121.484261666667","25.07619","6500200","三重區"
"241012","941-UM","2018/12/11 20:09:25","新北市三重區仁興街70號","121.498515","25.076385","6500200","三重區"
"235066","003-UY","2018/12/11 20:09:33","新北市中和區水源路127巷2弄2號","121.508086666667","25.0040366666667","6500300","中和區"
"235039","097-UM","2018/12/11 20:09:27","新北市中和區立人街24-4號","121.518973333333","24.9941733333333","6500300","中和區"
"235040","150-BY","2018/12/11 20:09:39","新北市中和區保健路33巷5號","121.508865","24.9980233333333","6500300","中和區"
"247012","KEA-2869","2018/12/11 20:09:38","新北市蘆洲區民族路252號","121.479081666667","25.0887566666667","6501400","蘆洲區"
"247006","KED-0682","2018/12/11 20:09:21","新北市蘆洲區九芎街2號","121.468891666667","25.0785183333333","6501400","蘆洲區"
"235050","4979-A6","2018/12/11 20:09:22","新北市中和區景新街323-3號","121.511303333333","24.9920666666667","6500300","中和區"
"235070","558-UM","2018/12/11 20:09:39","新北市中和區中山路二段546號","121.484835","25.0051166666667","6500300","中和區"
"235054","640-BX","2018/12/11 20:09:30","新北市五股區成泰路三段590-3號","121.453313333333","25.1058783333333","6500300","中和區"
"235026","800-TS","2018/12/11 20:09:22","新北市中和區員山路36巷16號","121.484568333333","24.9914916666667","6500300","中和區"
"235065","911-UM","2018/12/11 20:09:29","新北市中和區福祥路68號","121.49927","25.005215","6500300","中和區"
"235051","157-BY","2018/12/11 20:09:30","新北市中和區復興路261號","121.502931666667","24.99032","6500300","中和區"
"235037","AAC-213","2018/12/11 20:09:34","新北市中和區自強路52號","121.520135","24.9948383333333","6500300","中和區"
"235059","AAC-215","2018/12/11 20:09:40","新北市中和區圓通路335巷33弄15號","121.493098333333","24.9889883333333","6500300","中和區"
"220065","072-UY","2018/12/11 20:09:36","新北市板橋區縣民大道二段106號","121.466943333333","25.0153083333333","6500100","板橋區"
"220106","075-UY","2018/12/11 20:09:38","新北市板橋區文聖街54號","121.476681666667","25.0311116666667","6500100","板橋區"
"247002","893-R6","2018/12/11 20:09:24","新北市蘆洲區長榮路269巷26號","121.459488333333","25.0861766666667","6501400","蘆洲區"
"247024","500-BY","2018/12/11 20:09:20","新北市蘆洲區光明路130號","121.463861666667","25.0882333333333","6501400","蘆洲區"
"247020","057-VK","2018/12/11 20:09:29","新北市蘆洲區民義街68巷18號","121.473776666667","25.0894183333333","6501400","蘆洲區"
"247010","056-VK","2018/12/11 20:09:38","新北市蘆洲區信義路154號","121.479343333333","25.083435","6501400","蘆洲區"
"247004","002-UY","2018/12/11 20:09:40","新北市蘆洲區長安街285巷23號","121.457471666667","25.084095","6501400","蘆洲區"
"247022","001-UY","2018/12/11 20:09:38","新北市蘆洲區三民路171巷11號","121.47071","25.0869983333333","6501400","蘆洲區"
"226004","205-ST","2018/12/11 20:09:37","新北市平溪區十分里十分街311號","121.775173333333","25.04351","6502400","平溪區"
"222001","KEA-2212","2018/12/11 20:09:28","新北市深坑區北深路三段195號","121.601108333333","25.0036683333333","6501800","深坑區"
"208003","665-BX","2018/12/11 20:09:32","新北市金山區中正路136號","121.631601666667","25.22171","6502700","金山區"
"251005","010-UM","2018/12/11 20:09:35","新北市淡水區學府路121號","121.4503","25.1725033333333","6501000","淡水區"
"251013","KEA-2871","2018/12/11 20:09:31","新北市淡水區奎柔山路338號","121.46007","25.20518","6501000","淡水區"
"251016","179-VK","2018/12/11 20:09:36","新北市淡水區番子田18號","121.45712","25.2292583333333","6501000","淡水區"
"251015","180-VK","2018/12/11 20:09:38","新北市淡水區埤島3-23號","121.447588333333","25.1896816666667","6501000","淡水區"
"251008","181-VK","2018/12/11 20:09:34","新北市淡水區沙崙路131巷11號","121.421936666667","25.1829983333333","6501000","淡水區"
"251012","441-VK","2018/12/11 20:09:35","新北市淡水區淡金路三段343號","121.448823333333","25.206585","6501000","淡水區"
"251001","559-UM","2018/12/11 20:09:24","新北市淡水區淡金路二段15號","121.446106666667","25.189175","6501000","淡水區"
"251006","561-UM","2018/12/11 20:09:33","新北市淡水區北新路141巷29號","121.448195","25.1796333333333","6501000","淡水區"
"251009","575-R6","2018/12/11 20:09:38","新北市淡水區清水街9-3號","121.444851666667","25.1703516666667","6501000","淡水區"
"251003","673-BX","2018/12/11 20:09:32","新北市淡水區中山北路二段157號","121.443645","25.1837983333333","6501000","淡水區"
"251010","766-UM","2018/12/11 20:09:28","新北市淡水區崁頂五路303號","121.424461666667","25.1982433333333","6501000","淡水區"
"207003","550-UM","2018/12/11 20:09:23","新北市萬里區大鵬里萬里加投186號","121.642781666667","25.2156516666667","6502800","萬里區"
"207004","225-TW","2018/12/11 20:09:31","新北市萬里區北基里愛三街11號","121.681818333333","25.1766316666667","6502800","萬里區"
"252002","178-VK","2018/12/11 20:09:24","新北市三芝區中正路一段72號","121.504073333333","25.2576783333333","6502100","三芝區"
"252001","292-VK","2018/12/11 20:09:31","新北市三芝區長安街89號","121.499698333333","25.2574766666667","6502100","三芝區"
"237006","5529-G3","2018/12/11 20:09:27","新北市三峽區嘉添11號","121.368641666667","24.9118883333333","6500900","三峽區"
"237016","649-BX","2018/12/11 20:09:25","新北市三峽區介壽路二段138巷1弄162號","121.401565","24.9287","6500900","三峽區"
"237005","AKY-6261","2018/12/11 20:09:33","新北市三峽區三樹路98巷115號","121.382656666667","24.9387","6500900","三峽區"
"236070","105-UM","2018/12/11 20:09:32","新北市土城區大安路20號","121.432915","24.966215","6501300","土城區"
"236042","KED-0685","2018/12/11 20:09:34","新北市土城區學成路20號","121.453053333333","24.9869366666667","6501300","土城區"
"236079","166-UM","2018/12/11 20:09:29","新北市土城區福安街20號","121.41984","24.964995","6501300","土城區"
"236030","253-BX","2018/12/11 20:09:37","新北市土城區中央路一段141號","121.44672","24.9880183333333","6501300","土城區"
"236026","269-VK","2018/12/11 20:09:36","新北市土城區中央路一段269號","121.444931666667","24.98527","6501300","土城區"
"236014","270-VK","2018/12/11 20:09:38","新北市土城區德興街135號","121.455083333333","24.9917083333333","6501300","土城區"
"236038","271-VK","2018/12/11 20:09:40","新北市土城區延吉街363巷7號","121.464275","24.983515","6501300","土城區"
"236021","401-BY","2018/12/11 20:09:43","新北市土城區延吉街23巷37號","121.474321666667","24.987475","6501300","土城區"
"236059","912-UM","2018/12/11 20:09:27","新北市土城區中央路二段388號","121.439755","24.9711333333333","6501300","土城區"
"236049","913-UM","2018/12/11 20:09:38","新北市土城區清水路148號","121.459243333333","24.9814816666667","6501300","土城區"
"236055","AAC-216","2018/12/11 20:09:37","新北市土城區中華路一段178號","121.441125","24.9825516666667","6501300","土城區"
"242037","AAC-296","2018/12/11 20:04:50","新北市新莊區後港一路130巷27弄3號","121.430133333333","25.0261833333333","6500500","新莊區"
"242058","986-R7","2018/12/11 20:09:26","新北市新莊區八德街139號","121.42369","25.0199933333333","6500500","新莊區"
"242027","615-BX","2018/12/11 20:09:29","新北市新莊區幸福路698號","121.449986666667","25.0492066666667","6500500","新莊區"
"242025","613-BX","2018/12/11 20:09:17","新北市新莊區五工三路80號","121.458926666667","25.0649783333333","6500500","新莊區"
"242029","612-BX","2018/12/11 20:09:39","新北市新莊區中原路247號","121.449188333333","25.0543033333333","6500500","新莊區"
"242044","566-BX","2018/12/11 20:09:37","新北市新莊區萬壽路一段21巷17弄14號","121.410978333333","25.0200016666667","6500500","新莊區"
"242048","497-BY","2018/12/11 20:09:41","新北市新莊區四維路180號","121.422373333333","25.021735","6500500","新莊區"
"242002","440-UM","2018/12/11 20:09:35","新北市新莊區中正路55-4號","121.461878333333","25.03965","6500500","新莊區"
"242039","415-TV","2018/12/11 20:09:26","新北市新莊區民安西路109號","121.426758333333","25.0183766666667","6500500","新莊區"
"242009","413-TV","2018/12/11 20:09:38","新北市新莊區昌平街28號","121.454811666667","25.0529016666667","6500500","新莊區"
"242023","362-BY","2018/12/11 20:09:44","新北市新莊區化成路654號","121.465926666667","25.0559033333333","6500500","新莊區"
"242061","353-BY","2018/12/11 20:09:22","新北市新莊區瓊林路瓊英巷4弄2號","121.443618333333","25.0274766666667","6500500","新莊區"
"242011","132-UY","2018/12/11 20:09:36","新北市新莊區中信街67巷7號","121.448633333333","25.0507266666667","6500500","新莊區"
"242034","135-UY","2018/12/11 20:09:24","新北市新莊區中正路326號","121.44601","25.0348683333333","6500500","新莊區"
"242051","172-VK","2018/12/11 20:08:55","新北市新莊區民安西路191-1號","121.42607","25.0154016666667","6500500","新莊區"
"242013","173-VK","2018/12/11 20:09:27","新北市新莊區幸福路684號","121.450445","25.0495366666667","6500500","新莊區"
"242007","176-VK","2018/12/11 20:09:41","新北市新莊區福壽街124巷41弄16號","121.45928","25.0517916666667","6500500","新莊區"
"242017","KED-0687","2018/12/11 20:09:35","新北市新莊區中港一街1號","121.451833333333","25.0456316666667","6500500","新莊區"
"242056","346-TH","2018/12/11 20:09:32","新北市新莊區新莊路649巷13弄14號","121.445553333333","25.0318216666667","6500500","新莊區"
"242032","348-TH","2018/12/11 20:09:23","新北市新莊區中正路380號","121.442968333333","25.034145","6500500","新莊區"
"242005","349-TH","2018/12/11 20:09:24","新北市新莊區頭興街24號","121.464785","25.05353","6500500","新莊區"
"242021","350-TH","2018/12/11 20:09:38","新北市新莊區建中街31號","121.448726666667","25.03728","6500500","新莊區"
"242015","351-TH","2018/12/11 20:09:24","新北市新莊區中平路26巷44號","121.446821666667","25.0432983333333","6500500","新莊區"
"221008","489-VK","2018/12/11 20:09:35","台北市內湖區康樂街164號","121.619421666667","25.0731466666667","6501100","汐止區"
"221036","130-UY","2018/12/11 20:09:39","新北市汐止區仁愛路143號","121.663311666667","25.0643566666667","6501100","汐止區"
"221015","131-UY","2018/12/11 20:09:36","新北市汐止區建成路52號","121.663651666667","25.0728916666667","6501100","汐止區"
"221012","278-VK","2018/12/11 20:09:28","新北市汐止區汐平路二段66號","121.698651666667","25.06101","6501100","汐止區"
"221023","279-VK","2018/12/11 20:09:39","新北市汐止區明峰街298巷1號","121.625308333333","25.06793","6501100","汐止區"
"221032","280-BY","2018/12/11 20:09:35","新北市汐止區弘道街8巷3弄2號","121.6171","25.0481383333333","6501100","汐止區"
"221027","281-BY","2018/12/11 20:09:31","新北市汐止區民生街1-1號","121.660171666667","25.06871","6501100","汐止區"
"221010","297-VK","2018/12/11 20:09:28","新北市汐止區八連路一段270號","121.640355","25.0854966666667","6501100","汐止區"
"221029","298-VK","2018/12/11 20:09:41","新北市汐止區樟樹一路119巷10弄1號","121.641246666667","25.0645","6501100","汐止區"
"221021","299-VK","2018/12/11 20:09:40","新北市汐止區連興街121號","121.653771666667","25.0621883333333","6501100","汐止區"
"221031","353-TW","2018/12/11 20:09:19","新北市汐止區原興路64號","121.632676666667","25.0657066666667","6501100","汐止區"
"221035","622-UM","2018/12/11 20:09:26","新北市汐止區長江街67巷2弄4號","121.656791666667","25.0723","6501100","汐止區"
"221025","623-UM","2018/12/11 20:09:38","新北市汐止區新台五路一段280號","121.659463333333","25.0648283333333","6501100","汐止區"
"221038","646-BX","2018/12/11 20:09:39","新北市汐止區大同路三段66-3號","121.668046666667","25.0771766666667","6501100","汐止區"
"221033","647-BX","2018/12/11 20:09:33","新北市汐止區東勢街201巷129弄2號","121.633473333333","25.0428333333333","6501100","汐止區"
"221002","707-TV","2018/12/11 20:09:29","新北市汐止區中興路62號","121.635281666667","25.0612433333333","6501100","汐止區"
"221018","753-BX","2018/12/11 20:09:32","新北市汐止區茄福街35巷35號","121.673355","25.0662066666667","6501100","汐止區"
"220080","200-UY","2018/12/11 20:09:22","新北市板橋區大觀路二段181號","121.444991666667","25.00006","6500100","板橋區"
"220082","610-BX","2018/12/11 20:09:33","新北市板橋區金門街215號","121.432505","24.9899866666667","6500100","板橋區"
"220101","245-BX","2018/12/11 20:09:35","新北市板橋區雙十路一段44巷36號","121.477556666667","25.0249016666667","6500100","板橋區"
"220094","285-UM","2018/12/11 20:09:39","新北市板橋區文化路二段179號","121.470811666667","25.0278066666667","6500100","板橋區"
"220083","286-VK","2018/12/11 20:09:37","新北市板橋區僑中二街90巷6號","121.446018333333","25.0092366666667","6500100","板橋區"
"220081","287-VK","2018/12/11 20:09:20","新北市板橋區僑中一街80巷6弄1號","121.447696666667","25.0121416666667","6500100","板橋區"
"220061","293-UM","2018/12/11 20:09:33","新北市板橋區中山路一段2號","121.459841666667","25.0074683333333","6500100","板橋區"
"220062","295-UM","2018/12/11 20:09:33","新北市板橋區萬安街20巷6弄14號","121.485121666667","25.0231683333333","6500100","板橋區"
"220098","317-R6","2018/12/11 20:09:31","新北市板橋區長江路二段311巷18-1號","121.470233333333","25.03596","6500100","板橋區"
"242019","280-VK","2018/12/11 20:09:27","新北市新莊區博愛路5巷2號","121.456303333333","25.0432666666667","6500500","新莊區"
"220103","561-BX","2018/12/11 20:09:30","新北市板橋區漢生東路23巷56弄1號","121.466213333333","25.01827","6500100","板橋區"
"220057","686-BX","2018/12/11 20:09:32","新北市板橋區四川路二段130巷17號","121.449576666667","24.9940733333333","6500100","板橋區"
"220054","741-BX","2018/12/11 20:09:23","新北市板橋區實踐路93巷19號","121.46493","25.0055416666667","6500100","板橋區"
"220055","827-TW","2018/12/11 20:09:43","新北市板橋區仁愛路76巷3弄1號","121.460621666667","24.9992883333333","6500100","板橋區"
"220074","895-R6","2018/12/11 20:09:41","新北市板橋區明德街8號","121.459921666667","25.0104016666667","6500100","板橋區"
"220073","985-R7","2018/12/11 20:09:29","新北市板橋區南雅西路二段2-1號","121.453163333333","25.008855","6500100","板橋區"
"220064","AAC-253","2018/12/11 20:09:27","新北市板橋區長安街331巷12號","121.474223333333","25.0123383333333","6500100","板橋區"
"235068","KEA-2873","2018/12/11 20:09:27","新北市中和區福美路249號","121.498925","25.0052183333333","6500300","中和區"
