"lineid","car","time","location","longitude","latitude","cityid","cityname"
"234081","553-UM","2018/12/11 20:39:29","新北市永和區永貞路82號","121.52024","25.0049466666667","6500400","永和區"
"234030","746-BX","2018/12/11 20:39:34","新北市新店區安和路三段1-1號","121.517051666667","24.979505","6500400","永和區"
"234042","862-TW","2018/12/11 20:39:39","新北市永和區中正路568號","121.5171","25.006155","6500400","永和區"
"234050","863-TW","2018/12/11 20:39:33","新北市永和區保安路134號","121.508573333333","25.015445","6500400","永和區"
"249001","173-UM","2018/12/11 20:39:29","新北市八里區下罟子23號","121.376996666667","25.1387533333333","6502300","八里區"
"249004","303-UY","2018/12/11 20:39:24","新北市八里區中山路一段336號","121.412638333333","25.1589716666667","6502300","八里區"
"234023","9380-KE","2018/12/11 20:39:10","新北市永和區竹林路25巷21號","121.518156666667","25.01497","6500400","永和區"
"234074","AAC-211","2018/12/11 20:39:22","新北市永和區竹林路111號","121.519836666667","25.01174","6500400","永和區"
"243011","KEA-2215","2018/12/11 20:39:29","新北市泰山區公園路80號","121.424791666667","25.056335","6501600","泰山區"
"222003","436-BY","2018/12/11 20:39:36","新北市深坑區文山路二段30巷31號","121.615263333333","24.9986183333333","6501800","深坑區"
"222002","659-BX","2018/12/11 20:39:36","新北市深坑區萬福路41號","121.599266666667","25.00684","6501800","深坑區"
"231041","002-UM","2018/12/11 20:39:26","新北市新店區中正路695巷2號","121.533941666667","24.9905416666667","6500600","新店區"
"231059","046-UY","2018/12/11 20:39:30","新北市新店區僑信路111號","121.500555","24.9463066666667","6500600","新店區"
"231040","047-UY","2018/12/11 20:39:41","新北市新店區中正路255號","121.538898333333","24.973535","6500600","新店區"
"231044","106-UY","2018/12/11 20:39:22","新北市新店區建國路276號","121.53723","24.98373","6500600","新店區"
"231053","108-UY","2018/12/11 20:39:38","新北市新店區新烏路二段300號","121.548626666667","24.9129766666667","6500600","新店區"
"231048","187-VK","2018/12/11 20:39:37","新北市新店區寶慶街5號","121.544271666667","24.9866866666667","6500600","新店區"
"231054","KEA-2219","2018/12/11 20:39:42","新北市新店區北新路一段64巷37號","121.542093333333","24.9656583333333","6500600","新店區"
"231057","256-BX","2018/12/11 20:39:26","新北市新店區花園二路一段9-6號","121.556333333333","24.9328683333333","6500600","新店區"
"231042","268-BY","2018/12/11 20:39:27","新北市新店區寶橋路238號","121.551535","24.978955","6500600","新店區"
"231051","278-BY","2018/12/11 20:39:32","新北市新店區溪園路283號","121.525466666667","24.9798466666667","6500600","新店區"
"231050","AAD-862","2018/12/11 20:39:41","新北市新店區中正路265巷10號","121.537741666667","24.973365","6500600","新店區"
"231058","3713-VJ","2018/12/11 20:39:37","新北市新店區平等街1號","121.537085","24.9743166666667","6500600","新店區"
"231066","4716-K9","2018/12/11 20:39:28","新北市新店區安興路112號","121.514658333333","24.97764","6500600","新店區"
"231056","4715-K9","2018/12/11 20:39:34","新北市新店區溪園路395號","121.523688333333","24.9775416666667","6500600","新店區"
"231067","4772-VM","2018/12/11 20:39:28","新北市新店區安華路28-1號","121.519708333333","24.9610283333333","6500600","新店區"
"231065","512-UM","2018/12/11 20:39:40","新北市新店區安祥路102巷32號","121.484171666667","24.96395","6500600","新店區"
"231049","513-UM","2018/12/11 20:39:33","新北市新店區永業路81巷7弄23號","121.530961666667","24.9494683333333","6500600","新店區"
"231063","616-UM","2018/12/11 20:39:36","新北市新店區玫瑰路4-1號","121.493583333333","24.9513933333333","6500600","新店區"
"231061","618-UM","2018/12/11 20:39:34","新北市新店區安和路三段61號","121.517911666667","24.9833833333333","6500600","新店區"
"231068","718-UY","2018/12/11 20:39:39","新北市新店區寶慶街35巷1弄2號","121.543118333333","24.986335","6500600","新店區"
"231064","719-UM","2018/12/11 20:39:32","新北市新店區安和路三段175號","121.515785","24.9861516666667","6500600","新店區"
"231062","720-UM","2018/12/11 20:39:36","新北市新店區安泰路60巷55弄44號","121.484463333333","24.9455383333333","6500600","新店區"
"231060","897-TW","2018/12/11 20:39:24","新北市新店區安康路三段740號","121.473813333333","24.9419633333333","6500600","新店區"
"231045","898-TW","2018/12/11 20:39:28","新北市新店區長春路40號","121.550385","24.95757","6500600","新店區"
"231043","899-TW","2018/12/11 20:39:26","新北市新店區中正路244號","121.539705","24.9732933333333","6500600","新店區"
"241011","013-R5","2018/12/11 20:39:24","新北市三重區龍濱路219巷5號","121.502098333333","25.07204","6500200","三重區"
"241028","022-UY","2018/12/11 20:39:35","新北市三重區光興街91號","121.49738","25.059955","6500200","三重區"
"241008","059-VK","2018/12/11 20:39:21","新北市三重區下竹圍街91號","121.481145","25.074895","6500200","三重區"
"241022","060-VK","2018/12/11 20:39:34","新北市三重區新北大道一段46巷16號","121.487986666667","25.0619666666667","6500200","三重區"
"241031","061-VK","2018/12/11 20:39:26","新北市三重區重陽路一段113巷1弄51號","121.488171666667","25.0584933333333","6500200","三重區"
"241015","062-VK","2018/12/11 20:39:33","新北市三重區文化北路103號","121.497815","25.0684433333333","6500200","三重區"
"241017","063-VK","2018/12/11 20:39:41","新北市三重區大同北路265號","121.490853333333","25.0672133333333","6500200","三重區"
"241024","065-VK","2018/12/11 20:39:36","新北市三重區忠孝路三段99巷4號","121.48004","25.0641666666667","6500200","三重區"
"241002","090-VK","2018/12/11 20:39:35","新北市三重區仁義街167巷10號","121.497453333333","25.0817533333333","6500200","三重區"
"241003","091-VK","2018/12/11 20:39:32","新北市三重區五華街141巷58號","121.493576666667","25.086785","6500200","三重區"
"251014","742-BX","2018/12/11 20:39:41","新北市淡水區公埔子36-1號","121.462416666667","25.2322083333333","6501000","淡水區"
"241005","262-UM","2018/12/11 20:39:43","新北市三重區集賢路87-1號","121.493843333333","25.08696","6500200","三重區"
"241026","265-UM","2018/12/11 20:39:41","新北市三重區文化南路3號","121.500003333333","25.0624133333333","6500200","三重區"
"241016","266-UM","2018/12/11 20:39:35","新北市三重區長壽西街143-1號","121.494471666667","25.0666116666667","6500200","三重區"
"241009","267-UM","2018/12/11 20:39:30","新北市三重區碧華街57號","121.484723333333","25.0812433333333","6500200","三重區"
"241018","268-UM","2018/12/11 20:39:28","新北市三重區自強路一段155-1號","121.493761666667","25.0672333333333","6500200","三重區"
"241013","270-UM","2018/12/11 20:39:41","新北市三重區三和路四段81-1號","121.489333333333","25.07535","6500200","三重區"
"241025","271-UM","2018/12/11 20:39:36","新北市三重區忠孝路三段99巷13號","121.479816666667","25.064675","6500200","三重區"
"241007","398-BY","2018/12/11 20:39:30","新北市三重區三和路四段109號","121.48623","25.0770266666667","6500200","三重區"
"241035","462-BY","2018/12/11 20:39:34","新北市三重區正義北路332號","121.494478333333","25.0707","6500200","三重區"
"241004","475-VK","2018/12/11 20:39:39","新北市三重區仁愛街406巷3號","121.490708333333","25.0811833333333","6500200","三重區"
"241020","478-VK","2018/12/11 20:39:33","新北市三重區忠孝路一段101號","121.489543333333","25.0721533333333","6500200","三重區"
"241030","480-VK","2018/12/11 20:39:21","新北市三重區成功路73巷9號","121.48944","25.0518366666667","6500200","三重區"
"241014","543-UM","2018/12/11 20:39:34","新北市三重區萬壽街7號","121.499361666667","25.0693233333333","6500200","三重區"
"241023","545-UM","2018/12/11 20:39:23","新北市三重區自由街49號","121.47882","25.0666383333333","6500200","三重區"
"241001","547-UM","2018/12/11 20:39:26","新北市三重區自強路三段76巷14號","121.48618","25.0741433333333","6500200","三重區"
"241019","KEA-2593","2018/12/11 20:39:26","新北市三重區三張街18號","121.49193","25.0712716666667","6500200","三重區"
"241006","AAD-863","2018/12/11 20:39:40","新北市三重區車路頭街139巷12號","121.484225","25.07625","6500200","三重區"
"241012","941-UM","2018/12/11 20:39:25","新北市三重區龍濱路277號","121.501321666667","25.0731583333333","6500200","三重區"
"247012","KEA-2869","2018/12/11 20:39:38","新北市蘆洲區集賢路224巷41號","121.480483333333","25.0883733333333","6501400","蘆洲區"
"247006","KED-0682","2018/12/11 20:39:41","新北市蘆洲區和平路149號","121.466951666667","25.0805916666667","6501400","蘆洲區"
"235026","800-TS","2018/12/11 20:12:10","新北市中和區員山路36巷16-3號","121.484626666667","24.9914783333333","6500300","中和區"
"247002","893-R6","2018/12/11 20:39:24","新北市蘆洲區永樂街2號","121.459295","25.0882633333333","6501400","蘆洲區"
"247016","546-UM","2018/12/11 20:39:34","新北市蘆洲區中山二路261號","121.469885","25.0797183333333","6501400","蘆洲區"
"247024","500-BY","2018/12/11 20:39:40","新北市蘆洲區長樂路70號","121.462685","25.086905","6501400","蘆洲區"
"247020","057-VK","2018/12/11 20:39:29","新北市蘆洲區民族路331號","121.473788333333","25.0917733333333","6501400","蘆洲區"
"247014","053-VK","2018/12/11 20:39:25","新北市蘆洲區中山一路261號","121.472843333333","25.0801516666667","6501400","蘆洲區"
"247004","002-UY","2018/12/11 20:39:21","新北市蘆洲區長安街297號","121.458076666667","25.0848766666667","6501400","蘆洲區"
"247022","001-UY","2018/12/11 20:39:38","新北市蘆洲區中正路243巷13號","121.466998333333","25.0862216666667","6501400","蘆洲區"
"222001","KEA-2212","2018/12/11 20:39:28","新北市深坑區北深路三段234號","121.600675","25.00415","6501800","深坑區"
"208003","665-BX","2018/12/11 20:39:32","新北市金山區磺清路121號","121.63982","25.2282566666667","6502700","金山區"
"251013","KEA-2871","2018/12/11 20:39:31","新北市淡水區下圭柔山28巷27號","121.458195","25.20381","6501000","淡水區"
"251016","179-VK","2018/12/11 20:39:35","新北市淡水區後洲子8-2號","121.44961","25.2240383333333","6501000","淡水區"
"251015","180-VK","2018/12/11 20:39:25","新北市淡水區淡金路四段542巷17號","121.45273","25.2270833333333","6501000","淡水區"
"251012","441-VK","2018/12/11 20:39:34","新北市淡水區興仁路107號","121.451558333333","25.2181516666667","6501000","淡水區"
"251001","559-UM","2018/12/11 20:39:24","新北市淡水區淡金路218號","121.460516666667","25.1672016666667","6501000","淡水區"
"251006","561-UM","2018/12/11 20:39:33","新北市淡水區商工路186巷1號","121.450425","25.188315","6501000","淡水區"
"251009","575-R6","2018/12/11 20:39:38","新北市淡水區民權路187巷17號","121.460275","25.13327","6501000","淡水區"
"251007","577-R6","2018/12/11 20:39:25","新北市淡水區忠愛街2-5號","121.456643333333","25.171865","6501000","淡水區"
"251002","672-BX","2018/12/11 20:39:30","新北市淡水區中正路38-1號","121.443735","25.1692716666667","6501000","淡水區"
"251003","673-BX","2018/12/11 20:39:32","新北市淡水區新民街152巷6弄22號","121.438788333333","25.178485","6501000","淡水區"
"251010","766-UM","2018/12/11 20:39:28","新北市淡水區沙崙路181巷15號","121.423833333333","25.1844383333333","6501000","淡水區"
"252002","178-VK","2018/12/11 20:39:44","新北市三芝區淡金路二段91號","121.504056666667","25.260925","6502100","三芝區"
"252001","292-VK","2018/12/11 20:39:31","新北市三芝區育英街29-1號","121.501266666667","25.2574116666667","6502100","三芝區"
"247008","KED-0683","2018/12/11 20:39:36","新北市蘆洲區重陽街14號","121.480693333333","25.0814266666667","6501400","蘆洲區"
"242058","986-R7","2018/12/11 20:39:34","新北市新莊區四維路103號","121.423228333333","25.0234883333333","6500500","新莊區"
"242027","615-BX","2018/12/11 20:39:29","新北市新莊區思源路56號","121.460148333333","25.0441483333333","6500500","新莊區"
"242025","613-BX","2018/12/11 20:39:37","新北市新莊區化成路579巷1號","121.464286666667","25.066015","6500500","新莊區"
"242029","612-BX","2018/12/11 20:39:27","新北市新莊區中港路296號","121.452885","25.0447683333333","6500500","新莊區"
"242044","566-BX","2018/12/11 20:39:37","新北市新莊區龍安路92號","121.417666666667","25.0207516666667","6500500","新莊區"
"242048","497-BY","2018/12/11 20:39:37","新北市新莊區中正路591號","121.433206666667","25.0321816666667","6500500","新莊區"
"242054","442-UM","2018/12/11 20:39:31","新北市新莊區民安西路189巷10弄24號","121.42643","25.0150283333333","6500500","新莊區"
"242002","440-UM","2018/12/11 20:39:35","新北市新莊區中港路五守新村37巷1號","121.454576666667","25.0388","6500500","新莊區"
"242039","415-TV","2018/12/11 20:39:26","新北市新莊區民安路436號","121.43434","25.022525","6500500","新莊區"
"242009","413-TV","2018/12/11 20:39:38","新北市新莊區幸福路564巷2弄2號","121.454446666667","25.0495566666667","6500500","新莊區"
"242046","400-BY","2018/12/11 20:39:23","新北市新莊區龍安路80號","121.417551666667","25.0209033333333","6500500","新莊區"
"242023","362-BY","2018/12/11 20:39:21","新北市新莊區復興路三段46號","121.461576666667","25.0444483333333","6500500","新莊區"
"242061","353-BY","2018/12/11 20:39:22","新北市新莊區新樹路258巷3號","121.43211","25.0155633333333","6500500","新莊區"
"242011","132-UY","2018/12/11 20:39:36","新北市新莊區中信街99巷8號","121.447193333333","25.053495","6500500","新莊區"
"242034","135-UY","2018/12/11 20:39:27","新北市新莊區華興街10號","121.446303333333","25.0352333333333","6500500","新莊區"
"242051","172-VK","2018/12/11 20:39:35","新北市新莊區民安西路45號","121.42755","25.02073","6500500","新莊區"
"242013","173-VK","2018/12/11 20:39:27","新北市新莊區中和街191巷3-1號","121.447913333333","25.0510516666667","6500500","新莊區"
"242056","346-TH","2018/12/11 20:39:29","新北市新莊區瓊泰路75號","121.443235","25.0289316666667","6500500","新莊區"
"242032","348-TH","2018/12/11 20:39:23","新北市新莊區中正路535-11號","121.437511666667","25.03297","6500500","新莊區"
"242005","349-TH","2018/12/11 20:39:24","新北市三重區光復路二段175號","121.472171666667","25.06153","6500500","新莊區"
"242021","350-TH","2018/12/11 20:39:37","新北市新莊區公園路40號","121.448855","25.03929","6500500","新莊區"
"242015","351-TH","2018/12/11 20:39:24","新北市新莊區中和街5號","121.44835","25.0430566666667","6500500","新莊區"
"221008","489-VK","2018/12/11 20:39:35","新北市汐止區康寧街861巷5號","121.645311666667","25.076145","6501100","汐止區"
"221036","130-UY","2018/12/11 20:39:39","新北市汐止區忠孝東路276號","121.663635","25.06811","6501100","汐止區"
"221015","131-UY","2018/12/11 20:39:36","新北市汐止區建成路26號","121.664448333333","25.07265","6501100","汐止區"
"221023","279-VK","2018/12/11 20:39:39","新北市汐止區民族二街30巷16號","121.63427","25.0717516666667","6501100","汐止區"
"221032","280-BY","2018/12/11 20:39:35","新北市汐止區民權街二段28號","121.619508333333","25.050115","6501100","汐止區"
"221027","281-BY","2018/12/11 20:39:31","新北市汐止區大同路二段563-1號","121.662835","25.06993","6501100","汐止區"
"221029","298-VK","2018/12/11 20:39:41","新北市汐止區大同路一段513號","121.645516666667","25.0622866666667","6501100","汐止區"
"221021","299-VK","2018/12/11 20:39:40","新北市汐止區水源路一段284號","121.654183333333","25.058265","6501100","汐止區"
"221035","622-UM","2018/12/11 20:39:26","新北市汐止區長江街101-5號","121.658726666667","25.073175","6501100","汐止區"
"221025","623-UM","2018/12/11 20:39:38","新北市汐止區水源路二段216號","121.658016666667","25.0524466666667","6501100","汐止區"
"221038","646-BX","2018/12/11 20:39:39","新北市汐止區汐萬路一段115巷2號","121.654356666667","25.0707666666667","6501100","汐止區"
"221033","647-BX","2018/12/11 20:39:33","新北市汐止區合順街18巷8弄5號","121.620346666667","25.041925","6501100","汐止區"
"221002","707-TV","2018/12/11 20:39:29","新北市汐止區福德二路167號","121.630918333333","25.0651633333333","6501100","汐止區"
"221018","753-BX","2018/12/11 20:39:32","新北市汐止區茄苳路109號","121.667795","25.0713333333333","6501100","汐止區"
"220094","285-UM","2018/12/11 20:39:39","新北市林口區太平里180號","121.366615","25.13396","6500100","板橋區"
"220083","286-VK","2018/12/11 20:39:33","新北市板橋區龍興街73巷2號","121.443986666667","25.0022383333333","6500100","板橋區"
"242042","281-VK","2018/12/11 20:39:28","新北市新莊區天祥街15巷13號","121.416491666667","25.027595","6500500","新莊區"
"242019","280-VK","2018/12/11 20:39:26","新北市新莊區中正路145-18號","121.458323333333","25.037515","6500500","新莊區"
"220064","AAC-253","2018/12/11 20:39:27","新北市八里區中山路三段382號","121.368616666667","25.1358933333333","6500100","板橋區"
