"lineid","car","time","location","longitude","latitude","cityid","cityname"
"248005","653-BX","2018/10/25 07:09:08","新北市五股區新五路二段57-1號","121.436295","25.07193","6501500","五股區"
"232001","290-BY","2018/10/25 07:09:07","新北市坪林區桶盤嶼9號","121.70822","24.9580416666667","6502000","坪林區"
"232014","291-BY","2018/10/25 07:09:11","新北市坪林區金瓜寮4-1號","121.680786666667","24.9176383333333","6502000","坪林區"
"232010","375-UM","2018/10/25 07:08:59","新北市坪林區水聳淒坑16-1號","121.72267","24.9288266666667","6502000","坪林區"
"232018","705-BZ","2018/10/25 07:09:10","新北市坪林區九芎坑5號","121.732688333333","24.9613783333333","6502000","坪林區"
"232007","758-BX","2018/10/25 07:09:00","新北市坪林區魚堀56-3號","121.70056","24.92347","6502000","坪林區"
"244003","248-BX","2018/10/25 07:08:53","新北市林口區頭湖82號","121.370985","25.0832883333333","6501700","林口區"
"222006","289-BY","2018/10/25 07:08:57","新北市深坑區平埔街22巷19號","121.61469","25.00103","6501800","深坑區"
"235001","611-BX","2018/10/25 07:08:55","新北市中和區圓通路367巷6號","121.491438333333","24.9892433333333","6500300","中和區"
"226005","5620-A6","2018/10/25 07:09:02","新北市平溪區石底里石筍尖21號","121.729795","25.0255816666667","6502400","平溪區"
"226007","7418-A5","2018/10/25 07:09:04","新北市平溪區石底里石筍尖3號","121.736478333333","25.0257566666667","6502400","平溪區"
"226003","8452-VL","2018/10/25 07:09:03","新北市平溪區石底里公園街18-3號","121.733448333333","25.0256666666667","6502400","平溪區"
"223006","022-BY","2018/10/25 07:09:15","新北市石碇區八分寮56-1號","121.645105","25.0176966666667","6501900","石碇區"
"223002","KEA-2673","2018/10/25 07:09:12","新北市石碇區半路店1-1號","121.648415","24.9695916666667","6501900","石碇區"
"223003","205-TH","2018/10/25 07:09:13","新北市石碇區烏塗窟16-1號","121.656536666667","24.975005","6501900","石碇區"
"223008","406-TH","2018/10/25 07:09:06","新北市石碇區番子坑22-5號","121.677035","25.0001533333333","6501900","石碇區"
"223004","437-BY","2018/10/25 07:09:00","新北市石碇區石崁1號","121.651816666667","25.0014566666667","6501900","石碇區"
"223001","592-UM","2018/10/25 07:09:10","新北市石碇區烏塗窟14-1號","121.656248333333","24.9755183333333","6501900","石碇區"
"223007","661-BX","2018/10/25 07:08:56","新北市石碇區番子坑14-3號","121.679265","25.000545","6501900","石碇區"
"223005","677-TV","2018/10/25 07:08:59","新北市石碇區石崁2-3號","121.652351666667","24.9996616666667","6501900","石碇區"
"227007","282-VK","2018/10/25 07:09:00","新北市雙溪區新基里自強路5號","121.866328333333","25.0390566666667","6502500","雙溪區"
"252004","249-BX","2018/10/25 07:09:13","新北市三芝區錫板里小坑子9-1號","121.50268","25.2396233333333","6502100","三芝區"
"252007","AAC-283","2018/10/25 07:09:10","新北市三芝區古庄里山豬堀2號","121.50064","25.2491683333333","6502100","三芝區"
"242001","233-RS","2018/10/25 07:09:03","新北市新莊區中港路301號","121.4529","25.0444966666667","6500500","新莊區"
