"lineid","car","time","location","longitude","latitude","cityid","cityname"
"244004","248-BX","2018/12/07 08:08:17","新北市林口區嘉寶里89-5號","121.331903333333","25.1221766666667","6501700","林口區"
"222005","289-BY","2018/12/07 08:08:32","新北市深坑區北深路二段179-1號","121.612463333333","25.0012166666667","6501800","深坑區"
"231007","189-VK","2018/12/07 08:08:30","新北市新店區華潭街1巷49號","121.526481666667","24.94687","6500600","新店區"
"231009","192-VK","2018/12/07 08:08:23","新北市新店區北宜路一段109巷18-1號","121.540865","24.95499","6500600","新店區"
"235001","611-BX","2018/12/07 08:08:22","新北市中和區圓通路367巷33弄131號","121.496815","24.9845783333333","6500300","中和區"
"226005","5620-A6","2018/12/07 08:08:33","新北市平溪區南山里南山坪5號","121.761683333333","25.032785","6502400","平溪區"
"226001","7418-A5","2018/12/07 08:08:35","新北市平溪區十分里姜仔坑2號","121.766656666667","25.0353216666667","6502400","平溪區"
"226006","AGD-0702","2018/12/07 08:08:30","新北市平溪區十分里十分街59號","121.77545","25.0417033333333","6502400","平溪區"
"223006","022-BY","2018/12/07 08:02:49","新北市坪林區北宜路八段558號","121.717016666667","24.9093833333333","6501900","石碇區"
"223002","KEA-2673","2018/12/07 08:08:33","新北市石碇區橫坪9號","121.662491666667","24.9703833333333","6501900","石碇區"
"223003","205-TH","2018/12/07 08:08:29","新北市石碇區北宜路五段崙尾寮巷2-1號","121.64878","24.953265","6501900","石碇區"
"223004","437-BY","2018/12/07 08:08:24","新北市石碇區外按12號","121.650611666667","24.9975216666667","6501900","石碇區"
"223001","592-UM","2018/12/07 08:08:19","新北市石碇區北宜路五段崙尾寮巷2-1號","121.649118333333","24.9529616666667","6501900","石碇區"
"223007","661-BX","2018/12/07 08:08:29","新北市石碇區靜安路一段245號","121.6881","25.0087116666667","6501900","石碇區"
"223005","677-TV","2018/12/07 08:08:26","新北市石碇區外按12號","121.650606666667","24.9974833333333","6501900","石碇區"
"227005","282-VK","2018/12/07 08:08:26","新北市雙溪區上林里內平林82-1號","121.828701666667","25.0280566666667","6502500","雙溪區"
"252005","073-UM","2018/12/07 08:08:17","新北市三芝區中正路三段3號","121.503071666667","25.2543216666667","6502100","三芝區"
"237001","159-UY","2018/12/07 08:08:30","新北市三峽區大學路68號","121.376175","24.94167","6500900","三峽區"
