"lineid","car","time","location","longitude","latitude","cityid","cityname"
"222005","289-BY","2018/12/07 09:38:32","新北市深坑區北深路一段1號","121.640713333333","25.0113083333333","6501800","深坑區"
"231007","189-VK","2018/12/07 09:38:30","新北市新店區新潭路三段215巷25號","121.507958333333","24.9040083333333","6500600","新店區"
"231009","192-VK","2018/12/07 09:38:23","新北市新店區平廣路一段75號","121.531465","24.8994733333333","6500600","新店區"
"223002","KEA-2673","2018/12/07 09:38:18","新北市石碇區小粗坑(潭邊里)9-2號","121.678856666667","24.9861066666667","6501900","石碇區"
"223008","406-TH","2018/12/07 09:38:30","新北市石碇區小粗坑(潭邊里)9-2號","121.67881","24.9862933333333","6501900","石碇區"
"227005","282-VK","2018/12/07 09:38:26","新北市雙溪區泰平里溪尾寮1-1號","121.819561666667","24.967235","6502500","雙溪區"
"237001","159-UY","2018/12/07 09:38:30","新北市三峽區中山路286號","121.361115","24.937915","6500900","三峽區"
