"lineid","car","time","location","longitude","latitude","cityid","cityname"
"234044","148-BY","2018/12/07 13:48:32","新北市永和區永利路125號","121.524073333333","25.0028683333333","6500400","永和區"
"234005","207-UY","2018/12/07 13:48:28","新北市永和區永和路一段4號","121.512811666667","25.0045133333333","6500400","永和區"
"234036","336-UY","2018/12/07 13:48:19","新北市永和區成功路二段129巷10-1號","121.527248333333","24.998205","6500400","永和區"
"234062","337-UY","2018/12/07 13:48:30","新北市永和區中正路289號","121.51757","25.001375","6500400","永和區"
"234068","552-UM","2018/12/07 13:48:37","新北市永和區竹林路88號","121.519401666667","25.0124783333333","6500400","永和區"
"234078","553-UM","2018/12/07 13:48:28","新北市永和區永亨路100號","121.52308","25.0049183333333","6500400","永和區"
"234015","745-BX","2018/12/07 13:48:32","新北市永和區文化路5號","121.515525","25.014885","6500400","永和區"
"234028","746-BX","2018/12/07 13:48:36","新北市永和區民生路45號","121.522876666667","24.9978833333333","6500400","永和區"
"234052","KEA-2590","2018/12/07 13:48:39","新北市永和區竹林路39巷28弄11號","121.519641666667","25.0144633333333","6500400","永和區"
"234012","KEA-2591","2018/12/07 13:48:28","新北市永和區保生路55號","121.50465","25.0102766666667","6500400","永和區"
"234060","AAD-866","2018/12/07 13:48:23","新北市永和區中正路87號","121.515345","24.9971483333333","6500400","永和區"
"234084","748-BX","2018/12/07 13:48:31","新北市永和區中正路612號","121.517058333333","25.0073933333333","6500400","永和區"
"234040","862-TW","2018/12/07 13:48:29","新北市永和區中和路373號","121.508243333333","24.9997833333333","6500400","永和區"
"234048","863-TW","2018/12/07 13:23:13","新北市永和區保福路二段78號","121.510511666667","25.01328","6500400","永和區"
"234025","9371-KE","2018/12/07 13:48:26","新北市永和區自由街58號","121.51382","25.0059033333333","6500400","永和區"
"234010","9373-KE","2018/12/07 13:48:32","新北市永和區保順路11號","121.504738333333","25.0095733333333","6500400","永和區"
"248019","225-UY","2018/12/07 13:48:25","新北市五股區凌雲路三段94號","121.427815","25.121165","6501500","五股區"
"234022","9380-KE","2018/12/07 13:48:40","新北市永和區中正路659號","121.514726666667","25.0101733333333","6500400","永和區"
"234076","969-R7","2018/12/07 13:48:38","新北市永和區民族街35-1號","121.518801666667","24.9990883333333","6500400","永和區"
"234072","AAC-211","2018/12/07 13:48:38","新北市永和區豫溪街215巷18號","121.523963333333","25.0098716666667","6500400","永和區"
"234066","AAC-212","2018/12/07 13:48:28","新北市永和區保平路236巷24弄1號","121.50806","25.00691","6500400","永和區"
"234001","AAC-295","2018/12/07 13:48:31","新北市永和區永和路一段85號","121.513355","25.007265","6500400","永和區"
"244004","248-BX","2018/12/07 13:48:24","新北市林口區忠孝路5號","121.364425","25.0756566666667","6501700","林口區"
"231002","002-UM","2018/12/07 13:48:26","新北市新店區溪園路247號","121.525331666667","24.9832433333333","6500600","新店區"
"231027","0293-UT","2018/12/07 13:48:30","新北市新店區北宜路一段170號","121.540568333333","24.9529816666667","6500600","新店區"
"231028","046-UY","2018/12/07 13:48:28","新北市新店區安和路二段155號","121.519026666667","24.974255","6500600","新店區"
"231001","047-UY","2018/12/07 13:48:34","新北市新店區三民路159巷2號","121.534111666667","24.9740816666667","6500600","新店區"
"231005","106-UY","2018/12/07 13:48:26","新北市新店區寶中路121-1號","121.549683333333","24.9794233333333","6500600","新店區"
"231010","107-UY","2018/12/07 13:48:28","新北市新店區三民路60巷5號","121.5354","24.9725216666667","6500600","新店區"
"231022","108-UY","2018/12/07 13:48:39","新北市新店區永興路88-1號","121.544091666667","24.9336266666667","6500600","新店區"
"231012","187-VK","2018/12/07 13:48:38","新北市新店區德正街27巷29弄88號","121.545725","24.9735733333333","6500600","新店區"
"231023","KEA-2219","2018/12/07 13:48:30","新北市新店區國校路59號","121.538281666667","24.9542266666667","6500600","新店區"
"231026","256-BX","2018/12/07 13:48:40","新北市新店區三民路159巷19弄46號","121.532178333333","24.9731966666667","6500600","新店區"
"231003","268-BY","2018/12/07 13:48:40","新北市新店區中興路一段203號","121.543666666667","24.965685","6500600","新店區"
"231018","278-BY","2018/12/07 13:48:29","新北市新店區中正路382巷36號","121.535668333333","24.978295","6500600","新店區"
"231016","AAD-862","2018/12/07 13:48:26","新北市新店區北宜路二段295號","121.55614","24.954085","6500600","新店區"
"231029","355-BY","2018/12/07 13:48:41","新北市新店區安康路二段156號","121.512308333333","24.9608733333333","6500600","新店區"
"231038","3712-VJ","2018/12/07 13:48:34","新北市新店區安華路30巷1號","121.51952","24.9592533333333","6500600","新店區"
"231037","4716-K9","2018/12/07 13:48:29","新北市新店區安康路三段363號","121.484063333333","24.9507266666667","6500600","新店區"
"231025","4715-K9","2018/12/07 13:48:27","新北市新店區中正路374號","121.535","24.9764066666667","6500600","新店區"
"231036","512-UM","2018/12/07 13:48:38","新北市新店區安祥路147巷9號","121.47536","24.9559233333333","6500600","新店區"
"231013","513-UM","2018/12/07 13:48:29","新北市新店區二十張路25巷18弄2號","121.53922","24.9818","6500600","新店區"
"231034","616-UM","2018/12/07 13:48:30","新北市新店區車子路10-4號","121.504646666667","24.9544016666667","6500600","新店區"
"231006","617-UM","2018/12/07 13:48:42","新北市新店區北宜路一段222號","121.544143333333","24.95316","6500600","新店區"
"231030","619-UM","2018/12/07 13:48:37","新北市新店區安康路一段50-1號","121.529783333333","24.9613066666667","6500600","新店區"
"231035","719-UM","2018/12/07 13:48:30","新北市新店區安忠路205巷8號","121.509403333333","24.9545616666667","6500600","新店區"
"231032","720-UM","2018/12/07 13:48:21","新北市新店區莒光路44巷21弄12-1號","121.520955","24.9555766666667","6500600","新店區"
"231004","899-TW","2018/12/07 13:48:20","新北市新店區寶橋路98號","121.547156666667","24.9759366666667","6500600","新店區"
"231024","AKT-0513","2018/12/07 13:48:35","新北市新店區新生街13巷7號","121.53971","24.9660633333333","6500600","新店區"
"235030","003-UY","2018/12/07 13:48:24","新北市中和區水源路18巷5號","121.504026666667","25.00311","6500300","中和區"
"235028","005-UY","2018/12/07 13:48:32","新北市中和區泰和街38號","121.49925","25.0000033333333","6500300","中和區"
"235027","006-UY","2018/12/07 13:48:29","新北市中和區連城路319巷11弄8號","121.489501666667","24.994995","6500300","中和區"
"235020","096-UM","2018/12/07 13:48:26","新北市中和區中正路1196號","121.480445","25.010505","6500300","中和區"
"235003","097-UM","2018/12/07 13:48:39","新北市中和區大仁街20巷51號","121.519568333333","24.9933283333333","6500300","中和區"
"235022","151-BY","2018/12/07 13:48:41","新北市中和區連城路607號","121.477855","24.992815","6500300","中和區"
"235019","183-VK","2018/12/07 13:48:29","新北市中和區民生街85巷4弄2號","121.46902","25.0043983333333","6500300","中和區"
"235002","185-VK","2018/12/07 13:48:23","新北市中和區大勇街41號","121.517596666667","24.9945533333333","6500300","中和區"
"235013","186-VK","2018/12/07 13:48:33","新北市中和區景安路177巷17號","121.506023333333","24.9944516666667","6500300","中和區"
"235031","255-BX","2018/12/07 13:48:39","新北市中和區連城路340巷14弄2號","121.483331666667","24.9972866666667","6500300","中和區"
"235008","293-VK","2018/12/07 13:48:33","新北市中和區中興街169號","121.49982","24.9904383333333","6500300","中和區"
"235036","301-VK","2018/12/07 13:48:22","新北市中和區中山路二段119號","121.502836666667","25.00362","6500300","中和區"
"235007","352-BY","2018/12/07 13:48:37","新北市中和區成功路50號","121.52602","24.99265","6500300","中和區"
"235006","KEA-2878","2018/12/07 13:48:38","新北市中和區秀朗路三段102號","121.525505","24.9930833333333","6500300","中和區"
"235014","4979-A6","2018/12/07 13:48:27","新北市中和區忠孝街62巷9弄12號","121.513116666667","24.983995","6500300","中和區"
"235005","551-UM","2018/12/07 13:48:39","新北市中和區中和路456號","121.512128333333","25.00381","6500300","中和區"
"235034","558-UM","2018/12/07 13:48:30","新北市中和區中和路130號","121.503705","24.9997316666667","6500300","中和區"
"235009","565-BX","2018/12/07 13:48:30","新北市中和區興南路一段63-6號","121.510311666667","24.9895033333333","6500300","中和區"
"235018","640-BX","2018/12/07 13:48:34","新北市中和區民享街33-2號","121.474116666667","25.003915","6500300","中和區"
"235024","647-TV","2018/12/07 13:48:42","新北市中和區中山路三段201號","121.472265","25.0064116666667","6500300","中和區"
"235011","732-UM","2018/12/07 13:48:25","新北市中和區興南路二段34巷56弄2號","121.504861666667","24.9853933333333","6500300","中和區"
"235010","733-UM","2018/12/07 13:48:31","新北市中和區仁愛街36巷44號","121.511363333333","24.9863333333333","6500300","中和區"
"235035","783-BX","2018/12/07 13:48:24","新北市中和區立德街9號","121.490281666667","25.0061483333333","6500300","中和區"
"235026","800-TS","2018/12/07 13:48:21","新北市中和區中山路二段340巷21-1號","121.493558333333","25.00323","6500300","中和區"
"235021","801-TS","2018/12/07 13:48:25","新北市中和區民利街12號","121.480641666667","24.99926","6500300","中和區"
"235016","805-TS","2018/12/07 13:48:29","新北市中和區興南路二段399巷58號","121.499501666667","24.978925","6500300","中和區"
"235012","896-TW","2018/12/07 13:48:32","新北市中和區南山路226號","121.506423333333","24.9902233333333","6500300","中和區"
"235017","900-TW","2018/12/07 13:48:32","新北市中和區華福街40號","121.466381666667","24.996565","6500300","中和區"
"235029","911-UM","2018/12/07 13:48:36","新北市中和區中山路二段2巷45弄12號","121.501968333333","25.0066966666667","6500300","中和區"
"235015","157-BY","2018/12/07 13:48:14","新北市中和區忠孝街70號","121.511955","24.98407","6500300","中和區"
"235001","AAC-213","2018/12/07 13:48:21","新北市中和區秀朗路三段175巷10號","121.525083333333","24.99137","6500300","中和區"
"235023","AAC-215","2018/12/07 13:48:24","新北市中和區圓通路385號","121.490281666667","24.989215","6500300","中和區"
"220013","072-UY","2018/12/07 13:48:30","新北市板橋區民族路166號","121.464903333333","25.00855","6500100","板橋區"
"220034","073-UY","2018/12/07 13:48:33","新北市板橋區大智街23號","121.455166666667","25.014885","6500100","板橋區"
"220105","075-UY","2018/12/07 13:48:32","新北市板橋區莒光路59號","121.470926666667","25.024335","6500100","板橋區"
"220017","AAD-861","2018/12/07 13:48:34","新北市板橋區縣民大道一段114號","121.457241666667","25.0059683333333","6500100","板橋區"
"220016","120-SR","2018/12/07 13:33:37","新北市板橋區海山路19號","121.468693333333","25.0091833333333","6500100","板橋區"
"247003","336-TH","2018/12/07 13:48:29","新北市蘆洲區長安街108巷5弄18號","121.46079","25.0823733333333","6501400","蘆洲區"
"247009","056-VK","2018/12/07 13:48:02","新北市五股區凌雲路一段25號","121.452266666667","25.1001916666667","6501400","蘆洲區"
"247021","001-UY","2018/12/07 13:48:42","新北市蘆洲區三民路550號","121.461841666667","25.0935733333333","6501400","蘆洲區"
"207002","749-BX","2018/12/07 13:48:32","新北市萬里區崁腳里崁腳路166號","121.6451","25.1558483333333","6502800","萬里區"
"207001","662-BX","2018/12/07 13:48:39","新北市金山區月眉21-1號","121.636476666667","25.2149316666667","6502800","萬里區"
"236067","105-UM","2018/12/07 13:48:24","新北市土城區城林路6巷80號","121.438638333333","24.9797016666667","6501300","土城區"
"236040","KED-0685","2018/12/07 13:48:36","新北市土城區城林路6巷80號","121.438506666667","24.97963","6501300","土城區"
"236077","166-UM","2018/12/07 13:48:40","新北市土城區中華路二段62號","121.439016666667","24.97686","6501300","土城區"
"236029","253-BX","2018/12/07 13:48:34","新北市土城區城林路6巷80號","121.43846","24.9798033333333","6501300","土城區"
"236013","270-VK","2018/12/07 13:48:30","新北市土城區城林路6巷80號","121.438428333333","24.9797816666667","6501300","土城區"
"236032","271-VK","2018/12/07 13:48:26","新北市土城區城林路6巷80號","121.438495","24.9797583333333","6501300","土城區"
"247007","KED-0683","2018/12/07 13:48:37","新北市三重區三和路四段420號","121.48062","25.0800866666667","6501400","蘆洲區"
"236057","912-UM","2018/12/07 13:48:24","新北市土城區中華路二段82-1號","121.438736666667","24.9759233333333","6501300","土城區"
"236045","913-UM","2018/12/07 13:43:03","新北市土城區城林路6巷80號","121.438483333333","24.9796783333333","6501300","土城區"
"236060","915-UM","2018/12/07 13:48:36","新北市土城區城林路6巷80號","121.43853","24.979675","6501300","土城區"
"236054","AAC-216","2018/12/07 13:48:30","新北市土城區城林路6巷80號","121.438361666667","24.9798183333333","6501300","土城區"
"221010","269-BY","2018/12/07 13:48:38","新北市汐止區長青路210巷188號","121.616266666667","25.1133016666667","6501100","汐止區"
"221033","647-BX","2018/12/07 13:48:22","新北市新店區薏仁坑路自強巷1號","121.497146666667","24.95829","6501100","汐止區"
"220027","145-BY","2018/12/07 13:48:26","新北市板橋區大智街71巷7弄4號","121.453136666667","25.0144216666667","6500100","板橋區"
"220028","200-UY","2018/12/07 13:48:38","新北市板橋區大觀路二段265巷60弄26號","121.441525","24.9979083333333","6500100","板橋區"
"220030","610-BX","2018/12/07 13:48:28","新北市板橋區篤行路三段69號","121.427465","24.9856766666667","6500100","板橋區"
"220050","245-BX","2018/12/07 13:48:24","新北市板橋區文化路二段164號","121.470615","25.0270033333333","6500100","板橋區"
"220004","276-BY","2018/12/07 13:48:33","新北市板橋區四川路一段265號","121.45964","25.0021733333333","6500100","板橋區"
"220020","277-BY","2018/12/07 13:48:25","新北市板橋區金門街31巷2號","121.433383333333","24.99391","6500100","板橋區"
"220019","283-VK","2018/12/07 13:48:40","新北市板橋區四川路一段8號","121.459425","25.0068133333333","6500100","板橋區"
"220043","285-UM","2018/12/07 13:48:22","新北市板橋區民生路三段12號","121.46789","25.0245366666667","6500100","板橋區"
"220001","285-VK","2018/12/07 13:48:38","新北市板橋區永豐街75巷9號","121.473216666667","25.01877","6500100","板橋區"
"220031","286-VK","2018/12/07 13:48:35","新北市板橋區僑中三街39號","121.445116666667","25.0046266666667","6500100","板橋區"
"220029","287-VK","2018/12/07 13:48:37","新北市板橋區光華街13巷6號","121.453928333333","25.011525","6500100","板橋區"
"220039","288-VK","2018/12/07 13:48:37","新北市板橋區四維路128巷3號","121.465503333333","25.0252466666667","6500100","板橋區"
"220009","293-UM","2018/12/07 13:48:24","新北市板橋區太和街6巷1號","121.473661666667","25.0200916666667","6500100","板橋區"
"220032","296-UM","2018/12/07 13:48:27","新北市板橋區大觀路二段150巷57-1號","121.441565","25.0001866666667","6500100","板橋區"
"220041","299-UM","2018/12/07 13:48:33","新北市板橋區文化路一段104巷1弄20號","121.465458333333","25.0179433333333","6500100","板橋區"
"220023","303-R5","2018/12/07 13:48:25","新北市板橋區南雅東路79-1號","121.453313333333","25.0079333333333","6500100","板橋區"
"220010","305-R5","2018/12/07 13:48:29","新北市板橋區中山路二段25號","121.472505","25.0153166666667","6500100","板橋區"
"220047","317-R6","2018/12/07 13:48:41","新北市板橋區民生路二段240巷58號","121.469833333333","25.022885","6500100","板橋區"
"220038","487-VK","2018/12/07 13:48:31","新北市板橋區文化路二段231號","121.471091666667","25.0284816666667","6500100","板橋區"
"220037","491-VK","2018/12/07 13:48:28","新北市板橋區文化路一段360號","121.468328333333","25.0236733333333","6500100","板橋區"
"220104","560-BX","2018/12/07 13:48:25","新北市板橋區中正路325巷30-2號","121.452973333333","25.01873","6500100","板橋區"
"220052","561-BX","2018/12/07 13:48:38","新北市板橋區文化路一段188巷9弄39號","121.4694","25.0191666666667","6500100","板橋區"
"220011","609-BX","2018/12/07 13:48:30","新北市板橋區民享街3號","121.474918333333","25.0142666666667","6500100","板橋區"
"220040","637-BX","2018/12/07 13:48:24","新北市板橋區雙十路二段47巷27號","121.475278333333","25.025565","6500100","板橋區"
"220005","686-BX","2018/12/07 13:48:19","新北市板橋區南雅南路二段4巷2號","121.454496666667","25.0038183333333","6500100","板橋區"
"220025","687-BX","2018/12/07 13:48:41","新北市板橋區金門街18-1號","121.43337","24.9942316666667","6500100","板橋區"
"220042","689-BX","2018/12/07 13:48:40","新北市板橋區民生路三段50號","121.467338333333","25.0251016666667","6500100","板橋區"
"220002","741-BX","2018/12/07 13:48:27","新北市板橋區館前東路26-4號","121.460373333333","25.00712","6500100","板橋區"
"220051","KEA-2699","2018/12/07 13:48:24","新北市板橋區懷德街235巷2-1號","121.481415","25.0280266666667","6500100","板橋區"
"220003","827-TW","2018/12/07 13:48:32","新北市板橋區忠孝路102號","121.461958333333","25.0020566666667","6500100","板橋區"
"220016","830-TW","2018/12/07 13:48:30","新北市板橋區三民路一段131號","121.479338333333","25.020495","6500100","板橋區"
"220014","831-TW","2018/12/07 13:48:32","新北市板橋區中山路二段37號","121.47315","25.0157166666667","6500100","板橋區"
"220022","895-R6","2018/12/07 13:48:28","新北市板橋區府中路75號","121.457608333333","25.0093466666667","6500100","板橋區"
"220021","985-R7","2018/12/07 13:48:37","新北市板橋區館前西路92號","121.457351666667","25.0071983333333","6500100","板橋區"
"220046","AAC-210","2018/12/07 13:48:35","新北市板橋區四維路137巷21號","121.464113333333","25.02473","6500100","板橋區"
"220012","AAC-253","2018/12/07 13:48:37","新北市板橋區縣民大道二段106號","121.467081666667","25.0149833333333","6500100","板橋區"
"235032","KEA-2873","2018/12/07 13:48:36","新北市中和區安邦街130號","121.497375","24.9955183333333","6500300","中和區"
"235025","KEA-2875","2018/12/07 13:48:41","新北市中和區民享街38-3號","121.473961666667","25.002945","6500300","中和區"
