"lineid","car","time","location","longitude","latitude","cityid","cityname"
"234040","862-TW","2018/12/07 15:08:29","新北市永和區中山路一段329號","121.506166666667","25.005815","6500400","永和區"
"248019","225-UY","2018/12/07 15:08:30","新北市五股區凌雲路三段26-9號","121.432626666667","25.1049383333333","6501500","五股區"
"244004","248-BX","2018/12/07 15:08:25","新北市林口區竹林路266號","121.389633333333","25.0808016666667","6501700","林口區"
"231002","002-UM","2018/12/07 15:08:25","新北市新店區中正路542-5號","121.533633333333","24.985575","6500600","新店區"
"231027","0293-UT","2018/12/07 15:08:30","新北市新店區安康路二段320巷15弄18號","121.501913333333","24.9589066666667","6500600","新店區"
"231028","046-UY","2018/12/07 15:08:28","新北市新店區僑信路66號","121.499378333333","24.9491433333333","6500600","新店區"
"231001","047-UY","2018/12/07 15:08:34","新北市新店區中正路255號","121.538863333333","24.9734683333333","6500600","新店區"
"231005","106-UY","2018/12/07 15:08:26","新北市新店區北新路三段147-1號","121.541208333333","24.9833916666667","6500600","新店區"
"231022","108-UY","2018/12/07 15:08:39","新北市新店區永福路38-1號","121.553068333333","24.9293866666667","6500600","新店區"
"231012","187-VK","2018/12/07 15:08:38","新北市新店區寶元路一段63巷8號","121.542266666667","24.98588","6500600","新店區"
"231023","KEA-2219","2018/12/07 15:08:29","新北市新店區檳榔路105號","121.54455","24.96174","6500600","新店區"
"231026","256-BX","2018/12/07 15:08:36","新北市新店區建興街4號","121.540086666667","24.9765133333333","6500600","新店區"
"231003","268-BY","2018/12/07 15:08:40","新北市新店區中興路二段231-2號","121.547748333333","24.9749483333333","6500600","新店區"
"231018","278-BY","2018/12/07 15:08:29","新北市新店區溪園路455號","121.524963333333","24.9774833333333","6500600","新店區"
"231016","AAD-862","2018/12/07 15:08:26","新北市新店區明山路45號","121.563785","24.9558283333333","6500600","新店區"
"231029","355-BY","2018/12/07 15:08:41","新北市新店區安康路三段738號","121.473878333333","24.9420666666667","6500600","新店區"
"231038","3712-VJ","2018/12/07 15:08:34","新北市新店區安華路28-1號","121.520036666667","24.9608583333333","6500600","新店區"
"231025","4715-K9","2018/12/07 15:08:27","新北市新店區中央路2號","121.533951666667","24.9792233333333","6500600","新店區"
"231036","512-UM","2018/12/07 15:08:36","新北市新店區安祥路104巷11弄15號","121.480871666667","24.9632566666667","6500600","新店區"
"231034","616-UM","2018/12/07 15:08:30","新北市新店區玫瑰路4-1號","121.493548333333","24.9514616666667","6500600","新店區"
"231006","617-UM","2018/12/07 15:08:42","新北市新店區新坡一街18巷5弄23號","121.550765","24.9618733333333","6500600","新店區"
"231030","619-UM","2018/12/07 15:08:37","新北市新店區安民街341-1號","121.51673","24.974925","6500600","新店區"
"231039","718-UY","2018/12/07 15:08:33","新北市新店區寶安街16巷1號","121.542065","24.9817416666667","6500600","新店區"
"231035","719-UM","2018/12/07 15:08:30","新北市新店區永安街56巷1號","121.518541666667","24.98656","6500600","新店區"
"231032","720-UM","2018/12/07 15:08:21","新北市新店區安泰路60巷134弄108號","121.48385","24.9434516666667","6500600","新店區"
"231004","899-TW","2018/12/07 15:08:20","新北市新店區建國路13號","121.539863333333","24.9734716666667","6500600","新店區"
"231024","AKT-0513","2018/12/07 15:08:28","新北市新店區北新路一段297巷17號","121.54069","24.967765","6500600","新店區"
"235030","003-UY","2018/12/07 15:08:24","新北市中和區水源路154巷2號","121.508073333333","25.003275","6500300","中和區"
"235004","150-BY","2018/12/07 15:08:43","新北市中和區中和路310號","121.509038333333","25.0003016666667","6500300","中和區"
"235013","186-VK","2018/12/07 15:08:32","新北市中和區中正路637巷60弄61號","121.485395","24.99264","6500300","中和區"
"235036","301-VK","2018/12/07 15:08:42","新北市中和區板南路339號","121.493745","24.9981866666667","6500300","中和區"
"235007","352-BY","2018/12/07 15:08:37","新北市中和區興南路二段159巷12號","121.505085","24.9831666666667","6500300","中和區"
"235014","4979-A6","2018/12/07 15:08:27","新北市中和區景新街323-1號","121.511436666667","24.9921883333333","6500300","中和區"
"235034","558-UM","2018/12/07 15:08:28","新北市中和區中正路422號","121.491721666667","24.9942783333333","6500300","中和區"
"235018","640-BX","2018/12/07 15:08:34","新北市中和區民樂路67號","121.484071666667","25.0013866666667","6500300","中和區"
"235035","783-BX","2018/12/07 15:08:27","新北市中和區建康路11號","121.48611","25.0002583333333","6500300","中和區"
"235012","896-TW","2018/12/07 15:08:32","新北市中和區興南路一段156號","121.508281666667","24.9868266666667","6500300","中和區"
"235001","AAC-213","2018/12/07 15:08:21","新北市中和區自立路193號","121.524368333333","24.99125","6500300","中和區"
"235023","AAC-215","2018/12/07 15:08:24","新北市中和區圓通路335巷35號","121.493701666667","24.9894166666667","6500300","中和區"
"207002","749-BX","2018/12/07 15:08:32","新北市萬里區崁腳里內中福路87號","121.655741666667","25.16593","6502800","萬里區"
"207001","662-BX","2018/12/07 15:08:39","新北市萬里區雙興里麗水路3-2號","121.653473333333","25.18178","6502800","萬里區"
"236067","105-UM","2018/12/07 15:08:24","新北市土城區學成路74號","121.451416666667","24.9881683333333","6501300","土城區"
"236040","KED-0685","2018/12/07 15:08:36","新北市土城區清水路87號","121.456153333333","24.9817733333333","6501300","土城區"
"236077","166-UM","2018/12/07 15:08:40","新北市土城區溪頭路5號","121.413035","24.9555183333333","6501300","土城區"
"236029","253-BX","2018/12/07 15:08:34","新北市土城區福祥街97號","121.441446666667","24.9814266666667","6501300","土城區"
"236024","269-VK","2018/12/07 15:08:44","新北市土城區中央路二段177巷3弄4號","121.442851666667","24.97614","6501300","土城區"
"236013","270-VK","2018/12/07 15:08:29","新北市土城區學府路一段90號","121.456355","24.9880533333333","6501300","土城區"
"236032","271-VK","2018/12/07 15:08:40","新北市土城區國際路158巷11號","121.468596666667","24.976275","6501300","土城區"
"236016","401-BY","2018/12/07 15:08:30","新北市土城區峰廷街8號","121.468713333333","24.987755","6501300","土城區"
"236057","912-UM","2018/12/07 15:08:24","新北市土城區金城路二段28-6號","121.450395","24.9783716666667","6501300","土城區"
"236045","913-UM","2018/12/07 15:08:43","新北市土城區清水路173號","121.459325","24.9814883333333","6501300","土城區"
"236060","915-UM","2018/12/07 15:08:36","新北市土城區延平街69巷2號","121.46751","24.99285","6501300","土城區"
"236054","AAC-216","2018/12/07 15:08:30","新北市土城區學府路一段276號","121.45022","24.9833716666667","6501300","土城區"
"221010","269-BY","2018/12/07 15:08:38","新北市汐止區汐萬路一段256巷3號","121.652105","25.074755","6501100","汐止區"
"220027","145-BY","2018/12/07 15:08:26","新北市板橋區金門街215巷57弄62號","121.435071666667","24.99115","6500100","板橋區"
"220030","610-BX","2018/12/07 15:08:45","新北市板橋區篤行路二段58號","121.431641666667","24.9924733333333","6500100","板橋區"
"220031","286-VK","2018/12/07 15:08:35","新北市板橋區僑中二街92巷10號","121.445798333333","25.009035","6500100","板橋區"
"220029","287-VK","2018/12/07 15:08:34","新北市板橋區僑中一街80巷1弄16號","121.44692","25.01207","6500100","板橋區"
"220010","305-R5","2018/12/07 15:08:29","新北市板橋區民生路二段36-1號","121.472435","25.0169","6500100","板橋區"
"220038","487-VK","2018/12/07 15:08:31","新北市板橋區四維路270號","121.4633","25.0285716666667","6500100","板橋區"
"220052","561-BX","2018/12/07 15:08:38","新北市板橋區漢生東路63巷1號","121.465776666667","25.0165","6500100","板橋區"
"220011","609-BX","2018/12/07 15:08:35","新北市板橋區中山路二段113號","121.474776666667","25.0162","6500100","板橋區"
"220005","686-BX","2018/12/07 15:08:39","新北市板橋區四川路二段245巷50號","121.45199","24.9924166666667","6500100","板橋區"
"220025","687-BX","2018/12/07 15:08:34","新北市板橋區僑中一街124巷17號","121.446106666667","25.0135416666667","6500100","板橋區"
"220042","689-BX","2018/12/07 15:08:37","新北市板橋區新海路150號","121.460678333333","25.02387","6500100","板橋區"
"220003","827-TW","2018/12/07 15:08:31","新北市板橋區四川路一段367-2號","121.458523333333","24.999545","6500100","板橋區"
"220022","895-R6","2018/12/07 15:08:28","新北市板橋區僑中一街124巷70-5號","121.449691666667","25.0153533333333","6500100","板橋區"
"220021","985-R7","2018/12/07 15:08:31","新北市板橋區板城路421號","121.448488333333","24.9961216666667","6500100","板橋區"
"220012","AAC-253","2018/12/07 15:08:39","新北市板橋區海山路17號","121.469006666667","25.0093733333333","6500100","板橋區"
"235032","KEA-2873","2018/12/07 15:08:36","新北市中和區錦和路142巷1號","121.489256666667","24.997525","6500300","中和區"
