"lineid","car","time","location","longitude","latitude","cityid","cityname"
"234040","862-TW","2018/12/07 15:12:03","新北市永和區中山路一段329號","121.506143333333","25.005825","6500400","永和區"
"231002","002-UM","2018/12/07 15:28:26","新北市新店區中央一街2號","121.5288","24.972105","6500600","新店區"
"231028","046-UY","2018/12/07 15:28:37","新北市新店區僑信路34號","121.499613333333","24.95199","6500600","新店區"
"231005","106-UY","2018/12/07 15:28:26","新北市新店區建國路291巷1號","121.536933333333","24.9856","6500600","新店區"
"231022","108-UY","2018/12/07 15:28:39","新北市新店區永福路51-1號","121.560143333333","24.9278066666667","6500600","新店區"
"231012","187-VK","2018/12/07 15:28:38","新北市新店區寶元路一段85巷6弄22號","121.543968333333","24.9858283333333","6500600","新店區"
"231023","KEA-2219","2018/12/07 15:28:30","新北市新店區行政街14巷1號","121.543231666667","24.966155","6500600","新店區"
"231026","256-BX","2018/12/07 15:28:24","新北市新店區三民路117巷6弄1號","121.534101666667","24.971165","6500600","新店區"
"231003","268-BY","2018/12/07 15:28:40","新北市新店區寶高路120巷1號","121.554565","24.9760966666667","6500600","新店區"
"231018","278-BY","2018/12/07 15:28:29","新北市新店區民生路149巷14號","121.529121666667","24.97998","6500600","新店區"
"231016","AAD-862","2018/12/07 15:28:26","新北市新店區明山路45號","121.56382","24.9558966666667","6500600","新店區"
"231029","355-BY","2018/12/07 15:28:41","新北市新店區安康路三段517號","121.481913333333","24.9484966666667","6500600","新店區"
"231038","3712-VJ","2018/12/07 15:28:34","新北市新店區安華路28-1號","121.519946666667","24.9610816666667","6500600","新店區"
"231025","4715-K9","2018/12/07 15:28:27","新北市新店區柴埕路116號","121.50422","24.9597483333333","6500600","新店區"
"231036","512-UM","2018/12/07 15:28:36","新北市新店區安祥路69巷89弄7號","121.483181666667","24.9594383333333","6500600","新店區"
"231034","616-UM","2018/12/07 15:28:30","新北市新店區玫瑰路28號","121.495281666667","24.9502066666667","6500600","新店區"
"231030","619-UM","2018/12/07 15:28:37","新北市新店區安和路三段29-1號","121.517485","24.981375","6500600","新店區"
"231039","718-UY","2018/12/07 15:28:33","新北市新店區寶元路一段95-1號","121.543676666667","24.9849233333333","6500600","新店區"
"231035","719-UM","2018/12/07 15:28:30","新北市新店區安興路69號","121.51583","24.9750133333333","6500600","新店區"
"231032","720-UM","2018/12/07 15:28:41","新北市新店區和成街19巷23號","121.48778","24.946085","6500600","新店區"
"231004","899-TW","2018/12/07 15:28:40","新北市新店區民族路108號","121.53816","24.9774216666667","6500600","新店區"
"241011","013-R5","2018/12/07 15:28:23","新北市三重區竹圍(仔)街17-5號","121.487205","25.04734","6500200","三重區"
"241028","022-UY","2018/12/07 15:28:32","新北市三重區重新路四段121號","121.484761666667","25.0525233333333","6500200","三重區"
"241015","062-VK","2018/12/07 15:28:39","新北市三重區重新路四段121號","121.484928333333","25.0520816666667","6500200","三重區"
"241017","063-VK","2018/12/07 15:28:38","新北市三重區重新路四段121號","121.484595","25.0519383333333","6500200","三重區"
"241018","268-UM","2018/12/07 15:28:28","新北市三重區重新路四段121號","121.484621666667","25.0519483333333","6500200","三重區"
"241013","270-UM","2018/12/07 15:28:34","新北市三重區重新路四段121號","121.485071666667","25.0520233333333","6500200","三重區"
"241007","398-BY","2018/12/07 15:28:29","新北市三重區重新路四段121號","121.484525","25.051955","6500200","三重區"
"241029","942-UM","2018/12/07 15:28:39","新北市三重區重新路四段121號","121.484901666667","25.0521933333333","6500200","三重區"
"235014","4979-A6","2018/12/07 15:28:27","新北市中和區南華路17-2號","121.50274","24.99574","6500300","中和區"
"235046","733-UM","2018/12/07 15:24:59","新北市中和區員山路36巷13號","121.48417","24.9908333333333","6500300","中和區"
"235023","AAC-215","2018/12/07 15:28:44","新北市中和區員山路28-5號","121.481956666667","24.98675","6500300","中和區"
"220016","120-SR","2018/12/07 15:28:26","新北市板橋區民族路219巷67號","121.468433333333","25.0091566666667","6500100","板橋區"
"236067","105-UM","2018/12/07 15:28:24","新北市土城區中正路67巷36號","121.445228333333","24.976035","6501300","土城區"
"236040","KED-0685","2018/12/07 15:28:36","新北市土城區學成路22巷1弄1號","121.453138333333","24.9871316666667","6501300","土城區"
"236077","166-UM","2018/12/07 15:28:40","新北市土城區福安街110號","121.417171666667","24.9638983333333","6501300","土城區"
"236029","253-BX","2018/12/07 15:28:34","新北市土城區中央路一段245號","121.445411666667","24.9860933333333","6501300","土城區"
"236024","269-VK","2018/12/07 15:28:39","新北市土城區裕生路102巷18號","121.446428333333","24.9847716666667","6501300","土城區"
"236013","270-VK","2018/12/07 15:28:39","新北市土城區廣明街14號","121.45591","24.992115","6501300","土城區"
"236032","271-VK","2018/12/07 15:28:40","新北市土城區延吉街308號","121.46405","24.9840516666667","6501300","土城區"
"236016","401-BY","2018/12/07 15:28:36","新北市土城區延吉街62號","121.471401666667","24.9868066666667","6501300","土城區"
"236057","912-UM","2018/12/07 15:28:24","新北市土城區中央路二段97號","121.442091666667","24.977945","6501300","土城區"
"236045","913-UM","2018/12/07 15:28:43","新北市土城區金城路二段384號","121.463443333333","24.985635","6501300","土城區"
"236060","915-UM","2018/12/07 15:28:36","新北市土城區延和路20號","121.464485","24.98827","6501300","土城區"
"236054","AAC-216","2018/12/07 15:28:30","新北市土城區金城路三段31號","121.465531666667","24.9867533333333","6501300","土城區"
"220027","145-BY","2018/12/07 15:28:46","新北市樹林區環河路600號","121.404361666667","24.9693533333333","6500100","板橋區"
"220031","286-VK","2018/12/07 15:28:35","新北市板橋區僑中二街108巷5號","121.445556666667","25.0073116666667","6500100","板橋區"
"220025","687-BX","2018/12/07 15:28:41","新北市板橋區板城路271號","121.450238333333","24.997705","6500100","板橋區"
