"lineid","car","time","location","longitude","latitude","cityid","cityname"
"234040","862-TW","2018/12/07 15:38:39","新北市永和區中山路一段277號","121.506945","25.007085","6500400","永和區"
"231005","106-UY","2018/12/07 15:38:26","新北市新店區建國路7號","121.539753333333","24.97342","6500600","新店區"
"231022","108-UY","2018/12/07 15:38:39","新北市新店區金興路18號","121.550455","24.929745","6500600","新店區"
"231012","187-VK","2018/12/07 15:38:38","新北市新店區寶元路一段109號","121.545681666667","24.983135","6500600","新店區"
"231023","KEA-2219","2018/12/07 15:38:30","新北市新店區五峰路24號","121.543738333333","24.96923","6500600","新店區"
"231026","256-BX","2018/12/07 15:38:38","新北市新店區三民路75巷2弄1號","121.535628333333","24.971065","6500600","新店區"
"231003","268-BY","2018/12/07 15:38:40","新北市新店區寶高路102巷20號","121.552565","24.97401","6500600","新店區"
"231018","278-BY","2018/12/07 15:38:29","新北市新店區溪園路247號","121.525765","24.9836866666667","6500600","新店區"
"231016","AAD-862","2018/12/07 15:38:26","新北市新店區北宜路二段103號","121.550223333333","24.9524133333333","6500600","新店區"
"231029","355-BY","2018/12/07 15:38:41","新北市新店區安康路二段341巷11號","121.497765","24.955605","6500600","新店區"
"231038","3712-VJ","2018/12/07 15:38:34","新北市新店區安康路二段96號","121.51365","24.9630933333333","6500600","新店區"
"231037","4716-K9","2018/12/07 15:38:39","新北市新店區安興路112號","121.514573333333","24.9774966666667","6500600","新店區"
"231036","512-UM","2018/12/07 15:38:31","新北市新店區安康路二段362號","121.501771666667","24.957445","6500600","新店區"
"231013","513-UM","2018/12/07 15:38:29","新北市新店區永業路81巷9弄2號","121.530978333333","24.9501833333333","6500600","新店區"
"231034","616-UM","2018/12/07 15:38:30","新北市新店區玫瑰路66巷1號","121.495956666667","24.9452366666667","6500600","新店區"
"231030","619-UM","2018/12/07 15:38:37","新北市新店區新和街93巷4號","121.52104","24.986625","6500600","新店區"
"231039","718-UY","2018/12/07 15:38:33","新北市新店區寶元路二段31巷2號","121.546696666667","24.9816866666667","6500600","新店區"
"231035","719-UM","2018/12/07 15:38:30","新北市新店區安興路83-3號","121.515265","24.9755016666667","6500600","新店區"
"231032","720-UM","2018/12/07 15:38:41","新北市新店區雙城路60巷1-1號","121.492358333333","24.9478983333333","6500600","新店區"
"231004","899-TW","2018/12/07 15:38:40","新北市新店區民族路108號","121.538081666667","24.9773233333333","6500600","新店區"
"241011","013-R5","2018/12/07 15:38:43","新北市三重區秀江街133號","121.499148333333","25.072035","6500200","三重區"
"241028","022-UY","2018/12/07 15:38:32","新北市三重區成功路6號","121.490183333333","25.049995","6500200","三重區"
"241008","059-VK","2018/12/07 15:38:31","新北市三重區重新路四段121號","121.48491","25.0519166666667","6500200","三重區"
"241015","062-VK","2018/12/07 15:38:39","新北市三重區重新路四段121號","121.484883333333","25.0520783333333","6500200","三重區"
"241017","063-VK","2018/12/07 15:38:38","新北市三重區大仁街1號","121.491616666667","25.0636016666667","6500200","三重區"
"241024","065-VK","2018/12/07 15:38:43","新北市三重區重新路四段121號","121.484706666667","25.052545","6500200","三重區"
"241003","091-VK","2018/12/07 15:38:33","新北市三重區重新路四段121號","121.484638333333","25.05215","6500200","三重區"
"241016","265-UM","2018/12/07 15:38:28","新北市三重區重新路四段121號","121.484906666667","25.0519783333333","6500200","三重區"
"241018","268-UM","2018/12/07 15:38:28","新北市三重區重新路四段121號","121.484715","25.0519816666667","6500200","三重區"
"241032","269-UM","2018/12/07 15:38:41","新北市三重區重新路四段101號","121.485613333333","25.0545933333333","6500200","三重區"
"241013","270-UM","2018/12/07 15:38:34","新北市三重區忠孝路二段1號","121.487083333333","25.0715116666667","6500200","三重區"
"241025","271-UM","2018/12/07 15:38:38","新北市三重區重新路四段121號","121.484706666667","25.0524516666667","6500200","三重區"
"241007","398-BY","2018/12/07 15:38:29","新北市三重區重新路四段121號","121.48465","25.0519883333333","6500200","三重區"
"241020","478-VK","2018/12/07 15:38:31","新北市三重區忠孝路二段96號","121.483603333333","25.0693616666667","6500200","三重區"
"241014","543-UM","2018/12/07 15:38:26","新北市三重區重新路四段121號","121.484885","25.0519933333333","6500200","三重區"
"241023","545-UM","2018/12/07 15:38:40","新北市三重區重新路四段121號","121.484835","25.0524066666667","6500200","三重區"
"241006","887-TS","2018/12/07 15:38:41","新北市三重區重新路四段121號","121.485133333333","25.0522133333333","6500200","三重區"
"241012","941-UM","2018/12/07 15:38:42","新北市三重區自強路一段68號","121.497093333333","25.06658","6500200","三重區"
"241029","942-UM","2018/12/07 15:38:39","新北市三重區環河南路220-8號","121.493311666667","25.05279","6500200","三重區"
"235046","733-UM","2018/12/07 15:24:59","新北市中和區員山路36巷13號","121.48417","24.9908333333333","6500300","中和區"
"235026","800-TS","2018/12/07 15:38:40","新北市中和區橋和路98號","121.490721666667","25.0054683333333","6500300","中和區"
"235023","AAC-215","2018/12/07 15:38:24","新北市中和區員山路28-12號","121.481095","24.986455","6500300","中和區"
"220016","120-SR","2018/12/07 15:35:03","新北市板橋區民族路219巷71號","121.468663333333","25.0091666666667","6500100","板橋區"
"227003","642-TC","2018/12/07 15:38:24","新北市雙溪區牡丹里中正路77號","121.863191666667","25.04546","6502500","雙溪區"
"236067","105-UM","2018/12/07 15:38:24","新北市土城區中央路三段92號","121.436003333333","24.9667616666667","6501300","土城區"
"236040","KED-0685","2018/12/07 15:38:36","新北市土城區中央路一段164-1號","121.445893333333","24.986915","6501300","土城區"
"236077","166-UM","2018/12/07 15:38:40","新北市土城區福安街31號","121.419393333333","24.96481","6501300","土城區"
"236029","253-BX","2018/12/07 15:38:34","新北市土城區中央路一段45巷13號","121.449143333333","24.99001","6501300","土城區"
"236024","269-VK","2018/12/07 15:38:40","新北市土城區裕生路67巷8弄2號","121.44802","24.9844716666667","6501300","土城區"
"236013","270-VK","2018/12/07 15:38:29","新北市土城區廣明街63巷2弄2號","121.454763333333","24.9936166666667","6501300","土城區"
"236016","401-BY","2018/12/07 15:38:30","新北市土城區金城路三段208號","121.471745","24.9896116666667","6501300","土城區"
"236057","912-UM","2018/12/07 15:38:45","新北市土城區中央路一段186-2號","121.445446666667","24.9863366666667","6501300","土城區"
"236045","913-UM","2018/12/07 15:38:38","新北市土城區金城路三段157號","121.468765","24.988445","6501300","土城區"
"236054","AAC-216","2018/12/07 15:38:30","新北市土城區中央路一段43號","121.448266666667","24.9904116666667","6501300","土城區"
"220027","145-BY","2018/12/07 15:38:26","新北市土城區城林路6巷80號","121.438313333333","24.980315","6500100","板橋區"
"220031","286-VK","2018/12/07 15:38:35","新北市板橋區大觀路二段101巷2號","121.446703333333","25.001435","6500100","板橋區"
"220025","687-BX","2018/12/07 15:33:22","新北市板橋區華東街1-10號","121.448396666667","24.9950166666667","6500100","板橋區"
