"lineid","car","time","location","longitude","latitude","cityid","cityname"
"234001","149-BY","2018/12/07 16:48:37","新北市永和區福和路1號","121.526398333333","25.0097883333333","6500400","永和區"
"234042","862-TW","2018/12/07 16:41:26","新北市永和區福和路1號","121.52614","25.009825","6500400","永和區"
"249005","172-UM","2018/12/07 16:48:39","新北市八里區大堀湖1-5號","121.422828333333","25.1549933333333","6502300","八里區"
"249004","303-UY","2018/12/07 16:48:32","新北市八里區博物館路202巷38號","121.405453333333","25.1596433333333","6502300","八里區"
"231046","107-UY","2018/12/07 16:48:26","新北市新店區永業路81巷60號","121.529366666667","24.9478383333333","6500600","新店區"
"241011","013-R5","2018/12/07 16:48:43","新北市三重區仁愛街53巷198號","121.50068","25.0730683333333","6500200","三重區"
"241028","022-UY","2018/12/07 16:48:32","新北市三重區光興街81號","121.497671666667","25.060035","6500200","三重區"
"241008","059-VK","2018/12/07 16:48:31","新北市三重區永福街179巷28號","121.478045","25.07485","6500200","三重區"
"241022","060-VK","2018/12/07 16:48:42","新北市三重區貴陽街47巷2弄20號","121.484801666667","25.0632366666667","6500200","三重區"
"241031","061-VK","2018/12/07 16:48:32","新北市三重區過圳街42-1號","121.48819","25.0597983333333","6500200","三重區"
"241015","062-VK","2018/12/07 16:48:39","新北市三重區文化北路45號","121.498893333333","25.06544","6500200","三重區"
"241017","063-VK","2018/12/07 16:48:38","新北市三重區國隆路8巷15號","121.49304","25.0635366666667","6500200","三重區"
"241024","065-VK","2018/12/07 16:48:43","新北市三重區中正北路317巷9號","121.474848333333","25.0728583333333","6500200","三重區"
"241002","090-VK","2018/12/07 16:48:36","新北市三重區仁義街155號","121.497055","25.0810433333333","6500200","三重區"
"241003","091-VK","2018/12/07 16:48:33","新北市三重區五華街77號","121.492418333333","25.0831383333333","6500200","三重區"
"241005","262-UM","2018/12/07 16:48:33","新北市三重區仁華街78號","121.484743333333","25.08301","6500200","三重區"
"241016","265-UM","2018/12/07 16:48:28","新北市三重區大同北路117號","121.494125","25.0643666666667","6500200","三重區"
"241009","267-UM","2018/12/07 16:48:33","新北市三重區溪尾街229號","121.488153333333","25.081225","6500200","三重區"
"241018","268-UM","2018/12/07 16:48:28","新北市三重區正義北路296號","121.495415","25.0695483333333","6500200","三重區"
"241032","269-UM","2018/12/07 16:48:41","新北市三重區重陽路一段124號","121.48663","25.060245","6500200","三重區"
"241013","270-UM","2018/12/07 16:48:34","新北市三重區公園街32號","121.498286666667","25.07423","6500200","三重區"
"241025","271-UM","2018/12/07 16:48:38","新北市三重區中正北路512號","121.47236","25.071695","6500200","三重區"
"241007","398-BY","2018/12/07 16:48:29","新北市三重區三和路四段181巷134號","121.485435","25.0798216666667","6500200","三重區"
"241004","475-VK","2018/12/07 16:48:36","新北市三重區仁愛街397巷27號","121.492433333333","25.08165","6500200","三重區"
"241020","478-VK","2018/12/07 16:48:31","新北市三重區忠孝路二段34號","121.485756666667","25.0710533333333","6500200","三重區"
"241030","480-VK","2018/12/07 16:48:34","新北市三重區中正南路263號","121.492913333333","25.0529483333333","6500200","三重區"
"241014","543-UM","2018/12/07 16:48:26","新北市三重區長壽街120巷19弄9號","121.502458333333","25.0691716666667","6500200","三重區"
"241023","545-UM","2018/12/07 16:48:40","新北市三重區中華路76巷27號","121.482468333333","25.06262","6500200","三重區"
"241001","547-UM","2018/12/07 16:48:41","新北市三重區仁政街54巷17號","121.492498333333","25.0768383333333","6500200","三重區"
"241033","557-UM","2018/12/07 16:48:40","新北市三重區新北大道二段111號","121.466875","25.06099","6500200","三重區"
"241019","KEA-2593","2018/12/07 16:48:25","新北市三重區忠孝路二段38巷13號","121.485471666667","25.07006","6500200","三重區"
"241026","743-BX","2018/12/07 16:48:35","新北市三重區文化南路10巷28號","121.500953333333","25.0621733333333","6500200","三重區"
"241006","887-TS","2018/12/07 16:48:41","新北市三重區力行路二段142號","121.482508333333","25.075965","6500200","三重區"
"241012","941-UM","2018/12/07 16:48:42","新北市三重區仁興街11巷80號","121.501916666667","25.0748116666667","6500200","三重區"
"241029","942-UM","2018/12/07 16:48:39","新北市三重區重安街85號","121.492866666667","25.0557433333333","6500200","三重區"
"220016","120-SR","2018/12/07 16:43:28","新北市板橋區民族路219巷67號","121.468545","25.00905","6500100","板橋區"
"247022","001-UY","2018/12/07 16:48:27","新北市蘆洲區中正路516巷38-5號","121.461396666667","25.0983216666667","6501400","蘆洲區"
"228002","663-BX","2018/12/07 16:48:41","新北市貢寮區貢寮里朝陽街120巷28號","121.907975","25.0230466666667","6502600","貢寮區"
"228003","828-UM","2018/12/07 16:48:25","新北市貢寮區貢寮里朝陽街1-2號","121.912328333333","25.021245","6502600","貢寮區"
"224006","676-BX","2018/12/07 16:48:24","新北市瑞芳區大寮路356-1號","121.784885","25.10322","6501200","瑞芳區"
"224008","285-BY","2018/12/07 16:48:43","新北市瑞芳區東和路2號","121.804423333333","25.106165","6501200","瑞芳區"
"224007","275-VK","2018/12/07 16:48:43","新北市瑞芳區中央路48巷6號","121.761745","25.102925","6501200","瑞芳區"
"224009","273-VK","2018/12/07 16:48:30","新北市瑞芳區三爪子坑路226號","121.805833333333","25.1056383333333","6501200","瑞芳區"
"224005","271-BY","2018/12/07 16:48:36","新北市瑞芳區洞頂路158-1號","121.861178333333","25.118655","6501200","瑞芳區"
"227003","642-TC","2018/12/07 16:48:44","新北市雙溪區外柑里外柑腳71號","121.807146666667","25.0175916666667","6502500","雙溪區"
"227011","400-TW","2018/12/07 16:48:40","新北市雙溪區牡丹里聖南10-3號","121.860833333333","25.0494466666667","6502500","雙溪區"
"251008","181-VK","2018/12/07 16:48:43","新北市淡水區樹梅坑20號","121.474563333333","25.1427716666667","6501000","淡水區"
"251012","441-VK","2018/12/07 16:48:30","新北市淡水區中正路二段31號","121.419671666667","25.1815116666667","6501000","淡水區"
"251009","575-R6","2018/12/07 16:48:30","新北市淡水區中正路一段55號","121.424321666667","25.1775866666667","6501000","淡水區"
"252002","178-VK","2018/12/07 16:48:29","新北市三芝區埔坪里埔頭坑80號","121.510266666667","25.2542966666667","6502100","三芝區"
"252001","292-VK","2018/12/07 16:48:40","新北市三芝區淡金路二段89號","121.503921666667","25.2608166666667","6502100","三芝區"
"247008","KED-0683","2018/12/07 16:48:37","新北市蘆洲區中山一路270號","121.471705","25.0793416666667","6501400","蘆洲區"
"242019","175-VK","2018/12/07 16:48:31","新北市新莊區三和路12-21號","121.441821666667","25.0386433333333","6500500","新莊區"
"239007","AAC-297","2018/12/07 16:48:26","新北市鶯歌區二甲路13-16號","121.344986666667","24.93521","6500800","鶯歌區"
