"lineid","car","time","location","longitude","latitude","cityid","cityname"
"234001","149-BY","2018/12/07 16:58:37","新北市永和區福和路1號","121.526575","25.0099666666667","6500400","永和區"
"234042","862-TW","2018/12/07 16:41:26","新北市永和區福和路1號","121.52614","25.009825","6500400","永和區"
"249005","172-UM","2018/12/07 16:58:39","新北市八里區渡船頭5號","121.431235","25.1544766666667","6502300","八里區"
"249001","173-UM","2018/12/07 16:58:38","新北市八里區商港路48號","121.39442","25.1444583333333","6502300","八里區"
"249004","303-UY","2018/12/07 16:58:32","新北市八里區博物館路29號","121.41397","25.1627716666667","6502300","八里區"
"249002","305-UY","2018/12/07 16:57:28","新北市八里區牛寮埔28號","121.432361666667","25.1449316666667","6502300","八里區"
"249003","593-UM","2018/12/07 16:58:42","新北市八里區中山路二段289號","121.40155","25.148685","6502300","八里區"
"244025","837-TS","2018/12/07 16:58:24","新北市林口區粉寮路二段160巷28號","121.405131666667","25.0908","6501700","林口區"
"231046","107-UY","2018/12/07 16:58:26","新北市新店區直潭路92號","121.530923333333","24.9376016666667","6500600","新店區"
"241011","013-R5","2018/12/07 16:58:43","新北市三重區仁愛街55巷92號","121.498266666667","25.07263","6500200","三重區"
"241028","022-UY","2018/12/07 16:58:32","新北市三重區中正南路41巷1號","121.493876666667","25.0598433333333","6500200","三重區"
"241008","059-VK","2018/12/07 16:58:31","新北市三重區永福街179巷42號","121.477365","25.0747466666667","6500200","三重區"
"241022","060-VK","2018/12/07 16:58:42","新北市三重區中華路75巷4號","121.483883333333","25.0626566666667","6500200","三重區"
"241031","061-VK","2018/12/07 16:58:32","新北市三重區三寧街46號","121.49006","25.0602683333333","6500200","三重區"
"241015","062-VK","2018/12/07 16:58:39","新北市三重區福德北路82號","121.501586666667","25.0663583333333","6500200","三重區"
"241017","063-VK","2018/12/07 16:58:38","新北市三重區國隆路14號","121.492978333333","25.0637933333333","6500200","三重區"
"241024","065-VK","2018/12/07 16:58:44","新北市三重區力行路二段28號","121.481685","25.07286","6500200","三重區"
"241002","090-VK","2018/12/07 16:58:36","新北市三重區仁義街225巷21號","121.49729","25.082565","6500200","三重區"
"241003","091-VK","2018/12/07 16:58:33","新北市三重區五華街141巷58號","121.493578333333","25.0867866666667","6500200","三重區"
"241005","262-UM","2018/12/07 16:58:33","新北市三重區仁華街118巷26弄21號","121.484996666667","25.0833283333333","6500200","三重區"
"241016","265-UM","2018/12/07 16:58:28","新北市三重區大同北路83號","121.4949","25.063545","6500200","三重區"
"241009","267-UM","2018/12/07 16:58:34","新北市三重區仁愛街600巷18號","121.484263333333","25.08042","6500200","三重區"
"241018","268-UM","2018/12/07 16:58:28","新北市三重區六張街126巷2弄1號","121.492216666667","25.06916","6500200","三重區"
"241032","269-UM","2018/12/07 16:58:41","新北市三重區新北大道一段57巷11號","121.48548","25.0608116666667","6500200","三重區"
"241013","270-UM","2018/12/07 16:58:34","新北市三重區仁昌街40號","121.497206666667","25.074175","6500200","三重區"
"241025","271-UM","2018/12/07 16:58:38","新北市三重區中正北路510號","121.472665","25.0716883333333","6500200","三重區"
"241007","398-BY","2018/12/07 16:58:29","新北市三重區三和路四段145巷199號","121.488546666667","25.079285","6500200","三重區"
"241004","475-VK","2018/12/07 16:58:36","新北市三重區五華街98巷15號","121.491955","25.0821533333333","6500200","三重區"
"241020","478-VK","2018/12/07 16:58:31","新北市三重區後竹圍街175巷20號","121.485625","25.072715","6500200","三重區"
"241030","480-VK","2018/12/07 16:58:34","新北市三重區昌隆街72號","121.490963333333","25.0507183333333","6500200","三重區"
"241014","543-UM","2018/12/07 16:58:46","新北市三重區三和路二段173巷61號","121.499655","25.0703216666667","6500200","三重區"
"241023","545-UM","2018/12/07 16:58:40","新北市三重區忠孝路三段84巷1號","121.48024","25.064575","6500200","三重區"
"241001","547-UM","2018/12/07 16:58:41","新北市三重區仁愛街170號","121.494283333333","25.0766216666667","6500200","三重區"
"241033","557-UM","2018/12/07 16:52:59","新北市三重區中興北街275號","121.469251666667","25.06085","6500200","三重區"
"241019","KEA-2593","2018/12/07 16:58:25","新北市三重區自強路二段74巷21號","121.48799","25.0698733333333","6500200","三重區"
"241026","743-BX","2018/12/07 16:58:35","新北市三重區文化南路42號","121.500371666667","25.0602066666667","6500200","三重區"
"241006","887-TS","2018/12/07 16:58:41","新北市三重區車路頭街119號","121.48452","25.0753933333333","6500200","三重區"
"241012","941-UM","2018/12/07 16:58:42","新北市三重區仁和街132號","121.500425","25.0749733333333","6500200","三重區"
"241029","942-UM","2018/12/07 16:58:39","新北市三重區重新路三段204號","121.490061666667","25.0584383333333","6500200","三重區"
"247006","KED-0682","2018/12/07 16:58:29","新北市蘆洲區長安街99巷29號","121.460821666667","25.079815","6501400","蘆洲區"
"220016","120-SR","2018/12/07 16:43:28","新北市板橋區民族路219巷67號","121.468545","25.00905","6500100","板橋區"
"247016","546-UM","2018/12/07 16:58:46","新北市蘆洲區中正路69號","121.47041","25.082695","6501400","蘆洲區"
"247024","500-BY","2018/12/07 16:58:27","新北市蘆洲區長興路255號","121.46048","25.0875","6501400","蘆洲區"
"247004","336-TH","2018/12/07 16:58:31","新北市蘆洲區中原路17號","121.460608333333","25.0829766666667","6501400","蘆洲區"
"247020","057-VK","2018/12/07 16:58:28","新北市蘆洲區民族路422巷35號","121.47349","25.093605","6501400","蘆洲區"
"247010","056-VK","2018/12/07 16:58:29","新北市蘆洲區信義路176號","121.479388333333","25.0839916666667","6501400","蘆洲區"
"247014","053-VK","2018/12/07 16:58:32","新北市蘆洲區得勝街69巷8號","121.473881666667","25.0836383333333","6501400","蘆洲區"
"247018","007-UY","2018/12/07 16:58:30","新北市蘆洲區民族路227巷18號","121.47693","25.08925","6501400","蘆洲區"
"247022","001-UY","2018/12/07 16:58:27","新北市蘆洲區三民路128巷166-1號","121.468415","25.0925333333333","6501400","蘆洲區"
"228002","663-BX","2018/12/07 16:58:41","新北市貢寮區貢寮里朝陽街142號","121.904923333333","25.0234783333333","6502600","貢寮區"
"228001","670-TC","2018/12/07 16:58:26","新北市貢寮區貢寮里朝陽街1-2號","121.912333333333","25.0212683333333","6502600","貢寮區"
"228003","828-UM","2018/12/07 16:58:45","新北市貢寮區福隆里虎子山街21號","121.939521666667","25.0182866666667","6502600","貢寮區"
"224006","676-BX","2018/12/07 16:58:44","新北市瑞芳區大寮路2號","121.785206666667","25.0999783333333","6501200","瑞芳區"
"224008","285-BY","2018/12/07 16:58:43","新北市瑞芳區明燈路一段267號","121.816993333333","25.1084283333333","6501200","瑞芳區"
"224007","275-VK","2018/12/07 16:58:43","新北市瑞芳區大埔路吉慶公園城39號","121.764723333333","25.0983733333333","6501200","瑞芳區"
"224009","273-VK","2018/12/07 16:58:30","新北市瑞芳區濱二路27號","121.835525","25.112175","6501200","瑞芳區"
"224005","271-BY","2018/12/07 16:58:35","新北市瑞芳區明里路54號","121.869771666667","25.1228383333333","6501200","瑞芳區"
"227003","642-TC","2018/12/07 16:58:24","新北市雙溪區長源里柑腳41-2號","121.802046666667","25.012725","6502500","雙溪區"
"227011","400-TW","2018/12/07 16:58:40","新北市雙溪區牡丹里聖南31-1號","121.855133333333","25.0547666666667","6502500","雙溪區"
"251004","009-UM","2018/12/07 16:58:26","新北市淡水區中正路二段31號","121.419211666667","25.181755","6501000","淡水區"
"251005","010-UM","2018/12/07 16:58:34","新北市淡水區中正路一段85號","121.422411666667","25.178865","6501000","淡水區"
"251008","181-VK","2018/12/07 16:58:23","新北市淡水區樹梅坑9號","121.472776666667","25.1426866666667","6501000","淡水區"
"251010","413-VK","2018/12/07 16:58:30","新北市淡水區中正路二段31號","121.419438333333","25.1814833333333","6501000","淡水區"
"251012","441-VK","2018/12/07 16:58:30","新北市淡水區沙崙路139號","121.42321","25.18285","6501000","淡水區"
"251007","442-VK","2018/12/07 16:58:31","新北市淡水區中正東路65號","121.447111666667","25.167645","6501000","淡水區"
"251006","561-UM","2018/12/07 16:58:37","新北市淡水區中正路二段18號","121.420186666667","25.1810533333333","6501000","淡水區"
"251009","575-R6","2018/12/07 16:58:30","新北市淡水區三民街20號","121.438985","25.17174","6501000","淡水區"
"251011","650-BX","2018/12/07 16:58:45","新北市淡水區中山路24號","121.444406666667","25.1695333333333","6501000","淡水區"
"252002","178-VK","2018/12/07 16:58:29","新北市三芝區忠孝街140-1號","121.506078333333","25.2582033333333","6502100","三芝區"
"252001","292-VK","2018/12/07 16:58:40","新北市三芝區淡金路二段89號","121.503931666667","25.2607866666667","6502100","三芝區"
"247008","KED-0683","2018/12/07 16:58:37","新北市蘆洲區中山一路197巷3號","121.474643333333","25.0807133333333","6501400","蘆洲區"
"242056","751-BX","2018/12/07 16:58:27","新北市新莊區三和路12-21號","121.44218","25.0386116666667","6500500","新莊區"
"242044","566-BX","2018/12/07 16:58:39","新北市新莊區三和路12-21號","121.4423","25.0384366666667","6500500","新莊區"
"242048","497-BY","2018/12/07 16:58:27","新北市新莊區中正路588號","121.427203333333","25.0303766666667","6500500","新莊區"
"242046","400-BY","2018/12/07 16:58:27","新北市新莊區新泰路357巷3弄57號","121.442001666667","25.03965","6500500","新莊區"
"242019","175-VK","2018/12/07 16:58:31","新北市新莊區三和路12-21號","121.441886666667","25.0386966666667","6500500","新莊區"
"242017","233-RS","2018/12/07 16:58:36","新北市新莊區三和路12-21號","121.44237","25.0380783333333","6500500","新莊區"
"242032","348-TH","2018/12/07 16:58:40","新北市新莊區新泰路357巷3弄57號","121.441965","25.0396883333333","6500500","新莊區"
"242015","351-TH","2018/12/07 16:58:36","新北市新莊區新泰路357巷3弄57號","121.442048333333","25.0394233333333","6500500","新莊區"
"238014","282-BY","2018/12/07 16:58:42","新北市樹林區中山路三段204號","121.386773333333","24.96826","6500700","樹林區"
"238020","268-VK","2018/12/07 16:58:23","新北市樹林區育德街78-1號","121.387965","24.9682533333333","6500700","樹林區"
"239007","AAC-297","2018/12/07 16:58:26","新北市鶯歌區二甲路13-16號","121.34502","24.9351833333333","6500800","鶯歌區"
"239006","891-R6","2018/12/07 16:58:40","新北市鶯歌區二甲路13-16號","121.345163333333","24.9352016666667","6500800","鶯歌區"
"239001","417-VK","2018/12/07 16:58:40","新北市鶯歌區二甲路12-2號","121.345658333333","24.9350833333333","6500800","鶯歌區"
