"lineid","car","time","location","longitude","latitude","cityid","cityname"
"234001","149-BY","2018/12/07 17:04:27","新北市永和區福和路1號","121.526356666667","25.0098866666667","6500400","永和區"
"249005","172-UM","2018/12/07 17:18:39","新北市八里區華富山25號","121.418886666667","25.1309766666667","6502300","八里區"
"249001","173-UM","2018/12/07 17:18:38","新北市八里區中華路二段165巷10-1號","121.408123333333","25.1506266666667","6502300","八里區"
"249004","303-UY","2018/12/07 17:18:32","新北市八里區賢三街17號","121.419108333333","25.1593466666667","6502300","八里區"
"249002","305-UY","2018/12/07 17:18:28","新北市八里區龍米路二段117巷29-1號","121.446158333333","25.1429666666667","6502300","八里區"
"249003","593-UM","2018/12/07 17:18:22","新北市八里區商港路50號","121.395605","25.1459316666667","6502300","八里區"
"244023","069-UM","2018/12/07 17:18:28","新北市林口區隆林街36號","121.388033333333","25.0753816666667","6501700","林口區"
"244007","080-UY","2018/12/07 17:18:39","新北市林口區湖子40-33號","121.38619","25.0898066666667","6501700","林口區"
"244019","402-UM","2018/12/07 17:18:34","新北市林口區公園路203號","121.37256","25.0726733333333","6501700","林口區"
"244013","KEA-2802","2018/12/07 17:18:33","新北市林口區粉寮69號","121.404763333333","25.090775","6501700","林口區"
"244017","485-VK","2018/12/07 17:18:36","新北市林口區粉寮路二段1-1號","121.400361666667","25.0831633333333","6501700","林口區"
"244009","656-BX","2018/12/07 17:18:35","新北市林口區松柏路35-2號","121.379448333333","25.091355","6501700","林口區"
"244025","837-TS","2018/12/07 17:18:44","新北市林口區文化三路二段117-99號","121.374875","25.0809783333333","6501700","林口區"
"244021","838-TS","2018/12/07 17:18:42","新北市林口區粉寮路二段221號","121.404223333333","25.09056","6501700","林口區"
"231046","107-UY","2018/12/07 17:18:26","新北市新店區直潭路92號","121.530923333333","24.9375866666667","6500600","新店區"
"241011","013-R5","2018/12/07 17:18:43","新北市三重區河邊北街168號","121.503028333333","25.0732016666667","6500200","三重區"
"241028","022-UY","2018/12/07 17:18:32","新北市三重區中正南路77號","121.494053333333","25.0588133333333","6500200","三重區"
"241008","059-VK","2018/12/07 17:18:39","新北市三重區永福街72巷37-4號","121.480478333333","25.0763933333333","6500200","三重區"
"241022","060-VK","2018/12/07 17:18:42","新北市三重區中正北路64巷9號","121.486366666667","25.0641133333333","6500200","三重區"
"241015","062-VK","2018/12/07 17:18:39","新北市三重區福德北路82號","121.501818333333","25.06627","6500200","三重區"
"241017","063-VK","2018/12/07 17:18:38","新北市三重區大同北路52號","121.495083333333","25.06312","6500200","三重區"
"241024","065-VK","2018/12/07 17:18:43","新北市三重區中正北路201號","121.477048333333","25.06982","6500200","三重區"
"241002","090-VK","2018/12/07 17:18:36","新北市三重區仁義街245號","121.496081666667","25.0828283333333","6500200","三重區"
"241003","091-VK","2018/12/07 17:18:33","新北市三重區富福街26號","121.490576666667","25.0835733333333","6500200","三重區"
"241005","262-UM","2018/12/07 17:18:33","新北市三重區永安北路二段25巷17號","121.482595","25.08164","6500200","三重區"
"241016","265-UM","2018/12/07 17:18:28","新北市三重區大同北路97-1號","121.494525","25.06362","6500200","三重區"
"241009","267-UM","2018/12/07 17:18:33","新北市三重區車路頭街145號","121.483823333333","25.076655","6500200","三重區"
"241018","268-UM","2018/12/07 17:18:28","新北市三重區安慶街185號","121.493283333333","25.0684","6500200","三重區"
"241032","269-UM","2018/12/07 17:18:41","新北市三重區興華街137號","121.483098333333","25.0601483333333","6500200","三重區"
"241013","270-UM","2018/12/07 17:18:34","新北市三重區仁愛街124號","121.494798333333","25.0747766666667","6500200","三重區"
"241025","271-UM","2018/12/07 17:18:38","新北市三重區中正北路380號","121.476526666667","25.0699066666667","6500200","三重區"
"241007","398-BY","2018/12/07 17:18:29","新北市三重區三和路四段145巷9號","121.48455","25.0783633333333","6500200","三重區"
"241020","478-VK","2018/12/07 17:18:31","新北市三重區自強路三段7巷34號","121.488128333333","25.072225","6500200","三重區"
"241030","480-VK","2018/12/07 17:18:34","新北市三重區成功路73巷9號","121.489496666667","25.05183","6500200","三重區"
"241014","543-UM","2018/12/07 17:18:26","新北市三重區三和路二段83號","121.500123333333","25.0683983333333","6500200","三重區"
"241023","545-UM","2018/12/07 17:18:40","新北市三重區三民街148號","121.482668333333","25.0653933333333","6500200","三重區"
"241033","557-UM","2018/12/07 17:18:40","新北市三重區中興北街146號","121.468933333333","25.0563966666667","6500200","三重區"
"241019","KEA-2593","2018/12/07 17:18:25","新北市三重區自強路二段50巷31號","121.48804","25.0696683333333","6500200","三重區"
"241026","743-BX","2018/12/07 17:18:35","新北市三重區正義南路29-1號","121.497965","25.0613533333333","6500200","三重區"
"241006","887-TS","2018/12/07 17:18:45","新北市三重區力行路二段164號","121.482903333333","25.0765883333333","6500200","三重區"
"241012","941-UM","2018/12/07 17:18:42","新北市三重區河邊北街248巷17號","121.501248333333","25.0757816666667","6500200","三重區"
"247012","KEA-2869","2018/12/07 17:18:45","新北市蘆洲區信義路317號","121.478321666667","25.0864016666667","6501400","蘆洲區"
"247006","KED-0682","2018/12/07 17:18:28","新北市蘆洲區長安街73巷32號","121.461788333333","25.0792133333333","6501400","蘆洲區"
"247002","893-R6","2018/12/07 17:18:27","新北市蘆洲區永樂街38巷33弄8號","121.457776666667","25.0896583333333","6501400","蘆洲區"
"247024","500-BY","2018/12/07 17:18:47","新北市蘆洲區長榮路199號","121.461151666667","25.0846866666667","6501400","蘆洲區"
"247004","336-TH","2018/12/07 17:18:31","新北市蘆洲區永安南路二段286號","121.457463333333","25.0813083333333","6501400","蘆洲區"
"247020","057-VK","2018/12/07 17:18:28","新北市蘆洲區仁愛街25號","121.472275","25.0927333333333","6501400","蘆洲區"
"247010","056-VK","2018/12/07 17:18:28","新北市蘆洲區中山一路120巷7弄29號","121.476975","25.0824","6501400","蘆洲區"
"247014","053-VK","2018/12/07 17:18:32","新北市蘆洲區忠孝路12-1號","121.470336666667","25.0841066666667","6501400","蘆洲區"
"247018","007-UY","2018/12/07 17:18:31","新北市蘆洲區民權路94號","121.474248333333","25.0880883333333","6501400","蘆洲區"
"247022","001-UY","2018/12/07 17:18:27","新北市蘆洲區民族路496號","121.469723333333","25.0905616666667","6501400","蘆洲區"
"228002","663-BX","2018/12/07 17:18:40","新北市貢寮區雙玉里下雙溪街24號","121.922633333333","25.009885","6502600","貢寮區"
"228001","670-TC","2018/12/07 17:18:46","新北市貢寮區仁理村尖山腳街18-3號","121.925508333333","25.048445","6502600","貢寮區"
"228003","828-UM","2018/12/07 17:18:25","新北市貢寮區福隆里興隆街36號","121.941101666667","25.0174633333333","6502600","貢寮區"
"224006","676-BX","2018/12/07 17:18:24","新北市瑞芳區傑魚坑路314號","121.786781666667","25.1052966666667","6501200","瑞芳區"
"224008","285-BY","2018/12/07 17:18:43","新北市瑞芳區侯硐路148號","121.826325","25.083905","6501200","瑞芳區"
"224009","273-VK","2018/12/07 17:18:39","新北市瑞芳區汽車路13號","121.84562","25.1107166666667","6501200","瑞芳區"
"224005","271-BY","2018/12/07 17:18:35","新北市瑞芳區鼻頭路247號","121.91254","25.1238983333333","6501200","瑞芳區"
"227003","642-TC","2018/12/07 17:18:44","新北市雙溪區上林里內平林90號","121.827833333333","25.0276083333333","6502500","雙溪區"
"227011","400-TW","2018/12/07 17:18:40","新北市雙溪區三貂里定福路1-2號","121.850048333333","25.0636966666667","6502500","雙溪區"
"251004","009-UM","2018/12/07 17:18:26","新北市淡水區中正東路二段48巷20號","121.457456666667","25.15832","6501000","淡水區"
"251005","010-UM","2018/12/07 17:18:34","新北市淡水區鄧公路19-1號","121.450308333333","25.169955","6501000","淡水區"
"251002","012-UM","2018/12/07 17:18:41","新北市淡水區中正路二段31號","121.419316666667","25.181535","6501000","淡水區"
"251008","181-VK","2018/12/07 17:18:43","新北市淡水區大同路283號","121.467911666667","25.1424816666667","6501000","淡水區"
"251010","413-VK","2018/12/07 17:18:30","新北市淡水區新民街一段117號","121.428036666667","25.1878466666667","6501000","淡水區"
"251012","441-VK","2018/12/07 17:18:30","新北市淡水區中山北路一段158號","121.444278333333","25.1778683333333","6501000","淡水區"
"251007","442-VK","2018/12/07 17:18:31","新北市淡水區民生路47-4號","121.462005","25.13798","6501000","淡水區"
"251006","561-UM","2018/12/07 17:18:37","新北市淡水區新生街29號","121.439536666667","25.17499","6501000","淡水區"
"251009","575-R6","2018/12/07 17:18:30","新北市淡水區三民街17號","121.438966666667","25.17179","6501000","淡水區"
"251011","650-BX","2018/12/07 17:18:25","新北市淡水區坪頂路128號","121.465195","25.161085","6501000","淡水區"
"251003","673-BX","2018/12/07 17:18:25","新北市淡水區中正路二段31號","121.419521666667","25.1815033333333","6501000","淡水區"
"207003","550-UM","2018/12/07 17:18:28","新北市萬里區萬里里獅頭路23號","121.693266666667","25.17825","6502800","萬里區"
"252002","178-VK","2018/12/07 17:18:29","新北市三芝區忠孝街1-15號","121.505546666667","25.2539066666667","6502100","三芝區"
"252001","292-VK","2018/12/07 17:18:40","新北市三芝區長安街119號","121.498028333333","25.25967","6502100","三芝區"
"247008","KED-0683","2018/12/07 17:18:37","新北市蘆洲區信義路34巷122-1號","121.475938333333","25.0768366666667","6501400","蘆洲區"
"242058","986-R7","2018/12/07 17:18:28","新北市新莊區中正路499號","121.440666666667","25.0336383333333","6500500","新莊區"
"242056","751-BX","2018/12/07 17:18:27","新北市新莊區新莊路658號","121.442435","25.0329033333333","6500500","新莊區"
"242027","615-BX","2018/12/07 17:18:29","新北市新莊區中港一街161號","121.44731","25.044955","6500500","新莊區"
"242029","612-BX","2018/12/07 17:18:42","新北市新莊區幸福路767號","121.447051666667","25.0490183333333","6500500","新莊區"
"242044","566-BX","2018/12/07 17:18:28","新北市新莊區中正路486-1號","121.436835","25.0332516666667","6500500","新莊區"
"242048","497-BY","2018/12/07 17:18:27","新北市新莊區四維路297號","121.421288333333","25.0197316666667","6500500","新莊區"
"242054","441-UM","2018/12/07 17:18:31","新北市新莊區環河路636-7號","121.436688333333","25.010815","6500500","新莊區"
"242002","440-UM","2018/12/07 17:18:38","新北市新莊區瓊林路50-12號","121.446091666667","25.0287583333333","6500500","新莊區"
"242039","415-TV","2018/12/07 17:18:42","新北市新莊區新樹路225號","121.43519","25.0227716666667","6500500","新莊區"
"242009","413-TV","2018/12/07 17:18:39","新北市新莊區新泰路488號","121.442395","25.0458083333333","6500500","新莊區"
"242046","400-BY","2018/12/07 17:18:27","新北市新莊區新泰路357巷2號","121.442205","25.0416266666667","6500500","新莊區"
"242023","362-BY","2018/12/07 17:18:32","新北市新莊區中港一街32號","121.451026666667","25.045585","6500500","新莊區"
"242060","353-BY","2018/12/07 17:18:28","新北市新莊區三和路10號","121.441896666667","25.0360883333333","6500500","新莊區"
"242011","132-UY","2018/12/07 17:18:41","新北市新莊區中環路二段392-1號","121.442338333333","25.0455616666667","6500500","新莊區"
"242034","135-UY","2018/12/07 17:18:32","新北市新莊區中正路384號","121.44193","25.0346616666667","6500500","新莊區"
"242050","172-VK","2018/12/07 17:18:27","新北市新莊區瓊林南路75-2號","121.435015","25.0141966666667","6500500","新莊區"
"242013","173-VK","2018/12/07 17:18:33","新北市新莊區三和路12-21號","121.441945","25.0387266666667","6500500","新莊區"
"242019","175-VK","2018/12/07 17:18:31","新北市新莊區中港路150號","121.455083333333","25.0411866666667","6500500","新莊區"
"242007","176-VK","2018/12/07 17:18:27","新北市新莊區中港路303號","121.452853333333","25.04464","6500500","新莊區"
"242017","233-RS","2018/12/07 17:18:36","新北市新莊區中平路82巷2號","121.444821666667","25.0448183333333","6500500","新莊區"
"242032","348-TH","2018/12/07 17:18:40","新北市新莊區新泰路468號","121.443351666667","25.0450616666667","6500500","新莊區"
"242005","349-TH","2018/12/07 17:18:30","新北市新莊區復興路一段137號","121.450053333333","25.04317","6500500","新莊區"
"242021","350-TH","2018/12/07 17:18:30","新北市新莊區中港一街42號","121.450725","25.0455283333333","6500500","新莊區"
"242015","351-TH","2018/12/07 17:18:36","新北市新莊區中環路二段392-1號","121.442445","25.0456333333333","6500500","新莊區"
"238015","755-BX","2018/12/07 17:18:29","新北市樹林區大安路269號","121.419001666667","24.9936683333333","6500700","樹林區"
"238023","601-UM","2018/12/07 17:18:25","新北市樹林區保安街二段37號","121.41628","24.999995","6500700","樹林區"
"238019","599-UM","2018/12/07 17:18:40","新北市樹林區太平路273巷23號","121.421096666667","24.976195","6500700","樹林區"
"238018","571-TV","2018/12/07 17:18:23","新北市板橋區篤行路三段98號","121.425846666667","24.9848","6500700","樹林區"
"238024","5061-A6","2018/12/07 17:18:29","新北市樹林區四德街7巷13號","121.426396666667","24.9918416666667","6500700","樹林區"
"238022","KEA-2213","2018/12/07 17:18:28","新北市樹林區仁愛街83巷1號","121.424288333333","24.98318","6500700","樹林區"
"238021","KEA-2539","2018/12/07 17:18:31","新北市樹林區西圳街一段132-1號","121.397501666667","24.9636783333333","6500700","樹林區"
"238025","303-VK","2018/12/07 17:18:44","新北市樹林區保安二街29號","121.424783333333","24.99374","6500700","樹林區"
"238017","283-BY","2018/12/07 17:18:34","新北市樹林區光武街2-6號","121.415435","25.0044916666667","6500700","樹林區"
"238014","282-BY","2018/12/07 17:18:42","新北市樹林區大安路227號","121.4201","24.9949933333333","6500700","樹林區"
"238020","268-VK","2018/12/07 17:18:43","新北市樹林區千歲街101-2號","121.428538333333","25.0008716666667","6500700","樹林區"
"238026","172-UY","2018/12/07 17:18:26","新北市樹林區東順街83號","121.409396666667","24.9762816666667","6500700","樹林區"
"238016","169-UY","2018/12/07 17:18:36","新北市樹林區中山路二段10號","121.417516666667","24.9850083333333","6500700","樹林區"
"239007","AAC-297","2018/12/07 17:18:26","新北市鶯歌區光復街23號","121.351503333333","24.9554433333333","6500800","鶯歌區"
"239006","891-R6","2018/12/07 17:18:40","新北市鶯歌區德昌二街92-1號","121.3328","24.9552466666667","6500800","鶯歌區"
"239008","527-UM","2018/12/07 17:18:25","新北市鶯歌區中山路185號","121.347396666667","24.956985","6500800","鶯歌區"
"239005","526-UM","2018/12/07 17:18:31","新北市鶯歌區鶯桃路301號","121.333701666667","24.960655","6500800","鶯歌區"
"239001","417-VK","2018/12/07 17:18:40","新北市鶯歌區尖山路177號","121.34492","24.94761","6500800","鶯歌區"
"239003","360-BY","2018/12/07 17:18:35","新北市鶯歌區德昌二街70巷25號","121.3317","24.9577066666667","6500800","鶯歌區"
"239002","359-BY","2018/12/07 17:18:31","新北市鶯歌區建國路190號","121.349508333333","24.953525","6500800","鶯歌區"
"239004","193-VK","2018/12/07 17:18:39","新北市鶯歌區文化路270號","121.35281","24.9473016666667","6500800","鶯歌區"
"242041","281-VK","2018/12/07 17:18:36","新北市新莊區新樹路113巷17號","121.439001666667","25.0264533333333","6500500","新莊區"
