"lineid","car","time","location","longitude","latitude","cityid","cityname"
"234042","862-TW","2018/12/07 17:58:45","新北市永和區福和路1號","121.526188333333","25.00986","6500400","永和區"
"234026","9371-KE","2018/12/07 17:58:42","新北市永和區永和路一段155-1號","121.514271666667","25.009365","6500400","永和區"
"249005","172-UM","2018/12/07 17:58:39","新北市八里區荖阡坑路16號","121.397761666667","25.1383866666667","6502300","八里區"
"249001","173-UM","2018/12/07 17:58:38","新北市八里區龍米路二段37號","121.448361666667","25.1400183333333","6502300","八里區"
"249004","303-UY","2018/12/07 17:58:32","新北市八里區龍米路三段46號","121.427885","25.1591983333333","6502300","八里區"
"249002","305-UY","2018/12/07 17:58:29","新北市八里區龍米路一段259號","121.450633333333","25.1336166666667","6502300","八里區"
"249003","593-UM","2018/12/07 17:58:42","新北市八里區中山路二段306號","121.404695","25.1501816666667","6502300","八里區"
"248008","095-VK","2018/12/07 17:58:36","新北市五股區更洲路6號","121.458483333333","25.0786833333333","6501500","五股區"
"248002","678-BX","2018/12/07 17:54:35","新北市五股區中興路二段37巷26號","121.460561666667","25.074695","6501500","五股區"
"232011","375-UM","2018/12/07 17:58:30","新北市坪林區北宜路八段168號","121.707496666667","24.9344933333333","6502000","坪林區"
"244023","069-UM","2018/12/07 17:58:28","新北市林口區育林街30號","121.38588","25.0737066666667","6501700","林口區"
"244007","080-UY","2018/12/07 17:58:39","新北市林口區林口路188號","121.387501666667","25.0828366666667","6501700","林口區"
"244019","402-UM","2018/12/07 17:58:34","新北市林口區文化一路一段126號","121.375371666667","25.07256","6501700","林口區"
"244013","KEA-2802","2018/12/07 17:58:33","新北市林口區中山路59號","121.39411","25.0784183333333","6501700","林口區"
"244017","485-VK","2018/12/07 17:58:36","新北市林口區文化一路一段41號","121.370821666667","25.0694183333333","6501700","林口區"
"244009","656-BX","2018/12/07 17:58:35","新北市林口區佳林路56巷43號","121.385171666667","25.0807633333333","6501700","林口區"
"244011","701-TV","2018/12/07 17:58:41","新北市林口區中正路146號","121.392643333333","25.0773333333333","6501700","林口區"
"244025","837-TS","2018/12/07 17:58:44","新北市林口區三民路77-6號","121.359216666667","25.0690466666667","6501700","林口區"
"244021","838-TS","2018/12/07 17:58:42","新北市林口區自強六街26號","121.399461666667","25.0760683333333","6501700","林口區"
"222003","436-BY","2018/12/07 17:58:38","新北市深坑區炮子崙23號","121.60717","24.990905","6501800","深坑區"
"222002","659-BX","2018/12/07 17:58:35","新北市深坑區深坑街35號","121.615975","25.00181","6501800","深坑區"
"231046","107-UY","2018/12/07 17:58:45","新北市新店區直潭路113號","121.53205","24.9348066666667","6500600","新店區"
"241024","065-VK","2018/12/07 17:58:43","新北市三重區國道路一段45號","121.482798333333","25.0728966666667","6500200","三重區"
"241016","265-UM","2018/12/07 17:58:27","新北市三重區大同北路91號","121.494598333333","25.0636233333333","6500200","三重區"
"241007","398-BY","2018/12/07 17:40:51","新北市三重區車路頭街135-1號","121.484245","25.0761466666667","6500200","三重區"
"241033","557-UM","2018/12/07 17:33:00","新北市三重區興德路141巷11號","121.469676666667","25.0534","6500200","三重區"
"235064","005-UY","2018/12/07 17:58:36","新北市中和區員山路36巷16-3號","121.485188333333","24.9912816666667","6500300","中和區"
"235063","006-UY","2018/12/07 17:58:28","新北市中和區員山路36巷16-3號","121.485005","24.991285","6500300","中和區"
"235058","151-BY","2018/12/07 17:58:30","新北市中和區錦和路400號","121.491028333333","24.9898433333333","6500300","中和區"
"235038","185-VK","2018/12/07 17:58:30","新北市中和區錦和路216號","121.490453333333","24.9940783333333","6500300","中和區"
"235067","255-BX","2018/12/07 17:58:25","新北市中和區和城路一段271巷1號","121.485703333333","24.9917716666667","6500300","中和區"
"247012","KEA-2869","2018/12/07 17:58:44","新北市蘆洲區信義路302巷21號","121.478135","25.0884183333333","6501400","蘆洲區"
"247006","KED-0682","2018/12/07 17:58:28","新北市蘆洲區中華街41號","121.462938333333","25.0813116666667","6501400","蘆洲區"
"235070","558-UM","2018/12/07 17:58:30","新北市中和區錦和路350-1號","121.490358333333","24.99358","6500300","中和區"
"235054","640-BX","2018/12/07 17:58:38","新北市中和區員山路36巷16-4號","121.485328333333","24.99186","6500300","中和區"
"235026","800-TS","2018/12/07 17:58:39","新北市中和區中正路566號","121.486651666667","24.9945","6500300","中和區"
"235057","801-TS","2018/12/07 17:58:27","新北市中和區員山路36巷13號","121.484326666667","24.9907566666667","6500300","中和區"
"235052","805-TS","2018/12/07 17:58:41","新北市中和區員山路36巷16號","121.484455","24.99152","6500300","中和區"
"235051","157-BY","2018/12/07 17:58:06","新北市中和區員山路36巷16-2號","121.485316666667","24.991725","6500300","中和區"
"235037","AAC-213","2018/12/07 17:58:42","新北市中和區中正路545巷1號","121.487536666667","24.9936","6500300","中和區"
"247002","893-R6","2018/12/07 17:58:27","新北市蘆洲區永平街32巷57弄22號","121.45896","25.09327","6501400","蘆洲區"
"247016","546-UM","2018/12/07 17:58:26","新北市蘆洲區長興路50巷51號","121.465393333333","25.0851916666667","6501400","蘆洲區"
"247024","500-BY","2018/12/07 17:58:27","新北市蘆洲區光復路30巷20號","121.463885","25.084135","6501400","蘆洲區"
"247020","057-VK","2018/12/07 17:58:32","新北市蘆洲區民義街9巷18號","121.471055","25.089085","6501400","蘆洲區"
"247014","053-VK","2018/12/07 17:58:32","新北市蘆洲區三民路157-2號","121.470865","25.0866366666667","6501400","蘆洲區"
"247018","007-UY","2018/12/07 17:58:30","新北市蘆洲區復興路266號","121.480288333333","25.0896966666667","6501400","蘆洲區"
"226004","205-ST","2018/12/07 17:58:37","新北市平溪區石底里公園街18-3號","121.733393333333","25.0256966666667","6502400","平溪區"
"228002","663-BX","2018/12/07 17:58:40","新北市貢寮區福連里香蘭街2-1號","121.969368333333","25.0235916666667","6502600","貢寮區"
"228003","828-UM","2018/12/07 17:58:45","新北市貢寮區真理里美艷山街6-2號","121.928878333333","25.060685","6502600","貢寮區"
"224006","676-BX","2018/12/07 17:58:44","新北市瑞芳區大寮路356-1號","121.784753333333","25.1032033333333","6501200","瑞芳區"
"224008","285-BY","2018/12/07 17:58:43","新北市瑞芳區員山子路23號","121.821416666667","25.1029866666667","6501200","瑞芳區"
"224009","273-VK","2018/12/07 17:58:30","新北市瑞芳區金光路288號","121.851831666667","25.1067583333333","6501200","瑞芳區"
"224005","271-BY","2018/12/07 17:58:35","新北市瑞芳區深澳路133-1號","121.819898333333","25.132905","6501200","瑞芳區"
"253006","032-BX","2018/12/07 17:58:36","新北市石門區大丘田45-2號","121.549811666667","25.2748633333333","6502200","石門區"
"222001","KEA-2212","2018/12/07 17:58:33","新北市深坑區北深路三段34號","121.609076666667","25.00092","6501800","深坑區"
"208002","KEA-2872","2018/12/07 17:58:36","新北市金山區三界壇路34號","121.625273333333","25.228525","6502700","金山區"
"208003","665-BX","2018/12/07 17:58:31","新北市金山區磺港里磺港路306號","121.643876666667","25.227165","6502700","金山區"
"208001","761-BX","2018/12/07 17:58:40","新北市金山區磺港里社寮17號","121.638753333333","25.2274783333333","6502700","金山區"
"251004","009-UM","2018/12/07 17:58:39","新北市淡水區民權路20號","121.459821666667","25.1379516666667","6501000","淡水區"
"251005","010-UM","2018/12/07 17:58:34","新北市淡水區英專路116號","121.445923333333","25.1722","6501000","淡水區"
"251001","011-UM","2018/12/07 17:58:47","新北市淡水區民權路94巷1號","121.463111666667","25.1247983333333","6501000","淡水區"
"251002","012-UM","2018/12/07 17:58:41","新北市淡水區中正東路6號","121.447145","25.16715","6501000","淡水區"
"251008","181-VK","2018/12/07 17:58:43","新北市淡水區八勢一街32巷1號","121.461876666667","25.1557316666667","6501000","淡水區"
"251010","413-VK","2018/12/07 17:58:30","新北市淡水區中正路一段87巷1號","121.421763333333","25.1791566666667","6501000","淡水區"
"251012","441-VK","2018/12/07 17:58:30","新北市淡水區北新路三段38巷7號","121.484521666667","25.18701","6501000","淡水區"
"251007","442-VK","2018/12/07 17:58:31","新北市淡水區中正東路二段143巷2弄1號","121.460715","25.1472383333333","6501000","淡水區"
"251006","561-UM","2018/12/07 17:58:37","新北市淡水區真理街2號","121.438863333333","25.1730166666667","6501000","淡水區"
"251009","575-R6","2018/12/07 17:58:30","新北市淡水區中山路157號","121.440548333333","25.172685","6501000","淡水區"
"251011","650-BX","2018/12/07 17:58:26","新北市淡水區三空泉5號","121.476371666667","25.161235","6501000","淡水區"
"251003","673-BX","2018/12/07 17:58:25","新北市淡水區大忠街45號","121.444746666667","25.1762833333333","6501000","淡水區"
"207003","550-UM","2018/12/07 17:58:28","新北市萬里區港東路野柳風景區攤販55號","121.691516666667","25.2059116666667","6502800","萬里區"
"207004","225-TW","2018/12/07 17:58:28","新北市萬里區中幅里中福路48號","121.683496666667","25.174105","6502800","萬里區"
"252002","178-VK","2018/12/07 17:58:29","新北市三芝區中山路二段38號","121.502975","25.2551316666667","6502100","三芝區"
"252001","292-VK","2018/12/07 17:58:39","新北市三芝區中興街二段2號","121.49841","25.2566133333333","6502100","三芝區"
"237007","153-BY","2018/12/07 17:58:35","新北市三峽區中園街116號","121.367193333333","24.9226333333333","6500900","三峽區"
"237009","210-TH","2018/12/07 17:58:44","新北市三峽區大仁路34巷6弄1號","121.36595","24.9378783333333","6500900","三峽區"
"237013","252-BX","2018/12/07 17:58:40","新北市三峽區長泰街78巷16號","121.376706666667","24.9336166666667","6500900","三峽區"
"237012","275-BY","2018/12/07 17:58:34","新北市三峽區民生街8號","121.376196666667","24.936735","6500900","三峽區"
"237008","302-VK","2018/12/07 17:58:34","新北市三峽區正義街129號","121.36851","24.9167516666667","6500900","三峽區"
"237014","433-BY","2018/12/07 17:58:39","新北市三峽區文化路146巷14-4號","121.370363333333","24.93716","6500900","三峽區"
"237006","5529-G3","2018/12/07 17:58:36","新北市三峽區介壽路二段136巷83-9號","121.393585","24.9311733333333","6500900","三峽區"
"237011","KEA-2596","2018/12/07 17:58:35","新北市三峽區光明路53號","121.37529","24.9290016666667","6500900","三峽區"
"237015","649-BX","2018/12/07 17:58:32","新北市三峽區詩朗139號","121.40451","24.9103","6500900","三峽區"
"237010","706-TV","2018/12/07 17:58:38","新北市三峽區民權街200號","121.367756666667","24.92921","6500900","三峽區"
"237005","AKY-6261","2018/12/07 17:58:29","新北市三峽區復興路235號","121.368185","24.938765","6500900","三峽區"
"236069","105-UM","2018/12/07 17:58:42","新北市土城區城林路6巷80號","121.438481666667","24.9797483333333","6501300","土城區"
"236042","KED-0685","2018/12/07 17:58:42","新北市土城區城林路6巷80號","121.438661666667","24.97968","6501300","土城區"
"236079","166-UM","2018/12/07 17:58:36","新北市土城區永寧路18號","121.43046","24.963475","6501300","土城區"
"236030","253-BX","2018/12/07 17:58:47","新北市土城區城林路6巷80號","121.4388","24.97962","6501300","土城區"
"236026","269-VK","2018/12/07 17:58:40","新北市土城區中央路二段223號","121.440695","24.9736983333333","6501300","土城區"
"236014","270-VK","2018/12/07 17:58:37","新北市土城區城林路6巷80號","121.43858","24.9795966666667","6501300","土城區"
"236039","271-VK","2018/12/07 17:58:46","新北市土城區城林路6巷80號","121.438441666667","24.9797683333333","6501300","土城區"
"247008","KED-0683","2018/12/07 17:58:37","新北市蘆洲區中山二路320號","121.468341666667","25.0763433333333","6501400","蘆洲區"
"236020","401-BY","2018/12/07 17:58:43","新北市土城區城林路6巷80號","121.438553333333","24.979735","6501300","土城區"
"236059","912-UM","2018/12/07 17:58:42","新北市土城區永寧路1號","121.430461666667","24.964735","6501300","土城區"
"236048","913-UM","2018/12/07 17:58:27","新北市土城區城林路6巷80號","121.438681666667","24.979725","6501300","土城區"
"236063","915-UM","2018/12/07 17:58:36","新北市土城區城林路6巷80號","121.438588333333","24.97976","6501300","土城區"
"236055","AAC-216","2018/12/07 17:58:38","新北市土城區城林路6巷80號","121.438458333333","24.9795933333333","6501300","土城區"
"242037","AAC-296","2018/12/07 17:58:26","新北市新莊區建福路53號","121.426811666667","25.0275333333333","6500500","新莊區"
"242058","986-R7","2018/12/07 17:58:28","新北市新莊區新北大道七段239號","121.412971666667","25.0296616666667","6500500","新莊區"
"242056","751-BX","2018/12/07 17:58:40","新北市新莊區豐年街124巷12號","121.44577","25.0298616666667","6500500","新莊區"
"242027","615-BX","2018/12/07 17:58:39","新北市新莊區思源路473號","121.459796666667","25.0540833333333","6500500","新莊區"
"242025","613-BX","2018/12/07 17:58:37","新北市新莊區新北大道二段340號","121.463033333333","25.0609533333333","6500500","新莊區"
"242029","612-BX","2018/12/07 17:58:42","新北市新莊區中平路86號","121.444795","25.0450966666667","6500500","新莊區"
"242044","566-BX","2018/12/07 17:58:39","新北市新莊區天祥街2號","121.417271666667","25.026755","6500500","新莊區"
"242048","497-BY","2018/12/07 17:58:47","新北市新莊區後港二路10號","121.422748333333","25.02406","6500500","新莊區"
"242054","441-UM","2018/12/07 17:58:38","新北市新莊區光華街44號","121.428695","25.0115566666667","6500500","新莊區"
"242002","440-UM","2018/12/07 17:58:38","新北市新莊區新莊路2號","121.459321666667","25.038045","6500500","新莊區"
"242039","415-TV","2018/12/07 17:58:43","新北市新莊區民安西路15號","121.42679","25.0215116666667","6500500","新莊區"
"242009","413-TV","2018/12/07 17:58:38","新北市新莊區中華路二段260號","121.452626666667","25.0531833333333","6500500","新莊區"
"242046","400-BY","2018/12/07 17:58:47","新北市新莊區福營路165巷36號","121.43289","25.0297866666667","6500500","新莊區"
"242023","362-BY","2018/12/07 17:58:32","新北市新莊區幸福路565號","121.454251666667","25.04925","6500500","新莊區"
"242060","353-BY","2018/12/07 17:58:27","新北市新莊區新樹路359-1號","121.432943333333","25.018215","6500500","新莊區"
"242011","132-UY","2018/12/07 17:58:41","新北市新莊區中港路中慶巷25號","121.450138333333","25.0536966666667","6500500","新莊區"
"242034","135-UY","2018/12/07 17:58:40","新北市新莊區福海街12號","121.445333333333","25.0336516666667","6500500","新莊區"
"242050","172-VK","2018/12/07 17:58:47","新北市新莊區龍安路535號","121.427926666667","25.017585","6500500","新莊區"
"242013","173-VK","2018/12/07 17:58:33","新北市新莊區中和街125巷3號","121.447105","25.048545","6500500","新莊區"
"242019","175-VK","2018/12/07 17:58:31","新北市新莊區明中街51巷1號","121.456818333333","25.0396666666667","6500500","新莊區"
"242007","176-VK","2018/12/07 17:58:27","新北市新莊區自治街1號","121.453215","25.0479966666667","6500500","新莊區"
"242017","233-RS","2018/12/07 17:58:36","新北市新莊區中和街60巷15號","121.448575","25.0448233333333","6500500","新莊區"
"242032","348-TH","2018/12/07 17:58:40","新北市新莊區新泰路289巷47號","121.443515","25.0403383333333","6500500","新莊區"
"242005","349-TH","2018/12/07 17:58:30","新北市新莊區福樂街71巷6號","121.456656666667","25.0475083333333","6500500","新莊區"
"242021","350-TH","2018/12/07 17:58:30","新北市新莊區建興街39巷2號","121.450025","25.0369783333333","6500500","新莊區"
"242015","351-TH","2018/12/07 17:58:36","新北市新莊區中平路87巷3號","121.44434","25.0457766666667","6500500","新莊區"
"238015","755-BX","2018/12/07 17:58:29","新北市樹林區文德街2巷17號","121.419755","24.991795","6500700","樹林區"
"238023","601-UM","2018/12/07 17:58:45","新北市樹林區龍興街43號","121.403106666667","25.0155783333333","6500700","樹林區"
"238019","599-UM","2018/12/07 17:58:40","新北市樹林區太平路243號","121.41866","24.9756116666667","6500700","樹林區"
"238018","571-TV","2018/12/07 17:58:43","新北市樹林區樹新路13號","121.426603333333","24.993905","6500700","樹林區"
"238022","KEA-2213","2018/12/07 17:58:28","新北市樹林區太順街55號","121.417378333333","24.9789483333333","6500700","樹林區"
"238021","KEA-2539","2018/12/07 17:58:37","新北市樹林區柑園街一段309號","121.392545","24.95626","6500700","樹林區"
"238025","303-VK","2018/12/07 17:58:36","新北市樹林區三俊街6號","121.410933333333","25.015325","6500700","樹林區"
"238017","283-BY","2018/12/07 17:58:45","新北市樹林區三德街34-4號","121.415183333333","25.01312","6500700","樹林區"
"238014","282-BY","2018/12/07 17:58:42","新北市樹林區大安路179號","121.421253333333","24.99623","6500700","樹林區"
"238020","268-VK","2018/12/07 17:58:43","新北市樹林區三俊街201號","121.420098333333","25.0155333333333","6500700","樹林區"
"238026","172-UY","2018/12/07 17:58:26","新北市樹林區中洲街30巷13弄15號","121.398038333333","24.971935","6500700","樹林區"
"238016","169-UY","2018/12/07 17:58:35","新北市樹林區復興路308巷1弄2號","121.416521666667","24.987255","6500700","樹林區"
"239007","AAC-297","2018/12/07 17:58:46","新北市鶯歌區鶯桃路24號","121.341923333333","24.95216","6500800","鶯歌區"
"239006","891-R6","2018/12/07 17:58:40","新北市鶯歌區鶯桃路413巷34弄2號","121.331166666667","24.9636133333333","6500800","鶯歌區"
"239008","527-UM","2018/12/07 17:58:45","新北市鶯歌區國際一路108巷1號","121.335278333333","24.9770466666667","6500800","鶯歌區"
"239005","526-UM","2018/12/07 17:58:31","新北市鶯歌區鳳吉五街7號","121.326576666667","24.9723583333333","6500800","鶯歌區"
"239001","417-VK","2018/12/07 17:58:40","新北市鶯歌區中正三路215號","121.335271666667","24.9393083333333","6500800","鶯歌區"
"239003","360-BY","2018/12/07 17:58:35","新北市鶯歌區永吉街46巷57號","121.334156666667","24.957765","6500800","鶯歌區"
"239002","359-BY","2018/12/07 17:58:31","新北市鶯歌區育才街49號","121.348333333333","24.9549733333333","6500800","鶯歌區"
"239004","193-VK","2018/12/07 17:58:39","新北市鶯歌區尖山路101巷4弄1號","121.347833333333","24.9484583333333","6500800","鶯歌區"
"221008","489-VK","2018/12/07 17:58:27","新北市汐止區明峰街19號","121.634586666667","25.0713716666667","6501100","汐止區"
"221036","130-UY","2018/12/07 17:58:38","新北市汐止區大同路二段411號","121.65846","25.0671766666667","6501100","汐止區"
"221015","131-UY","2018/12/07 17:58:29","新北市汐止區長江街312號","121.666158333333","25.0814516666667","6501100","汐止區"
"221010","269-BY","2018/12/07 17:58:27","新北市汐止區汐萬路二段245巷31號","121.64424","25.087485","6501100","汐止區"
"221012","278-VK","2018/12/07 17:58:24","新北市汐止區長興街二段30號","121.673315","25.0813566666667","6501100","汐止區"
"221032","280-BY","2018/12/07 17:58:35","新北市汐止區民權街一段16號","121.621235","25.0530116666667","6501100","汐止區"
"221027","281-BY","2018/12/07 17:58:45","新北市汐止區大同路二段370號","121.657591666667","25.0671116666667","6501100","汐止區"
"221029","298-VK","2018/12/07 17:58:42","新北市汐止區樟樹二路329號","121.64144","25.0704266666667","6501100","汐止區"
"221021","299-VK","2018/12/07 17:58:38","新北市汐止區新興路23號","121.656683333333","25.06439","6501100","汐止區"
"221031","353-TW","2018/12/07 17:58:42","新北市汐止區中興路185-1號","121.630115","25.0668766666667","6501100","汐止區"
"221035","622-UM","2018/12/07 17:58:35","新北市汐止區新江北路30巷15號","121.652531666667","25.06958","6501100","汐止區"
"221025","623-UM","2018/12/07 17:58:39","新北市汐止區仁愛路10號","121.659331666667","25.06365","6501100","汐止區"
"221038","646-BX","2018/12/07 17:58:39","新北市汐止區連興街120號","121.653771666667","25.0624333333333","6501100","汐止區"
"221002","707-TV","2018/12/07 17:58:41","新北市汐止區工建路162號","121.63798","25.06341","6501100","汐止區"
"221018","753-BX","2018/12/07 17:58:30","新北市汐止區水源路一段3號","121.657236666667","25.0671916666667","6501100","汐止區"
"224002","257-TC","2018/12/07 17:58:33","新北市瑞芳區三爪子坑路32巷76號","121.8101","25.1059233333333","6501200","瑞芳區"
"242041","281-VK","2018/12/07 17:58:36","新北市新莊區中正路618號","121.423715","25.02935","6500500","新莊區"
"235061","KEA-2875","2018/12/07 17:58:47","新北市中和區中正路637巷60弄61號","121.48542","24.992865","6500300","中和區"
