"lineid","car","time","location","longitude","latitude","cityid","cityname"
"234046","148-BY","2018/12/07 18:48:39","新北市永和區永元路52巷50號","121.524415","25.00076","6500400","永和區"
"234007","207-UY","2018/12/07 18:48:39","新北市永和區文化路164號","121.512146666667","25.0153833333333","6500400","永和區"
"234038","336-UY","2018/12/07 18:48:39","新北市永和區成功路二段103號","121.526755","24.9989683333333","6500400","永和區"
"234064","337-UY","2018/12/07 18:48:41","新北市永和區福和路1號","121.526053333333","25.009505","6500400","永和區"
"234070","552-UM","2018/12/07 18:48:39","新北市永和區環河東路二段90號","121.524388333333","25.01067","6500400","永和區"
"234081","553-UM","2018/12/07 18:48:36","新北市永和區永利路75巷4號","121.521868333333","25.00407","6500400","永和區"
"234017","745-BX","2018/12/07 18:48:38","新北市永和區永和路二段299號","121.51604","25.0160966666667","6500400","永和區"
"234030","746-BX","2018/12/07 18:48:25","新北市永和區得和路321號","121.523361666667","24.99963","6500400","永和區"
"234054","KEA-2590","2018/12/07 18:48:43","新北市永和區竹林路155號","121.520528333333","25.0103416666667","6500400","永和區"
"234013","KEA-2591","2018/12/07 18:48:27","新北市永和區仁愛路202巷26號","121.508793333333","25.0129866666667","6500400","永和區"
"234061","AAD-866","2018/12/07 18:48:30","新北市永和區福和路309巷1號","121.516336666667","25.0070816666667","6500400","永和區"
"234086","748-BX","2018/12/07 18:48:37","新北市永和區中正路17號","121.514075","24.995795","6500400","永和區"
"234042","862-TW","2018/12/07 18:48:25","新北市永和區永貞路306號","121.511875","25.0048433333333","6500400","永和區"
"234050","863-TW","2018/12/07 18:45:08","新北市永和區福和路1號","121.526386666667","25.0098216666667","6500400","永和區"
"234026","9371-KE","2018/12/07 18:48:42","新北市永和區自由街47號","121.514","25.0059783333333","6500400","永和區"
"234011","9373-KE","2018/12/07 18:48:28","新北市永和區文化路124號","121.513041666667","25.0153566666667","6500400","永和區"
"249005","172-UM","2018/12/07 18:48:39","新北市八里區長道坑16-1號","121.39526","25.1169766666667","6502300","八里區"
"249001","173-UM","2018/12/07 18:48:38","新北市八里區龍米路二段16號","121.449018333333","25.13907","6502300","八里區"
"248014","025-BX","2018/12/07 18:48:27","新北市五股區民義路一段112-10號","121.435333333333","25.0852416666667","6501500","五股區"
"248016","026-BX","2018/12/07 18:48:44","新北市五股區凌雲路一段149巷42號","121.448583333333","25.1008866666667","6501500","五股區"
"248006","077-UY","2018/12/07 18:48:26","新北市五股區四維路42號","121.467273333333","25.0718016666667","6501500","五股區"
"248008","095-VK","2018/12/07 18:48:35","新北市五股區中興路一段151巷59號","121.465146666667","25.0716766666667","6501500","五股區"
"248018","225-UY","2018/12/07 18:48:31","新北市五股區民義路二段40號","121.417886666667","25.0982633333333","6501500","五股區"
"248012","247-BX","2018/12/07 18:48:35","新北市五股區成泰路二段147巷34-22號","121.436715","25.08951","6501500","五股區"
"248010","272-BY","2018/12/07 18:48:30","新北市五股區水碓九路35號","121.428763333333","25.0720066666667","6501500","五股區"
"248004","677-BX","2018/12/07 18:48:29","新北市五股區民義路二段22巷2號","121.420228333333","25.09684","6501500","五股區"
"248002","678-BX","2018/12/07 18:47:17","新北市五股區成泰路三段435巷11號","121.449366666667","25.0978233333333","6501500","五股區"
"234023","9380-KE","2018/12/07 18:48:23","新北市永和區竹林路119巷45號","121.521835","25.011885","6500400","永和區"
"234077","969-R7","2018/12/07 18:48:23","新北市永和區中正路2巷29弄13號","121.513676666667","24.9940283333333","6500400","永和區"
"234067","AAC-212","2018/12/07 18:48:23","新北市中和區永貞路221號","121.513716666667","25.0036083333333","6500400","永和區"
"234003","AAC-295","2018/12/07 18:48:33","新北市永和區中正路696-1號","121.516431666667","25.0098083333333","6500400","永和區"
"232011","375-UM","2018/12/07 18:48:35","新北市坪林區水聳淒坑20-2號","121.711353333333","24.93399","6502000","坪林區"
"244023","069-UM","2018/12/07 18:48:28","新北市林口區信義路128號","121.38037","25.07946","6501700","林口區"
"244007","080-UY","2018/12/07 18:48:39","新北市林口區太平里17-1號","121.377448333333","25.1152833333333","6501700","林口區"
"244019","402-UM","2018/12/07 18:48:34","新北市林口區麗園二街3巷1-2號","121.378113333333","25.069565","6501700","林口區"
"244013","KEA-2802","2018/12/07 18:48:33","新北市林口區麗園路2巷29號","121.375188333333","25.0706966666667","6501700","林口區"
"244017","485-VK","2018/12/07 18:48:36","新北市林口區文化二路一段20巷25弄9號","121.365373333333","25.0671766666667","6501700","林口區"
"244009","656-BX","2018/12/07 18:48:35","新北市林口區竹林路404號","121.390583333333","25.08436","6501700","林口區"
"244011","701-TV","2018/12/07 18:48:41","新北市林口區中正路57巷7弄2號","121.39526","25.076645","6501700","林口區"
"244025","837-TS","2018/12/07 18:48:44","新北市林口區南勢二街313號","121.359553333333","25.076535","6501700","林口區"
"243013","AAD-798","2018/12/07 18:31:58","新北市泰山區明志路三段206巷3號","121.423258333333","25.03794","6501600","泰山區"
"243016","KEA-2801","2018/12/07 18:48:28","新北市泰山區泰林路二段220號","121.432628333333","25.0618683333333","6501600","泰山區"
"243010","KEA-2216","2018/12/07 18:48:41","新北市泰山區明志路二段6號","121.430036666667","25.0539033333333","6501600","泰山區"
"243012","646-TV","2018/12/07 18:48:38","新北市泰山區福興三街11號","121.43453","25.057765","6501600","泰山區"
"222003","436-BY","2018/12/07 18:48:38","新北市深坑區深南路56號","121.619828333333","25.0091216666667","6501800","深坑區"
"222002","659-BX","2018/12/07 18:48:35","新北市深坑區文山路一段69號","121.62699","25.0018966666667","6501800","深坑區"
"231041","002-UM","2018/12/07 18:48:38","新北市新店區安華路28-1號","121.519673333333","24.96072","6500600","新店區"
"231059","046-UY","2018/12/07 18:48:31","新北市新店區安華路28-1號","121.519518333333","24.961","6500600","新店區"
"231040","047-UY","2018/12/07 18:48:31","新北市新店區環河路100號","121.536978333333","24.963955","6500600","新店區"
"231044","106-UY","2018/12/07 18:48:35","新北市新店區寶中路72號","121.547886666667","24.9806083333333","6500600","新店區"
"231046","107-UY","2018/12/07 18:48:26","新北市新店區直潭路25號","121.534478333333","24.9428866666667","6500600","新店區"
"231053","108-UY","2018/12/07 18:48:40","新北市新店區永興路102-4號","121.545273333333","24.9303383333333","6500600","新店區"
"231048","187-VK","2018/12/07 18:48:29","新北市新店區北新路一段89號","121.538448333333","24.9616383333333","6500600","新店區"
"231054","KEA-2219","2018/12/07 18:48:24","新北市新店區安康路一段222-1號","121.522778333333","24.963735","6500600","新店區"
"231042","268-BY","2018/12/07 18:48:22","新北市新店區安康路一段52巷2號","121.530058333333","24.961165","6500600","新店區"
"231051","278-BY","2018/12/07 18:48:29","新北市新店區百忍街90號","121.532468333333","24.9772966666667","6500600","新店區"
"231050","AAD-862","2018/12/07 18:48:44","新北市新店區安康路一段127號","121.528113333333","24.9618216666667","6500600","新店區"
"231060","355-BY","2018/12/07 18:48:24","新北市新店區安華路28-1號","121.519113333333","24.9609683333333","6500600","新店區"
"231058","3713-VJ","2018/12/07 18:48:39","新北市新店區北宜路一段97號","121.539343333333","24.95538","6500600","新店區"
"231066","4716-K9","2018/12/07 18:48:33","新北市新店區安一路一段1-1號","121.519231666667","24.9613166666667","6500600","新店區"
"231056","4715-K9","2018/12/07 18:48:36","新北市新店區大同街7號","121.539358333333","24.98005","6500600","新店區"
"231067","4772-VM","2018/12/07 18:48:25","新北市新店區安華路3號","121.519076666667","24.9604983333333","6500600","新店區"
"231065","512-UM","2018/12/07 18:48:37","新北市新店區安忠路57巷26弄74號","121.512331666667","24.9570566666667","6500600","新店區"
"231049","513-UM","2018/12/07 18:48:33","新北市新店區中央路179-1號","121.53555","24.9692333333333","6500600","新店區"
"231063","616-UM","2018/12/07 18:48:40","新北市新店區安華路1-1號","121.519408333333","24.9604383333333","6500600","新店區"
"231045","617-UM","2018/12/07 18:48:28","新北市新店區安一路一段1-1號","121.51935","24.9610833333333","6500600","新店區"
"231061","619-UM","2018/12/07 18:48:36","新北市新店區安華路28-1號","121.519551666667","24.9605133333333","6500600","新店區"
"231064","719-UM","2018/12/07 18:48:25","新北市新店區安一路一段1-1號","121.519343333333","24.96122","6500600","新店區"
"231062","720-UM","2018/12/07 18:48:26","新北市新店區安一路一段1-1號","121.519148333333","24.961305","6500600","新店區"
"231043","899-TW","2018/12/07 18:48:31","新北市新店區安一路一段1-1號","121.519646666667","24.9616866666667","6500600","新店區"
"231055","AKT-0513","2018/12/07 18:48:38","新北市新店區北新路一段271巷8號","121.540525","24.96676","6500600","新店區"
"241035","KEA-2210","2018/12/07 18:48:36","新北市三重區重新路四段121號","121.484583333333","25.0523116666667","6500200","三重區"
"235066","003-UY","2018/12/07 18:48:40","新北市中和區水源路7巷29號","121.50407","25.0039416666667","6500300","中和區"
"235064","005-UY","2018/12/07 18:48:36","新北市中和區連勝街22號","121.498601666667","24.9981883333333","6500300","中和區"
"235063","006-UY","2018/12/07 18:48:28","新北市中和區連城路319巷5弄1號","121.48923","24.9953866666667","6500300","中和區"
"235056","096-UM","2018/12/07 18:48:27","新北市中和區員山路611巷1號","121.477841666667","25.0112683333333","6500300","中和區"
"235039","097-UM","2018/12/07 18:48:40","新北市中和區安樂路217巷56號","121.513076666667","24.9976316666667","6500300","中和區"
"235058","151-BY","2018/12/07 18:48:30","新北市中和區連城路583巷1號","121.47877","24.9941783333333","6500300","中和區"
"235055","183-VK","2018/12/07 18:48:26","新北市中和區民生街85巷3弄1號","121.469106666667","25.004395","6500300","中和區"
"235038","185-VK","2018/12/07 18:48:30","新北市中和區大勇街50號","121.517521666667","24.9941583333333","6500300","中和區"
"235049","186-VK","2018/12/07 18:48:32","新北市中和區景安路132巷1號","121.504785","24.9943133333333","6500300","中和區"
"235067","255-BX","2018/12/07 18:48:25","新北市中和區中正路839巷3號","121.484481666667","25.0024016666667","6500300","中和區"
"235044","293-VK","2018/12/07 18:48:35","新北市中和區中興街133號","121.499986666667","24.9915033333333","6500300","中和區"
"235072","301-VK","2018/12/07 18:48:21","新北市中和區中山路二段146-3號","121.501703333333","25.0029483333333","6500300","中和區"
"235043","352-BY","2018/12/07 18:48:30","新北市中和區成功路137號","121.526278333333","24.9901283333333","6500300","中和區"
"235042","KEA-2878","2018/12/07 18:48:33","新北市中和區秀朗路三段135巷7弄7號","121.525673333333","24.9919216666667","6500300","中和區"
"247012","KEA-2869","2018/12/07 18:48:24","新北市八里區荖阡坑路34號","121.401878333333","25.129225","6501400","蘆洲區"
"235050","4979-A6","2018/12/07 18:48:34","新北市中和區景新街496巷32弄9號","121.513108333333","24.9852833333333","6500300","中和區"
"235041","551-UM","2018/12/07 18:48:39","新北市中和區中安街192號","121.511366666667","24.9992616666667","6500300","中和區"
"235070","558-UM","2018/12/07 18:48:30","新北市中和區中和路102號","121.50269","24.9998166666667","6500300","中和區"
"235045","565-BX","2018/12/07 18:48:31","新北市中和區興南路一段86號","121.509821666667","24.9894366666667","6500300","中和區"
"235054","640-BX","2018/12/07 18:48:38","新北市中和區民治街120號","121.475016666667","25.0033833333333","6500300","中和區"
"235060","647-TV","2018/12/07 18:48:42","新北市中和區中山路三段187號","121.472528333333","25.0063616666667","6500300","中和區"
"235047","732-UM","2018/12/07 18:48:23","新北市中和區興南路二段74巷8號","121.505256666667","24.9846616666667","6500300","中和區"
"235046","733-UM","2018/12/07 18:48:33","新北市中和區仁愛街36巷46號","121.511396666667","24.986195","6500300","中和區"
"235062","800-TS","2018/12/07 18:48:39","新北市中和區景平路703巷8-3號","121.495798333333","25.0034533333333","6500300","中和區"
"235057","801-TS","2018/12/07 18:48:27","新北市中和區民利街14巷3-3號","121.480653333333","24.9995166666667","6500300","中和區"
"235052","805-TS","2018/12/07 18:48:41","新北市中和區興南路二段399巷11號","121.498895","24.9791416666667","6500300","中和區"
"235048","896-TW","2018/12/07 18:48:37","新北市中和區華新街13號","121.507588333333","24.9851516666667","6500300","中和區"
"235053","900-TW","2018/12/07 18:48:39","新北市中和區民德路290巷11號","121.466818333333","24.9958716666667","6500300","中和區"
"235065","911-UM","2018/12/07 18:48:41","新北市中和區中山路二段2巷13弄33號","121.502806666667","25.0064083333333","6500300","中和區"
"235051","157-BY","2018/12/07 18:48:26","新北市中和區忠孝街106巷10號","121.512498333333","24.9844483333333","6500300","中和區"
"235037","AAC-213","2018/12/07 18:48:42","新北市中和區秀朗路三段173-2號","121.524391666667","24.9913033333333","6500300","中和區"
"235059","AAC-215","2018/12/07 18:48:32","新北市中和區圓通路385號","121.490216666667","24.9892316666667","6500300","中和區"
"220065","072-UY","2018/12/07 18:48:43","新北市板橋區館前東路154號","121.464746666667","25.008095","6500100","板橋區"
"220086","073-UY","2018/12/07 18:48:40","新北市板橋區大智街39號","121.454548333333","25.015215","6500100","板橋區"
"220106","075-UY","2018/12/07 18:48:39","新北市板橋區文化路二段124巷8號","121.470553333333","25.0259816666667","6500100","板橋區"
"220069","AAD-861","2018/12/07 18:48:35","新北市板橋區華興街73-1號","121.457073333333","25.0050733333333","6500100","板橋區"
"220016","120-SR","2018/12/07 18:41:51","新北市板橋區海山路23號","121.468395","25.008975","6500100","板橋區"
"226004","205-ST","2018/12/07 18:48:37","新北市平溪區平溪里三坑路49-1號","121.731583333333","25.032745","6502400","平溪區"
"228002","663-BX","2018/12/07 18:48:40","新北市貢寮區福隆里東興街6-11號","121.950751666667","25.0211033333333","6502600","貢寮區"
"228003","828-UM","2018/12/07 18:48:25","新北市貢寮區和美里龍洞街40號","121.91417","25.112195","6502600","貢寮區"
"224010","AGQ-8101","2018/12/07 18:44:21","新北市瑞芳區崙頂路1-5號","121.846716666667","25.106405","6501200","瑞芳區"
"224006","676-BX","2018/12/07 18:48:44","新北市瑞芳區中正路79號","121.805366666667","25.10762","6501200","瑞芳區"
"224008","285-BY","2018/12/07 18:48:43","新北市瑞芳區逢甲路323號","121.801095","25.1118133333333","6501200","瑞芳區"
"224007","275-VK","2018/12/07 18:48:43","新北市瑞芳區大埔路188-1號","121.761436666667","25.1011383333333","6501200","瑞芳區"
"224009","273-VK","2018/12/07 18:48:30","新北市瑞芳區祈堂路53-1號","121.859556666667","25.1104766666667","6501200","瑞芳區"
"224005","271-BY","2018/12/07 18:48:15","新北市瑞芳區海濱路157-2號","121.828553333333","25.1213283333333","6501200","瑞芳區"
"227003","642-TC","2018/12/07 18:48:44","新北市雙溪區平林里梅竹蹊28號","121.861628333333","25.0360283333333","6502500","雙溪區"
"227011","400-TW","2018/12/07 18:48:40","新北市雙溪區牡丹里聖南31-1號","121.855205","25.054675","6502500","雙溪區"
"253006","032-BX","2018/12/07 18:48:16","新北市石門區下員坑15號","121.511683333333","25.2845866666667","6502200","石門區"
"253005","295-VK","2018/12/07 18:48:29","新北市石門區中山路28-3號","121.565775","25.2899283333333","6502200","石門區"
"222001","KEA-2212","2018/12/07 18:48:33","新北市深坑區松柏街33號","121.638591666667","25.011355","6501800","深坑區"
"208002","KEA-2872","2018/12/07 18:48:35","新北市金山區信義路66號","121.63566","25.218965","6502700","金山區"
"208003","665-BX","2018/12/07 18:48:31","新北市金山區中山路339號","121.63502","25.224235","6502700","金山區"
"208001","761-BX","2018/12/07 18:48:30","新北市金山區文化三路66巷1號","121.634165","25.2255933333333","6502700","金山區"
"251004","009-UM","2018/12/07 18:48:19","新北市淡水區中正東路二段143巷8弄1號","121.46145","25.1476283333333","6501000","淡水區"
"251001","011-UM","2018/12/07 18:48:27","新北市淡水區自強路335號","121.463536666667","25.1324666666667","6501000","淡水區"
"251002","012-UM","2018/12/07 18:48:41","新北市淡水區學府路59號","121.448208333333","25.1694516666667","6501000","淡水區"
"251010","413-VK","2018/12/07 18:48:29","新北市淡水區沙崙路13號","121.421155","25.1813166666667","6501000","淡水區"
"251012","441-VK","2018/12/07 18:48:30","新北市淡水區新興街7號","121.443676666667","25.180385","6501000","淡水區"
"251009","575-R6","2018/12/07 18:48:30","新北市淡水區重建街158號","121.4406","25.1736966666667","6501000","淡水區"
"251011","650-BX","2018/12/07 18:48:25","新北市淡水區鄧公路19-1號","121.450288333333","25.17002","6501000","淡水區"
"251003","673-BX","2018/12/07 18:48:24","新北市淡水區中山北路一段186巷27弄5號","121.446058333333","25.1789516666667","6501000","淡水區"
"207003","550-UM","2018/12/07 18:48:28","新北市萬里區大鵬里頂社2-1號","121.65917","25.207835","6502800","萬里區"
"207004","225-TW","2018/12/07 18:48:28","新北市萬里區萬里里獅頭路23號","121.693243333333","25.178255","6502800","萬里區"
"252002","178-VK","2018/12/07 18:48:28","新北市三芝區中正路一段112號","121.50483","25.2563633333333","6502100","三芝區"
"252003","249-BX","2018/12/07 18:48:27","新北市三芝區後厝里大片頭106號","121.457993333333","25.24151","6502100","三芝區"
"252001","292-VK","2018/12/07 18:48:19","新北市三芝區中正路三段9號","121.502948333333","25.2539966666667","6502100","三芝區"
"237004","KEA-2597","2018/12/07 18:48:26","新北市三峽區有木206號","121.439078333333","24.8515033333333","6500900","三峽區"
"237007","153-BY","2018/12/07 18:48:35","新北市三峽區大埔路136號","121.367718333333","24.9038183333333","6500900","三峽區"
"237009","210-TH","2018/12/07 18:48:24","新北市三峽區文化路212-7號","121.368348333333","24.9359466666667","6500900","三峽區"
"237013","252-BX","2018/12/07 18:48:40","新北市三峽區光明路69巷24號","121.376568333333","24.929035","6500900","三峽區"
"237012","275-BY","2018/12/07 18:48:34","新北市樹林區佳園路三段546號","121.381156666667","24.9441916666667","6500900","三峽區"
"237008","302-VK","2018/12/07 18:48:35","新北市三峽區正義街1號","121.37004","24.9202516666667","6500900","三峽區"
"237014","433-BY","2018/12/07 18:48:39","新北市三峽區復興路480巷50-5號","121.360245","24.9403116666667","6500900","三峽區"
"237006","5529-G3","2018/12/07 18:48:36","新北市三峽區溪東路211巷45號","121.405866666667","24.9342","6500900","三峽區"
"237011","KEA-2596","2018/12/07 18:48:35","新北市三峽區介壽路三段118-2號","121.398541666667","24.9418283333333","6500900","三峽區"
"237015","649-BX","2018/12/07 18:48:32","新北市三峽區建安166-2號","121.467341666667","24.9118383333333","6500900","三峽區"
"237010","706-TV","2018/12/07 18:48:27","新北市三峽區復興路176-8號","121.37046","24.93848","6500900","三峽區"
"237005","AKY-6261","2018/12/07 18:48:29","新北市三峽區中山路459巷163-3號","121.348661666667","24.9329","6500900","三峽區"
"236069","105-UM","2018/12/07 18:48:42","新北市土城區永豐路139-1號","121.466901666667","24.9831583333333","6501300","土城區"
"236042","KED-0685","2018/12/07 18:48:22","新北市土城區裕民路92巷25弄1號","121.449653333333","24.9859033333333","6501300","土城區"
"236079","166-UM","2018/12/07 18:48:36","新北市土城區中央路四段67巷52號","121.418058333333","24.9569333333333","6501300","土城區"
"236030","253-BX","2018/12/07 18:48:34","新北市土城區忠義路36巷14號","121.439985","24.9696716666667","6501300","土城區"
"236026","269-VK","2018/12/07 18:48:41","新北市土城區慶安街80號","121.440711666667","24.9727533333333","6501300","土城區"
"236014","270-VK","2018/12/07 18:48:37","新北市土城區金城路二段366號","121.462436666667","24.9853066666667","6501300","土城區"
"236039","271-VK","2018/12/07 18:48:26","新北市土城區仁愛路38號","121.461548333333","24.97944","6501300","土城區"
"236020","401-BY","2018/12/07 18:48:33","新北市土城區延安街5號","121.467333333333","24.986045","6501300","土城區"
"236059","912-UM","2018/12/07 18:48:22","新北市土城區金城路一段86號","121.44496","24.973565","6501300","土城區"
"236048","913-UM","2018/12/07 18:48:34","新北市土城區青雲路44號","121.45989","24.98809","6501300","土城區"
"236063","915-UM","2018/12/07 18:48:36","新北市土城區延和路252號","121.469895","24.989605","6501300","土城區"
"236055","AAC-216","2018/12/07 18:48:38","新北市土城區裕民路159號","121.452331666667","24.9857716666667","6501300","土城區"
"242005","349-TH","2018/12/07 18:48:30","新北市新莊區三和路12-21號","121.442306666667","25.0382616666667","6500500","新莊區"
"238023","601-UM","2018/12/07 18:48:25","新北市樹林區工興街14巷2號","121.398975","25.0135616666667","6500700","樹林區"
"238019","599-UM","2018/12/07 18:48:25","新北市樹林區中華路190-16號","121.411646666667","24.9805916666667","6500700","樹林區"
"238018","571-TV","2018/12/07 18:48:23","新北市樹林區太平路1-11號","121.418736666667","24.9843766666667","6500700","樹林區"
"238024","5061-A6","2018/12/07 18:48:29","新北市樹林區太平路248號","121.41813","24.9734916666667","6500700","樹林區"
"238022","KEA-2213","2018/12/07 18:48:28","新北市樹林區東大街1-5號","121.413206666667","24.9764933333333","6500700","樹林區"
"238025","303-VK","2018/12/07 18:48:36","新北市樹林區中山路三段22號","121.395568333333","24.9729266666667","6500700","樹林區"
"238017","283-BY","2018/12/07 18:48:28","新北市樹林區光興街50號","121.409856666667","25.0027383333333","6500700","樹林區"
"238014","282-BY","2018/12/07 18:48:42","新北市樹林區大安路111巷41號","121.423261666667","24.99755","6500700","樹林區"
"238020","268-VK","2018/12/07 18:48:23","新北市樹林區俊英街282號","121.423735","25.0133083333333","6500700","樹林區"
"238026","172-UY","2018/12/07 18:48:26","新北市樹林區中山路三段182號","121.387811666667","24.9693033333333","6500700","樹林區"
"239007","AAC-297","2018/12/07 18:48:26","新北市鶯歌區中正一路411號","121.359886666667","24.957045","6500800","鶯歌區"
"239006","891-R6","2018/12/07 18:48:40","新北市鶯歌區鶯桃路296巷53號","121.335883333333","24.9613366666667","6500800","鶯歌區"
"239008","527-UM","2018/12/07 18:48:25","新北市鶯歌區國際一路120巷1號","121.336806666667","24.9757633333333","6500800","鶯歌區"
"239005","526-UM","2018/12/07 18:48:31","新北市鶯歌區大湖路361巷26號","121.330448333333","24.9779266666667","6500800","鶯歌區"
"239001","417-VK","2018/12/07 18:48:40","新北市鶯歌區鶯桃路97巷1-1號","121.338615","24.9543016666667","6500800","鶯歌區"
"239003","360-BY","2018/12/07 18:48:35","新北市鶯歌區鶯桃路658巷39號","121.329995","24.9697866666667","6500800","鶯歌區"
"239002","359-BY","2018/12/07 18:48:31","新北市鶯歌區中山路51號","121.351636666667","24.957055","6500800","鶯歌區"
"239004","193-VK","2018/12/07 18:48:39","新北市鶯歌區中正三路335巷12號","121.328415","24.935035","6500800","鶯歌區"
"221008","489-VK","2018/12/07 18:48:27","新北市汐止區康寧街901號","121.651445","25.07507","6501100","汐止區"
"221036","130-UY","2018/12/07 18:48:38","新北市汐止區忠孝東路314巷13號","121.664503333333","25.0687216666667","6501100","汐止區"
"221015","131-UY","2018/12/07 18:48:29","新北市汐止區鄉長路一段55巷22號","121.664766666667","25.0763633333333","6501100","汐止區"
"221010","269-BY","2018/12/07 18:48:27","新北市汐止區康寧街901號","121.651465","25.0750816666667","6501100","汐止區"
"221012","278-VK","2018/12/07 18:48:24","新北市汐止區汐萬路一段256巷1號","121.65185","25.0748583333333","6501100","汐止區"
"221032","280-BY","2018/12/07 18:48:35","新北市汐止區橫科路121巷52弄3號","121.622655","25.050955","6501100","汐止區"
"221027","281-BY","2018/12/07 18:48:25","新北市汐止區康寧街901號","121.651436666667","25.0750416666667","6501100","汐止區"
"221029","298-VK","2018/12/07 18:48:22","新北市汐止區樟樹一路93號","121.642278333333","25.0632483333333","6501100","汐止區"
"221021","299-VK","2018/12/07 18:48:37","新北市汐止區新江北路3號","121.652793333333","25.070765","6501100","汐止區"
"221031","353-TW","2018/12/07 18:48:42","新北市汐止區福德一路300巷27號","121.630563333333","25.0642366666667","6501100","汐止區"
"221035","622-UM","2018/12/07 18:48:39","新北市汐止區大同路二段240-1號","121.653998333333","25.0655866666667","6501100","汐止區"
"221025","623-UM","2018/12/07 18:48:39","新北市汐止區仁愛路71號","121.66092","25.0628616666667","6501100","汐止區"
"221038","646-BX","2018/12/07 18:48:39","新北市汐止區汐萬路一段312號","121.650686666667","25.075385","6501100","汐止區"
"221002","707-TV","2018/12/07 18:48:41","新北市汐止區大同路一段149號","121.632043333333","25.0560666666667","6501100","汐止區"
"221018","753-BX","2018/12/07 18:48:30","新北市汐止區茄苳路66號","121.666583333333","25.070675","6501100","汐止區"
"220079","145-BY","2018/12/07 18:48:28","新北市板橋區南雅西路二段192巷3號","121.452103333333","25.0144866666667","6500100","板橋區"
"220080","200-UY","2018/12/07 18:48:32","新北市板橋區大觀路二段365巷12號","121.441166666667","24.9978583333333","6500100","板橋區"
"220082","610-BX","2018/12/07 18:48:24","新北市板橋區篤行路三段玉平巷55號","121.428593333333","24.986535","6500100","板橋區"
"220101","245-BX","2018/12/07 18:48:41","新北市板橋區文化路二段182巷5弄1號","121.471638333333","25.027115","6500100","板橋區"
"224002","257-TC","2018/12/07 18:48:33","新北市瑞芳區靜安路四段10號","121.797361666667","25.0860266666667","6501200","瑞芳區"
"220056","276-BY","2018/12/07 18:48:41","新北市板橋區四川路一段246號","121.459146666667","25.0015083333333","6500100","板橋區"
"220072","277-BY","2018/12/07 18:48:44","新北市板橋區大觀路三段59巷14號","121.433993333333","24.9949433333333","6500100","板橋區"
"220071","283-VK","2018/12/07 18:48:28","新北市板橋區四川路一段126號","121.459846666667","25.0041166666667","6500100","板橋區"
"220094","285-UM","2018/12/07 18:48:30","新北市板橋區文化路二段76號","121.469533333333","25.0249433333333","6500100","板橋區"
"220053","285-VK","2018/12/07 18:48:36","新北市板橋區永豐街55巷12弄18號","121.472698333333","25.0183533333333","6500100","板橋區"
"220083","286-VK","2018/12/07 18:48:34","新北市板橋區大觀路二段22巷37號","121.444626666667","25.00375","6500100","板橋區"
"220081","287-VK","2018/12/07 18:48:26","新北市板橋區大觀路一段1-1號","121.451108333333","25.008515","6500100","板橋區"
"220090","288-VK","2018/12/07 18:48:36","新北市板橋區四維路126號","121.465341666667","25.0251283333333","6500100","板橋區"
"220061","293-UM","2018/12/07 18:48:28","新北市板橋區富山街109巷63弄29號","121.475321666667","25.020555","6500100","板橋區"
"220084","296-UM","2018/12/07 18:48:42","新北市板橋區大觀路二段150巷57號","121.441563333333","25.0001233333333","6500100","板橋區"
"220092","299-UM","2018/12/07 18:48:30","新北市板橋區文化路一段104巷10號","121.465155","25.017785","6500100","板橋區"
"220075","303-R5","2018/12/07 18:48:40","新北市板橋區南雅東路100巷14號","121.454245","25.0072366666667","6500100","板橋區"
"220062","305-R5","2018/12/07 18:48:40","新北市板橋區中山路二段25號","121.472473333333","25.0152216666667","6500100","板橋區"
"220098","317-R6","2018/12/07 18:48:29","新北市板橋區民生路二段226巷8弄1號","121.470416666667","25.0217483333333","6500100","板橋區"
"220089","487-VK","2018/12/07 18:48:32","新北市板橋區文化路二段318號","121.472375","25.0298916666667","6500100","板橋區"
"220088","491-VK","2018/12/07 18:48:35","新北市板橋區民生路二段206號","121.469578333333","25.0210933333333","6500100","板橋區"
"220035","560-BX","2018/12/07 18:48:27","新北市板橋區中正路275巷62弄4-3號","121.453055","25.0180916666667","6500100","板橋區"
"220103","561-BX","2018/12/07 18:48:31","新北市板橋區文化路一段188巷11弄70號","121.469405","25.0191366666667","6500100","板橋區"
"220063","609-BX","2018/12/07 18:48:30","新北市板橋區民生路一段36-1號","121.474638333333","25.0143333333333","6500100","板橋區"
"220091","637-BX","2018/12/07 18:48:40","新北市板橋區莒光路167-4號","121.474173333333","25.0236666666667","6500100","板橋區"
"220057","686-BX","2018/12/07 18:48:43","新北市板橋區館前西路52號","121.458393333333","25.0070066666667","6500100","板橋區"
"220025","687-BX","2018/12/07 18:48:30","新北市板橋區大觀路二段375巷13號","121.440998333333","24.9977366666667","6500100","板橋區"
"220093","689-BX","2018/12/07 18:48:34","新北市板橋區民生路三段66號","121.466943333333","25.0255916666667","6500100","板橋區"
"220054","741-BX","2018/12/07 18:48:29","新北市板橋區後埔街29號","121.460558333333","25.0064116666667","6500100","板橋區"
"220102","KEA-2699","2018/12/07 18:48:27","新北市板橋區懷德街235巷2-1號","121.481398333333","25.0280233333333","6500100","板橋區"
"220055","827-TW","2018/12/07 18:48:33","新北市板橋區忠孝路110-1號","121.462331666667","25.002145","6500100","板橋區"
"220068","830-TW","2018/12/07 18:48:33","新北市板橋區大同街35巷9號","121.47761","25.02761","6500100","板橋區"
"220067","831-TW","2018/12/07 18:48:36","新北市板橋區中山路二段90巷47弄16號","121.477393333333","25.0148433333333","6500100","板橋區"
"220074","895-R6","2018/12/07 18:48:43","新北市板橋區林園街59號","121.453663333333","25.0103083333333","6500100","板橋區"
"220073","985-R7","2018/12/07 18:48:37","新北市板橋區館前西路21號","121.458675","25.006755","6500100","板橋區"
"220097","AAC-210","2018/12/07 18:48:29","新北市板橋區四維路133號","121.465105","25.02528","6500100","板橋區"
"220064","AAC-253","2018/12/07 18:48:40","新北市板橋區中山路二段17號","121.472211666667","25.015015","6500100","板橋區"
"235068","KEA-2873","2018/12/07 18:48:15","新北市中和區中正路211巷13弄34號","121.49756","24.9932766666667","6500300","中和區"
"235061","KEA-2875","2018/12/07 18:48:32","新北市中和區民治街21巷1號","121.475376666667","25.0024183333333","6500300","中和區"
