"lineid","car","time","location","longitude","latitude","cityid","cityname"
"231059","046-UY","2018/12/07 21:18:51","新北市新店區薏仁坑路自強巷6號","121.496676666667","24.95846","6500600","新店區"
"231040","047-UY","2018/12/07 21:18:35","新北市新店區北新路一段235號","121.540643333333","24.965685","6500600","新店區"
"231048","187-VK","2018/12/07 21:18:48","新北市新店區中央路26號","121.532521666667","24.9791216666667","6500600","新店區"
"231054","KEA-2219","2018/12/07 21:18:44","新北市新店區環河路113-1號","121.531056666667","24.9711783333333","6500600","新店區"
"231051","278-BY","2018/12/07 21:18:28","新北市新店區中正路700巷82號","121.535938333333","24.993245","6500600","新店區"
"231050","AAD-862","2018/12/07 21:18:48","新北市新店區中正路189巷4號","121.540401666667","24.972025","6500600","新店區"
"231063","616-UM","2018/12/07 21:18:40","新北市新店區吉祥街13巷1號","121.497743333333","24.9460516666667","6500600","新店區"
"231061","619-UM","2018/12/07 21:18:46","新北市新店區永平街2號","121.517536666667","24.9835266666667","6500600","新店區"
"241011","013-R5","2018/12/07 21:18:36","新北市三重區河邊北街100巷35號","121.502343333333","25.0702","6500200","三重區"
"241028","022-UY","2018/12/07 21:18:36","新北市三重區正義南路169號","121.498975","25.0575","6500200","三重區"
"241008","059-VK","2018/12/07 21:18:39","新北市三重區自強路一段62號","121.497271666667","25.0666716666667","6500200","三重區"
"241022","060-VK","2018/12/07 21:18:44","新北市三重區新北大道一段7號","121.489633333333","25.0612266666667","6500200","三重區"
"241031","061-VK","2018/12/07 21:18:32","新北市三重區五谷王南街46巷37號","121.475721666667","25.0455316666667","6500200","三重區"
"241024","065-VK","2018/12/07 21:18:42","新北市三重區中正北路145巷14號","121.484106666667","25.0677883333333","6500200","三重區"
"241002","090-VK","2018/12/07 21:18:36","新北市三重區五華街58號","121.494216666667","25.0812433333333","6500200","三重區"
"241003","091-VK","2018/12/07 21:18:38","新北市三重區仁義街317號","121.495363333333","25.0841883333333","6500200","三重區"
"241005","262-UM","2018/12/07 21:18:33","新北市三重區五華街180巷19號","121.488145","25.0859116666667","6500200","三重區"
"241016","265-UM","2018/12/07 21:18:40","新北市三重區自強路一段95號","121.495875","25.0662983333333","6500200","三重區"
"241009","267-UM","2018/12/07 21:18:33","新北市三重區忠孝路三段84巷47號","121.481365","25.06428","6500200","三重區"
"241018","268-UM","2018/12/07 21:18:47","新北市三重區忠孝路二段70號","121.484501666667","25.0701116666667","6500200","三重區"
"241032","269-UM","2018/12/07 21:18:43","新北市三重區光復路二段146-2號","121.472","25.0597816666667","6500200","三重區"
"241013","270-UM","2018/12/07 21:18:37","新北市三重區仁愛街83號","121.495911666667","25.07322","6500200","三重區"
"241025","271-UM","2018/12/07 21:18:49","新北市三重區中正北路208巷11號","121.482185","25.066975","6500200","三重區"
"241007","398-BY","2018/12/07 21:18:49","新北市三重區正義北路358號","121.494013333333","25.0712016666667","6500200","三重區"
"241004","475-VK","2018/12/07 21:18:35","新北市三重區分子尾街45號","121.489236666667","25.0821316666667","6500200","三重區"
"241030","480-VK","2018/12/07 21:18:33","新北市三重區五谷王北街181-2號","121.476435","25.0537533333333","6500200","三重區"
"241014","543-UM","2018/12/07 21:18:32","新北市三重區萬全街9號","121.499331666667","25.0697166666667","6500200","三重區"
"241023","545-UM","2018/12/07 21:18:35","新北市三重區中正北路176巷27號","121.482643333333","25.06594","6500200","三重區"
"241001","547-UM","2018/12/07 21:18:45","新北市三重區仁愛街306號","121.492053333333","25.0795933333333","6500200","三重區"
"241019","KEA-2593","2018/12/07 21:18:42","新北市三重區自強路二段20-1號","121.489735","25.0691933333333","6500200","三重區"
"241026","743-BX","2018/12/07 21:12:13","新北市三重區同安東街98號","121.499521666667","25.0571566666667","6500200","三重區"
"241006","887-TS","2018/12/07 21:18:47","新北市三重區新北大道一段66號","121.48724","25.0614516666667","6500200","三重區"
"247012","KEA-2869","2018/12/07 21:18:33","新北市蘆洲區集賢路224巷56號","121.480973333333","25.0878516666667","6501400","蘆洲區"
"247006","KED-0682","2018/12/07 21:18:37","新北市蘆洲區長安街62號","121.462873333333","25.079935","6501400","蘆洲區"
"220016","120-SR","2018/12/07 21:18:49","新北市板橋區新府路1-9號","121.463931666667","25.0125616666667","6500100","板橋區"
"247002","893-R6","2018/12/07 21:18:46","新北市蘆洲區永樂街90號","121.45672","25.0886033333333","6501400","蘆洲區"
"247024","500-BY","2018/12/07 21:18:30","新北市蘆洲區光明路98號","121.463141666667","25.088","6501400","蘆洲區"
"247004","336-TH","2018/12/07 21:18:48","新北市蘆洲區永安南路二段312號","121.45698","25.0826033333333","6501400","蘆洲區"
"247020","057-VK","2018/12/07 21:18:43","新北市蘆洲區民族路422巷84-1號","121.473596666667","25.0937966666667","6501400","蘆洲區"
"247010","056-VK","2018/12/07 21:18:46","新北市蘆洲區鷺江街23號","121.478926666667","25.0824366666667","6501400","蘆洲區"
"247014","053-VK","2018/12/07 21:18:41","新北市蘆洲區保和街50-5號","121.469758333333","25.0862216666667","6501400","蘆洲區"
"247018","007-UY","2018/12/07 21:18:50","新北市蘆洲區復興路88號","121.47548","25.0868216666667","6501400","蘆洲區"
"247022","001-UY","2018/12/07 21:18:39","新北市蘆洲區民族路528-1號","121.46885","25.08983","6501400","蘆洲區"
"251005","010-UM","2018/12/07 21:18:34","新北市淡水區水源街一段122巷39號","121.4471","25.1703433333333","6501000","淡水區"
"251001","011-UM","2018/12/07 21:18:46","新北市淡水區濱海路一段306巷9弄1號","121.440763333333","25.1904666666667","6501000","淡水區"
"251008","181-VK","2018/12/07 21:18:32","新北市淡水區水源街二段203號","121.45744","25.176235","6501000","淡水區"
"251010","413-VK","2018/12/07 21:18:29","新北市淡水區中正路一段156巷12號","121.421851666667","25.18084","6501000","淡水區"
"251012","441-VK","2018/12/07 21:18:50","新北市淡水區淡金路五段35巷46號","121.45247","25.2347483333333","6501000","淡水區"
"251007","442-VK","2018/12/07 21:18:31","新北市淡水區水源街二段194號","121.456991666667","25.17612","6501000","淡水區"
"251006","561-UM","2018/12/07 21:18:37","新北市淡水區中正路一段57號","121.424201666667","25.177675","6501000","淡水區"
"251009","575-R6","2018/12/07 21:18:46","新北市淡水區民族路112巷3號","121.462568333333","25.1351983333333","6501000","淡水區"
"251011","650-BX","2018/12/07 21:18:46","新北市淡水區新民街152巷6弄22號","121.43883","25.1787866666667","6501000","淡水區"
"251003","673-BX","2018/12/07 21:18:44","新北市淡水區崁頂15-5號","121.438968333333","25.1858683333333","6501000","淡水區"
"247008","KED-0683","2018/12/07 21:18:41","新北市蘆洲區民生街24號","121.4751","25.0789316666667","6501400","蘆洲區"
"242054","441-UM","2018/12/07 21:18:20","新北市林口區太平里180號","121.366513333333","25.134305","6500500","新莊區"
"242011","132-UY","2018/12/07 21:17:03","新北市林口區太平里180號","121.367368333333","25.1336833333333","6500500","新莊區"
"220064","AAC-253","2018/12/07 21:18:39","新北市五股區凌雲路三段24巷10號","121.436008333333","25.1069116666667","6500100","板橋區"
