"lineid","car","time","location","longitude","latitude","cityid","cityname"
"231048","187-VK","2018/12/07 21:28:48","新北市新店區薏仁坑路2-4號","121.501795","24.9588083333333","6500600","新店區"
"231063","616-UM","2018/12/07 21:28:40","新北市新店區如意街45號","121.493283333333","24.9482166666667","6500600","新店區"
"241011","013-R5","2018/12/07 21:28:36","新北市三重區龍濱路190號","121.501083333333","25.0732983333333","6500200","三重區"
"241028","022-UY","2018/12/07 21:28:36","新北市三重區新北大道一段160號","121.483928333333","25.061525","6500200","三重區"
"241024","065-VK","2018/12/07 21:28:42","新北市三重區中正北路115巷6號","121.4841","25.0677366666667","6500200","三重區"
"241003","091-VK","2018/12/07 21:28:38","新北市三重區集賢路87-1號","121.493621666667","25.0868283333333","6500200","三重區"
"241005","262-UM","2018/12/07 21:28:33","新北市三重區仁華街85號","121.485663333333","25.0829283333333","6500200","三重區"
"241016","265-UM","2018/12/07 21:28:40","新北市三重區自強路一段79號","121.496251666667","25.0664","6500200","三重區"
"241007","398-BY","2018/12/07 21:28:49","新北市三重區正義北路128號","121.496765","25.06567","6500200","三重區"
"241026","743-BX","2018/12/07 21:28:34","新北市三重區新北大道一段7號","121.489958333333","25.0612","6500200","三重區"
"247012","KEA-2869","2018/12/07 21:28:33","新北市蘆洲區中正路520巷9號","121.462351666667","25.0994633333333","6501400","蘆洲區"
"220016","120-SR","2018/12/07 21:27:04","新北市板橋區民族路219巷75號","121.468705","25.00917","6500100","板橋區"
"247002","893-R6","2018/12/07 21:27:26","新北市五股區中直路15-2號","121.423576666667","25.1109733333333","6501400","蘆洲區"
"251004","009-UM","2018/12/07 21:28:45","新北市淡水區民族路2號","121.460315","25.136945","6501000","淡水區"
"251005","010-UM","2018/12/07 21:28:34","新北市淡水區水源街一段34巷8號","121.443143333333","25.1718266666667","6501000","淡水區"
"251001","011-UM","2018/12/07 21:28:46","新北市淡水區濱海路三段148巷50弄76號","121.43144","25.1906133333333","6501000","淡水區"
"251008","181-VK","2018/12/07 21:28:32","新北市淡水區水源街二段90號","121.451853333333","25.1743783333333","6501000","淡水區"
"251010","413-VK","2018/12/07 21:28:49","新北市淡水區沙崙路25巷21號","121.420566666667","25.18255","6501000","淡水區"
"251012","441-VK","2018/12/07 21:28:29","新北市淡水區石頭埔8號","121.452505","25.23471","6501000","淡水區"
"251007","442-VK","2018/12/07 21:28:51","新北市淡水區水源街二段194號","121.456951666667","25.1760983333333","6501000","淡水區"
"251006","561-UM","2018/12/07 21:28:37","新北市淡水區公明街45號","121.443326666667","25.1688366666667","6501000","淡水區"
"251009","575-R6","2018/12/07 21:28:37","新北市淡水區民族路65巷60號","121.463696666667","25.1359283333333","6501000","淡水區"
"251011","650-BX","2018/12/07 21:28:46","新北市淡水區新民街166號","121.436823333333","25.1785183333333","6501000","淡水區"
"251003","673-BX","2018/12/07 21:28:44","新北市淡水區崁頂15-5號","121.43901","25.18584","6501000","淡水區"
"247008","KED-0683","2018/12/07 21:28:41","新北市五股區四維路185巷6-2號","121.46695","25.07684","6501400","蘆洲區"
"242011","132-UY","2018/12/07 21:28:43","新北市八里區中山路三段409號","121.368713333333","25.1345716666667","6500500","新莊區"
"220064","AAC-253","2018/12/07 21:28:38","新北市五股區新五路二段279號","121.44278","25.0862033333333","6500100","板橋區"
