"lineid","car","time","location","longitude","latitude","cityid","cityname"
"234040","862-TW","2018/12/07 22:18:45","新北市永和區福和路1號","121.526213333333","25.009805","6500400","永和區"
"220016","120-SR","2018/12/07 22:02:57","新北市板橋區民族路219巷75號","121.46882","25.0089283333333","6500100","板橋區"
"251004","009-UM","2018/12/07 22:18:45","新北市淡水區民族路33號","121.462321666667","25.13579","6501000","淡水區"
"251008","181-VK","2018/12/07 22:18:32","新北市淡水區學府路104號","121.44984","25.171805","6501000","淡水區"
"251010","413-VK","2018/12/07 22:18:49","新北市淡水區沙崙路200號","121.424676666667","25.1839466666667","6501000","淡水區"
"251007","442-VK","2018/12/07 22:18:51","新北市淡水區北新路180號","121.449413333333","25.178805","6501000","淡水區"
"251011","650-BX","2018/12/07 22:18:45","新北市淡水區水碓街7號","121.44317","25.1771733333333","6501000","淡水區"
