"lineid","car","time","location","longitude","latitude","cityid","cityname"
"234040","862-TW","2018/12/07 22:28:45","新北市永和區福和路1號","121.526185","25.0097933333333","6500400","永和區"
"220016","120-SR","2018/12/07 22:02:57","新北市板橋區民族路219巷75號","121.46882","25.0089283333333","6500100","板橋區"
"251004","009-UM","2018/12/07 22:28:45","新北市淡水區民族路110巷12弄3號","121.462028333333","25.1357133333333","6501000","淡水區"
"251008","181-VK","2018/12/07 22:28:32","新北市淡水區學府路104號","121.44984","25.171815","6501000","淡水區"
"251010","413-VK","2018/12/07 22:28:49","新北市淡水區沙崙路200號","121.424655","25.1839683333333","6501000","淡水區"
"251007","442-VK","2018/12/07 22:28:31","新北市淡水區北新路180號","121.449418333333","25.1788083333333","6501000","淡水區"
"251011","650-BX","2018/12/07 22:28:45","新北市淡水區水碓街7號","121.443158333333","25.1771983333333","6501000","淡水區"
