"lineid","car","time","location","longitude","latitude","cityid","cityname"
"232004","290-BY","2018/12/08 06:39:55","新北市坪林區北宜路八段558號","121.71796","24.909255","6502000","坪林區"
"232016","291-BY","2018/12/08 06:39:43","新北市坪林區北宜路八段558號","121.717951666667","24.9092266666667","6502000","坪林區"
"232010","375-UM","2018/12/08 06:39:46","新北市坪林區北宜路八段438號","121.707483333333","24.9242983333333","6502000","坪林區"
"232009","758-BX","2018/12/08 06:39:56","新北市坪林區北宜路八段558號","121.717933333333","24.909165","6502000","坪林區"
"235001","611-BX","2018/12/08 06:39:53","新北市中和區圓通路335巷37弄15號","121.494726666667","24.9888283333333","6500300","中和區"
"223006","022-BY","2018/12/08 06:39:53","新北市石碇區碇坪路一段180號","121.666873333333","24.9857033333333","6501900","石碇區"
"223002","KEA-2673","2018/12/08 06:39:57","新北市石碇區碇坪路一段109號","121.664046666667","24.98845","6501900","石碇區"
"223003","205-TH","2018/12/08 06:39:41","新北市石碇區碇坪路一段160號","121.665226666667","24.9872466666667","6501900","石碇區"
"223008","406-TH","2018/12/08 06:39:51","新北市石碇區下橫坪15號","121.668858333333","24.98372","6501900","石碇區"
"223001","592-UM","2018/12/08 06:39:51","新北市石碇區碇坪路一段109號","121.664083333333","24.9886066666667","6501900","石碇區"
"223007","661-BX","2018/12/08 06:39:46","新北市石碇區雙溪67號","121.654105","25.0069283333333","6501900","石碇區"
"227006","030-BX","2018/12/08 06:39:38","新北市雙溪區牡丹里自強路10號","121.86566","25.03914","6502500","雙溪區"
