"lineid","car","time","location","longitude","latitude","cityid","cityname"
"232004","290-BY","2018/12/08 07:08:35","新北市坪林區粗石斛4號","121.747228333333","24.9536866666667","6502000","坪林區"
"232016","291-BY","2018/12/08 07:09:43","新北市坪林區金瓜寮9-1號","121.681026666667","24.9171683333333","6502000","坪林區"
"232010","375-UM","2018/12/08 07:09:26","新北市坪林區水聳淒坑15-3號","121.722655","24.9292116666667","6502000","坪林區"
"232009","758-BX","2018/12/08 07:09:56","新北市坪林區魚堀50-2號","121.704193333333","24.9309266666667","6502000","坪林區"
"244005","248-BX","2018/12/08 07:09:52","新北市林口區南勢里87-2號","121.351288333333","25.0785683333333","6501700","林口區"
"235001","611-BX","2018/12/08 07:09:52","新北市中和區圓通路367巷6號","121.491488333333","24.9892033333333","6500300","中和區"
"226005","5620-A6","2018/12/08 07:09:48","新北市平溪區菁桐里菁桐街41號","121.726358333333","25.0238183333333","6502400","平溪區"
"226007","7418-A5","2018/12/08 07:09:46","新北市平溪區靜安路二段500號","121.743898333333","25.02686","6502400","平溪區"
"226003","AGD-0702","2018/12/08 07:09:57","新北市平溪區嶺腳里嶺腳寮8號","121.747073333333","25.0296716666667","6502400","平溪區"
"223006","022-BY","2018/12/08 07:09:55","新北市石碇區新興坑19號","121.653763333333","25.0208533333333","6501900","石碇區"
"223002","KEA-2673","2018/12/08 07:09:57","新北市石碇區碇格路二段12號","121.642623333333","24.9562083333333","6501900","石碇區"
"223003","205-TH","2018/12/08 07:04:41","新北市石碇區石碇東街143號","121.658965","24.9892383333333","6501900","石碇區"
"223008","406-TH","2018/12/08 07:09:49","新北市石碇區番子坑24號","121.678493333333","25.0012716666667","6501900","石碇區"
"223001","592-UM","2018/12/08 07:09:51","新北市石碇區摸乳巷11號","121.66114","24.98155","6501900","石碇區"
"223007","661-BX","2018/12/08 07:09:38","新北市石碇區番子坑24-3號","121.678748333333","25.0018783333333","6501900","石碇區"
"223005","677-TV","2018/12/08 07:09:54","新北市石碇區雙溪45號","121.651735","25.00733","6501900","石碇區"
"227006","030-BX","2018/12/08 07:09:38","新北市雙溪區新基里自強路5號","121.866336666667","25.03905","6502500","雙溪區"
"252004","249-BX","2018/12/08 07:09:53","新北市三芝區錫板里小坑子9-1號","121.50281","25.2391316666667","6502100","三芝區"
"252007","AAC-283","2018/12/08 07:09:50","新北市三芝區古庄里山豬堀2號","121.50028","25.2498483333333","6502100","三芝區"
