"lineid","car","time","location","longitude","latitude","cityid","cityname"
"232004","290-BY","2018/12/08 07:29:55","新北市坪林區下坑子口6-15號","121.711181666667","24.943335","6502000","坪林區"
"232016","291-BY","2018/12/08 07:29:43","新北市坪林區金瓜寮4號","121.681495","24.9177516666667","6502000","坪林區"
"232010","375-UM","2018/12/08 07:29:46","新北市坪林區水聳淒坑19-1號","121.712635","24.93491","6502000","坪林區"
"232009","758-BX","2018/12/08 07:29:37","新北市坪林區北宜路七段328號","121.696831666667","24.9325466666667","6502000","坪林區"
"244005","248-BX","2018/12/08 07:29:40","新北市林口區頂福里71-100號","121.345185","25.08431","6501700","林口區"
"222004","289-BY","2018/12/08 07:29:51","新北市深坑區深坑街85號","121.6146","25.0012866666667","6501800","深坑區"
"231008","192-VK","2018/12/08 07:29:51","新北市新店區安一路一段1-1號","121.519021666667","24.961425","6500600","新店區"
"235001","611-BX","2018/12/08 07:29:52","新北市中和區圓通路367巷6號","121.491506666667","24.989205","6500300","中和區"
"226005","5620-A6","2018/12/08 07:29:48","新北市平溪區菁桐里菁桐街167號","121.722005","25.02267","6502400","平溪區"
"226007","7418-A5","2018/12/08 07:19:27","新北市平溪區望古里灰4-2號","121.763576666667","25.0287583333333","6502400","平溪區"
"226003","AGD-0702","2018/12/08 07:27:37","新北市平溪區嶺腳里嶺腳寮83-2號","121.750476666667","25.035085","6502400","平溪區"
"223006","022-BY","2018/12/08 07:29:55","新北市石碇區新興坑28-2號","121.651211666667","25.0146716666667","6501900","石碇區"
"223002","KEA-2673","2018/12/08 07:29:57","新北市石碇區烏塗窟16-2號","121.656273333333","24.9755816666667","6501900","石碇區"
"223003","205-TH","2018/12/08 07:29:38","新北市石碇區烏塗窟14-1號","121.656101666667","24.9755166666667","6501900","石碇區"
"223008","406-TH","2018/12/08 07:29:49","新北市石碇區藤寮坑6-1號","121.703981666667","25.0068466666667","6501900","石碇區"
"223004","437-BY","2018/12/08 07:29:53","新北市石碇區八分寮47號","121.642401666667","25.01391","6501900","石碇區"
"223001","592-UM","2018/12/08 07:29:51","新北市石碇區內楒仔腳4-1號","121.643196666667","24.9705683333333","6501900","石碇區"
"223007","661-BX","2018/12/08 07:29:45","新北市石碇區大溪墘6號","121.697683333333","25.0076683333333","6501900","石碇區"
"223005","677-TV","2018/12/08 07:29:54","新北市石碇區八分寮47號","121.642383333333","25.0139733333333","6501900","石碇區"
"227006","030-BX","2018/12/08 07:29:58","新北市雙溪區新基里中華路90號","121.866175","25.0389783333333","6502500","雙溪區"
"252004","249-BX","2018/12/08 07:29:53","新北市三芝區興華里楓子林55-1號","121.500913333333","25.213935","6502100","三芝區"
"252007","AAC-283","2018/12/08 07:29:50","新北市三芝區淡金路一段2號","121.497315","25.2597533333333","6502100","三芝區"
"237001","361-BY","2018/12/08 07:29:46","新北市三峽區隆恩街243號","121.357928333333","24.9409033333333","6500900","三峽區"
