"lineid","car","time","location","longitude","latitude","cityid","cityname"
"232001","290-BY","2018/12/31 07:39:25","新北市坪林區上坑子口20號","121.697263333333","24.9535383333333","6502000","坪林區"
"232012","291-BY","2018/12/31 07:39:25","新北市坪林區金瓜寮16-1號","121.68254","24.9169183333333","6502000","坪林區"
"232010","375-UM","2018/12/31 07:39:40","新北市坪林區水聳淒坑13-2號","121.721055","24.9302116666667","6502000","坪林區"
"232017","705-BZ","2018/12/31 07:39:22","新北市平溪區東勢里芊蓁林28號","121.73263","24.9756883333333","6502000","坪林區"
"232005","758-BX","2018/12/31 07:39:41","新北市坪林區魚堀37-17號","121.699178333333","24.9268883333333","6502000","坪林區"
"244001","248-BX","2018/12/31 07:37:30","新北市林口區頂福里79號","121.33511","25.09586","6501700","林口區"
"222005","289-BY","2018/12/31 07:39:38","新北市深坑區深坑街85號","121.61462","25.0012733333333","6501800","深坑區"
"231008","192-VK","2018/12/31 07:39:28","新北市新店區安一路一段1-1號","121.519241666667","24.96134","6500600","新店區"
"235001","611-BX","2018/12/31 07:39:25","新北市中和區圓通路367巷6號","121.491508333333","24.9892383333333","6500300","中和區"
"226005","5620-A6","2018/12/31 07:39:26","新北市平溪區平溪里平溪街23號","121.738635","25.0252883333333","6502400","平溪區"
"226001","7418-A5","2018/12/31 07:39:17","新北市平溪區平湖里大厝1號","121.779883333333","25.0381233333333","6502400","平溪區"
"226003","AGD-0702","2018/12/31 07:32:16","新北市平溪區嶺腳里嶺腳寮85號","121.749605","25.0353733333333","6502400","平溪區"
"223006","022-BY","2018/12/31 07:39:44","新北市石碇區靜安路一段196號","121.672303333333","25.00667","6501900","石碇區"
"223002","KEA-2673","2018/12/31 07:36:03","新北市石碇區北宜路五段竹坑巷18-5號","121.625153333333","24.93927","6501900","石碇區"
"223003","205-TH","2018/12/31 07:35:33","新北市石碇區中楒子腳2-5號","121.637533333333","24.9725016666667","6501900","石碇區"
"223004","437-BY","2018/12/31 07:39:30","新北市石碇區八分寮54-1號","121.643048333333","25.0193766666667","6501900","石碇區"
"223001","592-UM","2018/12/31 07:39:38","新北市石碇區中楒子腳2-1號","121.638326666667","24.972295","6501900","石碇區"
"223007","661-BX","2018/12/31 07:39:24","新北市石碇區大湖格21號","121.697928333333","25.01846","6501900","石碇區"
"223005","677-TV","2018/12/31 07:39:40","新北市石碇區八分寮47號","121.642103333333","25.0137066666667","6501900","石碇區"
"227005","282-VK","2018/12/31 07:39:23","新北市雙溪區雙溪里太平路56號","121.864935","25.0354683333333","6502500","雙溪區"
"252006","073-UM","2018/12/31 07:39:42","新北市三芝區古庄里四棧橋48-1號","121.48273","25.26418","6502100","三芝區"
"252004","249-BX","2018/12/31 07:39:35","新北市三芝區店子里店子48-1號","121.503741666667","25.206585","6502100","三芝區"
"237001","361-BY","2018/12/31 07:39:29","新北市三峽區國慶路138號","121.375855","24.9396733333333","6500900","三峽區"
"242055","751-BX","2018/12/31 07:39:40","新北市新莊區新泰路255巷83號","121.442453333333","25.0387933333333","6500500","新莊區"
"242026","705-TV","2018/12/31 07:39:37","新北市新莊區新泰路357巷3弄57號","121.442118333333","25.0393233333333","6500500","新莊區"
"242028","612-BX","2018/12/31 07:39:42","新北市新莊區新泰路255巷83號","121.442313333333","25.039185","6500500","新莊區"
"242043","566-BX","2018/12/31 07:39:38","新北市新莊區三和路12-21號","121.44239","25.0383566666667","6500500","新莊區"
"242047","497-BY","2018/12/31 07:39:33","新北市新莊區中正路400號","121.441968333333","25.0341916666667","6500500","新莊區"
"242020","442-UM","2018/12/31 07:39:33","新北市新莊區新泰路255巷83號","121.442051666667","25.0388866666667","6500500","新莊區"
"242052","441-UM","2018/12/31 07:39:26","新北市新莊區三和路12-21號","121.44197","25.038365","6500500","新莊區"
"242038","415-TV","2018/12/31 07:39:31","新北市新莊區三和路12-10號","121.442206666667","25.0367716666667","6500500","新莊區"
"242008","413-TV","2018/12/31 07:39:35","新北市新莊區新泰路357巷3弄57號","121.441775","25.0393366666667","6500500","新莊區"
"242022","362-BY","2018/12/31 07:39:25","新北市新莊區新泰路357巷3弄57號","121.442083333333","25.039215","6500500","新莊區"
"242059","353-BY","2018/12/31 07:39:25","新北市新莊區新泰路357巷3弄57號","121.442056666667","25.03922","6500500","新莊區"
"242033","135-UY","2018/12/31 07:39:28","新北市新莊區三和路12-21號","121.44202","25.0388516666667","6500500","新莊區"
"242012","173-VK","2018/12/31 07:39:36","新北市新莊區三和路12-21號","121.44196","25.0388133333333","6500500","新莊區"
"242018","175-VK","2018/12/31 07:39:26","新北市新莊區三和路12-21號","121.44194","25.0387216666667","6500500","新莊區"
"242016","KED-0687","2018/12/31 07:39:31","新北市新莊區三和路12-13號","121.441973333333","25.0371866666667","6500500","新莊區"
"242006","346-TH","2018/12/31 07:39:35","新北市新莊區三和路12-21號","121.442043333333","25.03832","6500500","新莊區"
"242014","351-TH","2018/12/31 07:39:33","新北市新莊區新泰路357巷3弄57號","121.441948333333","25.0394583333333","6500500","新莊區"
"242040","281-VK","2018/12/31 07:39:27","新北市新莊區三和路12-21號","121.442333333333","25.03825","6500500","新莊區"
