"lineid","car","time","location","longitude","latitude","cityid","cityname"
"248005","653-BX","2018/02/22 07:39:41","新北市五股區明德路12巷16號","121.433308333333","25.0718766666667","6501500","五股區"
"232001","290-BY","2018/02/22 07:39:36","新北市坪林區下坑子口18-2號","121.710035","24.9461183333333","6502000","坪林區"
"232014","291-BY","2018/02/22 07:39:46","新北市坪林區九芎根1號","121.670791666667","24.891535","6502000","坪林區"
"232010","375-UM","2018/02/22 07:39:44","新北市坪林區苦苓腳3-1號","121.714793333333","24.9400733333333","6502000","坪林區"
"232007","758-BX","2018/02/22 07:39:45","新北市坪林區魚堀33-1號","121.698111666667","24.9257716666667","6502000","坪林區"
"244003","248-BX","2018/02/22 07:39:48","新北市林口區頂福里55-1號","121.341886666667","25.0875283333333","6501700","林口區"
"222006","289-BY","2018/02/22 07:27:05","新北市深坑區文化街39巷13號","121.618943333333","25.0010766666667","6501800","深坑區"
"231008","192-VK","2018/02/22 07:39:33","新北市新店區安康路一段355-3號","121.519225","24.9615216666667","6500600","新店區"
"226005","5620-A6","2018/02/22 07:39:49","新北市平溪區石底里公園街7號","121.738103333333","25.0251483333333","6502400","平溪區"
"226002","7418-A5","2018/02/22 07:39:52","新北市平溪區南山里南山坪6號","121.76466","25.0318333333333","6502400","平溪區"
"226003","AGD-0702","2018/02/22 07:38:23","新北市平溪區嶺腳里嶺腳寮83-2號","121.750793333333","25.0351933333333","6502400","平溪區"
"223006","022-BY","2018/02/22 07:39:55","新北市石碇區靜安路一段262號","121.679478333333","25.0107883333333","6501900","石碇區"
"223001","205-TH","2018/02/22 07:39:29","新北市石碇區蛇舌子8-8號","121.658235","24.9701316666667","6501900","石碇區"
"223008","406-TH","2018/02/22 07:34:58","新北市石碇區靜安路一段337號","121.698905","25.01463","6501900","石碇區"
"223001","592-UM","2018/02/22 07:38:26","新北市石碇區烏塗窟46-2號","121.65578","24.9732233333333","6501900","石碇區"
"223004","660-BX","2018/02/22 07:39:45","新北市石碇區八分寮56-1號","121.644931666667","25.0177983333333","6501900","石碇區"
"223007","661-BX","2018/02/22 07:39:55","新北市石碇區大溪墘2-4號","121.698908333333","25.01034","6501900","石碇區"
"223005","677-TV","2018/02/22 07:39:44","新北市石碇區八分寮47-1號","121.642146666667","25.0136516666667","6501900","石碇區"
"227007","282-VK","2018/02/22 07:39:40","新北市雙溪區雙溪里太平路54號","121.864735","25.0354333333333","6502500","雙溪區"
"252004","249-BX","2018/02/22 07:39:49","新北市三芝區店子里菜公坑75號","121.509443333333","25.205825","6502100","三芝區"
"252007","AAC-283","2018/02/22 07:39:49","新北市三芝區古庄里四棧橋57號","121.484265","25.26482","6502100","三芝區"
"237001","159-UY","2018/02/22 07:39:39","新北市三峽區國慶路142號","121.375758333333","24.9395933333333","6500900","三峽區"
"236009","165-UM","2018/02/22 07:39:46","新北市土城區延吉街339號","121.46496","24.9840733333333","6501300","土城區"
"236003","339-SR","2018/02/22 07:39:40","新北市土城區南天母路135巷34號","121.448828333333","24.9543483333333","6501300","土城區"
"242028","986-R7","2018/02/22 07:39:39","新北市新莊區三和路12-10號","121.44212","25.0368216666667","6500500","新莊區"
"242049","751-BX","2018/02/22 07:39:52","新北市新莊區中正路400號","121.441951666667","25.0343916666667","6500500","新莊區"
"242022","705-TV","2018/02/22 07:39:55","新北市新莊區三和路12-11號","121.442351666667","25.0368716666667","6500500","新莊區"
"242024","615-BX","2018/02/22 07:39:55","新北市新莊區新泰路255巷83號","121.442323333333","25.0387883333333","6500500","新莊區"
"242026","612-BX","2018/02/22 07:39:43","新北市新莊區新泰路255巷83號","121.442398333333","25.03862","6500500","新莊區"
"242003","413-TV","2018/02/22 07:33:24","新北市新莊區新泰路357巷3弄57號","121.44227","25.0394383333333","6500500","新莊區"
"242040","400-BY","2018/02/22 07:39:47","新北市新莊區三和路12-21號","121.442185","25.038515","6500500","新莊區"
"242059","362-BY","2018/02/22 07:39:38","新北市新莊區三和路12-21號","121.442288333333","25.0386116666667","6500500","新莊區"
"242035","133-UY","2018/02/22 07:39:45","新北市新莊區新泰路357巷3弄1號","121.44243","25.0414766666667","6500500","新莊區"
"242014","175-VK","2018/02/22 07:39:52","新北市新莊區三和路12-21號","121.441996666667","25.0388133333333","6500500","新莊區"
"242001","176-VK","2018/02/22 07:39:42","新北市新莊區三和路12-21號","121.441976666667","25.0388283333333","6500500","新莊區"
"242001","233-RS","2018/02/22 07:39:41","新北市新莊區中華路二段2號","121.45297","25.044535","6500500","新莊區"
"242010","351-TH","2018/02/22 07:39:57","新北市新莊區新泰路357巷3弄57號","121.441793333333","25.0396083333333","6500500","新莊區"
"220064","282-UM","2018/02/22 07:39:48","新北市板橋區復興街33號","121.458096666667","25.0177166666667","6500100","板橋區"
"242047","281-VK","2018/02/22 07:39:42","新北市新莊區中正路561號","121.434965","25.0327116666667","6500500","新莊區"
"242030","280-VK","2018/02/22 07:39:44","新北市新莊區三和路12-21號","121.442043333333","25.0382783333333","6500500","新莊區"
