"lineid","car","time","location","longitude","latitude","cityid","cityname"
"248005","653-BX","2018/01/19 09:19:38","新北市五股區水碓三路63號","121.430416666667","25.07152","6501500","五股區"
"222005","289-BY","2018/01/19 09:19:38","新北市深坑區土庫尖路57號","121.634061666667","25.017375","6501800","深坑區"
"231007","189-VK","2018/01/19 09:17:25","新北市新店區新潭路三段236號","121.50041","24.9028116666667","6500600","新店區"
"231009","192-VK","2018/01/19 09:19:26","新北市新店區平廣路一段22-1號","121.536696666667","24.9044983333333","6500600","新店區"
"235001","611-BX","2018/01/19 09:19:33","新北市中和區員山路120號","121.481206666667","24.9958666666667","6500300","中和區"
"223002","198-BX","2018/01/19 09:19:23","新北市石碇區靜安路一段108號","121.649326666667","25.0090433333333","6501900","石碇區"
"223008","406-TH","2018/01/19 09:19:07","新北市石碇區南勢坑2-3號","121.699293333333","24.990325","6501900","石碇區"
"223004","660-BX","2018/01/19 09:19:30","新北市石碇區碇坪路二段22號","121.687788333333","24.9750233333333","6501900","石碇區"
"223007","661-BX","2018/01/19 09:09:32","新北市石碇區南勢坑5-2號","121.6976","24.98323","6501900","石碇區"
"223005","677-TV","2018/01/19 09:19:28","新北市石碇區大崙7號","121.683856666667","24.9788716666667","6501900","石碇區"
"227005","282-VK","2018/01/19 09:10:03","新北市雙溪區泰平里料角坑9號","121.812185","24.9731783333333","6502500","雙溪區"
"237001","159-UY","2018/01/19 09:19:37","新北市三峽區大德路211號","121.37497","24.94657","6500900","三峽區"
"236010","165-UM","2018/01/19 09:19:39","新北市土城區中央路三段112號","121.435391666667","24.96629","6501300","土城區"
"236006","498-BY","2018/01/19 09:19:20","新北市土城區中央路三段116巷1號","121.434943333333","24.9663816666667","6501300","土城區"
