"lineid","car","time","location","longitude","latitude","cityid","cityname"
"234044","148-BY","2018/01/19 12:49:28","新北市永和區秀朗路二段150號","121.525585","25.0015916666667","6500400","永和區"
"234078","298-R6","2018/01/19 12:49:38","新北市永和區永利路97號","121.52173","25.003105","6500400","永和區"
"234036","336-UY","2018/01/19 12:49:35","新北市永和區福和路8巷1號","121.525026666667","25.00908","6500400","永和區"
"234062","337-UY","2018/01/19 12:49:29","新北市永和區福和路1號","121.526031666667","25.0097383333333","6500400","永和區"
"234084","338-UY","2018/01/19 12:49:37","新北市永和區中正路63號","121.51481","24.9966016666667","6500400","永和區"
"234068","552-UM","2018/01/19 12:49:24","新北市永和區環河東路二段90號","121.524466666667","25.0106816666667","6500400","永和區"
"234052","553-UM","2018/01/19 12:49:23","新北市永和區環河東路二段90號","121.524015","25.0105733333333","6500400","永和區"
"234015","745-BX","2018/01/19 12:49:42","新北市永和區忠孝街26巷17號","121.515286666667","25.0167016666667","6500400","永和區"
"234028","746-BX","2018/01/19 12:49:26","新北市永和區得和路321號","121.523435","24.999625","6500400","永和區"
"234012","KEA-2591","2018/01/19 12:49:37","新北市永和區仁愛路202巷38號","121.508795","25.0131333333333","6500400","永和區"
"234060","AAD-866","2018/01/19 12:49:41","新北市永和區福和路307號","121.516273333333","25.0071216666667","6500400","永和區"
"234040","862-TW","2018/01/19 12:49:37","新北市永和區永貞路308號","121.51188","25.00494","6500400","永和區"
"234048","863-TW","2018/01/19 12:49:29","新北市永和區保安路2號","121.510858333333","25.01749","6500400","永和區"
"234025","9371-KE","2018/01/19 12:49:38","新北市永和區中正路748號","121.514815","25.0103883333333","6500400","永和區"
"234010","9373-KE","2018/01/19 12:49:29","新北市永和區保福路二段158巷1號","121.509108333333","25.0150466666667","6500400","永和區"
"234022","9380-KE","2018/01/19 12:49:33","新北市永和區竹林路119巷22弄9號","121.521998333333","25.0115466666667","6500400","永和區"
"234076","969-R7","2018/01/19 12:49:45","新北市永和區中正路38號","121.512961666667","24.9943033333333","6500400","永和區"
"234072","AAC-211","2018/01/19 12:49:26","新北市永和區福和路1號","121.526176666667","25.0097766666667","6500400","永和區"
"234066","AAC-212","2018/01/19 12:49:25","新北市永和區永和路一段32號","121.513085","25.0049316666667","6500400","永和區"
"234001","AAC-295","2018/01/19 12:49:37","新北市永和區中正路742-1號","121.515061666667","25.0102916666667","6500400","永和區"
"231029","001-UM","2018/01/19 12:49:38","新北市新店區安華路28-1號","121.519543333333","24.96088","6500600","新店區"
"231002","002-UM","2018/01/19 12:49:37","新北市新店區安華路28-1號","121.519558333333","24.9608633333333","6500600","新店區"
"231037","0293-UT","2018/01/19 12:49:27","新北市新店區安華路28-1號","121.519485","24.96064","6500600","新店區"
"231028","046-UY","2018/01/19 12:49:39","新北市新店區安華路28-1號","121.519643333333","24.9608766666667","6500600","新店區"
"231018","107-UY","2018/01/19 12:49:31","新北市新店區安華路28-1號","121.519498333333","24.9613416666667","6500600","新店區"
"231012","108-UY","2018/01/19 12:49:32","新北市新店區安華路28-1號","121.519591666667","24.9609583333333","6500600","新店區"
"231022","187-VK","2018/01/19 12:49:30","新北市新店區安華路28-1號","121.519631666667","24.9612566666667","6500600","新店區"
"231016","KEA-2219","2018/01/19 12:49:31","新北市新店區安華路28-1號","121.519881666667","24.9612383333333","6500600","新店區"
"231023","AAD-862","2018/01/19 12:49:39","新北市新店區安華路28-1號","121.519826666667","24.9611216666667","6500600","新店區"
"231027","3712-VJ","2018/01/19 12:49:29","新北市新店區安華路28-1號","121.519353333333","24.9606683333333","6500600","新店區"
"231024","4716-K9","2018/01/19 12:49:41","新北市新店區安華路28-1號","121.519313333333","24.9612333333333","6500600","新店區"
"231038","4715-K9","2018/01/19 12:49:36","新北市新店區安華路28-1號","121.519468333333","24.9605383333333","6500600","新店區"
"231036","512-UM","2018/01/19 12:49:26","新北市新店區安華路28-1號","121.51929","24.9612516666667","6500600","新店區"
"231001","619-UM","2018/01/19 12:49:32","新北市新店區安華路28-1號","121.519511666667","24.9608833333333","6500600","新店區"
"231004","899-TW","2018/01/19 12:49:43","新北市新店區安華路28-1號","121.519301666667","24.9610083333333","6500600","新店區"
"235030","003-UY","2018/01/19 12:49:37","新北市中和區中山路二段201號","121.499816666667","25.0025733333333","6500300","中和區"
"235028","005-UY","2018/01/19 12:49:23","新北市中和區員山路36巷16-3號","121.485011666667","24.9913416666667","6500300","中和區"
"235029","098-UM","2018/01/19 12:49:36","新北市中和區員山路36巷16-3號","121.485063333333","24.9912483333333","6500300","中和區"
"235022","151-BY","2018/01/19 12:41:22","新北市中和區員山路36巷16-2號","121.485311666667","24.9916083333333","6500300","中和區"
"235002","185-VK","2018/01/19 12:49:34","新北市中和區景平路3號","121.52375","24.9904466666667","6500300","中和區"
"235031","255-BX","2018/01/19 12:49:30","新北市中和區中正路1155號","121.481848333333","25.0082533333333","6500300","中和區"
"235025","378-QA","2018/01/19 12:23:42","新北市中和區和城路一段271巷1號","121.485488333333","24.991465","6500300","中和區"
"235001","611-BX","2018/01/19 12:49:33","新北市八里區下罟子6-4號","121.38596","25.1418716666667","6500300","中和區"
"208004","AAC-292","2018/01/19 12:49:41","新北市金山區磺清路135號","121.639306666667","25.22772","6502700","金山區"
"207002","749-BX","2018/01/19 12:48:41","新北市萬里區雙興里二坪路30號","121.645995","25.1683233333333","6502800","萬里區"
"207001","662-BX","2018/01/19 12:49:37","新北市萬里區萬里里瑪鋉路224號","121.689253333333","25.1803233333333","6502800","萬里區"
"236006","498-BY","2018/01/19 12:49:42","新北市土城區永寧路22-3號","121.42964","24.9612916666667","6501300","土城區"
"221032","280-BY","2018/01/19 12:49:29","新北市汐止區大同路二段544號","121.661645","25.0688916666667","6501100","汐止區"
