"lineid","car","time","location","longitude","latitude","cityid","cityname"
"234044","148-BY","2018/01/19 14:09:28","新北市永和區永元路2號","121.521863333333","24.9998233333333","6500400","永和區"
"234005","207-UY","2018/01/19 14:09:36","新北市中和區保平路366號","121.506533333333","25.003765","6500400","永和區"
"234078","298-R6","2018/01/19 14:09:26","新北市永和區永亨路98號","121.522871666667","25.005","6500400","永和區"
"234036","336-UY","2018/01/19 14:09:35","新北市永和區環河東路三段96號","121.528116666667","25.0040633333333","6500400","永和區"
"234062","337-UY","2018/01/19 14:09:29","新北市永和區永利路156號","121.522551666667","25.002775","6500400","永和區"
"234084","338-UY","2018/01/19 14:09:37","新北市永和區中正路652號","121.516885","25.0084733333333","6500400","永和區"
"234068","552-UM","2018/01/19 14:09:44","新北市永和區福和路282號","121.517663333333","25.0075583333333","6500400","永和區"
"234052","553-UM","2018/01/19 14:09:43","新北市永和區博愛街31巷2號","121.5185","25.0158383333333","6500400","永和區"
"234015","745-BX","2018/01/19 14:09:42","新北市永和區仁愛路99號","121.512765","25.0130616666667","6500400","永和區"
"234028","746-BX","2018/01/19 14:09:26","新北市永和區民權路55號","121.520163333333","24.9969516666667","6500400","永和區"
"234012","KEA-2591","2018/01/19 14:09:26","新北市永和區中山路一段238號","121.507416666667","25.0075666666667","6500400","永和區"
"234060","AAD-866","2018/01/19 14:09:44","新北市永和區得和路29號","121.515766666667","25.000395","6500400","永和區"
"234040","862-TW","2018/01/19 14:09:37","新北市永和區雙和街3號","121.509798333333","25.0017033333333","6500400","永和區"
"234048","863-TW","2018/01/19 14:09:29","新北市永和區環河西路二段83號","121.506745","25.0150216666667","6500400","永和區"
"234025","9371-KE","2018/01/19 14:09:37","新北市永和區安樂路270號","121.514511666667","25.0040733333333","6500400","永和區"
"234010","9373-KE","2018/01/19 14:09:29","新北市永和區仁愛路352巷122弄13號","121.50074","25.0088033333333","6500400","永和區"
"248019","225-UY","2018/01/19 14:05:56","新北市五股區凌雲路三段57號","121.425266666667","25.1250233333333","6501500","五股區"
"234022","9380-KE","2018/01/19 14:09:33","新北市永和區博愛街32巷17-1號","121.518841666667","25.0152933333333","6500400","永和區"
"234076","969-R7","2018/01/19 14:09:39","新北市永和區民族街67巷25號","121.519423333333","24.9971316666667","6500400","永和區"
"234072","AAC-211","2018/01/19 14:09:26","新北市永和區竹林路201巷24弄1號","121.522353333333","25.0096583333333","6500400","永和區"
"234066","AAC-212","2018/01/19 14:09:25","新北市永和區保平路214巷3弄10號","121.508821666667","25.00608","6500400","永和區"
"234001","AAC-295","2018/01/19 14:09:40","新北市永和區中正路708號","121.515978333333","25.0100333333333","6500400","永和區"
"244004","248-BX","2018/01/19 14:09:32","新北市林口區文化二路二段72號","121.378245","25.0805083333333","6501700","林口區"
"231029","001-UM","2018/01/19 14:09:38","新北市新店區安康路二段161號","121.510306666667","24.95941","6500600","新店區"
"231002","002-UM","2018/01/19 14:09:37","新北市新店區中正路485號","121.533988333333","24.98202","6500600","新店區"
"231025","0291-UT","2018/01/19 14:09:29","新北市新店區中正路302巷3號","121.538008333333","24.9752316666667","6500600","新店區"
"231037","0293-UT","2018/01/19 14:09:45","新北市新店區車子路27號","121.504371666667","24.95227","6500600","新店區"
"231028","046-UY","2018/01/19 14:09:40","新北市新店區安和路二段227號","121.517263333333","24.9760433333333","6500600","新店區"
"231030","047-UY","2018/01/19 14:09:24","新北市新店區安民街65巷21-2號","121.515165","24.9674616666667","6500600","新店區"
"231018","107-UY","2018/01/19 14:09:31","新北市新店區中央五街15號","121.52961","24.974355","6500600","新店區"
"231012","108-UY","2018/01/19 14:09:32","新北市新店區中興路一段252號","121.544461666667","24.9665866666667","6500600","新店區"
"231022","187-VK","2018/01/19 14:09:30","新北市新店區桂山路37號","121.56019","24.90318","6500600","新店區"
"231016","KEA-2219","2018/01/19 14:09:31","新北市新店區中生路1號","121.562208333333","24.9530033333333","6500600","新店區"
"231023","AAD-862","2018/01/19 14:09:39","新北市新店區北宜路一段47號","121.538355","24.9570266666667","6500600","新店區"
"231027","3712-VJ","2018/01/19 14:09:29","新北市新店區光明街168巷16號","121.54036","24.96171","6500600","新店區"
"231024","4716-K9","2018/01/19 14:09:41","新北市新店區安和路三段1號","121.517485","24.9798","6500600","新店區"
"231038","4715-K9","2018/01/19 14:09:36","新北市新店區溪洲路121號","121.5312","24.9627933333333","6500600","新店區"
"231036","512-UM","2018/01/19 14:09:46","新北市新店區安祥路109巷90弄95號","121.475953333333","24.957585","6500600","新店區"
"231035","515-UM","2018/01/19 14:09:30","新北市新店區安和路二段95號","121.518643333333","24.9693866666667","6500600","新店區"
"231003","616-UM","2018/01/19 14:09:28","新北市新店區中興路一段168號","121.542801666667","24.9643566666667","6500600","新店區"
"231006","617-UM","2018/01/19 14:09:34","新北市新店區北宜路二段148號","121.557576666667","24.9538666666667","6500600","新店區"
"231001","619-UM","2018/01/19 14:09:32","新北市新店區中華路52號","121.539558333333","24.9686283333333","6500600","新店區"
"231034","645-TV","2018/01/19 14:09:35","新北市新店區黎明路3號","121.503308333333","24.9522833333333","6500600","新店區"
"231013","719-UM","2018/01/19 14:09:31","新北市新店區北新路三段65巷31號","121.540066666667","24.9810433333333","6500600","新店區"
"231032","720-UM","2018/01/19 14:09:32","新北市新店區溪洲路91號","121.533108333333","24.96108","6500600","新店區"
"231005","897-TW","2018/01/19 14:09:29","新北市新店區中興路三段229號","121.543001666667","24.9834183333333","6500600","新店區"
"231004","899-TW","2018/01/19 14:09:43","新北市新店區北新路二段156號","121.542958333333","24.97551","6500600","新店區"
"235030","003-UY","2018/01/19 14:09:37","新北市中和區廣福路2號","121.506166666667","25.0032783333333","6500300","中和區"
"235028","005-UY","2018/01/19 14:09:43","新北市中和區中和路31號","121.499896666667","25.001785","6500300","中和區"
"235027","006-UY","2018/01/19 14:09:25","新北市中和區錦和路176號","121.489941666667","24.9956516666667","6500300","中和區"
"235020","096-UM","2018/01/19 14:09:33","新北市中和區中正路1171號","121.48122","25.009525","6500300","中和區"
"235003","097-UM","2018/01/19 14:09:34","新北市中和區秀峰街89號","121.521221666667","24.9902966666667","6500300","中和區"
"235029","098-UM","2018/01/19 14:09:36","新北市中和區中山路二段64巷8號","121.50368","25.004975","6500300","中和區"
"235004","150-BY","2018/01/19 14:09:34","新北市中和區宜安路117號","121.510068333333","24.9978633333333","6500300","中和區"
"235022","151-BY","2018/01/19 14:09:34","新北市中和區連城路523巷11弄1號","121.481701666667","24.9943466666667","6500300","中和區"
"235019","183-VK","2018/01/19 14:09:43","新北市中和區德光路53號","121.470046666667","25.00404","6500300","中和區"
"235002","185-VK","2018/01/19 14:09:34","新北市中和區大仁街10巷27弄4號","121.5192","24.992705","6500300","中和區"
"235013","186-VK","2018/01/19 14:09:30","新北市中和區南華路71號","121.504803333333","24.99724","6500300","中和區"
"235031","255-BX","2018/01/19 14:09:30","新北市中和區新生街178號","121.483733333333","24.99994","6500300","中和區"
"235008","293-VK","2018/01/19 14:09:30","新北市中和區中興街204號","121.499931666667","24.9902283333333","6500300","中和區"
"235036","301-VK","2018/01/19 14:09:46","新北市中和區中山路二段276號","121.496688333333","25.0023833333333","6500300","中和區"
"235007","352-BY","2018/01/19 14:09:24","新北市中和區景平路120號","121.519273333333","24.99176","6500300","中和區"
"235032","377-QA","2018/01/19 14:09:39","新北市中和區圓通路158巷1弄9號","121.497255","24.9960766666667","6500300","中和區"
"235025","378-QA","2018/01/19 14:09:30","新北市中和區中山路三段53號","121.476808333333","25.0056533333333","6500300","中和區"
"235014","4979-A6","2018/01/19 14:09:38","新北市中和區復興路280巷18弄8號","121.50221","24.9917283333333","6500300","中和區"
"235033","4980-A6","2018/01/19 14:09:31","新北市中和區景平路736巷1弄7號","121.497323333333","25.00403","6500300","中和區"
"235006","551-UM","2018/01/19 14:09:27","新北市中和區自立路121號","121.522101666667","24.9942683333333","6500300","中和區"
"235034","558-UM","2018/01/19 14:09:36","新北市中和區中和路177號","121.503191666667","24.99988","6500300","中和區"
"235009","565-BX","2018/01/19 14:09:45","新北市中和區景新街467巷35弄4號","121.514571666667","24.989095","6500300","中和區"
"235018","640-BX","2018/01/19 14:09:41","新北市中和區國光街107巷2弄32號","121.469265","24.9989883333333","6500300","中和區"
"235024","647-TV","2018/01/19 14:09:37","新北市中和區民享街66號","121.474171666667","25.00207","6500300","中和區"
"235011","732-UM","2018/01/19 14:09:36","新北市中和區興南路一段56巷10號","121.5106","24.99112","6500300","中和區"
"235010","733-UM","2018/01/19 14:09:33","新北市中和區忠孝街1巷16號","121.508631666667","24.9837416666667","6500300","中和區"
"235026","800-TS","2018/01/19 14:09:27","新北市中和區中山路二段356號","121.492876666667","25.0029933333333","6500300","中和區"
"235021","801-TS","2018/01/19 14:09:33","新北市中和區民利街64號","121.47876","24.99853","6500300","中和區"
"235005","802-TS","2018/01/19 14:09:34","新北市中和區宜安路118巷18號","121.510793333333","24.9985916666667","6500300","中和區"
"235016","805-TS","2018/01/19 14:09:36","新北市中和區興南路二段114巷6號","121.504068333333","24.9843566666667","6500300","中和區"
"235012","896-TW","2018/01/19 14:09:26","新北市中和區工專路147號","121.508405","24.9788266666667","6500300","中和區"
"235017","900-TW","2018/01/19 14:09:42","新北市中和區華福街71巷30號","121.467608333333","24.9969533333333","6500300","中和區"
"235015","157-BY","2018/01/19 14:09:34","新北市中和區忠孝街31巷56號","121.509691666667","24.9857183333333","6500300","中和區"
"235001","AAC-213","2018/01/19 14:09:43","新北市中和區秀朗路三段60巷9號","121.52574","24.9950716666667","6500300","中和區"
"235023","AAC-215","2018/01/19 14:09:34","新北市中和區圓通路294巷13號","121.488735","24.9900666666667","6500300","中和區"
"220013","072-UY","2018/01/19 14:09:38","新北市板橋區民族路219巷39號","121.468996666667","25.0085516666667","6500100","板橋區"
"220105","075-UY","2018/01/19 14:09:42","新北市板橋區雙十路三段9號","121.47163","25.0302616666667","6500100","板橋區"
"220017","AAD-861","2018/01/19 14:09:33","新北市板橋區貴興路8號","121.45769","25.0044083333333","6500100","板橋區"
"247021","893-R6","2018/01/19 14:09:30","新北市蘆洲區三民路169號","121.471218333333","25.0871516666667","6501400","蘆洲區"
"247011","546-UM","2018/01/19 14:09:35","新北市蘆洲區信義路343巷1號","121.477858333333","25.087015","6501400","蘆洲區"
"247019","500-BY","2018/01/19 14:09:37","新北市蘆洲區民族路436巷9號","121.472916666667","25.0926783333333","6501400","蘆洲區"
"247007","341-TH","2018/01/19 14:09:31","新北市蘆洲區中山一路333號","121.470678333333","25.0780883333333","6501400","蘆洲區"
"247009","339-TH","2018/01/19 14:09:25","新北市蘆洲區民族路31號","121.477478333333","25.0847966666667","6501400","蘆洲區"
"247001","337-TH","2018/01/19 14:09:31","新北市蘆洲區永平街20號","121.459135","25.09067","6501400","蘆洲區"
"247003","336-TH","2018/01/19 14:09:34","新北市蘆洲區中華街6巷32號","121.462771666667","25.0823183333333","6501400","蘆洲區"
"247015","057-VK","2018/01/19 14:09:38","新北市蘆洲區光華路46巷33號","121.467861666667","25.08411","6501400","蘆洲區"
"247005","056-VK","2018/01/19 14:09:32","新北市蘆洲區九芎街15巷12號","121.467866666667","25.0779216666667","6501400","蘆洲區"
"247013","007-UY","2018/01/19 14:09:37","新北市蘆洲區忠孝路86號","121.47145","25.0856733333333","6501400","蘆洲區"
"247023","002-UY","2018/01/19 14:09:42","新北市蘆洲區光榮路118號","121.464731666667","25.08883","6501400","蘆洲區"
"247017","001-UY","2018/01/19 14:09:36","新北市蘆洲區復興路111-9號","121.476923333333","25.08856","6501400","蘆洲區"
"208004","AAC-292","2018/01/19 14:09:41","新北市金山區六股里下六股65號","121.614408333333","25.223635","6502700","金山區"
"207002","749-BX","2018/01/19 14:06:21","新北市萬里區溪底里瑞泉路20號","121.605555","25.148015","6502800","萬里區"
"207001","662-BX","2018/01/19 14:09:37","新北市萬里區磺潭里清水18號","121.63777","25.197715","6502800","萬里區"
"236067","105-UM","2018/01/19 14:09:33","新北市土城區和平路38號","121.445081666667","24.971085","6501300","土城區"
"236041","107-UM","2018/01/19 14:09:40","新北市土城區中華路一段253號","121.440613333333","24.98107","6501300","土城區"
"236029","253-BX","2018/01/19 14:09:28","新北市土城區興城路75號","121.440096666667","24.970785","6501300","土城區"
"236025","269-VK","2018/01/19 14:09:34","新北市土城區承天路18號","121.439458333333","24.96352","6501300","土城區"
"236013","270-VK","2018/01/19 14:09:31","新北市土城區學府路一段91號","121.456298333333","24.9879216666667","6501300","土城區"
"236035","271-VK","2018/01/19 14:09:37","新北市土城區明德路一段280號","121.457758333333","24.9773816666667","6501300","土城區"
"236019","401-BY","2018/01/19 14:09:41","新北市土城區明德路二段117號","121.450268333333","24.9820383333333","6501300","土城區"
"236006","498-BY","2018/01/19 14:09:42","新北市土城區中央路一段61號","121.447805","24.99009","6501300","土城區"
"236057","912-UM","2018/01/19 14:09:28","新北市土城區中央路四段22號","121.421018333333","24.9609733333333","6501300","土城區"
"236046","913-UM","2018/01/19 14:09:40","新北市土城區明德路一段365-1號","121.453563333333","24.979055","6501300","土城區"
"236061","915-UM","2018/01/19 14:09:29","新北市土城區金城路三段176-2號","121.467868333333","24.9875833333333","6501300","土城區"
"236054","AAC-216","2018/01/19 14:09:38","新北市土城區中華路二段80號","121.438626666667","24.9756116666667","6501300","土城區"
"221025","623-UM","2018/01/19 14:09:35","新北市汐止區樟樹二路243號","121.640743333333","25.0679366666667","6501100","汐止區"
"220027","145-BY","2018/01/19 14:09:44","新北市板橋區民權路260巷48號","121.459686666667","25.0151383333333","6500100","板橋區"
"220028","200-UY","2018/01/19 14:09:33","新北市板橋區大觀路二段3巷49號","121.449023333333","25.003555","6500100","板橋區"
"220030","610-BX","2018/01/19 14:09:40","新北市板橋區溪崑二街75號","121.42785","24.9901716666667","6500100","板橋區"
"220050","245-BX","2018/01/19 14:09:40","新北市板橋區民生路二段175號","121.469621666667","25.020135","6500100","板橋區"
"220004","256-TC","2018/01/19 14:09:30","新北市板橋區信義路110巷1弄1-1號","121.458013333333","24.992245","6500100","板橋區"
"220045","257-TC","2018/01/19 14:09:40","新北市板橋區大同街2號","121.476848333333","25.02673","6500100","板橋區"
"220020","277-BY","2018/01/19 14:09:38","新北市板橋區金門街369巷58號","121.428261666667","24.9816883333333","6500100","板橋區"
"220019","283-VK","2018/01/19 14:09:41","新北市板橋區重慶路269巷31-3號","121.464271666667","24.999225","6500100","板橋區"
"220043","285-UM","2018/01/19 14:09:29","新北市板橋區光武街138號","121.465348333333","25.0299633333333","6500100","板橋區"
"220001","285-VK","2018/01/19 14:09:44","新北市板橋區懷仁街14巷14號","121.475691666667","25.01964","6500100","板橋區"
"220031","286-VK","2018/01/19 14:09:41","新北市板橋區大觀路二段174巷196弄1號","121.442538333333","25.0039216666667","6500100","板橋區"
"220029","287-VK","2018/01/19 14:09:40","新北市板橋區南雅西路一段110號","121.453031666667","25.006175","6500100","板橋區"
"220039","288-VK","2018/01/19 14:09:44","新北市板橋區裕民街45巷2號","121.461505","25.0284","6500100","板橋區"
"220009","293-UM","2018/01/19 14:09:41","新北市板橋區三民路二段21巷34號","121.480465","25.0180966666667","6500100","板橋區"
"220010","295-UM","2018/01/19 14:09:41","新北市板橋區三民路二段居仁巷2弄20號","121.479736666667","25.012855","6500100","板橋區"
"220032","296-UM","2018/01/19 14:09:36","新北市板橋區溪崑二街22巷15號","121.428095","24.9917266666667","6500100","板橋區"
"220023","303-R5","2018/01/19 14:09:37","新北市板橋區大智街25巷36號","121.454053333333","25.0149116666667","6500100","板橋區"
"220041","307-R5","2018/01/19 14:09:38","新北市板橋區文化路二段47號","121.468903333333","25.0251683333333","6500100","板橋區"
"220047","317-R6","2018/01/19 14:09:40","新北市板橋區自由路51巷9-3號","121.465008333333","25.02344","6500100","板橋區"
"220034","461-BY","2018/01/19 14:09:47","新北市板橋區中正路236巷53號","121.458101666667","25.019455","6500100","板橋區"
"220012","486-VK","2018/01/19 14:09:28","新北市板橋區板新路11號","121.475031666667","25.0124933333333","6500100","板橋區"
"220038","487-VK","2018/01/19 14:09:33","新北市板橋區文化路二段445號","121.475263333333","25.0332766666667","6500100","板橋區"
"220037","491-VK","2018/01/19 14:09:36","新北市板橋區文化路二段182巷3弄51號","121.47255","25.0287466666667","6500100","板橋區"
"220104","560-BX","2018/01/19 14:09:36","新北市板橋區瑞安街31巷7號","121.455991666667","25.0226916666667","6500100","板橋區"
"220052","561-BX","2018/01/19 14:09:35","新北市板橋區文化路一段188巷9弄33號","121.468966666667","25.0192533333333","6500100","板橋區"
"220011","609-BX","2018/01/19 14:09:29","新北市板橋區溪城路90-2號","121.429536666667","24.980155","6500100","板橋區"
"220003","630-UY","2018/01/19 14:09:40","新北市板橋區新民街41號","121.464023333333","25.0107616666667","6500100","板橋區"
"220040","637-BX","2018/01/19 14:09:26","新北市板橋區萬板路378號","121.478398333333","25.02539","6500100","板橋區"
"220005","686-BX","2018/01/19 14:09:38","新北市板橋區忠孝路116號","121.462751666667","25.00223","6500100","板橋區"
"220025","687-BX","2018/01/19 14:09:25","新北市板橋區大觀路二段323號","121.441595","24.9985983333333","6500100","板橋區"
"220042","689-BX","2018/01/19 14:09:32","新北市板橋區民生路三段257號","121.464473333333","25.029355","6500100","板橋區"
"220002","741-BX","2018/01/19 14:09:29","新北市板橋區成都街103號","121.463531666667","25.005425","6500100","板橋區"
"220014","829-TW","2018/01/19 14:09:42","新北市板橋區三民路二段正隆巷62號","121.476518333333","25.0143433333333","6500100","板橋區"
"220051","830-TW","2018/01/19 14:09:30","新北市板橋區田單街49巷1弄6號","121.48285","25.028575","6500100","板橋區"
"220011","833-TW","2018/01/19 14:09:30","新北市板橋區三民路二段169號","121.479218333333","25.01449","6500100","板橋區"
"220022","895-R6","2018/01/19 14:09:37","新北市板橋區文昌街1號","121.45598","25.0100766666667","6500100","板橋區"
"220021","985-R7","2018/01/19 14:09:39","新北市板橋區中正路148號","121.456868333333","25.016215","6500100","板橋區"
"220046","AAC-210","2018/01/19 14:09:43","新北市板橋區新海路135巷4號","121.459856666667","25.0229","6500100","板橋區"
"220018","AAC-253","2018/01/19 14:09:44","新北市板橋區忠孝路42號","121.460493333333","25.0018883333333","6500100","板橋區"
