"lineid","car","time","location","longitude","latitude","cityid","cityname"
"234078","298-R6","2018/01/19 14:59:46","新北市五股區凌雲路三段17-2號","121.430093333333","25.1084583333333","6500400","永和區"
"234025","9371-KE","2018/01/19 14:59:37","新北市永和區永亨路66號","121.52091","25.0059616666667","6500400","永和區"
"248019","225-UY","2018/01/19 14:59:29","新北市五股區中直路13-1號","121.424618333333","25.1119133333333","6501500","五股區"
"244004","248-BX","2018/01/19 14:59:44","新北市林口區竹林路265號","121.389618333333","25.0807466666667","6501700","林口區"
"231029","001-UM","2018/01/19 14:59:38","新北市新店區安康路三段628-3號","121.47748","24.9451716666667","6500600","新店區"
"231002","002-UM","2018/01/19 14:59:37","新北市新店區民權路131號","121.53519","24.9827283333333","6500600","新店區"
"231025","0291-UT","2018/01/19 14:59:48","新北市新店區大同街22號","121.53923","24.98026","6500600","新店區"
"231037","0293-UT","2018/01/19 14:59:47","新北市新店區安興路69號","121.51591","24.9751416666667","6500600","新店區"
"231028","046-UY","2018/01/19 14:59:40","新北市新店區安豐路49號","121.500021666667","24.9549166666667","6500600","新店區"
"231030","047-UY","2018/01/19 14:59:45","新北市新店區安民街341-1號","121.516825","24.9748633333333","6500600","新店區"
"231018","107-UY","2018/01/19 14:59:31","新北市新店區中央六街7號","121.530273333333","24.9745616666667","6500600","新店區"
"231012","108-UY","2018/01/19 14:59:31","新北市新店區寶橋路132號","121.547358333333","24.9761083333333","6500600","新店區"
"231022","187-VK","2018/01/19 14:59:30","新北市新店區永福路38-1號","121.55298","24.92939","6500600","新店區"
"231016","KEA-2219","2018/01/19 14:59:48","新北市新店區銀河路18號","121.573465","24.9572166666667","6500600","新店區"
"231026","256-BX","2018/01/19 14:59:30","新北市新店區博愛街11巷1號","121.54084","24.973025","6500600","新店區"
"231023","AAD-862","2018/01/19 14:59:39","新北市新店區檳榔路174號","121.544248333333","24.9619033333333","6500600","新店區"
"231027","3712-VJ","2018/01/19 14:59:49","新北市新店區薏仁坑路自強巷6號","121.496631666667","24.958115","6500600","新店區"
"231024","4716-K9","2018/01/19 14:59:41","新北市新店區中華路83巷67號","121.538318333333","24.9672833333333","6500600","新店區"
"231036","512-UM","2018/01/19 14:59:46","新北市新店區安祥路102巷42弄73號","121.48643","24.96325","6500600","新店區"
"231035","515-UM","2018/01/19 14:59:32","新北市新店區新和街59巷17號","121.51928","24.9860066666667","6500600","新店區"
"231003","616-UM","2018/01/19 14:59:48","新北市新店區中興路二段224號","121.54797","24.9750833333333","6500600","新店區"
"231006","617-UM","2018/01/19 14:59:34","新北市新店區新坡一街72號","121.548953333333","24.964545","6500600","新店區"
"231001","619-UM","2018/01/19 14:59:32","新北市新店區中正路278號","121.538835","24.973735","6500600","新店區"
"231034","645-TV","2018/01/19 14:59:35","新北市新店區玫瑰路4-1號","121.49361","24.9513816666667","6500600","新店區"
"231039","718-UY","2018/01/19 14:59:37","新北市新店區寶中路45-3號","121.545195","24.9789683333333","6500600","新店區"
"231032","720-UM","2018/01/19 14:59:32","新北市新店區安泰路60巷134弄104號","121.483605","24.9434333333333","6500600","新店區"
"231005","897-TW","2018/01/19 14:59:29","新北市新店區復興路51-8號","121.536636666667","24.9870783333333","6500600","新店區"
"231004","899-TW","2018/01/19 14:59:43","新北市新店區建國路110號","121.539763333333","24.9780633333333","6500600","新店區"
"235030","003-UY","2018/01/19 14:59:46","新北市中和區光華街10號","121.504293333333","25.0043533333333","6500300","中和區"
"235020","096-UM","2018/01/19 14:59:33","新北市中和區漢民路406號","121.472185","25.007025","6500300","中和區"
"235003","097-UM","2018/01/19 14:59:34","新北市永和區中正路1號","121.513753333333","24.9954866666667","6500300","中和區"
"235029","098-UM","2018/01/19 14:59:35","新北市中和區永和路128巷47號","121.497675","25.0069","6500300","中和區"
"235004","150-BY","2018/01/19 14:59:33","新北市中和區景安路79巷21號","121.50697","24.996785","6500300","中和區"
"235013","186-VK","2018/01/19 14:59:30","新北市中和區南華路15號","121.502391666667","24.995615","6500300","中和區"
"235031","255-BX","2018/01/19 14:59:30","新北市中和區新生街233巷16號","121.484375","24.9990816666667","6500300","中和區"
"235008","293-VK","2018/01/19 14:59:34","新北市中和區中正路69號","121.501125","24.99353","6500300","中和區"
"235036","301-VK","2018/01/19 14:59:46","新北市中和區連城路160-1號","121.49431","24.9980166666667","6500300","中和區"
"235007","352-BY","2018/01/19 14:59:44","新北市中和區華新街147號","121.506276666667","24.98168","6500300","中和區"
"235032","377-QA","2018/01/19 14:59:39","新北市中和區福美路256巷16弄7號","121.49842","25.0062133333333","6500300","中和區"
"235014","4979-A6","2018/01/19 14:59:37","新北市中和區景平路155巷30號","121.51356","24.991685","6500300","中和區"
"235033","4980-A6","2018/01/19 14:59:31","新北市中和區景新街132巷8-4號","121.504605","24.998165","6500300","中和區"
"235034","558-UM","2018/01/19 14:59:17","新北市中和區連勝街21號","121.498633333333","24.9980916666667","6500300","中和區"
"235018","640-BX","2018/01/19 14:59:41","新北市中和區莒光路6號","121.472026666667","25.0045566666667","6500300","中和區"
"235010","733-UM","2018/01/19 14:59:33","新北市中和區興南路一段105巷20弄16號","121.510341666667","24.985455","6500300","中和區"
"235016","805-TS","2018/01/19 14:59:36","新北市中和區忠孝街79號","121.512141666667","24.98521","6500300","中和區"
"235012","896-TW","2018/01/19 14:59:46","新北市中和區忠孝街1巷2-1號","121.50917","24.9830966666667","6500300","中和區"
"235015","157-BY","2018/01/19 14:59:34","新北市中和區景安路247巷7號","121.504303333333","24.9906933333333","6500300","中和區"
"235001","AAC-213","2018/01/19 14:59:43","新北市中和區立人街1號","121.521956666667","24.9938116666667","6500300","中和區"
"235023","AAC-215","2018/01/19 14:59:34","新北市中和區圓通路365號","121.491333333333","24.989675","6500300","中和區"
"220013","072-UY","2018/01/19 14:59:35","新北市板橋區民族路67號","121.465361666667","25.0087883333333","6500100","板橋區"
"220105","075-UY","2018/01/19 14:59:42","新北市板橋區文聖街13號","121.475556666667","25.0323666666667","6500100","板橋區"
"220017","AAD-861","2018/01/19 14:59:45","新北市板橋區大明街15巷18號","121.458271666667","25.0022483333333","6500100","板橋區"
"208004","AAC-292","2018/01/19 14:59:41","新北市金山區六股里下六股9號","121.62618","25.2239833333333","6502700","金山區"
"207002","749-BX","2018/01/19 14:59:41","新北市萬里區崁腳里崁腳路73號","121.647576666667","25.159585","6502800","萬里區"
"207001","662-BX","2018/01/19 14:59:37","新北市萬里區雙興里二坪路5-1號","121.649185","25.1754266666667","6502800","萬里區"
"236067","105-UM","2018/01/19 14:59:33","新北市土城區裕生路84巷12號","121.446756666667","24.9856283333333","6501300","土城區"
"236041","107-UM","2018/01/19 14:59:40","新北市土城區裕民路214巷17號","121.452758333333","24.9837066666667","6501300","土城區"
"236029","253-BX","2018/01/19 14:59:47","新北市土城區福仁街27號","121.440245","24.9758016666667","6501300","土城區"
"236025","269-VK","2018/01/19 14:59:43","新北市土城區中正路24號","121.44313","24.9752383333333","6501300","土城區"
"236013","270-VK","2018/01/19 14:59:31","新北市土城區永豐路29巷8號","121.46344","24.9883233333333","6501300","土城區"
"236035","271-VK","2018/01/19 14:59:36","新北市土城區清水路148號","121.459238333333","24.9814833333333","6501300","土城區"
"236019","401-BY","2018/01/19 14:59:42","新北市土城區延吉街217巷1弄2號","121.468595","24.9849683333333","6501300","土城區"
"236057","912-UM","2018/01/19 14:59:48","新北市土城區清水路7號","121.453141666667","24.9803816666667","6501300","土城區"
"236046","913-UM","2018/01/19 14:59:40","新北市土城區明德路一段398-1號","121.453611666667","24.97916","6501300","土城區"
"236061","915-UM","2018/01/19 14:59:29","新北市土城區立德路135巷2-1號","121.464491666667","24.986815","6501300","土城區"
"236054","AAC-216","2018/01/19 14:59:47","新北市土城區學成路124號","121.449378333333","24.9895433333333","6501300","土城區"
"221002","707-TV","2018/01/19 14:59:40","新北市汐止區新興路116號","121.658023333333","25.061115","6501100","汐止區"
"220027","145-BY","2018/01/19 14:59:36","新北市板橋區大觀路一段29巷131弄132-1號","121.451911666667","25.0039133333333","6500100","板橋區"
"220030","610-BX","2018/01/19 14:59:40","新北市板橋區大觀路三段100號","121.43267","24.9945283333333","6500100","板橋區"
"220050","245-BX","2018/01/19 14:59:40","新北市板橋區莒光路213號","121.47414","25.0229316666667","6500100","板橋區"
"220045","257-TC","2018/01/19 14:59:32","新北市板橋區莒光路79巷13-3號","121.471976666667","25.0247033333333","6500100","板橋區"
"220020","277-BY","2018/01/19 14:59:38","新北市板橋區大觀路三段133巷12號","121.43331","24.99383","6500100","板橋區"
"220019","283-VK","2018/01/19 14:59:45","新北市板橋區廣權路133號","121.465633333333","24.9934116666667","6500100","板橋區"
"220043","285-UM","2018/01/19 14:59:29","新北市板橋區文德路38號","121.46219","25.0241566666667","6500100","板橋區"
"220001","285-VK","2018/01/19 14:59:31","新北市板橋區永豐街115號","121.47433","25.0196116666667","6500100","板橋區"
"220031","286-VK","2018/01/19 14:59:41","新北市板橋區僑中二街92巷12號","121.445686666667","25.0090116666667","6500100","板橋區"
"220029","287-VK","2018/01/19 14:59:35","新北市板橋區僑中一街80巷5弄16號","121.447098333333","25.01261","6500100","板橋區"
"220039","288-VK","2018/01/19 14:59:44","新北市板橋區幸福路32巷2弄47號","121.460608333333","25.022365","6500100","板橋區"
"220009","293-UM","2018/01/19 14:59:41","新北市板橋區中山路二段17號","121.472161666667","25.015045","6500100","板橋區"
"220010","295-UM","2018/01/19 14:59:34","新北市板橋區中山路二段563號","121.48424","25.021915","6500100","板橋區"
"220032","296-UM","2018/01/19 14:59:46","新北市樹林區環河路10-1號","121.424355","24.9761133333333","6500100","板橋區"
"220023","303-R5","2018/01/19 14:59:36","新北市板橋區金華街10巷131號","121.459873333333","25.0206583333333","6500100","板橋區"
"220041","307-R5","2018/01/19 14:59:38","新北市板橋區裕民街131號","121.45917","25.0272116666667","6500100","板橋區"
"220047","317-R6","2018/01/19 14:59:45","新北市板橋區新海路72巷5弄11號","121.461856666667","25.02247","6500100","板橋區"
"220034","461-BY","2018/01/19 14:59:47","新北市板橋區大觀路二段205號","121.444376666667","24.9996316666667","6500100","板橋區"
"220012","486-VK","2018/01/19 14:59:28","新北市板橋區實踐路5號","121.464238333333","25.0086533333333","6500100","板橋區"
"220038","487-VK","2018/01/19 14:59:45","新北市板橋區龍泉街142號","121.45688","25.02387","6500100","板橋區"
"220037","491-VK","2018/01/19 14:59:35","新北市板橋區懷德街160號","121.478908333333","25.0306483333333","6500100","板橋區"
"220052","561-BX","2018/01/19 14:59:35","新北市板橋區文化路一段421巷40號","121.466231666667","25.0232966666667","6500100","板橋區"
"220011","609-BX","2018/01/19 14:59:29","新北市板橋區民生路二段171號","121.469883333333","25.020125","6500100","板橋區"
"220003","630-UY","2018/01/19 14:59:40","新北市板橋區重慶路308巷12號","121.463401666667","24.9977916666667","6500100","板橋區"
"220040","637-BX","2018/01/19 14:59:46","新北市板橋區懷德街174巷18弄5號","121.478656666667","25.0298366666667","6500100","板橋區"
"220005","686-BX","2018/01/19 14:59:38","新北市板橋區四川路二段52號","121.453465","24.995195","6500100","板橋區"
"220025","687-BX","2018/01/19 14:59:44","新北市板橋區僑中一街124巷70-5號","121.44867","25.0163583333333","6500100","板橋區"
"220042","689-BX","2018/01/19 14:59:32","新北市板橋區文化路二段606號","121.477221666667","25.03509","6500100","板橋區"
"220002","741-BX","2018/01/19 14:59:49","新北市板橋區忠孝路忠義巷3弄20號","121.46535","25.00403","6500100","板橋區"
"220014","829-TW","2018/01/19 14:59:42","新北市板橋區中山路一段206巷2弄14號","121.469525","25.01275","6500100","板橋區"
"220051","830-TW","2018/01/19 14:59:30","新北市板橋區文聖街59號","121.476716666667","25.0311116666667","6500100","板橋區"
"220011","833-TW","2018/01/19 14:59:49","新北市板橋區三民路一段140號","121.479168333333","25.0202816666667","6500100","板橋區"
"220046","AAC-210","2018/01/19 14:59:43","新北市板橋區文化路一段221巷26號","121.462773333333","25.0179033333333","6500100","板橋區"
"220018","AAC-253","2018/01/19 14:59:40","新北市板橋區成都街69號","121.46214","25.0050716666667","6500100","板橋區"
