"lineid","car","time","location","longitude","latitude","cityid","cityname"
"234078","298-R6","2018/01/19 15:49:46","新北市永和區環河西路二段179號","121.50417","25.0127433333333","6500400","永和區"
"234013","KEA-2591","2018/01/19 15:49:21","新北市永和區福和路1號","121.52604","25.0095133333333","6500400","永和區"
"231037","0293-UT","2018/01/19 15:49:47","新北市新店區安興路105-1號","121.514631666667","24.97771","6500600","新店區"
"231030","047-UY","2018/01/19 15:49:45","新北市新店區安和路三段130號","121.516643333333","24.9859066666667","6500600","新店區"
"231018","107-UY","2018/01/19 15:49:31","新北市新店區中正路663巷7弄15號","121.532941666667","24.9901","6500600","新店區"
"231012","108-UY","2018/01/19 15:49:40","新北市新店區文化路22-1號","121.543441666667","24.9796683333333","6500600","新店區"
"231022","187-VK","2018/01/19 15:49:30","新北市新店區新烏路一段73號","121.546393333333","24.9426616666667","6500600","新店區"
"231016","KEA-2219","2018/01/19 15:49:32","新北市新店區中華路117巷6弄2號","121.537771666667","24.968755","6500600","新店區"
"231026","256-BX","2018/01/19 15:49:50","新北市新店區中正路489號","121.533783333333","24.98236","6500600","新店區"
"231027","3712-VJ","2018/01/19 15:25:33","新北市新店區安華路28-1號","121.519286666667","24.9606333333333","6500600","新店區"
"231038","4715-K9","2018/01/19 15:49:36","新北市新店區安康路二段152-1號","121.512301666667","24.96098","6500600","新店區"
"231035","515-UM","2018/01/19 15:49:49","新北市新店區安民街381號","121.516275","24.9763883333333","6500600","新店區"
"231003","616-UM","2018/01/19 15:49:48","新北市新店區寶興路60巷4號","121.549838333333","24.97188","6500600","新店區"
"231034","645-TV","2018/01/19 15:49:35","新北市新店區玫瑰路57巷16號","121.496265","24.9462316666667","6500600","新店區"
"231013","719-UM","2018/01/19 15:49:44","新北市新店區永業路81巷3弄33號","121.530696666667","24.9501383333333","6500600","新店區"
"241011","013-R5","2018/01/19 15:49:39","新北市三重區文化北路149-1號","121.497563333333","25.0694916666667","6500200","三重區"
"241028","022-UY","2018/01/19 15:49:38","新北市三重區中正南路41巷1號","121.493773333333","25.0600116666667","6500200","三重區"
"241015","062-VK","2018/01/19 15:49:43","新北市三重區重新路四段121號","121.485185","25.05204","6500200","三重區"
"241024","065-VK","2018/01/19 15:49:50","新北市三重區重新路四段121號","121.484276666667","25.0522216666667","6500200","三重區"
"241005","262-UM","2018/01/19 15:49:36","新北市三重區環河北路280號","121.501245","25.0788733333333","6500200","三重區"
"241022","267-UM","2018/01/19 15:49:44","新北市三重區成功路108巷8號","121.48576","25.0504","6500200","三重區"
"241018","268-UM","2018/01/19 15:49:48","新北市三重區成功路97號","121.487851666667","25.051495","6500200","三重區"
"241013","270-UM","2018/01/19 15:49:46","新北市三重區六張街28號","121.495323333333","25.0705733333333","6500200","三重區"
"241007","398-BY","2018/01/19 15:49:45","新北市三重區成功路108巷6-3號","121.486456666667","25.05044","6500200","三重區"
"241003","KEA-2210","2018/01/19 15:49:31","新北市三重區重新路四段121號","121.484755","25.0519583333333","6500200","三重區"
"241014","543-UM","2018/01/19 15:49:33","新北市三重區重新路四段121號","121.485138333333","25.0520733333333","6500200","三重區"
"241023","545-UM","2018/01/19 15:49:33","新北市三重區捷運路36號","121.482845","25.0553966666667","6500200","三重區"
"241033","557-UM","2018/01/19 15:49:45","新北市三重區五谷王北街58巷41號","121.474148333333","25.0524533333333","6500200","三重區"
"241017","887-TS","2018/01/19 15:49:33","新北市三重區大仁街5號","121.491631666667","25.0637233333333","6500200","三重區"
"241012","941-UM","2018/01/19 15:49:49","新北市三重區文化北路83巷2-2號","121.49845","25.0668866666667","6500200","三重區"
"241029","942-UM","2018/01/19 15:49:36","新北市三重區大同南路242號","121.496916666667","25.0559066666667","6500200","三重區"
"235031","255-BX","2018/01/19 15:49:30","新北市八里區中山路三段132號","121.385648333333","25.1417183333333","6500300","中和區"
"235026","800-TS","2018/01/19 15:49:47","新北市中和區中山路二段478號","121.487926666667","25.00477","6500300","中和區"
"235023","AAC-215","2018/01/19 15:49:34","新北市中和區員山路36巷2-1號","121.482596666667","24.9905466666667","6500300","中和區"
"247004","336-TH","2018/01/19 15:49:47","新北市五股區中興路三段163號","121.449188333333","25.0805933333333","6501400","蘆洲區"
"226005","5620-A6","2018/01/19 15:49:40","新北市平溪區石底里公園街18-3號","121.73356","25.0258316666667","6502400","平溪區"
"227011","642-TC","2018/01/19 15:49:38","新北市雙溪區牡丹里自強路10號","121.865595","25.03918","6502500","雙溪區"
"227003","400-TW","2018/01/19 15:49:38","新北市雙溪區平林里外平林44號","121.852948333333","25.0363566666667","6502500","雙溪區"
"236067","105-UM","2018/01/19 15:49:33","新北市土城區福安街2-1號","121.420138333333","24.965135","6501300","土城區"
"236013","270-VK","2018/01/19 15:49:31","新北市板橋區四川路二段106號","121.450646666667","24.993955","6501300","土城區"
"236019","401-BY","2018/01/19 15:49:41","新北市土城區延吉街111巷15號","121.471886666667","24.9859583333333","6501300","土城區"
"236057","912-UM","2018/01/19 15:49:48","新北市土城區中央路二段94號","121.442351666667","24.9786566666667","6501300","土城區"
"236046","913-UM","2018/01/19 15:49:39","新北市土城區金城路三段31號","121.465495","24.9865683333333","6501300","土城區"
"236054","AAC-216","2018/01/19 15:49:38","新北市土城區中華路一段166號","121.441383333333","24.983065","6501300","土城區"
"220001","285-VK","2018/01/19 15:49:31","新北市八里區中山路三段382號","121.368736666667","25.1359033333333","6500100","板橋區"
