"lineid","car","time","location","longitude","latitude","cityid","cityname"
"231018","107-UY","2018/01/19 16:19:31","新北市新店區中正路700巷26號","121.53548","24.9912333333333","6500600","新店區"
"231046","278-BY","2018/01/19 16:19:50","新北市新店區灣潭路3-2號","121.538276666667","24.9507833333333","6500600","新店區"
"241011","013-R5","2018/01/19 16:19:39","新北市三重區龍濱路285號","121.501138333333","25.073345","6500200","三重區"
"241028","022-UY","2018/01/19 16:19:43","新北市三重區正義南路181巷1號","121.499048333333","25.05692","6500200","三重區"
"241008","059-VK","2018/01/19 16:19:49","新北市三重區力行路二段136巷45弄14號","121.47916","25.0754466666667","6500200","三重區"
"241009","060-VK","2018/01/19 16:19:33","新北市三重區溪尾街261號","121.487738333333","25.08192","6500200","三重區"
"241031","061-VK","2018/01/19 16:19:46","新北市三重區重新路四段138號","121.486661666667","25.0562733333333","6500200","三重區"
"241015","062-VK","2018/01/19 16:19:43","新北市三重區福德北路77號","121.50193","25.065835","6500200","三重區"
"241024","065-VK","2018/01/19 16:19:49","新北市三重區中正北路119號","121.483261666667","25.0669566666667","6500200","三重區"
"241002","090-VK","2018/01/19 16:19:46","新北市三重區仁義街91號","121.499796666667","25.079575","6500200","三重區"
"241020","156-TC","2018/01/19 16:19:41","新北市三重區後竹圍街247號","121.48398","25.0712816666667","6500200","三重區"
"241005","262-UM","2018/01/19 16:19:36","新北市三重區溪尾街305號","121.48752","25.0837033333333","6500200","三重區"
"241026","265-UM","2018/01/19 16:19:51","新北市三重區正義南路43-1號","121.498166666667","25.0608616666667","6500200","三重區"
"241016","266-UM","2018/01/19 16:19:36","新北市三重區大仁街92號","121.49286","25.0654966666667","6500200","三重區"
"241022","267-UM","2018/01/19 16:19:44","新北市三重區重安街1號","121.489548333333","25.0584466666667","6500200","三重區"
"241018","268-UM","2018/01/19 16:19:47","新北市三重區重陽路4段37-1號","121.491616666667","25.0698916666667","6500200","三重區"
"241013","270-UM","2018/01/19 16:19:46","新北市三重區龍門路32號","121.495561666667","25.0722733333333","6500200","三重區"
"241025","271-UM","2018/01/19 16:19:32","新北市三重區中正北路560巷100弄2號","121.472435","25.0682516666667","6500200","三重區"
"241007","398-BY","2018/01/19 16:19:45","新北市三重區三和路四段163巷87號","121.486303333333","25.079475","6500200","三重區"
"241003","KEA-2210","2018/01/19 16:19:31","新北市三重區仁義街220巷35號","121.494118333333","25.0834416666667","6500200","三重區"
"241004","475-VK","2018/01/19 16:19:33","新北市三重區自強路五段65號","121.494826666667","25.08196","6500200","三重區"
"241019","478-VK","2018/01/19 16:19:48","新北市三重區重陽路三段95號","121.490141666667","25.067935","6500200","三重區"
"241030","480-VK","2018/01/19 16:19:33","新北市三重區重新路四段254號","121.48579","25.0532016666667","6500200","三重區"
"241014","543-UM","2018/01/19 16:19:33","新北市三重區河邊北街100巷2-1號","121.50406","25.070415","6500200","三重區"
"241023","545-UM","2018/01/19 16:19:33","新北市三重區忠孝路二段124巷1弄13號","121.482663333333","25.068165","6500200","三重區"
"241001","547-UM","2018/01/19 16:19:30","新北市三重區自強路四段77號","121.490683333333","25.07887","6500200","三重區"
"241033","557-UM","2018/01/19 16:19:46","新北市三重區重新路五段416號","121.475545","25.0475033333333","6500200","三重區"
"241017","887-TS","2018/01/19 16:19:33","新北市三重區大同北路83號","121.49492","25.0636566666667","6500200","三重區"
"241012","941-UM","2018/01/19 16:19:49","新北市三重區河邊北街317號","121.502436666667","25.07489","6500200","三重區"
"241029","942-UM","2018/01/19 16:19:36","新北市三重區泉州街84巷20號","121.495806666667","25.0546166666667","6500200","三重區"
"235026","800-TS","2018/01/19 16:19:47","新北市中和區中山路二段332巷13號","121.494293333333","25.0028083333333","6500300","中和區"
"247004","336-TH","2018/01/19 15:50:45","新北市五股區中興路三段163號","121.449176666667","25.08061","6501400","蘆洲區"
"226005","5620-A6","2018/01/19 16:00:06","新北市平溪區白石里中埔226號","121.72197","25.0204083333333","6502400","平溪區"
"224006","676-BX","2018/01/19 16:19:37","新北市瑞芳區中正路2號","121.809333333333","25.1070783333333","6501200","瑞芳區"
"224007","273-VK","2018/01/19 16:19:33","新北市瑞芳區大埔路110號","121.762328333333","25.101845","6501200","瑞芳區"
"224005","271-BY","2018/01/19 16:19:36","新北市瑞芳區明燈路二段66號","121.809528333333","25.1076383333333","6501200","瑞芳區"
"227011","642-TC","2018/01/19 16:19:37","新北市雙溪區三港里雙澳路80號","121.883788333333","25.0538733333333","6502500","雙溪區"
"227003","400-TW","2018/01/19 16:19:38","新北市雙溪區上林里內平林80號","121.828298333333","25.0279433333333","6502500","雙溪區"
"251008","181-VK","2018/01/19 16:19:31","新北市淡水區中正東路36-1號","121.448755","25.165735","6501000","淡水區"
"220001","285-VK","2018/01/19 16:19:31","新北市三重區後埔街80-1號","121.478266666667","25.0459","6500100","板橋區"
