"lineid","car","time","location","longitude","latitude","cityid","cityname"
"249005","172-UM","2018/01/19 16:59:46","新北市八里區渡船頭3-6號","121.43442","25.1529883333333","6502300","八里區"
"249001","173-UM","2018/01/19 16:59:32","新北市八里區中山路三段106號","121.391068333333","25.1422333333333","6502300","八里區"
"249004","303-UY","2018/01/19 16:59:42","新北市八里區挖子尾街20號","121.415515","25.16494","6502300","八里區"
"249002","305-UY","2018/01/19 16:56:42","新北市八里區牛寮埔28-5號","121.432496666667","25.1433183333333","6502300","八里區"
"249003","593-UM","2018/01/19 16:59:47","新北市八里區中山路二段301號","121.401066666667","25.1481033333333","6502300","八里區"
"244009","410-SL","2018/01/19 16:59:42","新北市林口區粉寮69號","121.405021666667","25.090855","6501700","林口區"
"244023","483-VK","2018/01/19 16:59:49","新北市林口區粉寮路二段46-1號","121.403553333333","25.0870183333333","6501700","林口區"
"244021","838-TS","2018/01/19 16:59:47","新北市林口區粉寮69號","121.404806666667","25.0908283333333","6501700","林口區"
"231046","278-BY","2018/01/19 16:59:50","新北市新店區新潭路一段37號","121.523505","24.9418216666667","6500600","新店區"
"241011","013-R5","2018/01/19 16:59:39","新北市三重區仁愛街55巷65號","121.499606666667","25.0729316666667","6500200","三重區"
"241028","022-UY","2018/01/19 16:59:38","新北市三重區中正南路41巷1號","121.493851666667","25.0598716666667","6500200","三重區"
"241008","059-VK","2018/01/19 16:59:29","新北市三重區永福街179巷23號","121.478086666667","25.0748883333333","6500200","三重區"
"241009","060-VK","2018/01/19 16:59:33","新北市三重區仁美街108巷30號","121.48456","25.08047","6500200","三重區"
"241031","061-VK","2018/01/19 16:59:46","新北市三重區重新路三段115巷8號","121.490488333333","25.060195","6500200","三重區"
"241015","062-VK","2018/01/19 16:59:43","新北市三重區中央北路97號","121.500306666667","25.0671766666667","6500200","三重區"
"241024","065-VK","2018/01/19 16:59:49","新北市三重區國道路一段58巷20號","121.481213333333","25.072115","6500200","三重區"
"241002","090-VK","2018/01/19 16:59:46","新北市三重區仁義街126號","121.497576666667","25.080265","6500200","三重區"
"241020","156-TC","2018/01/19 16:59:41","新北市三重區後竹圍街175巷20號","121.4857","25.07267","6500200","三重區"
"241005","262-UM","2018/01/19 16:59:37","新北市三重區碧華街114號","121.484676666667","25.08185","6500200","三重區"
"241026","265-UM","2018/01/19 16:59:51","新北市三重區文化南路42號","121.500353333333","25.0602583333333","6500200","三重區"
"241016","266-UM","2018/01/19 16:59:36","新北市三重區大同北路112號","121.493241666667","25.06398","6500200","三重區"
"241022","267-UM","2018/01/19 16:59:49","新北市三重區中華路125號","121.4836","25.064075","6500200","三重區"
"241018","268-UM","2018/01/19 16:59:47","新北市三重區六張街126巷2弄36號","121.492811666667","25.069555","6500200","三重區"
"241032","269-UM","2018/01/19 16:59:32","新北市三重區三民街7號","121.48574","25.0606833333333","6500200","三重區"
"241013","270-UM","2018/01/19 16:59:46","新北市三重區仁和街42-1號","121.496978333333","25.0737433333333","6500200","三重區"
"241025","271-UM","2018/01/19 16:59:52","新北市三重區中正北路508巷15號","121.472778333333","25.0709183333333","6500200","三重區"
"241007","398-BY","2018/01/19 16:59:45","新北市三重區溪尾街136號","121.489301666667","25.0795983333333","6500200","三重區"
"241003","KEA-2210","2018/01/19 16:59:31","新北市三重區碧華街440號","121.49296","25.0857533333333","6500200","三重區"
"241004","475-VK","2018/01/19 16:59:53","新北市三重區五華街92巷26號","121.491678333333","25.0816016666667","6500200","三重區"
"241019","478-VK","2018/01/19 16:59:48","新北市三重區自強路二段74巷19號","121.488026666667","25.0699583333333","6500200","三重區"
"241030","480-VK","2018/01/19 16:59:34","新北市三重區昌隆街64號","121.491086666667","25.051025","6500200","三重區"
"241014","543-UM","2018/01/19 16:59:35","新北市三重區介壽路189號","121.501416666667","25.0708516666667","6500200","三重區"
"241023","545-UM","2018/01/19 16:59:33","新北市三重區新北大道一段252號","121.479831666667","25.0617433333333","6500200","三重區"
"241001","547-UM","2018/01/19 16:59:30","新北市三重區仁愛街184號","121.494093333333","25.0769816666667","6500200","三重區"
"241033","557-UM","2018/01/19 16:59:45","新北市三重區中興北街271號","121.469186666667","25.06067","6500200","三重區"
"241006","AAD-863","2018/01/19 16:59:41","新北市三重區三和路四段218巷24號","121.485381666667","25.0760783333333","6500200","三重區"
"241017","887-TS","2018/01/19 16:59:33","新北市三重區國隆路12巷1號","121.492861666667","25.0638033333333","6500200","三重區"
"241012","941-UM","2018/01/19 16:59:29","新北市三重區公園街23號","121.498825","25.0740816666667","6500200","三重區"
"241029","942-UM","2018/01/19 16:59:36","新北市三重區環河南路220-8號","121.493323333333","25.0527383333333","6500200","三重區"
"235062","800-TS","2018/01/19 16:53:19","新北市中和區員山路36巷16-3號","121.484841666667","24.9913966666667","6500300","中和區"
"247020","500-BY","2018/01/19 16:59:36","新北市蘆洲區民族路422巷82弄2號","121.47363","25.093705","6501400","蘆洲區"
"247008","341-TH","2018/01/19 16:59:39","新北市蘆洲區中山一路197巷26號","121.474975","25.0798733333333","6501400","蘆洲區"
"247010","339-TH","2018/01/19 16:59:32","新北市蘆洲區三民路26巷73號","121.478808333333","25.08324","6501400","蘆洲區"
"247002","337-TH","2018/01/19 16:59:50","新北市蘆洲區永平街1號","121.458968333333","25.0904666666667","6501400","蘆洲區"
"247004","336-TH","2018/01/19 16:59:42","新北市蘆洲區長安街131巷11號","121.460475","25.08101","6501400","蘆洲區"
"247016","057-VK","2018/01/19 16:59:49","新北市蘆洲區正和街3號","121.470413333333","25.0827366666667","6501400","蘆洲區"
"247006","056-VK","2018/01/19 16:59:39","新北市蘆洲區永安南路二段238號","121.46035","25.0796916666667","6501400","蘆洲區"
"247014","007-UY","2018/01/19 16:59:50","新北市蘆洲區中山二路36巷27號","121.474076666667","25.083085","6501400","蘆洲區"
"247024","002-UY","2018/01/19 16:59:39","新北市蘆洲區長興路202號","121.460581666667","25.0874316666667","6501400","蘆洲區"
"247018","001-UY","2018/01/19 16:59:42","新北市蘆洲區民族路300號","121.477723333333","25.0898866666667","6501400","蘆洲區"
"228001","212-TW","2018/01/19 16:59:48","新北市貢寮區貢寮里朝陽街1-2號","121.912203333333","25.0213016666667","6502600","貢寮區"
"228002","663-BX","2018/01/19 16:59:54","新北市貢寮區貢寮里朝陽街54號","121.910326666667","25.0217216666667","6502600","貢寮區"
"228003","828-UM","2018/01/19 16:59:26","新北市貢寮區福隆里興隆街24-1號","121.94438","25.0166783333333","6502600","貢寮區"
"224006","676-BX","2018/01/19 16:59:46","新北市瑞芳區大寮路356號","121.78455","25.1030583333333","6501200","瑞芳區"
"224009","285-BY","2018/01/19 16:59:50","新北市瑞芳區濱二路31號","121.833891666667","25.1114683333333","6501200","瑞芳區"
"224008","275-VK","2018/01/19 16:59:45","新北市瑞芳區明燈路一段163號","121.819485","25.10745","6501200","瑞芳區"
"224007","273-VK","2018/01/19 16:59:53","新北市瑞芳區瑞竹路46號","121.763565","25.1033566666667","6501200","瑞芳區"
"224005","271-BY","2018/01/19 16:59:36","新北市瑞芳區明里路18號","121.87045","25.12263","6501200","瑞芳區"
"227011","642-TC","2018/01/19 16:59:38","新北市雙溪區牡丹里聖南35號","121.853081666667","25.05611","6502500","雙溪區"
"227003","400-TW","2018/01/19 16:59:38","新北市雙溪區長源里柑腳37號","121.803751666667","25.0135383333333","6502500","雙溪區"
"251004","009-UM","2018/01/19 16:52:32","新北市淡水區中正路二段31號","121.419311666667","25.1819533333333","6501000","淡水區"
"251008","181-VK","2018/01/19 16:59:34","新北市淡水區樹梅坑9號","121.472698333333","25.1427316666667","6501000","淡水區"
"251010","413-VK","2018/01/19 16:59:39","新北市淡水區沙崙路129號","121.422516666667","25.1822883333333","6501000","淡水區"
"251012","441-VK","2018/01/19 16:59:36","新北市淡水區沙崙路97號","121.422176666667","25.1820466666667","6501000","淡水區"
"251005","443-VK","2018/01/19 16:59:40","新北市淡水區中正路二段31號","121.419586666667","25.1814683333333","6501000","淡水區"
"251009","575-R6","2018/01/19 16:59:45","新北市淡水區中正路259號","121.432895","25.174575","6501000","淡水區"
"251007","577-R6","2018/01/19 16:59:46","新北市淡水區真理街1號","121.438221666667","25.172925","6501000","淡水區"
"251011","650-BX","2018/01/19 16:59:38","新北市淡水區中山路26號","121.444458333333","25.16967","6501000","淡水區"
"252002","178-VK","2018/01/19 16:59:46","新北市三芝區忠孝街173號","121.505415","25.2613516666667","6502100","三芝區"
"252001","292-VK","2018/01/19 16:59:47","新北市三芝區淡金路二段43號","121.503273333333","25.2602966666667","6502100","三芝區"
"242032","AAC-296","2018/01/19 16:59:51","新北市新莊區新泰路357巷3弄57號","121.442196666667","25.0395016666667","6500500","新莊區"
"242025","615-BX","2018/01/19 16:59:51","新北市新莊區新泰路255巷83號","121.442156666667","25.0388366666667","6500500","新莊區"
"242023","613-BX","2018/01/19 16:59:48","新北市新莊區新泰路357巷3弄57號","121.44217","25.0393166666667","6500500","新莊區"
"242027","612-BX","2018/01/19 16:59:46","新北市新莊區新泰路255巷83號","121.442461666667","25.0392166666667","6500500","新莊區"
"242048","441-UM","2018/01/19 16:59:44","新北市新莊區三和路12-21號","121.44201","25.03838","6500500","新莊區"
"242005","413-TV","2018/01/19 16:59:45","新北市新莊區新泰路357巷3弄57號","121.442146666667","25.039225","6500500","新莊區"
"242060","362-BY","2018/01/19 16:59:52","新北市新莊區三和路12-21號","121.442191666667","25.0386333333333","6500500","新莊區"
"242058","353-BY","2018/01/19 16:59:35","新北市新莊區新泰路255巷83號","121.442226666667","25.0387183333333","6500500","新莊區"
"242037","133-UY","2018/01/19 16:59:46","新北市新莊區新泰路255巷83號","121.442063333333","25.0388333333333","6500500","新莊區"
"242013","346-TH","2018/01/19 16:59:23","新北市新莊區三和路12-18號","121.441835","25.0376433333333","6500500","新莊區"
"242017","350-TH","2018/01/19 16:59:31","新北市新莊區新泰路255巷83號","121.44203","25.0389233333333","6500500","新莊區"
"242011","351-TH","2018/01/19 16:59:36","新北市新莊區新泰路357巷3弄57號","121.441996666667","25.039655","6500500","新莊區"
"238023","601-UM","2018/01/19 16:59:49","新北市樹林區育德街78-1號","121.388088333333","24.9682783333333","6500700","樹林區"
"238018","571-TV","2018/01/19 16:59:31","新北市樹林區育德街78-1號","121.38812","24.9680683333333","6500700","樹林區"
"238022","KEA-2213","2018/01/19 16:59:29","新北市樹林區育德街78-1號","121.387811666667","24.9680866666667","6500700","樹林區"
"238025","303-VK","2018/01/19 16:59:40","新北市樹林區育德街78號","121.387465","24.96855","6500700","樹林區"
"238017","283-BY","2018/01/19 16:59:46","新北市樹林區育德街78號","121.38791","24.9683033333333","6500700","樹林區"
"238020","268-VK","2018/01/19 16:59:40","新北市樹林區千歲街101-2號","121.428518333333","25.000935","6500700","樹林區"
"238026","172-UY","2018/01/19 16:59:43","新北市樹林區育德街78號","121.387548333333","24.9684383333333","6500700","樹林區"
"239006","891-R6","2018/01/19 16:59:41","新北市鶯歌區二甲路13-16號","121.345305","24.9350816666667","6500800","鶯歌區"
