"lineid","car","time","location","longitude","latitude","cityid","cityname"
"249005","172-UM","2018/01/19 17:09:46","新北市八里區華富山7號","121.420911666667","25.1414466666667","6502300","八里區"
"249001","173-UM","2018/01/19 17:09:32","新北市八里區中華路二段201號","121.405473333333","25.1496566666667","6502300","八里區"
"249004","303-UY","2018/01/19 17:09:33","新北市八里區忠孝路201號","121.422113333333","25.1609","6502300","八里區"
"249002","305-UY","2018/01/19 17:09:02","新北市八里區龍米路二段139號","121.444553333333","25.1485066666667","6502300","八里區"
"249003","593-UM","2018/01/19 17:09:47","新北市八里區中山路二段552號","121.397241666667","25.1463883333333","6502300","八里區"
"244013","069-UM","2018/01/19 17:09:40","新北市林口區粉寮69號","121.405101666667","25.0907966666667","6501700","林口區"
"244007","080-UY","2018/01/19 17:09:40","新北市林口區菁埔13號","121.37843","25.096785","6501700","林口區"
"244009","410-SL","2018/01/19 17:09:42","新北市林口區東林街17號","121.396035","25.079015","6501700","林口區"
"244023","483-VK","2018/01/19 17:09:50","新北市林口區興林路2號","121.389638333333","25.076685","6501700","林口區"
"244025","837-TS","2018/01/19 17:09:30","新北市林口區粉寮路37-1號","121.401226666667","25.0849783333333","6501700","林口區"
"244021","838-TS","2018/01/19 17:09:47","新北市林口區粉寮路二段42號","121.40343","25.0868316666667","6501700","林口區"
"231046","278-BY","2018/01/19 17:09:50","新北市新店區直潭路92號","121.530956666667","24.9376666666667","6500600","新店區"
"241011","013-R5","2018/01/19 17:09:39","新北市三重區龍門路62號","121.49671","25.0725466666667","6500200","三重區"
"241028","022-UY","2018/01/19 17:09:38","新北市三重區重新路三段110號","121.492255","25.060265","6500200","三重區"
"241008","059-VK","2018/01/19 17:09:29","新北市三重區力行路二段136巷7號","121.482158333333","25.075725","6500200","三重區"
"241009","060-VK","2018/01/19 17:09:33","新北市三重區三和路四段233號","121.481176666667","25.0798116666667","6500200","三重區"
"241015","062-VK","2018/01/19 17:09:43","新北市三重區長生街42號","121.499835","25.066525","6500200","三重區"
"241024","065-VK","2018/01/19 17:09:49","新北市三重區中正北路179號","121.477765","25.0694233333333","6500200","三重區"
"241002","090-VK","2018/01/19 17:09:46","新北市三重區五華街37號","121.494738333333","25.08102","6500200","三重區"
"241020","156-TC","2018/01/19 17:09:41","新北市三重區自強路三段16號","121.486853333333","25.072145","6500200","三重區"
"241005","262-UM","2018/01/19 17:09:36","新北市三重區仁愛街711號","121.482256666667","25.08075","6500200","三重區"
"241026","265-UM","2018/01/19 17:09:31","新北市三重區重新路二段1號","121.499598333333","25.0630166666667","6500200","三重區"
"241016","266-UM","2018/01/19 17:07:16","新北市三重區中正北路25巷8號","121.493385","25.06281","6500200","三重區"
"241022","267-UM","2018/01/19 17:09:44","新北市三重區三民街90號","121.485476666667","25.0630633333333","6500200","三重區"
"241018","268-UM","2018/01/19 17:09:47","新北市三重區六張街66號","121.493533333333","25.07008","6500200","三重區"
"241032","269-UM","2018/01/19 17:09:32","新北市三重區重陽路一段78號","121.48666","25.059105","6500200","三重區"
"241013","270-UM","2018/01/19 17:09:46","新北市三重區仁愛街97號","121.495858333333","25.0736533333333","6500200","三重區"
"241025","271-UM","2018/01/19 17:09:32","新北市三重區中正北路560巷89號","121.470958333333","25.068475","6500200","三重區"
"241007","398-BY","2018/01/19 17:09:45","新北市三重區三和路四段163巷28號","121.485078333333","25.0791583333333","6500200","三重區"
"241003","KEA-2210","2018/01/19 17:09:51","新北市三重區仁義街244號","121.494205","25.08553","6500200","三重區"
"241004","475-VK","2018/01/19 17:09:33","新北市三重區五華街98巷13號","121.492008333333","25.082155","6500200","三重區"
"241019","478-VK","2018/01/19 17:09:48","新北市三重區三張街123號","121.487646666667","25.0700183333333","6500200","三重區"
"241030","480-VK","2018/01/19 17:09:34","新北市三重區集成路42號","121.489115","25.0526916666667","6500200","三重區"
"241014","543-UM","2018/01/19 17:09:33","新北市三重區龍濱路189號","121.502033333333","25.0709816666667","6500200","三重區"
"241023","545-UM","2018/01/19 17:09:33","新北市三重區忠孝路三段84巷1號","121.480271666667","25.0644666666667","6500200","三重區"
"241001","547-UM","2018/01/19 17:09:30","新北市三重區仁愛街245巷36號","121.494328333333","25.0784983333333","6500200","三重區"
"241033","557-UM","2018/01/19 17:09:45","新北市三重區中興北街265號","121.46908","25.0600066666667","6500200","三重區"
"241006","AAD-863","2018/01/19 17:09:41","新北市三重區三和路四段264巷2弄1號","121.485578333333","25.0769666666667","6500200","三重區"
"241017","887-TS","2018/01/19 17:09:33","新北市三重區中正北路25巷25弄3號","121.493251666667","25.0626533333333","6500200","三重區"
"241012","941-UM","2018/01/19 17:09:48","新北市三重區河邊北街248巷17號","121.501261666667","25.0758133333333","6500200","三重區"
"241029","942-UM","2018/01/19 17:09:36","新北市三重區重新路三段176號","121.490676666667","25.0593466666667","6500200","三重區"
"235062","800-TS","2018/01/19 16:53:19","新北市中和區員山路36巷16-3號","121.484841666667","24.9913966666667","6500300","中和區"
"247022","893-R6","2018/01/19 17:09:37","新北市蘆洲區三民路222號","121.468698333333","25.0892383333333","6501400","蘆洲區"
"247012","546-UM","2018/01/19 17:09:50","新北市蘆洲區信義路292巷6號","121.478081666667","25.087675","6501400","蘆洲區"
"247020","500-BY","2018/01/19 17:09:36","新北市蘆洲區仁愛街81號","121.47132","25.0938483333333","6501400","蘆洲區"
"247008","341-TH","2018/01/19 17:09:39","新北市蘆洲區信義路30巷38號","121.474518333333","25.078365","6501400","蘆洲區"
"247010","339-TH","2018/01/19 17:09:32","新北市蘆洲區民族路26號","121.476153333333","25.084295","6501400","蘆洲區"
"247002","337-TH","2018/01/19 17:09:50","新北市蘆洲區永樂街94號","121.456366666667","25.0886633333333","6501400","蘆洲區"
"247004","336-TH","2018/01/19 17:09:42","新北市蘆洲區長安街207巷16號","121.459481666667","25.0819166666667","6501400","蘆洲區"
"247016","057-VK","2018/01/19 17:09:49","新北市蘆洲區光華路67號","121.468211666667","25.0827016666667","6501400","蘆洲區"
"247006","056-VK","2018/01/19 17:09:39","新北市蘆洲區長安街108巷19號","121.461726666667","25.0822733333333","6501400","蘆洲區"
"247014","007-UY","2018/01/19 17:09:30","新北市蘆洲區中央路2-1號","121.473246666667","25.0824566666667","6501400","蘆洲區"
"247024","002-UY","2018/01/19 17:09:52","新北市蘆洲區長興路7號","121.464493333333","25.082675","6501400","蘆洲區"
"247018","001-UY","2018/01/19 17:09:42","新北市蘆洲區復興路103號","121.4768","25.0876983333333","6501400","蘆洲區"
"228001","212-TW","2018/01/19 17:09:48","新北市貢寮區仁理村尖山腳街20號","121.92484","25.0478233333333","6502600","貢寮區"
"228002","663-BX","2018/01/19 17:09:35","新北市貢寮區龍崗里嵩陽街55號","121.907661666667","25.016595","6502600","貢寮區"
"228003","828-UM","2018/01/19 17:09:46","新北市貢寮區福隆里東興街11號","121.950421666667","25.0184766666667","6502600","貢寮區"
"224006","676-BX","2018/01/19 17:09:46","新北市瑞芳區大寮路108號","121.781483333333","25.09786","6501200","瑞芳區"
"224009","285-BY","2018/01/19 17:09:50","新北市瑞芳區街頂巷36號","121.843553333333","25.1105633333333","6501200","瑞芳區"
"224008","275-VK","2018/01/19 17:09:43","新北市瑞芳區柴寮路58號","121.827676666667","25.0871933333333","6501200","瑞芳區"
"224007","273-VK","2018/01/19 17:09:33","新北市瑞芳區粗坑口路3號","121.761735","25.0987883333333","6501200","瑞芳區"
"224005","271-BY","2018/01/19 17:09:50","新北市瑞芳區鼻頭路209號","121.915021666667","25.123795","6501200","瑞芳區"
"227011","642-TC","2018/01/19 17:09:38","新北市雙溪區三貂里子崙坑1-5號","121.849811666667","25.0576166666667","6502500","雙溪區"
"227003","400-TW","2018/01/19 17:09:38","新北市雙溪區外柑里外柑腳51號","121.808556666667","25.018015","6502500","雙溪區"
"251004","009-UM","2018/01/19 16:52:32","新北市淡水區中正路二段31號","121.419311666667","25.1819533333333","6501000","淡水區"
"251008","181-VK","2018/01/19 17:09:34","新北市淡水區樹梅坑15號","121.471081666667","25.1436383333333","6501000","淡水區"
"251010","413-VK","2018/01/19 17:09:39","新北市淡水區新市五路二段75號","121.431265","25.1983016666667","6501000","淡水區"
"251012","441-VK","2018/01/19 17:09:36","新北市淡水區中山北路一段158號","121.444226666667","25.1778533333333","6501000","淡水區"
"251005","443-VK","2018/01/19 17:09:40","新北市淡水區原德路38號","121.442431666667","25.172135","6501000","淡水區"
"251006","561-UM","2018/01/19 17:09:48","新北市淡水區新民街21號","121.439098333333","25.175105","6501000","淡水區"
"251009","575-R6","2018/01/19 17:09:45","新北市淡水區三民街19號","121.43898","25.1718616666667","6501000","淡水區"
"251007","577-R6","2018/01/19 17:09:46","新北市淡水區中正東路二段121號","121.459535","25.14998","6501000","淡水區"
"251011","650-BX","2018/01/19 17:09:38","新北市淡水區坪頂路49號","121.457811666667","25.1625916666667","6501000","淡水區"
"251003","766-UM","2018/01/19 17:09:48","新北市淡水區中正路二段31號","121.419491666667","25.1815166666667","6501000","淡水區"
"252002","178-VK","2018/01/19 17:09:46","新北市三芝區忠孝街1-19號","121.505813333333","25.2533266666667","6502100","三芝區"
"252001","292-VK","2018/01/19 17:09:47","新北市三芝區埔頭里埔頭17-2號","121.494348333333","25.2602766666667","6502100","三芝區"
"242032","AAC-296","2018/01/19 17:09:30","新北市新莊區新泰路357巷3弄57號","121.442155","25.0394216666667","6500500","新莊區"
"242029","986-R7","2018/01/19 17:09:41","新北市新莊區新泰路357巷3弄57號","121.44192","25.0392366666667","6500500","新莊區"
"242025","615-BX","2018/01/19 17:09:31","新北市新莊區三和路12-21號","121.442115","25.0387566666667","6500500","新莊區"
"242023","613-BX","2018/01/19 17:09:48","新北市新莊區新泰路357巷3弄57號","121.442053333333","25.039065","6500500","新莊區"
"242027","612-BX","2018/01/19 17:09:46","新北市新莊區新泰路357巷3弄57號","121.44215","25.0391933333333","6500500","新莊區"
"242039","566-BX","2018/01/19 17:09:35","新北市新莊區新泰路357巷3弄33號","121.441941666667","25.0404783333333","6500500","新莊區"
"242044","442-UM","2018/01/19 17:09:34","新北市新莊區中正路466號","121.439083333333","25.03338","6500500","新莊區"
"242048","441-UM","2018/01/19 17:09:44","新北市新莊區中正路510-1號","121.43456","25.032675","6500500","新莊區"
"242054","440-UM","2018/01/19 17:09:46","新北市新莊區新泰路357巷3弄17號","121.442061666667","25.0408583333333","6500500","新莊區"
"242005","413-TV","2018/01/19 17:09:45","新北市新莊區新泰路357巷3弄57號","121.442228333333","25.0394416666667","6500500","新莊區"
"242041","400-BY","2018/01/19 17:09:35","新北市新莊區新泰路357巷3弄57號","121.442208333333","25.0394116666667","6500500","新莊區"
"242060","362-BY","2018/01/19 17:09:32","新北市新莊區三和路12-21號","121.442213333333","25.0382916666667","6500500","新莊區"
"242058","353-BY","2018/01/19 17:09:35","新北市新莊區新泰路255巷83號","121.442178333333","25.03875","6500500","新莊區"
"242037","133-UY","2018/01/19 17:09:46","新北市新莊區新泰路357巷3弄57號","121.442275","25.039345","6500500","新莊區"
"242021","135-UY","2018/01/19 17:09:40","新北市新莊區三和路18-21號","121.441703333333","25.0388133333333","6500500","新莊區"
"242015","175-VK","2018/01/19 17:09:34","新北市新莊區三和路12-21號","121.441978333333","25.0386166666667","6500500","新莊區"
"242002","176-VK","2018/01/19 17:09:50","新北市新莊區三和路12-21號","121.441945","25.03857","6500500","新莊區"
"242013","346-TH","2018/01/19 17:09:43","新北市新莊區三和路12-18號","121.441843333333","25.0376833333333","6500500","新莊區"
"242050","347-TH","2018/01/19 17:09:42","新北市新莊區中正路384-1號","121.442256666667","25.0356133333333","6500500","新莊區"
"242056","349-TH","2018/01/19 17:09:48","新北市新莊區三和路12-16號","121.441923333333","25.0374666666667","6500500","新莊區"
"242017","350-TH","2018/01/19 17:09:51","新北市新莊區三和路12-21號","121.442135","25.0384333333333","6500500","新莊區"
"242011","351-TH","2018/01/19 17:09:36","新北市新莊區新泰路357巷3弄57號","121.44207","25.0395483333333","6500500","新莊區"
"238015","755-BX","2018/01/19 17:09:35","新北市樹林區八德街506號","121.399065","24.9700883333333","6500700","樹林區"
"238023","601-UM","2018/01/19 17:09:50","新北市樹林區中山路二段173號","121.40589","24.9785783333333","6500700","樹林區"
"238019","599-UM","2018/01/19 17:09:50","新北市樹林區八德街495號","121.402271666667","24.9703883333333","6500700","樹林區"
"238018","571-TV","2018/01/19 17:09:51","新北市樹林區環河路250-1號","121.422996666667","24.97516","6500700","樹林區"
"238024","5061-A6","2018/01/19 17:09:38","新北市樹林區八德街247巷24-1號","121.420923333333","24.9739033333333","6500700","樹林區"
"238021","KEA-2217","2018/01/19 17:09:35","新北市樹林區西圳街一段165巷20弄28號","121.395678333333","24.9600516666667","6500700","樹林區"
"238022","KEA-2213","2018/01/19 17:09:49","新北市樹林區八德街247巷24-3號","121.419778333333","24.973195","6500700","樹林區"
"238025","303-VK","2018/01/19 17:09:40","新北市樹林區中洲街2-2號","121.397441666667","24.9730766666667","6500700","樹林區"
"238017","283-BY","2018/01/19 17:09:46","新北市樹林區八德街222號","121.415503333333","24.972065","6500700","樹林區"
"238020","268-VK","2018/01/19 17:09:40","新北市樹林區千歲街101-2號","121.428465","25.0008933333333","6500700","樹林區"
"238026","172-UY","2018/01/19 17:09:43","新北市樹林區新興街25號","121.4","24.9725383333333","6500700","樹林區"
"238016","169-UY","2018/01/19 17:09:46","新北市樹林區中山路二段163號","121.406035","24.9786566666667","6500700","樹林區"
"239007","AAC-297","2018/01/19 17:09:41","新北市鶯歌區信義街48號","121.353338333333","24.9552983333333","6500800","鶯歌區"
"239006","891-R6","2018/01/19 17:09:41","新北市鶯歌區八德路2巷39號","121.336763333333","24.946595","6500800","鶯歌區"
"239008","527-UM","2018/01/19 17:09:48","新北市鶯歌區尖山路57-1號","121.349978333333","24.94974","6500800","鶯歌區"
"239005","526-UM","2018/01/19 17:09:42","新北市鶯歌區德昌街27號","121.33318","24.95962","6500800","鶯歌區"
"239001","417-VK","2018/01/19 17:09:42","新北市鶯歌區尖山路140巷12弄1號","121.346366666667","24.94943","6500800","鶯歌區"
"239003","360-BY","2018/01/19 17:09:49","新北市鶯歌區八德路16號","121.33059","24.9554866666667","6500800","鶯歌區"
"239002","359-BY","2018/01/19 17:09:38","新北市鶯歌區建國路253號","121.348148333333","24.9533966666667","6500800","鶯歌區"
"239004","193-VK","2018/01/19 17:09:52","新北市鶯歌區文化路300號","121.352398333333","24.9467733333333","6500800","鶯歌區"
