"lineid","car","time","location","longitude","latitude","cityid","cityname"
"234026","9371-KE","2018/01/19 17:49:36","新北市永和區中山路一段117巷2號","121.510963333333","25.0102266666667","6500400","永和區"
"249005","172-UM","2018/01/19 17:49:46","新北市八里區荖阡坑路41-10號","121.402375","25.1332483333333","6502300","八里區"
"249001","173-UM","2018/01/19 17:49:32","新北市八里區龍米路二段133號","121.445145","25.1476266666667","6502300","八里區"
"249004","303-UY","2018/01/19 17:49:33","新北市八里區中華路一段81巷29號","121.419598333333","25.1539933333333","6502300","八里區"
"249002","305-UY","2018/01/19 17:49:42","新北市八里區龍形五街35巷9號","121.449523333333","25.1328166666667","6502300","八里區"
"249003","593-UM","2018/01/19 17:49:47","新北市八里區中山路二段123號","121.40544","25.151915","6502300","八里區"
"248016","026-BX","2018/01/19 17:49:45","新北市五股區中興路二段83巷26-6號","121.459996666667","25.075215","6501500","五股區"
"248006","682-TV","2018/01/19 17:49:37","新北市五股區中興路二段83巷26-6號","121.45987","25.0754083333333","6501500","五股區"
"232011","375-UM","2018/01/19 17:49:40","新北市坪林區北宜路八段58號","121.704695","24.9354266666667","6502000","坪林區"
"244013","069-UM","2018/01/19 17:49:40","新北市林口區中正路432號","121.38404","25.0778133333333","6501700","林口區"
"244007","080-UY","2018/01/19 17:49:39","新北市林口區竹林路77-4號","121.388483333333","25.0794816666667","6501700","林口區"
"244019","402-UM","2018/01/19 17:49:44","新北市林口區文化一路一段89-5號","121.37178","25.0705083333333","6501700","林口區"
"244009","410-SL","2018/01/19 17:49:42","新北市林口區中北三街61號","121.38469","25.0855366666667","6501700","林口區"
"244023","483-VK","2018/01/19 17:49:49","新北市林口區東湖路12巷54號","121.388866666667","25.07507","6501700","林口區"
"244017","485-VK","2018/01/19 17:49:23","新北市林口區文化二路一段260巷10號","121.371086666667","25.072915","6501700","林口區"
"244011","656-BX","2018/01/19 17:49:38","新北市林口區佳林路217號","121.383781666667","25.0765916666667","6501700","林口區"
"244025","837-TS","2018/01/19 17:49:50","新北市林口區忠孝三路42號","121.360075","25.0699566666667","6501700","林口區"
"244021","838-TS","2018/01/19 17:49:47","新北市林口區仁愛路一段61巷13號","121.397876666667","25.069585","6501700","林口區"
"222003","436-BY","2018/01/19 17:49:45","新北市深坑區阿柔洋60-1號","121.608613333333","24.9985066666667","6501800","深坑區"
"222002","659-BX","2018/01/19 17:49:32","新北市深坑區平埔街22巷17弄1號","121.614856666667","25.0008533333333","6501800","深坑區"
"231046","278-BY","2018/01/19 17:49:50","新北市新店區下石厝路1號","121.531153333333","24.92966","6500600","新店區"
"241024","065-VK","2018/01/19 17:49:49","新北市三重區車路頭街62巷67號","121.482241666667","25.072255","6500200","三重區"
"241005","262-UM","2018/01/19 17:49:36","新北市三重區碧華街416號","121.492143333333","25.08519","6500200","三重區"
"241016","266-UM","2018/01/19 17:49:36","新北市三重區新北大道一段7號","121.489643333333","25.061385","6500200","三重區"
"241030","480-VK","2018/01/19 17:49:34","新北市三重區中正南路252巷5號","121.493473333333","25.0522833333333","6500200","三重區"
"241033","557-UM","2018/01/19 17:49:45","新北市三重區重新路五段509-5號","121.47202","25.0469016666667","6500200","三重區"
"235064","005-UY","2018/01/19 17:49:47","新北市中和區員山路36巷16-3號","121.485","24.9913066666667","6500300","中和區"
"235063","006-UY","2018/01/19 17:49:46","新北市中和區員山路36巷16-3號","121.48509","24.991325","6500300","中和區"
"235065","098-UM","2018/01/19 17:49:34","新北市中和區員山路36巷16-3號","121.485198333333","24.99115","6500300","中和區"
"235058","151-BY","2018/01/19 17:49:47","新北市中和區員山路36巷16-2號","121.48526","24.9915833333333","6500300","中和區"
"235038","185-VK","2018/01/19 17:49:44","新北市中和區中正路637巷60弄61號","121.485451666667","24.9924983333333","6500300","中和區"
"235062","800-TS","2018/01/19 17:49:50","新北市中和區員山路36巷16-3號","121.484775","24.9915033333333","6500300","中和區"
"247022","893-R6","2018/01/19 17:49:37","新北市蘆洲區中正路314號","121.464601666667","25.0907966666667","6501400","蘆洲區"
"247012","546-UM","2018/01/19 17:49:50","新北市蘆洲區復興路101號","121.476676666667","25.0876066666667","6501400","蘆洲區"
"247020","500-BY","2018/01/19 17:49:36","新北市蘆洲區民義街71巷17號","121.472583333333","25.0905966666667","6501400","蘆洲區"
"247008","341-TH","2018/01/19 17:49:39","新北市蘆洲區中山一路236號","121.472751666667","25.0802083333333","6501400","蘆洲區"
"247010","339-TH","2018/01/19 17:49:32","新北市蘆洲區信義路259巷11號","121.478336666667","25.0844666666667","6501400","蘆洲區"
"247002","337-TH","2018/01/19 17:49:50","新北市蘆洲區永平街32巷33弄4號","121.459221666667","25.0921433333333","6501400","蘆洲區"
"247004","336-TH","2018/01/19 17:49:42","新北市五股區中興路二段182巷50號","121.455606666667","25.0826533333333","6501400","蘆洲區"
"247016","057-VK","2018/01/19 17:49:29","新北市蘆洲區中正路185巷23弄26號","121.467528333333","25.08389","6501400","蘆洲區"
"247006","056-VK","2018/01/19 17:49:39","新北市蘆洲區九芎街115號","121.465535","25.0795333333333","6501400","蘆洲區"
"247014","007-UY","2018/01/19 17:49:50","新北市蘆洲區保和街50-1號","121.46959","25.086215","6501400","蘆洲區"
"247024","002-UY","2018/01/19 17:49:39","新北市蘆洲區長樂路231號","121.461655","25.0899116666667","6501400","蘆洲區"
"247018","001-UY","2018/01/19 17:49:42","新北市蘆洲區復興路227巷2弄2號","121.479968333333","25.0899983333333","6501400","蘆洲區"
"228001","212-TW","2018/01/19 17:49:48","新北市貢寮區仁理村仁愛路95-1號","121.92768","25.0554416666667","6502600","貢寮區"
"228002","663-BX","2018/01/19 17:49:35","新北市貢寮區福隆里龜壽谷街11-1號","121.955301666667","25.0065466666667","6502600","貢寮區"
"228003","828-UM","2018/01/19 17:49:46","新北市貢寮區真理里美艷山街6-2號","121.92881","25.0607483333333","6502600","貢寮區"
"224006","676-BX","2018/01/19 17:49:46","新北市瑞芳區傑魚坑路183號","121.788473333333","25.1083016666667","6501200","瑞芳區"
"224009","285-BY","2018/01/19 17:49:39","新北市瑞芳區新山路147號","121.852025","25.10881","6501200","瑞芳區"
"224008","275-VK","2018/01/19 17:49:37","新北市瑞芳區明燈路一段50號","121.820156666667","25.107025","6501200","瑞芳區"
"224005","271-BY","2018/01/19 17:49:36","新北市瑞芳區建基路一段54號","121.817465","25.1273233333333","6501200","瑞芳區"
"253006","295-VK","2018/01/19 17:49:48","新北市石門區中山路64-1號","121.567591666667","25.2902933333333","6502200","石門區"
"222001","KEA-2212","2018/01/19 17:49:40","新北市深坑區北深路三段25巷15-2號","121.608713333333","24.9995533333333","6501800","深坑區"
"208002","742-BX","2018/01/19 17:49:35","新北市金山區磺清路135號","121.639393333333","25.2276183333333","6502700","金山區"
"208003","665-BX","2018/01/19 17:49:44","新北市金山區磺清路135號","121.639433333333","25.2277816666667","6502700","金山區"
"208001","761-BX","2018/01/19 17:49:36","新北市金山區磺清路135號","121.63939","25.2276266666667","6502700","金山區"
"251004","009-UM","2018/01/19 17:49:32","新北市淡水區民權一街2號","121.45921","25.137505","6501000","淡水區"
"251001","011-UM","2018/01/19 17:49:40","新北市淡水區民權路92巷35-1號","121.462245","25.126615","6501000","淡水區"
"251008","181-VK","2018/01/19 17:49:34","新北市淡水區八勢路一段156號","121.468153333333","25.1565166666667","6501000","淡水區"
"251010","413-VK","2018/01/19 17:49:39","新北市淡水區中正路二段54號","121.41875","25.18424","6501000","淡水區"
"251012","441-VK","2018/01/19 17:49:36","新北市淡水區北新路二段58號","121.478418333333","25.185685","6501000","淡水區"
"251005","443-VK","2018/01/19 17:49:40","新北市淡水區學府路102巷2號","121.45036","25.1719616666667","6501000","淡水區"
"251006","561-UM","2018/01/19 17:49:48","新北市淡水區新生街51巷32號","121.440901666667","25.1758883333333","6501000","淡水區"
"251009","575-R6","2018/01/19 17:49:45","新北市淡水區水源街一段31-1號","121.44341","25.1722916666667","6501000","淡水區"
"251007","577-R6","2018/01/19 17:49:45","新北市淡水區民生路46號","121.461696666667","25.1379466666667","6501000","淡水區"
"251011","650-BX","2018/01/19 17:49:38","新北市淡水區吳(仔)厝20號","121.479305","25.1483516666667","6501000","淡水區"
"251002","672-BX","2018/01/19 17:49:43","新北市淡水區中山路68-2號","121.44351","25.1706266666667","6501000","淡水區"
"251003","766-UM","2018/01/19 17:49:48","新北市淡水區大忠街45號","121.444671666667","25.1763533333333","6501000","淡水區"
"207003","550-UM","2018/01/19 17:49:36","新北市萬里區野柳里東澳路66號","121.6927","25.2009066666667","6502800","萬里區"
"207004","225-TW","2018/01/19 17:49:52","新北市萬里區萬里里瑪鋉頂街61號","121.688036666667","25.1805266666667","6502800","萬里區"
"252002","178-VK","2018/01/19 17:49:46","新北市三芝區中山路一段131號","121.502251666667","25.2565266666667","6502100","三芝區"
"252001","292-VK","2018/01/19 17:49:47","新北市三芝區中興街一段12號","121.497445","25.2592016666667","6502100","三芝區"
"237013","252-BX","2018/01/19 17:49:49","新北市三峽區介壽路一段121號","121.375995","24.9318766666667","6500900","三峽區"
"237012","275-BY","2018/01/19 17:49:32","新北市三峽區大勇路14號","121.366925","24.9382716666667","6500900","三峽區"
"237008","302-VK","2018/01/19 17:49:33","新北市三峽區民權街160號","121.368241666667","24.930965","6500900","三峽區"
"237014","433-BY","2018/01/19 17:49:32","新北市三峽區和平街36巷15號","121.371218333333","24.9369783333333","6500900","三峽區"
"237006","5529-G3","2018/01/19 17:49:34","新北市三峽區介壽路二段42號","121.391328333333","24.9351233333333","6500900","三峽區"
"237015","649-BX","2018/01/19 17:43:25","新北市三峽區白雞2號","121.367915","24.9135383333333","6500900","三峽區"
"237010","706-TV","2018/01/19 17:49:48","新北市三峽區中山路120號","121.365645","24.9359366666667","6500900","三峽區"
"237005","AKY-6261","2018/01/19 17:49:34","新北市三峽區中山路459巷70號","121.354276666667","24.9364766666667","6500900","三峽區"
"236072","105-UM","2018/01/19 17:49:41","新北市土城區城林路6巷80號","121.43846","24.9797283333333","6501300","土城區"
"236027","269-VK","2018/01/19 17:49:49","新北市土城區城林路6巷80號","121.438265","24.9797933333333","6501300","土城區"
"236015","270-VK","2018/01/19 17:49:34","新北市土城區城林路6巷80號","121.438578333333","24.979605","6501300","土城區"
"236039","271-VK","2018/01/19 17:49:42","新北市土城區城林路6巷80號","121.438426666667","24.9797083333333","6501300","土城區"
"236022","401-BY","2018/01/19 17:49:39","新北市土城區城林路6巷80號","121.438713333333","24.9797","6501300","土城區"
"236059","912-UM","2018/01/19 17:49:53","新北市土城區城林路6巷80號","121.43824","24.9797633333333","6501300","土城區"
"236055","AAC-216","2018/01/19 17:49:38","新北市土城區城林路6巷80號","121.438578333333","24.97954","6501300","土城區"
"242032","AAC-296","2018/01/19 17:49:51","新北市新莊區新泰路357巷1弄2號","121.442643333333","25.0412283333333","6500500","新莊區"
"242029","986-R7","2018/01/19 17:49:41","新北市新莊區復興路一段89號","121.448586666667","25.0427833333333","6500500","新莊區"
"242025","615-BX","2018/01/19 17:49:51","新北市新莊區化成路447號","121.464483333333","25.0609983333333","6500500","新莊區"
"242023","613-BX","2018/01/19 17:49:47","新北市新莊區福樂街62號","121.4578","25.0461833333333","6500500","新莊區"
"242027","612-BX","2018/01/19 17:49:46","新北市新莊區福壽街165號","121.457948333333","25.0535183333333","6500500","新莊區"
"242039","566-BX","2018/01/19 17:49:35","新北市新莊區民安路168號","121.424971666667","25.0241533333333","6500500","新莊區"
"242044","442-UM","2018/01/19 17:49:37","新北市新莊區福營路433號","121.420653333333","25.0263033333333","6500500","新莊區"
"242048","441-UM","2018/01/19 17:49:44","新北市新莊區萬安街60巷3號","121.42064","25.0235566666667","6500500","新莊區"
"242054","440-UM","2018/01/19 17:49:46","新北市新莊區民安西路411號","121.43061","25.0088333333333","6500500","新莊區"
"242034","415-TV","2018/01/19 17:49:38","新北市新莊區新莊路805號","121.440615","25.0326933333333","6500500","新莊區"
"242005","413-TV","2018/01/19 17:49:45","新北市新莊區自立街257號","121.459115","25.045595","6500500","新莊區"
"242041","400-BY","2018/01/19 17:49:35","新北市新莊區中正路614巷8弄2號","121.425275","25.0309716666667","6500500","新莊區"
"242060","362-BY","2018/01/19 17:49:32","新北市新莊區新樹路597號","121.433033333333","25.0062316666667","6500500","新莊區"
"242058","353-BY","2018/01/19 17:49:54","新北市新莊區中正路726-4號","121.41636","25.02451","6500500","新莊區"
"242007","132-UY","2018/01/19 17:49:35","新北市新莊區福樂街120號","121.457021666667","25.0478033333333","6500500","新莊區"
"242037","133-UY","2018/01/19 17:49:46","新北市新莊區後港一路103號","121.42821","25.026995","6500500","新莊區"
"242021","135-UY","2018/01/19 17:49:40","新北市新莊區永寧街35巷1號","121.45283","25.0392583333333","6500500","新莊區"
"242046","172-VK","2018/01/19 17:49:36","新北市新莊區福營路125巷3號","121.433183333333","25.031635","6500500","新莊區"
"242009","173-VK","2018/01/19 17:49:44","新北市新莊區昌平街6號","121.454868333333","25.052515","6500500","新莊區"
"242015","175-VK","2018/01/19 17:49:34","新北市新莊區新泰路466號","121.443176666667","25.0449283333333","6500500","新莊區"
"242002","176-VK","2018/01/19 17:49:49","新北市新莊區景德路174號","121.450281666667","25.0341733333333","6500500","新莊區"
"242013","346-TH","2018/01/19 17:49:43","新北市新莊區中誠街171號","121.448125","25.047305","6500500","新莊區"
"242050","347-TH","2018/01/19 17:49:42","新北市新莊區西盛街311巷4號","121.428366666667","25.015175","6500500","新莊區"
"242019","348-TH","2018/01/19 17:49:47","新北市新莊區民樂街50號","121.457998333333","25.0415416666667","6500500","新莊區"
"242056","349-TH","2018/01/19 17:49:48","新北市新莊區瓊林路40巷15號","121.447158333333","25.0301816666667","6500500","新莊區"
"242017","350-TH","2018/01/19 17:49:51","新北市新莊區中港路341號","121.452095","25.0454466666667","6500500","新莊區"
"242011","351-TH","2018/01/19 17:49:36","新北市新莊區富貴路161號","121.450061666667","25.0569583333333","6500500","新莊區"
"238015","755-BX","2018/01/19 17:49:35","新北市樹林區樹德街136巷33號","121.419963333333","24.9941766666667","6500700","樹林區"
"238023","601-UM","2018/01/19 17:49:49","新北市樹林區福興街3號","121.40429","25.017055","6500700","樹林區"
"238019","599-UM","2018/01/19 17:49:50","新北市樹林區太平路148號","121.418513333333","24.9780933333333","6500700","樹林區"
"238018","571-TV","2018/01/19 17:49:51","新北市樹林區博愛街90號","121.426935","24.991915","6500700","樹林區"
"238024","5061-A6","2018/01/19 17:49:38","新北市樹林區育德街78-1號","121.387518333333","24.968115","6500700","樹林區"
"238021","KEA-2217","2018/01/19 17:49:43","新北市樹林區柑園街一段233號","121.396775","24.9566916666667","6500700","樹林區"
"238022","KEA-2213","2018/01/19 17:49:49","新北市樹林區太順街60號","121.417935","24.979355","6500700","樹林區"
"238025","303-VK","2018/01/19 17:49:40","新北市樹林區三俊街43號","121.412501666667","25.0156183333333","6500700","樹林區"
"238017","283-BY","2018/01/19 17:49:46","新北市樹林區三德街30巷16弄35號","121.413815","25.0119066666667","6500700","樹林區"
"238014","282-BY","2018/01/19 17:49:35","新北市樹林區保安街一段293號","121.417973333333","24.99723","6500700","樹林區"
"238020","268-VK","2018/01/19 17:49:40","新北市樹林區俊英街210號","121.425245","25.0093933333333","6500700","樹林區"
"238026","172-UY","2018/01/19 17:49:43","新北市樹林區八德街500號","121.3998","24.9702833333333","6500700","樹林區"
"238016","169-UY","2018/01/19 17:49:46","新北市樹林區育英街154號","121.418811666667","24.989505","6500700","樹林區"
"239007","AAC-297","2018/01/19 17:49:41","新北市鶯歌區永利街38號","121.33934","24.9543916666667","6500800","鶯歌區"
"239006","891-R6","2018/01/19 17:49:41","新北市鶯歌區鶯桃路413巷42號","121.330741666667","24.9634233333333","6500800","鶯歌區"
"239008","527-UM","2018/01/19 17:49:48","新北市鶯歌區國際一路60號","121.335238333333","24.977945","6500800","鶯歌區"
"239005","526-UM","2018/01/19 17:49:41","新北市鶯歌區鳳吉五街39號","121.32759","24.972905","6500800","鶯歌區"
"239001","417-VK","2018/01/19 17:49:42","新北市鶯歌區中正三路398號","121.325675","24.93461","6500800","鶯歌區"
"239003","360-BY","2018/01/19 17:49:49","新北市鶯歌區鶯桃路285巷33號","121.33403","24.9586133333333","6500800","鶯歌區"
"239002","359-BY","2018/01/19 17:49:38","新北市鶯歌區國華路71-1號","121.342886666667","24.95458","6500800","鶯歌區"
"239004","193-VK","2018/01/19 17:49:52","新北市鶯歌區文化路324巷1-37號","121.352281666667","24.9458483333333","6500800","鶯歌區"
"221036","130-UY","2018/01/19 17:49:34","新北市汐止區汐萬路一段125號","121.654145","25.071175","6501100","汐止區"
"221010","269-BY","2018/01/19 17:49:42","新北市汐止區汐萬路二段65號","121.648973333333","25.0824833333333","6501100","汐止區"
"221012","278-VK","2018/01/19 17:49:41","新北市汐止區汐萬路一段124號","121.653613333333","25.0711966666667","6501100","汐止區"
"221023","279-VK","2018/01/19 17:49:51","新北市汐止區民族一街1-1號","121.63487","25.0708766666667","6501100","汐止區"
"221032","280-BY","2018/01/19 17:49:47","新北市汐止區大同路一段154-1號","121.631948333333","25.0558966666667","6501100","汐止區"
"221027","281-BY","2018/01/19 17:49:43","新北市汐止區汐萬路一段310號","121.650371666667","25.0748883333333","6501100","汐止區"
"221029","298-VK","2018/01/19 17:49:41","新北市汐止區康寧街901號","121.651615","25.0750133333333","6501100","汐止區"
"221021","299-VK","2018/01/19 17:49:45","新北市汐止區汐萬路一段35號","121.655715","25.0679533333333","6501100","汐止區"
"221031","353-TW","2018/01/19 17:49:35","新北市汐止區樟樹二路355-1號","121.644561666667","25.07496","6501100","汐止區"
"221008","358-BY","2018/01/19 17:49:34","新北市汐止區康寧街901號","121.651466666667","25.0750933333333","6501100","汐止區"
"221015","567-BX","2018/01/19 17:49:43","新北市汐止區長江街244號","121.663166666667","25.0790633333333","6501100","汐止區"
"221035","622-UM","2018/01/19 17:49:42","新北市汐止區汐萬路一段211巷15號","121.651495","25.0719016666667","6501100","汐止區"
"221025","623-UM","2018/01/19 17:49:38","新北市汐止區大同路二段132-2號","121.651601666667","25.0640416666667","6501100","汐止區"
"221038","646-BX","2018/01/19 17:49:33","新北市汐止區汐萬路一段310號","121.650306666667","25.0746183333333","6501100","汐止區"
"221033","647-BX","2018/01/19 17:49:41","新北市汐止區林森街78號","121.624035","25.0406216666667","6501100","汐止區"
"221018","753-BX","2018/01/19 17:49:42","新北市汐止區汐萬路一段37號","121.655566666667","25.0681433333333","6501100","汐止區"
