"lineid","car","time","location","longitude","latitude","cityid","cityname"
"234026","9371-KE","2018/01/19 17:59:36","新北市永和區永和路一段41號","121.512855","25.0062016666667","6500400","永和區"
"249005","172-UM","2018/01/19 17:59:46","新北市八里區荖阡坑路16-8號","121.40008","25.1392316666667","6502300","八里區"
"249001","173-UM","2018/01/19 17:59:32","新北市八里區龍米路二段30號","121.448723333333","25.1400433333333","6502300","八里區"
"249004","303-UY","2018/01/19 17:59:33","新北市八里區龍米路三段41號","121.425043333333","25.1591466666667","6502300","八里區"
"249002","305-UY","2018/01/19 17:59:42","新北市八里區龍米路一段386巷17號","121.45218","25.132795","6502300","八里區"
"249003","593-UM","2018/01/19 17:59:47","新北市八里區中山路二段306號","121.404681666667","25.1501116666667","6502300","八里區"
"248014","025-BX","2018/01/19 17:59:42","新北市五股區中興路三段188號","121.444761666667","25.0811583333333","6501500","五股區"
"248016","026-BX","2018/01/19 17:59:45","新北市五股區中興路二段157巷11-1號","121.457948333333","25.0769083333333","6501500","五股區"
"248018","225-UY","2018/01/19 17:59:37","新北市五股區中興路二段83巷26-6號","121.460161666667","25.075275","6501500","五股區"
"248006","682-TV","2018/01/19 17:59:37","新北市五股區中興路二段83巷26-6號","121.459748333333","25.07537","6501500","五股區"
"232011","375-UM","2018/01/19 17:59:40","新北市坪林區北宜路八段298號","121.710613333333","24.93519","6502000","坪林區"
"244013","069-UM","2018/01/19 17:59:40","新北市林口區中山路65號","121.393833333333","25.0784116666667","6501700","林口區"
"244007","080-UY","2018/01/19 17:59:39","新北市林口區林口路206號","121.387185","25.08331","6501700","林口區"
"244019","402-UM","2018/01/19 17:59:44","新北市林口區忠孝路542巷10弄1號","121.372625","25.0669366666667","6501700","林口區"
"244009","410-SL","2018/01/19 17:59:42","新北市林口區林口路226號","121.386738333333","25.0837566666667","6501700","林口區"
"244023","483-VK","2018/01/19 17:59:49","新北市林口區東湖路93巷87-1號","121.38557","25.07079","6501700","林口區"
"244017","485-VK","2018/01/19 17:59:43","新北市林口區文化二路一段256號","121.370615","25.073355","6501700","林口區"
"244011","656-BX","2018/01/19 17:59:38","新北市林口區中正路243號","121.390918333333","25.0776616666667","6501700","林口區"
"244025","837-TS","2018/01/19 17:59:30","新北市林口區惠民街28號","121.356718333333","25.06602","6501700","林口區"
"244021","838-TS","2018/01/19 17:59:47","新北市林口區新寮27-1號","121.397153333333","25.0678233333333","6501700","林口區"
"222003","436-BY","2018/01/19 17:59:45","新北市深坑區炮子崙23號","121.607153333333","24.9908866666667","6501800","深坑區"
"222002","659-BX","2018/01/19 17:59:32","新北市深坑區文化街96號","121.617155","25.0018966666667","6501800","深坑區"
"231046","278-BY","2018/01/19 17:59:50","新北市新店區康雅崙路31號","121.537386666667","24.92604","6500600","新店區"
"241024","065-VK","2018/01/19 17:59:49","新北市三重區國道路一段39巷11號","121.48369","25.0729933333333","6500200","三重區"
"241005","262-UM","2018/01/19 17:59:36","新北市三重區自強路四段32-2號","121.488985","25.0769833333333","6500200","三重區"
"241016","266-UM","2018/01/19 17:59:36","新北市三重區中正北路9號","121.492485","25.0612083333333","6500200","三重區"
"241033","557-UM","2018/01/19 17:59:45","新北市三重區重新路五段561號","121.470428333333","25.04597","6500200","三重區"
"235064","005-UY","2018/01/19 17:59:47","新北市中和區員山路36巷16-3號","121.484936666667","24.991195","6500300","中和區"
"235063","006-UY","2018/01/19 17:59:46","新北市中和區員山路36巷16-3號","121.48507","24.9913016666667","6500300","中和區"
"235065","098-UM","2018/01/19 17:59:54","新北市中和區民樂路81號","121.485003333333","25.00143","6500300","中和區"
"235058","151-BY","2018/01/19 17:59:47","新北市中和區錦和路350-1號","121.490158333333","24.9934833333333","6500300","中和區"
"235038","185-VK","2018/01/19 17:59:44","新北市中和區景平路255號","121.50865","24.99303","6500300","中和區"
"235067","255-BX","2018/01/19 17:59:46","新北市中和區員山路36巷16-2號","121.485175","24.9915066666667","6500300","中和區"
"235061","378-QA","2018/01/19 17:59:35","新北市中和區員山路36巷16-2號","121.485243333333","24.9916916666667","6500300","中和區"
"235042","551-UM","2018/01/19 17:59:35","新北市中和區中正路250號","121.495701666667","24.99413","6500300","中和區"
"235062","800-TS","2018/01/19 17:59:50","新北市中和區新生街279號","121.48377","24.997775","6500300","中和區"
"235051","157-BY","2018/01/19 17:59:17","新北市中和區員山路36巷16-3號","121.484851666667","24.991265","6500300","中和區"
"235037","AAC-213","2018/01/19 17:59:34","新北市中和區中正路637巷52弄1號","121.485546666667","24.9935616666667","6500300","中和區"
"247012","546-UM","2018/01/19 17:59:50","新北市蘆洲區民族路157號","121.479468333333","25.0881183333333","6501400","蘆洲區"
"247020","500-BY","2018/01/19 17:59:40","新北市蘆洲區水湳街36-10號","121.471405","25.0896316666667","6501400","蘆洲區"
"247002","337-TH","2018/01/19 17:59:50","新北市蘆洲區永平街32巷57弄14號","121.459278333333","25.0931766666667","6501400","蘆洲區"
"247016","057-VK","2018/01/19 17:59:49","新北市蘆洲區中正路185巷86弄2號","121.465675","25.0840166666667","6501400","蘆洲區"
"247014","007-UY","2018/01/19 17:59:50","新北市蘆洲區中正路201號","121.468481666667","25.085975","6501400","蘆洲區"
"247024","002-UY","2018/01/19 17:59:39","新北市蘆洲區光復路30巷1號","121.463525","25.0844933333333","6501400","蘆洲區"
"247018","001-UY","2018/01/19 17:59:42","新北市蘆洲區復興路231號","121.480128333333","25.0897383333333","6501400","蘆洲區"
"226004","312-R5","2018/01/19 17:59:51","新北市平溪區石底里石筍尖18號","121.730621666667","25.0258283333333","6502400","平溪區"
"228001","212-TW","2018/01/19 17:59:48","新北市貢寮區真理里新港街26巷52號","121.927846666667","25.0532983333333","6502600","貢寮區"
"228002","663-BX","2018/01/19 17:59:54","新北市貢寮區福連里香蘭街3-3號","121.971755","25.024505","6502600","貢寮區"
"228003","828-UM","2018/01/19 17:59:46","新北市貢寮區真理里美艷山街6-2號","121.928801666667","25.06074","6502600","貢寮區"
"224006","676-BX","2018/01/19 17:59:46","新北市瑞芳區傑魚坑路195-4號","121.787751666667","25.10709","6501200","瑞芳區"
"224002","639-TC","2018/01/19 17:59:37","新北市瑞芳區三爪子坑路18號","121.810353333333","25.1065683333333","6501200","瑞芳區"
"224009","285-BY","2018/01/19 17:59:49","新北市瑞芳區金光路338號","121.850226666667","25.1099116666667","6501200","瑞芳區"
"224008","275-VK","2018/01/19 17:59:37","新北市瑞芳區員山子路23號","121.821355","25.1030183333333","6501200","瑞芳區"
"224007","273-VK","2018/01/19 17:59:39","新北市瑞芳區大寮路356-1號","121.784763333333","25.10323","6501200","瑞芳區"
"224005","271-BY","2018/01/19 17:59:36","新北市瑞芳區深澳路145號","121.820241666667","25.13326","6501200","瑞芳區"
"253005","032-BX","2018/01/19 17:59:34","新北市石門區中山路62-7號","121.567381666667","25.290135","6502200","石門區"
"253006","295-VK","2018/01/19 17:59:48","新北市石門區大丘田45-1號","121.54979","25.275105","6502200","石門區"
"222001","KEA-2212","2018/01/19 17:59:40","新北市深坑區北深路二段222號","121.612283333333","25.0013883333333","6501800","深坑區"
"208002","742-BX","2018/01/19 17:59:35","新北市金山區清泉里清水路1號","121.629775","25.2272883333333","6502700","金山區"
"208003","665-BX","2018/01/19 17:59:44","新北市金山區磺港里磺港路192-1號","121.646116666667","25.2275566666667","6502700","金山區"
"208001","761-BX","2018/01/19 17:59:16","新北市金山區磺港里磺港路169號","121.64281","25.2244133333333","6502700","金山區"
"251004","009-UM","2018/01/19 17:59:52","新北市淡水區民權路191號","121.459738333333","25.1332266666667","6501000","淡水區"
"251001","011-UM","2018/01/19 17:59:40","新北市淡水區民權路14號","121.463088333333","25.12451","6501000","淡水區"
"251008","181-VK","2018/01/19 17:59:34","新北市淡水區八勢一街43-8號","121.461926666667","25.1557933333333","6501000","淡水區"
"251010","413-VK","2018/01/19 17:59:39","新北市淡水區淡海路53號","121.423201666667","25.1803216666667","6501000","淡水區"
"251012","441-VK","2018/01/19 17:59:36","新北市淡水區北新路三段38巷7號","121.484575","25.18702","6501000","淡水區"
"251005","443-VK","2018/01/19 17:59:40","新北市淡水區英專路112號","121.445816666667","25.1721633333333","6501000","淡水區"
"251006","561-UM","2018/01/19 17:59:48","新北市淡水區真理街1號","121.438243333333","25.172985","6501000","淡水區"
"251009","575-R6","2018/01/19 17:59:45","新北市淡水區大仁街6巷1號","121.442465","25.1745933333333","6501000","淡水區"
"251007","577-R6","2018/01/19 17:59:45","新北市淡水區中正東路二段145號","121.459696666667","25.1474316666667","6501000","淡水區"
"251011","650-BX","2018/01/19 17:59:46","新北市淡水區三空泉6-3號","121.476983333333","25.1623316666667","6501000","淡水區"
"251002","672-BX","2018/01/19 17:59:43","新北市淡水區鼻頭街18-1號","121.446876666667","25.16671","6501000","淡水區"
"251003","766-UM","2018/01/19 17:59:48","新北市淡水區大忠街113巷10號","121.446971666667","25.1775283333333","6501000","淡水區"
"207003","550-UM","2018/01/19 17:59:36","新北市萬里區港東路野柳風景區攤販66號","121.691308333333","25.2058366666667","6502800","萬里區"
"207004","225-TW","2018/01/19 17:59:32","新北市萬里區中幅里中福路48號","121.683451666667","25.1741416666667","6502800","萬里區"
"252002","178-VK","2018/01/19 17:59:46","新北市三芝區中山路二段35號","121.502886666667","25.25522","6502100","三芝區"
"252001","292-VK","2018/01/19 17:59:47","新北市三芝區中興街二段2號","121.498435","25.2566483333333","6502100","三芝區"
"237007","153-BY","2018/01/19 17:59:45","新北市三峽區中園街205號","121.367035","24.92072","6500900","三峽區"
"237013","252-BX","2018/01/19 17:59:49","新北市三峽區長泰街78巷16-3號","121.376781666667","24.9335583333333","6500900","三峽區"
"237012","275-BY","2018/01/19 17:59:52","新北市三峽區民生街29號","121.375858333333","24.936375","6500900","三峽區"
"237008","302-VK","2018/01/19 17:59:33","新北市三峽區正義街157號","121.368116666667","24.91502","6500900","三峽區"
"237014","433-BY","2018/01/19 17:59:52","新北市三峽區和平街36巷5號","121.370671666667","24.937125","6500900","三峽區"
"237006","5529-G3","2018/01/19 17:59:34","新北市三峽區介壽路二段138巷1弄62-9號","121.397435","24.9330066666667","6500900","三峽區"
"237015","649-BX","2018/01/19 17:43:25","新北市三峽區白雞2號","121.367915","24.9135383333333","6500900","三峽區"
"237010","706-TV","2018/01/19 17:59:48","新北市三峽區中山路81號","121.366808333333","24.935175","6500900","三峽區"
"237005","AKY-6261","2018/01/19 17:59:34","新北市三峽區復興路237巷30號","121.368735","24.9376116666667","6500900","三峽區"
"236072","105-UM","2018/01/19 17:59:41","新北市土城區城林路6巷80號","121.438463333333","24.9797483333333","6501300","土城區"
"236043","107-UM","2018/01/19 17:59:32","新北市土城區城林路6巷80號","121.4386","24.979705","6501300","土城區"
"236031","253-BX","2018/01/19 17:59:43","新北市土城區城林路6巷80號","121.4385","24.9796333333333","6501300","土城區"
"236027","269-VK","2018/01/19 17:59:49","新北市土城區中央路三段96-1號","121.435665","24.9664166666667","6501300","土城區"
"236015","270-VK","2018/01/19 17:59:34","新北市土城區城林路6巷80號","121.438563333333","24.9795916666667","6501300","土城區"
"236039","271-VK","2018/01/19 17:59:42","新北市土城區城林路6巷80號","121.438273333333","24.97985","6501300","土城區"
"236022","401-BY","2018/01/19 17:59:39","新北市土城區城林路6巷80號","121.438711666667","24.9797083333333","6501300","土城區"
"236059","912-UM","2018/01/19 17:59:33","新北市土城區中央路三段134號","121.433625","24.965635","6501300","土城區"
"236050","913-UM","2018/01/19 17:59:44","新北市土城區城林路6巷80號","121.438588333333","24.9796666666667","6501300","土城區"
"236063","915-UM","2018/01/19 17:59:50","新北市土城區城林路6巷80號","121.438601666667","24.9795766666667","6501300","土城區"
"236055","AAC-216","2018/01/19 17:59:38","新北市土城區城林路6巷80號","121.438533333333","24.9795916666667","6501300","土城區"
"242032","AAC-296","2018/01/19 17:59:51","新北市新莊區新泰路305巷15號","121.444731666667","25.0409433333333","6500500","新莊區"
"242029","986-R7","2018/01/19 17:59:41","新北市新莊區新泰路330號","121.444966666667","25.0419066666667","6500500","新莊區"
"242025","615-BX","2018/01/19 17:59:50","新北市新莊區化成路531巷50號","121.461216666667","25.0633966666667","6500500","新莊區"
"242023","613-BX","2018/01/19 17:59:47","新北市新莊區福壽街63號","121.45825","25.0492466666667","6500500","新莊區"
"242027","612-BX","2018/01/19 17:59:46","新北市新莊區思源路391號","121.459873333333","25.0516183333333","6500500","新莊區"
"242039","566-BX","2018/01/19 17:59:48","新北市新莊區民安西路26號","121.426653333333","25.0212266666667","6500500","新莊區"
"242044","442-UM","2018/01/19 17:59:36","新北市新莊區雙鳳路99號","121.414628333333","25.027635","6500500","新莊區"
"242048","441-UM","2018/01/19 17:59:28","新北市新莊區萬安街49號","121.421528333333","25.0245616666667","6500500","新莊區"
"242054","440-UM","2018/01/19 17:59:46","新北市新莊區民安西路327巷4弄19號","121.42875","25.0112233333333","6500500","新莊區"
"242034","415-TV","2018/01/19 17:59:44","新北市新莊區福海街31巷6號","121.444938333333","25.0339166666667","6500500","新莊區"
"242005","413-TV","2018/01/19 17:59:45","新北市新莊區福樂街72巷9號","121.458643333333","25.04665","6500500","新莊區"
"242041","400-BY","2018/01/19 17:59:48","新北市新莊區壽山路8號","121.421285","25.02886","6500500","新莊區"
"242060","362-BY","2018/01/19 17:59:32","新北市新莊區新樹路337號","121.433101666667","25.01865","6500500","新莊區"
"242058","353-BY","2018/01/19 17:59:35","新北市新莊區雙鳳路134巷5號","121.41266","25.0280783333333","6500500","新莊區"
"242007","132-UY","2018/01/19 17:59:42","新北市新莊區自信街65巷1號","121.45545","25.0484716666667","6500500","新莊區"
"242037","133-UY","2018/01/19 17:59:46","新北市新莊區建福路49巷26號","121.427785","25.0279866666667","6500500","新莊區"
"242021","135-UY","2018/01/19 17:59:20","新北市新莊區建興街32號","121.450065","25.03721","6500500","新莊區"
"242046","172-VK","2018/01/19 17:59:38","新北市新莊區福營路195巷11號","121.431521666667","25.0301866666667","6500500","新莊區"
"242009","173-VK","2018/01/19 17:59:45","新北市新莊區中華路二段260號","121.452676666667","25.053205","6500500","新莊區"
"242015","175-VK","2018/01/19 17:59:34","新北市新莊區中平路121號","121.444693333333","25.0466933333333","6500500","新莊區"
"242002","176-VK","2018/01/19 17:59:50","新北市新莊區中正路149號","121.456305","25.0367583333333","6500500","新莊區"
"242013","346-TH","2018/01/19 17:59:43","新北市新莊區中和街125巷12號","121.446985","25.048655","6500500","新莊區"
"242050","347-TH","2018/01/19 17:59:50","新北市新莊區民安西路155巷15號","121.42709","25.01646","6500500","新莊區"
"242019","348-TH","2018/01/19 17:59:44","新北市新莊區明中街47巷15號","121.456955","25.0386733333333","6500500","新莊區"
"242056","349-TH","2018/01/19 17:59:48","新北市新莊區豐年街57-1號","121.446528333333","25.02982","6500500","新莊區"
"242017","350-TH","2018/01/19 17:59:51","新北市新莊區中和街60巷3號","121.448125","25.0448","6500500","新莊區"
"242011","351-TH","2018/01/19 17:59:48","新北市新莊區中港路中慶巷37號","121.449251666667","25.05371","6500500","新莊區"
"238015","755-BX","2018/01/19 17:59:35","新北市樹林區復興路192號","121.419828333333","24.9910466666667","6500700","樹林區"
"238023","601-UM","2018/01/19 17:59:49","新北市樹林區龍興街33號","121.403086666667","25.0158716666667","6500700","樹林區"
"238019","599-UM","2018/01/19 17:59:50","新北市樹林區中華路71號","121.423128333333","24.98308","6500700","樹林區"
"238018","571-TV","2018/01/19 17:59:51","新北市樹林區樹新路40-1號","121.427553333333","24.995135","6500700","樹林區"
"238021","KEA-2217","2018/01/19 17:59:35","新北市樹林區田尾街62號","121.409118333333","24.959625","6500700","樹林區"
"238022","KEA-2213","2018/01/19 17:59:49","新北市樹林區太順街86巷25號","121.416386666667","24.97817","6500700","樹林區"
"238025","303-VK","2018/01/19 17:59:45","新北市樹林區三俊街121號","121.417613333333","25.0155666666667","6500700","樹林區"
"238017","283-BY","2018/01/19 17:59:51","新北市樹林區俊德街58號","121.415208333333","25.0132166666667","6500700","樹林區"
"238014","282-BY","2018/01/19 17:59:35","新北市樹林區大安路125巷9號","121.42281","24.997095","6500700","樹林區"
"238020","268-VK","2018/01/19 17:59:40","新北市樹林區三俊街199巷10-10號","121.420208333333","25.0166333333333","6500700","樹林區"
"238026","172-UY","2018/01/19 17:59:43","新北市樹林區中山路三段125-3號","121.396783333333","24.97335","6500700","樹林區"
"238016","169-UY","2018/01/19 17:59:46","新北市樹林區啟智街151巷9號","121.416476666667","24.9876016666667","6500700","樹林區"
"239007","AAC-297","2018/01/19 17:59:41","新北市鶯歌區鶯桃路55號","121.341948333333","24.952075","6500800","鶯歌區"
"239006","891-R6","2018/01/19 17:59:41","新北市鶯歌區鶯桃路455巷2弄2號","121.331898333333","24.9654066666667","6500800","鶯歌區"
"239008","527-UM","2018/01/19 17:59:48","新北市鶯歌區明圓街6號","121.336663333333","24.978315","6500800","鶯歌區"
"239005","526-UM","2018/01/19 17:59:41","新北市鶯歌區鶯桃路668巷74-1號","121.330576666667","24.97221","6500800","鶯歌區"
"239001","417-VK","2018/01/19 17:59:42","新北市鶯歌區中正三路15號","121.339305","24.9426983333333","6500800","鶯歌區"
"239003","360-BY","2018/01/19 17:59:49","新北市鶯歌區鶯桃路282號","121.335266666667","24.9601166666667","6500800","鶯歌區"
"239002","359-BY","2018/01/19 17:59:38","新北市鶯歌區光明街100號","121.346013333333","24.9560266666667","6500800","鶯歌區"
"239004","193-VK","2018/01/19 17:59:32","新北市鶯歌區尖山路103-7號","121.34802","24.948745","6500800","鶯歌區"
"221036","130-UY","2018/01/19 17:59:34","新北市汐止區大同路三段40號","121.66712","25.076715","6501100","汐止區"
"221010","269-BY","2018/01/19 17:59:33","新北市汐止區汐萬路二段245巷36號","121.644168333333","25.087825","6501100","汐止區"
"221012","278-VK","2018/01/19 17:59:41","新北市汐止區長興街二段36號","121.673398333333","25.081575","6501100","汐止區"
"221023","279-VK","2018/01/19 17:59:51","新北市汐止區明峰街151號","121.629288333333","25.070465","6501100","汐止區"
"221032","280-BY","2018/01/19 17:59:47","新北市汐止區橫科路73巷2-1號","121.619423333333","25.0507983333333","6501100","汐止區"
"221027","281-BY","2018/01/19 17:59:43","新北市汐止區大同路二段374號","121.657813333333","25.0671033333333","6501100","汐止區"
"221029","298-VK","2018/01/19 17:59:41","新北市汐止區樟樹二路332號","121.64149","25.0703166666667","6501100","汐止區"
"221021","299-VK","2018/01/19 17:59:45","新北市汐止區新興路8號","121.656261666667","25.06483","6501100","汐止區"
"221031","353-TW","2018/01/19 17:59:35","新北市汐止區中興路86-5號","121.634653333333","25.06232","6501100","汐止區"
"221008","358-BY","2018/01/19 17:59:34","新北市汐止區明峰街20-1號","121.634538333333","25.07146","6501100","汐止區"
"221015","567-BX","2018/01/19 17:59:40","新北市汐止區長江街333號","121.666921666667","25.0818433333333","6501100","汐止區"
"221035","622-UM","2018/01/19 17:59:42","新北市汐止區新江北路30巷20號","121.651895","25.0693916666667","6501100","汐止區"
"221025","623-UM","2018/01/19 17:59:38","新北市汐止區秀峰路128-1號","121.659838333333","25.063155","6501100","汐止區"
"221038","646-BX","2018/01/19 17:59:45","新北市汐止區連興街123號","121.653851666667","25.0620233333333","6501100","汐止區"
"221033","647-BX","2018/01/19 17:59:41","新北市汐止區合順街39巷1號","121.620658333333","25.0432816666667","6501100","汐止區"
"221002","707-TV","2018/01/19 17:59:46","新北市汐止區工建路202號","121.637036666667","25.0628333333333","6501100","汐止區"
"221018","753-BX","2018/01/19 17:59:42","新北市汐止區招商街18號","121.666511666667","25.068545","6501100","汐止區"
