"lineid","car","time","location","longitude","latitude","cityid","cityname"
"234046","148-BY","2018/01/19 18:59:35","新北市永和區得和路373巷16弄1號","121.5251","25.0002916666667","6500400","永和區"
"234007","207-UY","2018/01/19 18:59:46","新北市永和區中山路一段47號","121.513061666667","25.0104333333333","6500400","永和區"
"234081","298-R6","2018/01/19 18:59:41","新北市永和區永亨路61號","121.521065","25.0060516666667","6500400","永和區"
"234038","336-UY","2018/01/19 18:59:40","新北市永和區成功路二段207號","121.526535","24.995935","6500400","永和區"
"234064","337-UY","2018/01/19 18:59:48","新北市永和區秀朗路一段140號","121.518065","25.0033916666667","6500400","永和區"
"234086","338-UY","2018/01/19 18:59:45","新北市永和區中正路157號","121.51641","24.9983733333333","6500400","永和區"
"234070","552-UM","2018/01/19 18:59:54","新北市永和區中興街84巷8號","121.51857","25.0116566666667","6500400","永和區"
"234054","553-UM","2018/01/19 18:59:44","新北市永和區竹林路66巷4號","121.518191666667","25.0133066666667","6500400","永和區"
"234017","745-BX","2018/01/19 18:59:34","新北市永和區永和路二段297號","121.516075","25.0159966666667","6500400","永和區"
"234030","746-BX","2018/01/19 18:59:48","新北市永和區四維街75號","121.525198333333","24.998035","6500400","永和區"
"234013","KEA-2591","2018/01/19 18:59:42","新北市永和區信義路14-1號","121.514265","25.0120933333333","6500400","永和區"
"234061","AAD-866","2018/01/19 18:59:36","新北市永和區福和路307號","121.516206666667","25.0071983333333","6500400","永和區"
"234042","862-TW","2018/01/19 18:59:50","新北市永和區永貞路320號","121.511553333333","25.005085","6500400","永和區"
"234050","863-TW","2018/01/19 18:59:50","新北市永和區文化路192巷4弄2-1號","121.510878333333","25.01622","6500400","永和區"
"234026","9371-KE","2018/01/19 18:59:40","新北市永和區安樂路453號","121.514311666667","25.005015","6500400","永和區"
"234011","9373-KE","2018/01/19 18:59:51","新北市永和區仁愛路141巷3弄2號","121.511641666667","25.0123316666667","6500400","永和區"
"249005","172-UM","2018/01/19 18:59:46","新北市八里區長道坑2號","121.393576666667","25.1246866666667","6502300","八里區"
"249001","173-UM","2018/01/19 18:59:32","新北市八里區龍米路二段228-1號","121.432745","25.1584316666667","6502300","八里區"
"248016","026-BX","2018/01/19 18:59:45","新北市五股區成泰路三段543巷16號","121.450913333333","25.1022166666667","6501500","五股區"
"248018","225-UY","2018/01/19 18:59:17","新北市五股區民義路二段22巷35-1號","121.424131666667","25.10091","6501500","五股區"
"248012","247-BX","2018/01/19 18:59:41","新北市五股區中興路四段48巷16號","121.438671666667","25.0833916666667","6501500","五股區"
"248004","677-BX","2018/01/19 18:59:40","新北市五股區民義路三段1號","121.403605","25.1129383333333","6501500","五股區"
"248002","678-BX","2018/01/19 18:59:47","新北市五股區凌雲路一段163號","121.448823333333","25.102645","6501500","五股區"
"248006","682-TV","2018/01/19 18:59:37","新北市五股區中興路一段71號","121.467605","25.0727116666667","6501500","五股區"
"234023","9380-KE","2018/01/19 18:59:44","新北市永和區竹林路91巷60弄2-1號","121.52159","25.0129533333333","6500400","永和區"
"234077","969-R7","2018/01/19 18:59:41","新北市永和區中正路286巷7號","121.517681666667","24.9986316666667","6500400","永和區"
"234074","AAC-211","2018/01/19 18:59:42","新北市永和區環河東路二段100號","121.524115","25.010325","6500400","永和區"
"234067","AAC-212","2018/01/19 18:59:47","新北市永和區中和路625號","121.513013333333","25.004905","6500400","永和區"
"234003","AAC-295","2018/01/19 18:59:48","新北市永和區和平街48號","121.512811666667","25.00997","6500400","永和區"
"232011","375-UM","2018/01/19 18:59:37","新北市坪林區水聳淒坑19-1號","121.712453333333","24.9347183333333","6502000","坪林區"
"244013","069-UM","2018/01/19 18:59:40","新北市林口區麗園一街6巷3-2號","121.376193333333","25.06997","6501700","林口區"
"244019","402-UM","2018/01/19 18:59:44","新北市林口區麗園二街76號","121.3819","25.06792","6501700","林口區"
"244009","410-SL","2018/01/19 18:59:53","新北市林口區竹林路462號","121.387898333333","25.0849833333333","6501700","林口區"
"244023","483-VK","2018/01/19 18:59:49","新北市林口區文林六街62巷50號","121.371185","25.0822266666667","6501700","林口區"
"244017","485-VK","2018/01/19 18:59:43","新北市林口區文化二路一段68巷11號","121.366448333333","25.0688433333333","6501700","林口區"
"244011","656-BX","2018/01/19 18:59:38","新北市林口區中正路353號","121.38778","25.0776783333333","6501700","林口區"
"244025","837-TS","2018/01/19 18:59:50","新北市林口區文化北路一段542巷55弄1號","121.369193333333","25.0784816666667","6501700","林口區"
"243011","267-VK","2018/01/19 18:59:45","新北市泰山區明志路二段320巷6弄5號","121.425613333333","25.0466566666667","6501600","泰山區"
"243012","AAD-798","2018/01/19 18:59:52","新北市泰山區仁德路106號","121.432596666667","25.05686","6501600","泰山區"
"243015","380-SR","2018/01/19 18:59:52","新北市泰山區泰林路二段290號","121.430986666667","25.0627433333333","6501600","泰山區"
"243014","421-VK","2018/01/19 18:59:45","新北市泰山區黎明路23號","121.420893333333","25.062595","6501600","泰山區"
"243010","KEA-2215","2018/01/19 18:59:35","新北市泰山區辭修路30號","121.428983333333","25.058155","6501600","泰山區"
"243009","KEA-2216","2018/01/19 18:59:44","新北市泰山區泰林路二段330號","121.42983","25.06325","6501600","泰山區"
"243013","646-TV","2018/01/19 18:59:33","新北市泰山區明志路三段351巷22號","121.422696666667","25.034825","6501600","泰山區"
"222003","436-BY","2018/01/19 18:59:45","新北市深坑區深南路51-1號","121.621351666667","25.0101666666667","6501800","深坑區"
"222002","659-BX","2018/01/19 18:59:52","新北市深坑區旺耽路8號","121.630348333333","25.0046266666667","6501800","深坑區"
"231060","001-UM","2018/01/19 18:59:43","新北市新店區安豐路30-1號","121.50067","24.9570033333333","6500600","新店區"
"231041","002-UM","2018/01/19 18:59:42","新北市新店區環河路76號","121.53703","24.9632216666667","6500600","新店區"
"231059","046-UY","2018/01/19 18:59:52","新北市新店區安康路一段355號","121.51982","24.9628033333333","6500600","新店區"
"231061","047-UY","2018/01/19 18:59:54","新北市新店區安康路一段351-1號","121.51948","24.9638466666667","6500600","新店區"
"231051","107-UY","2018/01/19 18:59:45","新北市新店區三民路187號","121.535061666667","24.97551","6500600","新店區"
"231048","108-UY","2018/01/19 18:59:45","新北市新店區德正街27巷29弄21號","121.545755","24.97197","6500600","新店區"
"231053","188-VK","2018/01/19 18:59:50","新北市新店區屈尺路22號","121.54865","24.922625","6500600","新店區"
"231050","KEA-2219","2018/01/19 18:59:43","新北市新店區北宜路二段30巷5弄1號","121.548263333333","24.9507483333333","6500600","新店區"
"231046","278-BY","2018/01/19 18:59:50","新北市新店區直潭六街20號","121.534455","24.94073","6500600","新店區"
"231054","AAD-862","2018/01/19 18:59:51","新北市新店區新店路13號","121.540283333333","24.9528433333333","6500600","新店區"
"231058","3712-VJ","2018/01/19 18:59:47","新北市新店區中興路一段121號","121.541596666667","24.962985","6500600","新店區"
"231056","3713-VJ","2018/01/19 18:59:48","新北市新店區大同街2號","121.539785","24.9800466666667","6500600","新店區"
"231055","4716-K9","2018/01/19 18:59:51","新北市新店區新生街13巷7號","121.53971","24.9660216666667","6500600","新店區"
"231067","4772-VM","2018/01/19 18:59:45","新北市新店區安康路一段247巷31號","121.524808333333","24.9619066666667","6500600","新店區"
"231065","512-UM","2018/01/19 18:59:29","新北市新店區安祥路190巷1號","121.47832","24.9570716666667","6500600","新店區"
"231064","515-UM","2018/01/19 18:59:47","新北市新店區安忠路36號","121.514271666667","24.9611783333333","6500600","新店區"
"231042","616-UM","2018/01/19 18:59:44","新北市新店區中興路一段285-1號","121.545531666667","24.968555","6500600","新店區"
"231045","617-UM","2018/01/19 18:59:42","新北市新店區北新路一段2-16號","121.538416666667","24.9600316666667","6500600","新店區"
"231040","619-UM","2018/01/19 18:59:40","新北市新店區中正路384號","121.534736666667","24.9771033333333","6500600","新店區"
"231063","645-TV","2018/01/19 18:58:57","新北市新店區車子路110號","121.505223333333","24.9520666666667","6500600","新店區"
"231049","719-UM","2018/01/19 18:59:37","新北市新店區中正路450號","121.534391666667","24.97904","6500600","新店區"
"231062","720-UM","2018/01/19 18:59:54","新北市新店區吉安街41號","121.515401666667","24.966055","6500600","新店區"
"231044","897-TW","2018/01/19 18:59:47","新北市新店區寶中路95-2號","121.548375","24.9806516666667","6500600","新店區"
"231043","899-TW","2018/01/19 18:59:49","新北市新店區北新路二段1號","121.54268","24.9712416666667","6500600","新店區"
"231066","AKT-0513","2018/01/19 18:59:35","新北市新店區安祥路96號","121.488693333333","24.9599483333333","6500600","新店區"
"241035","462-BY","2018/01/19 18:59:53","新北市三重區重新路四段121號","121.484871666667","25.0519933333333","6500200","三重區"
"235066","003-UY","2018/01/19 18:59:39","新北市中和區中山路二段131巷5弄3號","121.502865","25.0028316666667","6500300","中和區"
"235064","005-UY","2018/01/19 18:59:47","新北市中和區泰和街44巷34號","121.498276666667","25.0010416666667","6500300","中和區"
"235063","006-UY","2018/01/19 18:59:46","新北市中和區中正路468號","121.489951666667","24.9942833333333","6500300","中和區"
"235056","096-UM","2018/01/19 18:59:45","新北市中和區新民街94巷18號","121.481486666667","25.0092233333333","6500300","中和區"
"235039","097-UM","2018/01/19 18:59:32","新北市中和區安樂路217巷40弄1號","121.513343333333","24.9979183333333","6500300","中和區"
"235065","098-UM","2018/01/19 18:59:33","新北市中和區勝利路35巷11弄19號","121.500173333333","25.0074233333333","6500300","中和區"
"235040","150-BY","2018/01/19 18:59:47","新北市中和區安樂路91號","121.512985","24.9948233333333","6500300","中和區"
"235058","151-BY","2018/01/19 18:59:47","新北市中和區員山路109號","121.480871666667","24.9947166666667","6500300","中和區"
"235055","183-VK","2018/01/19 18:59:45","新北市中和區民德路25巷1號","121.46918","25.0027933333333","6500300","中和區"
"235038","185-VK","2018/01/19 18:59:44","新北市中和區大勇街48號","121.51754","24.9940383333333","6500300","中和區"
"235049","186-VK","2018/01/19 18:59:44","新北市中和區景新街210巷1號","121.506946666667","24.994875","6500300","中和區"
"235067","255-BX","2018/01/19 18:59:46","新北市中和區新生街163號","121.48371","25.0011266666667","6500300","中和區"
"235044","293-VK","2018/01/19 18:59:49","新北市中和區中興街180巷2號","121.4989","24.99052","6500300","中和區"
"235072","301-VK","2018/01/19 18:59:41","新北市中和區中山路二段248號","121.497776666667","25.0025166666667","6500300","中和區"
"235043","352-BY","2018/01/19 18:59:53","新北市中和區成功路74號","121.525928333333","24.991885","6500300","中和區"
"235068","377-QA","2018/01/19 18:59:37","新北市中和區圓通路291巷2號","121.495228333333","24.99254","6500300","中和區"
"235061","378-QA","2018/01/19 18:59:35","新北市中和區民享街79巷8號","121.474748333333","25.0019016666667","6500300","中和區"
"235050","4979-A6","2018/01/19 18:59:43","新北市中和區華新街65號","121.507996666667","24.9840983333333","6500300","中和區"
"235069","4980-A6","2018/01/19 18:59:35","新北市中和區中和路217巷18弄1號","121.50472","25.0003016666667","6500300","中和區"
"235042","551-UM","2018/01/19 18:59:48","新北市中和區秀朗路三段98號","121.52554","24.9935133333333","6500300","中和區"
"235070","558-UM","2018/01/19 18:59:15","新北市中和區中和路232號","121.506633333333","24.9995783333333","6500300","中和區"
"235045","565-BX","2018/01/19 18:59:44","新北市中和區景新街467巷3號","121.513633333333","24.9882566666667","6500300","中和區"
"235054","640-BX","2018/01/19 18:59:48","新北市中和區民享街1號","121.473845","25.0058716666667","6500300","中和區"
"235060","647-TV","2018/01/19 18:59:51","新北市中和區中山路三段127號","121.474321666667","25.006075","6500300","中和區"
"235047","732-UM","2018/01/19 18:59:43","新北市中和區興南路二段77號","121.506583333333","24.98501","6500300","中和區"
"235046","733-UM","2018/01/19 18:59:52","新北市中和區興南路一段135巷22弄12號","121.50911","24.9867866666667","6500300","中和區"
"235062","800-TS","2018/01/19 18:59:50","新北市中和區中山路二段391號","121.486696666667","25.0046266666667","6500300","中和區"
"235057","801-TS","2018/01/19 18:59:36","新北市中和區民利街58巷1號","121.478888333333","24.9989233333333","6500300","中和區"
"235041","802-TS","2018/01/19 18:59:41","新北市中和區宜安路62號","121.511611666667","24.9971116666667","6500300","中和區"
"235052","805-TS","2018/01/19 18:59:39","新北市中和區興南路二段347號","121.500128333333","24.9800783333333","6500300","中和區"
"235048","896-TW","2018/01/19 18:59:36","新北市中和區華新街109巷4號","121.509058333333","24.9821516666667","6500300","中和區"
"235053","900-TW","2018/01/19 18:59:52","新北市中和區壽德街16號","121.465671666667","24.9951533333333","6500300","中和區"
"235051","157-BY","2018/01/19 18:59:37","新北市中和區忠孝街31巷27號","121.509861666667","24.98425","6500300","中和區"
"235037","AAC-213","2018/01/19 18:59:34","新北市中和區自立路99巷1號","121.522106666667","24.99483","6500300","中和區"
"235059","AAC-215","2018/01/19 18:59:36","新北市中和區圓通路367巷20弄19號","121.491615","24.9884","6500300","中和區"
"220065","072-UY","2018/01/19 18:59:47","新北市板橋區漢生東路340巷11號","121.47144","25.0073033333333","6500100","板橋區"
"220086","073-UY","2018/01/19 18:59:54","新北市板橋區大智街22號","121.455695","25.0148483333333","6500100","板橋區"
"220106","075-UY","2018/01/19 18:59:31","新北市板橋區文化路二段124巷28-2號","121.471235","25.02563","6500100","板橋區"
"220069","AAD-861","2018/01/19 18:59:47","新北市板橋區大華街94號","121.459245","25.005675","6500100","板橋區"
"226004","312-R5","2018/01/19 18:59:51","新北市平溪區靜安路二段532號","121.747043333333","25.02768","6502400","平溪區"
"228001","212-TW","2018/01/19 18:59:48","新北市貢寮區仁理村保健街73號","121.923735","25.051725","6502600","貢寮區"
"228002","663-BX","2018/01/19 18:59:54","新北市貢寮區福隆里東興街106巷25弄1號","121.946413333333","25.0183033333333","6502600","貢寮區"
"228003","828-UM","2018/01/19 18:59:46","新北市貢寮區和美里和美街49號","121.919565","25.107365","6502600","貢寮區"
"224010","AGQ-8101","2018/01/19 18:59:23","新北市瑞芳區基山街73號","121.845021666667","25.1084466666667","6501200","瑞芳區"
"224006","676-BX","2018/01/19 18:59:49","新北市瑞芳區中正路8號","121.808801666667","25.1070483333333","6501200","瑞芳區"
"224009","285-BY","2018/01/19 18:59:49","新北市瑞芳區山尖路54號","121.855498333333","25.1144633333333","6501200","瑞芳區"
"224008","275-VK","2018/01/19 18:59:37","新北市瑞芳區瑞芳街86號","121.802331666667","25.1101833333333","6501200","瑞芳區"
"224007","273-VK","2018/01/19 18:59:39","新北市瑞芳區中央路48巷162號","121.75933","25.1034866666667","6501200","瑞芳區"
"224005","271-BY","2018/01/19 18:59:16","新北市瑞芳區瑞濱路185號","121.816335","25.1135733333333","6501200","瑞芳區"
"227011","642-TC","2018/01/19 18:59:37","新北市雙溪區牡丹里中正路58巷23號","121.866468333333","25.0414366666667","6502500","雙溪區"
"227003","400-TW","2018/01/19 18:59:38","新北市雙溪區平林里康福家園10號","121.85877","25.037285","6502500","雙溪區"
"253005","032-BX","2018/01/19 18:59:54","新北市石門區中央路37-5號","121.570355","25.29671","6502200","石門區"
"253006","295-VK","2018/01/19 18:59:49","新北市石門區八甲11號","121.521981666667","25.2813916666667","6502200","石門區"
"222001","KEA-2212","2018/01/19 18:59:40","新北市深坑區北深路一段300號","121.624248333333","25.005795","6501800","深坑區"
"208002","742-BX","2018/01/19 18:59:55","新北市金山區仁愛路37-13號","121.635731666667","25.2202766666667","6502700","金山區"
"208003","665-BX","2018/01/19 18:59:44","新北市金山區中正路105-1號","121.632706666667","25.2215366666667","6502700","金山區"
"208001","761-BX","2018/01/19 18:59:36","新北市金山區中山路69號","121.640778333333","25.21823","6502700","金山區"
"251001","011-UM","2018/01/19 18:59:40","新北市淡水區自強路60號","121.463128333333","25.12753","6501000","淡水區"
"251010","413-VK","2018/01/19 18:59:49","新北市淡水區中正路一段156巷57號","121.42219","25.18115","6501000","淡水區"
"251009","575-R6","2018/01/19 18:59:45","新北市淡水區重建街34號","121.44","25.171205","6501000","淡水區"
"251002","672-BX","2018/01/19 18:59:43","新北市淡水區中正東路71號","121.447426666667","25.167785","6501000","淡水區"
"251003","766-UM","2018/01/19 18:59:48","新北市淡水區中山北路一段149巷24號","121.442873333333","25.1779883333333","6501000","淡水區"
"207003","550-UM","2018/01/19 18:59:36","新北市萬里區大鵬里頂社14號","121.656051666667","25.2095483333333","6502800","萬里區"
"207004","225-TW","2018/01/19 18:59:52","新北市萬里區萬里里獅頭路23號","121.693241666667","25.1782366666667","6502800","萬里區"
"252002","178-VK","2018/01/19 18:59:46","新北市三芝區中正路一段67-1號","121.503971666667","25.257315","6502100","三芝區"
"252003","249-BX","2018/01/19 18:59:46","新北市三芝區後厝里北勢子42-3號","121.4722","25.2525833333333","6502100","三芝區"
"252001","292-VK","2018/01/19 18:59:47","新北市三芝區中興街二段260號","121.501731666667","25.2530166666667","6502100","三芝區"
"237004","078-UY","2018/01/19 18:59:48","新北市三峽區有木205-1號","121.439015","24.8515433333333","6500900","三峽區"
"237007","153-BY","2018/01/19 18:59:45","新北市三峽區中正路二段85號","121.366448333333","24.91743","6500900","三峽區"
"237013","252-BX","2018/01/19 18:59:49","新北市三峽區光明路69巷25號","121.376805","24.92921","6500900","三峽區"
"237012","275-BY","2018/01/19 18:59:32","新北市三峽區三樹路222巷72號","121.382923333333","24.9422483333333","6500900","三峽區"
"237008","302-VK","2018/01/19 18:59:33","新北市三峽區大同路110號","121.374278333333","24.92691","6500900","三峽區"
"237014","433-BY","2018/01/19 18:59:52","新北市三峽區中山路257巷39號","121.362098333333","24.9365116666667","6500900","三峽區"
"237006","5529-G3","2018/01/19 18:59:34","新北市三峽區溪東路233巷45弄18號","121.40919","24.9336466666667","6500900","三峽區"
"237015","649-BX","2018/01/19 18:59:45","新北市三峽區建安112-1號","121.458188333333","24.9222333333333","6500900","三峽區"
"237010","706-TV","2018/01/19 18:59:47","新北市三峽區民生街53號","121.375395","24.9361983333333","6500900","三峽區"
"237005","AKY-6261","2018/01/19 18:59:34","新北市三峽區中山路459巷163-3號","121.348826666667","24.9330466666667","6500900","三峽區"
"236072","105-UM","2018/01/19 18:59:41","新北市土城區金城路二段151-1號","121.453531666667","24.9809733333333","6501300","土城區"
"236043","107-UM","2018/01/19 18:59:32","新北市土城區學府路一段209巷9號","121.45222","24.9841833333333","6501300","土城區"
"236031","253-BX","2018/01/19 18:59:43","新北市土城區興城路49巷1號","121.440876666667","24.9713283333333","6501300","土城區"
"236027","269-VK","2018/01/19 18:59:49","新北市土城區慶安街18號","121.441715","24.9734616666667","6501300","土城區"
"236015","270-VK","2018/01/19 18:59:53","新北市土城區延和路11號","121.463911666667","24.9879966666667","6501300","土城區"
"236039","271-VK","2018/01/19 18:59:44","新北市土城區青仁路39號","121.461071666667","24.97911","6501300","土城區"
"236022","401-BY","2018/01/19 18:59:38","新北市土城區明峰街50號","121.467795","24.9864766666667","6501300","土城區"
"236059","912-UM","2018/01/19 18:59:33","新北市土城區中央路三段185號","121.430931666667","24.96499","6501300","土城區"
"236050","913-UM","2018/01/19 18:59:44","新北市土城區明德路一段280-1號","121.457068333333","24.9776083333333","6501300","土城區"
"236063","915-UM","2018/01/19 18:59:55","新北市土城區延和路41巷6弄18號","121.466721666667","24.9902316666667","6501300","土城區"
"236055","AAC-216","2018/01/19 18:59:20","新北市土城區學成路100號","121.450101666667","24.989055","6501300","土城區"
"242009","173-VK","2018/01/19 18:59:44","新北市新莊區自立街198號","121.456585","25.045485","6500500","新莊區"
"238023","601-UM","2018/01/19 18:59:49","新北市樹林區工興街14巷1號","121.398895","25.0138716666667","6500700","樹林區"
"238019","599-UM","2018/01/19 18:59:47","新北市樹林區東榮街115號","121.415298333333","24.9820083333333","6500700","樹林區"
"238018","571-TV","2018/01/19 18:59:51","新北市樹林區東榮街8號","121.418078333333","24.9839","6500700","樹林區"
"238024","5061-A6","2018/01/19 18:59:38","新北市樹林區育德街78號","121.387573333333","24.968385","6500700","樹林區"
"238021","KEA-2217","2018/01/19 18:59:41","新北市樹林區西圳街二段123巷6弄1號","121.384643333333","24.9569283333333","6500700","樹林區"
"238022","KEA-2213","2018/01/19 18:59:49","新北市樹林區東興街2-2號","121.40937","24.9794933333333","6500700","樹林區"
"238025","303-VK","2018/01/19 18:59:46","新北市樹林區民和街83巷22號","121.379385","24.972685","6500700","樹林區"
"238017","283-BY","2018/01/19 18:59:46","新北市樹林區光興街50號","121.409848333333","25.0027083333333","6500700","樹林區"
"238014","282-BY","2018/01/19 18:59:35","新北市樹林區潭興街141巷1號","121.425491666667","24.99939","6500700","樹林區"
"238020","268-VK","2018/01/19 18:59:39","新北市樹林區俊英街83巷1號","121.425781666667","25.0080333333333","6500700","樹林區"
"238026","172-UY","2018/01/19 18:59:43","新北市樹林區佳園路一段75巷9-4號","121.394236666667","24.9702183333333","6500700","樹林區"
"238016","169-UY","2018/01/19 18:59:46","新北市樹林區文化街25巷26號","121.418105","24.9866483333333","6500700","樹林區"
"239007","AAC-297","2018/01/19 18:59:41","新北市鶯歌區中山路2巷2號","121.353235","24.9573616666667","6500800","鶯歌區"
"239006","891-R6","2018/01/19 18:59:41","新北市鶯歌區鶯桃路67巷9號","121.340953333333","24.9521166666667","6500800","鶯歌區"
"239008","527-UM","2018/01/19 18:59:47","新北市鶯歌區國際二路20巷1號","121.336563333333","24.9750433333333","6500800","鶯歌區"
"239005","526-UM","2018/01/19 18:59:41","新北市鶯歌區中湖街94-1號","121.348575","24.9729016666667","6500800","鶯歌區"
"239001","417-VK","2018/01/19 18:59:42","新北市鶯歌區鶯桃路136號","121.338026666667","24.954845","6500800","鶯歌區"
"239003","360-BY","2018/01/19 18:59:48","新北市鶯歌區鶯桃路350號","121.333933333333","24.9625883333333","6500800","鶯歌區"
"239002","359-BY","2018/01/19 18:59:38","新北市鶯歌區中正一路271號","121.3551","24.9569733333333","6500800","鶯歌區"
"239004","193-VK","2018/01/19 18:59:52","新北市鶯歌區二甲路106巷1號","121.333836666667","24.9313083333333","6500800","鶯歌區"
"221036","130-UY","2018/01/19 18:59:54","新北市汐止區忠孝東路314巷19弄2號","121.664461666667","25.0683466666667","6501100","汐止區"
"221010","269-BY","2018/01/19 18:59:33","新北市汐止區康寧街901號","121.651383333333","25.0750266666667","6501100","汐止區"
"221012","278-VK","2018/01/19 18:59:41","新北市汐止區康寧街901號","121.650851666667","25.0752516666667","6501100","汐止區"
"221023","279-VK","2018/01/19 18:59:31","新北市汐止區康寧街901號","121.650988333333","25.075215","6501100","汐止區"
"221032","280-BY","2018/01/19 18:59:46","新北市汐止區橫科路407巷25弄13號","121.626095","25.0486416666667","6501100","汐止區"
"221027","281-BY","2018/01/19 18:59:43","新北市汐止區康寧街901號","121.651455","25.0749683333333","6501100","汐止區"
"221029","298-VK","2018/01/19 18:59:41","新北市汐止區樟樹一路258號","121.642455","25.067405","6501100","汐止區"
"221021","299-VK","2018/01/19 18:59:45","新北市汐止區康寧街901號","121.65162","25.0749666666667","6501100","汐止區"
"221031","353-TW","2018/01/19 18:59:35","新北市汐止區福德一路300巷13號","121.630791666667","25.063855","6501100","汐止區"
"221008","358-BY","2018/01/19 18:59:34","新北市汐止區伯爵街2巷5號","121.64226","25.075485","6501100","汐止區"
"221015","567-BX","2018/01/19 18:59:40","新北市汐止區大同路二段563號","121.662726666667","25.0697883333333","6501100","汐止區"
"221025","623-UM","2018/01/19 18:59:38","新北市汐止區汐萬路一段256巷3號","121.652511666667","25.0746066666667","6501100","汐止區"
"221038","646-BX","2018/01/19 18:59:52","新北市汐止區康寧街901號","121.650723333333","25.075275","6501100","汐止區"
"221033","647-BX","2018/01/19 18:59:41","新北市汐止區南勢街1巷1號","121.627028333333","25.037415","6501100","汐止區"
"221002","707-TV","2018/01/19 18:59:46","新北市汐止區大同路一段2號","121.621055","25.055025","6501100","汐止區"
"221018","753-BX","2018/01/19 18:59:42","新北市汐止區大同路二段362號","121.657308333333","25.0671883333333","6501100","汐止區"
"220079","145-BY","2018/01/19 18:59:41","新北市板橋區民權路202巷9弄22號","121.459491666667","25.0156583333333","6500100","板橋區"
"220080","200-UY","2018/01/19 18:59:42","新北市板橋區大觀路二段265巷20弄2號","121.442908333333","24.9983316666667","6500100","板橋區"
"220082","610-BX","2018/01/19 18:59:53","新北市板橋區滿平街76號","121.42746","24.9891783333333","6500100","板橋區"
"220101","245-BX","2018/01/19 18:59:53","新北市板橋區文化路二段182巷5弄1號","121.471671666667","25.0271366666667","6500100","板橋區"
"220096","257-TC","2018/01/19 18:59:46","新北市板橋區莒光路103號","121.472665","25.024005","6500100","板橋區"
"220056","276-BY","2018/01/19 18:59:40","新北市板橋區信義路148號","121.458923333333","24.9917833333333","6500100","板橋區"
"220072","277-BY","2018/01/19 18:59:40","新北市板橋區溪北路166號","121.430838333333","24.9881066666667","6500100","板橋區"
"220071","283-VK","2018/01/19 18:59:45","新北市板橋區重慶路245巷7號","121.463641666667","25.0007516666667","6500100","板橋區"
"220094","285-UM","2018/01/19 18:59:52","新北市板橋區莒光路1-1號","121.469596666667","25.0249433333333","6500100","板橋區"
"220053","285-VK","2018/01/19 18:59:47","新北市板橋區中山路二段89巷58號","121.47378","25.0172766666667","6500100","板橋區"
"220083","286-VK","2018/01/19 18:59:50","新北市板橋區大觀路一段38巷170弄1號","121.441908333333","25.0045883333333","6500100","板橋區"
"220081","287-VK","2018/01/19 18:59:50","新北市板橋區光華街28巷1號","121.453935","25.012505","6500100","板橋區"
"220090","288-VK","2018/01/19 18:59:44","新北市板橋區四維路177巷2弄1號","121.464028333333","25.0262416666667","6500100","板橋區"
"220061","293-UM","2018/01/19 18:59:42","新北市板橋區富山街87號","121.476693333333","25.021875","6500100","板橋區"
"220062","295-UM","2018/01/19 18:59:52","新北市板橋區民享街118號","121.47776","25.01612","6500100","板橋區"
"220084","296-UM","2018/01/19 18:59:52","新北市板橋區龍興街4號","121.442725","24.9994416666667","6500100","板橋區"
"220075","303-R5","2018/01/19 18:59:35","新北市板橋區茶館街19號","121.456528333333","25.01057","6500100","板橋區"
"220092","307-R5","2018/01/19 18:59:36","新北市板橋區漢生東路83巷4號","121.467078333333","25.015925","6500100","板橋區"
"220098","317-R6","2018/01/19 18:59:47","新北市板橋區民有街32號","121.466038333333","25.0254366666667","6500100","板橋區"
"220064","486-VK","2018/01/19 18:59:53","新北市板橋區縣民大道二段100號","121.466826666667","25.0148733333333","6500100","板橋區"
"220089","487-VK","2018/01/19 18:59:42","新北市板橋區文化路二段266號","121.471425","25.0288083333333","6500100","板橋區"
"220088","491-VK","2018/01/19 18:59:47","新北市板橋區民生路二段232-13號","121.468705","25.0224383333333","6500100","板橋區"
"220035","560-BX","2018/01/19 18:59:52","新北市板橋區中正路341巷20號","121.454251666667","25.0201616666667","6500100","板橋區"
"220103","561-BX","2018/01/19 18:59:49","新北市板橋區介壽街130號","121.470105","25.01804","6500100","板橋區"
"220055","630-UY","2018/01/19 18:59:51","新北市板橋區新府路1-1號","121.46444","25.0119866666667","6500100","板橋區"
"220091","637-BX","2018/01/19 18:59:33","新北市板橋區莒光路165巷36號","121.474275","25.025005","6500100","板橋區"
"220057","686-BX","2018/01/19 18:59:41","新北市板橋區館前西路44號","121.458565","25.006915","6500100","板橋區"
"220077","687-BX","2018/01/19 18:59:53","新北市板橋區大觀路二段303號","121.442075","24.9987166666667","6500100","板橋區"
"220093","689-BX","2018/01/19 18:59:43","新北市板橋區民生路二段236號","121.468221666667","25.0230183333333","6500100","板橋區"
"220054","741-BX","2018/01/19 18:59:49","新北市板橋區四川路一段87巷66號","121.46067","25.0056983333333","6500100","板橋區"
"220067","829-TW","2018/01/19 18:59:40","新北市板橋區三民路二段正隆巷12弄15號","121.477691666667","25.01346","6500100","板橋區"
"220102","830-TW","2018/01/19 18:59:43","新北市板橋區縣民大道三段133巷35號","121.477131666667","25.024695","6500100","板橋區"
"220063","833-TW","2018/01/19 18:59:48","新北市板橋區中山路二段132號","121.476398333333","25.0169433333333","6500100","板橋區"
"220074","895-R6","2018/01/19 18:59:47","新北市板橋區林園街24號","121.453831666667","25.0099516666667","6500100","板橋區"
"220073","985-R7","2018/01/19 18:59:46","新北市板橋區民權路200號","121.459106666667","25.0138183333333","6500100","板橋區"
"220097","AAC-210","2018/01/19 18:59:40","新北市板橋區陽明街164巷2-1號","121.463626666667","25.0244616666667","6500100","板橋區"
"220070","AAC-253","2018/01/19 18:59:54","新北市板橋區四川路一段158號","121.459975","25.003325","6500100","板橋區"
