"lineid","car","time","location","longitude","latitude","cityid","cityname"
"234046","148-BY","2018/01/19 19:39:35","新北市永和區成功路一段78號","121.526301666667","25.00329","6500400","永和區"
"234007","207-UY","2018/01/19 19:39:46","新北市中和區中和路454號","121.51206","25.0036416666667","6500400","永和區"
"234081","298-R6","2018/01/19 19:39:53","新北市永和區林森路44巷6弄10號","121.525613333333","25.0051316666667","6500400","永和區"
"234038","336-UY","2018/01/19 19:39:40","新北市永和區民樂街29號","121.527755","25.0014983333333","6500400","永和區"
"234064","337-UY","2018/01/19 19:39:36","新北市永和區秀朗路一段192巷6弄14號","121.519136666667","25.0022616666667","6500400","永和區"
"234086","338-UY","2018/01/19 19:39:50","新北市永和區林森路39巷2-1號","121.525313333333","25.0046633333333","6500400","永和區"
"234070","552-UM","2018/01/19 19:39:33","新北市永和區永和路二段235號","121.515661666667","25.014345","6500400","永和區"
"234054","553-UM","2018/01/19 19:39:44","新北市永和區竹林路39巷21號","121.51902","25.014825","6500400","永和區"
"234017","745-BX","2018/01/19 19:39:54","新北市永和區永和路二段425巷57弄7號","121.513646666667","25.0170416666667","6500400","永和區"
"234030","746-BX","2018/01/19 19:39:48","新北市永和區四維街103巷2號","121.5239","24.997835","6500400","永和區"
"234013","KEA-2591","2018/01/19 19:39:42","新北市永和區仁愛路219號","121.509381666667","25.0123133333333","6500400","永和區"
"234061","AAD-866","2018/01/19 19:39:36","新北市永和區中正路458號","121.517426666667","25.0029783333333","6500400","永和區"
"234042","862-TW","2018/01/19 19:39:55","新北市永和區中和路305巷4號","121.506668333333","25.0002666666667","6500400","永和區"
"234050","863-TW","2018/01/19 19:39:50","新北市永和區保安路76號","121.509926666667","25.0163916666667","6500400","永和區"
"234026","9371-KE","2018/01/19 19:39:35","新北市永和區中和路501巷10號","121.510511666667","25.0026733333333","6500400","永和區"
"234011","9373-KE","2018/01/19 19:39:38","新北市永和區保生路55號","121.50472","25.0107216666667","6500400","永和區"
"249004","303-UY","2018/01/19 19:39:43","新北市八里區博物館路15號","121.415285","25.1635983333333","6502300","八里區"
"249002","305-UY","2018/01/19 19:39:53","新北市八里區頂寮二街33-1號","121.450386666667","25.1251483333333","6502300","八里區"
"249003","593-UM","2018/01/19 19:39:46","新北市八里區中華路二段540號","121.39906","25.1456966666667","6502300","八里區"
"248014","025-BX","2018/01/19 19:39:38","新北市五股區五福路23巷8號","121.433486666667","25.088895","6501500","五股區"
"248016","026-BX","2018/01/19 19:39:45","新北市五股區成泰路三段583號","121.452368333333","25.102705","6501500","五股區"
"248008","095-VK","2018/01/19 19:39:38","新北市五股區四維路118巷13號","121.469228333333","25.0742033333333","6501500","五股區"
"248018","225-UY","2018/01/19 19:33:56","新北市五股區外寮路9-25號","121.415881666667","25.0793233333333","6501500","五股區"
"248012","247-BX","2018/01/19 19:39:41","新北市五股區成泰路二段97號","121.438033333333","25.0841933333333","6501500","五股區"
"248004","677-BX","2018/01/19 19:39:40","新北市五股區成泰路二段82號","121.437375","25.0822333333333","6501500","五股區"
"248002","678-BX","2018/01/19 19:39:47","新北市五股區成泰路三段577巷45號","121.450761666667","25.10311","6501500","五股區"
"234077","969-R7","2018/01/19 19:39:41","新北市永和區民族街67巷25號","121.519333333333","24.9971933333333","6500400","永和區"
"234074","AAC-211","2018/01/19 19:39:42","新北市永和區福和路69號","121.522701666667","25.0078466666667","6500400","永和區"
"234067","AAC-212","2018/01/19 19:39:47","新北市永和區中山路一段191巷9弄4號","121.509845","25.0080216666667","6500400","永和區"
"234003","AAC-295","2018/01/19 19:39:48","新北市永和區安樂路463巷14弄1-1號","121.513543333333","25.005135","6500400","永和區"
"243011","267-VK","2018/01/19 19:39:47","新北市泰山區明志路三段204巷12號","121.42206","25.03826","6501600","泰山區"
"243012","AAD-798","2018/01/19 19:39:43","新北市泰山區仁愛路100巷77號","121.433916666667","25.05438","6501600","泰山區"
"243015","380-SR","2018/01/19 19:39:52","新北市泰山區民權街65號","121.428861666667","25.04986","6501600","泰山區"
"243014","421-VK","2018/01/19 19:39:44","新北市泰山區泰林路二段25號","121.435256666667","25.05637","6501600","泰山區"
"243010","KEA-2215","2018/01/19 19:39:55","新北市泰山區民生路33號","121.430633333333","25.0521766666667","6501600","泰山區"
"243009","KEA-2216","2018/01/19 19:39:44","新北市泰山區美寧街76號","121.431418333333","25.0647116666667","6501600","泰山區"
"243013","646-TV","2018/01/19 19:39:53","新北市泰山區應化街7號","121.423876666667","25.0436966666667","6501600","泰山區"
"243016","680-BX","2018/01/19 19:39:37","新北市泰山區中山路三段114號","121.417835","25.03224","6501600","泰山區"
"222003","436-BY","2018/01/19 19:30:53","新北市深坑區深南路51-1號","121.621255","25.0097733333333","6501800","深坑區"
"222002","659-BX","2018/01/19 19:39:52","新北市深坑區北深路一段177號","121.632496666667","25.0108583333333","6501800","深坑區"
"231060","001-UM","2018/01/19 19:39:43","新北市新店區安康路二段161號","121.51022","24.959315","6500600","新店區"
"231041","002-UM","2018/01/19 19:39:42","新北市新店區中正路487號","121.533765","24.9820633333333","6500600","新店區"
"231059","046-UY","2018/01/19 19:39:52","新北市新店區安和路二段181號","121.518386666667","24.97478","6500600","新店區"
"231061","047-UY","2018/01/19 19:39:54","新北市新店區安民街189-3號","121.516901666667","24.9713083333333","6500600","新店區"
"231051","107-UY","2018/01/19 19:39:45","新北市新店區中央四街42-1號","121.527941666667","24.97478","6500600","新店區"
"231048","108-UY","2018/01/19 19:39:45","新北市新店區中興路二段22-2號","121.547033333333","24.9702733333333","6500600","新店區"
"231053","188-VK","2018/01/19 19:39:50","新北市新店區松林路1號","121.547013333333","24.912155","6500600","新店區"
"231050","KEA-2219","2018/01/19 19:39:43","新北市新店區北宜路二段384號","121.564941666667","24.953245","6500600","新店區"
"231057","256-BX","2018/01/19 19:39:46","新北市新店區橘園一路11號","121.547955","24.9340666666667","6500600","新店區"
"231046","278-BY","2018/01/19 19:39:50","新北市新店區中正路329巷7弄2號","121.535175","24.9741083333333","6500600","新店區"
"231054","AAD-862","2018/01/19 19:39:51","新北市新店區北宜路一段47號","121.538426666667","24.9570266666667","6500600","新店區"
"231058","3712-VJ","2018/01/19 19:39:47","新北市新店區北新路一段98號","121.5421","24.9689583333333","6500600","新店區"
"231056","3713-VJ","2018/01/19 19:39:48","新北市新店區柴埕路59號","121.513576666667","24.964915","6500600","新店區"
"231055","4716-K9","2018/01/19 19:39:37","新北市新店區中華路83巷67號","121.538333333333","24.9674316666667","6500600","新店區"
"231067","4772-VM","2018/01/19 19:39:45","新北市新店區精忠路10-1號","121.53266","24.9590616666667","6500600","新店區"
"231065","512-UM","2018/01/19 19:39:48","新北市新店區安祥路109巷90弄28號","121.477215","24.9592766666667","6500600","新店區"
"231064","515-UM","2018/01/19 19:39:37","新北市新店區安和路一段52巷2號","121.517623333333","24.9662016666667","6500600","新店區"
"231042","616-UM","2018/01/19 19:39:44","新北市新店區中興路一段216號","121.543795","24.96576","6500600","新店區"
"231045","617-UM","2018/01/19 19:39:42","新北市新店區北宜路二段431號","121.560721666667","24.9543366666667","6500600","新店區"
"231040","619-UM","2018/01/19 19:39:40","新北市新店區北新路一段96巷23號","121.543","24.9688633333333","6500600","新店區"
"231063","645-TV","2018/01/19 19:39:37","新北市新店區達觀路41號","121.502806666667","24.9381866666667","6500600","新店區"
"231049","719-UM","2018/01/19 19:39:37","新北市新店區建國路171號","121.538378333333","24.979415","6500600","新店區"
"231062","720-UM","2018/01/19 19:39:53","新北市新店區永業路13號","121.533643333333","24.955835","6500600","新店區"
"231044","897-TW","2018/01/19 19:39:53","新北市新店區順安街30號","121.541015","24.985475","6500600","新店區"
"231043","899-TW","2018/01/19 19:39:49","新北市新店區中正路155號","121.541316666667","24.971805","6500600","新店區"
"231066","AKT-0513","2018/01/19 19:39:35","新北市新店區安康路二段382號","121.500393333333","24.95694","6500600","新店區"
"241011","013-R5","2018/01/19 19:39:52","新北市三重區秀江街226號","121.497011666667","25.0714983333333","6500200","三重區"
"241028","022-UY","2018/01/19 19:39:34","新北市三重區中正南路157號","121.493845","25.0561133333333","6500200","三重區"
"241008","059-VK","2018/01/19 19:39:36","新北市三重區永福街123號","121.478963333333","25.0770166666667","6500200","三重區"
"241009","060-VK","2018/01/19 19:39:41","新北市三重區三和路四段400巷27號","121.480046666667","25.0791683333333","6500200","三重區"
"241031","061-VK","2018/01/19 19:39:46","新北市三重區重新路四段242-2號","121.485983333333","25.0535983333333","6500200","三重區"
"241015","062-VK","2018/01/19 19:39:39","新北市三重區福德北路34號","121.502113333333","25.0651716666667","6500200","三重區"
"241020","156-TC","2018/01/19 19:39:48","新北市三重區後竹圍街2巷1弄3號","121.491728333333","25.0734933333333","6500200","三重區"
"241026","265-UM","2018/01/19 19:39:47","新北市三重區光興街55號","121.498965","25.0601866666667","6500200","三重區"
"241022","267-UM","2018/01/19 19:39:39","新北市三重區中正北路158號","121.484635","25.0659716666667","6500200","三重區"
"241018","268-UM","2018/01/19 19:39:47","新北市三重區大智街59號","121.492706666667","25.0679183333333","6500200","三重區"
"241032","269-UM","2018/01/19 19:39:46","新北市三重區三陽路123號","121.483405","25.05884","6500200","三重區"
"241013","270-UM","2018/01/19 19:39:49","新北市三重區仁愛街129巷4號","121.495838333333","25.0750916666667","6500200","三重區"
"241025","271-UM","2018/01/19 19:39:45","新北市三重區忠孝路三段99巷11號","121.48006","25.064535","6500200","三重區"
"241007","398-BY","2018/01/19 19:39:45","新北市三重區仁美街62號","121.486546666667","25.0782916666667","6500200","三重區"
"241003","KEA-2210","2018/01/19 19:39:56","新北市三重區富華街193號","121.494158333333","25.0856633333333","6500200","三重區"
"241035","462-BY","2018/01/19 19:39:53","新北市三重區信義西街40號","121.498311666667","25.0647066666667","6500200","三重區"
"241019","478-VK","2018/01/19 19:39:48","新北市三重區六張街194巷1弄2號","121.488545","25.0682233333333","6500200","三重區"
"241030","480-VK","2018/01/19 19:39:33","新北市三重區中正南路265號","121.493038333333","25.052665","6500200","三重區"
"241014","543-UM","2018/01/19 19:39:46","新北市三重區長壽街196號","121.504198333333","25.0690533333333","6500200","三重區"
"241023","545-UM","2018/01/19 19:39:53","新北市三重區忠孝路三段99巷4號","121.480025","25.0642333333333","6500200","三重區"
"241006","AAD-863","2018/01/19 19:39:52","新北市三重區聯華街77號","121.485855","25.0753466666667","6500200","三重區"
"241017","887-TS","2018/01/19 19:39:52","新北市三重區大同北路223-1號","121.491143333333","25.0662433333333","6500200","三重區"
"241012","941-UM","2018/01/19 19:39:48","新北市三重區仁義街8號","121.50002","25.075775","6500200","三重區"
"241029","942-UM","2018/01/19 19:39:35","新北市三重區光明路122號","121.492958333333","25.0559483333333","6500200","三重區"
"235066","003-UY","2018/01/19 19:39:39","新北市中和區中和路196巷6號","121.505126666667","24.9991816666667","6500300","中和區"
"235064","005-UY","2018/01/19 19:39:47","新北市中和區南山路30號","121.501951666667","24.99792","6500300","中和區"
"235063","006-UY","2018/01/19 19:39:46","新北市中和區連勝街78號","121.495635","24.9963783333333","6500300","中和區"
"235056","096-UM","2018/01/19 19:39:45","新北市中和區中山路三段114巷65號","121.475731666667","25.0078183333333","6500300","中和區"
"235039","097-UM","2018/01/19 19:39:52","新北市中和區秀峰街103巷7弄2號","121.52005","24.9895283333333","6500300","中和區"
"235065","098-UM","2018/01/19 19:39:54","新北市中和區永和路1-3號","121.499825","25.00314","6500300","中和區"
"235040","150-BY","2018/01/19 19:39:47","新北市中和區宜安路80號","121.511038333333","24.9974416666667","6500300","中和區"
"235058","151-BY","2018/01/19 19:39:47","新北市中和區連城路374巷13號","121.481408333333","24.99592","6500300","中和區"
"235055","183-VK","2018/01/19 19:39:45","新北市中和區民享街2巷8號","121.472981666667","25.0055466666667","6500300","中和區"
"235038","185-VK","2018/01/19 19:39:44","新北市中和區大智街55巷30弄58-1號","121.522258333333","24.993405","6500300","中和區"
"235049","186-VK","2018/01/19 19:39:44","新北市中和區景安路139號","121.505653333333","24.9955583333333","6500300","中和區"
"235067","255-BX","2018/01/19 19:39:45","新北市中和區新生街186巷5弄3號","121.482851666667","24.99946","6500300","中和區"
"235044","293-VK","2018/01/19 19:39:49","新北市中和區南山路284號","121.507873333333","24.9875783333333","6500300","中和區"
"235072","301-VK","2018/01/19 19:39:41","新北市中和區連城路265巷6弄7號","121.491176666667","24.9958133333333","6500300","中和區"
"235043","352-BY","2018/01/19 19:39:53","新北市中和區興南路一段129號","121.509003333333","24.98783","6500300","中和區"
"235068","377-QA","2018/01/19 19:37:37","新北市中和區連勝街57巷20號","121.498085","24.9964466666667","6500300","中和區"
"235061","378-QA","2018/01/19 19:39:51","新北市中和區民利街11號","121.480676666667","24.9989883333333","6500300","中和區"
"235050","4979-A6","2018/01/19 19:39:43","新北市中和區錦和路350-1號","121.490511666667","24.9935466666667","6500300","中和區"
"235042","551-UM","2018/01/19 19:39:55","新北市中和區保健路29巷10弄2號","121.509061666667","24.9980583333333","6500300","中和區"
"235070","558-UM","2018/01/19 19:36:15","新北市中和區南山路123號","121.502113333333","24.9971916666667","6500300","中和區"
"235045","565-BX","2018/01/19 19:39:51","新北市中和區景新街557號","121.51538","24.9864433333333","6500300","中和區"
"235054","640-BX","2018/01/19 19:39:48","新北市中和區國光街107巷4弄12號","121.470158333333","24.9994766666667","6500300","中和區"
"235060","647-TV","2018/01/19 19:39:38","新北市中和區中山路二段523巷41號","121.48233","25.00328","6500300","中和區"
"235047","732-UM","2018/01/19 19:39:43","新北市中和區捷運路79號","121.508475","24.9900716666667","6500300","中和區"
"235046","733-UM","2018/01/19 19:39:52","新北市中和區四維街9號","121.513286666667","24.987225","6500300","中和區"
"235057","801-TS","2018/01/19 19:39:36","新北市中和區員山路160號","121.481386666667","24.999605","6500300","中和區"
"235041","802-TS","2018/01/19 19:39:41","新北市中和區永貞路249巷18號","121.512425","25.0036266666667","6500300","中和區"
"235052","805-TS","2018/01/19 19:39:39","新北市中和區華新街204號","121.506566666667","24.9820183333333","6500300","中和區"
"235048","896-TW","2018/01/19 19:39:36","新北市中和區華新街44號","121.507895","24.984215","6500300","中和區"
"235053","900-TW","2018/01/19 19:39:52","新北市中和區國光街184巷26號","121.467553333333","25.0021166666667","6500300","中和區"
"235051","157-BY","2018/01/19 19:39:37","新北市中和區中興街132巷22號","121.49878","24.9918466666667","6500300","中和區"
"235037","AAC-213","2018/01/19 19:39:53","新北市中和區秀朗路三段103號","121.526498333333","24.9947766666667","6500300","中和區"
"235059","AAC-215","2018/01/19 19:39:36","新北市中和區圓通路305巷3弄1號","121.493495","24.9905366666667","6500300","中和區"
"220065","072-UY","2018/01/19 19:39:47","新北市板橋區國泰街39巷3弄11號","121.468905","25.0065466666667","6500100","板橋區"
"220086","073-UY","2018/01/19 19:39:34","新北市板橋區國光路157號","121.459826666667","25.0182183333333","6500100","板橋區"
"220106","075-UY","2018/01/19 19:39:54","新北市板橋區民治街26巷10號","121.477503333333","25.03378","6500100","板橋區"
"220069","AAD-861","2018/01/19 19:39:38","新北市板橋區稚暉街39號","121.457193333333","25.0040416666667","6500100","板橋區"
"247008","341-TH","2018/01/19 19:39:19","新北市蘆洲區中山一路138號","121.476216666667","25.0816366666667","6501400","蘆洲區"
"247004","336-TH","2018/01/19 19:39:53","新北市蘆洲區長安街102巷26號","121.462806666667","25.0820416666667","6501400","蘆洲區"
"226004","312-R5","2018/01/19 19:39:51","新北市平溪區十分里十分街303號","121.776243333333","25.044","6502400","平溪區"
"228001","212-TW","2018/01/19 19:39:48","新北市貢寮區真理里延平街89號","121.924508333333","25.0562366666667","6502600","貢寮區"
"228003","828-UM","2018/01/19 19:39:46","新北市貢寮區真理里美艷山街15-3號","121.923691666667","25.0680066666667","6502600","貢寮區"
"224010","AGQ-8101","2018/01/19 19:39:35","新北市瑞芳區基山街265號","121.841161666667","25.1074783333333","6501200","瑞芳區"
"224002","639-TC","2018/01/19 19:39:37","新北市瑞芳區民享新村26號","121.817143333333","25.1058","6501200","瑞芳區"
"227011","642-TC","2018/01/19 19:39:39","新北市雙溪區新基里新基北街19巷14號","121.867131666667","25.0381866666667","6502500","雙溪區"
"227003","400-TW","2018/01/19 19:39:38","新北市雙溪區雙溪里太平路33號","121.864548333333","25.0353783333333","6502500","雙溪區"
"222001","KEA-2212","2018/01/19 19:39:40","新北市深坑區北深路二段204號","121.612875","25.001495","6501800","深坑區"
"208002","742-BX","2018/01/19 19:39:35","新北市金山區三民街3號","121.63481","25.2223916666667","6502700","金山區"
"208003","665-BX","2018/01/19 19:39:44","新北市金山區仁愛路19號","121.637571666667","25.2191966666667","6502700","金山區"
"208001","761-BX","2018/01/19 19:39:30","新北市金山區重和里六股林口5-1號","121.609028333333","25.2222316666667","6502700","金山區"
"251004","009-UM","2018/01/19 19:39:49","新北市淡水區民權路49號","121.45973","25.139565","6501000","淡水區"
"251001","011-UM","2018/01/19 19:39:48","新北市淡水區民權路39號","121.459765","25.1407366666667","6501000","淡水區"
"251008","181-VK","2018/01/19 19:39:43","新北市淡水區中正路一段8巷1弄11號","121.428348333333","25.1758516666667","6501000","淡水區"
"251010","413-VK","2018/01/19 19:39:38","新北市淡水區崁頂三路177號","121.42966","25.2016716666667","6501000","淡水區"
"251012","441-VK","2018/01/19 19:39:36","新北市淡水區中山北路三段158號","121.445625","25.196175","6501000","淡水區"
"251005","443-VK","2018/01/19 19:39:45","新北市淡水區原德路108巷2號","121.443358333333","25.173545","6501000","淡水區"
"251006","561-UM","2018/01/19 19:39:48","新北市淡水區中山北路一段207巷26號","121.44345","25.1792083333333","6501000","淡水區"
"251009","575-R6","2018/01/19 19:39:45","新北市淡水區重建街226號","121.441536666667","25.1750283333333","6501000","淡水區"
"251007","577-R6","2018/01/19 19:39:45","新北市淡水區中正東路一段111巷24號","121.45531","25.1606483333333","6501000","淡水區"
"251011","650-BX","2018/01/19 19:39:53","新北市淡水區八勢一街7-17號","121.460633333333","25.157245","6501000","淡水區"
"251002","672-BX","2018/01/19 19:39:23","新北市淡水區下圭柔山91-3號","121.430886666667","25.210035","6501000","淡水區"
"207003","550-UM","2018/01/19 19:39:36","新北市萬里區大鵬里下社35號","121.64939","25.2169366666667","6502800","萬里區"
"207004","225-TW","2018/01/19 19:39:52","新北市萬里區萬里里瑪鋉路5號","121.686801666667","25.17526","6502800","萬里區"
"252002","178-VK","2018/01/19 19:39:46","新北市三芝區三民街20號","121.504513333333","25.25862","6502100","三芝區"
"252001","292-VK","2018/01/19 19:39:47","新北市三芝區公正街9號","121.499715","25.2575383333333","6502100","三芝區"
"237004","078-UY","2018/01/19 19:39:47","新北市三峽區插角6號","121.401131666667","24.8734266666667","6500900","三峽區"
"237007","153-BY","2018/01/19 19:39:45","新北市三峽區二鬮路136巷18弄14號","121.358935","24.9085933333333","6500900","三峽區"
"237009","210-TH","2018/01/19 19:39:44","新北市三峽區中園街20號","121.368355","24.9269866666667","6500900","三峽區"
"237013","252-BX","2018/01/19 19:39:49","新北市三峽區橫溪路78號","121.397445","24.9353","6500900","三峽區"
"237012","275-BY","2018/01/19 19:39:12","新北市三峽區民生街3號","121.374551666667","24.93537","6500900","三峽區"
"237008","302-VK","2018/01/19 19:39:53","新北市三峽區大同路217號","121.370221666667","24.9270066666667","6500900","三峽區"
"237014","433-BY","2018/01/19 19:39:32","新北市三峽區添福2號","121.371811666667","24.9062983333333","6500900","三峽區"
"237006","5529-G3","2018/01/19 19:39:54","新北市三峽區中正路一段336巷15弄2號","121.369961666667","24.924935","6500900","三峽區"
"237015","649-BX","2018/01/19 19:39:45","新北市三峽區成福路78號","121.420351666667","24.9298233333333","6500900","三峽區"
"237005","AKY-6261","2018/01/19 19:39:34","新北市三峽區中山路184巷1弄1號","121.363665","24.9368916666667","6500900","三峽區"
"236072","105-UM","2018/01/19 19:39:41","新北市土城區學士路81-5號","121.450465","24.9799283333333","6501300","土城區"
"236043","107-UM","2018/01/19 19:39:32","新北市土城區學士路12巷2號","121.453721666667","24.9830516666667","6501300","土城區"
"236031","253-BX","2018/01/19 19:39:43","新北市土城區福祥街64號","121.441533333333","24.9815833333333","6501300","土城區"
"236027","269-VK","2018/01/19 19:39:49","新北市土城區中央路二段61巷26號","121.443311666667","24.978705","6501300","土城區"
"236039","271-VK","2018/01/19 19:39:42","新北市土城區青雲路257巷2號","121.459383333333","24.9808216666667","6501300","土城區"
"236022","401-BY","2018/01/19 19:39:38","新北市土城區明峰街83號","121.468895","24.9873916666667","6501300","土城區"
"236059","912-UM","2018/01/19 19:39:33","新北市土城區中央路二段162號","121.441945","24.9763633333333","6501300","土城區"
"236050","913-UM","2018/01/19 19:39:44","新北市土城區延吉街329-2號","121.46547","24.9840133333333","6501300","土城區"
"236063","915-UM","2018/01/19 19:39:50","新北市土城區延平街64號","121.467865","24.9927866666667","6501300","土城區"
"236055","AAC-216","2018/01/19 19:39:53","新北市土城區學府路一段93號","121.45648","24.9879483333333","6501300","土城區"
"242032","AAC-296","2018/01/19 19:39:38","新北市新莊區新泰路225巷43弄1號","121.444108333333","25.0386466666667","6500500","新莊區"
"242025","615-BX","2018/01/19 19:39:43","新北市新莊區中平路441號","121.444345","25.0556216666667","6500500","新莊區"
"242044","442-UM","2018/01/19 19:39:50","新北市新莊區新北大道七段760號","121.412785","25.0254766666667","6500500","新莊區"
"242048","441-UM","2018/01/19 19:39:44","新北市新莊區民安路49號","121.423956666667","25.026145","6500500","新莊區"
"242005","413-TV","2018/01/19 19:39:45","新北市新莊區復興路三段19號","121.460608333333","25.0445016666667","6500500","新莊區"
"242037","133-UY","2018/01/19 19:39:45","新北市新莊區民安路207巷19號","121.426873333333","25.0231","6500500","新莊區"
"242009","173-VK","2018/01/19 19:39:44","新北市新莊區自立街198號","121.456571666667","25.0454183333333","6500500","新莊區"
"242013","346-TH","2018/01/19 19:39:45","新北市新莊區中泰街84號","121.449658333333","25.0468333333333","6500500","新莊區"
"242019","348-TH","2018/01/19 19:39:36","新北市新莊區新泰路357巷3弄57號","121.44242","25.0397","6500500","新莊區"
"242011","351-TH","2018/01/19 19:39:45","新北市新莊區中平路441號","121.444176666667","25.0556183333333","6500500","新莊區"
"238015","755-BX","2018/01/19 19:39:47","新北市樹林區中山路一段108巷22-1號","121.42189","24.9914266666667","6500700","樹林區"
"238023","601-UM","2018/01/19 19:39:49","新北市樹林區三福街125巷2號","121.40501","25.0159033333333","6500700","樹林區"
"238024","5061-A6","2018/01/19 19:39:38","新北市樹林區中山路三段155巷14弄1號","121.39611","24.972545","6500700","樹林區"
"238021","KEA-2217","2018/01/19 19:39:41","新北市樹林區大成路150號","121.382608333333","24.9462666666667","6500700","樹林區"
"238022","KEA-2213","2018/01/19 19:39:49","新北市樹林區國凱街50巷2號","121.420395","24.9786083333333","6500700","樹林區"
"238025","303-VK","2018/01/19 19:39:50","新北市樹林區中山路二段80-1號","121.414881666667","24.983765","6500700","樹林區"
"238017","283-BY","2018/01/19 19:39:46","新北市樹林區保安街二段45巷40-1號","121.414131666667","25.0001483333333","6500700","樹林區"
"238014","282-BY","2018/01/19 19:39:35","新北市樹林區千歲街30巷26弄4號","121.426345","24.995995","6500700","樹林區"
"238020","268-VK","2018/01/19 19:39:39","新北市樹林區中正路241號","121.430195","24.9986116666667","6500700","樹林區"
"239006","891-R6","2018/01/19 19:39:41","新北市鶯歌區文化路55號","121.359105","24.955275","6500800","鶯歌區"
"239002","359-BY","2018/01/19 19:39:38","新北市鶯歌區中山路131號","121.34941","24.9570183333333","6500800","鶯歌區"
"221036","130-UY","2018/01/19 19:39:54","新北市汐止區汐萬路一段256巷1號","121.651976666667","25.074795","6501100","汐止區"
"221010","269-BY","2018/01/19 19:39:53","新北市汐止區汐萬路二段9號","121.649416666667","25.080595","6501100","汐止區"
"221012","278-VK","2018/01/19 19:39:40","新北市汐止區大同路三段491號","121.679891666667","25.071115","6501100","汐止區"
"221023","279-VK","2018/01/19 19:39:51","新北市汐止區中興路286巷1號","121.628305","25.0695333333333","6501100","汐止區"
"221032","280-BY","2018/01/19 19:39:46","新北市汐止區新台五路一段83號","121.646316666667","25.0610083333333","6501100","汐止區"
"221027","281-BY","2018/01/19 19:39:37","新北市汐止區忠孝東路9號","121.658305","25.065935","6501100","汐止區"
"221029","298-VK","2018/01/19 19:39:41","新北市汐止區康寧街901號","121.651453333333","25.07495","6501100","汐止區"
"221021","299-VK","2018/01/19 19:39:45","新北市汐止區南興路9號","121.652031666667","25.06258","6501100","汐止區"
"221031","353-TW","2018/01/19 19:39:28","新北市汐止區康寧街901號","121.650973333333","25.0751116666667","6501100","汐止區"
"221008","358-BY","2018/01/19 19:39:14","新北市汐止區康寧街61巷46號","121.620236666667","25.0678283333333","6501100","汐止區"
"221015","567-BX","2018/01/19 19:39:39","新北市汐止區汐萬路一段256巷1號","121.65173","25.0748916666667","6501100","汐止區"
"221025","623-UM","2018/01/19 19:39:37","新北市汐止區秀峰路81巷15弄47號","121.66175","25.0649083333333","6501100","汐止區"
"221038","646-BX","2018/01/19 19:39:52","新北市汐止區忠孝東路225號","121.662336666667","25.0668766666667","6501100","汐止區"
"221033","647-BX","2018/01/19 19:39:41","新北市汐止區南勢街3號","121.62704","25.0373733333333","6501100","汐止區"
"221002","707-TV","2018/01/19 19:39:46","新北市汐止區大同路一段313號","121.637786666667","25.0590266666667","6501100","汐止區"
"220079","145-BY","2018/01/19 19:39:41","新北市板橋區建國街59號","121.458895","25.0172083333333","6500100","板橋區"
"220080","200-UY","2018/01/19 19:39:42","新北市板橋區大觀路二段37巷334號","121.450061666667","25.002375","6500100","板橋區"
"220082","610-BX","2018/01/19 19:39:53","新北市板橋區溪崑一街54號","121.429585","24.9902483333333","6500100","板橋區"
"220101","245-BX","2018/01/19 19:39:33","新北市板橋區莊敬路220巷15號","121.472586666667","25.02071","6500100","板橋區"
"220096","257-TC","2018/01/19 19:39:42","新北市板橋區民生路二段232-9號","121.468876666667","25.02275","6500100","板橋區"
"220056","276-BY","2018/01/19 19:39:40","新北市板橋區四川路二段47巷1弄1號","121.454073333333","24.995","6500100","板橋區"
"220072","277-BY","2018/01/19 19:39:40","新北市板橋區金門街253巷6弄2號","121.43242","24.9886166666667","6500100","板橋區"
"220071","283-VK","2018/01/19 19:39:45","新北市板橋區信義路98號","121.458071666667","24.9929116666667","6500100","板橋區"
"220094","285-UM","2018/01/19 19:39:52","新北市板橋區宏國路107號","121.47012","25.0321883333333","6500100","板橋區"
"220053","285-VK","2018/01/19 19:39:47","新北市板橋區民享街89號","121.476941666667","25.01588","6500100","板橋區"
"220083","286-VK","2018/01/19 19:39:50","新北市板橋區大觀路二段174巷122號","121.441308333333","25.0020366666667","6500100","板橋區"
"220081","287-VK","2018/01/19 19:39:50","新北市板橋區大觀路一段28巷107-1號","121.449898333333","25.0123066666667","6500100","板橋區"
"220090","288-VK","2018/01/19 19:39:44","新北市板橋區龍泉街54巷8弄12號","121.457445","25.02688","6500100","板橋區"
"220061","293-UM","2018/01/19 19:39:41","新北市板橋區中山路一段265巷36弄1號","121.469108333333","25.0151583333333","6500100","板橋區"
"220062","295-UM","2018/01/19 19:39:46","新北市板橋區三民路二段79號","121.479563333333","25.016715","6500100","板橋區"
"220084","296-UM","2018/01/19 19:39:52","新北市板橋區滿平二街2巷1弄36號","121.424726666667","24.9874916666667","6500100","板橋區"
"220075","303-R5","2018/01/19 19:39:39","新北市板橋區大勇街4巷1號","121.454806666667","25.0173816666667","6500100","板橋區"
"220092","307-R5","2018/01/19 19:39:36","新北市板橋區民生路二段250號","121.468336666667","25.023375","6500100","板橋區"
"220098","317-R6","2018/01/19 19:39:39","新北市板橋區四維路269巷45號","121.461365","25.0273283333333","6500100","板橋區"
"220064","486-VK","2018/01/19 19:39:52","新北市板橋區中山路一段101號","121.46171","25.0102483333333","6500100","板橋區"
"220089","487-VK","2018/01/19 19:39:41","新北市板橋區雨農路21號","121.461488333333","25.0243083333333","6500100","板橋區"
"220088","491-VK","2018/01/19 19:39:53","新北市板橋區文化路二段560號","121.476256666667","25.0343983333333","6500100","板橋區"
"220035","560-BX","2018/01/19 19:39:52","新北市板橋區金華街114號","121.458993333333","25.0208116666667","6500100","板橋區"
"220103","561-BX","2018/01/19 19:39:47","新北市板橋區民生路二段237號","121.468201666667","25.0214366666667","6500100","板橋區"
"220055","630-UY","2018/01/19 19:39:50","新北市板橋區國慶路149巷4弄2-1號","121.46123","24.9968833333333","6500100","板橋區"
"220091","637-BX","2018/01/19 19:39:44","新北市板橋區懷德街127巷14弄1號","121.479328333333","25.031075","6500100","板橋區"
"220057","686-BX","2018/01/19 19:39:44","新北市板橋區國慶路123號","121.460578333333","24.9959416666667","6500100","板橋區"
"220077","687-BX","2018/01/19 19:39:53","新北市板橋區僑中一街144號","121.445118333333","25.0118266666667","6500100","板橋區"
"220093","689-BX","2018/01/19 19:39:44","新北市板橋區長江路一段19號","121.45835","25.0290233333333","6500100","板橋區"
"220054","741-BX","2018/01/19 19:39:44","新北市板橋區忠孝路239巷2號","121.46629","25.00315","6500100","板橋區"
"220067","829-TW","2018/01/19 19:39:40","新北市板橋區長安街253號","121.472875","25.010255","6500100","板橋區"
"220102","830-TW","2018/01/19 19:39:43","新北市板橋區松柏街36巷8-1號","121.475338333333","25.02969","6500100","板橋區"
"220063","833-TW","2018/01/19 19:39:48","新北市板橋區中山路二段505巷27號","121.482103333333","25.0220883333333","6500100","板橋區"
"220074","895-R6","2018/01/19 19:39:47","新北市板橋區館前西路150-4號","121.455638333333","25.0086366666667","6500100","板橋區"
"220073","985-R7","2018/01/19 19:39:52","新北市板橋區國光路31巷16號","121.457938333333","25.0180766666667","6500100","板橋區"
"220097","AAC-210","2018/01/19 19:39:40","新北市板橋區漢生西路89巷2弄19-2號","121.461656666667","25.0198233333333","6500100","板橋區"
"220070","AAC-253","2018/01/19 19:39:54","新北市板橋區民族路282號","121.470145","25.0069466666667","6500100","板橋區"
