"lineid","car","time","location","longitude","latitude","cityid","cityname"
"247008","341-TH","2018/01/19 21:59:19","新北市八里區中山路三段197號","121.38338","25.1407883333333","6501400","蘆洲區"
"251004","009-UM","2018/01/19 21:59:08","新北市淡水區民權路229號","121.460401666667","25.1295733333333","6501000","淡水區"
"251008","181-VK","2018/01/19 21:59:13","新北市淡水區學府路104號","121.44993","25.1718433333333","6501000","淡水區"
"251010","413-VK","2018/01/19 21:59:18","新北市淡水區中正路二段211號","121.426195","25.1891083333333","6501000","淡水區"
"251005","443-VK","2018/01/19 21:59:24","新北市淡水區鄧公路30巷2弄36號","121.454036666667","25.16923","6501000","淡水區"
"251006","561-UM","2018/01/19 21:59:28","新北市淡水區中正路11巷3號","121.43781","25.170755","6501000","淡水區"
"251007","577-R6","2018/01/19 21:59:05","新北市淡水區水源街二段177巷114號","121.451755","25.177345","6501000","淡水區"
"251011","650-BX","2018/01/19 21:59:13","新北市淡水區水碓街7號","121.443178333333","25.1771233333333","6501000","淡水區"
"251003","766-UM","2018/01/19 21:59:07","新北市淡水區新春街89號","121.439108333333","25.18261","6501000","淡水區"
