"lineid","car","time","location","longitude","latitude","cityid","cityname"
"234012","KEA-2591","2018/01/19 22:01:11","新北市永和區福和路1號","121.526088333333","25.0093466666667","6500400","永和區"
"247008","341-TH","2018/01/19 22:09:19","新北市五股區新城八路26號","121.447918333333","25.0898566666667","6501400","蘆洲區"
"251004","009-UM","2018/01/19 22:09:28","新北市淡水區民族路31巷1號","121.462228333333","25.1359233333333","6501000","淡水區"
"251008","181-VK","2018/01/19 22:09:13","新北市淡水區學府路104號","121.450001666667","25.1718416666667","6501000","淡水區"
"251010","413-VK","2018/01/19 22:09:18","新北市淡水區沙崙路200號","121.424721666667","25.1839183333333","6501000","淡水區"
"251007","577-R6","2018/01/19 22:09:25","新北市淡水區北新路139號","121.449483333333","25.1788633333333","6501000","淡水區"
"251011","650-BX","2018/01/19 22:09:13","新北市淡水區水碓街7號","121.443135","25.1771516666667","6501000","淡水區"
"251003","766-UM","2018/01/19 22:09:08","新北市淡水區中山北路三段79號","121.444621666667","25.192155","6501000","淡水區"
