"lineid","car","time","location","longitude","latitude","cityid","cityname"
"234012","KEA-2591","2018/01/19 22:01:11","新北市永和區福和路1號","121.526088333333","25.0093466666667","6500400","永和區"
"247008","341-TH","2018/01/19 22:19:19","新北市五股區中興路三段163號","121.449395","25.0808483333333","6501400","蘆洲區"
"247003","336-TH","2018/01/19 22:19:17","新北市五股區中興路三段163號","121.449141666667","25.0809633333333","6501400","蘆洲區"
"251004","009-UM","2018/01/19 22:19:08","新北市淡水區民族路72號","121.462183333333","25.1357483333333","6501000","淡水區"
"251008","181-VK","2018/01/19 22:19:13","新北市淡水區學府路104號","121.449925","25.1717883333333","6501000","淡水區"
"251010","413-VK","2018/01/19 22:19:18","新北市淡水區沙崙路200號","121.424751666667","25.1839183333333","6501000","淡水區"
"251007","577-R6","2018/01/19 22:19:25","新北市淡水區北新路139號","121.449481666667","25.1788683333333","6501000","淡水區"
"251011","650-BX","2018/01/19 22:19:13","新北市淡水區水碓街7號","121.44312","25.1772083333333","6501000","淡水區"
"251003","766-UM","2018/01/19 22:19:07","新北市淡水區下圭柔山90-8號","121.431295","25.2104333333333","6501000","淡水區"
