"lineid","car","time","location","longitude","latitude","cityid","cityname"
"234012","KEA-2591","2018/01/19 22:01:11","新北市永和區福和路1號","121.526088333333","25.0093466666667","6500400","永和區"
"247008","341-TH","2018/01/19 22:22:55","新北市五股區中興路三段163號","121.449326666667","25.0808216666667","6501400","蘆洲區"
"247003","336-TH","2018/01/19 22:28:49","新北市五股區中興路三段163號","121.449181666667","25.0809733333333","6501400","蘆洲區"
"251004","009-UM","2018/01/19 22:29:28","新北市淡水區民族路33號","121.462323333333","25.1358566666667","6501000","淡水區"
"251008","181-VK","2018/01/19 22:29:13","新北市淡水區學府路104號","121.44986","25.1718116666667","6501000","淡水區"
"251010","413-VK","2018/01/19 22:29:18","新北市淡水區沙崙路200號","121.4247","25.1839416666667","6501000","淡水區"
"251007","577-R6","2018/01/19 22:29:05","新北市淡水區北新路143號","121.449536666667","25.1789116666667","6501000","淡水區"
"251011","650-BX","2018/01/19 22:29:13","新北市淡水區水碓街7號","121.443121666667","25.1771916666667","6501000","淡水區"
