"lineid","car","time","location","longitude","latitude","cityid","cityname"
"248005","653-BX","2018/01/20 07:11:08","新北市五股區明德路12巷3號","121.433326666667","25.071805","6501500","五股區"
"232004","290-BY","2018/01/20 07:19:24","新北市坪林區九芎坑13號","121.7347","24.9514883333333","6502000","坪林區"
"232016","291-BY","2018/01/20 07:19:30","新北市坪林區金瓜寮22號","121.67985","24.9122733333333","6502000","坪林區"
"232010","375-UM","2018/01/20 07:19:20","新北市坪林區水聳淒坑9號","121.72495","24.92852","6502000","坪林區"
"232009","758-BX","2018/01/20 07:19:28","新北市坪林區魚堀50號","121.704546666667","24.9309083333333","6502000","坪林區"
"244005","248-BX","2018/01/20 07:19:34","新北市林口區南勢里4鄰59號","121.362183333333","25.079475","6501700","林口區"
"222004","289-BY","2018/01/20 07:19:21","新北市深坑區昇高坑路72號","121.629625","24.9918733333333","6501800","深坑區"
"235001","611-BX","2018/01/20 07:19:36","新北市中和區圓通路367巷6號","121.491488333333","24.9892816666667","6500300","中和區"
"226005","5620-A6","2018/01/20 07:15:47","新北市平溪區菁桐里二坑路18號","121.721341666667","25.0246016666667","6502400","平溪區"
"226002","8452-VL","2018/01/20 07:19:25","新北市平溪區望古里望古坑26號","121.763303333333","25.0343733333333","6502400","平溪區"
"226003","AGD-0702","2018/01/20 07:19:26","新北市平溪區白石里中埔227-2號","121.721898333333","25.0205433333333","6502400","平溪區"
"223006","022-BY","2018/01/20 07:19:35","新北市石碇區靜安路一段102號","121.648463333333","25.0095383333333","6501900","石碇區"
"223002","198-BX","2018/01/20 07:19:37","新北市石碇區烏塗窟8-3號","121.6557","24.9754116666667","6501900","石碇區"
"223008","406-TH","2018/01/20 07:19:36","新北市石碇區番子坑25號","121.677366666667","25.0011466666667","6501900","石碇區"
"223001","437-BY","2018/01/20 07:19:32","新北市石碇區蓬菜寮11號","121.650696666667","24.9734633333333","6501900","石碇區"
"223004","660-BX","2018/01/20 07:19:28","新北市石碇區新興坑19號","121.653726666667","25.0202366666667","6501900","石碇區"
"223007","661-BX","2018/01/20 07:19:32","新北市石碇區蚯蚓坑19-8號","121.685846666667","24.999145","6501900","石碇區"
"223005","677-TV","2018/01/20 07:19:23","新北市石碇區新興坑16號","121.654596666667","25.0196316666667","6501900","石碇區"
"227006","282-VK","2018/01/20 07:19:32","新北市雙溪區新基里自強路5號","121.866315","25.0390616666667","6502500","雙溪區"
"252004","249-BX","2018/01/20 07:19:36","新北市三芝區福德里大湖8-2號","121.502618333333","25.226605","6502100","三芝區"
"252007","AAC-283","2018/01/20 07:19:30","新北市三芝區錫板里海尾29號","121.488323333333","25.2531716666667","6502100","三芝區"
"236011","165-UM","2018/01/20 07:19:20","新北市土城區中華路一段48巷18號","121.44549","24.99008","6501300","土城區"
"236002","339-SR","2018/01/20 07:19:26","新北市土城區南天母路111巷10號","121.448548333333","24.9552683333333","6501300","土城區"
"220034","461-BY","2018/01/20 07:17:41","新北市板橋區國光路31巷15號","121.4579","25.0182183333333","6500100","板橋區"
