"lineid","car","time","location","longitude","latitude","cityid","cityname"
"248005","653-BX","2018/04/05 06:59:48","新北市五股區中興路二段103巷16號","121.458698333333","25.0760666666667","6501500","五股區"
"232001","290-BY","2018/04/05 06:59:41","新北市坪林區桶盤嶼7-1號","121.710056666667","24.9536316666667","6502000","坪林區"
"232014","291-BY","2018/04/05 06:59:47","新北市坪林區仁里10-2號","121.691925","24.9317033333333","6502000","坪林區"
"232010","375-UM","2018/04/05 06:59:40","新北市坪林區水聳淒坑7-1號","121.724723333333","24.927155","6502000","坪林區"
"232018","705-BZ","2018/04/05 06:59:37","新北市坪林區九芎坑13號","121.73538","24.9516416666667","6502000","坪林區"
"232007","758-BX","2018/04/05 06:59:34","新北市坪林區魚堀17-8號","121.70349","24.9179466666667","6502000","坪林區"
"244003","248-BX","2018/04/05 06:59:54","新北市林口區寶林路106號","121.373701666667","25.091035","6501700","林口區"
"235001","611-BX","2018/04/05 06:59:46","新北市中和區圓通路367巷4號","121.491356666667","24.98925","6500300","中和區"
"223006","022-BY","2018/04/05 06:59:33","新北市石碇區深按1號","121.657411666667","25.0168433333333","6501900","石碇區"
"223002","KEA-2673","2018/04/05 06:59:42","新北市石碇區員山子1號","121.652198333333","24.96692","6501900","石碇區"
"223001","205-TH","2018/04/05 06:59:45","新北市石碇區石碇東街143號","121.658993333333","24.9891116666667","6501900","石碇區"
"223008","406-TH","2018/04/05 06:59:53","新北市石碇區十八重溪61號","121.67494","25.01403","6501900","石碇區"
"223001","592-UM","2018/04/05 06:59:37","新北市石碇區石碇西街18號","121.65895","24.9907966666667","6501900","石碇區"
"223004","660-BX","2018/04/05 06:59:45","新北市石碇區碇坪路一段52號","121.656978333333","24.99157","6501900","石碇區"
"223007","661-BX","2018/04/05 06:59:41","新北市石碇區十八重溪45號","121.67553","25.0124966666667","6501900","石碇區"
"223005","677-TV","2018/04/05 06:59:33","新北市石碇區碇坪路一段58號","121.657085","24.9914633333333","6501900","石碇區"
"227007","282-VK","2018/04/05 06:59:49","新北市雙溪區新基里自強路5號","121.866316666667","25.0390266666667","6502500","雙溪區"
"252004","249-BX","2018/04/05 06:59:45","新北市三芝區埔坪里埔頭坑41號","121.504565","25.2632066666667","6502100","三芝區"
"252007","AAC-283","2018/04/05 06:59:33","新北市三芝區埔坪里埔頭坑107號","121.504601666667","25.26172","6502100","三芝區"
"236009","165-UM","2018/04/05 06:59:34","新北市土城區永平街51號","121.427998333333","24.959145","6501300","土城區"
"220077","282-UM","2018/04/05 06:59:45","新北市板橋區國光路49巷17號","121.458931666667","25.018835","6500100","板橋區"
