"lineid","car","time","location","longitude","latitude","cityid","cityname"
"248005","653-BX","2018/05/07 07:58:48","新北市五股區明德路12巷3號","121.433238333333","25.07182","6501500","五股區"
"232001","290-BY","2018/05/07 07:58:50","新北市坪林區下坑子口6-15號","121.711471666667","24.9433583333333","6502000","坪林區"
"232012","291-BY","2018/05/07 07:58:50","新北市坪林區金瓜寮24號","121.677523333333","24.908915","6502000","坪林區"
"232010","375-UM","2018/05/07 07:56:09","新北市坪林區厚德岡坑8-5號","121.733213333333","24.94094","6502000","坪林區"
"232017","705-BZ","2018/05/07 07:58:54","新北市坪林區乾溪8號","121.749601666667","24.9657566666667","6502000","坪林區"
"232005","758-BX","2018/05/07 07:58:44","新北市坪林區九芎林24-2號","121.704063333333","24.9248766666667","6502000","坪林區"
"244001","248-BX","2018/05/07 07:58:56","新北市林口區頂福里5鄰34號","121.352133333333","25.0999433333333","6501700","林口區"
"244018","403-UM","2018/05/07 07:59:00","新北市林口區中山路135號","121.388395","25.079015","6501700","林口區"
"244016","485-VK","2018/05/07 07:58:44","新北市林口區粉寮路二段221號","121.404175","25.0905416666667","6501700","林口區"
"244008","656-BX","2018/05/07 07:58:44","新北市林口區粉寮69號","121.404975","25.0908283333333","6501700","林口區"
"244010","657-BX","2018/05/07 07:59:03","新北市林口區粉寮路二段14號","121.401813333333","25.0855816666667","6501700","林口區"
"244024","837-TS","2018/05/07 07:58:55","新北市林口區粉寮路二段160巷28號","121.405221666667","25.09075","6501700","林口區"
"244020","838-TS","2018/05/07 07:58:52","新北市林口區粉寮69號","121.404773333333","25.0907716666667","6501700","林口區"
"222005","289-BY","2018/05/07 07:58:54","新北市深坑區萬福路36-1號","121.605481666667","25.0124216666667","6501800","深坑區"
"231007","188-VK","2018/05/07 07:58:53","新北市新店區安康路一段164-1號","121.526033333333","24.9629716666667","6500600","新店區"
"231008","192-VK","2018/05/07 07:58:53","新北市新店區安華路28-1號","121.519226666667","24.9613283333333","6500600","新店區"
"235010","733-UM","2018/05/07 07:58:51","新北市中和區和平街29-1號","121.507483333333","24.9910033333333","6500300","中和區"
"226005","5620-A6","2018/05/07 07:58:48","新北市平溪區嶺腳里中華街61號","121.739393333333","25.0250216666667","6502400","平溪區"
"226001","7418-A5","2018/05/07 07:58:52","新北市平溪區南山里南山坪136號","121.782998333333","25.0464666666667","6502400","平溪區"
"226003","AGD-0702","2018/05/07 07:58:19","新北市平溪區新寮里頂寮子4號","121.773695","25.0518016666667","6502400","平溪區"
"223006","022-BY","2018/05/07 07:58:53","新北市石碇區蚯蚓坑61-1號","121.682293333333","25.0100533333333","6501900","石碇區"
"223002","KEA-2673","2018/05/07 07:57:29","新北市石碇區北宜路五段80號","121.646558333333","24.9517466666667","6501900","石碇區"
"223001","205-TH","2018/05/07 07:56:57","新北市石碇區樟空子10-2號","121.666896666667","24.9618383333333","6501900","石碇區"
"223008","406-TH","2018/05/07 07:58:50","新北市石碇區靜安路一段324號","121.6945","25.007035","6501900","石碇區"
"223001","592-UM","2018/05/07 07:57:32","新北市石碇區樟空子1號","121.666648333333","24.9595716666667","6501900","石碇區"
"223004","660-BX","2018/05/07 07:59:00","新北市石碇區楓子林54-3號","121.643068333333","25.0085","6501900","石碇區"
"223007","661-BX","2018/05/07 07:59:00","新北市石碇區靜安路一段279號","121.694366666667","25.0070216666667","6501900","石碇區"
"223005","677-TV","2018/05/07 07:58:59","新北市石碇區楓子林1-2號","121.64246","25.0090133333333","6501900","石碇區"
"227005","282-VK","2018/05/07 07:58:59","新北市雙溪區平林里梅竹蹊16號","121.86202","25.03596","6502500","雙溪區"
"252006","073-UM","2018/05/07 07:58:44","新北市三芝區後厝里芝麻四街31號","121.474288333333","25.2456166666667","6502100","三芝區"
"252004","249-BX","2018/05/07 07:58:48","新北市三芝區店子里菜公坑81-3號","121.511043333333","25.2019933333333","6502100","三芝區"
"252001","292-VK","2018/05/07 07:58:59","新北市三芝區中正路三段5號","121.503106666667","25.25413","6502100","三芝區"
"237001","159-UY","2018/05/07 07:58:56","新北市三峽區大學路45-1號","121.376921666667","24.94062","6500900","三峽區"
"236007","165-UM","2018/05/07 07:58:51","新北市土城區永豐路169-2號","121.467886666667","24.980295","6501300","土城區"
"236001","339-SR","2018/05/07 07:57:40","新北市土城區龍泉路87號","121.445798333333","24.9442133333333","6501300","土城區"
"242033","AAC-296","2018/05/07 07:58:16","新北市新莊區瓊林路13-7號","121.448415","25.0303566666667","6500500","新莊區"
"242057","986-R7","2018/05/07 07:58:40","新北市新莊區中正路400號","121.44165","25.0339083333333","6500500","新莊區"
"242052","751-BX","2018/05/07 07:58:57","新北市新莊區瓊林南路305巷3號","121.434783333333","25.005485","6500500","新莊區"
"242026","615-BX","2018/05/07 07:58:58","新北市新莊區思源路33號","121.46013","25.039565","6500500","新莊區"
"242024","613-BX","2018/05/07 07:59:00","新北市新莊區復興路二段31號","121.454303333333","25.0441216666667","6500500","新莊區"
"242028","612-BX","2018/05/07 07:58:48","新北市新莊區思源路167號","121.459861666667","25.0448533333333","6500500","新莊區"
"242040","566-BX","2018/05/07 07:58:49","新北市新莊區新樹路113巷25號","121.4395","25.0264016666667","6500500","新莊區"
"242045","497-BY","2018/05/07 07:58:48","新北市新莊區福營路2號","121.440473333333","25.032575","6500500","新莊區"
"242043","442-UM","2018/05/07 07:58:56","新北市新莊區富國路87號","121.420543333333","25.0257783333333","6500500","新莊區"
"242049","441-UM","2018/05/07 07:58:52","新北市新莊區新樹路268巷39弄2號","121.43096","25.0163366666667","6500500","新莊區"
"242055","440-UM","2018/05/07 07:58:54","新北市新莊區新泰路53號","121.449476666667","25.0339433333333","6500500","新莊區"
"242006","413-TV","2018/05/07 07:58:52","新北市新莊區福樂街118巷6號","121.457403333333","25.0479733333333","6500500","新莊區"
"242059","353-BY","2018/05/07 07:58:54","新北市新莊區瓊林南路12-1號","121.436896666667","25.0196066666667","6500500","新莊區"
"242038","133-UY","2018/05/07 07:58:55","新北市新莊區民安路280號","121.427795","25.0215","6500500","新莊區"
"242030","135-UY","2018/05/07 07:58:49","新北市新莊區新泰路401巷27號","121.44258","25.0439583333333","6500500","新莊區"
"242047","172-VK","2018/05/07 07:58:41","新北市新莊區龍安路256號","121.421268333333","25.0196283333333","6500500","新莊區"
"242016","175-VK","2018/05/07 07:58:46","新北市新莊區中港路287號","121.452748333333","25.0440416666667","6500500","新莊區"
"242003","176-VK","2018/05/07 07:58:50","新北市新莊區中港路280號","121.453071666667","25.04413","6500500","新莊區"
"242014","346-TH","2018/05/07 07:58:43","新北市新莊區建中街70號","121.447581666667","25.0369483333333","6500500","新莊區"
"242008","347-TH","2018/05/07 07:58:47","新北市新莊區中原路191號","121.4523","25.0542366666667","6500500","新莊區"
"242020","348-TH","2018/05/07 07:58:57","新北市新莊區中正路130號","121.45282","25.03619","6500500","新莊區"
"242035","349-TH","2018/05/07 07:58:53","新北市新莊區建國二路1號","121.434896666667","25.0236616666667","6500500","新莊區"
"242018","350-TH","2018/05/07 07:58:57","新北市新莊區中港路71號","121.455425","25.038745","6500500","新莊區"
"242012","351-TH","2018/05/07 07:58:57","新北市新莊區中誠街18號","121.45191","25.0482383333333","6500500","新莊區"
"242001","KEA-2550","2018/05/07 07:58:50","新北市新莊區新莊路243號","121.454665","25.035025","6500500","新莊區"
"220070","282-UM","2018/05/07 07:58:49","新北市板橋區南雅南路二段144巷66號","121.450383333333","24.9954466666667","6500100","板橋區"
