"lineid","car","time","location","longitude","latitude","cityid","cityname"
"248005","653-BX","2018/05/07 08:28:48","新北市五股區明德路12巷3號","121.433285","25.0718116666667","6501500","五股區"
"232001","290-BY","2018/05/07 08:28:50","新北市坪林區大粗坑6-1號","121.73222","24.948215","6502000","坪林區"
"232012","291-BY","2018/05/07 08:28:49","新北市坪林區金瓜寮35號","121.67389","24.90062","6502000","坪林區"
"232017","705-BZ","2018/05/07 08:28:54","新北市坪林區中心崙13號","121.774858333333","24.9425433333333","6502000","坪林區"
"232005","758-BX","2018/05/07 08:28:44","新北市坪林區鶯子瀨11號","121.710143333333","24.9140516666667","6502000","坪林區"
"244012","069-UM","2018/05/07 08:28:59","新北市林口區中正路465號","121.384013333333","25.0776816666667","6501700","林口區"
"244001","248-BX","2018/05/07 08:28:56","新北市林口區下福里139號","121.29954","25.116835","6501700","林口區"
"244018","403-UM","2018/05/07 08:29:00","新北市林口區忠孝路403號","121.370226666667","25.070935","6501700","林口區"
"244022","483-VK","2018/05/07 08:28:41","新北市林口區東明一街1巷12號","121.393443333333","25.0723583333333","6501700","林口區"
"244016","485-VK","2018/05/07 08:28:44","新北市林口區文化二路一段260巷4號","121.37117","25.0731433333333","6501700","林口區"
"244008","656-BX","2018/05/07 08:28:44","新北市林口區中北三街61號","121.384728333333","25.0855316666667","6501700","林口區"
"244010","657-BX","2018/05/07 08:28:44","新北市林口區中正路103號","121.39401","25.0772383333333","6501700","林口區"
"244001","658-BX","2018/05/07 08:28:58","新北市林口區竹林路432號","121.388788333333","25.0849833333333","6501700","林口區"
"244024","837-TS","2018/05/07 08:28:55","新北市林口區八德路318號","121.360288333333","25.0668083333333","6501700","林口區"
"244020","838-TS","2018/05/07 08:28:52","新北市林口區粉寮路二段20號","121.402476666667","25.0860166666667","6501700","林口區"
"222005","289-BY","2018/05/07 08:28:34","新北市深坑區風格街31巷12號","121.627848333333","25.0173766666667","6501800","深坑區"
"231007","188-VK","2018/05/07 08:28:53","新北市新店區新潭路三段81巷2號","121.505348333333","24.91021","6500600","新店區"
"231008","192-VK","2018/05/07 08:28:53","新北市新店區桂山路37號","121.560525","24.9018083333333","6500600","新店區"
"235010","733-UM","2018/05/07 08:28:51","新北市中和區圓通路236號","121.49483","24.99267","6500300","中和區"
"226005","5620-A6","2018/05/07 08:28:48","新北市平溪區南山里南山坪126號","121.785548333333","25.0462333333333","6502400","平溪區"
"226001","7418-A5","2018/05/07 08:28:52","新北市平溪區東勢里芊蓁林39號","121.752731666667","25.0154933333333","6502400","平溪區"
"226003","AGD-0702","2018/05/07 08:28:59","新北市平溪區靜安路三段406號","121.784383333333","25.0512933333333","6502400","平溪區"
"223006","022-BY","2018/05/07 08:28:53","新北市深坑區昇高坑路51-1號","121.630371666667","24.9938516666667","6501900","石碇區"
"223002","KEA-2673","2018/05/07 08:28:55","新北市石碇區半路店5號","121.64497","24.9627616666667","6501900","石碇區"
"223001","205-TH","2018/05/07 08:28:50","新北市石碇區北宜路六段塗潭巷15號","121.650935","24.9319716666667","6501900","石碇區"
"223008","406-TH","2018/05/07 08:28:50","新北市石碇區十八重溪6號","121.677988333333","25.011265","6501900","石碇區"
"223001","592-UM","2018/05/07 08:28:44","新北市石碇區北宜路六段塗潭巷15號","121.650671666667","24.9320933333333","6501900","石碇區"
"223004","660-BX","2018/05/07 08:29:00","新北市石碇區碇坪路一段39號","121.658296666667","24.99144","6501900","石碇區"
"223007","661-BX","2018/05/07 08:28:40","新北市石碇區番子坑84-1號","121.675468333333","25.0108533333333","6501900","石碇區"
"223005","677-TV","2018/05/07 08:28:59","新北市石碇區碇坪路一段92號","121.658083333333","24.99134","6501900","石碇區"
"227005","282-VK","2018/05/07 08:27:19","新北市雙溪區外柑里過溪2號","121.825441666667","25.0177883333333","6502500","雙溪區"
"252006","073-UM","2018/05/07 08:28:44","新北市三芝區蘭陽街13-1號","121.473526666667","25.2424516666667","6502100","三芝區"
"252004","249-BX","2018/05/07 08:28:57","新北市三芝區興華里田心子1號","121.501995","25.2044316666667","6502100","三芝區"
"252001","292-VK","2018/05/07 08:28:59","新北市三芝區中山路二段50號","121.503138333333","25.2542516666667","6502100","三芝區"
"237001","159-UY","2018/05/07 08:28:56","新北市三峽區大德路93號","121.37703","24.9434266666667","6500900","三峽區"
"236007","165-UM","2018/05/07 08:28:51","新北市土城區石門路95號","121.469226666667","24.959085","6501300","土城區"
"236001","339-SR","2018/05/07 08:29:00","新北市土城區中州路78號","121.411945","24.9584616666667","6501300","土城區"
"236005","498-BY","2018/05/07 08:28:56","新北市土城區大暖路26號","121.42355","24.9598","6501300","土城區"
"242033","AAC-296","2018/05/07 08:28:56","新北市新莊區福海街24巷14號","121.446","25.0340833333333","6500500","新莊區"
"242057","986-R7","2018/05/07 08:29:01","新北市新莊區雙鳳路134巷8號","121.412853333333","25.0282383333333","6500500","新莊區"
"242052","751-BX","2018/05/07 08:28:57","新北市新莊區民安西路468-1號","121.431655","25.0078616666667","6500500","新莊區"
"242026","615-BX","2018/05/07 08:29:01","新北市新莊區思源路347號","121.459863333333","25.0502283333333","6500500","新莊區"
"242024","613-BX","2018/05/07 08:29:00","新北市新莊區新北大道二段217號","121.462643333333","25.0607933333333","6500500","新莊區"
"242028","612-BX","2018/05/07 08:28:48","新北市新莊區中平路110巷30號","121.445975","25.0457333333333","6500500","新莊區"
"242040","566-BX","2018/05/07 08:28:49","新北市新莊區天祥街122號","121.41466","25.0300416666667","6500500","新莊區"
"242045","497-BY","2018/05/07 08:28:48","新北市新莊區福營路227巷27號","121.430186666667","25.029175","6500500","新莊區"
"242043","442-UM","2018/05/07 08:28:47","新北市新莊區雙鳳路92號","121.414701666667","25.0279133333333","6500500","新莊區"
"242049","441-UM","2018/05/07 08:28:52","新北市新莊區民本街43巷19號","121.428993333333","25.01836","6500500","新莊區"
"242055","440-UM","2018/05/07 08:28:54","新北市新莊區豐年街124巷18號","121.445646666667","25.0298033333333","6500500","新莊區"
"242006","413-TV","2018/05/07 08:28:52","新北市新莊區思源路593巷6弄21號","121.45796","25.0599116666667","6500500","新莊區"
"242023","362-BY","2018/05/07 08:28:57","新北市新莊區幸福路4號","121.459465","25.0495166666667","6500500","新莊區"
"242059","353-BY","2018/05/07 08:28:56","新北市新莊區新樹路225號","121.435306666667","25.022815","6500500","新莊區"
"242038","133-UY","2018/05/07 08:28:54","新北市新莊區民安西路24巷14號","121.426346666667","25.0209883333333","6500500","新莊區"
"242030","135-UY","2018/05/07 08:28:49","新北市新莊區新泰路277巷65號","121.443203333333","25.0399816666667","6500500","新莊區"
"242047","172-VK","2018/05/07 08:29:01","新北市新莊區萬安街22號","121.421455","25.0245783333333","6500500","新莊區"
"242010","173-VK","2018/05/07 08:28:57","新北市新莊區中榮街56巷13弄2號","121.44912","25.0534483333333","6500500","新莊區"
"242016","175-VK","2018/05/07 08:28:46","新北市新莊區永樂街193號","121.4483","25.0445683333333","6500500","新莊區"
"242003","176-VK","2018/05/07 08:28:50","新北市新莊區自由街34號","121.45578","25.0465433333333","6500500","新莊區"
"242014","346-TH","2018/05/07 08:29:02","新北市新莊區中平路132巷18號","121.445718333333","25.0467083333333","6500500","新莊區"
"242008","347-TH","2018/05/07 08:28:47","新北市新莊區昌平街51巷12號","121.454036666667","25.0529416666667","6500500","新莊區"
"242020","348-TH","2018/05/07 08:28:57","新北市新莊區建興街52-9號","121.450085","25.03829","6500500","新莊區"
"242035","349-TH","2018/05/07 08:28:53","新北市新莊區建福路56號","121.42669","25.0273116666667","6500500","新莊區"
"242018","350-TH","2018/05/07 08:28:54","新北市新莊區民樂街17巷1號","121.457661666667","25.0404366666667","6500500","新莊區"
"242012","351-TH","2018/05/07 08:28:57","新北市新莊區中誠街147巷6號","121.44884","25.047115","6500500","新莊區"
"242001","KEA-2550","2018/05/07 08:28:50","新北市新莊區新莊路90號","121.456663333333","25.0362233333333","6500500","新莊區"
