"lineid","car","time","location","longitude","latitude","cityid","cityname"
"248005","653-BX","2018/05/07 09:58:48","新北市五股區成泰路一段241巷22號","121.435621666667","25.081165","6501500","五股區"
"244018","403-UM","2018/05/07 09:59:00","新北市林口區麗園二街87號","121.382676666667","25.0667716666667","6501700","林口區"
"244022","483-VK","2018/05/07 09:58:41","新北市林口區文化三路一段617巷88號","121.370426666667","25.07826","6501700","林口區"
"244001","658-BX","2018/05/07 09:58:58","新北市林口區竹林路325-5號","121.389333333333","25.08418","6501700","林口區"
"231007","188-VK","2018/05/07 09:58:53","新北市新店區新潭路三段215巷25號","121.508105","24.9040966666667","6500600","新店區"
"231008","192-VK","2018/05/07 09:49:21","新北市新店區平廣路一段256號","121.50787","24.88827","6500600","新店區"
"223008","406-TH","2018/05/07 09:44:50","新北市石碇區南勢坑2-3號","121.699273333333","24.9901483333333","6501900","石碇區"
"223001","592-UM","2018/05/07 09:58:44","新北市石碇區小粗坑(潭邊里)9-1號","121.677508333333","24.9845916666667","6501900","石碇區"
"223007","661-BX","2018/05/07 09:48:40","新北市石碇區南勢坑4-1號","121.697851666667","24.9831783333333","6501900","石碇區"
"227005","282-VK","2018/05/07 09:58:59","新北市雙溪區泰平里灣潭路36號","121.81144","24.9287866666667","6502500","雙溪區"
"252004","249-BX","2018/05/07 09:58:48","新北市三芝區福德里土地公埔46-6號","121.511546666667","25.2317283333333","6502100","三芝區"
"252006","AAC-283","2018/05/07 09:58:42","新北市三芝區新庄里新庄子56號","121.505331666667","25.275755","6502100","三芝區"
"237001","159-UY","2018/05/07 09:58:57","新北市三峽區大德路487號","121.37416","24.947925","6500900","三峽區"
