"lineid","car","time","location","longitude","latitude","cityid","cityname"
"234044","148-BY","2018/05/07 12:49:23","新北市永和區秀朗路二段148巷12弄15號","121.524765","25.0010016666667","6500400","永和區"
"234078","298-R6","2018/05/07 12:49:15","新北市永和區林森路122號","121.522378333333","25.0032166666667","6500400","永和區"
"234036","336-UY","2018/05/07 12:49:26","新北市永和區福和路8巷3號","121.524958333333","25.00918","6500400","永和區"
"234062","337-UY","2018/05/07 12:49:04","新北市永和區福和路1號","121.525863333333","25.0095566666667","6500400","永和區"
"234084","338-UY","2018/05/07 12:49:23","新北市永和區中正路93號","121.515376666667","24.9972916666667","6500400","永和區"
"234068","552-UM","2018/05/07 12:49:21","新北市永和區竹林路96巷3號","121.519318333333","25.011955","6500400","永和區"
"234015","745-BX","2018/05/07 12:49:16","新北市永和區永和路二段405巷3號","121.515343333333","25.0171766666667","6500400","永和區"
"234028","746-BX","2018/05/07 12:49:11","新北市永和區得和路321號","121.523411666667","24.999675","6500400","永和區"
"234052","KEA-2590","2018/05/07 12:49:15","新北市永和區竹林路39巷35號","121.520386666667","25.0154166666667","6500400","永和區"
"234012","KEA-2591","2018/05/07 12:49:07","新北市永和區保福路二段133巷20號","121.50918","25.0136616666667","6500400","永和區"
"234060","AAD-866","2018/05/07 12:49:14","新北市永和區福和路305號","121.516345","25.0071116666667","6500400","永和區"
"234040","862-TW","2018/05/07 12:49:16","新北市永和區永貞路265號","121.511765","25.0046366666667","6500400","永和區"
"234048","863-TW","2018/05/07 12:49:08","新北市永和區環河東路二段90號","121.524021666667","25.0106783333333","6500400","永和區"
"234025","9371-KE","2018/05/07 12:49:21","新北市永和區永和路一段149-2號","121.51419","25.009235","6500400","永和區"
"234010","9373-KE","2018/05/07 12:49:16","新北市永和區保福路二段158巷1號","121.5091","25.0150833333333","6500400","永和區"
"248015","026-BX","2018/05/07 12:49:24","新北市五股區中興路二段83巷26-3號","121.460048333333","25.0753466666667","6501500","五股區"
"248005","077-UY","2018/05/07 12:49:25","新北市五股區中興路二段37巷28號","121.460021666667","25.0749116666667","6501500","五股區"
"248007","095-VK","2018/05/07 12:49:22","新北市五股區中興路二段83巷26-6號","121.460071666667","25.0750866666667","6501500","五股區"
"248019","225-UY","2018/05/07 12:49:12","新北市五股區中興路二段63巷17號","121.46025","25.0753466666667","6501500","五股區"
"248013","261-SL","2018/05/07 12:49:09","新北市五股區中興路二段63巷17號","121.460146666667","25.075715","6501500","五股區"
"248003","682-TV","2018/05/07 12:49:14","新北市五股區中興路二段83巷13號","121.460058333333","25.07635","6501500","五股區"
"234022","9380-KE","2018/05/07 12:49:17","新北市永和區竹林路119巷22弄9號","121.522013333333","25.0115016666667","6500400","永和區"
"234076","969-R7","2018/05/07 12:49:15","新北市中和區安樂路101-3號","121.51347","24.9950466666667","6500400","永和區"
"234072","AAC-211","2018/05/07 12:49:15","新北市永和區福和路1號","121.52619","25.0095583333333","6500400","永和區"
"234066","AAC-212","2018/05/07 12:49:11","新北市永和區中和路625號","121.51298","25.004855","6500400","永和區"
"234001","AAC-295","2018/05/07 12:49:11","新北市永和區福和路99號","121.52195","25.0077666666667","6500400","永和區"
"243005","AAD-798","2018/05/07 12:27:51","新北市泰山區黎明路31號","121.42183","25.0606283333333","6501600","泰山區"
"243004","646-TV","2018/05/07 12:27:02","新北市泰山區黎明路25號","121.422095","25.0607333333333","6501600","泰山區"
"231005","106-UY","2018/05/07 12:49:17","新北市新店區安華路28-1號","121.519673333333","24.96089","6500600","新店區"
"231010","107-UY","2018/05/07 12:49:08","新北市新店區安康路一段355-3號","121.519603333333","24.96176","6500600","新店區"
"231011","187-VK","2018/05/07 12:49:17","新北市新店區安華路28-1號","121.519565","24.961115","6500600","新店區"
"231023","KEA-2219","2018/05/07 12:49:12","新北市新店區安華路30巷1號","121.519445","24.9597633333333","6500600","新店區"
"231003","268-BY","2018/05/07 12:49:12","新北市新店區安華路28-1號","121.519416666667","24.9606283333333","6500600","新店區"
"231018","278-BY","2018/05/07 12:49:20","新北市新店區安華路28-1號","121.519553333333","24.9611583333333","6500600","新店區"
"231014","AAD-862","2018/05/07 12:49:08","新北市新店區安華路28-1號","121.519916666667","24.9612366666667","6500600","新店區"
"231025","4715-K9","2018/05/07 12:49:07","新北市新店區安華路28-1號","121.519385","24.96055","6500600","新店區"
"231036","512-UM","2018/05/07 12:49:10","新北市新店區安華路28-1號","121.51919","24.96115","6500600","新店區"
"231013","513-UM","2018/05/07 12:49:21","新北市新店區安華路28-1號","121.519613333333","24.9611616666667","6500600","新店區"
"231035","719-UM","2018/05/07 12:49:06","新北市新店區安華路28-1號","121.519536666667","24.9614833333333","6500600","新店區"
"231024","AKT-0513","2018/05/07 12:49:08","新北市新店區安華路28-1號","121.519536666667","24.960675","6500600","新店區"
"235028","005-UY","2018/05/07 12:49:09","新北市中和區員山路36巷16-3號","121.484898333333","24.9913116666667","6500300","中和區"
"235027","006-UY","2018/05/07 12:49:14","新北市中和區員山路36巷16-3號","121.484958333333","24.9913766666667","6500300","中和區"
"235011","031-BX","2018/05/07 12:49:09","新北市中和區員山路36巷13號","121.484126666667","24.9909416666667","6500300","中和區"
"235002","185-VK","2018/05/07 12:49:20","新北市中和區錦和路350-1號","121.490545","24.9935533333333","6500300","中和區"
"235031","255-BX","2018/05/07 12:49:20","新北市中和區中山路二段568巷14號","121.482735","25.0061933333333","6500300","中和區"
"235025","378-QA","2018/05/07 12:27:06","新北市中和區員山路36巷16-2號","121.485171666667","24.991715","6500300","中和區"
"207002","749-BX","2018/05/07 12:49:22","新北市萬里區雙興里二坪路28-1號","121.644651666667","25.1687216666667","6502800","萬里區"
"207001","662-BX","2018/05/07 12:49:14","新北市萬里區萬里里獅頭路23號","121.693458333333","25.1782433333333","6502800","萬里區"
"237001","159-UY","2018/05/07 12:49:17","新北市三峽區中山路459巷163-3號","121.348661666667","24.9331416666667","6500900","三峽區"
"221032","280-BY","2018/05/07 12:49:18","新北市汐止區汐萬路一段121號","121.654128333333","25.0710966666667","6501100","汐止區"
