"lineid","car","time","location","longitude","latitude","cityid","cityname"
"234044","148-BY","2018/05/07 13:09:10","新北市永和區永元路18巷12弄2號","121.523","25.00029","6500400","永和區"
"234005","207-UY","2018/05/07 13:09:00","新北市永和區中山路一段117巷2號","121.510856666667","25.0102583333333","6500400","永和區"
"234078","298-R6","2018/05/07 13:08:54","新北市永和區福和路57巷14弄1號","121.522816666667","25.0068316666667","6500400","永和區"
"234036","336-UY","2018/05/07 13:09:08","新北市永和區民樂街71巷1號","121.52744","24.9975266666667","6500400","永和區"
"234062","337-UY","2018/05/07 13:09:04","新北市永和區秀朗路二段27號","121.52114","25.0025316666667","6500400","永和區"
"234084","338-UY","2018/05/07 13:09:03","新北市永和區永貞路94號","121.519326666667","25.0044616666667","6500400","永和區"
"234068","552-UM","2018/05/07 13:09:10","新北市永和區豫溪街137巷1弄24號","121.518288333333","25.0105","6500400","永和區"
"234015","745-BX","2018/05/07 13:08:56","新北市永和區文化路90巷3弄2號","121.513885","25.0155533333333","6500400","永和區"
"234028","746-BX","2018/05/07 13:09:11","新北市永和區民生路27號","121.523025","24.9984583333333","6500400","永和區"
"234052","KEA-2590","2018/05/07 13:09:15","新北市永和區中興街133巷8號","121.518616666667","25.01272","6500400","永和區"
"234012","KEA-2591","2018/05/07 13:09:11","新北市永和區保福路二段40號","121.511021666667","25.0119066666667","6500400","永和區"
"234060","AAD-866","2018/05/07 13:09:14","新北市永和區安樂路304巷2號","121.514483333333","25.0049916666667","6500400","永和區"
"234040","862-TW","2018/05/07 13:09:13","新北市永和區保平路93巷2弄2號","121.51161","25.006785","6500400","永和區"
"234048","863-TW","2018/05/07 13:09:08","新北市永和區仁愛路104巷7弄62號","121.510901666667","25.0141633333333","6500400","永和區"
"234025","9371-KE","2018/05/07 13:09:01","新北市永和區自由街58號","121.513828333333","25.0059783333333","6500400","永和區"
"234010","9373-KE","2018/05/07 13:08:56","新北市永和區永和路二段231巷19號","121.514673333333","25.0139483333333","6500400","永和區"
"248015","026-BX","2018/05/07 13:09:04","新北市五股區新城五路1號","121.44605","25.0928433333333","6501500","五股區"
"248005","077-UY","2018/05/07 13:09:05","新北市五股區中興路二段82號","121.460773333333","25.077325","6501500","五股區"
"248007","095-VK","2018/05/07 13:09:02","新北市五股區更洲路32巷15弄9號","121.458186666667","25.0805066666667","6501500","五股區"
"248019","225-UY","2018/05/07 13:09:11","新北市五股區成泰路三段544-1號","121.453925","25.1023533333333","6501500","五股區"
"248011","247-BX","2018/05/07 13:09:01","新北市五股區中興路三段192號","121.442493333333","25.0818016666667","6501500","五股區"
"248013","261-SL","2018/05/07 13:09:12","新北市五股區成泰路一段189巷13弄2號","121.433941666667","25.0764283333333","6501500","五股區"
"248009","272-BY","2018/05/07 13:09:05","新北市五股區中興路三段198號","121.441678333333","25.0819183333333","6501500","五股區"
"248001","678-BX","2018/05/07 13:09:05","新北市五股區中興路三段196號","121.441846666667","25.0819083333333","6501500","五股區"
"248003","682-TV","2018/05/07 13:09:15","新北市五股區成泰路二段156號","121.438418333333","25.0842433333333","6501500","五股區"
"234022","9380-KE","2018/05/07 13:08:57","新北市永和區中興街10巷5弄2號","121.515491666667","25.0114383333333","6500400","永和區"
"234076","969-R7","2018/05/07 13:09:02","新北市永和區民光街9號","121.515481666667","24.9962266666667","6500400","永和區"
"234072","AAC-211","2018/05/07 13:08:55","新北市永和區竹林路217號","121.52073","25.0086066666667","6500400","永和區"
"234066","AAC-212","2018/05/07 13:09:11","新北市永和區保平路31號","121.512266666667","25.007325","6500400","永和區"
"234001","AAC-295","2018/05/07 13:09:11","新北市永和區中山路一段6號","121.51418","25.0104616666667","6500400","永和區"
"244001","248-BX","2018/05/07 13:09:07","新北市林口區嘉寶里3-1號","121.36573","25.0952066666667","6501700","林口區"
"243005","AAD-798","2018/05/07 13:09:01","新北市泰山區南林路99巷8號","121.415406666667","25.04913","6501600","泰山區"
"231027","0293-UT","2018/05/07 13:09:00","新北市新店區安華路28-1號","121.519618333333","24.960545","6500600","新店區"
"231028","046-UY","2018/05/07 13:09:08","新北市新店區安華路28-1號","121.519615","24.9608483333333","6500600","新店區"
"231001","047-UY","2018/05/07 13:09:04","新北市新店區安華路28-1號","121.519371666667","24.9609283333333","6500600","新店區"
"231005","106-UY","2018/05/07 13:08:57","新北市新店區安華路28-1號","121.519778333333","24.961045","6500600","新店區"
"231010","107-UY","2018/05/07 13:09:08","新北市新店區安康路一段355-3號","121.519598333333","24.9615183333333","6500600","新店區"
"231019","108-UY","2018/05/07 13:09:11","新北市新店區安華路28-1號","121.519853333333","24.9612983333333","6500600","新店區"
"231011","187-VK","2018/05/07 13:08:57","新北市新店區安華路28-1號","121.519566666667","24.961165","6500600","新店區"
"231023","KEA-2219","2018/05/07 13:09:13","新北市新店區安華路28-1號","121.519843333333","24.9612183333333","6500600","新店區"
"231026","256-BX","2018/05/07 13:09:07","新北市新店區安華路28-1號","121.520033333333","24.960975","6500600","新店區"
"231003","268-BY","2018/05/07 13:09:12","新北市新店區安華路28-1號","121.519425","24.960665","6500600","新店區"
"231018","278-BY","2018/05/07 13:09:00","新北市新店區安華路28-1號","121.51956","24.9611533333333","6500600","新店區"
"231014","AAD-862","2018/05/07 13:09:08","新北市新店區安華路3號","121.519366666667","24.959855","6500600","新店區"
"231038","3712-VJ","2018/05/07 13:09:10","新北市新店區安華路28-1號","121.519096666667","24.9606816666667","6500600","新店區"
"231037","4716-K9","2018/05/07 13:09:08","新北市新店區安華路28-1號","121.520078333333","24.9607966666667","6500600","新店區"
"231025","4715-K9","2018/05/07 13:09:07","新北市新店區安華路28-1號","121.519233333333","24.9606066666667","6500600","新店區"
"231036","512-UM","2018/05/07 13:09:10","新北市新店區安華路28-1號","121.519338333333","24.961185","6500600","新店區"
"231013","513-UM","2018/05/07 13:09:01","新北市新店區安華路28-1號","121.519706666667","24.9611783333333","6500600","新店區"
"231034","616-UM","2018/05/07 13:09:10","新北市新店區安華路28-1號","121.519453333333","24.96056","6500600","新店區"
"231030","619-UM","2018/05/07 13:09:11","新北市新店區安華路28-1號","121.51958","24.960785","6500600","新店區"
"231035","719-UM","2018/05/07 13:09:06","新北市新店區安華路28-1號","121.519576666667","24.961365","6500600","新店區"
"231031","720-UM","2018/05/07 13:09:09","新北市新店區安華路28-1號","121.519085","24.9611833333333","6500600","新店區"
"231029","897-TW","2018/05/07 13:09:05","新北市新店區安華路28-1號","121.519551666667","24.9608116666667","6500600","新店區"
"231006","898-TW","2018/05/07 13:09:10","新北市新店區安華路28-1號","121.519385","24.960935","6500600","新店區"
"231004","899-TW","2018/05/07 13:09:10","新北市新店區安華路28-1號","121.519096666667","24.9609","6500600","新店區"
"231024","AKT-0513","2018/05/07 13:09:08","新北市新店區安華路28-1號","121.519416666667","24.9606416666667","6500600","新店區"
"235028","005-UY","2018/05/07 13:09:09","新北市中和區中正路213號","121.497058333333","24.9936533333333","6500300","中和區"
"235027","006-UY","2018/05/07 13:08:54","新北市中和區員山路36巷16-3號","121.485041666667","24.9912566666667","6500300","中和區"
"235011","031-BX","2018/05/07 13:06:17","新北市中和區建八路1號","121.485376666667","24.99851","6500300","中和區"
"235003","097-UM","2018/05/07 13:09:16","新北市中和區中正路637巷60弄61號","121.48553","24.9933033333333","6500300","中和區"
"235004","150-BY","2018/05/07 12:42:20","新北市中和區和城路一段271巷1號","121.486063333333","24.9918316666667","6500300","中和區"
"235022","151-BY","2018/05/07 13:09:06","新北市中和區圓通路367巷61弄2號","121.491796666667","24.9832433333333","6500300","中和區"
"235002","185-VK","2018/05/07 13:09:00","新北市中和區大智街10號","121.520346666667","24.9918433333333","6500300","中和區"
"235031","255-BX","2018/05/07 13:09:00","新北市中和區新生街195號","121.483948333333","25.00022","6500300","中和區"
"235036","301-VK","2018/05/07 13:08:58","新北市中和區中正路740號","121.485613333333","24.9978783333333","6500300","中和區"
"235007","352-BY","2018/05/07 13:09:02","新北市中和區中正路571巷1弄4號","121.486693333333","24.9934866666667","6500300","中和區"
"235032","377-QA","2018/05/07 13:08:54","新北市中和區員山路36巷16-2號","121.48535","24.9913983333333","6500300","中和區"
"235025","378-QA","2018/05/07 13:09:14","新北市中和區連城路583巷17號","121.479033333333","24.9932766666667","6500300","中和區"
"235014","4979-A6","2018/05/07 13:09:05","新北市中和區員山路36巷16-8號","121.485438333333","24.9924483333333","6500300","中和區"
"235006","551-UM","2018/05/07 13:09:10","新北市中和區錦和路350-1號","121.490443333333","24.9935933333333","6500300","中和區"
"235034","558-UM","2018/05/07 13:08:56","新北市中和區中正路291號","121.493336666667","24.9938633333333","6500300","中和區"
"235018","640-BX","2018/05/07 13:09:02","新北市土城區延壽路118-6號","121.469108333333","24.9944866666667","6500300","中和區"
"235035","783-BX","2018/05/07 13:09:01","新北市中和區板南路520巷15號","121.483711666667","25.009045","6500300","中和區"
"235026","800-TS","2018/05/07 13:09:06","新北市中和區中山路二段386號","121.490505","25.0035983333333","6500300","中和區"
"235005","802-TS","2018/05/07 13:08:58","新北市中和區圓通路141巷48弄15號","121.498103333333","24.993805","6500300","中和區"
"235016","805-TS","2018/05/07 13:08:56","新北市中和區員山路36巷13號","121.484348333333","24.9914816666667","6500300","中和區"
"235012","896-TW","2018/05/07 13:09:13","新北市中和區員山路36巷16-3號","121.484841666667","24.9918616666667","6500300","中和區"
"235017","900-TW","2018/05/07 13:09:08","新北市中和區員山路36巷16-3號","121.48472","24.9916966666667","6500300","中和區"
"235015","157-BY","2018/05/07 13:08:56","新北市中和區捷運路20號","121.508728333333","24.9901416666667","6500300","中和區"
"235001","AAC-213","2018/05/07 13:09:05","新北市中和區景平路155號","121.513298333333","24.9924016666667","6500300","中和區"
"235029","251-BX","2018/05/07 13:09:00","新北市中和區橋和路284號","121.496421666667","25.00688","6500300","中和區"
"253003","6232-TK","2018/05/07 13:08:54","新北市石門區石崩山24號","121.56418","25.28009","6502200","石門區"
"253001","6251-TK","2018/05/07 13:09:06","新北市石門區老梅路43號","121.545293333333","25.289625","6502200","石門區"
"253002","637-UY","2018/05/07 13:08:55","新北市石門區老崩山35號","121.556895","25.276545","6502200","石門區"
"253004","8270-PC","2018/05/07 13:09:15","新北市石門區阿里荖33-1號","121.60665","25.2809883333333","6502200","石門區"
"207002","749-BX","2018/05/07 13:09:02","新北市萬里區崁腳里內崁路2-3號","121.638565","25.16064","6502800","萬里區"
"252005","073-UM","2018/05/07 13:09:16","新北市三芝區八賢里八連溪1號","121.508935","25.24674","6502100","三芝區"
"207001","662-BX","2018/05/07 13:09:14","新北市萬里區萬里里瑪鋉路145-1號","121.689735","25.1781133333333","6502800","萬里區"
"237001","159-UY","2018/05/07 13:08:57","新北市三峽區隆恩街245號","121.357668333333","24.94086","6500900","三峽區"
"221032","280-BY","2018/05/07 13:08:58","新北市汐止區大同路二段252號","121.654356666667","25.0660916666667","6501100","汐止區"
"220014","829-TW","2018/05/07 13:09:14","新北市板橋區民生路二段120號","121.47055","25.0198333333333","6500100","板橋區"
