"lineid","car","time","location","longitude","latitude","cityid","cityname"
"234044","148-BY","2018/05/07 13:28:49","新北市永和區秀朗路二段116號","121.524523333333","25.0015933333333","6500400","永和區"
"234005","207-UY","2018/05/07 13:29:00","新北市永和區中山路一段238號","121.507343333333","25.00772","6500400","永和區"
"234078","298-R6","2018/05/07 13:29:03","新北市永和區林森路10巷18弄2號","121.525948333333","25.0062983333333","6500400","永和區"
"234036","336-UY","2018/05/07 13:28:59","新北市永和區民樂街35巷5號","121.528013333333","25.0011333333333","6500400","永和區"
"234062","337-UY","2018/05/07 13:28:44","新北市永和區得和路243巷26號","121.520798333333","25.0011616666667","6500400","永和區"
"234084","338-UY","2018/05/07 13:29:03","新北市永和區林森路52號","121.524496666667","25.00447","6500400","永和區"
"234068","552-UM","2018/05/07 13:29:01","新北市永和區警光街5-1號","121.51972","25.00949","6500400","永和區"
"234015","745-BX","2018/05/07 13:28:56","新北市永和區環河西路一段63號","121.513391666667","25.0181383333333","6500400","永和區"
"234028","746-BX","2018/05/07 13:28:51","新北市永和區民生路69號","121.522623333333","24.9972533333333","6500400","永和區"
"234052","KEA-2590","2018/05/07 13:28:55","新北市永和區復興街19巷2號","121.516158333333","25.0130983333333","6500400","永和區"
"234012","KEA-2591","2018/05/07 13:28:47","新北市永和區保福路二段2號","121.511408333333","25.0107333333333","6500400","永和區"
"234060","AAD-866","2018/05/07 13:29:01","新北市永和區中正路530號","121.517316666667","25.00518","6500400","永和區"
"234040","862-TW","2018/05/07 13:28:56","新北市永和區永貞路300號","121.512248333333","25.00462","6500400","永和區"
"234048","863-TW","2018/05/07 13:28:47","新北市永和區仁愛路128號","121.511286666667","25.0131316666667","6500400","永和區"
"234025","9371-KE","2018/05/07 13:29:01","新北市永和區永和路二段35號","121.514353333333","25.0102983333333","6500400","永和區"
"234010","9373-KE","2018/05/07 13:28:56","新北市永和區仁愛路141巷5弄4號","121.51184","25.0121216666667","6500400","永和區"
"248015","026-BX","2018/05/07 13:28:44","新北市五股區凌雲路一段83巷10弄7號","121.450268333333","25.1011733333333","6501500","五股區"
"248005","077-UY","2018/05/07 13:28:45","新北市五股區四維路25號","121.467065","25.070625","6501500","五股區"
"248007","095-VK","2018/05/07 13:28:42","新北市五股區四維路185巷60號","121.462196666667","25.0783016666667","6501500","五股區"
"248019","225-UY","2018/05/07 13:28:52","新北市五股區孝義路80號","121.449295","25.1150033333333","6501500","五股區"
"248011","247-BX","2018/05/07 13:28:41","新北市五股區御成路145號","121.440813333333","25.0944083333333","6501500","五股區"
"248013","261-SL","2018/05/07 13:28:49","新北市五股區蓬萊路1-2號","121.435023333333","25.0795466666667","6501500","五股區"
"248009","272-BY","2018/05/07 13:28:45","新北市五股區水碓路16巷32號","121.433898333333","25.0728183333333","6501500","五股區"
"248001","678-BX","2018/05/07 13:28:45","新北市五股區西雲路170號","121.4469","25.09474","6501500","五股區"
"248003","682-TV","2018/05/07 13:28:55","新北市五股區民義路一段186號","121.432773333333","25.087985","6501500","五股區"
"234022","9380-KE","2018/05/07 13:28:57","新北市永和區竹林路91巷48號","121.521376666667","25.01273","6500400","永和區"
"234076","969-R7","2018/05/07 13:28:55","新北市永和區民治街80號","121.517436666667","24.9983183333333","6500400","永和區"
"234072","AAC-211","2018/05/07 13:28:55","新北市永和區永和路二段100-1號","121.515096666667","25.011805","6500400","永和區"
"234066","AAC-212","2018/05/07 13:28:51","新北市永和區永貞路378巷12號","121.510115","25.0076133333333","6500400","永和區"
"234001","AAC-295","2018/05/07 13:28:51","新北市永和區保平路21號","121.512651666667","25.0074866666667","6500400","永和區"
"244001","248-BX","2018/05/07 13:28:47","新北市林口區寶斗厝坑39號","121.336291666667","25.1193516666667","6501700","林口區"
"243005","AAD-798","2018/05/07 13:28:55","新北市泰山區明志路三段206巷3號","121.423265","25.0379533333333","6501600","泰山區"
"243004","646-TV","2018/05/07 13:28:59","新北市泰山區黎明路25號","121.422331666667","25.0608066666667","6501600","泰山區"
"231027","0293-UT","2018/05/07 13:29:03","新北市新店區國校路12號","121.537778333333","24.955625","6500600","新店區"
"231028","046-UY","2018/05/07 13:28:48","新北市新店區安華路28-1號","121.51963","24.960945","6500600","新店區"
"231001","047-UY","2018/05/07 13:28:43","新北市新店區中央路151號","121.529436666667","24.97197","6500600","新店區"
"231005","106-UY","2018/05/07 13:28:57","新北市新店區北新路一段86號","121.541501666667","24.9675816666667","6500600","新店區"
"231010","107-UY","2018/05/07 13:28:48","新北市新店區中央路91號","121.53198","24.97608","6500600","新店區"
"231019","108-UY","2018/05/07 13:28:51","新北市新店區新烏路一段130號","121.544498333333","24.933815","6500600","新店區"
"231011","187-VK","2018/05/07 13:28:57","新北市新店區北新路一段128-3號","121.54245","24.9701616666667","6500600","新店區"
"231023","KEA-2219","2018/05/07 13:28:52","新北市新店區新店路13號","121.540285","24.952905","6500600","新店區"
"231026","256-BX","2018/05/07 13:28:48","新北市新店區光明街75號","121.538678333333","24.9607433333333","6500600","新店區"
"231003","268-BY","2018/05/07 13:28:52","新北市新店區中正路75巷65號","121.543156666667","24.9692433333333","6500600","新店區"
"231018","278-BY","2018/05/07 13:29:01","新北市新店區中央路238號","121.529205","24.9723783333333","6500600","新店區"
"231014","AAD-862","2018/05/07 13:28:48","新北市新店區新烏路一段11巷1弄2號","121.547346666667","24.9514","6500600","新店區"
"231038","3712-VJ","2018/05/07 13:28:50","新北市新店區安華路28-1號","121.519286666667","24.96066","6500600","新店區"
"231037","4716-K9","2018/05/07 13:28:48","新北市新店區薏仁坑路25號","121.496945","24.96105","6500600","新店區"
"231025","4715-K9","2018/05/07 13:28:47","新北市新店區中央六街58號","121.527838333333","24.9757766666667","6500600","新店區"
"231036","512-UM","2018/05/07 13:28:50","新北市新店區安祥路190巷21號","121.478038333333","24.9555166666667","6500600","新店區"
"231013","513-UM","2018/05/07 13:29:02","新北市新店區力行路15號","121.53705","24.96588","6500600","新店區"
"231034","616-UM","2018/05/07 13:28:50","新北市新店區安華路1-1號","121.519463333333","24.9604216666667","6500600","新店區"
"231002","618-UM","2018/05/07 13:28:56","新北市新店區環河路60號","121.537026666667","24.9625916666667","6500600","新店區"
"231030","619-UM","2018/05/07 13:28:51","新北市新店區安華路28-1號","121.519475","24.960945","6500600","新店區"
"231035","719-UM","2018/05/07 13:28:47","新北市新店區安華路28-1號","121.51953","24.961405","6500600","新店區"
"231031","720-UM","2018/05/07 13:28:49","新北市新店區安豐路60-1號","121.498","24.9537566666667","6500600","新店區"
"231029","897-TW","2018/05/07 13:28:45","新北市新店區安華路30巷1號","121.519301666667","24.9595583333333","6500600","新店區"
"231006","898-TW","2018/05/07 13:28:49","新北市新店區安康路一段72號","121.528296666667","24.96182","6500600","新店區"
"231004","899-TW","2018/05/07 13:28:50","新北市新店區安康路一段206號","121.524145","24.9634533333333","6500600","新店區"
"231024","AKT-0513","2018/05/07 13:28:48","新北市新店區北新路二段29巷1弄5號","121.542198333333","24.97229","6500600","新店區"
"235028","005-UY","2018/05/07 13:28:49","新北市中和區圓通路141巷35弄1號","121.498965","24.995205","6500300","中和區"
"235027","006-UY","2018/05/07 13:28:54","新北市中和區連城路347巷3號","121.488336666667","24.99551","6500300","中和區"
"235011","031-BX","2018/05/07 13:28:53","新北市中和區南山路320巷3號","121.507688333333","24.9865033333333","6500300","中和區"
"235020","096-UM","2018/05/07 13:29:01","新北市中和區中山路二段586號","121.482411666667","25.00515","6500300","中和區"
"235003","097-UM","2018/05/07 13:28:56","新北市中和區景平路188號","121.515831666667","24.991985","6500300","中和區"
"235004","150-BY","2018/05/07 13:28:52","新北市中和區安平路59號","121.509608333333","24.9952283333333","6500300","中和區"
"235022","151-BY","2018/05/07 13:28:46","新北市中和區圓通路369巷72號","121.490161666667","24.9822166666667","6500300","中和區"
"235019","183-VK","2018/05/07 13:28:49","新北市中和區民享街245號","121.472061666667","24.9962316666667","6500300","中和區"
"235002","185-VK","2018/05/07 13:28:40","新北市中和區立人街14巷40弄6號","121.519071666667","24.9957466666667","6500300","中和區"
"235013","186-VK","2018/05/07 13:28:46","新北市中和區景安路135號","121.505756666667","24.9958083333333","6500300","中和區"
"235031","255-BX","2018/05/07 13:29:00","新北市中和區新生街220巷15弄11-2號","121.482945","24.997835","6500300","中和區"
"235036","301-VK","2018/05/07 13:28:58","新北市中和區連城路265巷6弄5號","121.49124","24.9958033333333","6500300","中和區"
"235007","352-BY","2018/05/07 13:29:02","新北市中和區景平路285號","121.507406666667","24.9931516666667","6500300","中和區"
"235032","377-QA","2018/05/07 13:28:54","新北市中和區圓通路295-3號","121.494471666667","24.9918516666667","6500300","中和區"
"235025","378-QA","2018/05/07 13:28:54","新北市中和區民享街97巷2號","121.474965","24.9993833333333","6500300","中和區"
"235014","4979-A6","2018/05/07 13:28:45","新北市中和區景新街410巷18弄16號","121.511908333333","24.98973","6500300","中和區"
"235033","4980-A6","2018/05/07 13:28:55","新北市中和區連城路127巷22號","121.496701666667","24.9981816666667","6500300","中和區"
"235006","551-UM","2018/05/07 13:28:50","新北市中和區景平路64巷14弄2號","121.522586666667","24.99122","6500300","中和區"
"235034","558-UM","2018/05/07 13:28:56","新北市中和區南華路17-2號","121.502686666667","24.9957183333333","6500300","中和區"
"235009","565-BX","2018/05/07 13:28:43","新北市中和區南山路236巷22弄1號","121.505606666667","24.989095","6500300","中和區"
"235018","640-BX","2018/05/07 13:29:02","新北市中和區民享街87號","121.47441","25.0016333333333","6500300","中和區"
"235024","647-TV","2018/05/07 13:28:55","新北市中和區員山路313號","121.481256666667","25.0003366666667","6500300","中和區"
"235035","783-BX","2018/05/07 13:29:01","新北市板橋區光環路二段20-3號","121.482415","25.0144166666667","6500300","中和區"
"235026","800-TS","2018/05/07 13:27:46","新北市中和區景平路675號","121.496496666667","25.00281","6500300","中和區"
"235021","801-TS","2018/05/07 13:28:55","新北市中和區民享街97巷11號","121.475306666667","24.9995583333333","6500300","中和區"
"235005","802-TS","2018/05/07 13:28:58","新北市中和區中和路318號","121.509608333333","25.0005","6500300","中和區"
"235016","805-TS","2018/05/07 13:28:56","新北市中和區興南路二段105號","121.505878333333","24.9845516666667","6500300","中和區"
"235012","896-TW","2018/05/07 13:28:53","新北市中和區員山路36巷16-2號","121.48503","24.9917616666667","6500300","中和區"
"235017","900-TW","2018/05/07 13:28:48","新北市中和區民享街457號","121.470366666667","24.9931733333333","6500300","中和區"
"235030","911-UM","2018/05/07 13:29:01","新北市中和區中山路二段119號","121.502871666667","25.0036183333333","6500300","中和區"
"235015","157-BY","2018/05/07 13:28:56","新北市中和區興南路二段142巷35弄2號","121.502311666667","24.984675","6500300","中和區"
"235001","AAC-213","2018/05/07 13:28:45","新北市中和區景德街95號","121.515818333333","24.9912433333333","6500300","中和區"
"220013","072-UY","2018/05/07 13:28:57","新北市板橋區南雅南路二段116號","121.453266666667","25.0002333333333","6500100","板橋區"
"220034","073-UY","2018/05/07 13:28:52","新北市板橋區華東街262號","121.452666666667","25.0015333333333","6500100","板橋區"
"220017","AAD-861","2018/05/07 13:28:59","新北市板橋區華東街1-10號","121.448566666667","24.9949766666667","6500100","板橋區"
"247007","056-VK","2018/05/07 13:28:48","新北市五股區工商路8號","121.440618333333","25.0824866666667","6501400","蘆洲區"
"235029","251-BX","2018/05/07 13:29:01","新北市中和區莊敬路49巷10弄15號","121.502401666667","25.0055766666667","6500300","中和區"
"253003","6232-TK","2018/05/07 13:28:54","新北市石門區內石門89-2號","121.566815","25.2662116666667","6502200","石門區"
"253001","6251-TK","2018/05/07 13:28:46","新北市石門區崁子腳58-1號","121.528595","25.2857","6502200","石門區"
"253002","637-UY","2018/05/07 13:28:55","新北市石門區九芎林5-3號","121.559513333333","25.26878","6502200","石門區"
"253004","8270-PC","2018/05/07 13:28:35","新北市石門區竹子湖13號","121.617285","25.2556766666667","6502200","石門區"
"207002","749-BX","2018/05/07 13:29:02","新北市萬里區崁腳里崁腳路166號","121.645028333333","25.1558366666667","6502800","萬里區"
"252005","073-UM","2018/05/07 13:28:56","新北市三芝區福德里土地公埔72-2號","121.523191666667","25.223445","6502100","三芝區"
"207001","662-BX","2018/05/07 13:28:34","新北市萬里區龜吼里玉田路61號","121.682708333333","25.200055","6502800","萬里區"
"237001","159-UY","2018/05/07 13:28:57","新北市樹林區柑園街二段203巷29號","121.376083333333","24.9499616666667","6500900","三峽區"
"236005","498-BY","2018/05/07 13:29:04","新北市土城區亞洲路58巷3弄20號","121.434356666667","24.9733966666667","6501300","土城區"
"221032","280-BY","2018/05/07 13:28:58","新北市汐止區龍安路28巷6號","121.655013333333","25.0643266666667","6501100","汐止區"
"220027","145-BY","2018/05/07 13:28:49","新北市板橋區大觀路二段101巷2號","121.446665","25.001485","6500100","板橋區"
"220028","200-UY","2018/05/07 13:28:51","新北市板橋區華東街1-9號","121.448203333333","24.9949116666667","6500100","板橋區"
"220030","610-BX","2018/05/07 13:28:57","新北市板橋區華東街1-10號","121.44827","24.9949216666667","6500100","板橋區"
"220023","303-R5","2018/05/07 13:29:02","新北市板橋區華東街1-9號","121.44819","24.9949716666667","6500100","板橋區"
"220010","305-R5","2018/05/07 13:28:56","新北市板橋區民生路二段120號","121.470403333333","25.01971","6500100","板橋區"
"220012","486-VK","2018/05/07 13:28:48","新北市板橋區華東街1-10號","121.44834","24.9950233333333","6500100","板橋區"
"220104","560-BX","2018/05/07 13:28:51","新北市板橋區館前西路257號","121.454206666667","25.0087166666667","6500100","板橋區"
"220025","687-BX","2018/05/07 13:28:58","新北市板橋區篤行路一段37號","121.431936666667","24.99404","6500100","板橋區"
"220002","741-BX","2018/05/07 13:29:03","新北市板橋區華東街1-9號","121.448123333333","24.9948866666667","6500100","板橋區"
"220014","829-TW","2018/05/07 13:28:54","新北市板橋區民生路二段120號","121.470373333333","25.0194783333333","6500100","板橋區"
"220022","895-R6","2018/05/07 13:29:02","新北市板橋區華東街1-10號","121.448315","24.9950683333333","6500100","板橋區"
