"lineid","car","time","location","longitude","latitude","cityid","cityname"
"234005","207-UY","2018/05/07 14:28:40","新北市永和區中山路一段54號","121.513066666667","25.0106033333333","6500400","永和區"
"234078","298-R6","2018/05/07 14:28:42","新北市永和區永貞路8號","121.520836666667","25.00731","6500400","永和區"
"234036","336-UY","2018/05/07 14:28:46","新北市永和區民樂街31巷17弄6號","121.528428333333","25.0018966666667","6500400","永和區"
"234062","337-UY","2018/05/07 14:28:44","新北市永和區中正路526號","121.517253333333","25.00501","6500400","永和區"
"234084","338-UY","2018/05/07 14:28:43","新北市永和區光復街30號","121.516571666667","25.017425","6500400","永和區"
"234068","552-UM","2018/05/07 14:28:52","新北市永和區永寧街5號","121.520258333333","25.0067966666667","6500400","永和區"
"234028","746-BX","2018/05/07 14:28:51","新北市永和區民有街1號","121.51569","24.9973833333333","6500400","永和區"
"234052","KEA-2590","2018/05/07 14:28:35","新北市永和區光復街2巷26弄3號","121.517731666667","25.0166","6500400","永和區"
"234060","AAD-866","2018/05/07 14:28:54","新北市永和區秀安街1號","121.515315","25.002495","6500400","永和區"
"234040","862-TW","2018/05/07 14:28:36","新北市永和區安樂路461號","121.514386666667","25.005285","6500400","永和區"
"234048","863-TW","2018/05/07 14:28:47","新北市永和區新生路118巷1弄17號","121.506625","25.0144033333333","6500400","永和區"
"234025","9371-KE","2018/05/07 14:28:41","新北市中和區中安街80號","121.512246666667","25.0017716666667","6500400","永和區"
"248015","026-BX","2018/05/07 14:28:44","新北市五股區成泰路四段88號","121.456718333333","25.1115433333333","6501500","五股區"
"248007","095-VK","2018/05/07 14:28:41","新北市五股區中興路一段132號","121.465313333333","25.0735316666667","6501500","五股區"
"248019","225-UY","2018/05/07 14:00:42","新北市五股區凌雲路三段57號","121.425285","25.1250233333333","6501500","五股區"
"248011","247-BX","2018/05/07 14:28:41","新北市五股區蓬萊路6巷43號","121.43578","25.0803566666667","6501500","五股區"
"248013","261-SL","2018/05/07 14:28:52","新北市五股區民義路一段185-19號","121.431248333333","25.087455","6501500","五股區"
"248009","272-BY","2018/05/07 14:28:45","新北市五股區水碓一路23號","121.430596666667","25.0712683333333","6501500","五股區"
"248001","678-BX","2018/05/07 14:28:45","新北市五股區成泰路三段487號","121.45071","25.0992433333333","6501500","五股區"
"248003","682-TV","2018/05/07 14:28:35","新北市五股區五福路7-1號","121.43421","25.088015","6501500","五股區"
"234022","9380-KE","2018/05/07 14:28:37","新北市永和區竹林路23號","121.517188333333","25.0147633333333","6500400","永和區"
"234076","969-R7","2018/05/07 14:28:35","新北市永和區民族街81巷62號","121.520181666667","24.9965966666667","6500400","永和區"
"234072","AAC-211","2018/05/07 14:28:55","新北市永和區環河東路一段126號","121.520708333333","25.01536","6500400","永和區"
"234001","AAC-295","2018/05/07 14:28:51","新北市永和區自強街6巷1弄1號","121.514406666667","25.0080216666667","6500400","永和區"
"244001","248-BX","2018/05/07 14:28:47","新北市林口區湖南里70-9號","121.375625","25.0898766666667","6501700","林口區"
"243005","AAD-798","2018/05/07 14:28:49","新北市泰山區貴子路9巷6-1號","121.425513333333","25.042275","6501600","泰山區"
"243001","297-R6","2018/05/07 14:28:44","新北市泰山區美寧街78號","121.43211","25.0645433333333","6501600","泰山區"
"243008","380-SR","2018/05/07 14:28:56","新北市泰山區明志路三段166號","121.424193333333","25.0393916666667","6501600","泰山區"
"243007","421-VK","2018/05/07 14:28:40","新北市泰山區民權街95號","121.42846","25.0495333333333","6501600","泰山區"
"243011","KEA-2215","2018/05/07 14:28:37","新北市泰山區貴子路67巷2號","121.430918333333","25.0402983333333","6501600","泰山區"
"243002","KEA-2216","2018/05/07 14:28:53","新北市泰山區民生路17巷7號","121.429906666667","25.052225","6501600","泰山區"
"243004","646-TV","2018/05/07 14:28:45","新北市泰山區仁愛路18號","121.431316666667","25.054395","6501600","泰山區"
"243006","680-BX","2018/05/07 14:28:46","新北市泰山區中港西路422號","121.433781666667","25.053855","6501600","泰山區"
"231027","0293-UT","2018/05/07 14:28:40","新北市新店區寶橋路85巷35號","121.545246666667","24.976245","6500600","新店區"
"231028","046-UY","2018/05/07 14:28:48","新北市新店區安和路一段39號","121.517175","24.9652633333333","6500600","新店區"
"231001","047-UY","2018/05/07 14:28:43","新北市新店區中正路75巷71號","121.543221666667","24.9688933333333","6500600","新店區"
"231005","106-UY","2018/05/07 14:28:37","新北市新店區寶強路57號","121.544325","24.979235","6500600","新店區"
"231019","108-UY","2018/05/07 14:28:51","新北市新店區桂山路81巷1號","121.5674","24.89923","6500600","新店區"
"231011","187-VK","2018/05/07 14:28:37","新北市新店區寶興路61巷2號","121.550873333333","24.97203","6500600","新店區"
"231023","KEA-2219","2018/05/07 14:28:52","新北市新店區光明街123號","121.539373333333","24.9617533333333","6500600","新店區"
"231003","268-BY","2018/05/07 14:28:52","新北市新店區中興路一段264號","121.544768333333","24.9672816666667","6500600","新店區"
"231018","278-BY","2018/05/07 14:28:40","新北市新店區中央三街44號","121.52771","24.9744766666667","6500600","新店區"
"231014","AAD-862","2018/05/07 14:28:48","新北市新店區北宜路三段320號","121.606556666667","24.9559133333333","6500600","新店區"
"231038","3712-VJ","2018/05/07 14:28:30","新北市新店區溪洲路163號","121.530851666667","24.9641466666667","6500600","新店區"
"231037","4716-K9","2018/05/07 14:28:48","新北市新店區車子路67號","121.503635","24.9513116666667","6500600","新店區"
"231036","512-UM","2018/05/07 14:28:50","新北市新店區安祥路109巷123號","121.476696666667","24.9579433333333","6500600","新店區"
"231013","513-UM","2018/05/07 14:28:41","新北市新店區民權路90巷21號","121.536155","24.9835833333333","6500600","新店區"
"231034","616-UM","2018/05/07 14:28:50","新北市新店區車子路11號","121.503098333333","24.95209","6500600","新店區"
"231002","618-UM","2018/05/07 14:28:49","新北市新店區中央路196號","121.530698333333","24.9746166666667","6500600","新店區"
"231030","619-UM","2018/05/07 14:28:53","新北市新店區安民街67-1號","121.51654","24.966835","6500600","新店區"
"231035","719-UM","2018/05/07 14:28:47","新北市新店區光華街24號","121.516863333333","24.9693183333333","6500600","新店區"
"231031","720-UM","2018/05/07 14:28:51","新北市新店區安業街153號","121.521146666667","24.9740783333333","6500600","新店區"
"231029","897-TW","2018/05/07 14:28:44","新北市新店區安康路二段448號","121.49551","24.9547483333333","6500600","新店區"
"231006","898-TW","2018/05/07 14:28:49","新北市新店區北宜路二段346號","121.562736666667","24.9537083333333","6500600","新店區"
"231004","899-TW","2018/05/07 14:28:50","新北市新店區中正路263-3號","121.538386666667","24.9738516666667","6500600","新店區"
"231024","AKT-0513","2018/05/07 14:28:08","新北市新店區中華路83巷21號","121.538641666667","24.9680866666667","6500600","新店區"
"235028","005-UY","2018/05/07 14:28:51","新北市中和區南山路73號","121.502238333333","24.9980866666667","6500300","中和區"
"235027","006-UY","2018/05/07 14:28:54","新北市中和區連城路203巷10弄31號","121.495313333333","24.996255","6500300","中和區"
"235011","031-BX","2018/05/07 14:28:53","新北市中和區景平路241巷36號","121.508596666667","24.9924716666667","6500300","中和區"
"235020","096-UM","2018/05/07 14:28:49","新北市中和區員山路518號","121.478831666667","25.0095216666667","6500300","中和區"
"235003","097-UM","2018/05/07 14:28:36","新北市中和區秀峰街129號","121.518085","24.9900183333333","6500300","中和區"
"235004","150-BY","2018/05/07 14:28:52","新北市中和區宜安路23巷21號","121.512301666667","24.9950333333333","6500300","中和區"
"235022","151-BY","2018/05/07 14:28:46","新北市中和區連城路346-1號","121.482491666667","24.995575","6500300","中和區"
"235019","183-VK","2018/05/07 14:28:54","新北市中和區莒光路35號","121.472241666667","25.0051433333333","6500300","中和區"
"235002","185-VK","2018/05/07 14:28:40","新北市中和區自立路41號","121.522143333333","24.9951716666667","6500300","中和區"
"235013","186-VK","2018/05/07 14:28:46","新北市中和區景新街285巷18號","121.510598333333","24.9936533333333","6500300","中和區"
"235031","255-BX","2018/05/07 14:28:40","新北市中和區新生街278號","121.483808333333","24.9968833333333","6500300","中和區"
"235008","293-VK","2018/05/07 14:28:53","新北市中和區景安路217號","121.504361666667","24.9915066666667","6500300","中和區"
"235036","301-VK","2018/05/07 14:28:38","新北市中和區保平路340巷18號","121.506043333333","25.004525","6500300","中和區"
"235007","352-BY","2018/05/07 14:28:42","新北市中和區景平路336號","121.511826666667","24.992725","6500300","中和區"
"235032","377-QA","2018/05/07 14:28:34","新北市中和區廟美街12號","121.501018333333","25.001665","6500300","中和區"
"235025","378-QA","2018/05/07 14:28:34","新北市中和區民利街9巷2弄16號","121.480111666667","24.99871","6500300","中和區"
"235014","4979-A6","2018/05/07 14:28:45","新北市中和區員山路36巷16-6號","121.485315","24.9921333333333","6500300","中和區"
"235033","4980-A6","2018/05/07 14:28:55","新北市中和區連城路80號","121.497285","25.0011533333333","6500300","中和區"
"235006","551-UM","2018/05/07 14:28:50","新北市中和區中和路378巷14弄2-8號","121.5112","25.0016416666667","6500300","中和區"
"235034","558-UM","2018/05/07 14:28:36","新北市中和區中和路81號","121.500898333333","25.0007816666667","6500300","中和區"
"235009","565-BX","2018/05/07 14:28:43","新北市中和區景新街551號","121.515015","24.9866066666667","6500300","中和區"
"235018","640-BX","2018/05/07 14:28:42","新北市中和區國光街112巷11弄2號","121.469695","25.0017283333333","6500300","中和區"
"235024","647-TV","2018/05/07 14:28:35","新北市中和區新生街114巷2號","121.483308333333","25.0024183333333","6500300","中和區"
"235010","733-UM","2018/05/07 14:28:52","新北市中和區忠孝街37巷44號","121.510645","24.9846666666667","6500300","中和區"
"235035","783-BX","2018/05/07 14:28:41","新北市中和區連城路469巷67號","121.483481666667","24.9942633333333","6500300","中和區"
"235026","800-TS","2018/05/07 14:28:46","新北市中和區中山路二段419號","121.485811666667","25.0045383333333","6500300","中和區"
"235021","801-TS","2018/05/07 14:28:55","新北市中和區員山路424號","121.480315","25.00525","6500300","中和區"
"235005","802-TS","2018/05/07 14:28:38","新北市中和區中和路232號","121.506725","24.9994266666667","6500300","中和區"
"235016","805-TS","2018/05/07 14:28:36","新北市中和區華新街143巷49號","121.50636","24.9802883333333","6500300","中和區"
"235012","896-TW","2018/05/07 14:28:53","新北市中和區忠孝街28號","121.510591666667","24.9830716666667","6500300","中和區"
"235017","900-TW","2018/05/07 14:28:48","新北市中和區華順街30巷2號","121.46686","24.998895","6500300","中和區"
"235030","911-UM","2018/05/07 14:28:41","新北市中和區景新街40號","121.503636666667","24.99921","6500300","中和區"
"235015","157-BY","2018/05/07 14:28:36","新北市中和區板南路190-1號","121.50004","24.9928966666667","6500300","中和區"
"235001","AAC-213","2018/05/07 14:28:45","新北市中和區秀朗路三段10巷12弄2號","121.52554","24.9965633333333","6500300","中和區"
"235023","AAC-215","2018/05/07 14:28:39","新北市中和區圓通路319-5號","121.492765","24.99078","6500300","中和區"
"220016","013-TV","2018/05/07 14:28:51","新北市板橋區萬安街12號","121.484715","25.02257","6500100","板橋區"
"220013","072-UY","2018/05/07 14:28:37","新北市板橋區實踐路93巷77號","121.46725","25.0053583333333","6500100","板橋區"
"220034","073-UY","2018/05/07 14:28:52","新北市板橋區國光路189-3號","121.461115","25.0184633333333","6500100","板橋區"
"220105","075-UY","2018/05/07 14:28:43","新北市板橋區文化路二段441巷6號","121.47447","25.0337166666667","6500100","板橋區"
"220017","AAD-861","2018/05/07 14:28:40","新北市板橋區貴興路37號","121.457561666667","25.003845","6500100","板橋區"
"247023","893-R6","2018/05/07 14:28:37","新北市蘆洲區中正路263巷2號","121.467396666667","25.0874166666667","6501400","蘆洲區"
"247013","546-UM","2018/05/07 14:28:50","新北市蘆洲區中正路83號","121.470116666667","25.08359","6501400","蘆洲區"
"247021","500-BY","2018/05/07 14:28:53","新北市蘆洲區水湳街72號","121.4706","25.0898016666667","6501400","蘆洲區"
"247009","341-TH","2018/05/07 14:28:46","新北市蘆洲區鷺江街34號","121.477826666667","25.08255","6501400","蘆洲區"
"247011","339-TH","2018/05/07 14:28:50","新北市蘆洲區中興街163號","121.481955","25.0897316666667","6501400","蘆洲區"
"247003","337-TH","2018/05/07 14:28:50","新北市蘆洲區中原路12巷24號","121.460783333333","25.08395","6501400","蘆洲區"
"247005","336-TH","2018/05/07 14:28:55","新北市蘆洲區中華街73號","121.462185","25.0804033333333","6501400","蘆洲區"
"247017","057-VK","2018/05/07 14:28:34","新北市蘆洲區民族路336巷38號","121.478128333333","25.0913116666667","6501400","蘆洲區"
"247007","056-VK","2018/05/07 14:28:48","新北市蘆洲區民生街39號","121.475261666667","25.0789733333333","6501400","蘆洲區"
"247015","007-UY","2018/05/07 14:28:49","新北市蘆洲區中正路185巷78弄17號","121.465771666667","25.0847816666667","6501400","蘆洲區"
"247001","002-UY","2018/05/07 14:28:45","新北市蘆洲區永樂街38巷19弄55號","121.45661","25.08941","6501400","蘆洲區"
"247019","001-UY","2018/05/07 14:28:45","新北市蘆洲區仁愛街116號","121.469745","25.0950033333333","6501400","蘆洲區"
"235029","251-BX","2018/05/07 14:28:40","新北市中和區中山路二段2巷45弄12號","121.501988333333","25.0066833333333","6500300","中和區"
"253003","6232-TK","2018/05/07 14:28:54","新北市石門區尖子鹿90號","121.579793333333","25.2893683333333","6502200","石門區"
"253001","6251-TK","2018/05/07 14:28:46","新北市石門區八甲3-2號","121.521245","25.283655","6502200","石門區"
"253002","637-UY","2018/05/07 14:28:55","新北市石門區楓林39號","121.545798333333","25.2774533333333","6502200","石門區"
"253004","8270-PC","2018/05/07 14:28:35","新北市石門區阿里磅47號","121.581511666667","25.2396133333333","6502200","石門區"
"207002","749-BX","2018/05/07 14:28:41","新北市萬里區溪底里溪底路13號","121.613775","25.1495683333333","6502800","萬里區"
"252005","073-UM","2018/05/07 14:28:56","新北市三芝區橫山里大坑87-1號","121.53094","25.259385","6502100","三芝區"
"207001","662-BX","2018/05/07 14:28:42","新北市萬里區磺潭里清水2-2號","121.64163","25.2011716666667","6502800","萬里區"
"236064","105-UM","2018/05/07 14:28:46","新北市土城區永豐路255巷27弄47號","121.477036666667","24.9736033333333","6501300","土城區"
"236040","107-UM","2018/05/07 14:28:50","新北市土城區學成路99巷9號","121.449986666667","24.98852","6501300","土城區"
"236074","166-UM","2018/05/07 14:28:54","新北市土城區中央路四段27巷1號","121.424453333333","24.9623833333333","6501300","土城區"
"236029","253-BX","2018/05/07 14:28:36","新北市土城區順風路6號","121.439956666667","24.976345","6501300","土城區"
"236024","269-VK","2018/05/07 14:28:47","新北市土城區承天路18號","121.43943","24.9634616666667","6501300","土城區"
"236012","270-VK","2018/05/07 14:28:52","新北市土城區青雲路39巷7號","121.460321666667","24.9875583333333","6501300","土城區"
"236032","271-VK","2018/05/07 14:28:52","新北市土城區青雲路451巷15號","121.459635","24.97476","6501300","土城區"
"236016","401-BY","2018/05/07 14:28:43","新北市土城區永豐路202巷14號","121.466403333333","24.9833916666667","6501300","土城區"
"236005","498-BY","2018/05/07 14:28:37","新北市土城區中華路一段70巷10號","121.444648333333","24.988675","6501300","土城區"
"236057","912-UM","2018/05/07 14:28:47","新北市土城區中央路四段147號","121.415486666667","24.9570916666667","6501300","土城區"
"236045","913-UM","2018/05/07 14:28:45","新北市土城區青雲路370號","121.458723333333","24.9736566666667","6501300","土城區"
"236060","915-UM","2018/05/07 14:28:44","新北市土城區延壽路118-2號","121.469175","24.9940533333333","6501300","土城區"
"236054","AAC-216","2018/05/07 14:28:47","新北市土城區中華路二段61號","121.439508333333","24.978795","6501300","土城區"
"220027","145-BY","2018/05/07 14:28:47","新北市板橋區民權路202巷26號","121.460676666667","25.0172066666667","6500100","板橋區"
"220028","200-UY","2018/05/07 14:28:51","新北市板橋區大觀路二段37巷196號","121.449483333333","25.00154","6500100","板橋區"
"220030","610-BX","2018/05/07 14:28:37","新北市板橋區金門街355-1號","121.428651666667","24.9850283333333","6500100","板橋區"
"220050","245-BX","2018/05/07 14:28:49","新北市板橋區縣民大道三段121巷32號","121.476485","25.0234516666667","6500100","板橋區"
"220004","276-BY","2018/05/07 14:28:40","新北市板橋區干城路18號","121.459585","24.9936083333333","6500100","板橋區"
"220020","277-BY","2018/05/07 14:28:39","新北市板橋區金門街339-2號","121.429301666667","24.9856466666667","6500100","板橋區"
"220019","283-VK","2018/05/07 14:28:48","新北市板橋區四川路一段283巷17號","121.459568333333","25.0008733333333","6500100","板橋區"
"220043","285-UM","2018/05/07 14:28:41","新北市板橋區吳鳳路15-2號","121.467735","25.03038","6500100","板橋區"
"220001","285-VK","2018/05/07 14:28:50","新北市板橋區富山街66號","121.477158333333","25.0219483333333","6500100","板橋區"
"220031","286-VK","2018/05/07 14:28:45","新北市板橋區龍興街63巷37號","121.442035","25.0017366666667","6500100","板橋區"
"220029","287-VK","2018/05/07 14:28:50","新北市板橋區大觀路一段29巷131弄33-16號","121.450443333333","25.0040616666667","6500100","板橋區"
"220039","288-VK","2018/05/07 14:28:42","新北市板橋區長江路一段106巷18弄7號","121.460023333333","25.0284883333333","6500100","板橋區"
"220009","293-UM","2018/05/07 14:28:40","新北市板橋區成功路6巷13號","121.475961666667","25.0170866666667","6500100","板橋區"
"220032","296-UM","2018/05/07 14:28:54","新北市板橋區篤行路三段玉平巷70號","121.42816","24.98584","6500100","板橋區"
"220023","303-R5","2018/05/07 14:28:42","新北市板橋區中正路291號","121.45528","25.0192566666667","6500100","板橋區"
"220010","305-R5","2018/05/07 14:28:37","新北市板橋區三民路二段153巷4號","121.479663333333","25.0148833333333","6500100","板橋區"
"220041","307-R5","2018/05/07 14:28:48","新北市板橋區光武街4巷1號","121.468175","25.025285","6500100","板橋區"
"220047","317-R6","2018/05/07 14:28:42","新北市板橋區民生路三段263巷4弄2號","121.463765","25.02966","6500100","板橋區"
"220012","486-VK","2018/05/07 14:28:47","新北市板橋區館前西路46巷2號","121.458915","25.0070083333333","6500100","板橋區"
"220037","491-VK","2018/05/07 14:28:36","新北市板橋區雙十路二段37-1號","121.476771666667","25.0258016666667","6500100","板橋區"
"220104","560-BX","2018/05/07 14:28:50","新北市板橋區中正路413巷2弄26號","121.453076666667","25.0234066666667","6500100","板橋區"
"220052","561-BX","2018/05/07 14:28:51","新北市板橋區文化路一段280-1號","121.46722","25.021125","6500100","板橋區"
"220011","609-BX","2018/05/07 14:28:45","新北市板橋區三民路二段202-28號","121.478915","25.0125933333333","6500100","板橋區"
"220003","630-UY","2018/05/07 14:28:46","新北市板橋區重慶路278巷1號","121.462776666667","24.9996616666667","6500100","板橋區"
"220040","637-BX","2018/05/07 14:28:43","新北市板橋區文聖街83號","121.477506666667","25.03003","6500100","板橋區"
"220005","686-BX","2018/05/07 14:28:41","新北市中和區華順街142號","121.464815","24.9957766666667","6500100","板橋區"
"220025","687-BX","2018/05/07 14:28:27","新北市板橋區大觀路一段51號","121.447848333333","25.0072216666667","6500100","板橋區"
"220042","689-BX","2018/05/07 14:28:49","新北市板橋區新海路328號","121.460515","25.0240216666667","6500100","板橋區"
"220002","741-BX","2018/05/07 14:28:50","新北市板橋區光明街132號","121.463673333333","25.0031216666667","6500100","板橋區"
"220051","KEA-2699","2018/05/07 14:28:37","新北市板橋區雙十路二段130巷2弄23號","121.474688333333","25.0287783333333","6500100","板橋區"
"220014","829-TW","2018/05/07 14:28:34","新北市板橋區漢生東路313巷2弄1號","121.472283333333","25.0082433333333","6500100","板橋區"
"220045","830-TW","2018/05/07 14:28:49","新北市板橋區大同街35巷27號","121.476615","25.027615","6500100","板橋區"
"220038","833-TW","2018/05/07 14:28:53","新北市板橋區文化路一段49號","121.460573333333","25.0133883333333","6500100","板橋區"
"220022","895-R6","2018/05/07 14:28:41","新北市板橋區後菜園街4號","121.45776","25.0103766666667","6500100","板橋區"
"220021","985-R7","2018/05/07 14:28:41","新北市板橋區新生街25號","121.456165","25.0212116666667","6500100","板橋區"
"220046","AAC-210","2018/05/07 14:28:39","新北市板橋區陽明街29巷45號","121.463153333333","25.0227116666667","6500100","板橋區"
"220018","AAC-253","2018/05/07 14:28:46","新北市板橋區四川路一段89號","121.459665","25.00567","6500100","板橋區"
