"lineid","car","time","location","longitude","latitude","cityid","cityname"
"249005","172-UM","2018/05/07 17:17:52","新北市五股區凌雲路三段130號","121.417705","25.1284783333333","6502300","八里區"
"249001","173-UM","2018/05/07 17:18:54","新北市八里區中華路二段165巷3號","121.407665","25.1508483333333","6502300","八里區"
"249004","303-UY","2018/05/07 17:18:25","新北市八里區文化街15號","121.423938333333","25.1597883333333","6502300","八里區"
"249002","305-UY","2018/05/07 17:17:56","新北市八里區龍米路二段117巷30弄2號","121.444613333333","25.142695","6502300","八里區"
"249003","759-BX","2018/05/07 17:18:36","新北市八里區商港路48號","121.395818333333","25.1453983333333","6502300","八里區"
"244007","080-UY","2018/05/07 17:18:46","新北市林口區湖子17號","121.385858333333","25.0908333333333","6501700","林口區"
"244019","403-UM","2018/05/07 17:18:52","新北市林口區公園路223巷1號","121.373943333333","25.0748516666667","6501700","林口區"
"244023","483-VK","2018/05/07 17:18:59","新北市林口區仁愛路一段637巷21號","121.38827","25.075815","6501700","林口區"
"244017","485-VK","2018/05/07 17:18:55","新北市林口區粉寮69號","121.40484","25.0907633333333","6501700","林口區"
"244009","656-BX","2018/05/07 17:18:38","新北市林口區文化北路二段550巷1號","121.378345","25.0923616666667","6501700","林口區"
"244011","657-BX","2018/05/07 17:18:54","新北市林口區粉寮路一段51號","121.396933333333","25.0777033333333","6501700","林口區"
"244025","837-TS","2018/05/07 17:18:20","新北市林口區文化三路二段238號","121.376333333333","25.082865","6501700","林口區"
"244021","838-TS","2018/05/07 17:18:54","新北市林口區粉寮路二段160巷38號","121.405746666667","25.0918133333333","6501700","林口區"
"243014","680-BX","2018/05/07 17:04:39","新北市泰山區犁頭窠3-1號","121.421875","25.06049","6501600","泰山區"
"231046","107-UY","2018/05/07 17:18:55","新北市新店區直潭路92號","121.530906666667","24.9375916666667","6500600","新店區"
"241011","013-R5","2018/05/07 17:18:30","新北市三重區河邊北街100巷18號","121.503115","25.0702416666667","6500200","三重區"
"241028","022-UY","2018/05/07 17:18:55","新北市三重區仁化商場3號","121.493525","25.059545","6500200","三重區"
"241008","059-VK","2018/05/07 17:18:02","新北市三重區下竹圍街4號","121.480818333333","25.0761","6500200","三重區"
"241009","060-VK","2018/05/07 17:18:57","新北市三重區仁愛街614號","121.48368","25.0806633333333","6500200","三重區"
"241015","062-VK","2018/05/07 17:18:56","新北市三重區長元街82-1號","121.501826666667","25.066285","6500200","三重區"
"241017","063-VK","2018/05/07 17:18:45","新北市三重區大同北路52號","121.495051666667","25.0630633333333","6500200","三重區"
"241024","065-VK","2018/05/07 17:18:49","新北市三重區中正北路193巷21弄31號","121.478146666667","25.07083","6500200","三重區"
"241026","066-VK","2018/05/07 17:18:20","新北市三重區福裕街28號","121.499371666667","25.06158","6500200","三重區"
"241003","091-VK","2018/05/07 17:18:16","新北市三重區富福街58號","121.491865","25.08448","6500200","三重區"
"241016","265-UM","2018/05/07 17:18:55","新北市三重區大同北路97-3號","121.494321666667","25.0635933333333","6500200","三重區"
"241018","268-UM","2018/05/07 17:18:55","新北市三重區安慶街155號","121.494266666667","25.0687333333333","6500200","三重區"
"241032","269-UM","2018/05/07 17:17:30","新北市三重區興華街106號","121.483906666667","25.0597733333333","6500200","三重區"
"241013","270-UM","2018/05/07 17:18:57","新北市三重區仁愛街109號","121.495641666667","25.0741983333333","6500200","三重區"
"241007","398-BY","2018/05/07 17:18:23","新北市三重區三和路四段155巷27號","121.484668333333","25.07859","6500200","三重區"
"241024","KEA-2210","2018/05/07 17:18:44","新北市三重區大勇街82巷15弄23號","121.480868333333","25.0719266666667","6500200","三重區"
"241004","475-VK","2018/05/07 17:17:21","新北市三重區五華街110巷17弄7號","121.490798333333","25.0824316666667","6500200","三重區"
"241020","478-VK","2018/05/07 17:18:55","新北市三重區自強路三段33號","121.487011666667","25.0725833333333","6500200","三重區"
"241014","543-UM","2018/05/07 17:18:48","新北市三重區長壽街42號","121.500185","25.0682616666667","6500200","三重區"
"241023","545-UM","2018/05/07 17:17:16","新北市三重區忠孝路三段48號","121.480811666667","25.0659783333333","6500200","三重區"
"241001","547-UM","2018/05/07 17:18:48","新北市三重區仁愛街269巷49號","121.494378333333","25.0794183333333","6500200","三重區"
"241019","KEA-2593","2018/05/07 17:18:55","新北市三重區忠孝路二段80號","121.484121666667","25.06976","6500200","三重區"
"241006","AAD-863","2018/05/07 17:18:47","新北市三重區車路頭街135-1號","121.48429","25.076145","6500200","三重區"
"241002","887-TS","2018/05/07 17:18:40","新北市三重區五華街42-1號","121.494431666667","25.0809083333333","6500200","三重區"
"241012","941-UM","2018/05/07 17:18:04","新北市三重區河邊北街238號","121.501878333333","25.0757166666667","6500200","三重區"
"241033","AAC-255","2018/05/07 17:18:12","新北市三重區中興北街207號","121.469041666667","25.0577516666667","6500200","三重區"
"247024","893-R6","2018/05/07 17:18:51","新北市蘆洲區長榮路233號","121.460373333333","25.085685","6501400","蘆洲區"
"247014","546-UM","2018/05/07 17:17:56","新北市蘆洲區得勝街165號","121.471231666667","25.0829083333333","6501400","蘆洲區"
"247022","500-BY","2018/05/07 17:18:18","新北市蘆洲區三民路128巷26號","121.47077","25.0881983333333","6501400","蘆洲區"
"247010","341-TH","2018/05/07 17:18:42","新北市蘆洲區中山一路120巷7弄26號","121.4774","25.081955","6501400","蘆洲區"
"247012","339-TH","2018/05/07 17:18:54","新北市蘆洲區信義路319巷12號","121.477683333333","25.0862116666667","6501400","蘆洲區"
"247004","337-TH","2018/05/07 17:18:45","新北市蘆洲區永安南路二段286號","121.457618333333","25.0813516666667","6501400","蘆洲區"
"247006","336-TH","2018/05/07 17:18:04","新北市蘆洲區長安街73巷13號","121.462233333333","25.07958","6501400","蘆洲區"
"247018","057-VK","2018/05/07 17:17:59","新北市蘆洲區民權路62號","121.475338333333","25.0872666666667","6501400","蘆洲區"
"247008","056-VK","2018/05/07 17:18:35","新北市蘆洲區信義路34巷122-1號","121.475836666667","25.076795","6501400","蘆洲區"
"247016","007-UY","2018/05/07 17:18:31","新北市蘆洲區正和街96巷9號","121.467611666667","25.08115","6501400","蘆洲區"
"247002","002-UY","2018/05/07 17:17:39","新北市蘆洲區永樂街38巷33弄60號","121.45634","25.089985","6501400","蘆洲區"
"247020","001-UY","2018/05/07 17:18:51","新北市蘆洲區民族路446-1號","121.472916666667","25.0919483333333","6501400","蘆洲區"
"228003","097-TW","2018/05/07 17:18:41","新北市貢寮區福隆里興隆街7號","121.9451","25.0167183333333","6502600","貢寮區"
"228002","585-TW","2018/05/07 17:18:45","新北市貢寮區雙玉里下雙溪街15號","121.916068333333","25.0119916666667","6502600","貢寮區"
"228001","670-TC","2018/05/07 17:18:47","新北市貢寮區仁理村尖山腳街18-3號","121.925463333333","25.0483366666667","6502600","貢寮區"
"224006","676-BX","2018/05/07 17:18:46","新北市瑞芳區傑魚坑路309號","121.786313333333","25.1045966666667","6501200","瑞芳區"
"224008","285-BY","2018/05/07 17:18:16","新北市瑞芳區侯硐路158號","121.827851666667","25.08529","6501200","瑞芳區"
"224009","273-VK","2018/05/07 17:18:27","新北市瑞芳區汽車路123號","121.839326666667","25.1103266666667","6501200","瑞芳區"
"224005","271-BY","2018/05/07 17:18:16","新北市瑞芳區鼻頭路247號","121.912646666667","25.1239933333333","6501200","瑞芳區"
"227008","642-TC","2018/05/07 17:18:29","新北市雙溪區牡丹里牡丹102號","121.849965","25.0597933333333","6502500","雙溪區"
"227001","400-TW","2018/05/07 17:18:18","新北市雙溪區上林里內平林90號","121.827553333333","25.0274616666667","6502500","雙溪區"
"251009","008-UM","2018/05/07 17:18:46","新北市淡水區三民街20號","121.439","25.1717","6501000","淡水區"
"251004","009-UM","2018/05/07 17:18:52","新北市淡水區中正東路二段88巷15號","121.459186666667","25.150545","6501000","淡水區"
"251005","010-UM","2018/05/07 17:17:48","新北市淡水區鄧公路19-1號","121.450285","25.16995","6501000","淡水區"
"251013","KEA-2871","2018/05/07 17:18:23","新北市淡水區破瓦厝子3-3號","121.472335","25.197205","6501000","淡水區"
"251014","180-VK","2018/05/07 17:18:44","新北市淡水區公埔子30-2號","121.465698333333","25.2286383333333","6501000","淡水區"
"251008","181-VK","2018/05/07 17:18:40","新北市淡水區大同路285號","121.467971666667","25.142445","6501000","淡水區"
"251015","182-VK","2018/05/07 17:18:49","新北市淡水區三空泉16-10號","121.472396666667","25.1650033333333","6501000","淡水區"
"251010","413-VK","2018/05/07 17:18:37","新北市淡水區新市三路一段336號","121.430461666667","25.1964883333333","6501000","淡水區"
"251012","441-VK","2018/05/07 17:18:45","新北市淡水區中山北路一段156號","121.444248333333","25.1779866666667","6501000","淡水區"
"251007","442-VK","2018/05/07 17:18:45","新北市淡水區民生路47-4號","121.462103333333","25.138005","6501000","淡水區"
"251006","561-UM","2018/05/07 17:18:23","新北市淡水區新民街21號","121.43907","25.17522","6501000","淡水區"
"251016","575-R6","2018/05/07 17:18:42","新北市淡水區鄒厝崙7號","121.470856666667","25.1880366666667","6501000","淡水區"
"251011","650-BX","2018/05/07 17:18:55","新北市淡水區坪頂路111號","121.464473333333","25.16173","6501000","淡水區"
"251002","672-BX","2018/05/07 17:18:48","新北市淡水區中正路二段31號","121.41934","25.181535","6501000","淡水區"
"251003","673-BX","2018/05/07 17:18:34","新北市淡水區中正路二段31號","121.4193","25.1816333333333","6501000","淡水區"
"207003","550-UM","2018/05/07 17:18:52","新北市萬里區萬里里瑪鋉路292號","121.688466666667","25.1814266666667","6502800","萬里區"
"252002","178-VK","2018/05/07 17:18:48","新北市三芝區忠孝街1-14號","121.505571666667","25.2539616666667","6502100","三芝區"
"252001","292-VK","2018/05/07 17:18:42","新北市三芝區長安街119號","121.49805","25.2596583333333","6502100","三芝區"
"237012","275-BY","2018/05/07 17:18:47","新北市三峽區中山路459巷163-3號","121.348845","24.933215","6500900","三峽區"
"242034","AAC-296","2018/05/07 17:18:48","新北市新莊區中正路471號","121.442053333333","25.0335416666667","6500500","新莊區"
"242058","986-R7","2018/05/07 17:18:31","新北市泰山區磚雅厝3號","121.441993333333","25.04172","6500500","新莊區"
"242053","751-BX","2018/05/07 17:18:15","新北市新莊區瓊林路59-89號","121.442236666667","25.0243766666667","6500500","新莊區"
"242027","615-BX","2018/05/07 17:18:56","新北市新莊區中港路296號","121.452843333333","25.0447616666667","6500500","新莊區"
"242025","613-BX","2018/05/07 17:18:49","新北市新莊區中平路82巷20號","121.445633333333","25.0448466666667","6500500","新莊區"
"242029","612-BX","2018/05/07 17:18:41","新北市新莊區幸福路914號","121.442436666667","25.048755","6500500","新莊區"
"242042","566-BX","2018/05/07 17:18:06","新北市新莊區三和路12-14號","121.441951666667","25.0372833333333","6500500","新莊區"
"242046","497-BY","2018/05/07 17:16:41","新北市新莊區新樹路25號","121.440441666667","25.0324616666667","6500500","新莊區"
"242044","442-UM","2018/05/07 17:17:52","新北市新莊區建福路21號","121.426166666667","25.029145","6500500","新莊區"
"242050","441-UM","2018/05/07 17:18:04","新北市新莊區瓊林南路42巷1-1號","121.435951666667","25.01783","6500500","新莊區"
"242056","440-UM","2018/05/07 17:18:49","新北市新莊區中正路384號","121.441971666667","25.0344716666667","6500500","新莊區"
"242007","413-TV","2018/05/07 17:18:31","新北市新莊區中平路116號","121.444868333333","25.046295","6500500","新莊區"
"242023","362-BY","2018/05/07 17:18:15","新北市新莊區新泰路401巷29-1號","121.442375","25.043745","6500500","新莊區"
"242060","353-BY","2018/05/07 17:18:56","新北市泰山區磚雅厝3號","121.44212","25.04166","6500500","新莊區"
"242039","133-UY","2018/05/07 17:18:35","新北市新莊區民安路383號","121.43203","25.0230066666667","6500500","新莊區"
"242031","135-UY","2018/05/07 17:18:52","新北市新莊區三和路12-21號","121.442031666667","25.0388166666667","6500500","新莊區"
"242048","172-VK","2018/05/07 17:19:00","新北市新莊區龍安路249巷1號","121.418991666667","25.0207466666667","6500500","新莊區"
"242017","175-VK","2018/05/07 17:18:36","新北市新莊區新泰路357巷3弄15號","121.442366666667","25.04087","6500500","新莊區"
"242004","176-VK","2018/05/07 17:18:59","新北市新莊區三和路12-21號","121.442011666667","25.0388366666667","6500500","新莊區"
"242015","346-TH","2018/05/07 17:18:26","新北市新莊區三和路12-18號","121.441975","25.0375883333333","6500500","新莊區"
"242009","347-TH","2018/05/07 17:18:48","新北市新莊區中平路132巷22號","121.445795","25.0467066666667","6500500","新莊區"
"242021","348-TH","2018/05/07 17:18:49","新北市新莊區中港路312號","121.452418333333","25.0452833333333","6500500","新莊區"
"242036","349-TH","2018/05/07 17:17:17","新北市新莊區新泰路357巷3弄49號","121.441918333333","25.040075","6500500","新莊區"
"242019","350-TH","2018/05/07 17:18:27","新北市新莊區三和路12-19號","121.442268333333","25.0377433333333","6500500","新莊區"
"242013","351-TH","2018/05/07 17:18:35","新北市新莊區三和路12-10號","121.442278333333","25.0368","6500500","新莊區"
"238015","755-BX","2018/05/07 17:18:32","新北市樹林區大安路549號","121.412376666667","24.984035","6500700","樹林區"
"238019","599-UM","2018/05/07 17:18:40","新北市樹林區八德街251巷2號","121.42184","24.9786566666667","6500700","樹林區"
"238018","571-TV","2018/05/07 17:18:55","新北市樹林區中華路39號","121.423751666667","24.9835083333333","6500700","樹林區"
"238024","5061-A6","2018/05/07 17:17:53","新北市樹林區保安街一段48巷39號","121.426785","24.9956366666667","6500700","樹林區"
"238022","KEA-2213","2018/05/07 17:17:56","新北市樹林區仁愛街77號","121.423763333333","24.9828483333333","6500700","樹林區"
"238021","KEA-2539","2018/05/07 17:18:56","新北市樹林區西圳街一段165巷3號","121.395241666667","24.9623016666667","6500700","樹林區"
"238012","303-VK","2018/05/07 17:18:50","新北市樹林區保安街一段29號","121.424718333333","24.9943883333333","6500700","樹林區"
"238017","283-BY","2018/05/07 17:18:46","新北市樹林區中正路250號","121.417735","25.0072716666667","6500700","樹林區"
"238014","282-BY","2018/05/07 17:18:40","新北市樹林區長壽街70巷11號","121.421721666667","24.99458","6500700","樹林區"
"238026","172-UY","2018/05/07 17:18:45","新北市樹林區東大街146號","121.40993","24.9759616666667","6500700","樹林區"
"238016","169-UY","2018/05/07 17:18:51","新北市樹林區中山路二段10號","121.417536666667","24.9849933333333","6500700","樹林區"
"239007","AAC-297","2018/05/07 17:18:31","新北市鶯歌區光復街36號","121.351508333333","24.9557083333333","6500800","鶯歌區"
"239006","891-R6","2018/05/07 17:18:38","新北市鶯歌區福昌街28號","121.33283","24.9610016666667","6500800","鶯歌區"
"239008","527-UM","2018/05/07 17:18:56","新北市鶯歌區中山路300號","121.342948333333","24.957045","6500800","鶯歌區"
"239005","526-UM","2018/05/07 17:17:52","新北市鶯歌區福德四街12號","121.329538333333","24.9677833333333","6500800","鶯歌區"
"239001","417-VK","2018/05/07 17:18:40","新北市鶯歌區尖山路196號","121.344168333333","24.9471866666667","6500800","鶯歌區"
"239003","360-BY","2018/05/07 17:18:29","新北市鶯歌區德昌二街47號","121.333326666667","24.9585833333333","6500800","鶯歌區"
"239002","359-BY","2018/05/07 17:18:48","新北市鶯歌區建國路158號","121.350466666667","24.953695","6500800","鶯歌區"
"239004","193-VK","2018/05/07 17:18:43","新北市鶯歌區文化路288號","121.352743333333","24.946975","6500800","鶯歌區"
"242002","KEA-2550","2018/05/07 17:18:40","新北市新莊區新泰路127號","121.448365","25.0362916666667","6500500","新莊區"
