"lineid","car","time","location","longitude","latitude","cityid","cityname"
"249005","172-UM","2018/05/07 17:28:32","新北市八里區荖阡坑路69-2號","121.407506666667","25.1261166666667","6502300","八里區"
"249001","173-UM","2018/05/07 17:27:54","新北市八里區中華路一段5-27號","121.420861666667","25.1575033333333","6502300","八里區"
"249004","303-UY","2018/05/07 17:28:45","新北市八里區民有街24號","121.415886666667","25.1567466666667","6502300","八里區"
"249002","305-UY","2018/05/07 17:28:36","新北市八里區龍米路一段221號","121.451433333333","25.131855","6502300","八里區"
"249003","759-BX","2018/05/07 17:28:36","新北市八里區中山路二段398號","121.400608333333","25.147855","6502300","八里區"
"244013","069-UM","2018/05/07 17:28:18","新北市林口區中山路6號","121.3967","25.078335","6501700","林口區"
"244007","080-UY","2018/05/07 17:28:39","新北市林口區中湖46號","121.383078333333","25.0951616666667","6501700","林口區"
"244019","403-UM","2018/05/07 17:28:32","新北市林口區公園路193號","121.371958333333","25.0723333333333","6501700","林口區"
"244023","483-VK","2018/05/07 17:28:39","新北市林口區東明一街55巷1號","121.39191","25.07185","6501700","林口區"
"244017","485-VK","2018/05/07 17:28:35","新北市林口區文化一路二段202號","121.383358333333","25.0806666666667","6501700","林口區"
"244009","656-BX","2018/05/07 17:27:58","新北市林口區中北一街76號","121.385751666667","25.0887533333333","6501700","林口區"
"244011","657-BX","2018/05/07 17:28:12","新北市林口區中正路17號","121.396745","25.077455","6501700","林口區"
"244025","837-TS","2018/05/07 17:28:00","新北市林口區民族路203號","121.367108333333","25.0765516666667","6501700","林口區"
"244021","838-TS","2018/05/07 17:28:34","新北市林口區粉寮路二段46-1號","121.403666666667","25.0871633333333","6501700","林口區"
"231046","107-UY","2018/05/07 17:28:35","新北市新店區直潭路92號","121.530893333333","24.937595","6500600","新店區"
"241011","013-R5","2018/05/07 17:26:30","新北市三重區河邊北街122-1號","121.503653333333","25.0714033333333","6500200","三重區"
"241009","060-VK","2018/05/07 17:28:37","新北市三重區力行路二段162巷53號","121.48126","25.0764533333333","6500200","三重區"
"241015","062-VK","2018/05/07 17:28:36","新北市三重區長元街65巷16弄15號","121.50359","25.0661916666667","6500200","三重區"
"241017","063-VK","2018/05/07 17:28:05","新北市三重區重新路三段45-2號","121.493175","25.06169","6500200","三重區"
"241024","065-VK","2018/05/07 17:28:09","新北市三重區大勇街82巷15弄13號","121.480363333333","25.07186","6500200","三重區"
"241003","091-VK","2018/05/07 17:28:16","新北市三重區富福街1號","121.489871666667","25.0830266666667","6500200","三重區"
"241016","265-UM","2018/05/07 17:28:15","新北市三重區信義西街41號","121.495273333333","25.0639816666667","6500200","三重區"
"241018","268-UM","2018/05/07 17:28:35","新北市三重區中正北路25巷1號","121.492466666667","25.062035","6500200","三重區"
"241032","269-UM","2018/05/07 17:28:50","新北市三重區名源街36號","121.482316666667","25.0597166666667","6500200","三重區"
"241013","270-UM","2018/05/07 17:28:44","新北市三重區仁愛街82巷6號","121.495133333333","25.07349","6500200","三重區"
"241007","398-BY","2018/05/07 17:28:49","新北市三重區三和路四段145巷126號","121.487533333333","25.07922","6500200","三重區"
"241024","KEA-2210","2018/05/07 17:28:45","新北市三重區國道路一段58巷18號","121.481003333333","25.0721166666667","6500200","三重區"
"241020","478-VK","2018/05/07 17:28:33","新北市三重區自強路三段7巷3號","121.48871","25.0723833333333","6500200","三重區"
"241014","543-UM","2018/05/07 17:28:48","新北市三重區安和路13號","121.50128","25.0683683333333","6500200","三重區"
"241023","545-UM","2018/05/07 17:27:56","新北市三重區三民街146巷3弄2-1號","121.48157","25.064755","6500200","三重區"
"241019","KEA-2593","2018/05/07 17:27:35","新北市三重區自強路二段36號","121.489258333333","25.069505","6500200","三重區"
"241002","887-TS","2018/05/07 17:28:40","新北市三重區自強路五段67號","121.494891666667","25.08198","6500200","三重區"
"241012","941-UM","2018/05/07 17:28:44","新北市三重區仁昌街81號","121.49906","25.074785","6500200","三重區"
"241033","AAC-255","2018/05/07 17:28:32","新北市三重區興德路145-2號","121.469088333333","25.052765","6500200","三重區"
"247024","893-R6","2018/05/07 17:28:11","新北市蘆洲區長興路318號","121.461701666667","25.092305","6501400","蘆洲區"
"247014","546-UM","2018/05/07 17:25:56","新北市蘆洲區復興路3號","121.471738333333","25.0852183333333","6501400","蘆洲區"
"247022","500-BY","2018/05/07 17:27:58","新北市蘆洲區三民路243號","121.468963333333","25.088935","6501400","蘆洲區"
"247010","341-TH","2018/05/07 17:28:22","新北市蘆洲區中山一路120巷29號","121.478248333333","25.0821033333333","6501400","蘆洲區"
"247012","339-TH","2018/05/07 17:28:14","新北市蘆洲區民族路30號","121.476356666667","25.08417","6501400","蘆洲區"
"247004","337-TH","2018/05/07 17:28:06","新北市蘆洲區長安街160號","121.459431666667","25.0828633333333","6501400","蘆洲區"
"247006","336-TH","2018/05/07 17:28:41","新北市蘆洲區長安街22巷31弄17號","121.464163333333","25.080465","6501400","蘆洲區"
"247018","057-VK","2018/05/07 17:28:41","新北市蘆洲區民權路138-1號","121.473136666667","25.08909","6501400","蘆洲區"
"247008","056-VK","2018/05/07 17:28:35","新北市蘆洲區信義路34巷48號","121.475085","25.0781","6501400","蘆洲區"
"247016","007-UY","2018/05/07 17:28:51","新北市蘆洲區光華路22巷57號","121.467858333333","25.0851","6501400","蘆洲區"
"247002","002-UY","2018/05/07 17:28:25","新北市蘆洲區永樂街38巷57弄37號","121.457251666667","25.0906866666667","6501400","蘆洲區"
"247020","001-UY","2018/05/07 17:28:34","新北市蘆洲區仁愛街109號","121.470605","25.09423","6501400","蘆洲區"
"228003","097-TW","2018/05/07 17:28:21","新北市貢寮區龍門里復興街46-1號","121.928283333333","25.0292183333333","6502600","貢寮區"
"228002","585-TW","2018/05/07 17:28:45","新北市貢寮區福隆里興隆街21-2號","121.93271","25.0184883333333","6502600","貢寮區"
"228001","670-TC","2018/05/07 17:28:07","新北市貢寮區仁理村仁愛路15號","121.92448","25.0532766666667","6502600","貢寮區"
"224010","AGQ-8101","2018/05/07 17:28:35","新北市瑞芳區逢甲路3號","121.810083333333","25.10838","6501200","瑞芳區"
"224006","676-BX","2018/05/07 17:28:03","新北市瑞芳區傑魚坑路73號","121.793113333333","25.1105183333333","6501200","瑞芳區"
"224008","285-BY","2018/05/07 17:28:42","新北市瑞芳區九芎橋路24號","121.832688333333","25.0924316666667","6501200","瑞芳區"
"224009","273-VK","2018/05/07 17:28:11","新北市瑞芳區汽車路28號","121.845481666667","25.110155","6501200","瑞芳區"
"224005","271-BY","2018/05/07 17:28:36","新北市瑞芳區明里路80-2號","121.866078333333","25.1219733333333","6501200","瑞芳區"
"227008","642-TC","2018/05/07 17:28:49","新北市雙溪區三貂里定福路1-2號","121.850728333333","25.0635116666667","6502500","雙溪區"
"227001","400-TW","2018/05/07 17:27:58","新北市雙溪區平林里外平林72號","121.844168333333","25.032995","6502500","雙溪區"
"251009","008-UM","2018/05/07 17:28:46","新北市淡水區新生街30巷66號","121.439748333333","25.173245","6501000","淡水區"
"251004","009-UM","2018/05/07 17:21:31","新北市淡水區中正東路二段88巷15號","121.459155","25.150455","6501000","淡水區"
"251005","010-UM","2018/05/07 17:27:32","新北市淡水區鄧公路31巷2號","121.45116","25.1706183333333","6501000","淡水區"
"251001","011-UM","2018/05/07 17:28:16","新北市淡水區民權路92巷35-1號","121.4621","25.1267083333333","6501000","淡水區"
"251013","KEA-2871","2018/05/07 17:28:08","新北市淡水區大竹圍5號","121.466575","25.1952416666667","6501000","淡水區"
"251014","180-VK","2018/05/07 17:28:38","新北市淡水區公埔子20-8號","121.469366666667","25.2282566666667","6501000","淡水區"
"251008","181-VK","2018/05/07 17:27:00","新北市淡水區大同路104號","121.462083333333","25.139885","6501000","淡水區"
"251015","182-VK","2018/05/07 17:28:29","新北市淡水區樹林口168號","121.476085","25.166785","6501000","淡水區"
"251010","413-VK","2018/05/07 17:27:37","新北市淡水區中正路二段211號","121.426211666667","25.189105","6501000","淡水區"
"251012","441-VK","2018/05/07 17:28:45","新北市淡水區北新路114號","121.447768333333","25.1783183333333","6501000","淡水區"
"251007","442-VK","2018/05/07 17:28:05","新北市淡水區民生路47-5號","121.462231666667","25.138085","6501000","淡水區"
"251006","561-UM","2018/05/07 17:26:23","新北市淡水區大智街48號","121.442961666667","25.1742283333333","6501000","淡水區"
"251016","575-R6","2018/05/07 17:28:22","新北市淡水區社厝坑6-1號","121.470313333333","25.1907183333333","6501000","淡水區"
"251011","650-BX","2018/05/07 17:27:55","新北市淡水區坪頂路538號","121.479573333333","25.160395","6501000","淡水區"
"251002","672-BX","2018/05/07 17:28:28","新北市淡水區中正路一段76號","121.42501","25.1771683333333","6501000","淡水區"
"251003","673-BX","2018/05/07 17:28:34","新北市淡水區中正路257號","121.433235","25.174465","6501000","淡水區"
"207003","550-UM","2018/05/07 17:27:52","新北市萬里區龜吼里美崙路91號","121.685601666667","25.1850416666667","6502800","萬里區"
"207004","225-TW","2018/05/07 17:28:37","新北市萬里區萬里里景美路16號","121.686765","25.17342","6502800","萬里區"
"252002","178-VK","2018/05/07 17:25:28","新北市三芝區忠孝街1-14號","121.505498333333","25.2539333333333","6502100","三芝區"
"252001","292-VK","2018/05/07 17:28:22","新北市三芝區淡金路一段4-5號","121.498093333333","25.2596933333333","6502100","三芝區"
"237011","572-TV","2018/05/07 17:28:46","新北市三峽區中山路459巷163-3號","121.348718333333","24.932985","6500900","三峽區"
"237012","275-BY","2018/05/07 17:28:47","新北市三峽區中山路459巷163-3號","121.348846666667","24.9332183333333","6500900","三峽區"
"242034","AAC-296","2018/05/07 17:28:28","新北市新莊區新泰路3巷1號","121.44978","25.0322383333333","6500500","新莊區"
"242058","986-R7","2018/05/07 17:27:31","新北市新莊區中正路434號","121.44057","25.0336983333333","6500500","新莊區"
"242053","751-BX","2018/05/07 17:28:35","新北市新莊區瓊林南路301巷13號","121.436046666667","25.0060416666667","6500500","新莊區"
"242027","615-BX","2018/05/07 17:28:36","新北市新莊區思源路32號","121.460253333333","25.04038","6500500","新莊區"
"242025","613-BX","2018/05/07 17:28:49","新北市新莊區中港路268號","121.453243333333","25.04394","6500500","新莊區"
"242029","612-BX","2018/05/07 17:27:41","新北市新莊區福壽街67號","121.458201666667","25.049415","6500500","新莊區"
"242042","566-BX","2018/05/07 17:28:46","新北市新莊區新樹路113巷25號","121.439485","25.0264216666667","6500500","新莊區"
"242046","497-BY","2018/05/07 17:28:20","新北市新莊區新樹路49號","121.440181666667","25.0320183333333","6500500","新莊區"
"242044","442-UM","2018/05/07 17:28:36","新北市新莊區富國路75號","121.420071666667","25.02595","6500500","新莊區"
"242050","441-UM","2018/05/07 17:28:44","新北市新莊區新樹路445號","121.433041666667","25.0135883333333","6500500","新莊區"
"242056","440-UM","2018/05/07 17:28:29","新北市新莊區景德路202號","121.449295","25.0337816666667","6500500","新莊區"
"242007","413-TV","2018/05/07 17:28:36","新北市新莊區自強街30號","121.454761666667","25.0462033333333","6500500","新莊區"
"242023","362-BY","2018/05/07 17:28:35","新北市新莊區公園路150號","121.453158333333","25.0400466666667","6500500","新莊區"
"242060","353-BY","2018/05/07 17:26:56","新北市新莊區瓊林路182-5號","121.439705","25.0213083333333","6500500","新莊區"
"242039","133-UY","2018/05/07 17:27:55","新北市新莊區民安路276號","121.427703333333","25.021415","6500500","新莊區"
"242031","135-UY","2018/05/07 17:28:12","新北市新莊區新泰路442號","121.443436666667","25.0447866666667","6500500","新莊區"
"242048","172-VK","2018/05/07 17:28:40","新北市新莊區四維路297號","121.421275","25.0196933333333","6500500","新莊區"
"242017","175-VK","2018/05/07 17:27:36","新北市新莊區中華路一段103號","121.452691666667","25.0439466666667","6500500","新莊區"
"242004","176-VK","2018/05/07 17:28:39","新北市新莊區中和街8號","121.448418333333","25.0430016666667","6500500","新莊區"
"242015","346-TH","2018/05/07 17:28:26","新北市新莊區建中街69號","121.447568333333","25.0368783333333","6500500","新莊區"
"242009","347-TH","2018/05/07 17:28:48","新北市新莊區中原路189-1號","121.452395","25.054345","6500500","新莊區"
"242021","348-TH","2018/05/07 17:28:09","新北市新莊區中正路134號","121.45277","25.0361883333333","6500500","新莊區"
"242036","349-TH","2018/05/07 17:28:36","新北市新莊區建國二路5-3號","121.43486","25.023695","6500500","新莊區"
"242019","350-TH","2018/05/07 17:28:47","新北市新莊區中港路54號","121.455428333333","25.03853","6500500","新莊區"
"242013","351-TH","2018/05/07 17:28:35","新北市新莊區中誠街7號","121.452033333333","25.04802","6500500","新莊區"
"238015","755-BX","2018/05/07 17:28:27","新北市樹林區大安路271號","121.418961666667","24.9936266666667","6500700","樹林區"
"238019","599-UM","2018/05/07 17:28:45","新北市樹林區太平路25-1號","121.419133333333","24.9833466666667","6500700","樹林區"
"238018","571-TV","2018/05/07 17:25:55","新北市樹林區鎮前街281-4號","121.418313333333","24.9851033333333","6500700","樹林區"
"238024","5061-A6","2018/05/07 17:28:40","新北市樹林區鎮前街93號","121.424981666667","24.9896983333333","6500700","樹林區"
"238022","KEA-2213","2018/05/07 17:28:36","新北市樹林區仁愛街12巷2號","121.421861666667","24.981765","6500700","樹林區"
"238021","KEA-2539","2018/05/07 17:28:36","新北市樹林區西圳街一段203巷37號","121.395148333333","24.957435","6500700","樹林區"
"238012","303-VK","2018/05/07 17:28:29","新北市樹林區保安街一段276號","121.419698333333","24.9968933333333","6500700","樹林區"
"238017","283-BY","2018/05/07 17:27:26","新北市樹林區三德街4號","121.41306","25.0129016666667","6500700","樹林區"
"238014","282-BY","2018/05/07 17:27:09","新北市樹林區長壽街84號","121.420076666667","24.995785","6500700","樹林區"
"238020","268-VK","2018/05/07 17:28:28","新北市樹林區俊英街158號","121.426886666667","25.006375","6500700","樹林區"
"238026","172-UY","2018/05/07 17:28:04","新北市樹林區中山路三段39號","121.40118","24.9753583333333","6500700","樹林區"
"238016","169-UY","2018/05/07 17:28:31","新北市樹林區中山路一段2巷13號","121.424105","24.9940316666667","6500700","樹林區"
"239007","AAC-297","2018/05/07 17:27:28","新北市鶯歌區中正一路68號","121.352413333333","24.9541133333333","6500800","鶯歌區"
"239006","891-R6","2018/05/07 17:28:38","新北市鶯歌區鶯桃路472巷13號","121.33292","24.9658333333333","6500800","鶯歌區"
"239008","527-UM","2018/05/07 17:27:56","新北市鶯歌區大湖路351號","121.338313333333","24.9716583333333","6500800","鶯歌區"
"239005","526-UM","2018/05/07 17:28:22","新北市鶯歌區鶯桃路666號","121.329005","24.96924","6500800","鶯歌區"
"239001","417-VK","2018/05/07 17:28:19","新北市鶯歌區中正三路39號","121.338916666667","24.9419266666667","6500800","鶯歌區"
"239003","360-BY","2018/05/07 17:28:49","新北市鶯歌區德昌街15號","121.333471666667","24.96015","6500800","鶯歌區"
"239002","359-BY","2018/05/07 17:28:28","新北市鶯歌區建國路270號","121.347276666667","24.9533766666667","6500800","鶯歌區"
"239004","193-VK","2018/05/07 17:27:43","新北市三峽區復興路553號","121.356571666667","24.9404533333333","6500800","鶯歌區"
"221008","489-VK","2018/05/07 17:28:33","新北市汐止區康寧街901號","121.651353333333","25.0749416666667","6501100","汐止區"
"221033","647-BX","2018/05/07 17:28:46","新北市汐止區大同路二段187巷17號","121.65175","25.0651933333333","6501100","汐止區"
"221002","707-TV","2018/05/07 17:28:36","新北市汐止區康寧街901號","121.651491666667","25.0749733333333","6501100","汐止區"
"242002","KEA-2550","2018/05/07 17:28:20","新北市新莊區新莊路213號","121.455251666667","25.035385","6500500","新莊區"
