"lineid","car","time","location","longitude","latitude","cityid","cityname"
"234046","148-BY","2018/05/07 19:18:54","新北市永和區林森路20巷1號","121.525993333333","25.0052466666667","6500400","永和區"
"234046","149-BY","2018/05/07 19:18:50","新北市永和區秀朗路二段148巷5弄15號","121.526085","25.00088","6500400","永和區"
"234007","207-UY","2018/05/07 19:18:53","新北市中和區中山路二段15號","121.505136666667","25.0055616666667","6500400","永和區"
"234081","298-R6","2018/05/07 19:18:56","新北市永和區福和路57巷4弄2號","121.523031666667","25.0075466666667","6500400","永和區"
"234038","336-UY","2018/05/07 19:18:47","新北市永和區民樂街59巷1號","121.527811666667","24.9983016666667","6500400","永和區"
"234064","337-UY","2018/05/07 19:18:58","新北市永和區永元路17巷15號","121.521323333333","25.0007216666667","6500400","永和區"
"234086","338-UY","2018/05/07 19:19:03","新北市永和區永利路72號","121.5203","25.004225","6500400","永和區"
"234070","552-UM","2018/05/07 19:18:59","新北市永和區豫溪街74巷7弄9號","121.51771","25.0099133333333","6500400","永和區"
"234017","745-BX","2018/05/07 19:18:48","新北市永和區文化路144巷27號","121.512431666667","25.0167166666667","6500400","永和區"
"234030","746-BX","2018/05/07 19:18:47","新北市永和區厚德街68號","121.523965","24.9988666666667","6500400","永和區"
"234054","KEA-2590","2018/05/07 19:18:52","新北市永和區中興街34號","121.516323333333","25.0116833333333","6500400","永和區"
"234013","KEA-2591","2018/05/07 19:18:47","新北市永和區仁愛路128號","121.511461666667","25.0131016666667","6500400","永和區"
"234061","AAD-866","2018/05/07 19:18:58","新北市永和區秀朗路一段175號","121.517031666667","25.00367","6500400","永和區"
"234042","862-TW","2018/05/07 19:18:52","新北市永和區保平路151巷5號","121.510208333333","25.0055966666667","6500400","永和區"
"234050","863-TW","2018/05/07 19:18:59","新北市永和區保福路二段88巷18號","121.511523333333","25.0137166666667","6500400","永和區"
"234026","9371-KE","2018/05/07 19:18:50","新北市永和區安樂路144巷16號","121.514943333333","24.99981","6500400","永和區"
"234011","9373-KE","2018/05/07 19:18:56","新北市永和區永平路218巷23號","121.510006666667","25.0111283333333","6500400","永和區"
"249005","172-UM","2018/05/07 19:18:51","新北市八里區中華路三段51號","121.395275","25.141695","6502300","八里區"
"249001","173-UM","2018/05/07 19:18:54","新北市八里區中華路一段280號","121.4154","25.1550683333333","6502300","八里區"
"249003","759-BX","2018/05/07 19:18:59","新北市八里區中山路二段462號","121.39897","25.1472416666667","6502300","八里區"
"248018","225-UY","2018/05/07 19:18:44","新北市五股區民義路一段255-6號","121.426106666667","25.0914333333333","6501500","五股區"
"248012","247-BX","2018/05/07 19:18:58","新北市五股區中興路四段48巷16號","121.438728333333","25.0834166666667","6501500","五股區"
"248010","272-BY","2018/05/07 19:18:46","新北市五股區自強路90巷72號","121.430698333333","25.0712783333333","6501500","五股區"
"248002","655-BX","2018/05/07 19:19:02","新北市五股區中興路三段163號","121.44845","25.0811566666667","6501500","五股區"
"248002","678-BX","2018/05/07 19:06:43","新北市五股區中興路二段37巷28號","121.460045","25.0749416666667","6501500","五股區"
"248004","682-TV","2018/05/07 19:18:57","新北市五股區五福路73號","121.432503333333","25.0900783333333","6501500","五股區"
"234023","9380-KE","2018/05/07 19:18:54","新北市永和區竹林路124巷41號","121.51825","25.0111583333333","6500400","永和區"
"234077","969-R7","2018/05/07 19:18:51","新北市永和區民族街44號","121.51837","24.9987583333333","6500400","永和區"
"234074","AAC-211","2018/05/07 19:18:57","新北市永和區竹林路94-1號","121.519526666667","25.01227","6500400","永和區"
"234067","AAC-212","2018/05/07 19:19:04","新北市永和區保平路50巷19號","121.510706666667","25.0076466666667","6500400","永和區"
"234003","AAC-295","2018/05/07 19:18:57","新北市永和區永平路181號","121.510296666667","25.0092466666667","6500400","永和區"
"244013","069-UM","2018/05/07 19:18:57","新北市林口區麗園一街4巷2號","121.376185","25.0709316666667","6501700","林口區"
"244019","403-UM","2018/05/07 19:18:52","新北市林口區麗園一街35號","121.377661666667","25.0687866666667","6501700","林口區"
"244023","483-VK","2018/05/07 19:18:59","新北市林口區文化北路二段228號","121.372576666667","25.0851816666667","6501700","林口區"
"244011","657-BX","2018/05/07 19:18:52","新北市林口區竹林路67號","121.387828333333","25.0786266666667","6501700","林口區"
"243013","AAD-798","2018/05/07 19:18:47","新北市泰山區明志路三段145巷2弄14號","121.425045","25.0394733333333","6501600","泰山區"
"243009","297-R6","2018/05/07 19:18:57","新北市泰山區和平街15號","121.434413333333","25.0645933333333","6501600","泰山區"
"243016","380-SR","2018/05/07 19:18:59","新北市泰山區明志路三段141號","121.425083333333","25.040155","6501600","泰山區"
"243015","421-VK","2018/05/07 19:19:00","新北市泰山區明志路二段6號","121.429973333333","25.053925","6501600","泰山區"
"243011","KEA-2215","2018/05/07 19:18:52","新北市泰山區中央路36巷2號","121.426286666667","25.0429633333333","6501600","泰山區"
"243010","KEA-2216","2018/05/07 19:18:46","新北市泰山區明志路一段492巷5號","121.430013333333","25.0547316666667","6501600","泰山區"
"243012","646-TV","2018/05/07 19:18:58","新北市泰山區仁愛路100巷28號","121.433516666667","25.0549466666667","6501600","泰山區"
"243014","680-BX","2018/05/07 19:18:56","新北市泰山區泰林路二段165號","121.433493333333","25.0604983333333","6501600","泰山區"
"222003","436-BY","2018/05/07 19:18:45","新北市深坑區深南路91號","121.62658","25.0159916666667","6501800","深坑區"
"222002","659-BX","2018/05/07 19:18:58","新北市深坑區北深路一段210號","121.63289","25.0109366666667","6501800","深坑區"
"231059","046-UY","2018/05/07 19:18:58","新北市新店區安和路二段166-10號","121.519078333333","24.9742183333333","6500600","新店區"
"231040","047-UY","2018/05/07 19:18:46","新北市新店區三民路35巷3號","121.537546666667","24.970555","6500600","新店區"
"231044","106-UY","2018/05/07 19:18:58","新北市新店區中興路三段327號","121.54193","24.9863183333333","6500600","新店區"
"231046","107-UY","2018/05/07 19:18:55","新北市新店區華城路36巷1-1號","121.528473333333","24.9552583333333","6500600","新店區"
"231052","108-UY","2018/05/07 19:18:48","新北市新店區自強路219號","121.546851666667","24.91943","6500600","新店區"
"231047","187-VK","2018/05/07 19:18:55","新北市新店區中興路二段57巷7號","121.546011666667","24.97052","6500600","新店區"
"231054","KEA-2219","2018/05/07 19:18:46","新北市新店區國校路30號","121.538108333333","24.9545833333333","6500600","新店區"
"231042","268-BY","2018/05/07 19:18:52","新北市新店區光明街138巷13弄3號","121.540443333333","24.9611633333333","6500600","新店區"
"231051","278-BY","2018/05/07 19:18:50","新北市新店區百忍街90號","121.532663333333","24.9771883333333","6500600","新店區"
"231050","AAD-862","2018/05/07 19:19:06","新北市新店區竹林路30巷1號","121.552278333333","24.9512966666667","6500600","新店區"
"231058","3713-VJ","2018/05/07 19:19:02","新北市新店區光明街286巷16號","121.540925","24.9634566666667","6500600","新店區"
"231066","4716-K9","2018/05/07 19:19:01","新北市新店區安康路三段355巷1號","121.484341666667","24.9510216666667","6500600","新店區"
"231056","4715-K9","2018/05/07 19:18:59","新北市新店區安民街133巷26號","121.51547","24.96956","6500600","新店區"
"231067","4772-VM","2018/05/07 19:18:49","新北市新店區薏仁坑路自強巷1號","121.497648333333","24.9575466666667","6500600","新店區"
"231065","512-UM","2018/05/07 19:19:03","新北市新店區安祥路110巷51號","121.473446666667","24.956835","6500600","新店區"
"231049","513-UM","2018/05/07 19:18:57","新北市新店區明德路111號","121.541486666667","24.9794383333333","6500600","新店區"
"231063","616-UM","2018/05/07 19:19:00","新北市新店區達觀路14巷5號","121.503726666667","24.942485","6500600","新店區"
"231041","618-UM","2018/05/07 19:18:58","新北市新店區溪園路245-6號","121.525421666667","24.983285","6500600","新店區"
"231061","619-UM","2018/05/07 19:19:05","新北市新店區安康路一段107-2號","121.528711666667","24.9617416666667","6500600","新店區"
"231064","719-UM","2018/05/07 19:18:55","新北市新店區安忠路63巷1號","121.511651666667","24.9581616666667","6500600","新店區"
"231062","720-UM","2018/05/07 19:18:58","新北市新店區莒光路38巷10號","121.52282","24.958765","6500600","新店區"
"231060","897-TW","2018/05/07 19:19:03","新北市新店區安康路二段140號","121.512483333333","24.96177","6500600","新店區"
"231045","898-TW","2018/05/07 19:18:57","新北市新店區北宜路一段260號","121.545711666667","24.9527466666667","6500600","新店區"
"231043","899-TW","2018/05/07 19:18:55","新北市新店區寶橋路2號","121.543133333333","24.9734783333333","6500600","新店區"
"231055","AKT-0513","2018/05/07 19:18:50","新北市新店區安德街60巷7-3號","121.509598333333","24.9623783333333","6500600","新店區"
"241009","060-VK","2018/05/07 19:18:57","新北市三重區仁美街115號","121.485771666667","25.0810433333333","6500200","三重區"
"241017","063-VK","2018/05/07 19:19:05","新北市三重區大同北路172巷4號","121.49174","25.065645","6500200","三重區"
"241026","066-VK","2018/05/07 19:18:51","新北市三重區中正南路216號","121.493858333333","25.05509","6500200","三重區"
"241022","267-UM","2018/05/07 19:18:47","新北市三重區中正北路70號","121.486251666667","25.0647466666667","6500200","三重區"
"241032","269-UM","2018/05/07 19:18:45","新北市三重區新生街96號","121.483315","25.0593233333333","6500200","三重區"
"241025","271-UM","2018/05/07 19:18:49","新北市三重區中正北路404號","121.475396666667","25.070445","6500200","三重區"
"241007","398-BY","2018/05/07 19:18:49","新北市三重區慈愛街42號","121.485625","25.0789416666667","6500200","三重區"
"241035","462-BY","2018/05/07 19:19:03","新北市三重區大智街35號","121.493893333333","25.0660766666667","6500200","三重區"
"241020","478-VK","2018/05/07 19:18:53","新北市三重區大智街238-3號","121.489431666667","25.072945","6500200","三重區"
"241006","AAD-863","2018/05/07 19:18:47","新北市三重區力行路二段123巷14號","121.483773333333","25.0763916666667","6500200","三重區"
"241029","942-UM","2018/05/07 19:19:05","新北市三重區重安街27號","121.491095","25.0570416666667","6500200","三重區"
"235064","005-UY","2018/05/07 19:18:57","新北市中和區中和路30號","121.499831666667","25.0017516666667","6500300","中和區"
"235063","006-UY","2018/05/07 19:19:06","新北市中和區連城路249巷8弄2-3號","121.493665","24.9967216666667","6500300","中和區"
"235047","031-BX","2018/05/07 19:18:48","新北市中和區景平路239巷73號","121.50821","24.9921033333333","6500300","中和區"
"235056","096-UM","2018/05/07 19:18:48","新北市中和區中山路二段553號","121.480963333333","25.005475","6500300","中和區"
"235039","097-UM","2018/05/07 19:19:04","新北市中和區景平路64巷14弄15號","121.522876666667","24.9913116666667","6500300","中和區"
"235058","151-BY","2018/05/07 19:18:56","新北市中和區連城路469巷20號","121.483335","24.9951533333333","6500300","中和區"
"235055","183-VK","2018/05/07 19:18:55","新北市中和區德光路70號","121.469398333333","25.0038133333333","6500300","中和區"
"235038","185-VK","2018/05/07 19:18:56","新北市中和區大仁街10巷65號","121.520215","24.9925983333333","6500300","中和區"
"235049","186-VK","2018/05/07 19:18:58","新北市中和區景新街235號","121.508098333333","24.99449","6500300","中和區"
"235067","255-BX","2018/05/07 19:18:56","新北市中和區中正路727號","121.484833333333","24.9989766666667","6500300","中和區"
"235044","293-VK","2018/05/07 19:19:00","新北市中和區復興路311號","121.501158333333","24.9902683333333","6500300","中和區"
"235072","301-VK","2018/05/07 19:18:57","新北市中和區連城路209號","121.494483333333","24.9978866666667","6500300","中和區"
"235043","352-BY","2018/05/07 19:18:54","新北市中和區景平路370號","121.510966666667","24.9928133333333","6500300","中和區"
"235068","377-QA","2018/05/07 19:18:49","新北市中和區安邦街87號","121.49699","24.9964133333333","6500300","中和區"
"235061","378-QA","2018/05/07 19:18:56","新北市中和區連城路456巷8號","121.47879","24.9950683333333","6500300","中和區"
"235050","4979-A6","2018/05/07 19:18:56","新北市中和區景安路220巷18號","121.50293","24.991505","6500300","中和區"
"235069","4980-A6","2018/05/07 19:18:47","新北市中和區廣福路71巷46-1號","121.50253","25.0002216666667","6500300","中和區"
"235042","551-UM","2018/05/07 19:18:49","新北市中和區大勇街60巷14弄2號","121.51864","24.9944733333333","6500300","中和區"
"235070","558-UM","2018/05/07 19:18:52","新北市中和區連城路47巷10號","121.4979","25.001425","6500300","中和區"
"235045","565-BX","2018/05/07 19:19:04","新北市中和區景新街423巷35弄9號","121.51401","24.9900216666667","6500300","中和區"
"235054","640-BX","2018/05/07 19:19:04","新北市中和區國光街107巷2弄25號","121.469588333333","24.9992466666667","6500300","中和區"
"235060","647-TV","2018/05/07 19:18:49","新北市中和區台新街37號","121.47959","25.0050133333333","6500300","中和區"
"235046","733-UM","2018/05/07 19:19:03","新北市中和區忠孝街2巷13弄2號","121.51042","24.9818766666667","6500300","中和區"
"235071","783-BX","2018/05/07 19:18:59","新北市中和區中正路637巷52弄1號","121.485401666667","24.993915","6500300","中和區"
"235057","801-TS","2018/05/07 19:19:04","新北市中和區員山路192號","121.48128","25.0004183333333","6500300","中和區"
"235041","802-TS","2018/05/07 19:18:56","新北市中和區中和路256號","121.507665","24.99939","6500300","中和區"
"235052","805-TS","2018/05/07 19:19:02","新北市中和區華新街133號","121.506676666667","24.98177","6500300","中和區"
"235048","896-TW","2018/05/07 19:19:00","新北市中和區忠孝街79號","121.512141666667","24.9852533333333","6500300","中和區"
"235053","900-TW","2018/05/07 19:18:50","新北市中和區華安街21巷2號","121.467401666667","24.997545","6500300","中和區"
"235066","911-UM","2018/05/07 19:18:58","新北市中和區中和路96號","121.501363333333","25.0004683333333","6500300","中和區"
"235051","157-BY","2018/05/07 19:18:54","新北市中和區興南路一段56巷3弄6號","121.510303333333","24.99104","6500300","中和區"
"235037","AAC-213","2018/05/07 19:19:04","新北市中和區自立路15巷8號","121.52285","24.9958466666667","6500300","中和區"
"235059","AAC-215","2018/05/07 19:18:46","新北市中和區圓通路286巷1號","121.4915","24.9911783333333","6500300","中和區"
"220068","013-TV","2018/05/07 19:18:59","新北市板橋區翠華街6巷59號","121.481253333333","25.024935","6500100","板橋區"
"220065","072-UY","2018/05/07 19:18:52","新北市板橋區民族路125號","121.46737","25.0080566666667","6500100","板橋區"
"220086","073-UY","2018/05/07 19:19:06","新北市板橋區中正路216巷48-1號","121.45735","25.0188716666667","6500100","板橋區"
"220106","075-UY","2018/05/07 19:18:53","新北市板橋區雙十路三段38號","121.471115","25.0310816666667","6500100","板橋區"
"220069","AAD-861","2018/05/07 19:19:02","新北市板橋區華興街31巷5號","121.458431666667","25.0042666666667","6500100","板橋區"
"235065","251-BX","2018/05/07 19:18:59","新北市中和區中山路二段64巷7弄27號","121.502665","25.0045833333333","6500300","中和區"
"228003","097-TW","2018/05/07 19:19:01","新北市貢寮區和美里和美街19-2號","121.912781666667","25.0826066666667","6502600","貢寮區"
"228002","585-TW","2018/05/07 19:18:45","新北市貢寮區雙玉里田寮洋街22號","121.929791666667","25.0211883333333","6502600","貢寮區"
"228001","670-TC","2018/05/07 19:18:46","新北市貢寮區真理里新港街10號","121.925525","25.0543933333333","6502600","貢寮區"
"224010","AGQ-8101","2018/05/07 19:18:55","新北市瑞芳區汽車路5號","121.847478333333","25.1116933333333","6501200","瑞芳區"
"224006","676-BX","2018/05/07 19:19:06","新北市瑞芳區中山路161號","121.801988333333","25.1065316666667","6501200","瑞芳區"
"224008","285-BY","2018/05/07 19:19:01","新北市瑞芳區一坑路191-1號","121.802068333333","25.108775","6501200","瑞芳區"
"224007","275-VK","2018/05/07 19:15:38","新北市瑞芳區大寮路356號","121.784605","25.103035","6501200","瑞芳區"
"224005","271-BY","2018/05/07 19:18:56","新北市瑞芳區蛇子形路5號","121.824876666667","25.1041366666667","6501200","瑞芳區"
"227008","642-TC","2018/05/07 19:18:49","新北市雙溪區新基里新基北街40號","121.868453333333","25.0379916666667","6502500","雙溪區"
"227001","400-TW","2018/05/07 19:18:58","新北市雙溪區平林里梅竹蹊66-1號","121.860156666667","25.0358166666667","6502500","雙溪區"
"253005","032-BX","2018/05/07 19:18:58","新北市石門區阿里荖6-1號","121.60972","25.2800033333333","6502200","石門區"
"253006","295-VK","2018/05/07 19:18:55","新北市石門區楓林19號","121.536598333333","25.290945","6502200","石門區"
"222001","KEA-2212","2018/05/07 19:18:52","新北市深坑區北深路二段84號","121.617525","25.0035216666667","6501800","深坑區"
"208002","KEA-2872","2018/05/07 19:18:52","新北市金山區中正路67號","121.633933333333","25.221715","6502700","金山區"
"208003","665-BX","2018/05/07 19:18:56","新北市金山區中山路189號","121.638096666667","25.2210916666667","6502700","金山區"
"251009","008-UM","2018/05/07 19:18:46","新北市淡水區大仁街2號","121.44204","25.1747466666667","6501000","淡水區"
"251005","010-UM","2018/05/07 19:19:06","新北市淡水區水源街一段31號","121.443351666667","25.172485","6501000","淡水區"
"251001","011-UM","2018/05/07 19:18:56","新北市淡水區自強路201巷43號","121.462071666667","25.1268883333333","6501000","淡水區"
"251013","KEA-2871","2018/05/07 19:18:47","新北市淡水區安子內12號","121.481538333333","25.219055","6501000","淡水區"
"251014","180-VK","2018/05/07 19:18:58","新北市淡水區小中寮19-7號","121.484766666667","25.2296183333333","6501000","淡水區"
"251015","182-VK","2018/05/07 19:19:01","新北市淡水區南勢埔32巷2號","121.484151666667","25.1802216666667","6501000","淡水區"
"251010","413-VK","2018/05/07 19:18:57","新北市淡水區沙崙路27號","121.421486666667","25.1815366666667","6501000","淡水區"
"251007","442-VK","2018/05/07 19:18:45","新北市淡水區民生路117巷27號","121.464881666667","25.1395183333333","6501000","淡水區"
"251006","561-UM","2018/05/07 19:19:03","新北市淡水區大信街33號","121.442058333333","25.17736","6501000","淡水區"
"251016","575-R6","2018/05/07 19:19:02","新北市淡水區下圭柔山119-51號","121.450688333333","25.208435","6501000","淡水區"
"251003","673-BX","2018/05/07 19:19:00","新北市淡水區水碓街37號","121.44362","25.177605","6501000","淡水區"
"207003","550-UM","2018/05/07 19:18:52","新北市萬里區大鵬里萬里加投79-3號","121.647328333333","25.2123516666667","6502800","萬里區"
"207004","225-TW","2018/05/07 19:19:02","新北市萬里區萬里里成功新村65號","121.688311666667","25.174555","6502800","萬里區"
"252002","178-VK","2018/05/07 19:18:48","新北市三芝區淡金路二段18-1號","121.502681666667","25.2595166666667","6502100","三芝區"
"252001","292-VK","2018/05/07 19:19:02","新北市三芝區長勤街9巷11弄1號","121.501801666667","25.2546983333333","6502100","三芝區"
"208001","170-UY","2018/05/07 19:18:59","新北市金山區中山路118號","121.639478333333","25.220005","6502700","金山區"
"237004","KEA-2597","2018/05/07 19:18:52","新北市三峽區有木206號","121.439143333333","24.85148","6500900","三峽區"
"237007","153-BY","2018/05/07 19:18:54","新北市三峽區麻園15-1號","121.363073333333","24.9130383333333","6500900","三峽區"
"237011","572-TV","2018/05/07 19:18:46","新北市三峽區中正路一段156號","121.373136666667","24.928765","6500900","三峽區"
"237009","210-TH","2018/05/07 19:18:58","新北市三峽區民生街223號","121.371335","24.9346983333333","6500900","三峽區"
"237013","252-BX","2018/05/07 19:18:55","新北市三峽區光明路75巷37號","121.377901666667","24.9285533333333","6500900","三峽區"
"237012","275-BY","2018/05/07 19:18:47","新北市三峽區三樹路222巷236弄8-1號","121.391248333333","24.942955","6500900","三峽區"
"237008","302-VK","2018/05/07 19:19:03","新北市三峽區大同路119巷8號","121.374313333333","24.92646","6500900","三峽區"
"237014","433-BY","2018/05/07 19:19:01","新北市三峽區中山路257巷20-1號","121.3621","24.9365333333333","6500900","三峽區"
"237006","5529-G3","2018/05/07 19:19:01","新北市三峽區中正路一段330-6號","121.369915","24.925155","6500900","三峽區"
"237010","706-TV","2018/05/07 19:18:50","新北市三峽區復興路96號","121.372833333333","24.9375166666667","6500900","三峽區"
"237005","AKY-6261","2018/05/07 19:18:51","新北市鶯歌區三鶯路5號","121.356841666667","24.940655","6500900","三峽區"
"236069","105-UM","2018/05/07 19:18:50","新北市土城區學成路74-2號","121.451295","24.988295","6501300","土城區"
"236078","166-UM","2018/05/07 19:19:00","新北市土城區龍泉路24號","121.411136666667","24.947685","6501300","土城區"
"236026","269-VK","2018/05/07 19:18:51","新北市土城區中央路二段61巷22號","121.443226666667","24.978705","6501300","土城區"
"236014","270-VK","2018/05/07 19:18:47","新北市土城區學府路一段23巷25弄46號","121.457681666667","24.98615","6501300","土城區"
"236020","401-BY","2018/05/07 19:18:47","新北市土城區峰廷街3號","121.469125","24.9873533333333","6501300","土城區"
"236059","912-UM","2018/05/07 19:19:01","新北市土城區中央路二段237號","121.440211666667","24.9720483333333","6501300","土城區"
"236048","913-UM","2018/05/07 19:18:57","新北市土城區明德路一段398-1號","121.453748333333","24.9790466666667","6501300","土城區"
"242023","362-BY","2018/05/07 19:19:01","新北市新莊區三和路12-10號","121.442186666667","25.0368166666667","6500500","新莊區"
"238015","755-BX","2018/05/07 19:19:03","新北市樹林區備內街1巷39-12號","121.411771666667","24.9856416666667","6500700","樹林區"
"238023","601-UM","2018/05/07 19:18:59","新北市樹林區三興路66號","121.393698333333","25.014585","6500700","樹林區"
"238019","599-UM","2018/05/07 19:19:05","新北市樹林區鎮前街413號","121.415013333333","24.9833883333333","6500700","樹林區"
"238018","571-TV","2018/05/07 19:18:55","新北市樹林區中華路229號","121.418738333333","24.9809233333333","6500700","樹林區"
"238024","5061-A6","2018/05/07 19:19:00","新北市樹林區福德街50號","121.398635","24.974395","6500700","樹林區"
"238022","KEA-2213","2018/05/07 19:18:56","新北市樹林區中山路二段125號","121.407433333333","24.9795766666667","6500700","樹林區"
"238021","KEA-2539","2018/05/07 19:19:01","新北市樹林區柑園街二段303巷18號","121.37288","24.9493816666667","6500700","樹林區"
"238025","303-VK","2018/05/07 19:18:49","新北市樹林區中山路三段125-10號","121.397438333333","24.9736033333333","6500700","樹林區"
"238017","283-BY","2018/05/07 19:18:46","新北市樹林區光興街146巷1號","121.407896666667","25.0041966666667","6500700","樹林區"
"238014","282-BY","2018/05/07 19:18:59","新北市樹林區保安街一段29號","121.424721666667","24.9943583333333","6500700","樹林區"
"238020","268-VK","2018/05/07 19:18:47","新北市樹林區俊英街121巷24號","121.423318333333","25.01004","6500700","樹林區"
"238026","172-UY","2018/05/07 19:19:04","新北市樹林區佳園路二段169號","121.389838333333","24.956505","6500700","樹林區"
"238016","169-UY","2018/05/07 19:18:51","新北市樹林區中山路二段62-6號","121.415501666667","24.9846633333333","6500700","樹林區"
"239007","AAC-297","2018/05/07 18:57:08","新北市鶯歌區中正一路建德巷2號","121.364526666667","24.9566733333333","6500800","鶯歌區"
"239006","891-R6","2018/05/07 19:18:58","新北市鶯歌區鶯桃路91巷19號","121.338011666667","24.9525833333333","6500800","鶯歌區"
"239008","527-UM","2018/05/07 19:18:56","新北市鶯歌區國際二路8巷18號","121.338713333333","24.9741866666667","6500800","鶯歌區"
"239005","526-UM","2018/05/07 19:18:51","新北市鶯歌區中湖街21號","121.346916666667","24.972895","6500800","鶯歌區"
"239001","417-VK","2018/05/07 19:19:00","新北市鶯歌區鶯桃路95巷75號","121.337155","24.9527833333333","6500800","鶯歌區"
"239003","360-BY","2018/05/07 19:18:54","新北市鶯歌區中正二路11號","121.351485","24.9515783333333","6500800","鶯歌區"
"239004","193-VK","2018/05/07 19:19:02","新北市鶯歌區鶯華新村6號","121.330025","24.9348333333333","6500800","鶯歌區"
"221008","489-VK","2018/05/07 19:18:53","新北市汐止區康寧街342號","121.628065","25.067505","6501100","汐止區"
"221036","130-UY","2018/05/07 19:19:00","新北市汐止區汐萬路一段256巷3號","121.652465","25.074545","6501100","汐止區"
"221015","131-UY","2018/05/07 19:19:01","新北市汐止區康寧街901號","121.651613333333","25.0749433333333","6501100","汐止區"
"221010","269-BY","2018/05/07 19:19:04","新北市汐止區康寧街901號","121.65148","25.075055","6501100","汐止區"
"221012","278-VK","2018/05/07 19:18:49","新北市汐止區汐萬路一段312號","121.650405","25.0750116666667","6501100","汐止區"
"221023","279-VK","2018/05/07 19:19:01","新北市汐止區康寧街901號","121.650955","25.07519","6501100","汐止區"
"221027","281-BY","2018/05/07 19:18:54","新北市汐止區康寧街901號","121.651441666667","25.0749316666667","6501100","汐止區"
"221029","298-VK","2018/05/07 19:19:00","新北市汐止區康寧街901號","121.651578333333","25.0748283333333","6501100","汐止區"
"221031","353-TW","2018/05/07 19:18:59","新北市汐止區連峰街1巷1號","121.646848333333","25.076035","6501100","汐止區"
"221035","622-UM","2018/05/07 19:18:47","新北市汐止區康寧街901號","121.651511666667","25.07488","6501100","汐止區"
"221025","623-UM","2018/05/07 19:18:50","新北市汐止區康寧街901號","121.651525","25.07494","6501100","汐止區"
"221038","646-BX","2018/05/07 19:18:54","新北市汐止區汐萬路一段312號","121.6507","25.075255","6501100","汐止區"
"221033","647-BX","2018/05/07 19:18:45","新北市汐止區南勢街3號","121.627101666667","25.0373616666667","6501100","汐止區"
"221002","707-TV","2018/05/07 19:18:56","新北市汐止區大同路一段398-1號","121.640163333333","25.06002","6501100","汐止區"
"220079","145-BY","2018/05/07 19:19:03","新北市板橋區民權路202巷24號","121.46087","25.017105","6500100","板橋區"
"220080","200-UY","2018/05/07 19:18:51","新北市板橋區大觀路二段19巷20號","121.44753","25.0031316666667","6500100","板橋區"
"220082","610-BX","2018/05/07 19:19:02","新北市板橋區金門街298號","121.429096666667","24.98554","6500100","板橋區"
"220101","245-BX","2018/05/07 19:18:50","新北市板橋區莊敬路75巷4號","121.4732","25.0265733333333","6500100","板橋區"
"220056","276-BY","2018/05/07 19:19:06","新北市板橋區信義路182號","121.45942","24.9914566666667","6500100","板橋區"
"220072","277-BY","2018/05/07 19:18:50","新北市板橋區金門街337巷8弄6號","121.429578333333","24.9852283333333","6500100","板橋區"
"220071","283-VK","2018/05/07 19:18:51","新北市板橋區大豐街103號","121.461373333333","25.0011933333333","6500100","板橋區"
"220094","285-UM","2018/05/07 19:18:56","新北市板橋區吳鳳路21巷2號","121.466923333333","25.0312066666667","6500100","板橋區"
"220053","285-VK","2018/05/07 19:19:01","新北市板橋區富山街7巷5號","121.478606666667","25.0215","6500100","板橋區"
"220083","286-VK","2018/05/07 19:18:43","新北市板橋區龍興街65巷11號","121.443101666667","25.0014633333333","6500100","板橋區"
"220081","287-VK","2018/05/07 19:19:01","新北市板橋區南雅西路一段61號","121.453451666667","25.0054416666667","6500100","板橋區"
"220090","288-VK","2018/05/07 19:18:58","新北市板橋區長江路一段106巷13弄35號","121.46135","25.029825","6500100","板橋區"
"220061","293-UM","2018/05/07 19:19:03","新北市板橋區三民路二段21巷16號","121.480243333333","25.0181566666667","6500100","板橋區"
"220084","296-UM","2018/05/07 19:19:02","新北市板橋區滿平街110巷4號","121.428175","24.9885033333333","6500100","板橋區"
"220075","303-R5","2018/05/07 19:18:56","新北市板橋區南雅西路二段175巷12號","121.451315","25.0128","6500100","板橋區"
"220062","305-R5","2018/05/07 19:18:47","新北市板橋區三民路二段153巷30弄33號","121.481131666667","25.01468","6500100","板橋區"
"220092","307-R5","2018/05/07 19:19:02","新北市板橋區光武街36巷9號","121.467768333333","25.0261083333333","6500100","板橋區"
"220098","317-R6","2018/05/07 19:18:51","新北市板橋區民有街71號","121.465111666667","25.0270316666667","6500100","板橋區"
"220064","486-VK","2018/05/07 19:18:48","新北市板橋區漢生東路83巷2號","121.466743333333","25.0156883333333","6500100","板橋區"
"220088","491-VK","2018/05/07 19:18:56","新北市板橋區雙十路二段73號","121.476243333333","25.02687","6500100","板橋區"
"220035","560-BX","2018/05/07 19:19:04","新北市板橋區瑞安街51號","121.455315","25.0222833333333","6500100","板橋區"
"220103","561-BX","2018/05/07 19:18:57","新北市板橋區介壽街32號","121.468051666667","25.020025","6500100","板橋區"
"220063","609-BX","2018/05/07 19:18:58","新北市板橋區三民路二段76號","121.479255","25.016945","6500100","板橋區"
"220055","630-UY","2018/05/07 19:18:57","新北市板橋區實踐路65巷6-7號","121.464478333333","25.00654","6500100","板橋區"
"220091","637-BX","2018/05/07 19:18:55","新北市板橋區萬板路408號","121.478938333333","25.02549","6500100","板橋區"
"220057","686-BX","2018/05/07 19:18:52","新北市板橋區和平路161巷22號","121.463416666667","24.9966833333333","6500100","板橋區"
"220077","687-BX","2018/05/07 19:18:48","新北市板橋區僑中二街8巷1號","121.447056666667","25.011055","6500100","板橋區"
"220093","689-BX","2018/05/07 19:18:50","新北市板橋區文化路一段288號","121.467238333333","25.0216033333333","6500100","板橋區"
"220054","741-BX","2018/05/07 19:18:51","新北市板橋區四川路一段144號","121.459978333333","25.0036216666667","6500100","板橋區"
"220102","KEA-2699","2018/05/07 19:18:56","新北市板橋區田單街13號","121.48212","25.0294383333333","6500100","板橋區"
"220067","829-TW","2018/05/07 19:18:56","新北市板橋區長安街138巷3弄41號","121.474023333333","25.0098283333333","6500100","板橋區"
"220096","830-TW","2018/05/07 19:18:57","新北市板橋區大同街8巷41號","121.477786666667","25.0261283333333","6500100","板橋區"
"220089","833-TW","2018/05/07 19:18:57","新北市板橋區民生路二段250號","121.468351666667","25.0232966666667","6500100","板橋區"
"220074","895-R6","2018/05/07 19:18:48","新北市板橋區中正路自強新村56號","121.45475","25.01351","6500100","板橋區"
"220073","985-R7","2018/05/07 19:19:01","新北市板橋區新生街6號","121.455355","25.0210983333333","6500100","板橋區"
"220097","AAC-210","2018/05/07 19:18:27","新北市板橋區幸福路51號","121.461118333333","25.0199866666667","6500100","板橋區"
"220070","AAC-253","2018/05/07 19:18:52","新北市板橋區忠孝路140號","121.46373","25.0023833333333","6500100","板橋區"
