"lineid","car","time","location","longitude","latitude","cityid","cityname"
"234046","149-BY","2018/05/07 19:28:50","新北市永和區永元路52巷44號","121.524196666667","25.000815","6500400","永和區"
"234007","207-UY","2018/05/07 19:28:53","新北市永和區中山路一段89號","121.51175","25.01076","6500400","永和區"
"234081","298-R6","2018/05/07 19:28:56","新北市永和區林森路10巷6號","121.526215","25.0060166666667","6500400","永和區"
"234038","336-UY","2018/05/07 19:28:47","新北市永和區民樂街41巷1號","121.527486666667","25.0001083333333","6500400","永和區"
"234064","337-UY","2018/05/07 19:28:58","新北市永和區永元路17巷25弄7號","121.520908333333","25.0016616666667","6500400","永和區"
"234086","338-UY","2018/05/07 19:28:52","新北市永和區林森路39巷2-1號","121.525315","25.0047983333333","6500400","永和區"
"234070","552-UM","2018/05/07 19:28:39","新北市永和區中正路666巷59號","121.519071666667","25.0091816666667","6500400","永和區"
"234017","745-BX","2018/05/07 19:28:48","新北市永和區環河西路一段87號","121.51239","25.0179283333333","6500400","永和區"
"234030","746-BX","2018/05/07 19:29:00","新北市永和區民生路20號","121.52249","24.99741","6500400","永和區"
"234054","KEA-2590","2018/05/07 19:28:53","新北市永和區復興街5號","121.515688333333","25.0128983333333","6500400","永和區"
"234013","KEA-2591","2018/05/07 19:28:47","新北市永和區信義路14號","121.514438333333","25.012085","6500400","永和區"
"234061","AAD-866","2018/05/07 19:28:58","新北市永和區中正路479號","121.516943333333","25.0063783333333","6500400","永和區"
"234042","862-TW","2018/05/07 19:28:52","新北市永和區水源街39巷20號","121.510613333333","25.0035166666667","6500400","永和區"
"234050","863-TW","2018/05/07 19:28:59","新北市永和區信義路120號","121.51243","25.0147233333333","6500400","永和區"
"234026","9371-KE","2018/05/07 19:28:50","新北市中和區中安街178巷2號","121.510973333333","24.999675","6500400","永和區"
"234011","9373-KE","2018/05/07 19:28:56","新北市永和區保福路二段131號","121.509761666667","25.0139616666667","6500400","永和區"
"249003","759-BX","2018/05/07 19:28:59","新北市八里區商港六路11號","121.396991666667","25.1481316666667","6502300","八里區"
"248008","095-VK","2018/05/07 19:28:42","新北市五股區中興路一段164-1號","121.464103333333","25.073925","6501500","五股區"
"248018","225-UY","2018/05/07 19:28:24","新北市五股區壟路16號","121.415261666667","25.0855183333333","6501500","五股區"
"248012","247-BX","2018/05/07 19:28:39","新北市五股區中興路四段38巷11號","121.438763333333","25.0834083333333","6501500","五股區"
"248014","261-SL","2018/05/07 19:28:58","新北市五股區民義路一段163-2號","121.432183333333","25.0879183333333","6501500","五股區"
"248010","272-BY","2018/05/07 19:28:47","新北市五股區水碓一路23號","121.430636666667","25.07132","6501500","五股區"
"248002","655-BX","2018/05/07 19:28:42","新北市五股區凌雲路一段158巷14-1號","121.44783","25.1034333333333","6501500","五股區"
"248002","678-BX","2018/05/07 19:06:43","新北市五股區中興路二段37巷28號","121.460045","25.0749416666667","6501500","五股區"
"248004","682-TV","2018/05/07 19:28:57","新北市五股區五福路16號","121.434255","25.0886883333333","6501500","五股區"
"234023","9380-KE","2018/05/07 19:28:54","新北市永和區竹林路91巷28號","121.520696666667","25.01236","6500400","永和區"
"234077","969-R7","2018/05/07 19:28:51","新北市永和區民權路60號","121.519975","24.9980333333333","6500400","永和區"
"234074","AAC-211","2018/05/07 19:28:57","新北市永和區環河東路一段64號","121.519063333333","25.01688","6500400","永和區"
"234067","AAC-212","2018/05/07 19:28:46","新北市永和區保平路214巷8弄14號","121.509863333333","25.0064133333333","6500400","永和區"
"234003","AAC-295","2018/05/07 19:28:57","新北市永和區永和路一段135巷2號","121.513971666667","25.0086366666667","6500400","永和區"
"244019","403-UM","2018/05/07 19:28:52","新北市林口區四維路112號","121.377155","25.078305","6501700","林口區"
"243013","AAD-798","2018/05/07 19:28:47","新北市泰山區明志路三段123巷1弄6號","121.425706666667","25.0407316666667","6501600","泰山區"
"243009","297-R6","2018/05/07 19:28:57","新北市泰山區半山雅3號","121.431335","25.067365","6501600","泰山區"
"243016","380-SR","2018/05/07 19:28:50","新北市泰山區明志路三段197號","121.42425","25.03864","6501600","泰山區"
"243015","421-VK","2018/05/07 19:28:40","新北市泰山區民權街15號","121.428311666667","25.0508883333333","6501600","泰山區"
"243011","KEA-2215","2018/05/07 19:28:52","新北市泰山區貴子路120號","121.428238333333","25.0406133333333","6501600","泰山區"
"243010","KEA-2216","2018/05/07 19:28:46","新北市泰山區民族街10巷1號","121.429201666667","25.0517566666667","6501600","泰山區"
"243012","646-TV","2018/05/07 19:28:58","新北市泰山區仁愛路6號","121.430796666667","25.05397","6501600","泰山區"
"243014","680-BX","2018/05/07 19:28:47","新北市泰山區仁愛路6巷77號","121.431585","25.0532816666667","6501600","泰山區"
"222003","436-BY","2018/05/07 19:28:45","新北市深坑區深南路51-1號","121.62138","25.010085","6501800","深坑區"
"222002","659-BX","2018/05/07 19:28:58","新北市深坑區北深路一段210號","121.632618333333","25.0109133333333","6501800","深坑區"
"231059","046-UY","2018/05/07 19:28:38","新北市新店區安和路三段46號","121.517965","24.98178","6500600","新店區"
"231040","047-UY","2018/05/07 19:28:46","新北市新店區中華路12-1號","121.540778333333","24.96746","6500600","新店區"
"231044","106-UY","2018/05/07 19:28:58","新北市新店區中興路三段197號","121.543816666667","24.9814916666667","6500600","新店區"
"231046","107-UY","2018/05/07 19:28:55","新北市新店區力行路11巷57號","121.538651666667","24.961725","6500600","新店區"
"231052","108-UY","2018/05/07 19:28:48","新北市新店區自強路252號","121.548403333333","24.9183433333333","6500600","新店區"
"231047","187-VK","2018/05/07 19:28:55","新北市新店區中興路一段254巷5號","121.545066666667","24.9666883333333","6500600","新店區"
"231054","KEA-2219","2018/05/07 19:28:46","新北市新店區文中路45號","121.53964","24.9566583333333","6500600","新店區"
"231057","256-BX","2018/05/07 19:28:59","新北市新店區花園一路三段57號","121.549568333333","24.9329283333333","6500600","新店區"
"231042","268-BY","2018/05/07 19:28:52","新北市新店區中興路一段24號","121.538646666667","24.9582683333333","6500600","新店區"
"231051","278-BY","2018/05/07 19:28:50","新北市新店區中央五街48-1號","121.52807","24.97516","6500600","新店區"
"231050","AAD-862","2018/05/07 19:28:46","新北市新店區竹林路157-1號","121.55672","24.947695","6500600","新店區"
"231058","3713-VJ","2018/05/07 19:28:42","新北市新店區永華街5號","121.543306666667","24.9770616666667","6500600","新店區"
"231066","4716-K9","2018/05/07 19:28:41","新北市新店區安康路三段207巷19號","121.488428333333","24.9507883333333","6500600","新店區"
"231067","4772-VM","2018/05/07 19:28:49","新北市新店區安康路一段226號","121.52355","24.9635866666667","6500600","新店區"
"231065","512-UM","2018/05/07 19:28:43","新北市新店區安祥路109巷3弄1號","121.477985","24.9612933333333","6500600","新店區"
"231049","513-UM","2018/05/07 19:28:57","新北市新店區北新路三段65巷12弄15號","121.540698333333","24.9815133333333","6500600","新店區"
"231063","616-UM","2018/05/07 19:29:00","新北市新店區達觀路16號","121.502943333333","24.9409033333333","6500600","新店區"
"231041","618-UM","2018/05/07 19:28:58","新北市新店區中正路608號","121.53397","24.9883633333333","6500600","新店區"
"231061","619-UM","2018/05/07 19:28:45","新北市新店區安康路一段279號","121.523768333333","24.9634933333333","6500600","新店區"
"231064","719-UM","2018/05/07 19:28:55","新北市新店區安忠路57巷18號","121.513133333333","24.9588933333333","6500600","新店區"
"231062","720-UM","2018/05/07 19:28:58","新北市新店區莒光路20號","121.524008333333","24.95945","6500600","新店區"
"231060","897-TW","2018/05/07 19:28:43","新北市新店區安和路一段15號","121.516805","24.96408","6500600","新店區"
"231045","898-TW","2018/05/07 19:28:37","新北市新店區北宜路二段199號","121.55293","24.9532516666667","6500600","新店區"
"231043","899-TW","2018/05/07 19:28:55","新北市新店區北新路二段197號","121.542565","24.978165","6500600","新店區"
"231055","AKT-0513","2018/05/07 19:27:50","新北市新店區中華路83巷67號","121.538335","24.9671966666667","6500600","新店區"
"241028","022-UY","2018/05/07 19:28:49","新北市三重區中寮街72號","121.49311","25.0582983333333","6500200","三重區"
"241008","059-VK","2018/05/07 19:28:44","新北市三重區永福街135巷31號","121.477565","25.0771583333333","6500200","三重區"
"241009","060-VK","2018/05/07 19:28:57","新北市三重區溪尾街242巷50號","121.486465","25.0815266666667","6500200","三重區"
"241017","063-VK","2018/05/07 19:28:53","新北市三重區中正北路25巷14號","121.493461666667","25.0629383333333","6500200","三重區"
"241026","066-VK","2018/05/07 19:28:51","新北市三重區文化南路47巷34號","121.498905","25.0610416666667","6500200","三重區"
"241016","265-UM","2018/05/07 19:28:55","新北市三重區正德街6號","121.495796666667","25.0622733333333","6500200","三重區"
"241022","267-UM","2018/05/07 19:28:47","新北市三重區三民街114號","121.484905","25.0636033333333","6500200","三重區"
"241032","269-UM","2018/05/07 19:28:45","新北市三重區三陽路25號","121.485526666667","25.0587733333333","6500200","三重區"
"241013","270-UM","2018/05/07 19:28:54","新北市三重區仁愛街96號","121.495433333333","25.07397","6500200","三重區"
"241025","271-UM","2018/05/07 19:28:49","新北市三重區頂崁街210巷28弄3號","121.475773333333","25.0676533333333","6500200","三重區"
"241007","398-BY","2018/05/07 19:28:50","新北市三重區溪尾街138號","121.489138333333","25.0796233333333","6500200","三重區"
"241005","413-TH","2018/05/07 19:28:48","新北市三重區新北大道一段7號","121.489668333333","25.06132","6500200","三重區"
"241035","462-BY","2018/05/07 19:28:43","新北市三重區信義西街1巷3號","121.498048333333","25.0650716666667","6500200","三重區"
"241020","478-VK","2018/05/07 19:28:53","新北市三重區三和路四段44巷10號","121.489918333333","25.074355","6500200","三重區"
"241006","AAD-863","2018/05/07 19:28:47","新北市三重區三和路四段95-6號","121.487823333333","25.0761683333333","6500200","三重區"
"241029","942-UM","2018/05/07 19:28:45","新北市三重區重安街103號","121.493911666667","25.0551683333333","6500200","三重區"
"235064","005-UY","2018/05/07 19:28:57","新北市中和區連城路4號","121.499171666667","25.0023483333333","6500300","中和區"
"235063","006-UY","2018/05/07 19:28:46","新北市中和區連勝街137號","121.494726666667","24.9958816666667","6500300","中和區"
"235047","031-BX","2018/05/07 19:28:48","新北市中和區景平路241巷64弄8號","121.50777","24.9926466666667","6500300","中和區"
"235056","096-UM","2018/05/07 19:28:48","新北市中和區民富街11號","121.476495","25.0072666666667","6500300","中和區"
"235039","097-UM","2018/05/07 19:28:47","新北市中和區秀峰街79巷2號","121.521855","24.990235","6500300","中和區"
"235058","151-BY","2018/05/07 19:28:56","新北市中和區中正路637巷60弄61號","121.485435","24.9933033333333","6500300","中和區"
"235055","183-VK","2018/05/07 19:28:55","新北市中和區莒光路120巷30號","121.471528333333","25.0016","6500300","中和區"
"235038","185-VK","2018/05/07 19:28:56","新北市中和區自立路37號","121.522123333333","24.9953466666667","6500300","中和區"
"235049","186-VK","2018/05/07 19:28:58","新北市中和區景新街285巷13號","121.510223333333","24.9936066666667","6500300","中和區"
"235067","255-BX","2018/05/07 19:28:56","新北市中和區連城路340巷14弄18號","121.482923333333","24.9972966666667","6500300","中和區"
"235044","293-VK","2018/05/07 19:28:40","新北市中和區捷運路122號","121.505391666667","24.9914933333333","6500300","中和區"
"235072","301-VK","2018/05/07 19:28:57","新北市中和區連城路265巷10弄1號","121.491631666667","24.9952083333333","6500300","中和區"
"235043","352-BY","2018/05/07 19:28:54","新北市中和區南山路90號","121.502713333333","24.9948783333333","6500300","中和區"
"235068","377-QA","2018/05/07 19:28:49","新北市中和區景平路545巷1弄1號","121.498383333333","24.9991966666667","6500300","中和區"
"235061","378-QA","2018/05/07 19:28:48","新北市中和區民利街61巷3號","121.47914","24.9985833333333","6500300","中和區"
"235050","4979-A6","2018/05/07 19:28:56","新北市中和區中正路426號","121.491643333333","24.9941966666667","6500300","中和區"
"235069","4980-A6","2018/05/07 19:28:47","新北市中和區福祥路72號","121.499266666667","25.0053583333333","6500300","中和區"
"235042","551-UM","2018/05/07 19:28:49","新北市中和區安平路158號","121.512635","24.99836","6500300","中和區"
"235070","558-UM","2018/05/07 19:28:52","新北市中和區中和路44號","121.500446666667","25.00108","6500300","中和區"
"235045","565-BX","2018/05/07 19:28:43","新北市中和區景新街399巷8號","121.512978333333","24.9898466666667","6500300","中和區"
"235054","640-BX","2018/05/07 19:28:44","新北市中和區國光街112巷23弄1號","121.469601666667","25.0022466666667","6500300","中和區"
"235060","647-TV","2018/05/07 19:28:49","新北市中和區新生街114巷37弄12號","121.482375","25.0017716666667","6500300","中和區"
"235046","733-UM","2018/05/07 19:28:43","新北市中和區忠孝街37巷67號","121.510556666667","24.9846116666667","6500300","中和區"
"235071","783-BX","2018/05/07 19:28:59","新北市中和區中正路637巷18弄3號","121.48458","24.9950516666667","6500300","中和區"
"235057","801-TS","2018/05/07 19:28:43","新北市中和區員山路469巷1號","121.480288333333","25.0045616666667","6500300","中和區"
"235041","802-TS","2018/05/07 19:28:56","新北市中和區中安街110號","121.511253333333","25.0007933333333","6500300","中和區"
"235052","805-TS","2018/05/07 19:28:42","新北市中和區華新街143巷67弄35號","121.507591666667","24.9792916666667","6500300","中和區"
"235048","896-TW","2018/05/07 19:28:41","新北市中和區忠孝街162號","121.512756666667","24.9877883333333","6500300","中和區"
"235053","900-TW","2018/05/07 19:28:59","新北市中和區華順街51號","121.46664","24.998485","6500300","中和區"
"235066","911-UM","2018/05/07 19:28:39","新北市中和區景新街22號","121.502983333333","24.9993083333333","6500300","中和區"
"235051","157-BY","2018/05/07 19:28:54","新北市中和區景新街141號","121.506113333333","24.996605","6500300","中和區"
"235037","AAC-213","2018/05/07 19:28:44","新北市中和區秀朗路三段10巷14弄2號","121.52546","24.99653","6500300","中和區"
"235059","AAC-215","2018/05/07 19:28:46","新北市中和區圓通路252巷2-6號","121.493575","24.9917466666667","6500300","中和區"
"220068","013-TV","2018/05/07 19:28:39","新北市板橋區翠華街6巷82號","121.481693333333","25.0246166666667","6500100","板橋區"
"220065","072-UY","2018/05/07 19:28:52","新北市板橋區國泰街75巷28弄33號","121.467675","25.00444","6500100","板橋區"
"220086","073-UY","2018/05/07 19:28:46","新北市板橋區中正路236巷52號","121.457546666667","25.0193083333333","6500100","板橋區"
"220106","075-UY","2018/05/07 19:28:53","新北市板橋區文化路二段417巷8號","121.474318333333","25.0329733333333","6500100","板橋區"
"220069","AAD-861","2018/05/07 19:28:42","新北市板橋區貴興路35號","121.457705","25.003895","6500100","板橋區"
"235065","251-BX","2018/05/07 19:28:39","新北市中和區中山路二段64巷14弄26號","121.503868333333","25.0061716666667","6500300","中和區"
"228003","097-TW","2018/05/07 19:28:41","新北市貢寮區和美里和美街19-2號","121.91279","25.0825983333333","6502600","貢寮區"
"228002","585-TW","2018/05/07 19:28:45","新北市貢寮區龍門里龍門街62-5號","121.931708333333","25.0271266666667","6502600","貢寮區"
"228001","670-TC","2018/05/07 19:28:46","新北市貢寮區真理里大澳街60號","121.925486666667","25.0567483333333","6502600","貢寮區"
"224010","AGQ-8101","2018/05/07 19:28:55","新北市瑞芳區基山街157號","121.843651666667","25.10813","6501200","瑞芳區"
"224006","676-BX","2018/05/07 19:28:54","新北市瑞芳區傑魚坑路73號","121.79323","25.110505","6501200","瑞芳區"
"224007","275-VK","2018/05/07 19:15:38","新北市瑞芳區大寮路356號","121.784605","25.103035","6501200","瑞芳區"
"227008","642-TC","2018/05/07 19:28:49","新北市雙溪區新基里新基北街43號","121.868201666667","25.0396983333333","6502500","雙溪區"
"227001","400-TW","2018/05/07 19:28:58","新北市雙溪區雙溪里光復街22號","121.865181666667","25.0354733333333","6502500","雙溪區"
"253005","032-BX","2018/05/07 19:28:58","新北市石門區小坑9號","121.594318333333","25.28862","6502200","石門區"
"253006","295-VK","2018/05/07 19:28:55","新北市石門區老崩山11-13號","121.551275","25.2903466666667","6502200","石門區"
"222001","KEA-2212","2018/05/07 19:28:52","新北市深坑區北深路二段123巷17號","121.616598333333","25.0029633333333","6501800","深坑區"
"208002","KEA-2872","2018/05/07 19:28:56","新北市金山區中華路7號","121.634778333333","25.2203933333333","6502700","金山區"
"208003","665-BX","2018/05/07 19:28:55","新北市金山區忠孝一路90號","121.636633333333","25.221185","6502700","金山區"
"251009","008-UM","2018/05/07 19:28:46","新北市淡水區大忠街5巷9號","121.443371666667","25.1765266666667","6501000","淡水區"
"251005","010-UM","2018/05/07 19:28:46","新北市淡水區水源街一段71巷12號","121.44431","25.1729016666667","6501000","淡水區"
"251001","011-UM","2018/05/07 19:28:56","新北市淡水區民權路183-2號","121.459575","25.13467","6501000","淡水區"
"251013","KEA-2871","2018/05/07 19:28:50","新北市淡水區大牛稠5號","121.469756666667","25.2197583333333","6501000","淡水區"
"251014","180-VK","2018/05/07 19:28:58","新北市淡水區小中寮19-7號","121.484746666667","25.2295983333333","6501000","淡水區"
"251008","181-VK","2018/05/07 19:28:44","新北市淡水區中正路二段16號","121.420243333333","25.1808283333333","6501000","淡水區"
"251015","182-VK","2018/05/07 19:28:49","新北市淡水區北新路三段38巷7號","121.484556666667","25.1869766666667","6501000","淡水區"
"251010","413-VK","2018/05/07 19:28:57","新北市淡水區淡海路245-1號","121.420165","25.186055","6501000","淡水區"
"251012","441-VK","2018/05/07 19:28:45","新北市淡水區崁頂72-1號","121.438381666667","25.202315","6501000","淡水區"
"251007","442-VK","2018/05/07 19:28:45","新北市淡水區淡金路16巷60弄31號","121.459663333333","25.160195","6501000","淡水區"
"251006","561-UM","2018/05/07 19:28:55","新北市淡水區大義街36號","121.442251666667","25.1783333333333","6501000","淡水區"
"251016","575-R6","2018/05/07 19:28:42","新北市淡水區淡金路三段350巷18號","121.450658333333","25.208395","6501000","淡水區"
"251011","650-BX","2018/05/07 19:28:45","新北市淡水區中正東路二段143巷2弄1號","121.460656666667","25.147185","6501000","淡水區"
"251003","673-BX","2018/05/07 19:28:54","新北市淡水區中山北路三段159號","121.4453","25.196415","6501000","淡水區"
"207003","550-UM","2018/05/07 19:28:52","新北市萬里區大鵬里萬里加投148-1號","121.644456666667","25.2144633333333","6502800","萬里區"
"207004","225-TW","2018/05/07 19:28:42","新北市萬里區萬里里瑪鋉路67號","121.68816","25.1763066666667","6502800","萬里區"
"252002","178-VK","2018/05/07 19:28:48","新北市三芝區淡金路二段18-1號","121.502655","25.25951","6502100","三芝區"
"252001","292-VK","2018/05/07 19:28:42","新北市三芝區長勤街37巷4號","121.500796666667","25.2553666666667","6502100","三芝區"
"208001","170-UY","2018/05/07 19:28:39","新北市金山區金包里街131號","121.636913333333","25.2224616666667","6502700","金山區"
"237004","KEA-2597","2018/05/07 19:28:52","新北市三峽區有木206號","121.439153333333","24.85151","6500900","三峽區"
"237007","153-BY","2018/05/07 19:28:54","新北市三峽區二鬮路136巷18弄29號","121.35864","24.9086416666667","6500900","三峽區"
"237011","572-TV","2018/05/07 19:28:46","新北市三峽區中正路一段510號","121.369901666667","24.9202766666667","6500900","三峽區"
"237009","210-TH","2018/05/07 19:28:58","新北市三峽區中山路11號","121.369586666667","24.93428","6500900","三峽區"
"237013","252-BX","2018/05/07 19:28:55","新北市三峽區介壽路一段276巷102弄13號","121.378855","24.9280633333333","6500900","三峽區"
"237012","275-BY","2018/05/07 19:28:46","新北市三峽區三樹路17號","121.37757","24.9376483333333","6500900","三峽區"
"237008","302-VK","2018/05/07 19:28:53","新北市三峽區中正路一段146號","121.373378333333","24.9289283333333","6500900","三峽區"
"237014","433-BY","2018/05/07 19:28:41","新北市三峽區中山路287號","121.361643333333","24.9376566666667","6500900","三峽區"
"237006","5529-G3","2018/05/07 19:28:40","新北市三峽區中正路一段336巷15弄2號","121.369913333333","24.92493","6500900","三峽區"
"237010","706-TV","2018/05/07 19:28:51","新北市三峽區復興路77號","121.372678333333","24.93745","6500900","三峽區"
"237005","AKY-6261","2018/05/07 19:28:51","新北市三峽區中山路184巷15號","121.364283333333","24.9371116666667","6500900","三峽區"
"236069","105-UM","2018/05/07 19:28:57","新北市土城區裕民路185巷36弄2號","121.454598333333","24.9847533333333","6501300","土城區"
"236078","166-UM","2018/05/07 19:28:41","新北市土城區中州路3巷43號","121.41335","24.95636","6501300","土城區"
"236026","269-VK","2018/05/07 19:28:51","新北市土城區中央路二段61巷22號","121.44328","24.978825","6501300","土城區"
"236014","270-VK","2018/05/07 19:28:57","新北市土城區廣福街109號","121.456368333333","24.99235","6501300","土城區"
"236020","401-BY","2018/05/07 19:28:47","新北市土城區峰廷街3號","121.469138333333","24.987295","6501300","土城區"
"236059","912-UM","2018/05/07 19:28:59","新北市土城區中央路二段252號","121.441875","24.9746966666667","6501300","土城區"
"236048","913-UM","2018/05/07 19:28:57","新北市土城區清水路164號","121.459625","24.9814783333333","6501300","土城區"
"242007","413-TV","2018/05/07 19:28:51","新北市新莊區瓊林南路61-87號","121.439338333333","25.0173733333333","6500500","新莊區"
"242023","362-BY","2018/05/07 19:28:42","新北市新莊區復興路二段87號","121.45559","25.0442933333333","6500500","新莊區"
"242031","135-UY","2018/05/07 19:28:53","新北市新莊區新泰路225巷22弄5號","121.444931666667","25.0391933333333","6500500","新莊區"
"242048","172-VK","2018/05/07 19:28:52","新北市新莊區後港一路13號","121.424236666667","25.0263583333333","6500500","新莊區"
"242013","351-TH","2018/05/07 19:28:55","新北市新莊區新泰路413巷22號","121.442378333333","25.0444833333333","6500500","新莊區"
"238015","755-BX","2018/05/07 19:28:58","新北市樹林區啟智街125號","121.419356666667","24.9901983333333","6500700","樹林區"
"238023","601-UM","2018/05/07 19:28:59","桃園市龜山區萬壽路一段263號","121.403971666667","25.01757","6500700","樹林區"
"238019","599-UM","2018/05/07 19:28:51","新北市樹林區八德街35號","121.418513333333","24.9836366666667","6500700","樹林區"
"238018","571-TV","2018/05/07 19:28:55","新北市樹林區水源街81號","121.42621","24.9790433333333","6500700","樹林區"
"238024","5061-A6","2018/05/07 19:28:42","新北市樹林區山佳街39號","121.393295","24.9727266666667","6500700","樹林區"
"238022","KEA-2213","2018/05/07 19:28:56","新北市樹林區名園街34號","121.419511666667","24.9789816666667","6500700","樹林區"
"238021","KEA-2539","2018/05/07 19:28:41","新北市樹林區學林路115號","121.380075","24.9495933333333","6500700","樹林區"
"238025","303-VK","2018/05/07 19:28:49","新北市樹林區中山路二段72-1號","121.415528333333","24.984045","6500700","樹林區"
"238017","283-BY","2018/05/07 19:28:46","新北市樹林區光興街18號","121.41238","25.0029533333333","6500700","樹林區"
"238014","282-BY","2018/05/07 19:28:59","新北市樹林區保安二街64巷17號","121.424425","24.99646","6500700","樹林區"
"238020","268-VK","2018/05/07 19:28:47","新北市樹林區俊英街210號","121.425081666667","25.0096383333333","6500700","樹林區"
"238026","172-UY","2018/05/07 19:28:44","新北市樹林區佳園路三段23號","121.388265","24.9547566666667","6500700","樹林區"
"238016","169-UY","2018/05/07 19:28:50","新北市樹林區復興路428號","121.41417","24.9845733333333","6500700","樹林區"
"239007","AAC-297","2018/05/07 19:23:07","新北市鶯歌區中山路138巷3-2號","121.349568333333","24.9578666666667","6500800","鶯歌區"
"239006","891-R6","2018/05/07 19:28:38","新北市鶯歌區鶯桃路65-3號","121.341198333333","24.9528283333333","6500800","鶯歌區"
"239008","527-UM","2018/05/07 19:28:56","新北市鶯歌區大湖路530巷2號","121.337866666667","24.9732316666667","6500800","鶯歌區"
"239005","526-UM","2018/05/07 19:28:51","新北市鶯歌區東湖路30號","121.355516666667","24.9719033333333","6500800","鶯歌區"
"239001","417-VK","2018/05/07 19:28:57","新北市鶯歌區建國路367巷1號","121.339183333333","24.9495883333333","6500800","鶯歌區"
"239003","360-BY","2018/05/07 19:28:49","新北市鶯歌區永明街135號","121.342865","24.95585","6500800","鶯歌區"
"239004","193-VK","2018/05/07 19:28:42","新北市鶯歌區二甲路中心巷1號","121.337526666667","24.9357183333333","6500800","鶯歌區"
"221008","489-VK","2018/05/07 19:28:53","新北市汐止區康寧街253號","121.624916666667","25.0669083333333","6501100","汐止區"
"221036","130-UY","2018/05/07 19:28:40","新北市汐止區康寧街901號","121.650811666667","25.0753116666667","6501100","汐止區"
"221015","131-UY","2018/05/07 19:29:01","新北市汐止區康寧街901號","121.651398333333","25.0750283333333","6501100","汐止區"
"221010","269-BY","2018/05/07 19:28:44","新北市汐止區連峰街3巷2號","121.646653333333","25.0766916666667","6501100","汐止區"
"221012","278-VK","2018/05/07 19:28:28","新北市汐止區保長路147巷2號","121.67558","25.0767916666667","6501100","汐止區"
"221023","279-VK","2018/05/07 19:29:01","新北市汐止區伯爵街1巷14號","121.641285","25.0751366666667","6501100","汐止區"
"221027","281-BY","2018/05/07 19:28:55","新北市汐止區忠孝東路9號","121.65827","25.0659533333333","6501100","汐止區"
"221029","298-VK","2018/05/07 19:28:40","新北市汐止區康寧街901號","121.651651666667","25.0749066666667","6501100","汐止區"
"221031","353-TW","2018/05/07 19:28:59","新北市汐止區康寧街901號","121.650985","25.0751983333333","6501100","汐止區"
"221035","622-UM","2018/05/07 19:28:46","新北市汐止區康寧街901號","121.651498333333","25.0748666666667","6501100","汐止區"
"221025","623-UM","2018/05/07 19:28:50","新北市汐止區大同路二段332號","121.656418333333","25.0670333333333","6501100","汐止區"
"221038","646-BX","2018/05/07 19:28:54","新北市汐止區汐萬路一段149號","121.653351666667","25.0710116666667","6501100","汐止區"
"221033","647-BX","2018/05/07 19:28:46","新北市汐止區南勢街1巷2號","121.626945","25.03745","6501100","汐止區"
"221002","707-TV","2018/05/07 19:28:56","新北市汐止區大同路一段337巷11號","121.638096666667","25.0599283333333","6501100","汐止區"
"220079","145-BY","2018/05/07 19:28:57","新北市板橋區建國街15號","121.457758333333","25.0169816666667","6500100","板橋區"
"220080","200-UY","2018/05/07 19:28:52","新北市板橋區大觀路二段37巷182號","121.449696666667","25.0021516666667","6500100","板橋區"
"220082","610-BX","2018/05/07 19:28:44","新北市板橋區金門街43號","121.43327","24.9936383333333","6500100","板橋區"
"220101","245-BX","2018/05/07 19:28:50","新北市板橋區萬板路192-2號","121.47663","25.0235916666667","6500100","板橋區"
"220056","276-BY","2018/05/07 19:28:46","新北市板橋區和平路16號","121.459553333333","24.9943366666667","6500100","板橋區"
"220072","277-BY","2018/05/07 19:28:50","新北市板橋區溪北路142號","121.43004","24.9885083333333","6500100","板橋區"
"220071","283-VK","2018/05/07 19:28:47","新北市板橋區忠孝路48巷4弄11號","121.460453333333","25.000645","6500100","板橋區"
"220094","285-UM","2018/05/07 19:28:56","新北市板橋區吳鳳路15-2號","121.467861666667","25.03045","6500100","板橋區"
"220053","285-VK","2018/05/07 19:28:40","新北市板橋區永豐街106號","121.47605","25.020625","6500100","板橋區"
"220083","286-VK","2018/05/07 19:28:43","新北市板橋區大觀路二段174巷135-1號","121.441323333333","25.0023233333333","6500100","板橋區"
"220081","287-VK","2018/05/07 19:29:01","新北市板橋區南雅西路一段96號","121.452586666667","25.00549","6500100","板橋區"
"220090","288-VK","2018/05/07 19:28:55","新北市板橋區裕民街94巷3弄1號","121.459913333333","25.028505","6500100","板橋區"
"220061","293-UM","2018/05/07 19:28:43","新北市板橋區中山路二段387號","121.480236666667","25.019365","6500100","板橋區"
"220084","296-UM","2018/05/07 19:28:59","新北市板橋區篤行路三段67號","121.42758","24.9856516666667","6500100","板橋區"
"220075","303-R5","2018/05/07 19:28:56","新北市板橋區中正路253巷3號","121.455486666667","25.0182533333333","6500100","板橋區"
"220062","305-R5","2018/05/07 19:28:47","新北市板橋區三民路二段153巷2弄12-5號","121.479526666667","25.0143366666667","6500100","板橋區"
"220092","307-R5","2018/05/07 19:28:42","新北市板橋區文化路二段125巷20號","121.469516666667","25.0269466666667","6500100","板橋區"
"220098","317-R6","2018/05/07 19:28:56","新北市板橋區四維路266巷5弄15號","121.463563333333","25.0288516666667","6500100","板橋區"
"220064","486-VK","2018/05/07 19:28:48","新北市板橋區重慶路11號","121.460766666667","25.008065","6500100","板橋區"
"220088","491-VK","2018/05/07 19:28:56","新北市板橋區雙十路二段149號","121.474651666667","25.0281783333333","6500100","板橋區"
"220035","560-BX","2018/05/07 19:28:44","新北市板橋區中正路336-3號","121.455248333333","25.02235","6500100","板橋區"
"220103","561-BX","2018/05/07 19:28:51","新北市板橋區文化路一段210號","121.46638","25.020205","6500100","板橋區"
"220063","609-BX","2018/05/07 19:28:58","新北市板橋區三民路一段31巷39號","121.480668333333","25.0232533333333","6500100","板橋區"
"220055","630-UY","2018/05/07 19:28:58","新北市板橋區重慶路290巷22弄23號","121.462166666667","24.99937","6500100","板橋區"
"220091","637-BX","2018/05/07 19:28:55","新北市板橋區文聖街149巷25號","121.47955","25.0285816666667","6500100","板橋區"
"220057","686-BX","2018/05/07 19:28:52","新北市板橋區和平路174巷1弄3號","121.464098333333","24.9952133333333","6500100","板橋區"
"220077","687-BX","2018/05/07 19:28:48","新北市板橋區僑中二街114巷1號","121.445695","25.0065916666667","6500100","板橋區"
"220093","689-BX","2018/05/07 19:27:50","新北市板橋區新海路72巷77號","121.461468333333","25.02318","6500100","板橋區"
"220054","741-BX","2018/05/07 19:29:00","新北市板橋區光明街96號","121.462095","25.0028183333333","6500100","板橋區"
"220102","KEA-2699","2018/05/07 19:28:56","新北市板橋區松柏街1巷1號","121.473716666667","25.0294716666667","6500100","板橋區"
"220067","829-TW","2018/05/07 19:28:51","新北市板橋區漢生東路324號","121.471746666667","25.007985","6500100","板橋區"
"220096","830-TW","2018/05/07 19:28:57","新北市板橋區大同街35巷17號","121.477385","25.02777","6500100","板橋區"
"220089","833-TW","2018/05/07 19:28:37","新北市板橋區文化路一段47號","121.460508333333","25.0132666666667","6500100","板橋區"
"220074","895-R6","2018/05/07 19:28:48","新北市板橋區中正路1巷18-1號","121.455146666667","25.0116216666667","6500100","板橋區"
"220073","985-R7","2018/05/07 19:28:41","新北市板橋區中正路235號","121.455875","25.017965","6500100","板橋區"
"220097","AAC-210","2018/05/07 19:28:27","新北市板橋區陽明街131號","121.463313333333","25.0237633333333","6500100","板橋區"
"220070","AAC-253","2018/05/07 19:28:52","新北市板橋區四川路一段142號","121.459923333333","25.003635","6500100","板橋區"
