"lineid","car","time","location","longitude","latitude","cityid","cityname"
"234046","149-BY","2018/05/07 19:38:50","新北市永和區永元路18巷38弄2號","121.523918333333","25.0002033333333","6500400","永和區"
"234007","207-UY","2018/05/07 19:38:53","新北市永和區永和路一段1號","121.512981666667","25.0051983333333","6500400","永和區"
"234081","298-R6","2018/05/07 19:38:56","新北市永和區環河東路三段48號","121.526695","25.00634","6500400","永和區"
"234038","336-UY","2018/05/07 19:38:47","新北市永和區成功路二段1巷9號","121.5273","25.0015566666667","6500400","永和區"
"234064","337-UY","2018/05/07 19:38:58","新北市永和區秀朗路一段192巷6弄14號","121.519103333333","25.0022383333333","6500400","永和區"
"234086","338-UY","2018/05/07 19:38:44","新北市永和區永亨路144號","121.525193333333","25.0039233333333","6500400","永和區"
"234070","552-UM","2018/05/07 19:38:59","新北市永和區永和路二段192號","121.515515","25.0136116666667","6500400","永和區"
"234017","745-BX","2018/05/07 19:38:48","新北市永和區永和路二段425巷64號","121.513626666667","25.0172183333333","6500400","永和區"
"234030","746-BX","2018/05/07 19:38:47","新北市永和區四維街117號","121.523346666667","24.9980833333333","6500400","永和區"
"234054","KEA-2590","2018/05/07 19:38:53","新北市永和區竹林路43號","121.517925","25.0141366666667","6500400","永和區"
"234013","KEA-2591","2018/05/07 19:38:47","新北市永和區永平路203巷5弄1號","121.509155","25.009685","6500400","永和區"
"234061","AAD-866","2018/05/07 19:38:38","新北市永和區中正路381號","121.517278333333","25.003775","6500400","永和區"
"234042","862-TW","2018/05/07 19:38:52","新北市永和區中和路453號","121.509945","25.0015216666667","6500400","永和區"
"234050","863-TW","2018/05/07 19:38:38","新北市永和區保安路132號","121.508995","25.0153533333333","6500400","永和區"
"234026","9371-KE","2018/05/07 19:38:50","新北市永和區中和路503號","121.510636666667","25.0024566666667","6500400","永和區"
"249001","173-UM","2018/05/07 19:38:47","新北市八里區博物館路10-1號","121.415211666667","25.1640133333333","6502300","八里區"
"249004","303-UY","2018/05/07 19:38:41","新北市八里區中山路一段268巷38號","121.4147","25.1607716666667","6502300","八里區"
"249002","305-UY","2018/05/07 19:38:56","新北市八里區頂寮二街33號","121.450283333333","25.12508","6502300","八里區"
"249003","759-BX","2018/05/07 19:38:59","新北市八里區華峰三街60號","121.398903333333","25.145785","6502300","八里區"
"248016","026-BX","2018/05/07 19:38:49","新北市五股區成泰路三段544-18號","121.452773333333","25.1034766666667","6501500","五股區"
"248008","095-VK","2018/05/07 19:38:42","新北市五股區四維路155巷2號","121.467701666667","25.0746516666667","6501500","五股區"
"248018","225-UY","2018/05/07 19:28:24","新北市五股區壟路16號","121.415261666667","25.0855183333333","6501500","五股區"
"248012","247-BX","2018/05/07 19:38:38","新北市五股區成泰路二段91巷23-1號","121.437381666667","25.0844283333333","6501500","五股區"
"248014","261-SL","2018/05/07 19:38:50","新北市五股區民義路一段172巷11號","121.433486666667","25.0880783333333","6501500","五股區"
"248010","272-BY","2018/05/07 19:38:47","新北市五股區水碓一路5號","121.432445","25.0728383333333","6501500","五股區"
"248002","655-BX","2018/05/07 19:38:42","新北市五股區成泰路三段577巷77號","121.449723333333","25.1036716666667","6501500","五股區"
"248002","678-BX","2018/05/07 19:38:44","新北市五股區中興路二段37巷28號","121.460128333333","25.0750066666667","6501500","五股區"
"248004","682-TV","2018/05/07 19:38:57","新北市五股區成泰路二段78號","121.437553333333","25.0822366666667","6501500","五股區"
"234023","9380-KE","2018/05/07 19:38:54","新北市永和區環河西路一段99號","121.511241666667","25.017805","6500400","永和區"
"234077","969-R7","2018/05/07 19:38:52","新北市永和區民族街67巷8號","121.518873333333","24.9971766666667","6500400","永和區"
"234074","AAC-211","2018/05/07 19:38:57","新北市永和區竹林路225巷1號","121.521041666667","25.0085816666667","6500400","永和區"
"234067","AAC-212","2018/05/07 19:38:42","新北市永和區中山路一段191巷14號","121.509556666667","25.0080816666667","6500400","永和區"
"234003","AAC-295","2018/05/07 19:38:58","新北市永和區自由街77巷1號","121.513215","25.0050916666667","6500400","永和區"
"243013","AAD-798","2018/05/07 19:38:47","新北市泰山區應化街13號","121.423845","25.0436983333333","6501600","泰山區"
"243009","297-R6","2018/05/07 19:38:57","新北市泰山區美寧街60號","121.430991666667","25.06461","6501600","泰山區"
"243016","380-SR","2018/05/07 19:38:59","新北市泰山區新北大道七段28號","121.420045","25.0321966666667","6501600","泰山區"
"243015","421-VK","2018/05/07 19:38:40","新北市泰山區文程路18巷24號","121.428128333333","25.048485","6501600","泰山區"
"243011","KEA-2215","2018/05/07 19:38:52","新北市泰山區貴子路67巷1號","121.430658333333","25.0397766666667","6501600","泰山區"
"243010","KEA-2216","2018/05/07 19:38:46","新北市泰山區明志路二段7巷4號","121.430396666667","25.0534516666667","6501600","泰山區"
"243012","646-TV","2018/05/07 19:38:58","新北市泰山區仁愛路100巷32號","121.433308333333","25.055","6501600","泰山區"
"243014","680-BX","2018/05/07 19:38:47","新北市泰山區泰林路二段33-8號","121.435228333333","25.0565583333333","6501600","泰山區"
"222003","436-BY","2018/05/07 19:30:59","新北市深坑區深南路51-1號","121.621166666667","25.0099116666667","6501800","深坑區"
"222002","659-BX","2018/05/07 19:38:58","新北市深坑區北深路一段210號","121.632606666667","25.0109116666667","6501800","深坑區"
"231059","046-UY","2018/05/07 19:38:58","新北市新店區安和路三段83號","121.517833333333","24.9837583333333","6500600","新店區"
"231040","047-UY","2018/05/07 19:38:46","新北市新店區中正路75巷71號","121.543108333333","24.968855","6500600","新店區"
"231044","106-UY","2018/05/07 19:38:38","新北市新店區北新路三段49號","121.541833333333","24.9804833333333","6500600","新店區"
"231046","107-UY","2018/05/07 19:38:55","新北市新店區自由街13號","121.535535","24.9748283333333","6500600","新店區"
"231052","108-UY","2018/05/07 19:38:48","新北市新店區新烏路二段481號","121.552293333333","24.9088533333333","6500600","新店區"
"231047","187-VK","2018/05/07 19:38:55","新北市新店區五峰路63巷8弄20-1號","121.547606666667","24.968955","6500600","新店區"
"231054","KEA-2219","2018/05/07 19:38:46","新北市新店區文中路45號","121.539556666667","24.9566","6500600","新店區"
"231057","256-BX","2018/05/07 19:38:59","新北市新店區橘園一路11號","121.547986666667","24.9340133333333","6500600","新店區"
"231042","268-BY","2018/05/07 19:38:52","新北市新店區中興路一段210號","121.543748333333","24.96559","6500600","新店區"
"231051","278-BY","2018/05/07 19:38:50","新北市新店區中央四街47號","121.52777","24.97503","6500600","新店區"
"231050","AAD-862","2018/05/07 19:38:46","新北市新店區秀水路15號","121.554711666667","24.9547016666667","6500600","新店區"
"231058","3713-VJ","2018/05/07 19:38:42","新北市新店區中正路76巷11弄19號","121.543643333333","24.97172","6500600","新店區"
"231066","4716-K9","2018/05/07 19:39:01","新北市新店區安康路三段60號","121.492308333333","24.9521566666667","6500600","新店區"
"231056","4715-K9","2018/05/07 19:38:59","新北市新店區安民街121巷12號","121.515428333333","24.9692533333333","6500600","新店區"
"231067","4772-VM","2018/05/07 19:38:49","新北市新店區精忠路10-1號","121.532653333333","24.9590583333333","6500600","新店區"
"231065","512-UM","2018/05/07 19:38:43","新北市新店區安祥路109巷6弄31號","121.475441666667","24.957725","6500600","新店區"
"231049","513-UM","2018/05/07 19:38:57","新北市新店區大豐路39號","121.540373333333","24.9799483333333","6500600","新店區"
"231063","616-UM","2018/05/07 19:39:00","新北市新店區達觀路38號","121.502056666667","24.93874","6500600","新店區"
"231041","618-UM","2018/05/07 19:38:58","新北市新店區中正路485號","121.533873333333","24.9820216666667","6500600","新店區"
"231061","619-UM","2018/05/07 19:38:57","新北市新店區安民街21號","121.515491666667","24.9648433333333","6500600","新店區"
"231064","719-UM","2018/05/07 19:38:55","新北市新店區安和路一段52巷2號","121.517598333333","24.966065","6500600","新店區"
"231062","720-UM","2018/05/07 19:38:58","新北市新店區太平路25-5號","121.533723333333","24.9580416666667","6500600","新店區"
"231060","897-TW","2018/05/07 19:38:43","新北市新店區安康路二段139號","121.511803333333","24.9603866666667","6500600","新店區"
"231045","898-TW","2018/05/07 19:38:37","新北市新店區北宜路二段174-1號","121.558486666667","24.9541133333333","6500600","新店區"
"231043","899-TW","2018/05/07 19:38:55","新北市新店區北新路二段15號","121.542725","24.971465","6500600","新店區"
"231055","AKT-0513","2018/05/07 19:37:11","新北市新店區中華路83巷67號","121.538315","24.9672016666667","6500600","新店區"
"241011","013-R5","2018/05/07 19:38:58","新北市三重區秀江街199號","121.497776666667","25.07168","6500200","三重區"
"241028","022-UY","2018/05/07 19:38:49","新北市三重區中正南路173號","121.493733333333","25.055515","6500200","三重區"
"241008","059-VK","2018/05/07 19:38:44","新北市三重區永福街137號","121.4786","25.0767516666667","6500200","三重區"
"241009","060-VK","2018/05/07 19:38:57","新北市三重區三和路四段406巷18號","121.480435","25.0794283333333","6500200","三重區"
"241015","062-VK","2018/05/07 19:38:52","新北市三重區福德北路30號","121.50214","25.064965","6500200","三重區"
"241017","063-VK","2018/05/07 19:38:45","新北市三重區重陽路三段5巷15號","121.491241666667","25.0652083333333","6500200","三重區"
"241026","066-VK","2018/05/07 19:38:51","新北市三重區光興街53號","121.499005","25.060205","6500200","三重區"
"241003","091-VK","2018/05/07 19:39:00","新北市三重區仁義街238號","121.49429","25.0854283333333","6500200","三重區"
"241016","265-UM","2018/05/07 19:38:55","新北市三重區正義北路28巷8號","121.497141666667","25.0631433333333","6500200","三重區"
"241022","267-UM","2018/05/07 19:38:47","新北市三重區三民街157巷2號","121.483668333333","25.0646466666667","6500200","三重區"
"241032","269-UM","2018/05/07 19:38:55","新北市三重區三陽路133號","121.483126666667","25.05885","6500200","三重區"
"241013","270-UM","2018/05/07 19:38:54","新北市三重區仁愛街119號","121.49536","25.0746366666667","6500200","三重區"
"241025","271-UM","2018/05/07 19:38:52","新北市三重區大有街1-11號","121.477491666667","25.0662816666667","6500200","三重區"
"241007","398-BY","2018/05/07 19:38:49","新北市三重區溪尾街126巷104號","121.487433333333","25.078595","6500200","三重區"
"241005","413-TH","2018/05/07 19:38:48","新北市三重區河邊北街72-6號","121.504533333333","25.06863","6500200","三重區"
"241035","462-BY","2018/05/07 19:38:43","新北市三重區正義北路92號","121.497065","25.0647833333333","6500200","三重區"
"241020","478-VK","2018/05/07 19:38:53","新北市三重區三和路四段20巷91號","121.48849","25.07329","6500200","三重區"
"241014","543-UM","2018/05/07 19:38:48","新北市三重區長榮路140號","121.503973333333","25.06947","6500200","三重區"
"241023","545-UM","2018/05/07 19:38:56","新北市三重區忠孝路三段99巷21號","121.47941","25.0644016666667","6500200","三重區"
"241006","AAD-863","2018/05/07 19:38:47","新北市三重區聯華街143號","121.484458333333","25.0749216666667","6500200","三重區"
"241012","941-UM","2018/05/07 19:38:44","新北市三重區河邊北街256巷21號","121.500843333333","25.075995","6500200","三重區"
"241029","942-UM","2018/05/07 19:38:45","新北市三重區同安街122號","121.493388333333","25.0560766666667","6500200","三重區"
"235064","005-UY","2018/05/07 19:38:57","新北市中和區南山路72-7號","121.50247","24.996065","6500300","中和區"
"235063","006-UY","2018/05/07 19:38:46","新北市中和區連城路203巷10弄9號","121.494871666667","24.996995","6500300","中和區"
"235047","031-BX","2018/05/07 19:38:48","新北市中和區和平街196號","121.504783333333","24.9926516666667","6500300","中和區"
"235056","096-UM","2018/05/07 19:38:48","新北市中和區員山路581巷2-10號","121.477193333333","25.0088433333333","6500300","中和區"
"235039","097-UM","2018/05/07 19:38:47","新北市中和區秀峰街119巷8弄9號","121.519036666667","24.98993","6500300","中和區"
"235040","150-BY","2018/05/07 19:38:43","新北市中和區安平路30號","121.50961","24.99487","6500300","中和區"
"235058","151-BY","2018/05/07 19:38:56","新北市中和區連城路374巷2號","121.481481666667","24.9955366666667","6500300","中和區"
"235055","183-VK","2018/05/07 19:38:55","新北市中和區中山路三段179巷11號","121.473223333333","25.0058633333333","6500300","中和區"
"235038","185-VK","2018/05/07 19:38:56","新北市中和區大智街55巷30弄7號","121.521063333333","24.9930716666667","6500300","中和區"
"235049","186-VK","2018/05/07 19:38:58","新北市中和區景新街175號","121.506718333333","24.9953833333333","6500300","中和區"
"235067","255-BX","2018/05/07 19:38:56","新北市中和區新生街262號","121.483661666667","24.9973216666667","6500300","中和區"
"235044","293-VK","2018/05/07 19:39:00","新北市中和區興南路一段93巷2號","121.509586666667","24.9885333333333","6500300","中和區"
"235072","301-VK","2018/05/07 19:38:57","新北市中和區錦和路93巷2弄1號","121.490308333333","24.995715","6500300","中和區"
"235043","352-BY","2018/05/07 19:38:54","新北市中和區安樂路48號","121.511973333333","24.9931166666667","6500300","中和區"
"235068","377-QA","2018/05/07 19:38:49","新北市中和區景平路493巷12弄5號","121.498933333333","24.9970466666667","6500300","中和區"
"235061","378-QA","2018/05/07 19:38:48","新北市中和區民安街1號","121.480938333333","25.0010266666667","6500300","中和區"
"235050","4979-A6","2018/05/07 19:38:56","新北市中和區中正路501號","121.488716666667","24.9935166666667","6500300","中和區"
"235042","551-UM","2018/05/07 19:38:49","新北市中和區中和路262巷35-4號","121.509658333333","24.9994683333333","6500300","中和區"
"235070","558-UM","2018/05/07 19:38:52","新北市中和區景平路595-1號","121.497318333333","25.0005983333333","6500300","中和區"
"235045","565-BX","2018/05/07 19:38:43","新北市中和區景新街462號","121.513425","24.9876516666667","6500300","中和區"
"235054","640-BX","2018/05/07 19:38:44","新北市中和區國光街107巷4弄24號","121.470001666667","24.99903","6500300","中和區"
"235060","647-TV","2018/05/07 19:38:49","新北市中和區中山路二段523巷12號","121.481518333333","25.00452","6500300","中和區"
"235046","733-UM","2018/05/07 19:38:43","新北市中和區忠孝街75號","121.512108333333","24.9850733333333","6500300","中和區"
"235071","783-BX","2018/05/07 19:38:40","新北市中和區中正路839巷29號","121.483626666667","25.002385","6500300","中和區"
"235057","801-TS","2018/05/07 19:38:47","新北市中和區員山路349號","121.481236666667","25.001805","6500300","中和區"
"235041","802-TS","2018/05/07 19:38:56","新北市中和區永貞路249巷20號","121.512375","25.0035583333333","6500300","中和區"
"235052","805-TS","2018/05/07 19:38:42","新北市中和區華新街206巷20號","121.506173333333","24.982765","6500300","中和區"
"235048","896-TW","2018/05/07 19:38:40","新北市中和區忠孝街1巷2-1號","121.509071666667","24.9829816666667","6500300","中和區"
"235053","900-TW","2018/05/07 19:38:50","新北市中和區國光街184巷14號","121.467285","25.00206","6500300","中和區"
"235066","911-UM","2018/05/07 19:38:58","新北市中和區景新街71號","121.504916666667","24.9987566666667","6500300","中和區"
"235051","157-BY","2018/05/07 19:38:54","新北市中和區景平路520號","121.503338333333","24.9939183333333","6500300","中和區"
"235037","AAC-213","2018/05/07 19:38:50","新北市中和區秀朗路三段74-1號","121.526243333333","24.99431","6500300","中和區"
"235059","AAC-215","2018/05/07 19:38:46","新北市中和區錦和路193號","121.490593333333","24.990685","6500300","中和區"
"220068","013-TV","2018/05/07 19:38:59","新北市板橋區中山路二段515號","121.482986666667","25.0211483333333","6500100","板橋區"
"220065","072-UY","2018/05/07 19:38:52","新北市板橋區國泰街17號","121.469363333333","25.00684","6500100","板橋區"
"220086","073-UY","2018/05/07 19:38:57","新北市板橋區中正路23號","121.456136666667","25.012555","6500100","板橋區"
"220106","075-UY","2018/05/07 19:38:53","新北市板橋區江寧路三段40號","121.471216666667","25.0315816666667","6500100","板橋區"
"220069","AAD-861","2018/05/07 19:38:43","新北市板橋區縣民大道一段64巷21號","121.455965","25.0033766666667","6500100","板橋區"
"247004","337-TH","2018/05/07 19:38:59","新北市蘆洲區長安街100號","121.461815","25.0809033333333","6501400","蘆洲區"
"247008","056-VK","2018/05/07 19:38:48","新北市蘆洲區中山一路158號","121.474791666667","25.0815166666667","6501400","蘆洲區"
"235065","251-BX","2018/05/07 19:38:39","新北市中和區福美路269號","121.498243333333","25.005075","6500300","中和區"
"228003","097-TW","2018/05/07 19:38:41","新北市貢寮區真理里美艷山街19-1號","121.923423333333","25.0684616666667","6502600","貢寮區"
"228001","670-TC","2018/05/07 19:38:46","新北市貢寮區真理里延平街49號","121.92462","25.0556466666667","6502600","貢寮區"
"224010","AGQ-8101","2018/05/07 19:38:55","新北市瑞芳區山尖路172-1號","121.84846","25.1118933333333","6501200","瑞芳區"
"224002","639-TC","2018/05/07 19:38:58","新北市瑞芳區三爪子坑路13巷211號","121.815946666667","25.105955","6501200","瑞芳區"
"224007","275-VK","2018/05/07 19:15:38","新北市瑞芳區大寮路356號","121.784605","25.103035","6501200","瑞芳區"
"227008","642-TC","2018/05/07 19:38:49","新北市雙溪區新基里新基北街20號","121.867213333333","25.03887","6502500","雙溪區"
"227001","400-TW","2018/05/07 19:38:58","新北市雙溪區雙溪里太平路1號","121.863958333333","25.0351116666667","6502500","雙溪區"
"222001","KEA-2212","2018/05/07 19:38:52","新北市深坑區深坑街148號","121.613","25.001515","6501800","深坑區"
"208002","KEA-2872","2018/05/07 19:38:52","新北市金山區四維路25號","121.635055","25.2228116666667","6502700","金山區"
"208003","665-BX","2018/05/07 19:38:36","新北市金山區仁愛路23號","121.637346666667","25.21916","6502700","金山區"
"251009","008-UM","2018/05/07 19:38:46","新北市淡水區中山北路一段186巷13弄6號","121.445446666667","25.1790383333333","6501000","淡水區"
"251005","010-UM","2018/05/07 19:38:46","新北市淡水區原德路108巷1號","121.443471666667","25.17371","6501000","淡水區"
"251001","011-UM","2018/05/07 19:38:56","新北市淡水區民權路20號","121.459855","25.1379216666667","6501000","淡水區"
"251013","KEA-2871","2018/05/07 19:38:47","新北市淡水區店子後9號","121.459916666667","25.2188433333333","6501000","淡水區"
"251014","180-VK","2018/05/07 19:38:58","新北市淡水區桂竹圍4-3號","121.475335","25.2322283333333","6501000","淡水區"
"251008","181-VK","2018/05/07 19:38:44","新北市淡水區中正路一段8巷2弄2號","121.428163333333","25.1771566666667","6501000","淡水區"
"251015","182-VK","2018/05/07 19:38:49","新北市淡水區山子頂22號","121.491518333333","25.1872466666667","6501000","淡水區"
"251010","413-VK","2018/05/07 19:38:57","新北市淡水區新市三路一段336號","121.430103333333","25.195655","6501000","淡水區"
"251012","441-VK","2018/05/07 19:38:44","新北市淡水區中山北路三段164號","121.445661666667","25.1966083333333","6501000","淡水區"
"251007","442-VK","2018/05/07 19:38:45","新北市淡水區中正東路一段111巷17號","121.454933333333","25.161","6501000","淡水區"
"251006","561-UM","2018/05/07 19:38:43","新北市淡水區中山北路一段207巷36號","121.443118333333","25.1793","6501000","淡水區"
"251016","575-R6","2018/05/07 19:38:42","新北市淡水區下圭柔山119-51號","121.450743333333","25.2084333333333","6501000","淡水區"
"251011","650-BX","2018/05/07 19:38:45","新北市淡水區八勢一街26號","121.460836666667","25.1558983333333","6501000","淡水區"
"207003","550-UM","2018/05/07 19:38:52","新北市萬里區大鵬里下社17-4號","121.64821","25.2177066666667","6502800","萬里區"
"207004","225-TW","2018/05/07 19:38:42","新北市萬里區萬里里瑪鋉路67號","121.688131666667","25.176215","6502800","萬里區"
"252002","178-VK","2018/05/07 19:38:48","新北市三芝區中正路一段18巷34-1號","121.503825","25.2591716666667","6502100","三芝區"
"252001","292-VK","2018/05/07 19:38:42","新北市三芝區公正街9號","121.499751666667","25.2574966666667","6502100","三芝區"
"208001","170-UY","2018/05/07 19:38:39","新北市金山區南勢湖16號","121.620576666667","25.2196233333333","6502700","金山區"
"237004","KEA-2597","2018/05/07 19:38:52","新北市三峽區插角234號","121.41241","24.868755","6500900","三峽區"
"237007","153-BY","2018/05/07 19:38:54","新北市三峽區二鬮路136巷115號","121.35586","24.9102116666667","6500900","三峽區"
"237009","210-TH","2018/05/07 19:38:38","新北市三峽區中園街36號","121.368211666667","24.926575","6500900","三峽區"
"237013","252-BX","2018/05/07 19:38:55","新北市三峽區介壽路一段335號","121.381785","24.93041","6500900","三峽區"
"237012","275-BY","2018/05/07 19:38:46","新北市三峽區光明路48-3號","121.374203333333","24.9301416666667","6500900","三峽區"
"237008","302-VK","2018/05/07 19:38:53","新北市三峽區永安街143號","121.373573333333","24.9282116666667","6500900","三峽區"
"237014","433-BY","2018/05/07 19:38:41","新北市三峽區民權街198號","121.36773","24.9294583333333","6500900","三峽區"
"237006","5529-G3","2018/05/07 19:39:01","新北市三峽區中正路一段336巷15弄2號","121.369943333333","24.924955","6500900","三峽區"
"237005","AKY-6261","2018/05/07 19:38:51","新北市三峽區中山路219巷6號","121.363181666667","24.9364983333333","6500900","三峽區"
"236069","105-UM","2018/05/07 19:38:50","新北市土城區金城路二段23-3號","121.44757","24.97619","6501300","土城區"
"236078","166-UM","2018/05/07 19:39:00","新北市土城區中州路27巷81號","121.412676666667","24.956365","6501300","土城區"
"236030","253-BX","2018/05/07 19:38:57","新北市土城區福祥街53號","121.440856666667","24.9800383333333","6501300","土城區"
"236026","269-VK","2018/05/07 19:38:51","新北市土城區中央路二段61巷26號","121.443303333333","24.9788266666667","6501300","土城區"
"236039","271-VK","2018/05/07 19:38:44","新北市土城區清水路98巷3弄45號","121.458586666667","24.9808933333333","6501300","土城區"
"236020","401-BY","2018/05/07 19:38:47","新北市土城區峰廷街3號","121.469086666667","24.9872966666667","6501300","土城區"
"236048","913-UM","2018/05/07 19:38:57","新北市土城區明德路一段18號","121.465043333333","24.9849733333333","6501300","土城區"
"236063","915-UM","2018/05/07 19:38:44","新北市土城區延平街49號","121.467871666667","24.9922866666667","6501300","土城區"
"236055","AAC-216","2018/05/07 19:38:38","新北市土城區學府路一段76號","121.456575","24.9882316666667","6501300","土城區"
"242007","413-TV","2018/05/07 19:38:51","新北市新莊區中央路736號","121.444818333333","25.056175","6500500","新莊區"
"242023","362-BY","2018/05/07 19:33:13","新北市新莊區化成路45號","121.465171666667","25.0447","6500500","新莊區"
"242039","133-UY","2018/05/07 19:38:54","新北市新莊區建國二路85-2號","121.4313","25.02623","6500500","新莊區"
"242031","135-UY","2018/05/07 19:38:52","新北市新莊區公園一路141號","121.446431666667","25.03826","6500500","新莊區"
"242048","172-VK","2018/05/07 19:38:52","新北市新莊區後港一路3號","121.424068333333","25.0263","6500500","新莊區"
"242011","173-VK","2018/05/07 19:36:41","新北市新莊區三和路12-21號","121.442138333333","25.0386283333333","6500500","新莊區"
"242004","176-VK","2018/05/07 19:38:59","新北市新莊區思源路42巷7號","121.460938333333","25.0440183333333","6500500","新莊區"
"242013","351-TH","2018/05/07 19:38:58","新北市新莊區中誠街131號","121.449161666667","25.0475033333333","6500500","新莊區"
"238015","755-BX","2018/05/07 19:38:43","新北市樹林區育英街58號","121.421235","24.9895816666667","6500700","樹林區"
"238023","601-UM","2018/05/07 19:38:59","新北市樹林區三福街46號","121.407591666667","25.01638","6500700","樹林區"
"238019","599-UM","2018/05/07 19:38:45","新北市樹林區中山路三段50號","121.39411","24.9724166666667","6500700","樹林區"
"238024","5061-A6","2018/05/07 19:38:40","新北市樹林區育德街78-1號","121.388308333333","24.9682483333333","6500700","樹林區"
"238022","KEA-2213","2018/05/07 19:38:56","新北市樹林區國凱街32-1號","121.419761666667","24.9783933333333","6500700","樹林區"
"238021","KEA-2539","2018/05/07 19:38:41","新北市樹林區佳園路三段183號","121.385235","24.9481583333333","6500700","樹林區"
"238025","303-VK","2018/05/07 19:38:49","新北市樹林區中山路一段69號","121.42371","24.9917466666667","6500700","樹林區"
"238017","283-BY","2018/05/07 19:38:46","新北市樹林區保安街二段107巷1弄3號","121.415176666667","25.0008366666667","6500700","樹林區"
"238014","282-BY","2018/05/07 19:38:39","新北市樹林區千歲街30巷26弄2號","121.426338333333","24.9961433333333","6500700","樹林區"
"238026","172-UY","2018/05/07 19:38:44","新北市樹林區佳園路二段15巷1號","121.393413333333","24.9637016666667","6500700","樹林區"
"238016","169-UY","2018/05/07 19:38:50","新北市樹林區東和街40-3號","121.400686666667","24.983215","6500700","樹林區"
"239007","AAC-297","2018/05/07 19:23:07","新北市鶯歌區中山路138巷3-2號","121.349568333333","24.9578666666667","6500800","鶯歌區"
"239006","891-R6","2018/05/07 19:38:58","新北市鶯歌區永昌街120號","121.340255","24.9502883333333","6500800","鶯歌區"
"239005","526-UM","2018/05/07 19:38:51","新北市鶯歌區中湖街269號","121.348398333333","24.9763366666667","6500800","鶯歌區"
"239001","417-VK","2018/05/07 19:39:00","新北市鶯歌區尖山埔路237號","121.344431666667","24.9502483333333","6500800","鶯歌區"
"239003","360-BY","2018/05/07 19:36:49","新北市樹林區中山路三段210-2號","121.38073","24.96667","6500800","鶯歌區"
"239004","193-VK","2018/05/07 19:38:42","新北市鶯歌區二甲路83-8號","121.340221666667","24.9318416666667","6500800","鶯歌區"
"221008","489-VK","2018/05/07 19:38:53","新北市汐止區康寧街141巷39弄1號","121.621235","25.0674516666667","6501100","汐止區"
"221036","130-UY","2018/05/07 19:38:40","新北市汐止區康寧街901號","121.650728333333","25.075265","6501100","汐止區"
"221015","131-UY","2018/05/07 19:39:01","新北市汐止區康寧街901號","121.650855","25.0752583333333","6501100","汐止區"
"221010","269-BY","2018/05/07 19:38:44","新北市汐止區汐萬路一段411號","121.649198333333","25.0794266666667","6501100","汐止區"
"221012","278-VK","2018/05/07 19:38:49","新北市汐止區大同路三段334號","121.67955","25.0710066666667","6501100","汐止區"
"221023","279-VK","2018/05/07 19:38:45","新北市汐止區中興路284號","121.628336666667","25.0693216666667","6501100","汐止區"
"221027","281-BY","2018/05/07 19:38:54","新北市汐止區忠孝東路9號","121.658308333333","25.0659383333333","6501100","汐止區"
"221029","298-VK","2018/05/07 19:38:40","新北市汐止區汐萬路一段256巷1號","121.651671666667","25.0748533333333","6501100","汐止區"
"221021","299-VK","2018/05/07 19:38:57","新北市汐止區南興路8號","121.65184","25.0629283333333","6501100","汐止區"
"221031","353-TW","2018/05/07 19:38:39","新北市汐止區康寧街901號","121.650933333333","25.075165","6501100","汐止區"
"221035","622-UM","2018/05/07 19:38:46","新北市汐止區康寧街901號","121.65143","25.0749983333333","6501100","汐止區"
"221025","623-UM","2018/05/07 19:38:50","新北市汐止區新台五路二段78-1號","121.661915","25.0656183333333","6501100","汐止區"
"221038","646-BX","2018/05/07 19:38:54","新北市汐止區忠孝東路225號","121.66228","25.066865","6501100","汐止區"
"221033","647-BX","2018/05/07 19:38:45","新北市汐止區南勢街1巷6號","121.626728333333","25.03758","6501100","汐止區"
"221002","707-TV","2018/05/07 19:38:56","新北市汐止區大同路一段219巷27號","121.633263333333","25.0582883333333","6501100","汐止區"
"220079","145-BY","2018/05/07 19:38:51","新北市板橋區建國街117號","121.460518333333","25.0176066666667","6500100","板橋區"
"220080","200-UY","2018/05/07 19:38:51","新北市板橋區大觀路二段153巷46弄16號","121.449188333333","24.9997866666667","6500100","板橋區"
"220082","610-BX","2018/05/07 19:38:44","新北市板橋區篤行路一段30號","121.431853333333","24.9941366666667","6500100","板橋區"
"220101","245-BX","2018/05/07 19:38:55","新北市板橋區縣民大道三段33巷1弄1號","121.473775","25.0206316666667","6500100","板橋區"
"220056","276-BY","2018/05/07 19:38:50","新北市板橋區四川路二段47巷2弄1號","121.454058333333","24.99496","6500100","板橋區"
"220072","277-BY","2018/05/07 19:38:50","新北市板橋區金門街235巷6號","121.432581666667","24.9892583333333","6500100","板橋區"
"220071","283-VK","2018/05/07 19:38:46","新北市板橋區信義路16-7號","121.456971666667","24.9957083333333","6500100","板橋區"
"220094","285-UM","2018/05/07 19:38:56","新北市板橋區銘傳街41-2號","121.469075","25.0314083333333","6500100","板橋區"
"220053","285-VK","2018/05/07 19:38:40","新北市板橋區中山路二段148巷20號","121.477005","25.0164116666667","6500100","板橋區"
"220083","286-VK","2018/05/07 19:38:43","新北市板橋區僑中二街102巷2號","121.446023333333","25.0082733333333","6500100","板橋區"
"220081","287-VK","2018/05/07 19:38:53","新北市板橋區大觀路一段29巷143號","121.449663333333","25.0055533333333","6500100","板橋區"
"220090","288-VK","2018/05/07 19:38:58","新北市板橋區長江路一段182號","121.461873333333","25.0304383333333","6500100","板橋區"
"220061","293-UM","2018/05/07 19:38:43","新北市板橋區成功路6巷5號","121.475806666667","25.0170083333333","6500100","板橋區"
"220084","296-UM","2018/05/07 19:38:59","新北市板橋區滿平二街2巷1弄26號","121.424891666667","24.987","6500100","板橋區"
"220075","303-R5","2018/05/07 19:38:56","新北市板橋區大勇街12巷8號","121.45353","25.0168983333333","6500100","板橋區"
"220062","305-R5","2018/05/07 19:38:47","新北市板橋區三民路二段71號","121.479573333333","25.0169","6500100","板橋區"
"220092","307-R5","2018/05/07 19:38:42","新北市板橋區陽明街29-1號","121.465341666667","25.0220616666667","6500100","板橋區"
"220098","317-R6","2018/05/07 19:38:51","新北市板橋區四維路269巷11號","121.462745","25.02813","6500100","板橋區"
"220064","486-VK","2018/05/07 19:38:48","新北市板橋區民權路41號","121.462113333333","25.011085","6500100","板橋區"
"220088","491-VK","2018/05/07 19:38:56","新北市板橋區民治街25號","121.47808","25.0342933333333","6500100","板橋區"
"220035","560-BX","2018/05/07 19:38:44","新北市板橋區中正路326巷13號","121.455258333333","25.02231","6500100","板橋區"
"220103","561-BX","2018/05/07 19:38:51","新北市板橋區文化路一段286巷2弄7號","121.468411666667","25.0208916666667","6500100","板橋區"
"220063","609-BX","2018/05/07 19:38:58","新北市板橋區中山路二段505巷21-5號","121.48187","25.0219583333333","6500100","板橋區"
"220055","630-UY","2018/05/07 19:38:57","新北市板橋區國慶路149巷13弄12-4號","121.460436666667","24.9970766666667","6500100","板橋區"
"220091","637-BX","2018/05/07 19:38:55","新北市板橋區懷德街139巷20弄2號","121.47996","25.0307233333333","6500100","板橋區"
"220057","686-BX","2018/05/07 19:38:52","新北市板橋區和平路27號","121.459533333333","24.9954733333333","6500100","板橋區"
"220077","687-BX","2018/05/07 19:38:58","新北市板橋區僑中二街90巷2號","121.446436666667","25.0092516666667","6500100","板橋區"
"220093","689-BX","2018/05/07 19:38:50","新北市板橋區新海路429號","121.457988333333","25.02765","6500100","板橋區"
"220054","741-BX","2018/05/07 19:38:55","新北市中和區德光路128號","121.46782","25.0036283333333","6500100","板橋區"
"220102","KEA-2699","2018/05/07 19:38:56","新北市板橋區文化路二段410巷1弄2號","121.47441","25.0311316666667","6500100","板橋區"
"220067","829-TW","2018/05/07 19:38:51","新北市板橋區長安街138巷1弄19號","121.473405","25.0098483333333","6500100","板橋區"
"220096","830-TW","2018/05/07 19:38:57","新北市板橋區民生路二段226巷15號","121.47041","25.0218916666667","6500100","板橋區"
"220089","833-TW","2018/05/07 19:38:57","新北市板橋區陽明街259號","121.462676666667","25.025355","6500100","板橋區"
"220074","895-R6","2018/05/07 19:38:48","新北市板橋區北門街25號","121.456625","25.0111466666667","6500100","板橋區"
"220073","985-R7","2018/05/07 19:38:41","新北市板橋區國光路49巷17號","121.458963333333","25.018815","6500100","板橋區"
"220097","AAC-210","2018/05/07 19:38:47","新北市板橋區幸福路32巷5號","121.46145","25.0206283333333","6500100","板橋區"
"220070","AAC-253","2018/05/07 19:38:52","新北市板橋區民族路163號","121.468296666667","25.0076283333333","6500100","板橋區"
