"lineid","car","time","location","longitude","latitude","cityid","cityname"
"234046","149-BY","2018/05/07 20:39:10","新北市永和區成功路二段48號","121.52672","25.0000183333333","6500400","永和區"
"234081","298-R6","2018/05/07 20:39:02","新北市永和區永貞路84號","121.520133333333","25.0049316666667","6500400","永和區"
"234064","337-UY","2018/05/07 20:38:58","新北市永和區環河西路二段179號","121.504403333333","25.0130333333333","6500400","永和區"
"234017","745-BX","2018/05/07 20:38:48","新北市永和區環河西路二段177-1號","121.50486","25.0130583333333","6500400","永和區"
"234030","746-BX","2018/05/07 20:39:07","新北市板橋區民生路二段198號","121.469603333333","25.0207666666667","6500400","永和區"
"234061","AAD-866","2018/05/07 20:38:58","新北市永和區中正路381號","121.517121666667","25.0036583333333","6500400","永和區"
"249001","173-UM","2018/05/07 20:39:07","新北市八里區中山路三段380號","121.369151666667","25.1363983333333","6502300","八里區"
"249004","303-UY","2018/05/07 20:39:01","新北市八里區中山路一段211號","121.411323333333","25.15805","6502300","八里區"
"249002","305-UY","2018/05/07 20:38:56","新北市八里區龍米路三段2號","121.429391666667","25.1589966666667","6502300","八里區"
"248002","678-BX","2018/05/07 20:21:32","新北市五股區中興路二段37巷28號","121.460226666667","25.0747916666667","6501500","五股區"
"234023","9380-KE","2018/05/07 20:38:54","新北市永和區竹林路25巷21號","121.51826","25.015005","6500400","永和區"
"234077","969-R7","2018/05/07 20:38:30","新北市三重區重新路五段283號","121.47959","25.0491383333333","6500400","永和區"
"234074","AAC-211","2018/05/07 20:38:57","新北市永和區竹林路119巷22弄1號","121.521333333333","25.01165","6500400","永和區"
"243016","380-SR","2018/05/07 20:38:59","新北市泰山區明志路二段218號","121.427331666667","25.04872","6501600","泰山區"
"243011","KEA-2215","2018/05/07 20:38:52","新北市泰山區明志路三段46號","121.424535","25.0424033333333","6501600","泰山區"
"243010","KEA-2216","2018/05/07 20:38:46","新北市泰山區公園路97號","121.423951666667","25.0555283333333","6501600","泰山區"
"222003","436-BY","2018/05/07 20:38:51","新北市深坑區深坑街147號","121.613226666667","25.0011166666667","6501800","深坑區"
"222002","659-BX","2018/05/07 20:38:58","新北市深坑區萬福路45號","121.599495","25.0067966666667","6501800","深坑區"
"231059","046-UY","2018/05/07 20:38:58","新北市新店區僑信路117號","121.500733333333","24.9460983333333","6500600","新店區"
"231040","047-UY","2018/05/07 20:39:06","新北市新店區中正路272號","121.538981666667","24.9736566666667","6500600","新店區"
"231044","106-UY","2018/05/07 20:38:59","新北市新店區建國路297號","121.53696","24.9863783333333","6500600","新店區"
"231052","108-UY","2018/05/07 20:39:08","新北市新店區松林路1號","121.546803333333","24.9119483333333","6500600","新店區"
"231047","187-VK","2018/05/07 20:38:55","新北市新店區寶慶街2號","121.544221666667","24.9868166666667","6500600","新店區"
"231054","KEA-2219","2018/05/07 20:39:06","新北市新店區北新路一段64巷41號","121.542193333333","24.9656016666667","6500600","新店區"
"231057","256-BX","2018/05/07 20:38:59","新北市新店區花園六路二段7號","121.55545","24.93312","6500600","新店區"
"231042","268-BY","2018/05/07 20:38:52","新北市新店區寶橋路238號","121.551535","24.97893","6500600","新店區"
"231051","278-BY","2018/05/07 20:38:50","新北市新店區中央八街119號","121.525678333333","24.9781166666667","6500600","新店區"
"231050","AAD-862","2018/05/07 20:39:06","新北市新店區建國路4號","121.539833333333","24.9734266666667","6500600","新店區"
"231058","3713-VJ","2018/05/07 20:39:02","新北市新店區平等街3號","121.537033333333","24.9742516666667","6500600","新店區"
"231066","4716-K9","2018/05/07 20:39:01","新北市新店區安民街341-1號","121.516728333333","24.97494","6500600","新店區"
"231056","4715-K9","2018/05/07 20:38:59","新北市新店區中央七街61巷3號","121.528288333333","24.976545","6500600","新店區"
"231067","4772-VM","2018/05/07 20:39:09","新北市新店區安華路28-1號","121.519748333333","24.9607816666667","6500600","新店區"
"231065","512-UM","2018/05/07 20:39:03","新北市新店區安祥路102巷77號","121.486701666667","24.963655","6500600","新店區"
"231049","513-UM","2018/05/07 20:38:57","新北市新店區永業路81巷7弄1號","121.530368333333","24.9487983333333","6500600","新店區"
"231063","616-UM","2018/05/07 20:39:00","新北市新店區玫瑰路4-1號","121.493595","24.9513816666667","6500600","新店區"
"231041","618-UM","2018/05/07 20:38:58","新北市新店區中正路545號","121.533708333333","24.9876683333333","6500600","新店區"
"231061","619-UM","2018/05/07 20:39:04","新北市新店區新和街34號","121.519221666667","24.9848783333333","6500600","新店區"
"231064","719-UM","2018/05/07 20:39:08","新北市新店區安和路三段110巷1號","121.517263333333","24.9854616666667","6500600","新店區"
"231068","719-UY","2018/05/07 20:39:01","新北市新店區寶慶街35巷1弄4號","121.543265","24.9862883333333","6500600","新店區"
"231062","720-UM","2018/05/07 20:38:58","新北市新店區安泰路60巷55弄85號","121.484708333333","24.9456566666667","6500600","新店區"
"231060","897-TW","2018/05/07 20:39:03","新北市新店區安康路三段567-1號","121.475533333333","24.9435833333333","6500600","新店區"
"231045","898-TW","2018/05/07 20:38:57","新北市新店區長春路42號","121.55054","24.9575366666667","6500600","新店區"
"231043","899-TW","2018/05/07 20:38:57","新北市新店區建國路39號","121.540493333333","24.9749916666667","6500600","新店區"
"241011","013-R5","2018/05/07 20:38:58","新北市三重區龍濱路285號","121.501155","25.073375","6500200","三重區"
"241028","022-UY","2018/05/07 20:38:49","新北市三重區光興街91號","121.49741","25.0599483333333","6500200","三重區"
"241008","059-VK","2018/05/07 20:39:04","新北市三重區下竹圍街36號","121.481055","25.0750166666667","6500200","三重區"
"241009","060-VK","2018/05/07 20:38:57","新北市三重區碧華街57號","121.484743333333","25.0812716666667","6500200","三重區"
"241015","062-VK","2018/05/07 20:38:52","新北市三重區文化北路103號","121.49793","25.06842","6500200","三重區"
"241017","063-VK","2018/05/07 20:39:05","新北市三重區安慶街266號","121.490801666667","25.0676233333333","6500200","三重區"
"241024","065-VK","2018/05/07 20:39:02","新北市三重區三民街277號","121.479113333333","25.0681166666667","6500200","三重區"
"241026","066-VK","2018/05/07 20:38:51","新北市三重區和平街38號","121.50194","25.0627133333333","6500200","三重區"
"241003","091-VK","2018/05/07 20:39:00","新北市三重區仁義街244號","121.494221666667","25.085625","6500200","三重區"
"241016","265-UM","2018/05/07 20:38:55","新北市三重區長壽西街116號","121.495368333333","25.066965","6500200","三重區"
"241022","267-UM","2018/05/07 20:39:07","新北市三重區民生街61巷6弄6號","121.488808333333","25.0621716666667","6500200","三重區"
"241018","268-UM","2018/05/07 20:39:03","新北市三重區自強路一段201號","121.491655","25.068345","6500200","三重區"
"241032","269-UM","2018/05/07 20:39:05","新北市三重區重陽路一段120巷48號","121.485026666667","25.060115","6500200","三重區"
"241013","270-UM","2018/05/07 20:38:54","新北市三重區三和路四段83號","121.489268333333","25.0753583333333","6500200","三重區"
"241025","271-UM","2018/05/07 20:38:49","新北市三重區頂崁街210巷36號","121.475786666667","25.0678816666667","6500200","三重區"
"241007","398-BY","2018/05/07 20:39:09","新北市三重區自強路四段24號","121.488745","25.076575","6500200","三重區"
"241005","413-TH","2018/05/07 20:39:08","新北市三重區碧華街307號","121.490815","25.084035","6500200","三重區"
"241035","462-BY","2018/05/07 20:39:03","新北市三重區正義北路328號","121.494673333333","25.0706016666667","6500200","三重區"
"241004","475-VK","2018/05/07 20:39:00","新北市三重區仁愛街502號","121.488193333333","25.0821633333333","6500200","三重區"
"241020","478-VK","2018/05/07 20:38:53","新北市三重區明德街18號","121.492668333333","25.0721983333333","6500200","三重區"
"241014","543-UM","2018/05/07 20:39:08","新北市三重區三和路二段119號","121.498808333333","25.0690033333333","6500200","三重區"
"241023","545-UM","2018/05/07 20:38:56","新北市三重區自由街35巷2號","121.478996666667","25.0668933333333","6500200","三重區"
"241001","547-UM","2018/05/07 20:38:58","新北市三重區三和路四段160巷72號","121.485866666667","25.0748416666667","6500200","三重區"
"241019","KEA-2593","2018/05/07 20:38:50","新北市三重區大智街125-1號","121.491336666667","25.07033","6500200","三重區"
"241002","887-TS","2018/05/07 20:38:49","新北市三重區仁義街167巷38弄2號","121.498778333333","25.0827066666667","6500200","三重區"
"241012","941-UM","2018/05/07 20:39:04","新北市三重區秀江街26號","121.502488333333","25.073045","6500200","三重區"
"241029","942-UM","2018/05/07 20:39:05","新北市三重區集美街126巷25號","121.490051666667","25.05374","6500200","三重區"
"241033","AAC-255","2018/05/07 20:39:00","新北市三重區五谷王北街86號","121.476478333333","25.053905","6500200","三重區"
"235069","4980-A6","2018/05/07 20:39:07","新北市中和區連城路347巷18弄36號","121.487176666667","24.9947616666667","6500300","中和區"
"235026","800-TS","2018/05/07 20:22:53","新北市中和區員山路36巷16-3號","121.484776666667","24.9915516666667","6500300","中和區"
"235059","AAC-215","2018/05/07 20:39:05","新北市中和區連城路362號","121.48196","24.9953816666667","6500300","中和區"
"247024","893-R6","2018/05/07 20:39:03","新北市蘆洲區長樂路37號","121.463245","25.08565","6501400","蘆洲區"
"247014","546-UM","2018/05/07 20:39:10","新北市蘆洲區成功路62號","121.47259","25.0805016666667","6501400","蘆洲區"
"247022","500-BY","2018/05/07 20:39:09","新北市蘆洲區光華路22巷63號","121.467781666667","25.0853716666667","6501400","蘆洲區"
"247010","341-TH","2018/05/07 20:39:00","新北市蘆洲區中興街46號","121.481416666667","25.0872283333333","6501400","蘆洲區"
"247012","339-TH","2018/05/07 20:38:53","新北市蘆洲區中興街50號","121.48153","25.0873333333333","6501400","蘆洲區"
"247004","337-TH","2018/05/07 20:38:59","新北市蘆洲區長安街299巷19號","121.45713","25.084595","6501400","蘆洲區"
"247006","336-TH","2018/05/07 20:38:54","新北市蘆洲區和平路183號","121.46632","25.081285","6501400","蘆洲區"
"247008","056-VK","2018/05/07 20:39:08","新北市蘆洲區重陽街48號","121.481403333333","25.083225","6501400","蘆洲區"
"247016","007-UY","2018/05/07 20:39:02","新北市蘆洲區和平路56號","121.470306666667","25.0790883333333","6501400","蘆洲區"
"247002","002-UY","2018/05/07 20:39:05","新北市蘆洲區長安街373號","121.457055","25.0877733333333","6501400","蘆洲區"
"247020","001-UY","2018/05/07 20:39:00","新北市蘆洲區民族路424號","121.473993333333","25.0918616666667","6501400","蘆洲區"
"222001","KEA-2212","2018/05/07 20:38:52","新北市深坑區北深路三段234號","121.600631666667","25.0041416666667","6501800","深坑區"
"251001","011-UM","2018/05/07 20:38:56","新北市淡水區淡金路164號","121.4591","25.1658783333333","6501000","淡水區"
"251013","KEA-2871","2018/05/07 20:39:07","新北市淡水區下圭柔山28巷25號","121.458141666667","25.2038416666667","6501000","淡水區"
"251014","180-VK","2018/05/07 20:38:58","新北市淡水區公埔子28號","121.465885","25.2328916666667","6501000","淡水區"
"251015","182-VK","2018/05/07 20:39:09","新北市淡水區淡金路四段496號","121.452081666667","25.225375","6501000","淡水區"
"251010","413-VK","2018/05/07 20:38:56","新北市淡水區沙崙路181巷15號","121.423945","25.18434","6501000","淡水區"
"251012","441-VK","2018/05/07 20:39:04","新北市淡水區興仁路105號","121.4516","25.2181433333333","6501000","淡水區"
"251007","442-VK","2018/05/07 20:39:04","新北市淡水區淡金路一段69號","121.458123333333","25.1735383333333","6501000","淡水區"
"251006","561-UM","2018/05/07 20:39:03","新北市淡水區商工路186巷25號","121.450795","25.187065","6501000","淡水區"
"251016","575-R6","2018/05/07 20:39:02","新北市淡水區後洲子8-2號","121.449608333333","25.2240116666667","6501000","淡水區"
"251011","650-BX","2018/05/07 20:39:05","新北市淡水區新市一路一段361號","121.436356666667","25.186215","6501000","淡水區"
"251002","672-BX","2018/05/07 20:39:08","新北市淡水區中正路36號","121.443793333333","25.169235","6501000","淡水區"
"251003","673-BX","2018/05/07 20:38:53","新北市淡水區新民街118號","121.437926666667","25.17751","6501000","淡水區"
"252002","178-VK","2018/05/07 20:39:08","新北市三芝區淡金路二段47-2號","121.503743333333","25.2605216666667","6502100","三芝區"
"252001","292-VK","2018/05/07 20:39:02","新北市三芝區長安街36號","121.501485","25.256225","6502100","三芝區"
"236059","912-UM","2018/05/07 20:38:59","新北市樹林區中山路三段210-2號","121.38077","24.9670633333333","6501300","土城區"
"242034","AAC-296","2018/05/07 20:39:04","新北市新莊區中正路334巷20號","121.445726666667","25.03572","6500500","新莊區"
"242058","986-R7","2018/05/07 20:39:00","新北市新莊區民安路144巷9號","121.424023333333","25.0253083333333","6500500","新莊區"
"242027","615-BX","2018/05/07 20:39:00","新北市新莊區思源路89號","121.45985","25.0414583333333","6500500","新莊區"
"242025","613-BX","2018/05/07 20:38:58","新北市新莊區化成路579巷1號","121.464396666667","25.0661583333333","6500500","新莊區"
"242029","612-BX","2018/05/07 20:38:59","新北市新莊區中華路二段9號","121.453696666667","25.045425","6500500","新莊區"
"242042","566-BX","2018/05/07 20:39:08","新北市新莊區中正路700-11號","121.417763333333","25.02782","6500500","新莊區"
"242046","497-BY","2018/05/07 20:39:05","新北市新莊區裕民街56號","121.418716666667","25.0245466666667","6500500","新莊區"
"242044","442-UM","2018/05/07 20:39:03","新北市新莊區中正路新生巷85弄1號","121.417073333333","25.0218","6500500","新莊區"
"242050","441-UM","2018/05/07 20:39:03","新北市新莊區民安西路237號","121.426028333333","25.01399","6500500","新莊區"
"242056","440-UM","2018/05/07 20:38:54","新北市新莊區瓊泰路70號","121.443273333333","25.02892","6500500","新莊區"
"242007","413-TV","2018/05/07 20:38:52","新北市新莊區思源路263號","121.45984","25.0475916666667","6500500","新莊區"
"242023","362-BY","2018/05/07 20:39:11","新北市新莊區化成路182號","121.465608333333","25.0458116666667","6500500","新莊區"
"242060","353-BY","2018/05/07 20:38:58","新北市新莊區新樹路258巷3號","121.432181666667","25.0156266666667","6500500","新莊區"
"242039","133-UY","2018/05/07 20:38:54","新北市新莊區民安路308號","121.428366666667","25.0219333333333","6500500","新莊區"
"242031","135-UY","2018/05/07 20:38:53","新北市新莊區中正路508巷5弄2號","121.435053333333","25.0338783333333","6500500","新莊區"
"242048","172-VK","2018/05/07 20:38:52","新北市新莊區中正路530號","121.431041666667","25.0315133333333","6500500","新莊區"
"242011","173-VK","2018/05/07 20:39:01","新北市新莊區中原路311號","121.446955","25.05393","6500500","新莊區"
"242017","175-VK","2018/05/07 20:39:00","新北市新莊區中港一街140號","121.447886666667","25.0453083333333","6500500","新莊區"
"242015","346-TH","2018/05/07 20:39:00","新北市新莊區中和街21號","121.448196666667","25.0437916666667","6500500","新莊區"
"242009","347-TH","2018/05/07 20:39:02","新北市新莊區昌隆街90號","121.456135","25.0507683333333","6500500","新莊區"
"242021","348-TH","2018/05/07 20:39:04","新北市新莊區公園路80號","121.450163333333","25.039715","6500500","新莊區"
"242036","349-TH","2018/05/07 20:39:05","新北市新莊區建安街5號","121.42883","25.026745","6500500","新莊區"
"242019","350-TH","2018/05/07 20:38:48","新北市新莊區銘德街113號","121.455565","25.0432166666667","6500500","新莊區"
"242013","351-TH","2018/05/07 20:38:55","新北市新莊區中和街175巷7號","121.44731","25.0506266666667","6500500","新莊區"
"221008","489-VK","2018/05/07 20:38:58","新北市汐止區康寧街688號","121.637123333333","25.0717566666667","6501100","汐止區"
"221036","130-UY","2018/05/07 20:39:03","新北市汐止區忠孝東路255巷10號","121.66234","25.0679366666667","6501100","汐止區"
"221015","131-UY","2018/05/07 20:39:01","新北市汐止區建成路30號","121.6642","25.072695","6501100","汐止區"
"221023","279-VK","2018/05/07 20:39:01","新北市汐止區明峰街12-1號","121.635008333333","25.0715683333333","6501100","汐止區"
"221032","280-BY","2018/05/07 20:38:57","新北市汐止區弘道街53巷28號","121.618795","25.0499033333333","6501100","汐止區"
"221027","281-BY","2018/05/07 20:38:54","新北市汐止區大同路二段567號","121.662875","25.0699066666667","6501100","汐止區"
"221029","298-VK","2018/05/07 20:39:05","新北市汐止區大同路一段437號","121.643136666667","25.0610116666667","6501100","汐止區"
"221021","299-VK","2018/05/07 20:38:57","新北市汐止區水源路一段293號","121.654388333333","25.0582683333333","6501100","汐止區"
"221031","353-TW","2018/05/07 20:38:59","新北市汐止區工建路316號","121.634001666667","25.0607516666667","6501100","汐止區"
"221035","622-UM","2018/05/07 20:39:07","新北市汐止區長江街101-5號","121.658723333333","25.0731933333333","6501100","汐止區"
"221025","623-UM","2018/05/07 20:38:50","新北市汐止區水源路二段156號","121.657595","25.0543066666667","6501100","汐止區"
"221038","646-BX","2018/05/07 20:38:53","新北市汐止區新興路3號","121.656316666667","25.0651166666667","6501100","汐止區"
"221033","647-BX","2018/05/07 20:39:05","新北市汐止區合順街18巷8弄5號","121.620361666667","25.0419","6501100","汐止區"
"221002","707-TV","2018/05/07 20:38:56","新北市汐止區福德二路165號","121.631028333333","25.0651433333333","6501100","汐止區"
"221018","753-BX","2018/05/07 20:39:05","新北市汐止區茄苳路112號","121.66783","25.0703016666667","6501100","汐止區"
"242002","KEA-2550","2018/05/07 20:39:00","新北市新莊區明中街43巷29號","121.456955","25.0385483333333","6500500","新莊區"
"220101","245-BX","2018/05/07 20:38:50","新北市五股區中直路13-7號","121.424051666667","25.1108216666667","6500100","板橋區"
"220094","285-UM","2018/05/07 20:38:55","新北市林口區太平里180號","121.366685","25.133875","6500100","板橋區"
"242053","280-VK","2018/05/07 20:39:03","新北市新莊區西盛街344巷14號","121.427508333333","25.0141733333333","6500500","新莊區"
"220035","560-BX","2018/05/07 20:39:04","新北市板橋區中正路275巷62弄1號","121.453001666667","25.0183166666667","6500100","板橋區"
"220103","561-BX","2018/05/07 20:39:11","新北市板橋區漢生東路73巷26號","121.467241666667","25.0169466666667","6500100","板橋區"
"220070","AAC-253","2018/05/07 20:38:52","新北市五股區新五路三段2號","121.444975","25.0884566666667","6500100","板橋區"
