"lineid","car","time","location","longitude","latitude","cityid","cityname"
"235010","733-UM","2018/05/07 21:40:32","新北市中和區員山路36巷13號","121.484141666667","24.9908016666667","6500300","中和區"
"247010","341-TH","2018/05/07 22:06:40","新北市林口區太平里180號","121.367846666667","25.1340566666667","6501400","蘆洲區"
"235029","251-BX","2018/05/07 21:59:33","新北市中和區員山路36巷16-2號","121.48526","24.9913383333333","6500300","中和區"
"251004","009-UM","2018/05/07 22:08:49","新北市淡水區民族路33號","121.462295","25.1357916666667","6501000","淡水區"
"251005","010-UM","2018/05/07 22:08:46","新北市淡水區學府路126號","121.450301666667","25.1724566666667","6501000","淡水區"
"251001","011-UM","2018/05/07 22:08:35","新北市淡水區下圭柔山90-8號","121.431136666667","25.2114833333333","6501000","淡水區"
"251008","181-VK","2018/05/07 22:08:43","新北市淡水區學府路104號","121.449865","25.171805","6501000","淡水區"
"251010","413-VK","2018/05/07 22:08:36","新北市淡水區沙崙路200號","121.424786666667","25.1839233333333","6501000","淡水區"
"251007","442-VK","2018/05/07 22:08:44","新北市淡水區北新路180號","121.449411666667","25.1787716666667","6501000","淡水區"
"251011","650-BX","2018/05/07 22:08:45","新北市淡水區水碓街7號","121.443193333333","25.1770916666667","6501000","淡水區"
"242009","347-TH","2018/05/07 22:08:41","新北市八里區下罟子1-7號","121.39209","25.1412","6500500","新莊區"
"239006","661-UM","2018/05/07 22:04:29","新北市鶯歌區二甲路12-2號","121.345498333333","24.9347033333333","6500800","鶯歌區"
