"lineid","car","time","location","longitude","latitude","cityid","cityname"
"248005","653-BX","2018/05/08 07:37:16","新北市五股區明德路12巷1號","121.433291666667","25.0717383333333","6501500","五股區"
"244002","248-BX","2018/05/08 07:49:01","新北市林口區下福里1鄰3-1號","121.324125","25.0952416666667","6501700","林口區"
"222004","289-BY","2018/05/08 07:48:51","新北市深坑區文化街78號","121.61801","25.001965","6501800","深坑區"
"231007","189-VK","2018/05/08 07:49:03","新北市新店區安華路28-1號","121.519716666667","24.961475","6500600","新店區"
"231009","192-VK","2018/05/08 07:48:48","新北市新店區安華路28-1號","121.519313333333","24.9613416666667","6500600","新店區"
"235001","611-BX","2018/05/08 07:48:44","新北市中和區圓通路367巷4號","121.4915","24.9893633333333","6500300","中和區"
"226005","5620-A6","2018/05/08 07:48:48","新北市平溪區石底里公園街18-3號","121.733458333333","25.0257383333333","6502400","平溪區"
"226002","7418-A5","2018/05/08 07:48:49","新北市平溪區平湖里坑頭3-2號","121.784101666667","25.025925","6502400","平溪區"
"226006","AGD-0702","2018/05/08 07:49:04","新北市平溪區新寮里頂寮子62-1號","121.774595","25.0511","6502400","平溪區"
"223006","022-BY","2018/05/08 07:49:03","新北市坪林區北宜路八段558號","121.717086666667","24.9095433333333","6501900","石碇區"
"223002","KEA-2673","2018/05/08 07:48:46","新北市石碇區北宜路六段獅子頭坑巷6-1號","121.645281666667","24.9419683333333","6501900","石碇區"
"223001","205-TH","2018/05/08 07:44:47","新北市石碇區樟空子10-2號","121.666855","24.9622133333333","6501900","石碇區"
"223008","406-TH","2018/05/08 07:36:02","新北市石碇區靜安路一段337號","121.698833333333","25.01468","6501900","石碇區"
"223001","592-UM","2018/05/08 07:48:48","新北市石碇區樟空子10-3號","121.666763333333","24.9635733333333","6501900","石碇區"
"223004","660-BX","2018/05/08 07:48:47","新北市石碇區楓子林30號","121.642305","25.00953","6501900","石碇區"
"223007","661-BX","2018/05/08 07:48:52","新北市石碇區靜安路一段337號","121.698925","25.0144716666667","6501900","石碇區"
"223005","677-TV","2018/05/08 07:48:47","新北市石碇區楓子林30號","121.642303333333","25.0096233333333","6501900","石碇區"
"227006","282-VK","2018/05/08 07:49:01","新北市雙溪區雙溪里太平路54號","121.864795","25.0355566666667","6502500","雙溪區"
"252002","178-VK","2018/05/08 07:48:57","新北市三芝區中山路二段50號","121.5032","25.2543566666667","6502100","三芝區"
"252004","249-BX","2018/05/08 07:48:46","新北市三芝區興華里車埕36-21號","121.505838333333","25.19302","6502100","三芝區"
"252007","AAC-283","2018/05/08 07:48:52","新北市三芝區後厝里北勢子12-1號","121.474713333333","25.2551616666667","6502100","三芝區"
"237001","159-UY","2018/05/08 07:48:58","新北市三峽區大學路77號","121.376175","24.9415666666667","6500900","三峽區"
"236008","165-UM","2018/05/08 07:48:44","新北市土城區延吉街395號","121.463085","24.9840016666667","6501300","土城區"
"236002","339-SR","2018/05/08 07:48:48","新北市土城區龍泉路68-6號","121.425501666667","24.9422616666667","6501300","土城區"
"220070","282-UM","2018/05/08 07:48:43","新北市板橋區府中路67號","121.458061666667","25.0094266666667","6500100","板橋區"
