"lineid","car","time","location","longitude","latitude","cityid","cityname"
"248004","653-BX","2018/11/10 08:39:00","新北市五股區明德路10號","121.433455","25.0717516666667","6501500","五股區"
"222004","289-BY","2018/11/10 08:38:57","新北市深坑區昇高坑路15號","121.624418333333","25.0005683333333","6501800","深坑區"
"231007","189-VK","2018/11/10 08:39:02","新北市新店區新潭路三段236號","121.501486666667","24.9029783333333","6500600","新店區"
"231008","192-VK","2018/11/10 08:38:54","新北市烏來區新烏路四段2號","121.548311666667","24.8923266666667","6500600","新店區"
"235001","611-BX","2018/11/10 08:38:52","新北市中和區員山路425號","121.480966666667","25.003535","6500300","中和區"
"226005","5620-A6","2018/11/10 08:39:02","新北市平溪區南山里乾坑10號","121.788238333333","25.0469916666667","6502400","平溪區"
"226007","7418-A5","2018/11/10 08:38:51","新北市平溪區東勢里芊蓁坑29號","121.729013333333","24.979105","6502400","平溪區"
"226003","AGD-0702","2018/11/10 08:38:46","新北市平溪區十分里十分街238號","121.778088333333","25.0441133333333","6502400","平溪區"
"223006","022-BY","2018/11/10 08:37:19","新北市深坑區北深路一段152號","121.6347","25.0110283333333","6501900","石碇區"
"223003","205-TH","2018/11/10 08:38:57","新北市石碇區北宜路六段水底寮巷12號","121.666273333333","24.94325","6501900","石碇區"
"223008","406-TH","2018/11/10 08:38:52","新北市石碇區碇南路二段松柏崎巷51號","121.678448333333","25.0259266666667","6501900","石碇區"
"223004","437-BY","2018/11/10 08:38:50","新北市石碇區崩山47號","121.67856","24.9703133333333","6501900","石碇區"
"223001","592-UM","2018/11/10 08:39:08","新北市石碇區北宜路六段水底寮巷25號","121.665685","24.9442883333333","6501900","石碇區"
"223007","661-BX","2018/11/10 08:38:57","新北市石碇區十八重溪68-2號","121.672106666667","25.0178683333333","6501900","石碇區"
"223005","677-TV","2018/11/10 08:39:10","新北市石碇區崩山57-3號","121.68234","24.9661416666667","6501900","石碇區"
"227006","282-VK","2018/11/10 08:39:05","新北市雙溪區上林里大瀨1號","121.829971666667","25.0252266666667","6502500","雙溪區"
"252004","249-BX","2018/11/10 08:39:00","新北市三芝區興華里田心子11-2號","121.494026666667","25.20606","6502100","三芝區"
"252005","AAC-283","2018/11/10 08:38:58","新北市三芝區錫板里番婆林44號","121.493046666667","25.236785","6502100","三芝區"
"237001","159-UY","2018/11/10 08:39:02","新北市三峽區學勤路119號","121.375365","24.9465616666667","6500900","三峽區"
