"lineid","car","time","location","longitude","latitude","cityid","cityname"
"248004","653-BX","2018/11/10 08:49:00","新北市五股區明德路12巷8號","121.433376666667","25.07193","6501500","五股區"
"222004","289-BY","2018/11/10 08:47:57","新北市深坑區王軍寮14-1號","121.622111666667","24.9846916666667","6501800","深坑區"
"231007","189-VK","2018/11/10 08:49:02","新北市新店區新潭路三段215巷25號","121.508101666667","24.904075","6500600","新店區"
"231008","192-VK","2018/11/10 08:48:54","新北市新店區松林路23號","121.547886666667","24.91028","6500600","新店區"
"235001","611-BX","2018/11/10 08:48:52","新北市中和區民享街86巷29號","121.472916666667","25.000405","6500300","中和區"
"226005","5620-A6","2018/11/10 08:49:02","新北市平溪區十分里十分街96-1號","121.777175","25.042345","6502400","平溪區"
"226007","7418-A5","2018/11/10 08:48:51","新北市平溪區東勢里芊蓁坑30號","121.727501666667","24.9791566666667","6502400","平溪區"
"226003","AGD-0702","2018/11/10 08:47:26","新北市平溪區望古里望古坑21-5號","121.760801666667","25.033515","6502400","平溪區"
"223006","022-BY","2018/11/10 08:48:59","新北市深坑區昇高坑路26號","121.62621","25.0003383333333","6501900","石碇區"
"223003","205-TH","2018/11/10 08:48:57","新北市石碇區北宜路五段66號","121.63834","24.9537083333333","6501900","石碇區"
"223008","406-TH","2018/11/10 08:48:52","新北市石碇區光明路13號","121.680113333333","25.033655","6501900","石碇區"
"223004","437-BY","2018/11/10 08:49:10","新北市石碇區碇坪路二段72號","121.684135","24.9671283333333","6501900","石碇區"
"223001","592-UM","2018/11/10 08:49:08","新北市石碇區北宜路五段十股寮巷12號","121.643871666667","24.95335","6501900","石碇區"
"223007","661-BX","2018/11/10 08:48:57","新北市石碇區光明路10號","121.681305","25.0280716666667","6501900","石碇區"
"223005","677-TV","2018/11/10 08:49:05","新北市石碇區碇坪路二段65號","121.685168333333","24.9666983333333","6501900","石碇區"
"227006","282-VK","2018/11/10 08:49:05","新北市雙溪區上林里大瀨4-1號","121.829651666667","25.0246866666667","6502500","雙溪區"
"252004","249-BX","2018/11/10 08:49:00","新北市三芝區興華里田心子15-14號","121.492773333333","25.2042166666667","6502100","三芝區"
"252005","AAC-283","2018/11/10 08:48:58","新北市三芝區後厝里北勢子42-8號","121.473885","25.252125","6502100","三芝區"
"237001","159-UY","2018/11/10 08:49:02","新北市三峽區大德路268號","121.374333333333","24.947915","6500900","三峽區"
