"lineid","car","time","location","longitude","latitude","cityid","cityname"
"234068","552-UM","2018/11/10 12:18:58","新北市永和區福和路1號","121.526365","25.0098433333333","6500400","永和區"
"234040","862-TW","2018/11/10 12:19:08","新北市永和區福和路1號","121.525546666667","25.00953","6500400","永和區"
"231008","192-VK","2018/11/10 12:19:14","新北市新店區薏仁坑路自強巷6號","121.496536666667","24.9584683333333","6500600","新店區"
"235029","098-UM","2018/11/10 12:18:57","新北市中和區員山路36巷16-3號","121.485026666667","24.991235","6500300","中和區"
"235018","640-BX","2018/11/10 12:19:04","新北市中和區員山路36巷16-2號","121.485278333333","24.9918433333333","6500300","中和區"
"235017","900-TW","2018/11/10 12:13:49","新北市中和區和城路一段271巷1號","121.485643333333","24.9916583333333","6500300","中和區"
"228005","097-TW","2018/11/10 12:19:11","新北市貢寮區福連里香蘭街34號","121.987685","25.019395","6502600","貢寮區"
"228004","212-TW","2018/11/10 12:19:13","新北市貢寮區貢寮里長泰路17-2號","121.891831666667","25.0211333333333","6502600","貢寮區"
"237001","159-UY","2018/11/10 12:19:14","新北市三峽區中山路459巷163-1號","121.349258333333","24.9334833333333","6500900","三峽區"
"239006","661-UM","2018/11/10 12:19:07","新北市鶯歌區中正一路479號","121.372446666667","24.9591883333333","6500800","鶯歌區"
