"lineid","car","time","location","longitude","latitude","cityid","cityname"
"234044","148-BY","2018/11/10 12:49:04","新北市永和區秀朗路二段126巷1號","121.524858333333","25.0012583333333","6500400","永和區"
"234005","207-UY","2018/11/10 12:49:12","新北市永和區文化路14號","121.515423333333","25.015095","6500400","永和區"
"234078","298-R6","2018/11/10 12:49:11","新北市永和區永利路130號","121.52172","25.0030466666667","6500400","永和區"
"234036","336-UY","2018/11/10 12:49:01","新北市永和區成功路一段2號","121.52715","25.005615","6500400","永和區"
"234062","337-UY","2018/11/10 12:49:09","新北市永和區福和路1號","121.526325","25.00968","6500400","永和區"
"234084","338-UY","2018/11/10 12:49:05","新北市永和區中正路49號","121.514528333333","24.99625","6500400","永和區"
"234068","552-UM","2018/11/10 12:48:58","新北市永和區竹林路112-4號","121.519798333333","25.01152","6500400","永和區"
"234015","745-BX","2018/11/10 12:49:08","新北市永和區永和路二段299號","121.51608","25.0161333333333","6500400","永和區"
"234028","746-BX","2018/11/10 12:49:03","新北市永和區得和路321號","121.523375","24.99963","6500400","永和區"
"234052","KEA-2590","2018/11/10 12:48:58","新北市永和區環河東路二段90號","121.52426","25.0107","6500400","永和區"
"234012","KEA-2591","2018/11/10 12:49:11","新北市永和區保福路二段133巷30號","121.509026666667","25.0134633333333","6500400","永和區"
"234060","AAD-866","2018/11/10 12:48:58","新北市永和區中正路612號","121.517051666667","25.0075033333333","6500400","永和區"
"234040","862-TW","2018/11/10 12:49:08","新北市永和區永貞路304號","121.51195","25.0047983333333","6500400","永和區"
"234048","863-TW","2018/11/10 12:49:11","新北市永和區福和路1號","121.52624","25.0101816666667","6500400","永和區"
"234025","9371-KE","2018/11/10 12:49:03","新北市永和區永和路一段202號","121.514266666667","25.0091866666667","6500400","永和區"
"234010","9373-KE","2018/11/10 12:49:10","新北市永和區保福路二段158巷3號","121.509173333333","25.0150766666667","6500400","永和區"
"248017","225-UY","2018/11/10 12:49:15","新北市五股區中興路二段83巷26-3號","121.460078333333","25.07544","6501500","五股區"
"234022","9380-KE","2018/11/10 12:49:10","新北市永和區竹林路119巷53弄1號","121.522145","25.0118966666667","6500400","永和區"
"234076","969-R7","2018/11/10 12:48:56","新北市中和區安樂路101-3號","121.513485","24.99506","6500400","永和區"
"234066","AAC-212","2018/11/10 12:49:08","新北市中和區永貞路251號","121.512895","25.0041133333333","6500400","永和區"
"234001","AAC-295","2018/11/10 12:49:03","新北市永和區中正路653號","121.515051666667","25.0101733333333","6500400","永和區"
"244005","248-BX","2018/11/10 12:49:00","新北市林口區粉寮路一段137號","121.398985","25.081135","6501700","林口區"
"231005","001-UM","2018/11/10 12:49:02","新北市新店區安華路28-1號","121.51946","24.9609083333333","6500600","新店區"
"231001","047-UY","2018/11/10 12:49:08","新北市新店區安一路一段1-1號","121.519078333333","24.9609633333333","6500600","新店區"
"231033","188-VK","2018/11/10 12:49:00","新北市新店區安一路一段1-1號","121.519108333333","24.9611633333333","6500600","新店區"
"231003","268-BY","2018/11/10 12:49:03","新北市新店區安華路28-1號","121.519373333333","24.9606716666667","6500600","新店區"
"231017","AAD-862","2018/11/10 12:48:55","新北市新店區安一路一段1-1號","121.520215","24.9611683333333","6500600","新店區"
"231036","512-UM","2018/11/10 12:49:05","新北市新店區安一路一段1-1號","121.519326666667","24.96121","6500600","新店區"
"231013","513-UM","2018/11/10 12:49:12","新北市新店區安一路一段1-1號","121.519611666667","24.9611566666667","6500600","新店區"
"231030","619-UM","2018/11/10 12:49:03","新北市新店區安華路28-1號","121.519453333333","24.96074","6500600","新店區"
"231034","641-BX","2018/11/10 12:49:00","新北市新店區安華路28-1號","121.519646666667","24.960585","6500600","新店區"
"231035","719-UM","2018/11/10 12:49:06","新北市新店區安一路一段1-1號","121.519496666667","24.961275","6500600","新店區"
"235028","005-UY","2018/11/10 12:49:14","新北市中和區員山路36巷16-3號","121.485035","24.9913816666667","6500300","中和區"
"235029","098-UM","2018/11/10 12:48:57","新北市中和區中正路701號","121.485335","24.9984216666667","6500300","中和區"
"235022","151-BY","2018/11/10 12:49:11","新北市中和區圓通路367巷4號","121.491415","24.9893633333333","6500300","中和區"
"235019","183-VK","2018/11/10 12:49:04","新北市中和區員山路36巷16-3號","121.484966666667","24.9914333333333","6500300","中和區"
"235033","4980-A6","2018/11/10 12:48:57","新北市中和區員山路36巷16-3號","121.484881666667","24.99137","6500300","中和區"
"235001","611-BX","2018/11/10 12:49:14","新北市中和區中山路三段136巷2號","121.473933333333","25.00665","6500300","中和區"
"235018","640-BX","2018/11/10 12:48:44","新北市中和區和城路一段271巷1號","121.485351666667","24.9918266666667","6500300","中和區"
"235011","732-UM","2018/11/10 12:48:05","新北市中和區員山路36巷16-2號","121.485253333333","24.9915633333333","6500300","中和區"
"228005","097-TW","2018/11/10 12:49:11","新北市貢寮區福連里福連街34-1號","121.988671666667","25.011135","6502600","貢寮區"
"228004","212-TW","2018/11/10 12:49:13","新北市萬里區雙興里豐稟路20-2號","121.889705","24.9944616666667","6502600","貢寮區"
"207002","749-BX","2018/11/10 12:49:10","新北市萬里區雙興里二坪路30號","121.645505","25.1685883333333","6502800","萬里區"
"207001","662-BX","2018/11/10 12:48:58","新北市萬里區萬里里瑪鋉路261-1號","121.689828333333","25.1794333333333","6502800","萬里區"
"237001","159-UY","2018/11/10 12:49:14","新北市三峽區中山路459巷163-1號","121.349288333333","24.9335533333333","6500900","三峽區"
"239006","661-UM","2018/11/10 12:49:07","新北市鶯歌區二甲路12-2號","121.345601666667","24.93482","6500800","鶯歌區"
"221010","269-BY","2018/11/10 12:48:51","新北市汐止區康寧街495-2號","121.632643333333","25.0685233333333","6501100","汐止區"
"221032","280-BY","2018/11/10 12:49:10","新北市汐止區大同路二段510號","121.660815","25.0683116666667","6501100","汐止區"
"221038","646-BX","2018/11/10 12:49:02","新北市汐止區汐萬路一段312號","121.650528333333","25.0752833333333","6501100","汐止區"
"221033","647-BX","2018/11/10 12:48:59","新北市汐止區汐萬路一段115巷1號","121.654395","25.0706433333333","6501100","汐止區"
"235025","KEA-2875","2018/11/10 12:30:54","新北市中和區員山路36巷16-2號","121.485203333333","24.9917083333333","6500300","中和區"
