"lineid","car","time","location","longitude","latitude","cityid","cityname"
"234044","148-BY","2018/11/10 12:59:04","新北市永和區得和路373巷16弄1號","121.525126666667","25.0003116666667","6500400","永和區"
"234005","207-UY","2018/11/10 12:59:12","新北市永和區中山路一段27號","121.513465","25.0104533333333","6500400","永和區"
"234078","298-R6","2018/11/10 12:59:11","新北市永和區國中路200號","121.522268333333","25.006175","6500400","永和區"
"234036","336-UY","2018/11/10 12:59:01","新北市永和區成功路二段203號","121.526581666667","24.9960016666667","6500400","永和區"
"234062","337-UY","2018/11/10 12:59:09","新北市永和區秀朗路一段138號","121.517898333333","25.0034166666667","6500400","永和區"
"234084","338-UY","2018/11/10 12:59:05","新北市永和區永寧街127號","121.518091666667","25.005615","6500400","永和區"
"234068","552-UM","2018/11/10 12:58:58","新北市永和區中興街68巷5弄1號","121.517925","25.0115816666667","6500400","永和區"
"234015","745-BX","2018/11/10 12:59:08","新北市永和區永和路二段310號","121.516225","25.0160833333333","6500400","永和區"
"234028","746-BX","2018/11/10 12:59:07","新北市永和區秀朗路二段289號","121.526146666667","24.998075","6500400","永和區"
"234052","KEA-2590","2018/11/10 12:59:10","新北市永和區竹林路64號","121.518226666667","25.0135183333333","6500400","永和區"
"234012","KEA-2591","2018/11/10 12:59:10","新北市永和區信義路17巷10號","121.513803333333","25.0116266666667","6500400","永和區"
"234060","AAD-866","2018/11/10 12:58:58","新北市永和區福和路309巷1號","121.516391666667","25.0070116666667","6500400","永和區"
"234040","862-TW","2018/11/10 12:59:08","新北市永和區永貞路267號","121.511863333333","25.0047683333333","6500400","永和區"
"234048","863-TW","2018/11/10 12:59:11","新北市永和區保安路2號","121.510731666667","25.0174683333333","6500400","永和區"
"234025","9371-KE","2018/11/10 12:59:03","新北市永和區水源街2巷1號","121.512605","25.0052833333333","6500400","永和區"
"234010","9373-KE","2018/11/10 12:59:10","新北市永和區仁愛路40巷9弄3號","121.513861666667","25.0140116666667","6500400","永和區"
"248017","225-UY","2018/11/10 12:58:55","新北市五股區中興路二段83巷26-3號","121.460103333333","25.07545","6501500","五股區"
"234022","9380-KE","2018/11/10 12:59:10","新北市永和區竹林路75巷17號","121.520078333333","25.0140166666667","6500400","永和區"
"234076","969-R7","2018/11/10 12:58:56","新北市永和區民享街3號","121.515078333333","24.9956033333333","6500400","永和區"
"234066","AAC-212","2018/11/10 12:59:08","新北市永和區自由街76號","121.513363333333","25.0052783333333","6500400","永和區"
"234001","AAC-295","2018/11/10 12:59:16","新北市永和區永和路一段129號","121.513793333333","25.008615","6500400","永和區"
"244005","248-BX","2018/11/10 12:59:00","新北市林口區文化三路二段302號","121.377303333333","25.0840966666667","6501700","林口區"
"231005","001-UM","2018/11/10 12:59:02","新北市新店區安華路28-1號","121.51957","24.96099","6500600","新店區"
"231037","0291-UT","2018/11/10 12:59:07","新北市新店區安華路28-1號","121.519216666667","24.96068","6500600","新店區"
"231001","047-UY","2018/11/10 12:59:08","新北市新店區安一路一段1-1號","121.518991666667","24.9609583333333","6500600","新店區"
"231023","110-UY","2018/11/10 12:59:05","新北市新店區安一路一段1-1號","121.51977","24.9615016666667","6500600","新店區"
"231012","187-VK","2018/11/10 12:59:01","新北市新店區安一路一段1-1號","121.519856666667","24.9612783333333","6500600","新店區"
"231033","188-VK","2018/11/10 12:59:00","新北市新店區安一路一段1-1號","121.519258333333","24.961175","6500600","新店區"
"231003","268-BY","2018/11/10 12:59:03","新北市新店區安華路28-1號","121.519368333333","24.9605883333333","6500600","新店區"
"231017","AAD-862","2018/11/10 12:59:15","新北市新店區安一路一段1-1號","121.519723333333","24.9612933333333","6500600","新店區"
"231028","355-BY","2018/11/10 12:58:56","新北市新店區安華路30巷1號","121.519441666667","24.959725","6500600","新店區"
"231036","512-UM","2018/11/10 12:59:05","新北市新店區安一路一段1-1號","121.519318333333","24.9614516666667","6500600","新店區"
"231013","513-UM","2018/11/10 12:59:12","新北市新店區安一路一段1-1號","121.519748333333","24.96153","6500600","新店區"
"231030","619-UM","2018/11/10 12:59:03","新北市新店區安華路28-1號","121.51947","24.96087","6500600","新店區"
"231034","641-BX","2018/11/10 12:59:00","新北市新店區安華路28-1號","121.519761666667","24.96056","6500600","新店區"
"231035","719-UM","2018/11/10 12:59:06","新北市新店區安一路一段1-1號","121.51968","24.9611183333333","6500600","新店區"
"231029","897-TW","2018/11/10 12:59:00","新北市新店區安華路28-1號","121.519601666667","24.96071","6500600","新店區"
"231006","898-TW","2018/11/10 12:58:58","新北市新店區安華路28-1號","121.519345","24.9609033333333","6500600","新店區"
"231024","AKT-0513","2018/11/10 12:58:57","新北市新店區安華路1-1號","121.519363333333","24.960515","6500600","新店區"
"235028","005-UY","2018/11/10 12:58:55","新北市中和區員山路36巷16-3號","121.484858333333","24.9913266666667","6500300","中和區"
"235029","098-UM","2018/11/10 12:59:17","新北市中和區橋和路270號","121.495728333333","25.0064016666667","6500300","中和區"
"235022","151-BY","2018/11/10 12:59:11","新北市中和區圓通路367巷29號","121.492553333333","24.9855716666667","6500300","中和區"
"235019","183-VK","2018/11/10 12:59:04","新北市中和區員山路36巷16-3號","121.484971666667","24.99143","6500300","中和區"
"235006","KEA-2878","2018/11/10 12:59:11","新北市中和區圓通路208號","121.495865","24.9939","6500300","中和區"
"235033","4980-A6","2018/11/10 12:58:57","新北市中和區員山路36巷16-3號","121.484931666667","24.9913683333333","6500300","中和區"
"235018","640-BX","2018/11/10 12:59:04","新北市中和區員山路36巷16-2號","121.48531","24.99184","6500300","中和區"
"235011","732-UM","2018/11/10 12:58:58","新北市中和區和城路一段271巷1號","121.485383333333","24.99181","6500300","中和區"
"235035","783-BX","2018/11/10 12:59:12","新北市中和區連城路314號","121.48361","24.99616","6500300","中和區"
"235026","800-TS","2018/11/10 12:59:13","新北市中和區連城路226號","121.489936666667","24.9967633333333","6500300","中和區"
"235016","805-TS","2018/11/10 12:59:02","新北市中和區員山路36巷16號","121.484388333333","24.9915066666667","6500300","中和區"
"235015","157-BY","2018/11/10 12:59:09","新北市中和區員山路36巷13號","121.484028333333","24.990885","6500300","中和區"
"228005","097-TW","2018/11/10 12:59:11","新北市貢寮區福隆里桂安街17號","121.966668333333","25.0229383333333","6502600","貢寮區"
"228004","212-TW","2018/11/10 12:59:13","新北市貢寮區吉林里內寮街57號","121.886503333333","24.9868116666667","6502600","貢寮區"
"253004","6251-TK","2018/11/10 12:59:12","新北市石門區中山路64-1號","121.567565","25.290365","6502200","石門區"
"207002","749-BX","2018/11/10 12:59:10","新北市萬里區雙興里大坪路39號","121.625373333333","25.1715","6502800","萬里區"
"252005","073-UM","2018/11/10 12:59:09","新北市三芝區忠孝街2號","121.505766666667","25.2547616666667","6502100","三芝區"
"207001","662-BX","2018/11/10 12:58:58","新北市萬里區萬里里獅頭路23號","121.693253333333","25.1782733333333","6502800","萬里區"
"237001","159-UY","2018/11/10 12:59:14","新北市三峽區中山路459巷163-1號","121.349288333333","24.9335516666667","6500900","三峽區"
"242050","172-VK","2018/11/10 12:59:03","新北市新莊區建國一路75號","121.434883333333","25.0293583333333","6500500","新莊區"
"239006","661-UM","2018/11/10 12:59:07","新北市鶯歌區二甲路12-2號","121.345551666667","24.9347383333333","6500800","鶯歌區"
"221010","269-BY","2018/11/10 12:59:11","新北市汐止區忠一街6號","121.621075","25.0730383333333","6501100","汐止區"
"221032","280-BY","2018/11/10 12:59:09","新北市汐止區建成路52號","121.663555","25.072925","6501100","汐止區"
"221029","298-VK","2018/11/10 12:58:47","新北市汐止區中興路232-1號","121.630111666667","25.06752","6501100","汐止區"
"221038","646-BX","2018/11/10 12:59:02","新北市汐止區新台五路二段114號","121.662823333333","25.0660916666667","6501100","汐止區"
"221033","647-BX","2018/11/10 12:58:59","新北市汐止區新興路85巷2號","121.658035","25.0613366666667","6501100","汐止區"
"235025","KEA-2875","2018/11/10 12:30:54","新北市中和區員山路36巷16-2號","121.485203333333","24.9917083333333","6500300","中和區"
