"lineid","car","time","location","longitude","latitude","cityid","cityname"
"234044","148-BY","2018/11/10 13:29:43","新北市永和區秀朗路二段232號","121.526143333333","24.9993866666667","6500400","永和區"
"234005","207-UY","2018/11/10 13:29:32","新北市永和區中山路一段106號","121.510941666667","25.0104816666667","6500400","永和區"
"234078","298-R6","2018/11/10 13:29:43","新北市永和區福和路5-9號","121.525448333333","25.0084933333333","6500400","永和區"
"234036","336-UY","2018/11/10 13:29:46","新北市永和區民樂街31巷2號","121.527655","25.00144","6500400","永和區"
"234062","337-UY","2018/11/10 13:29:29","新北市永和區中正路368巷1弄75號","121.520361666667","25.0008266666667","6500400","永和區"
"234084","338-UY","2018/11/10 13:29:45","新北市永和區成功路一段28巷14號","121.526308333333","25.004825","6500400","永和區"
"234068","552-UM","2018/11/10 13:29:38","新北市永和區竹林路181號","121.520611666667","25.00972","6500400","永和區"
"234015","745-BX","2018/11/10 13:29:28","新北市永和區環河西路一段1號","121.515306666667","25.0180933333333","6500400","永和區"
"234028","746-BX","2018/11/10 13:29:43","新北市永和區四維街62號","121.524436666667","24.9982283333333","6500400","永和區"
"234052","KEA-2590","2018/11/10 13:29:37","新北市永和區復興街1巷2號","121.515726666667","25.0129366666667","6500400","永和區"
"234012","KEA-2591","2018/11/10 13:29:30","新北市永和區中山路一段184巷9弄19號","121.508121666667","25.008905","6500400","永和區"
"234060","AAD-866","2018/11/10 13:29:40","新北市永和區永貞路173號","121.515296666667","25.00391","6500400","永和區"
"234040","862-TW","2018/11/10 13:29:28","新北市永和區水源街39巷30號","121.510711666667","25.0030666666667","6500400","永和區"
"234048","863-TW","2018/11/10 13:29:32","新北市永和區仁愛路86號","121.512656666667","25.0132933333333","6500400","永和區"
"234025","9371-KE","2018/11/10 13:29:43","新北市永和區中山路一段17巷4弄12號","121.51327","25.0102466666667","6500400","永和區"
"234010","9373-KE","2018/11/10 13:29:30","新北市永和區信義路83號","121.51243","25.0134983333333","6500400","永和區"
"248017","225-UY","2018/11/10 13:29:35","新北市五股區民義路二段52巷22號","121.41563","25.1104316666667","6501500","五股區"
"234022","9380-KE","2018/11/10 13:29:30","新北市永和區環河東路二段20號","121.522428333333","25.01303","6500400","永和區"
"234076","969-R7","2018/11/10 13:29:36","新北市永和區智光街32巷1號","121.517748333333","24.9987116666667","6500400","永和區"
"234072","AAC-211","2018/11/10 13:29:25","新北市永和區光復街60巷16號","121.517548333333","25.0176866666667","6500400","永和區"
"234066","AAC-212","2018/11/10 13:29:28","新北市永和區永貞路412號","121.508958333333","25.0078916666667","6500400","永和區"
"234001","AAC-295","2018/11/10 13:29:23","新北市永和區永和路一段107號","121.513865","25.008005","6500400","永和區"
"231005","001-UM","2018/11/10 13:29:42","新北市新店區光明街179號","121.539586666667","24.96287","6500600","新店區"
"231002","002-UM","2018/11/10 13:29:26","新北市新店區環河路62號","121.537093333333","24.9626566666667","6500600","新店區"
"231037","0291-UT","2018/11/10 13:29:47","新北市新店區安豐路37號","121.500591666667","24.9562533333333","6500600","新店區"
"231027","0293-UT","2018/11/10 13:29:44","新北市新店區北新路一段43號","121.538111666667","24.959455","6500600","新店區"
"231001","047-UY","2018/11/10 13:29:28","新北市新店區環河路118號","121.53682","24.9678566666667","6500600","新店區"
"231010","107-UY","2018/11/10 13:29:37","新北市新店區自由街27號","121.534976666667","24.9743783333333","6500600","新店區"
"231020","108-UY","2018/11/10 13:29:40","新北市新店區新烏路一段58-2號","121.546071666667","24.946545","6500600","新店區"
"231023","110-UY","2018/11/10 13:29:25","新北市新店區新店路13號","121.540321666667","24.95284","6500600","新店區"
"231012","187-VK","2018/11/10 13:29:41","新北市新店區北新路一段341號","121.54198","24.96886","6500600","新店區"
"231033","188-VK","2018/11/10 13:29:40","新北市新店區車子路10-4號","121.505158333333","24.9546016666667","6500600","新店區"
"231026","256-BX","2018/11/10 13:29:34","新北市新店區環河路1-2號","121.538123333333","24.9615983333333","6500600","新店區"
"231003","268-BY","2018/11/10 13:29:43","新北市新店區安康路一段9-2號","121.533778333333","24.9605233333333","6500600","新店區"
"231018","278-BY","2018/11/10 13:29:44","新北市新店區中央路208-1號","121.53018","24.9737083333333","6500600","新店區"
"231017","AAD-862","2018/11/10 13:29:35","新北市新店區北宜路二段62號","121.54952","24.9513966666667","6500600","新店區"
"231028","355-BY","2018/11/10 13:29:35","新北市新店區安一路一段1-1號","121.519111666667","24.9609783333333","6500600","新店區"
"231038","3712-VJ","2018/11/10 13:29:30","新北市新店區安華路28-1號","121.519415","24.9607366666667","6500600","新店區"
"231025","4715-K9","2018/11/10 13:29:46","新北市新店區中央五街39號","121.528466666667","24.975095","6500600","新店區"
"231036","512-UM","2018/11/10 13:29:25","新北市新店區建業路47-1號","121.47866","24.955005","6500600","新店區"
"231013","513-UM","2018/11/10 13:29:32","新北市新店區中央路181-1號","121.535773333333","24.9691466666667","6500600","新店區"
"231030","619-UM","2018/11/10 13:29:43","新北市新店區安華路28-1號","121.519531666667","24.9609683333333","6500600","新店區"
"231034","641-BX","2018/11/10 13:29:40","新北市新店區車子路22號","121.504801666667","24.953745","6500600","新店區"
"231035","719-UM","2018/11/10 13:29:26","新北市新店區安一路一段1-1號","121.519605","24.9613416666667","6500600","新店區"
"231029","897-TW","2018/11/10 13:29:40","新北市新店區安一路一段1-1號","121.519628333333","24.9616133333333","6500600","新店區"
"231006","898-TW","2018/11/10 13:29:38","新北市新店區安康路一段35號","121.531838333333","24.9607","6500600","新店區"
"231004","899-TW","2018/11/10 13:29:42","新北市新店區安康路一段164-1號","121.525846666667","24.9630783333333","6500600","新店區"
"231024","AKT-0513","2018/11/10 13:29:37","新北市新店區北新路二段29巷2弄1號","121.542456666667","24.9727433333333","6500600","新店區"
"235030","003-UY","2018/11/10 13:29:40","新北市中和區中山路二段122號","121.502605","25.0037633333333","6500300","中和區"
"235028","005-UY","2018/11/10 13:29:42","新北市中和區連城路115號","121.496215","24.9994","6500300","中和區"
"235020","096-UM","2018/11/10 13:29:28","新北市中和區中正路830號","121.484788333333","25.00402","6500300","中和區"
"235003","097-UM","2018/11/10 13:29:44","新北市中和區大勇街27巷1號","121.51728","24.9935666666667","6500300","中和區"
"235029","098-UM","2018/11/10 13:29:37","新北市中和區中山路二段64巷20號","121.503078333333","25.00598","6500300","中和區"
"235004","150-BY","2018/11/10 13:29:40","新北市中和區保健路50巷66號","121.509181666667","24.9952433333333","6500300","中和區"
"235022","151-BY","2018/11/10 13:29:31","新北市中和區圓通路369巷72號","121.490155","24.982245","6500300","中和區"
"235019","183-VK","2018/11/10 13:29:43","新北市中和區莒光路179號","121.472708333333","24.9992683333333","6500300","中和區"
"235002","185-VK","2018/11/10 13:29:31","新北市中和區中正路277-6號","121.495131666667","24.9937166666667","6500300","中和區"
"235013","186-VK","2018/11/10 13:29:33","新北市中和區中正路277號","121.495248333333","24.99372","6500300","中和區"
"235008","293-VK","2018/11/10 13:29:35","新北市中和區復興路307號","121.50131","24.99023","6500300","中和區"
"235036","301-VK","2018/11/10 13:29:28","新北市中和區錦和路111-1號","121.490183333333","24.9951716666667","6500300","中和區"
"235007","352-BY","2018/11/10 13:29:41","新北市中和區景平路279-5號","121.507608333333","24.993125","6500300","中和區"
"235006","KEA-2878","2018/11/10 13:29:31","新北市中和區自立路185號","121.523601666667","24.9917566666667","6500300","中和區"
"235014","4979-A6","2018/11/10 13:29:32","新北市中和區景新街362巷5號","121.512015","24.990085","6500300","中和區"
"235033","4980-A6","2018/11/10 13:29:37","新北市中和區連城路99巷67號","121.49734","24.9983833333333","6500300","中和區"
"235034","558-UM","2018/11/10 13:29:29","新北市中和區南華路30號","121.503408333333","24.9962","6500300","中和區"
"235009","565-BX","2018/11/10 13:29:34","新北市中和區中正路273號","121.495691666667","24.9938716666667","6500300","中和區"
"235018","640-BX","2018/11/10 13:29:44","新北市中和區國光街2巷1號","121.472148333333","25.0002783333333","6500300","中和區"
"235024","647-TV","2018/11/10 13:29:34","新北市中和區連城路523巷13弄2號","121.481605","24.993615","6500300","中和區"
"235011","732-UM","2018/11/10 13:29:35","新北市中和區景平路253號","121.50874","24.9929566666667","6500300","中和區"
"235035","783-BX","2018/11/10 13:29:32","新北市中和區中山路二段480號","121.487666666667","25.0050266666667","6500300","中和區"
"235026","800-TS","2018/11/10 13:29:32","新北市中和區景平路740號","121.496601666667","25.0041366666667","6500300","中和區"
"235021","801-TS","2018/11/10 13:29:31","新北市中和區民享街97巷12號","121.475256666667","24.9995633333333","6500300","中和區"
"235016","805-TS","2018/11/10 13:29:42","新北市中和區興南路二段133號","121.505255","24.9842166666667","6500300","中和區"
"235012","896-TW","2018/11/10 13:29:26","新北市中和區中正路637巷60弄61號","121.48537","24.9930333333333","6500300","中和區"
"235017","900-TW","2018/11/10 13:29:39","新北市中和區連城路607號","121.477841666667","24.993015","6500300","中和區"
"235015","157-BY","2018/11/10 13:29:29","新北市中和區中正路275號","121.495428333333","24.9938583333333","6500300","中和區"
"235001","AAC-213","2018/11/10 13:29:45","新北市中和區中正路277號","121.49538","24.9937083333333","6500300","中和區"
"235023","AAC-215","2018/11/10 13:29:46","新北市中和區和城路一段271巷1號","121.485536666667","24.9917433333333","6500300","中和區"
"220013","072-UY","2018/11/10 13:29:36","新北市板橋區新府路150號","121.46501","25.01107","6500100","板橋區"
"220034","073-UY","2018/11/10 13:29:41","新北市板橋區南雅西路一段116號","121.452466666667","25.0062766666667","6500100","板橋區"
"247015","546-UM","2018/11/10 13:29:24","新北市五股區中興路三段2巷10號","121.449455","25.08085","6501400","蘆洲區"
"247009","056-VK","2018/11/10 13:29:25","新北市五股區中興路三段2巷10號","121.449156666667","25.0810866666667","6501400","蘆洲區"
"247021","001-UY","2018/11/10 13:29:28","新北市五股區中興路三段2巷10號","121.449066666667","25.0809083333333","6501400","蘆洲區"
"235005","251-BX","2018/11/10 13:29:42","新北市中和區中正路248號","121.49577","24.9940033333333","6500300","中和區"
"228005","097-TW","2018/11/10 13:29:31","新北市貢寮區美豐里文秀坑8號","121.902583333333","25.0504416666667","6502600","貢寮區"
"228004","212-TW","2018/11/10 13:29:33","新北市貢寮區龍崗里石壁坑街17號","121.91043","24.9897266666667","6502600","貢寮區"
"253003","6232-TK","2018/11/10 13:29:28","新北市石門區石崩山20-7號","121.567645","25.275495","6502200","石門區"
"253004","6251-TK","2018/11/10 13:29:33","新北市石門區五爪崙8-10號","121.607391666667","25.2619633333333","6502200","石門區"
"253002","637-UY","2018/11/10 13:29:40","新北市石門區九芎林9號","121.565441666667","25.26257","6502200","石門區"
"253001","KEC-0718","2018/11/10 13:29:33","新北市三芝區新庄里新庄子71-3號","121.511986666667","25.27658","6502200","石門區"
"207002","749-BX","2018/11/10 13:29:30","新北市萬里區崁腳里崁腳路166號","121.645095","25.15594","6502800","萬里區"
"252005","073-UM","2018/11/10 13:29:29","新北市三芝區圓山里木屐寮30號","121.531585","25.22266","6502100","三芝區"
"207001","662-BX","2018/11/10 13:28:58","新北市萬里區龜吼里海景路1號","121.683778333333","25.19131","6502800","萬里區"
"237001","159-UY","2018/11/10 13:29:34","新北市三峽區三樹路150號","121.378545","24.9402683333333","6500900","三峽區"
"242044","566-BX","2018/11/10 13:29:34","新北市新莊區立信三街7巷7號","121.444063333333","25.0501266666667","6500500","新莊區"
"242050","172-VK","2018/11/10 13:29:43","新北市新莊區四維路183號","121.422195","25.0211966666667","6500500","新莊區"
"239006","661-UM","2018/11/10 13:29:27","新北市鶯歌區二甲路12-2號","121.345575","24.934825","6500800","鶯歌區"
"221010","269-BY","2018/11/10 13:29:31","新北市汐止區長青路12號","121.608838333333","25.1074716666667","6501100","汐止區"
"221032","280-BY","2018/11/10 13:29:29","新北市汐止區水源路一段56號","121.657478333333","25.0654633333333","6501100","汐止區"
"221029","298-VK","2018/11/10 13:29:27","新北市汐止區福德二路361號","121.62387","25.0639683333333","6501100","汐止區"
"221038","646-BX","2018/11/10 13:29:42","新北市汐止區秀山路98巷5-1號","121.667515","25.057305","6501100","汐止區"
"221033","647-BX","2018/11/10 13:29:38","新北市新店區薏仁坑路自強巷1號","121.49784","24.9577066666667","6501100","汐止區"
"220030","610-BX","2018/11/10 13:29:43","新北市板橋區華東街1-10號","121.448306666667","24.9949616666667","6500100","板橋區"
"220019","283-VK","2018/11/10 13:29:31","新北市板橋區華東街1-9號","121.448076666667","24.9949716666667","6500100","板橋區"
"220029","287-VK","2018/11/10 13:29:46","新北市板橋區華東街1-10號","121.448273333333","24.9950383333333","6500100","板橋區"
"220032","296-UM","2018/11/10 13:29:47","新北市板橋區華東街1-9號","121.448153333333","24.9949616666667","6500100","板橋區"
"220023","303-R5","2018/11/10 13:29:30","新北市板橋區華東街1-9號","121.448213333333","24.99499","6500100","板橋區"
"220010","305-R5","2018/11/10 13:29:27","新北市板橋區民生路二段120號","121.470436666667","25.0196966666667","6500100","板橋區"
"220104","560-BX","2018/11/10 13:29:42","新北市板橋區南雅南路一段112號","121.45479","25.00399","6500100","板橋區"
"220025","687-BX","2018/11/10 13:29:26","新北市板橋區篤行路一段37號","121.43197","24.9940133333333","6500100","板橋區"
"220002","741-BX","2018/11/10 13:29:39","新北市板橋區華東街1-9號","121.448093333333","24.9949516666667","6500100","板橋區"
"220012","833-TW","2018/11/10 13:29:28","新北市板橋區華東街300號","121.45279","25.0028566666667","6500100","板橋區"
"220022","895-R6","2018/11/10 13:29:47","新北市板橋區四川路二段130巷29號","121.449468333333","24.9943533333333","6500100","板橋區"
"220021","985-R7","2018/11/10 13:29:46","新北市板橋區華東街1-10號","121.448291666667","24.9950183333333","6500100","板橋區"
"235032","KEA-2873","2018/11/10 13:29:44","新北市中和區圓通路283號","121.495301666667","24.9929566666667","6500300","中和區"
"235025","KEA-2875","2018/11/10 13:29:41","新北市中和區民治街29巷2弄6號","121.47554","25.0007066666667","6500300","中和區"
