"lineid","car","time","location","longitude","latitude","cityid","cityname"
"234078","298-R6","2018/11/10 14:29:11","新北市永和區永貞路11號","121.52115","25.0072466666667","6500400","永和區"
"234062","337-UY","2018/11/10 14:29:09","新北市永和區中正路417號","121.517111666667","25.0048433333333","6500400","永和區"
"234084","338-UY","2018/11/10 14:29:05","新北市永和區光復街31號","121.516546666667","25.017655","6500400","永和區"
"234068","552-UM","2018/11/10 14:29:14","新北市永和區永貞路70巷24號","121.519661666667","25.0060166666667","6500400","永和區"
"234028","746-BX","2018/11/10 14:29:03","新北市永和區民權路51號","121.519991666667","24.9970883333333","6500400","永和區"
"234052","KEA-2590","2018/11/10 14:28:57","新北市永和區環河東路一段82號","121.519588333333","25.0164316666667","6500400","永和區"
"234060","AAD-866","2018/11/10 14:28:58","新北市永和區秀安街11巷2號","121.515888333333","25.0033783333333","6500400","永和區"
"234040","862-TW","2018/11/10 14:29:08","新北市永和區安樂路332巷1號","121.514586666667","25.00597","6500400","永和區"
"234048","863-TW","2018/11/10 14:29:11","新北市永和區保安路136號","121.508556666667","25.0153283333333","6500400","永和區"
"234025","9371-KE","2018/11/10 14:29:03","新北市永和區中正路43號","121.51424","24.9962983333333","6500400","永和區"
"248017","225-UY","2018/11/10 14:25:55","新北市五股區外寮路7-11號","121.423683333333","25.0800383333333","6501500","五股區"
"234076","969-R7","2018/11/10 14:28:55","新北市永和區民族街81巷58號","121.520066666667","24.9964833333333","6500400","永和區"
"234072","AAC-211","2018/11/10 14:29:05","新北市永和區竹林路39巷3號","121.518108333333","25.0144","6500400","永和區"
"234001","AAC-295","2018/11/10 14:29:03","新北市永和區大新街53號","121.515861666667","25.0083583333333","6500400","永和區"
"231005","001-UM","2018/11/10 14:29:02","新北市新店區北新路三段152號","121.541433333333","24.9825","6500600","新店區"
"231002","002-UM","2018/11/10 14:29:06","新北市新店區中正路407號","121.534308333333","24.977595","6500600","新店區"
"231037","0291-UT","2018/11/10 14:29:07","新北市新店區車子路67號","121.503625","24.9514366666667","6500600","新店區"
"231027","0293-UT","2018/11/10 14:29:04","新北市新店區北新路二段98號","121.54292","24.9732383333333","6500600","新店區"
"231001","047-UY","2018/11/10 14:29:08","新北市新店區北新路一段126巷32號","121.543305","24.9689316666667","6500600","新店區"
"231020","108-UY","2018/11/10 14:29:00","新北市新店區桂山路81巷1號","121.567481666667","24.8993033333333","6500600","新店區"
"231023","110-UY","2018/11/10 14:29:05","新北市新店區光明街185號","121.539956666667","24.963195","6500600","新店區"
"231012","187-VK","2018/11/10 14:29:01","新北市新店區中興路二段100巷1號","121.547668333333","24.9715533333333","6500600","新店區"
"231033","188-VK","2018/11/10 14:29:00","新北市新店區安業街231號","121.523511666667","24.971745","6500600","新店區"
"231003","268-BY","2018/11/10 14:29:10","新北市新店區中興路一段267號","121.544873333333","24.9676383333333","6500600","新店區"
"231018","278-BY","2018/11/10 14:29:04","新北市新店區中央三街41號","121.527875","24.97444","6500600","新店區"
"231017","AAD-862","2018/11/10 14:28:54","新北市新店區北宜路三段221號","121.592433333333","24.953225","6500600","新店區"
"231028","355-BY","2018/11/10 14:29:15","新北市新店區安康路二段145號","121.51162","24.9600116666667","6500600","新店區"
"231038","3712-VJ","2018/11/10 14:29:10","新北市新店區溪洲路123號","121.530476666667","24.9638633333333","6500600","新店區"
"231036","512-UM","2018/11/10 14:29:08","新北市新店區安祥路109巷114號","121.476871666667","24.9586116666667","6500600","新店區"
"231013","513-UM","2018/11/10 14:29:12","新北市新店區民權路90巷22號","121.536298333333","24.9836883333333","6500600","新店區"
"231030","619-UM","2018/11/10 14:29:03","新北市新店區安民街65巷6號","121.516066666667","24.9668566666667","6500600","新店區"
"231034","641-BX","2018/11/10 14:29:00","新北市新店區車子路11號","121.502925","24.9516933333333","6500600","新店區"
"231035","719-UM","2018/11/10 14:29:06","新北市新店區吉安街21號","121.51626","24.9658366666667","6500600","新店區"
"231029","897-TW","2018/11/10 14:29:00","新北市新店區安康路二段454號","121.49446","24.9542833333333","6500600","新店區"
"231006","898-TW","2018/11/10 14:28:58","新北市新店區北宜路二段423-1號","121.560385","24.954425","6500600","新店區"
"231004","899-TW","2018/11/10 14:29:02","新北市新店區中正路263-4號","121.53834","24.9739266666667","6500600","新店區"
"235030","003-UY","2018/11/10 14:29:02","新北市中和區景新街86號","121.50469","24.9987016666667","6500300","中和區"
"235028","005-UY","2018/11/10 14:28:54","新北市中和區景新街96巷12號","121.50415","24.9979366666667","6500300","中和區"
"235027","006-UY","2018/11/10 14:29:08","新北市中和區連城路203巷10弄7號","121.494828333333","24.9971433333333","6500300","中和區"
"235020","096-UM","2018/11/10 14:29:08","新北市中和區員山路514巷10號","121.47931","25.009815","6500300","中和區"
"235003","097-UM","2018/11/10 14:29:04","新北市中和區秀峰街103巷7弄4號","121.519408333333","24.9889866666667","6500300","中和區"
"235029","098-UM","2018/11/10 14:29:17","新北市中和區永和路1-3號","121.499798333333","25.0031","6500300","中和區"
"235004","150-BY","2018/11/10 14:28:00","新北市中和區安樂路51巷22號","121.511386666667","24.9940183333333","6500300","中和區"
"235022","151-BY","2018/11/10 14:29:11","新北市中和區連城路503號","121.482531666667","24.995515","6500300","中和區"
"235019","183-VK","2018/11/10 14:29:03","新北市中和區德光路27巷1弄2號","121.470893333333","25.0039183333333","6500300","中和區"
"235002","185-VK","2018/11/10 14:29:11","新北市中和區大仁街10巷27弄3號","121.519191666667","24.9927783333333","6500300","中和區"
"235013","186-VK","2018/11/10 14:29:13","新北市中和區安和路15號","121.511353333333","24.9938466666667","6500300","中和區"
"235031","255-BX","2018/11/10 14:29:02","新北市中和區新生街286號","121.483506666667","24.996585","6500300","中和區"
"235008","293-VK","2018/11/10 14:29:08","新北市中和區捷運路122號","121.50544","24.9914983333333","6500300","中和區"
"235036","301-VK","2018/11/10 14:29:07","新北市中和區莊敬路33巷8號","121.500443333333","25.00515","6500300","中和區"
"235007","352-BY","2018/11/10 14:29:01","新北市中和區景平路370號","121.511008333333","24.9928033333333","6500300","中和區"
"235006","KEA-2878","2018/11/10 14:29:11","新北市中和區中和路262巷43弄3號","121.509578333333","24.9995366666667","6500300","中和區"
"247011","KEA-2869","2018/11/10 14:29:04","新北市蘆洲區復興路200號","121.478398333333","25.088945","6501400","蘆洲區"
"235014","4979-A6","2018/11/10 14:29:12","新北市中和區中正路503號","121.48871","24.9938733333333","6500300","中和區"
"235033","4980-A6","2018/11/10 14:28:57","新北市中和區中正路414號","121.491945","24.994045","6500300","中和區"
"235034","558-UM","2018/11/10 14:29:09","新北市中和區中和路139號","121.501973333333","24.9997966666667","6500300","中和區"
"235009","565-BX","2018/11/10 14:29:14","新北市中和區景新街383巷12弄10號","121.51311","24.9899666666667","6500300","中和區"
"235018","640-BX","2018/11/10 14:29:02","新北市中和區國光街107巷2弄25號","121.469611666667","24.999275","6500300","中和區"
"235024","647-TV","2018/11/10 14:29:14","新北市中和區新生街114巷2號","121.483243333333","25.0024266666667","6500300","中和區"
"235011","732-UM","2018/11/10 14:28:55","新北市中和區景平路241巷60號","121.50788","24.992315","6500300","中和區"
"235010","733-UM","2018/11/10 14:29:00","新北市中和區忠孝街37巷44號","121.51065","24.9848233333333","6500300","中和區"
"235035","783-BX","2018/11/10 14:29:11","新北市中和區連城路469巷2號","121.48358","24.9956433333333","6500300","中和區"
"235026","800-TS","2018/11/10 14:29:12","新北市中和區中山路二段369-1號","121.48746","25.004825","6500300","中和區"
"235021","801-TS","2018/11/10 14:29:11","新北市中和區員山路270號","121.48131","25.0019216666667","6500300","中和區"
"235016","805-TS","2018/11/10 14:29:02","新北市中和區華新街143巷65弄1號","121.506513333333","24.9790683333333","6500300","中和區"
"235012","896-TW","2018/11/10 14:29:06","新北市中和區忠孝街60巷7號","121.511755","24.9838433333333","6500300","中和區"
"235017","900-TW","2018/11/10 14:28:59","新北市中和區民德路197號","121.468915","24.9985566666667","6500300","中和區"
"235015","157-BY","2018/11/10 14:29:09","新北市中和區和平街54巷8弄13號","121.509488333333","24.99153","6500300","中和區"
"235001","AAC-213","2018/11/10 14:29:05","新北市中和區秀朗路三段50巷23號","121.524471666667","24.99507","6500300","中和區"
"235023","AAC-215","2018/11/10 14:29:06","新北市中和區圓通路331號","121.492121666667","24.99057","6500300","中和區"
"220013","072-UY","2018/11/10 14:28:56","新北市板橋區國泰街75巷28弄3-2號","121.467673333333","25.005325","6500100","板橋區"
"220034","073-UY","2018/11/10 14:29:01","新北市板橋區國光路173巷2弄1號","121.460533333333","25.0185866666667","6500100","板橋區"
"220105","075-UY","2018/11/10 14:29:07","新北市板橋區江寧路三段101號","121.472755","25.0326733333333","6500100","板橋區"
"220017","AAD-861","2018/11/10 14:29:16","新北市板橋區稚暉街62號","121.457075","25.004015","6500100","板橋區"
"247001","893-R6","2018/11/10 14:29:03","新北市蘆洲區永樂街38巷33弄33號","121.456753333333","25.0898466666667","6501400","蘆洲區"
"247015","546-UM","2018/11/10 14:29:04","新北市蘆洲區中正路185巷25弄16號","121.467103333333","25.0839466666667","6501400","蘆洲區"
"247023","500-BY","2018/11/10 14:28:54","新北市蘆洲區中正路263巷2號","121.467256666667","25.0876216666667","6501400","蘆洲區"
"247013","339-TH","2018/11/10 14:29:01","新北市蘆洲區成功路172號","121.471328333333","25.0837283333333","6501400","蘆洲區"
"247005","337-TH","2018/11/10 14:29:10","新北市蘆洲區長安街72號","121.462538333333","25.080125","6501400","蘆洲區"
"247007","336-TH","2018/11/10 14:29:07","新北市蘆洲區民生街95號","121.473845","25.0785916666667","6501400","蘆洲區"
"247019","057-VK","2018/11/10 14:28:57","新北市蘆洲區水湳街102號","121.469545","25.0926733333333","6501400","蘆洲區"
"247009","056-VK","2018/11/10 14:29:16","新北市蘆洲區鷺江街12號","121.479356666667","25.0827916666667","6501400","蘆洲區"
"247017","007-UY","2018/11/10 14:29:06","新北市蘆洲區復興路231號","121.480036666667","25.0898866666667","6501400","蘆洲區"
"247003","002-UY","2018/11/10 14:29:00","新北市蘆洲區長安街220巷23號","121.459685","25.0852866666667","6501400","蘆洲區"
"235005","251-BX","2018/11/10 14:29:02","新北市中和區中和路230巷23號","121.506526666667","24.9987133333333","6500300","中和區"
"228005","097-TW","2018/11/10 14:29:11","新北市貢寮區美豐里巫里岸9-1號","121.901986666667","25.070085","6502600","貢寮區"
"228004","212-TW","2018/11/10 14:29:13","新北市貢寮區雙玉里田寮洋街34-1號","121.931653333333","25.0149166666667","6502600","貢寮區"
"253003","6232-TK","2018/11/10 14:29:08","新北市石門區尖子鹿32號","121.58274","25.26455","6502200","石門區"
"253004","6251-TK","2018/11/10 14:29:12","新北市石門區內阿里磅16號","121.593703333333","25.247425","6502200","石門區"
"253002","637-UY","2018/11/10 14:25:20","新北市三芝區橫山里橫山39-3號","121.545756666667","25.254295","6502200","石門區"
"253001","KEC-0718","2018/11/10 14:29:13","新北市石門區海灣新城14號","121.525683333333","25.28505","6502200","石門區"
"207002","749-BX","2018/11/10 14:29:10","新北市萬里區溪底里富士坪路24-2號","121.620545","25.1522133333333","6502800","萬里區"
"252005","073-UM","2018/11/10 14:29:09","新北市三芝區埔坪里埔頭坑92號","121.508731666667","25.2508333333333","6502100","三芝區"
"207001","662-BX","2018/11/10 14:29:18","新北市萬里區磺潭里清水5-1號","121.641148333333","25.200415","6502800","萬里區"
"236068","105-UM","2018/11/10 14:28:58","新北市土城區永豐路205-5號","121.474711666667","24.9779416666667","6501300","土城區"
"236040","KED-0685","2018/11/10 14:29:14","新北市土城區裕民路61巷10號","121.449535","24.9882333333333","6501300","土城區"
"236074","166-UM","2018/11/10 14:29:13","新北市土城區大暖路20巷2號","121.42354","24.9599183333333","6501300","土城區"
"236029","253-BX","2018/11/10 14:29:14","新北市土城區水源街69號","121.439811666667","24.9763333333333","6501300","土城區"
"236024","269-VK","2018/11/10 14:29:14","新北市土城區承天路18號","121.439433333333","24.9633816666667","6501300","土城區"
"236013","270-VK","2018/11/10 14:29:01","新北市土城區立清街69號","121.460293333333","24.9873116666667","6501300","土城區"
"236032","271-VK","2018/11/10 14:29:10","新北市土城區青雲路369號","121.45883","24.9764216666667","6501300","土城區"
"236017","401-BY","2018/11/10 14:28:57","新北市土城區永豐路202巷5-2號","121.466365","24.983295","6501300","土城區"
"236057","912-UM","2018/11/10 14:29:09","新北市土城區中央路四段228號","121.415478333333","24.957125","6501300","土城區"
"236045","913-UM","2018/11/10 14:29:17","新北市土城區青雲路409號","121.458768333333","24.975525","6501300","土城區"
"236060","915-UM","2018/11/10 14:29:15","新北市土城區延壽路109巷11號","121.468426666667","24.99329","6501300","土城區"
"236054","AAC-216","2018/11/10 14:29:09","新北市土城區中華路一段245號","121.440975","24.9817816666667","6501300","土城區"
"239006","661-UM","2018/11/10 14:29:07","新北市鶯歌區二甲路12-2號","121.34562","24.93464","6500800","鶯歌區"
"221010","269-BY","2018/11/10 14:29:11","新北市汐止區長青路210巷188號","121.616258333333","25.11332","6501100","汐止區"
"221029","298-VK","2018/11/10 14:29:07","新北市新店區安豐路22巷20號","121.503493333333","24.95427","6501100","汐止區"
"221038","646-BX","2018/11/10 14:29:02","新北市新店區安豐路22巷20號","121.503291666667","24.9542633333333","6501100","汐止區"
"221033","647-BX","2018/11/10 14:28:58","新北市汐止區康寧街901號","121.651656666667","25.0750116666667","6501100","汐止區"
"220030","610-BX","2018/11/10 14:29:03","新北市板橋區金門街204-4號","121.43253","24.9902083333333","6500100","板橋區"
"220050","245-BX","2018/11/10 14:29:01","新北市板橋區縣民大道三段256號","121.477683333333","25.0231033333333","6500100","板橋區"
"220004","276-BY","2018/11/10 14:29:13","新北市板橋區信義路1巷26弄19號","121.458085","24.9968633333333","6500100","板橋區"
"220020","277-BY","2018/11/10 14:29:09","新北市板橋區金門街215巷2弄1號","121.432598333333","24.989015","6500100","板橋區"
"220043","283-UM","2018/11/10 14:28:41","新北市板橋區吳鳳路36號","121.468593333333","25.0302883333333","6500100","板橋區"
"220019","283-VK","2018/11/10 14:29:13","新北市板橋區四川路一段325巷8號","121.458853333333","25.00028","6500100","板橋區"
"220001","285-VK","2018/11/10 14:29:13","新北市板橋區富山街53巷1弄54號","121.47796","25.020595","6500100","板橋區"
"220031","286-VK","2018/11/10 14:28:58","新北市板橋區龍興街71巷13-2號","121.443245","25.0020016666667","6500100","板橋區"
"220029","287-VK","2018/11/10 14:28:56","新北市板橋區大觀路一段75巷26號","121.448188333333","25.00422","6500100","板橋區"
"220039","288-VK","2018/11/10 14:29:01","新北市板橋區裕民街72號","121.46092","25.0284366666667","6500100","板橋區"
"220009","295-UM","2018/11/10 14:29:11","新北市板橋區中山路一段265巷36弄2號","121.469071666667","25.0149633333333","6500100","板橋區"
"220032","296-UM","2018/11/10 14:29:12","新北市板橋區滿平街84巷114號","121.426826666667","24.986535","6500100","板橋區"
"220023","303-R5","2018/11/10 14:29:09","新北市板橋區中正路275巷50號","121.453648333333","25.018295","6500100","板橋區"
"220010","305-R5","2018/11/10 14:29:07","新北市板橋區三民路二段153巷4弄1號","121.479666666667","25.01472","6500100","板橋區"
"220041","307-R5","2018/11/10 14:29:03","新北市板橋區光武街2巷35號","121.468786666667","25.02592","6500100","板橋區"
"220047","317-R6","2018/11/10 14:29:13","新北市板橋區民生路三段299巷4號","121.46325","25.03042","6500100","板橋區"
"220038","487-VK","2018/11/10 14:29:06","新北市板橋區文化路一段61號","121.460936666667","25.0137133333333","6500100","板橋區"
"220037","491-VK","2018/11/10 14:29:13","新北市板橋區雙十路二段4-5號","121.47696","25.02576","6500100","板橋區"
"220104","560-BX","2018/11/10 14:29:02","新北市板橋區中正路411號","121.454085","25.022545","6500100","板橋區"
"220052","561-BX","2018/11/10 14:29:09","新北市板橋區文化路一段270巷1號","121.467468333333","25.02063","6500100","板橋區"
"220027","568-UM","2018/11/10 14:29:00","新北市板橋區建國街109號","121.460261666667","25.0176016666667","6500100","板橋區"
"220011","609-BX","2018/11/10 14:29:08","新北市板橋區三民路一段197號","121.479216666667","25.0190816666667","6500100","板橋區"
"220040","637-BX","2018/11/10 14:29:06","新北市板橋區文聖街149巷23弄16號","121.479298333333","25.028875","6500100","板橋區"
"220005","686-BX","2018/11/10 14:29:09","新北市板橋區五權街16-3號","121.464358333333","24.99397","6500100","板橋區"
"220025","687-BX","2018/11/10 14:29:06","新北市板橋區僑中二街88巷1號","121.446446666667","25.009305","6500100","板橋區"
"220042","689-BX","2018/11/10 14:29:05","新北市板橋區雨農路24號","121.461631666667","25.0245666666667","6500100","板橋區"
"220002","741-BX","2018/11/10 14:28:59","新北市板橋區忠孝路283-3號","121.467486666667","25.0035233333333","6500100","板橋區"
"220051","KEA-2699","2018/11/10 14:29:16","新北市板橋區松柏街22巷26號","121.474906666667","25.0291916666667","6500100","板橋區"
"220003","827-TW","2018/11/10 14:29:13","新北市板橋區重慶路290巷2號","121.463086666667","24.9989833333333","6500100","板橋區"
"220014","829-TW","2018/11/10 14:29:01","新北市板橋區長安街138巷10號","121.472926666667","25.0092716666667","6500100","板橋區"
"220045","831-TW","2018/11/10 14:29:05","新北市板橋區民生路二段226巷31弄2號","121.471151666667","25.0221633333333","6500100","板橋區"
"220012","833-TW","2018/11/10 14:29:08","新北市板橋區館前西路4-1號","121.459075","25.0071683333333","6500100","板橋區"
"220022","895-R6","2018/11/10 14:29:07","新北市板橋區館前西路130號","121.456516666667","25.0080066666667","6500100","板橋區"
"220021","985-R7","2018/11/10 14:29:06","新北市板橋區新生街16號","121.455483333333","25.0211583333333","6500100","板橋區"
"220046","AAC-210","2018/11/10 14:29:18","新北市板橋區漢生西路165巷10號","121.462613333333","25.0233433333333","6500100","板橋區"
"220018","AAC-253","2018/11/10 14:29:02","新北市板橋區重慶路40號","121.461363333333","25.0075033333333","6500100","板橋區"
"235032","KEA-2873","2018/11/10 14:28:55","新北市中和區枋寮街25號","121.502018333333","25.000455","6500300","中和區"
"235025","KEA-2875","2018/11/10 14:29:11","新北市中和區民安街14號","121.48066","25.0008216666667","6500300","中和區"
