"lineid","car","time","location","longitude","latitude","cityid","cityname"
"234046","148-BY","2018/11/10 19:39:10","新北市永和區永元路122號","121.523006666667","25.002665","6500400","永和區"
"234007","207-UY","2018/11/10 19:39:09","新北市中和區中和路382號","121.51079","25.0021933333333","6500400","永和區"
"234081","298-R6","2018/11/10 19:39:11","新北市永和區國中路104巷12弄15號","121.525556666667","25.0065333333333","6500400","永和區"
"234038","336-UY","2018/11/10 19:39:03","新北市永和區民樂街31巷4號","121.527788333333","25.0014466666667","6500400","永和區"
"234064","337-UY","2018/11/10 19:39:17","新北市永和區秀朗路二段24巷28弄14號","121.519481666667","25.0019183333333","6500400","永和區"
"234086","338-UY","2018/11/10 19:39:18","新北市永和區永亨路142號","121.525035","25.0038883333333","6500400","永和區"
"234070","552-UM","2018/11/10 19:39:04","新北市永和區永和路二段239-1號","121.51571","25.0145933333333","6500400","永和區"
"234017","745-BX","2018/11/10 19:39:04","新北市永和區永和路二段425巷57弄7號","121.513593333333","25.0171416666667","6500400","永和區"
"234030","746-BX","2018/11/10 19:39:13","新北市永和區民生路47巷16號","121.523898333333","24.9976266666667","6500400","永和區"
"234054","KEA-2590","2018/11/10 19:39:14","新北市永和區竹林路39巷8號","121.518228333333","25.0144133333333","6500400","永和區"
"234013","KEA-2591","2018/11/10 19:39:19","新北市永和區永平路230號","121.508923333333","25.010805","6500400","永和區"
"234061","AAD-866","2018/11/10 19:39:19","新北市永和區中正路404號","121.51753","25.0018216666667","6500400","永和區"
"234042","862-TW","2018/11/10 19:39:10","新北市永和區永貞路261號","121.512003333333","25.0046733333333","6500400","永和區"
"234050","863-TW","2018/11/10 19:39:09","新北市永和區保安路53號","121.509395","25.015785","6500400","永和區"
"234026","9371-KE","2018/11/10 19:39:07","新北市永和區中和路499號","121.510588333333","25.0023683333333","6500400","永和區"
"249004","303-UY","2018/11/10 19:39:22","新北市八里區仁愛路35號","121.413481666667","25.1607733333333","6502300","八里區"
"249002","305-UY","2018/11/10 19:38:54","新北市八里區頂寮二街35號","121.4502","25.125085","6502300","八里區"
"249003","593-UM","2018/11/10 19:39:05","新北市八里區華峰三街29號","121.39942","25.145905","6502300","八里區"
"248016","026-BX","2018/11/10 19:39:15","新北市五股區成泰路四段22巷19號","121.454653333333","25.107415","6501500","五股區"
"248008","095-VK","2018/11/10 19:39:05","新北市五股區四維路118巷13號","121.469238333333","25.07424","6501500","五股區"
"248020","225-UY","2018/11/10 19:39:09","新北市五股區中直路10-6號","121.427513333333","25.11142","6501500","五股區"
"248012","247-BX","2018/11/10 19:39:09","新北市五股區成泰路一段241巷5號","121.436133333333","25.0809766666667","6501500","五股區"
"248010","272-BY","2018/11/10 19:39:06","新北市五股區自強路148號","121.432191666667","25.0705466666667","6501500","五股區"
"248004","677-BX","2018/11/10 19:39:12","新北市五股區成泰路二段129號","121.438708333333","25.0848183333333","6501500","五股區"
"248002","678-BX","2018/11/10 19:39:18","新北市五股區成泰路三段577巷77號","121.449695","25.1036466666667","6501500","五股區"
"234077","969-R7","2018/11/10 19:39:11","新北市永和區民權路45號","121.519981666667","24.9973016666667","6500400","永和區"
"234074","AAC-211","2018/11/10 19:39:07","新北市永和區福和路172號","121.520883333333","25.0079816666667","6500400","永和區"
"234067","AAC-212","2018/11/10 19:39:06","新北市永和區永貞路420號","121.508696666667","25.0081916666667","6500400","永和區"
"234003","AAC-295","2018/11/10 19:38:56","新北市永和區永和路一段136號","121.514023333333","25.0079733333333","6500400","永和區"
"244023","069-UM","2018/11/10 19:39:14","新北市林口區仁愛路二段526號","121.372971666667","25.0780433333333","6501700","林口區"
"243013","AAD-798","2018/11/10 19:39:20","新北市泰山區應化街7號","121.423871666667","25.0437133333333","6501600","泰山區"
"243009","297-R6","2018/11/10 19:39:05","新北市泰山區美寧街68號","121.431018333333","25.064645","6501600","泰山區"
"243016","KEA-2801","2018/11/10 19:39:18","新北市泰山區明志路三段434號","121.420816666667","25.033215","6501600","泰山區"
"243015","421-VK","2018/11/10 19:39:07","新北市泰山區文程路25號","121.428575","25.0493466666667","6501600","泰山區"
"243011","KEA-2215","2018/11/10 19:39:07","新北市泰山區貴子路41-1號","121.429726666667","25.0399216666667","6501600","泰山區"
"243012","646-TV","2018/11/10 19:39:13","新北市泰山區全興路277號","121.436241666667","25.0524383333333","6501600","泰山區"
"243014","680-BX","2018/11/10 19:39:05","新北市泰山區泰林路二段33-7號","121.43521","25.0564966666667","6501600","泰山區"
"222003","436-BY","2018/11/10 19:39:14","新北市深坑區深南路51號","121.620991666667","25.00984","6501800","深坑區"
"222002","659-BX","2018/11/10 19:39:22","新北市深坑區北深路一段177號","121.632495","25.0108816666667","6501800","深坑區"
"231044","001-UM","2018/11/10 19:39:17","新北市新店區北新路三段210號","121.541161666667","24.9842916666667","6500600","新店區"
"231041","002-UM","2018/11/10 19:39:20","新北市新店區中正路487號","121.533741666667","24.9820583333333","6500600","新店區"
"231066","0291-UT","2018/11/10 19:39:09","新北市新店區安康路三段207巷15號","121.488418333333","24.9507983333333","6500600","新店區"
"231040","047-UY","2018/11/10 19:39:24","新北市新店區中正路75巷71號","121.543058333333","24.9688716666667","6500600","新店區"
"231046","107-UY","2018/11/10 19:39:08","新北市新店區三民路84巷12號","121.534841666667","24.9730983333333","6500600","新店區"
"231052","108-UY","2018/11/10 19:39:21","新北市新店區新烏路二段474-3號","121.552963333333","24.9081066666667","6500600","新店區"
"231054","110-UY","2018/11/10 19:39:14","新北市新店區北新路一段2-20號","121.538628333333","24.9599133333333","6500600","新店區"
"231048","187-VK","2018/11/10 19:39:18","新北市新店區五峰路63巷8弄72號","121.548011666667","24.9685466666667","6500600","新店區"
"231062","188-VK","2018/11/10 19:39:07","新北市新店區合作路7號","121.53339","24.9576933333333","6500600","新店區"
"231057","256-BX","2018/11/10 19:39:12","新北市新店區橘園一路11號","121.547931666667","24.9340816666667","6500600","新店區"
"231042","268-BY","2018/11/10 19:39:19","新北市新店區中興路一段188號","121.54328","24.9649466666667","6500600","新店區"
"231051","278-BY","2018/11/10 19:39:16","新北市新店區中央四街29號","121.528745","24.974415","6500600","新店區"
"231050","AAD-862","2018/11/10 19:39:12","新北市新店區北宜路二段275號","121.55495","24.9537333333333","6500600","新店區"
"231059","355-BY","2018/11/10 19:39:19","新北市新店區安和路三段85號","121.5178","24.983905","6500600","新店區"
"231058","3713-VJ","2018/11/10 19:39:08","新北市新店區中正路102巷8弄4號","121.543551666667","24.971095","6500600","新店區"
"231056","4715-K9","2018/11/10 19:39:03","新北市新店區中央路23號","121.533116666667","24.97808","6500600","新店區"
"231067","4772-VM","2018/11/10 19:39:08","新北市新店區安民街5號","121.515193333333","24.9641766666667","6500600","新店區"
"231065","512-UM","2018/11/10 19:39:06","新北市新店區安祥路109巷13號","121.47604","24.95912","6500600","新店區"
"231049","513-UM","2018/11/10 19:39:11","新北市新店區大豐路43號","121.540248333333","24.9798383333333","6500600","新店區"
"231061","619-UM","2018/11/10 19:39:10","新北市新店區安民街69號","121.516533333333","24.9669566666667","6500600","新店區"
"231063","641-BX","2018/11/10 19:39:08","新北市新店區達觀路26號","121.501831666667","24.9406233333333","6500600","新店區"
"231064","719-UM","2018/11/10 19:39:08","新北市新店區安和路一段52巷2-1號","121.517681666667","24.9663016666667","6500600","新店區"
"231060","897-TW","2018/11/10 19:39:18","新北市新店區安康路二段161號","121.510196666667","24.9593383333333","6500600","新店區"
"231045","898-TW","2018/11/10 19:39:20","新北市新店區北宜路二段208號","121.559371666667","24.9543383333333","6500600","新店區"
"231043","899-TW","2018/11/10 19:39:08","新北市新店區中正路153號","121.54137","24.9717883333333","6500600","新店區"
"241011","013-R5","2018/11/10 19:39:13","新北市三重區秀江街196號","121.497666666667","25.0715833333333","6500200","三重區"
"241028","022-UY","2018/11/10 19:39:12","新北市三重區中正南路190號","121.493936666667","25.0560583333333","6500200","三重區"
"241008","059-VK","2018/11/10 19:39:06","新北市三重區永福街74號","121.478906666667","25.0767566666667","6500200","三重區"
"241022","060-VK","2018/11/10 19:39:10","新北市三重區中正北路154號","121.484725","25.065895","6500200","三重區"
"241031","061-VK","2018/11/10 19:39:12","新北市三重區重新路四段248-1號","121.486241666667","25.05349","6500200","三重區"
"241015","062-VK","2018/11/10 19:39:21","新北市三重區福德北路34號","121.501996666667","25.065235","6500200","三重區"
"241017","063-VK","2018/11/10 19:39:21","新北市三重區重陽路三段5巷38號","121.491806666667","25.0650283333333","6500200","三重區"
"241026","066-VK","2018/11/10 19:39:18","新北市三重區文化南路65巷22號","121.499328333333","25.0607116666667","6500200","三重區"
"241003","091-VK","2018/11/10 19:39:17","新北市三重區五華街93巷91號","121.493958333333","25.0850283333333","6500200","三重區"
"251014","742-BX","2018/11/10 19:39:16","新北市淡水區北勢子12號","121.479168333333","25.2318183333333","6501000","淡水區"
"241023","265-UM","2018/11/10 19:39:17","新北市三重區忠孝路三段99巷4號","121.480025","25.0638983333333","6500200","三重區"
"241009","267-UM","2018/11/10 19:39:07","新北市三重區三和路四段404號","121.481028333333","25.0796816666667","6500200","三重區"
"241032","269-UM","2018/11/10 19:39:03","新北市三重區重陽路一段60巷72號","121.484395","25.058175","6500200","三重區"
"241013","270-UM","2018/11/10 19:39:14","新北市三重區仁賢街1號","121.495686666667","25.07455","6500200","三重區"
"241025","271-UM","2018/11/10 19:39:13","新北市三重區大有街1-11號","121.477593333333","25.0661733333333","6500200","三重區"
"241007","398-BY","2018/11/10 19:39:09","新北市三重區溪尾街126巷102號","121.487471666667","25.0786033333333","6500200","三重區"
"241035","KEA-2210","2018/11/10 19:39:18","新北市三重區正義北路61-1號","121.497305","25.06443","6500200","三重區"
"241004","475-VK","2018/11/10 19:39:16","新北市三重區五華街74號","121.493336666667","25.0820166666667","6500200","三重區"
"241020","478-VK","2018/11/10 19:39:24","新北市三重區自強路四段39號","121.489291666667","25.07708","6500200","三重區"
"241014","543-UM","2018/11/10 19:39:11","新北市三重區長壽街196號","121.504221666667","25.06904","6500200","三重區"
"241001","547-UM","2018/11/10 19:39:18","新北市三重區仁愛街299號","121.492705","25.0793216666667","6500200","三重區"
"241019","KEA-2593","2018/11/10 19:39:09","新北市三重區六張街194巷1弄2號","121.488616666667","25.0680283333333","6500200","三重區"
"241006","AAD-863","2018/11/10 19:39:19","新北市三重區聯華街98號","121.485483333333","25.0752083333333","6500200","三重區"
"241030","743-BX","2018/11/10 19:39:19","新北市三重區新興路30-1號","121.491816666667","25.0530816666667","6500200","三重區"
"241012","941-UM","2018/11/10 19:39:09","新北市三重區仁興街33巷35號","121.499868333333","25.0756716666667","6500200","三重區"
"241029","942-UM","2018/11/10 19:39:06","新北市三重區同安街135號","121.493381666667","25.056095","6500200","三重區"
"235066","003-UY","2018/11/10 19:39:20","新北市中和區中和路196巷11號","121.50511","24.9991333333333","6500300","中和區"
"235064","005-UY","2018/11/10 19:39:13","新北市中和區南華路41號","121.503638333333","24.996675","6500300","中和區"
"235063","006-UY","2018/11/10 19:39:17","新北市中和區連城路263巷14號","121.492498333333","24.9949966666667","6500300","中和區"
"235056","096-UM","2018/11/10 19:39:19","新北市中和區民富街94號","121.47693","25.0085683333333","6500300","中和區"
"235039","097-UM","2018/11/10 19:39:10","新北市中和區景平路142號","121.518486666667","24.991875","6500300","中和區"
"235065","098-UM","2018/11/10 19:39:16","新北市中和區永和路24號","121.499551666667","25.0035133333333","6500300","中和區"
"235040","150-BY","2018/11/10 19:39:11","新北市中和區宜安路121號","121.510083333333","24.997945","6500300","中和區"
"235058","151-BY","2018/11/10 19:39:03","新北市中和區員山路132巷14號","121.48193","24.9962683333333","6500300","中和區"
"235055","183-VK","2018/11/10 19:39:15","新北市中和區中山路三段181巷2號","121.47283","25.0059483333333","6500300","中和區"
"235038","185-VK","2018/11/10 19:39:07","新北市中和區自立路20巷1號","121.522253333333","24.99345","6500300","中和區"
"235049","186-VK","2018/11/10 19:39:11","新北市中和區景新街224號","121.507313333333","24.99503","6500300","中和區"
"235067","255-BX","2018/11/10 19:39:05","新北市中和區新生街227號","121.483923333333","24.9992616666667","6500300","中和區"
"235044","293-VK","2018/11/10 19:39:06","新北市中和區南山路427號","121.5076","24.9893433333333","6500300","中和區"
"235072","301-VK","2018/11/10 19:39:05","新北市中和區連城路263巷4弄4號","121.491601666667","24.9956966666667","6500300","中和區"
"235043","352-BY","2018/11/10 19:39:13","新北市中和區興南路一段71號","121.510081666667","24.9893216666667","6500300","中和區"
"235042","KEA-2878","2018/11/10 19:39:03","新北市中和區保健路31號","121.508658333333","24.99773","6500300","中和區"
"235050","4979-A6","2018/11/10 19:39:10","新北市中和區錦和路350-1號","121.490546666667","24.9935966666667","6500300","中和區"
"235070","558-UM","2018/11/10 19:39:11","新北市中和區連勝街33號","121.498288333333","24.99784","6500300","中和區"
"235045","565-BX","2018/11/10 19:39:01","新北市中和區景新街374號","121.512301666667","24.9902033333333","6500300","中和區"
"235054","640-BX","2018/11/10 19:39:05","新北市中和區民德路163號","121.468596666667","24.9997833333333","6500300","中和區"
"235060","647-TV","2018/11/10 19:39:08","新北市中和區中山路二段523巷33號","121.4827","25.00347","6500300","中和區"
"235047","732-UM","2018/11/10 19:39:05","新北市中和區南山路263巷13號","121.504308333333","24.9929633333333","6500300","中和區"
"235046","733-UM","2018/11/10 19:39:18","新北市中和區景新街487號","121.513565","24.9873333333333","6500300","中和區"
"235071","783-BX","2018/11/10 19:39:04","新北市中和區新生街163號","121.483655","25.0012416666667","6500300","中和區"
"235057","801-TS","2018/11/10 19:39:18","新北市中和區員山路178號","121.481406666667","25.0001333333333","6500300","中和區"
"235016","805-TS","2018/11/10 19:39:13","新北市中和區華新街206巷20號","121.506193333333","24.9827466666667","6500300","中和區"
"235048","896-TW","2018/11/10 19:39:21","新北市中和區忠孝街1巷2-1號","121.509071666667","24.98302","6500300","中和區"
"235053","900-TW","2018/11/10 19:39:06","新北市中和區國光街184巷2號","121.466963333333","25.00196","6500300","中和區"
"235051","157-BY","2018/11/10 19:39:18","新北市中和區板南路132號","121.502515","24.9925383333333","6500300","中和區"
"235037","AAC-213","2018/11/10 19:39:19","新北市中和區秀朗路三段10巷21弄8號","121.525206666667","24.996085","6500300","中和區"
"235059","AAC-215","2018/11/10 19:39:22","新北市中和區圓通路305巷5弄2號","121.493521666667","24.990255","6500300","中和區"
"220068","013-TV","2018/11/10 19:39:09","新北市板橋區中山路二段581-3號","121.484695","25.0220866666667","6500100","板橋區"
"220065","072-UY","2018/11/10 19:39:07","新北市板橋區國泰街39巷5弄8號","121.468698333333","25.00603","6500100","板橋區"
"220086","073-UY","2018/11/10 19:39:12","新北市板橋區西門街18號","121.454653333333","25.0112333333333","6500100","板橋區"
"220106","075-UY","2018/11/10 19:39:07","新北市板橋區文化路二段328號","121.472645","25.03025","6500100","板橋區"
"220069","AAD-861","2018/11/10 19:39:16","新北市板橋區稚暉街2巷46號","121.455261666667","25.0029316666667","6500100","板橋區"
"247008","336-TH","2018/11/10 19:39:11","新北市蘆洲區中山二路45巷30號","121.474265","25.0811916666667","6501400","蘆洲區"
"247004","002-UY","2018/11/10 19:39:03","新北市蘆洲區長安街102巷26號","121.462881666667","25.0821016666667","6501400","蘆洲區"
"226004","312-R5","2018/11/10 19:39:07","新北市平溪區靜安路三段392巷3號","121.784396666667","25.049525","6502400","平溪區"
"235041","251-BX","2018/11/10 19:39:09","新北市中和區永貞路290號","121.512845","25.00418","6500300","中和區"
"228003","097-TW","2018/11/10 19:39:18","新北市貢寮區真理里美艷山街53-2號","121.923223333333","25.0692683333333","6502600","貢寮區"
"228001","212-TW","2018/11/10 19:39:22","新北市貢寮區真理里延平街49號","121.924623333333","25.0556416666667","6502600","貢寮區"
"224010","AGQ-8101","2018/11/10 19:39:12","新北市瑞芳區基山街171號","121.843266666667","25.1080083333333","6501200","瑞芳區"
"224002","639-TC","2018/11/10 19:39:22","新北市瑞芳區三爪子坑路13巷281-8號","121.814671666667","25.106375","6501200","瑞芳區"
"227010","642-TC","2018/11/10 19:39:01","新北市雙溪區新基里新基北街20號","121.867218333333","25.0388866666667","6502500","雙溪區"
"227002","400-TW","2018/11/10 19:39:21","新北市雙溪區雙溪里太平路35號","121.864645","25.035455","6502500","雙溪區"
"253006","032-BX","2018/11/10 19:39:03","新北市石門區阿里磅1號","121.588373333333","25.29129","6502200","石門區"
"253005","295-VK","2018/11/10 19:39:11","新北市石門區小坑9號","121.59441","25.2883383333333","6502200","石門區"
"222001","KEA-2212","2018/11/10 19:39:22","新北市深坑區深坑街154號","121.612943333333","25.0013466666667","6501800","深坑區"
"208002","KEA-2872","2018/11/10 19:39:12","新北市金山區三民街28號","121.634846666667","25.2232883333333","6502700","金山區"
"208003","665-BX","2018/11/10 19:39:16","新北市金山區仁愛路1巷1號","121.638608333333","25.2200783333333","6502700","金山區"
"208001","761-BX","2018/11/10 19:39:20","新北市金山區南勢湖16號","121.620693333333","25.21941","6502700","金山區"
"251009","008-UM","2018/11/10 19:39:07","新北市淡水區中山北路一段98號","121.442541666667","25.1765166666667","6501000","淡水區"
"251005","010-UM","2018/11/10 19:38:44","新北市淡水區水源街一段47巷57號","121.444141666667","25.174545","6501000","淡水區"
"251013","KEA-2871","2018/11/10 19:39:20","新北市淡水區店子後9號","121.459941666667","25.2189766666667","6501000","淡水區"
"251016","179-VK","2018/11/10 19:39:05","新北市淡水區下圭柔山119-51號","121.450701666667","25.2084733333333","6501000","淡水區"
"251008","180-VK","2018/11/10 19:39:17","新北市淡水區中正路一段8巷1弄11號","121.428216666667","25.175815","6501000","淡水區"
"251015","182-VK","2018/11/10 19:39:10","新北市三芝區興華里田心子26號","121.492598333333","25.1953683333333","6501000","淡水區"
"251010","413-VK","2018/11/10 19:39:17","新北市淡水區新市五路二段77號","121.431891666667","25.1995216666667","6501000","淡水區"
"251012","441-VK","2018/11/10 19:39:09","新北市淡水區淡金路二段605號","121.446161666667","25.1934533333333","6501000","淡水區"
"251007","442-VK","2018/11/10 19:39:15","新北市淡水區淡金路59號","121.455765","25.1614883333333","6501000","淡水區"
"251001","559-UM","2018/11/10 19:39:10","新北市淡水區民權路49號","121.459763333333","25.1396666666667","6501000","淡水區"
"251006","561-UM","2018/11/10 19:39:13","新北市淡水區中山北路一段207巷74號","121.441415","25.179465","6501000","淡水區"
"251011","650-BX","2018/11/10 19:39:09","新北市淡水區紅樹林路211號","121.460865","25.15602","6501000","淡水區"
"207003","550-UM","2018/11/10 19:39:06","新北市萬里區大鵬里下社28號","121.6491","25.2170783333333","6502800","萬里區"
"207004","225-TW","2018/11/10 19:39:18","新北市萬里區萬里里瑪鋉路21號","121.687183333333","25.17542","6502800","萬里區"
"252002","178-VK","2018/11/10 19:39:12","新北市三芝區中正路一段18巷52號","121.504206666667","25.25881","6502100","三芝區"
"252001","292-VK","2018/11/10 19:39:14","新北市三芝區公正街66號","121.499796666667","25.2574766666667","6502100","三芝區"
"237004","KEA-2597","2018/11/10 19:39:08","新北市三峽區有木17號","121.42601","24.8632366666667","6500900","三峽區"
"237007","153-BY","2018/11/10 19:39:12","新北市三峽區二鬮路136巷131號","121.356393333333","24.9106333333333","6500900","三峽區"
"237009","210-TH","2018/11/10 19:39:06","新北市三峽區中園街20號","121.36816","24.926955","6500900","三峽區"
"237013","252-BX","2018/11/10 19:39:18","新北市三峽區介壽路二段153-1號","121.393581666667","24.9357383333333","6500900","三峽區"
"237012","275-BY","2018/11/10 19:39:17","新北市三峽區光明路25號","121.373318333333","24.9311183333333","6500900","三峽區"
"237008","302-VK","2018/11/10 19:39:06","新北市三峽區永安街183號","121.373151666667","24.9269233333333","6500900","三峽區"
"237014","433-BY","2018/11/10 19:39:02","新北市三峽區中園街237-1號","121.366845","24.91951","6500900","三峽區"
"237006","5529-G3","2018/11/10 19:39:07","新北市三峽區中正路一段336巷15弄2號","121.369968333333","24.9249433333333","6500900","三峽區"
"237011","KEA-2596","2018/11/10 19:39:14","新北市三峽區中正路一段524號","121.369456666667","24.9201216666667","6500900","三峽區"
"237016","649-BX","2018/11/10 19:39:18","新北市三峽區溪東路218巷1號","121.407435","24.93158","6500900","三峽區"
"237010","706-TV","2018/11/10 19:39:05","新北市三峽區復興路36-8號","121.373936666667","24.93675","6500900","三峽區"
"237005","AKY-6261","2018/11/10 19:39:08","新北市三峽區文化路266號","121.366505","24.9357616666667","6500900","三峽區"
"236070","105-UM","2018/11/10 19:39:04","新北市土城區金城路一段131號","121.444826666667","24.9737533333333","6501300","土城區"
"236042","KED-0685","2018/11/10 19:39:21","新北市土城區裕民路254號","121.454473333333","24.9828766666667","6501300","土城區"
"236079","166-UM","2018/11/10 19:39:22","新北市土城區中州路59號","121.412598333333","24.9578316666667","6501300","土城區"
"236030","253-BX","2018/11/10 19:39:05","新北市土城區中央路二段80巷8弄2號","121.441893333333","24.9790683333333","6501300","土城區"
"236026","269-VK","2018/11/10 19:39:14","新北市土城區中央路二段61巷32號","121.443658333333","24.97895","6501300","土城區"
"236038","271-VK","2018/11/10 19:39:17","新北市土城區青雲路257巷7號","121.459583333333","24.98084","6501300","土城區"
"236021","401-BY","2018/11/10 19:39:02","新北市土城區峰廷街3號","121.46906","24.9873033333333","6501300","土城區"
"236059","912-UM","2018/11/10 19:39:14","新北市土城區中央路二段63號","121.442691666667","24.9789383333333","6501300","土城區"
"236049","913-UM","2018/11/10 19:39:21","新北市土城區明德路一段97號","121.465675","24.9829183333333","6501300","土城區"
"236063","915-UM","2018/11/10 19:39:15","新北市土城區延平街69巷3號","121.467475","24.992785","6501300","土城區"
"236055","AAC-216","2018/11/10 19:39:07","新北市土城區學府路一段77號","121.456821666667","24.988175","6501300","土城區"
"242056","751-BX","2018/11/10 19:39:18","新北市新莊區瓊林路13-3號","121.448885","25.0309583333333","6500500","新莊區"
"242029","612-BX","2018/11/10 19:39:10","新北市新莊區新泰路357巷3弄57號","121.442286666667","25.0393583333333","6500500","新莊區"
"242048","497-BY","2018/11/10 19:39:21","新北市新莊區民安路49號","121.423911666667","25.0262116666667","6500500","新莊區"
"242023","362-BY","2018/11/10 19:39:09","新北市新莊區復興路三段117號","121.46447","25.0445316666667","6500500","新莊區"
"242013","173-VK","2018/11/10 19:39:12","新北市新莊區中誠街147巷6號","121.448781666667","25.0470366666667","6500500","新莊區"
"242007","176-VK","2018/11/10 19:39:19","新北市新莊區思源路593巷30號","121.457568333333","25.0597466666667","6500500","新莊區"
"242031","348-TH","2018/11/10 19:39:13","新北市新莊區新泰路225巷22弄19號","121.44409","25.0391183333333","6500500","新莊區"
"238015","755-BX","2018/11/10 19:39:08","新北市樹林區中興街2號","121.420801666667","24.9896533333333","6500700","樹林區"
"238023","601-UM","2018/11/10 19:39:20","新北市樹林區三寶街1號","121.40649","25.0158816666667","6500700","樹林區"
"238019","599-UM","2018/11/10 19:39:19","新北市樹林區鎮前街349號","121.416468333333","24.9841866666667","6500700","樹林區"
"238024","5061-A6","2018/11/10 19:39:05","新北市樹林區佳園路一段72巷8號","121.392825","24.9699616666667","6500700","樹林區"
"238021","KEA-2539","2018/11/10 19:39:13","新北市樹林區佳園路三段159號","121.385448333333","24.948725","6500700","樹林區"
"238025","303-VK","2018/11/10 19:39:05","新北市樹林區中山路一段115-2號","121.422855","24.99032","6500700","樹林區"
"238017","283-BY","2018/11/10 19:39:07","新北市樹林區保安街二段45巷21弄19號","121.415046666667","24.999565","6500700","樹林區"
"238014","282-BY","2018/11/10 19:39:21","新北市樹林區千歲街53-2號","121.425555","24.9966366666667","6500700","樹林區"
"238026","172-UY","2018/11/10 19:39:10","新北市樹林區佳園路二段141號","121.390135","24.9577683333333","6500700","樹林區"
"238016","169-UY","2018/11/10 19:39:18","新北市樹林區東和街22-3號","121.403185","24.981235","6500700","樹林區"
"239006","891-R6","2018/11/10 19:39:23","新北市鶯歌區文化路124號","121.351886666667","24.9519683333333","6500800","鶯歌區"
"239006","661-UM","2018/11/10 19:39:06","新北市鶯歌區二甲路12-2號","121.345528333333","24.9347333333333","6500800","鶯歌區"
"239001","417-VK","2018/11/10 19:39:08","新北市樹林區中山路三段210-2號","121.380643333333","24.9666733333333","6500800","鶯歌區"
"239002","359-BY","2018/11/10 19:39:24","新北市鶯歌區中正一路443號","121.362378333333","24.95685","6500800","鶯歌區"
"239004","193-VK","2018/11/10 19:39:20","新北市鶯歌區二甲路83-3號","121.338983333333","24.933435","6500800","鶯歌區"
"221008","489-VK","2018/11/10 19:39:23","新北市汐止區康寧街61巷28號","121.61962","25.0674733333333","6501100","汐止區"
"221036","130-UY","2018/11/10 19:39:13","新北市汐止區康寧街901號","121.651483333333","25.0749966666667","6501100","汐止區"
"221015","131-UY","2018/11/10 19:39:12","新北市汐止區汐萬路一段273號","121.650455","25.07448","6501100","汐止區"
"221010","269-BY","2018/11/10 19:39:08","新北市汐止區汐萬路二段7號","121.649506666667","25.0801433333333","6501100","汐止區"
"221012","278-VK","2018/11/10 19:39:04","新北市汐止區汐平路一段5號","121.680771666667","25.0712533333333","6501100","汐止區"
"221023","279-VK","2018/11/10 19:38:55","新北市汐止區中興路286巷1號","121.628283333333","25.0695883333333","6501100","汐止區"
"221032","280-BY","2018/11/10 19:39:05","新北市汐止區橫科路403巷18號","121.624911666667","25.0476133333333","6501100","汐止區"
"221027","281-BY","2018/11/10 19:39:18","新北市汐止區忠孝東路9號","121.658303333333","25.0658816666667","6501100","汐止區"
"221021","299-VK","2018/11/10 19:39:18","新北市汐止區南興路83巷1號","121.65285","25.059095","6501100","汐止區"
"221031","353-TW","2018/11/10 19:39:02","新北市汐止區康寧街901號","121.650893333333","25.0752416666667","6501100","汐止區"
"221025","623-UM","2018/11/10 19:39:15","新北市汐止區福安街20巷3號","121.662505","25.06495","6501100","汐止區"
"221038","646-BX","2018/11/10 19:39:20","新北市汐止區忠孝東路208號","121.66192","25.06639","6501100","汐止區"
"221033","647-BX","2018/11/10 19:39:06","新北市汐止區南勢街1巷1號","121.627093333333","25.0374933333333","6501100","汐止區"
"221002","707-TV","2018/11/10 19:39:05","新北市汐止區大同路一段219巷27號","121.63332","25.0581933333333","6501100","汐止區"
"220080","200-UY","2018/11/10 19:39:11","新北市板橋區大觀路二段37巷250號","121.449865","25.0019666666667","6500100","板橋區"
"220082","610-BX","2018/11/10 19:39:23","新北市板橋區溪崑一街24號","121.430171666667","24.9911583333333","6500100","板橋區"
"220101","245-BX","2018/11/10 19:39:16","新北市板橋區莒光路196巷31號","121.472763333333","25.0224633333333","6500100","板橋區"
"220056","276-BY","2018/11/10 19:39:08","新北市板橋區四川路二段47巷3弄2號","121.45421","24.994665","6500100","板橋區"
"220072","277-BY","2018/11/10 19:39:23","新北市板橋區金門街175號","121.432638333333","24.99002","6500100","板橋區"
"220094","283-UM","2018/11/10 19:39:16","新北市板橋區宏國路93號","121.469781666667","25.0323133333333","6500100","板橋區"
"220071","283-VK","2018/11/10 19:39:08","新北市板橋區信義路279巷11號","121.461936666667","24.989415","6500100","板橋區"
"220053","285-VK","2018/11/10 19:39:06","新北市板橋區民享街56號","121.47611","25.0151216666667","6500100","板橋區"
"220083","286-VK","2018/11/10 19:39:20","新北市板橋區龍興街71巷12號","121.443225","25.0021083333333","6500100","板橋區"
"220081","287-VK","2018/11/10 19:39:22","新北市板橋區南雅西路一段39巷29號","121.452816666667","25.004245","6500100","板橋區"
"220090","288-VK","2018/11/10 19:39:07","新北市板橋區長江路一段48巷12號","121.459465","25.0279416666667","6500100","板橋區"
"220061","295-UM","2018/11/10 19:39:06","新北市板橋區中山路一段265巷36弄2號","121.46918","25.0150366666667","6500100","板橋區"
"220084","296-UM","2018/11/10 19:39:16","新北市板橋區滿平二街1-3號","121.425511666667","24.9863616666667","6500100","板橋區"
"220075","303-R5","2018/11/10 19:39:10","新北市板橋區南雅西路二段301巷50弄12號","121.452353333333","25.0170616666667","6500100","板橋區"
"220062","305-R5","2018/11/10 19:39:17","新北市板橋區三民路二段29巷31弄1號","121.481361666667","25.0177816666667","6500100","板橋區"
"220092","307-R5","2018/11/10 19:39:20","新北市板橋區陽明街18號","121.46645","25.0216833333333","6500100","板橋區"
"220098","317-R6","2018/11/10 19:39:13","新北市板橋區四維路269巷49號","121.461096666667","25.02733","6500100","板橋區"
"220089","487-VK","2018/11/10 19:39:17","新北市板橋區陽明街261號","121.462385","25.0255316666667","6500100","板橋區"
"242034","280-VK","2018/11/10 19:39:14","新北市新莊區仁愛街13號","121.444206666667","25.03533","6500500","新莊區"
"220088","491-VK","2018/11/10 19:39:16","新北市板橋區文化路二段483號","121.475766666667","25.0338516666667","6500100","板橋區"
"220035","560-BX","2018/11/10 19:39:04","新北市板橋區金華街85巷42號","121.459165","25.0213133333333","6500100","板橋區"
"220103","561-BX","2018/11/10 19:39:18","新北市板橋區文化路一段286巷10-2號","121.467943333333","25.0213783333333","6500100","板橋區"
"220079","568-UM","2018/11/10 19:39:11","新北市板橋區中正路183巷11弄3號","121.456126666667","25.0162516666667","6500100","板橋區"
"220063","609-BX","2018/11/10 19:39:09","新北市板橋區萬安街27巷22號","121.483866666667","25.0228016666667","6500100","板橋區"
"220091","637-BX","2018/11/10 19:39:18","新北市板橋區懷德街139巷8號","121.479465","25.0304983333333","6500100","板橋區"
"220057","686-BX","2018/11/10 19:39:08","新北市板橋區和平路安樂巷18號","121.461383333333","24.993995","6500100","板橋區"
"220077","687-BX","2018/11/10 19:39:18","新北市板橋區大觀路二段20巷8弄10號","121.446121666667","25.004225","6500100","板橋區"
"220093","689-BX","2018/11/10 19:39:03","新北市板橋區長江路一段140號","121.460575","25.030085","6500100","板橋區"
"220054","741-BX","2018/11/10 19:39:14","新北市板橋區實踐路169號","121.464275","25.0037933333333","6500100","板橋區"
"220102","KEA-2699","2018/11/10 19:39:24","新北市板橋區雙十路二段130巷2弄76號","121.475711666667","25.0291816666667","6500100","板橋區"
"220055","827-TW","2018/11/10 19:39:18","新北市板橋區國慶路149巷6號","121.461248333333","24.996915","6500100","板橋區"
"220067","829-TW","2018/11/10 19:39:03","新北市板橋區漢生東路279巷8號","121.471863333333","25.0091466666667","6500100","板橋區"
"220096","831-TW","2018/11/10 19:39:11","新北市板橋區文化路一段362-3號","121.468476666667","25.023505","6500100","板橋區"
"220064","833-TW","2018/11/10 19:39:16","新北市板橋區中山路一段85號","121.461556666667","25.010045","6500100","板橋區"
"220074","895-R6","2018/11/10 19:39:15","新北市板橋區倉後街1-2號","121.455625","25.0088716666667","6500100","板橋區"
"220073","985-R7","2018/11/10 19:39:16","新北市板橋區國光路49巷2號","121.458041666667","25.0180666666667","6500100","板橋區"
"220097","AAC-210","2018/11/10 19:39:09","新北市板橋區漢生西路89巷4-2號","121.462608333333","25.0195383333333","6500100","板橋區"
"220070","AAC-253","2018/11/10 19:39:06","新北市板橋區民族路87號","121.465915","25.0083583333333","6500100","板橋區"
"235068","KEA-2873","2018/11/10 19:39:19","新北市中和區中和路53號","121.500531666667","25.0014566666667","6500300","中和區"
"235061","KEA-2875","2018/11/10 19:38:56","新北市中和區民安街2巷21號","121.480198333333","25.00143","6500300","中和區"
