"lineid","car","time","location","longitude","latitude","cityid","cityname"
"234046","148-BY","2018/11/10 19:49:06","新北市永和區永利路135號","121.524056666667","25.0033716666667","6500400","永和區"
"234007","207-UY","2018/11/10 19:49:09","新北市中和區光華街59-1號","121.506358333333","25.0032083333333","6500400","永和區"
"234081","298-R6","2018/11/10 19:49:11","新北市永和區國中路2號","121.524275","25.00429","6500400","永和區"
"234038","336-UY","2018/11/10 19:49:23","新北市永和區成功路二段129巷2號","121.526845","24.9981533333333","6500400","永和區"
"234064","337-UY","2018/11/10 19:49:05","新北市永和區中正路412巷2號","121.517715","25.00195","6500400","永和區"
"234086","338-UY","2018/11/10 19:49:22","新北市永和區永利路6-1號","121.517533333333","25.0059566666667","6500400","永和區"
"234070","552-UM","2018/11/10 19:49:04","新北市永和區竹林路125-1號","121.520103333333","25.0111983333333","6500400","永和區"
"234017","745-BX","2018/11/10 19:49:24","新北市永和區永和路二段299號","121.516085","25.01618","6500400","永和區"
"234030","746-BX","2018/11/10 19:49:13","新北市永和區民生路67巷46號","121.525101666667","24.9974033333333","6500400","永和區"
"234054","KEA-2590","2018/11/10 19:49:14","新北市永和區竹林路75巷25弄5號","121.52014","25.0143683333333","6500400","永和區"
"234013","KEA-2591","2018/11/10 19:49:19","新北市永和區永平路286-1號","121.507668333333","25.0121083333333","6500400","永和區"
"234061","AAD-866","2018/11/10 19:49:19","新北市永和區中正路250號","121.516583333333","24.9984283333333","6500400","永和區"
"234042","862-TW","2018/11/10 19:49:10","新北市永和區中和路305巷20弄1號","121.507775","25.0019566666667","6500400","永和區"
"234050","863-TW","2018/11/10 19:49:09","新北市永和區保安路144號","121.508511666667","25.014915","6500400","永和區"
"234026","9371-KE","2018/11/10 19:49:07","新北市永和區雙和街52巷1-1號","121.509093333333","25.00318","6500400","永和區"
"234011","9373-KE","2018/11/10 19:49:10","新北市永和區保順路11號","121.504731666667","25.00953","6500400","永和區"
"249001","173-UM","2018/11/10 19:49:02","新北市八里區中華路二段252號","121.4054","25.1496683333333","6502300","八里區"
"249004","303-UY","2018/11/10 19:49:06","新北市八里區中華路一段333-1號","121.412505","25.15473","6502300","八里區"
"249002","305-UY","2018/11/10 19:49:14","新北市八里區頂寮三街46號","121.451201666667","25.1260216666667","6502300","八里區"
"249003","593-UM","2018/11/10 19:49:05","新北市八里區華峰三街35號","121.398446666667","25.1453816666667","6502300","八里區"
"248016","026-BX","2018/11/10 19:49:15","新北市五股區成泰路三段577巷80弄7號","121.449498333333","25.104285","6501500","五股區"
"248008","095-VK","2018/11/10 19:49:18","新北市五股區四維路169號","121.46768","25.0751216666667","6501500","五股區"
"248020","225-UY","2018/11/10 19:49:09","新北市五股區中直路46-1號","121.418801666667","25.1178016666667","6501500","五股區"
"248012","247-BX","2018/11/10 19:49:09","新北市五股區蓬萊路24號","121.43389","25.07991","6501500","五股區"
"248010","272-BY","2018/11/10 19:49:06","新北市五股區登林路貿商巷1弄9號","121.429635","25.06965","6501500","五股區"
"248004","677-BX","2018/11/10 19:49:12","新北市五股區成泰路一段169號","121.435215","25.0745483333333","6501500","五股區"
"248002","678-BX","2018/11/10 19:49:18","新北市五股區成泰路四段14號","121.45335","25.1067116666667","6501500","五股區"
"234077","969-R7","2018/11/10 19:49:11","新北市永和區中正路242巷2弄1號","121.516833333333","24.9979933333333","6500400","永和區"
"234074","AAC-211","2018/11/10 19:49:07","新北市永和區竹林路179巷18號","121.52138","25.0099083333333","6500400","永和區"
"234067","AAC-212","2018/11/10 19:49:06","新北市永和區永平路173巷6號","121.510398333333","25.0088966666667","6500400","永和區"
"234003","AAC-295","2018/11/10 19:49:15","新北市永和區福和路316號","121.516096666667","25.0073066666667","6500400","永和區"
"244023","069-UM","2018/11/10 19:49:14","新北市林口區民權路179號","121.374496666667","25.08507","6501700","林口區"
"243013","AAD-798","2018/11/10 19:40:15","新北市泰山區應化街7號","121.42387","25.0437133333333","6501600","泰山區"
"243009","297-R6","2018/11/10 19:49:05","新北市泰山區美寧街68號","121.431023333333","25.0646316666667","6501600","泰山區"
"243016","KEA-2801","2018/11/10 19:49:18","新北市泰山區明志路三段522號","121.42085","25.0305766666667","6501600","泰山區"
"243015","421-VK","2018/11/10 19:49:07","新北市泰山區明志路二段214巷9號","121.426728333333","25.04884","6501600","泰山區"
"243011","KEA-2215","2018/11/10 19:49:07","新北市泰山區明志路三段204巷10弄11號","121.422918333333","25.0386366666667","6501600","泰山區"
"243012","646-TV","2018/11/10 19:49:13","新北市泰山區全興路18巷22號","121.431758333333","25.05835","6501600","泰山區"
"243014","680-BX","2018/11/10 19:49:05","新北市泰山區泰林路二段33-7號","121.435253333333","25.0564916666667","6501600","泰山區"
"222003","436-BY","2018/11/10 19:39:29","新北市深坑區深南路51號","121.620993333333","25.0098416666667","6501800","深坑區"
"222002","659-BX","2018/11/10 19:49:02","新北市深坑區北深路一段288號","121.628213333333","25.007745","6501800","深坑區"
"231044","001-UM","2018/11/10 19:49:17","新北市新店區復興路121號","121.534216666667","24.9879733333333","6500600","新店區"
"231041","002-UM","2018/11/10 19:49:20","新北市新店區中央路210-1號","121.53006","24.9735616666667","6500600","新店區"
"231066","0291-UT","2018/11/10 19:49:09","新北市新店區安康路三段58號","121.492398333333","24.952175","6500600","新店區"
"231040","047-UY","2018/11/10 19:49:04","新北市新店區中正路75巷71號","121.543145","24.9688233333333","6500600","新店區"
"231046","107-UY","2018/11/10 19:49:08","新北市新店區中央路95巷2號","121.531415","24.9749716666667","6500600","新店區"
"231052","108-UY","2018/11/10 19:49:21","新北市新店區新烏路三段268巷21號","121.550093333333","24.899505","6500600","新店區"
"231054","110-UY","2018/11/10 19:49:09","新北市新店區光明街96巷3號","121.539378333333","24.9598816666667","6500600","新店區"
"231048","187-VK","2018/11/10 19:49:18","新北市新店區五峰路61巷2號","121.547423333333","24.97007","6500600","新店區"
"231062","188-VK","2018/11/10 19:49:07","新北市新店區永業路53號","121.531801666667","24.9544666666667","6500600","新店區"
"231057","256-BX","2018/11/10 19:49:12","新北市新店區梅崗一路10號","121.556","24.931395","6500600","新店區"
"231042","268-BY","2018/11/10 19:49:19","新北市新店區中興路一段266號","121.544851666667","24.9673916666667","6500600","新店區"
"231051","278-BY","2018/11/10 19:49:16","新北市新店區中央路153號","121.52996","24.9729566666667","6500600","新店區"
"231050","AAD-862","2018/11/10 19:49:12","新北市新店區北宜路二段431號","121.560665","24.9543416666667","6500600","新店區"
"231059","355-BY","2018/11/10 19:49:19","新北市新店區安和路二段218-1號","121.518038333333","24.975155","6500600","新店區"
"231056","4715-K9","2018/11/10 19:49:03","新北市新店區民權路72號","121.538135","24.9832066666667","6500600","新店區"
"231067","4772-VM","2018/11/10 19:49:08","新北市新店區精忠路10-1號","121.532618333333","24.9590666666667","6500600","新店區"
"231065","512-UM","2018/11/10 19:49:06","新北市新店區安祥路109巷90弄2號","121.47796","24.9598283333333","6500600","新店區"
"231049","513-UM","2018/11/10 19:49:11","新北市新店區民權路88-5號","121.536211666667","24.98346","6500600","新店區"
"231061","619-UM","2018/11/10 19:49:10","新北市新店區安民街172號","121.516795","24.97072","6500600","新店區"
"231063","641-BX","2018/11/10 19:49:08","新北市新店區車子路11號","121.503095","24.9519866666667","6500600","新店區"
"231064","719-UM","2018/11/10 19:49:08","新北市新店區光華街8巷28號","121.518146666667","24.9698583333333","6500600","新店區"
"231060","897-TW","2018/11/10 19:49:18","新北市新店區安康路二段233號","121.50838","24.9585916666667","6500600","新店區"
"231045","898-TW","2018/11/10 19:49:20","新北市新店區北宜路二段360-1號","121.564671666667","24.9525183333333","6500600","新店區"
"231043","899-TW","2018/11/10 19:49:08","新北市新店區中正路263-4號","121.538356666667","24.9739166666667","6500600","新店區"
"241011","013-R5","2018/11/10 19:49:13","新北市三重區介壽路20號","121.498585","25.069995","6500200","三重區"
"241028","022-UY","2018/11/10 19:49:12","新北市三重區中正南路133號","121.494028333333","25.05698","6500200","三重區"
"241008","059-VK","2018/11/10 19:49:06","新北市三重區永福街96號","121.47881","25.0760283333333","6500200","三重區"
"241022","060-VK","2018/11/10 19:49:10","新北市三重區重新路三段115巷18號","121.489948333333","25.060925","6500200","三重區"
"241031","061-VK","2018/11/10 19:49:12","新北市三重區重新路四段248-1號","121.486213333333","25.053475","6500200","三重區"
"241015","062-VK","2018/11/10 19:49:21","新北市三重區三和路一段2號","121.503868333333","25.064285","6500200","三重區"
"241017","063-VK","2018/11/10 19:49:21","新北市三重區重陽路三段5巷8弄27號","121.489565","25.06656","6500200","三重區"
"241026","066-VK","2018/11/10 19:49:18","新北市三重區文化南路42號","121.500425","25.0602366666667","6500200","三重區"
"241003","091-VK","2018/11/10 19:49:17","新北市三重區五華街128號","121.491661666667","25.0834783333333","6500200","三重區"
"251014","742-BX","2018/11/10 19:49:16","新北市淡水區番社前1-4號","121.468733333333","25.236835","6501000","淡水區"
"241023","265-UM","2018/11/10 19:49:17","新北市三重區大有街1-9號","121.47752","25.066035","6500200","三重區"
"241016","266-UM","2018/11/10 19:49:09","新北市三重區正義北路16巷32號","121.496471666667","25.0626916666667","6500200","三重區"
"241009","267-UM","2018/11/10 19:49:07","新北市三重區三和路四段396巷8號","121.480956666667","25.0790483333333","6500200","三重區"
"241018","268-UM","2018/11/10 19:49:08","新北市三重區雙園街57巷25號","121.494568333333","25.06841","6500200","三重區"
"241032","269-UM","2018/11/10 19:49:23","新北市三重區重陽路一段44巷10號","121.485996666667","25.0576866666667","6500200","三重區"
"241013","270-UM","2018/11/10 19:49:14","新北市三重區仁愛街112巷16號","121.494731666667","25.0738783333333","6500200","三重區"
"241025","271-UM","2018/11/10 19:49:13","新北市三重區忠孝路三段56-1號","121.48051","25.0652583333333","6500200","三重區"
"241007","398-BY","2018/11/10 19:49:09","新北市三重區三和路四段125巷6號","121.485095","25.0780433333333","6500200","三重區"
"241035","KEA-2210","2018/11/10 19:49:18","新北市三重區文化北路6-3號","121.49963","25.0636433333333","6500200","三重區"
"241004","475-VK","2018/11/10 19:49:16","新北市三重區五華街74號","121.493358333333","25.0820466666667","6500200","三重區"
"241020","478-VK","2018/11/10 19:49:21","新北市三重區三和路四段2號","121.491613333333","25.0738716666667","6500200","三重區"
"241014","543-UM","2018/11/10 19:49:11","新北市三重區長安街69號","121.501305","25.0673216666667","6500200","三重區"
"241001","547-UM","2018/11/10 19:49:18","新北市三重區仁愛街327巷55號","121.493508333333","25.0802383333333","6500200","三重區"
"241019","KEA-2593","2018/11/10 19:49:09","新北市三重區自強路二段67巷17號","121.489398333333","25.07021","6500200","三重區"
"241006","AAD-863","2018/11/10 19:49:19","新北市三重區永福街263號","121.48156","25.0742466666667","6500200","三重區"
"241030","743-BX","2018/11/10 19:49:19","新北市三重區環河南路254巷43-2號","121.489385","25.0514916666667","6500200","三重區"
"241012","941-UM","2018/11/10 19:49:09","新北市三重區仁興街42巷5號","121.49866","25.0756033333333","6500200","三重區"
"241029","942-UM","2018/11/10 19:49:05","新北市三重區光明路27號","121.49129","25.0585133333333","6500200","三重區"
"241033","AAC-255","2018/11/10 19:49:18","新北市三重區中興南街29-1號","121.470563333333","25.0440033333333","6500200","三重區"
"235066","003-UY","2018/11/10 19:49:20","新北市中和區南工路58號","121.506093333333","25.0016516666667","6500300","中和區"
"235056","096-UM","2018/11/10 19:49:19","新北市中和區中山路三段136巷10弄14號","121.474206666667","25.0075366666667","6500300","中和區"
"235039","097-UM","2018/11/10 19:49:10","新北市中和區大勇街27巷19號","121.5166","24.993745","6500300","中和區"
"235065","098-UM","2018/11/10 19:49:16","新北市中和區莊敬路18號","121.499896666667","25.0044066666667","6500300","中和區"
"235040","150-BY","2018/11/10 19:49:11","新北市中和區安平路59號","121.50966","24.994965","6500300","中和區"
"235058","151-BY","2018/11/10 19:49:03","新北市中和區員山路189號","121.481218333333","24.99737","6500300","中和區"
"235055","183-VK","2018/11/10 19:49:15","新北市中和區德光路27巷1弄2號","121.470838333333","25.003925","6500300","中和區"
"235038","185-VK","2018/11/10 19:49:07","新北市中和區自立路6號","121.522446666667","24.9964883333333","6500300","中和區"
"235049","186-VK","2018/11/10 19:49:11","新北市中和區中興街43號","121.500605","24.994195","6500300","中和區"
"235067","255-BX","2018/11/10 19:49:05","新北市中和區中正路751巷3弄4號","121.48421","24.9996383333333","6500300","中和區"
"235044","293-VK","2018/11/10 19:49:06","新北市中和區南山路231號","121.50358","24.9933633333333","6500300","中和區"
"235072","301-VK","2018/11/10 19:49:05","新北市中和區錦和路91號","121.489965","24.9958016666667","6500300","中和區"
"235043","352-BY","2018/11/10 19:49:13","新北市中和區興南路二段159巷7號","121.505275","24.9831216666667","6500300","中和區"
"235042","KEA-2878","2018/11/10 19:49:23","新北市中和區保健路2巷2號","121.507725","24.99836","6500300","中和區"
"235050","4979-A6","2018/11/10 19:49:10","新北市中和區景平路241巷84弄57號","121.506011666667","24.992285","6500300","中和區"
"235070","558-UM","2018/11/10 19:49:11","新北市中和區景平路481號","121.500336666667","24.9975","6500300","中和區"
"235054","640-BX","2018/11/10 19:49:05","新北市中和區莒光路127號","121.472523333333","25.0019666666667","6500300","中和區"
"235060","647-TV","2018/11/10 19:49:08","新北市中和區新生街10號","121.48314","25.00451","6500300","中和區"
"235047","732-UM","2018/11/10 19:49:05","新北市中和區興南路一段86號","121.50995","24.989365","6500300","中和區"
"235046","733-UM","2018/11/10 19:49:18","新北市中和區仁愛街47號","121.51112","24.9881966666667","6500300","中和區"
"235057","801-TS","2018/11/10 19:49:18","新北市中和區員山路263號","121.481253333333","24.999185","6500300","中和區"
"235016","805-TS","2018/11/10 19:49:18","新北市中和區興南路二段79巷5號","121.506701666667","24.9847466666667","6500300","中和區"
"235048","896-TW","2018/11/10 19:49:21","新北市中和區興南路一段137號","121.508858333333","24.98757","6500300","中和區"
"235053","900-TW","2018/11/10 19:49:06","新北市中和區國光街189巷12弄2號","121.467433333333","25.0014933333333","6500300","中和區"
"235051","157-BY","2018/11/10 19:49:18","新北市中和區中興街180巷52弄3號","121.49852","24.988335","6500300","中和區"
"235037","AAC-213","2018/11/10 19:49:21","新北市中和區秀朗路三段173-2號","121.52445","24.9914283333333","6500300","中和區"
"235059","AAC-215","2018/11/10 19:49:02","新北市中和區圓通路305巷5弄42號","121.494785","24.9902933333333","6500300","中和區"
"220068","013-TV","2018/11/10 19:49:17","新北市板橋區中山路二段412巷16-1號","121.483335","25.0202733333333","6500100","板橋區"
"220065","072-UY","2018/11/10 19:49:19","新北市板橋區區運路70號","121.466331666667","25.009985","6500100","板橋區"
"220106","075-UY","2018/11/10 19:49:07","新北市板橋區民治街57巷32-1號","121.480278333333","25.0342616666667","6500100","板橋區"
"220069","AAD-861","2018/11/10 19:49:16","新北市板橋區貴興路119巷4號","121.455661666667","25.0021816666667","6500100","板橋區"
"247014","339-TH","2018/11/10 19:49:10","新北市蘆洲區復興路30-7號","121.472785","25.0844816666667","6501400","蘆洲區"
"247008","336-TH","2018/11/10 19:49:11","新北市蘆洲區中山一路49號","121.478868333333","25.0809683333333","6501400","蘆洲區"
"247004","002-UY","2018/11/10 19:49:22","新北市蘆洲區中原路57號","121.459051666667","25.08212","6501400","蘆洲區"
"226004","312-R5","2018/11/10 19:49:07","新北市平溪區靜安路三段392巷3號","121.784545","25.04957","6502400","平溪區"
"235041","251-BX","2018/11/10 19:49:09","新北市中和區永貞路237號","121.51308","25.0036983333333","6500300","中和區"
"228003","097-TW","2018/11/10 19:49:18","新北市貢寮區真理里美艷山街8-3號","121.929511666667","25.0617983333333","6502600","貢寮區"
"228001","212-TW","2018/11/10 19:49:01","新北市貢寮區真理里新港街118號","121.926883333333","25.0565783333333","6502600","貢寮區"
"224010","AGQ-8101","2018/11/10 19:49:12","新北市瑞芳區崙頂路2-2號","121.846568333333","25.1071466666667","6501200","瑞芳區"
"224002","639-TC","2018/11/10 19:49:22","新北市瑞芳區民享新村3號","121.817365","25.1054233333333","6501200","瑞芳區"
"227010","642-TC","2018/11/10 19:49:21","新北市雙溪區新基里中華路82號","121.86583","25.038445","6502500","雙溪區"
"227002","400-TW","2018/11/10 19:49:21","新北市雙溪區雙溪里內挖路47號","121.863215","25.0367733333333","6502500","雙溪區"
"222001","KEA-2212","2018/11/10 19:49:22","新北市深坑區北深路三段71號","121.60687","25.0015383333333","6501800","深坑區"
"208002","KEA-2872","2018/11/10 19:49:08","新北市金山區中華路366-1號","121.633206666667","25.224515","6502700","金山區"
"208003","665-BX","2018/11/10 19:49:16","新北市金山區清泉里清水路41巷6號","121.629798333333","25.2319983333333","6502700","金山區"
"208001","761-BX","2018/11/10 19:49:20","新北市金山區重和里六股林口13-1號","121.602645","25.2180083333333","6502700","金山區"
"251009","008-UM","2018/11/10 19:49:07","新北市淡水區中正路38-1號","121.443726666667","25.1692633333333","6501000","淡水區"
"251005","010-UM","2018/11/10 19:49:24","新北市淡水區中山路108巷16號","121.44216","25.17112","6501000","淡水區"
"251013","KEA-2871","2018/11/10 19:49:20","新北市淡水區頂田寮路172號","121.460003333333","25.2155166666667","6501000","淡水區"
"251016","179-VK","2018/11/10 19:49:05","新北市淡水區下圭柔山121-12號","121.455046666667","25.209415","6501000","淡水區"
"251008","180-VK","2018/11/10 19:49:02","新北市淡水區中正路二段24巷2-1號","121.426768333333","25.176995","6501000","淡水區"
"251015","182-VK","2018/11/10 19:49:21","新北市淡水區泉洲厝25-8號","121.484058333333","25.1901283333333","6501000","淡水區"
"251010","413-VK","2018/11/10 19:49:17","新北市淡水區下圭柔山91-3號","121.431125","25.210275","6501000","淡水區"
"251012","441-VK","2018/11/10 19:49:09","新北市淡水區淡金路三段70巷1號","121.448318333333","25.2005716666667","6501000","淡水區"
"251007","442-VK","2018/11/10 19:49:15","新北市淡水區中正東路一段3巷35號","121.451998333333","25.166035","6501000","淡水區"
"251001","559-UM","2018/11/10 19:49:10","新北市淡水區坪頂路27號","121.456398333333","25.1630083333333","6501000","淡水區"
"251006","561-UM","2018/11/10 19:49:13","新北市淡水區水碓街15號","121.44351","25.1769483333333","6501000","淡水區"
"251011","650-BX","2018/11/10 19:49:08","新北市淡水區淡金路二段600號","121.446746666667","25.1922316666667","6501000","淡水區"
"251003","673-BX","2018/11/10 19:49:05","新北市淡水區中山北路二段375號","121.443993333333","25.1873666666667","6501000","淡水區"
"207003","550-UM","2018/11/10 19:49:14","新北市萬里區大鵬里萬里加投68號","121.64245","25.2147683333333","6502800","萬里區"
"207004","225-TW","2018/11/10 19:49:18","新北市萬里區萬里里瑪鋉路170號","121.689845","25.1798516666667","6502800","萬里區"
"252002","178-VK","2018/11/10 19:49:07","新北市三芝區三民街33-1號","121.504603333333","25.2585633333333","6502100","三芝區"
"252001","292-VK","2018/11/10 19:49:14","新北市三芝區公正街9號","121.499743333333","25.25748","6502100","三芝區"
"237004","KEA-2597","2018/11/10 19:49:08","新北市三峽區圳頭51號","121.378776666667","24.8837483333333","6500900","三峽區"
"237007","153-BY","2018/11/10 19:49:12","新北市三峽區二鬮路136巷81號","121.356846666667","24.9096933333333","6500900","三峽區"
"237009","210-TH","2018/11/10 19:49:06","新北市三峽區中園街13-1號","121.368601666667","24.92706","6500900","三峽區"
"237013","252-BX","2018/11/10 19:49:18","新北市三峽區溪北街2號","121.396016666667","24.9363166666667","6500900","三峽區"
"237012","275-BY","2018/11/10 19:49:17","新北市三峽區中華路3巷6-1號","121.374988333333","24.9311533333333","6500900","三峽區"
"237008","302-VK","2018/11/10 19:49:06","新北市三峽區大同路209號","121.370608333333","24.9270583333333","6500900","三峽區"
"237014","433-BY","2018/11/10 19:49:22","新北市三峽區添福10號","121.372381666667","24.90506","6500900","三峽區"
"237006","5529-G3","2018/11/10 19:49:07","新北市三峽區中正路一段336巷15弄2號","121.369928333333","24.9249366666667","6500900","三峽區"
"237016","649-BX","2018/11/10 19:49:18","新北市三峽區介壽路三段11號","121.395618333333","24.9363233333333","6500900","三峽區"
"237005","AKY-6261","2018/11/10 19:49:08","新北市三峽區長泰街42號","121.37839","24.9321833333333","6500900","三峽區"
"236070","105-UM","2018/11/10 19:49:16","新北市土城區中央路二段346巷13號","121.439495","24.9722666666667","6501300","土城區"
"236042","KED-0685","2018/11/10 19:49:04","新北市土城區裕民路233巷5號","121.454943333333","24.9834783333333","6501300","土城區"
"236079","166-UM","2018/11/10 19:49:09","新北市土城區溪頭路88號","121.40957","24.951055","6501300","土城區"
"236030","253-BX","2018/11/10 19:49:05","新北市土城區中央路一段294號","121.443286666667","24.9823983333333","6501300","土城區"
"236026","269-VK","2018/11/10 19:49:14","新北市土城區中央路二段61巷62號","121.444725","24.9782616666667","6501300","土城區"
"236038","271-VK","2018/11/10 19:49:05","新北市土城區國際路158巷47號","121.468225","24.9753883333333","6501300","土城區"
"236021","401-BY","2018/11/10 19:49:16","新北市土城區延吉街137巷6號","121.470893333333","24.9858183333333","6501300","土城區"
"236059","912-UM","2018/11/10 19:49:14","新北市土城區中央路一段124號","121.446353333333","24.9879733333333","6501300","土城區"
"236049","913-UM","2018/11/10 19:49:21","新北市土城區青雲路113號","121.459053333333","24.984375","6501300","土城區"
"236063","915-UM","2018/11/10 19:49:22","新北市土城區金城路三段149巷4弄14號","121.46854","24.9892466666667","6501300","土城區"
"236055","AAC-216","2018/11/10 19:49:06","新北市土城區延和路160號","121.468203333333","24.9903066666667","6501300","土城區"
"242036","AAC-296","2018/11/10 19:49:19","新北市新莊區建安街60號","121.427131666667","25.024645","6500500","新莊區"
"242058","986-R7","2018/11/10 19:49:10","新北市新莊區新樹路44號","121.437673333333","25.0276216666667","6500500","新莊區"
"242056","751-BX","2018/11/10 19:49:18","新北市新莊區新泰路61號","121.44944","25.03404","6500500","新莊區"
"242029","612-BX","2018/11/10 19:49:10","新北市新莊區中平路300號","121.444726666667","25.0518316666667","6500500","新莊區"
"242048","497-BY","2018/11/10 19:49:05","新北市新莊區建安街76巷3弄15號","121.425708333333","25.0246066666667","6500500","新莊區"
"242039","415-TV","2018/11/10 19:49:09","新北市新莊區民安路311巷11號","121.429503333333","25.0230016666667","6500500","新莊區"
"242023","362-BY","2018/11/10 19:49:16","新北市新莊區化成路260號","121.465656666667","25.047555","6500500","新莊區"
"242051","172-VK","2018/11/10 19:49:16","新北市新莊區民安路288號","121.42795","25.02167","6500500","新莊區"
"242013","173-VK","2018/11/10 19:49:12","新北市新莊區中誠街67號","121.450766666667","25.0478133333333","6500500","新莊區"
"242007","176-VK","2018/11/10 19:49:19","新北市新莊區思源路593巷6弄21號","121.457901666667","25.0598883333333","6500500","新莊區"
"242017","346-TH","2018/11/10 19:49:08","新北市新莊區中華路一段226號","121.452635","25.0429733333333","6500500","新莊區"
"242031","348-TH","2018/11/10 19:49:22","新北市新莊區公園一路121號","121.445256666667","25.0379783333333","6500500","新莊區"
"242004","349-TH","2018/11/10 19:49:14","新北市新莊區化成路63巷93號","121.461906666667","25.045865","6500500","新莊區"
"238015","755-BX","2018/11/10 19:49:08","新北市樹林區樹德街18號","121.42272","24.9915516666667","6500700","樹林區"
"238019","599-UM","2018/11/10 19:49:19","新北市樹林區鎮前街457號","121.413051666667","24.9825266666667","6500700","樹林區"
"238024","5061-A6","2018/11/10 19:48:25","新北市樹林區中山路三段210-2號","121.380626666667","24.9677733333333","6500700","樹林區"
"238021","KEA-2539","2018/11/10 19:49:13","新北市樹林區佳園路三段181巷99號","121.391471666667","24.9483716666667","6500700","樹林區"
"238025","303-VK","2018/11/10 19:49:05","新北市樹林區中山路二段86號","121.414585","24.98364","6500700","樹林區"
"238017","283-BY","2018/11/10 19:49:07","新北市樹林區中山路二段230號","121.40905","24.9802716666667","6500700","樹林區"
"238026","172-UY","2018/11/10 19:49:13","新北市樹林區佳園路一段94號","121.393411666667","24.9686666666667","6500700","樹林區"
"239006","891-R6","2018/11/10 19:49:03","新北市鶯歌區文化路115巷11號","121.35728","24.9553133333333","6500800","鶯歌區"
"239006","661-UM","2018/11/10 19:49:06","新北市鶯歌區二甲路12-2號","121.345576666667","24.9346066666667","6500800","鶯歌區"
"239001","417-VK","2018/11/10 19:49:08","新北市鶯歌區文化路55號","121.358995","24.9552566666667","6500800","鶯歌區"
"221008","489-VK","2018/11/10 19:49:24","新北市汐止區康寧街39號","121.618613333333","25.06675","6501100","汐止區"
"221036","130-UY","2018/11/10 19:49:13","新北市汐止區汐萬路一段81號","121.654733333333","25.0699483333333","6501100","汐止區"
"221015","131-UY","2018/11/10 19:49:12","新北市汐止區忠孝東路488號","121.666525","25.0748066666667","6501100","汐止區"
"221010","269-BY","2018/11/10 19:49:24","新北市汐止區連峰街128號","121.646143333333","25.07914","6501100","汐止區"
"221012","278-VK","2018/11/10 19:49:24","新北市汐止區大同路三段549號","121.681331666667","25.0715416666667","6501100","汐止區"
"221023","279-VK","2018/11/10 19:48:15","新北市汐止區民族三街43號","121.629736666667","25.0699816666667","6501100","汐止區"
"221032","280-BY","2018/11/10 19:49:05","新北市汐止區橫科路403巷18號","121.624906666667","25.0476316666667","6501100","汐止區"
"221027","281-BY","2018/11/10 19:49:18","新北市汐止區南昌街2巷15號","121.662685","25.06893","6501100","汐止區"
"221021","299-VK","2018/11/10 19:49:20","新北市汐止區莊敬街8號","121.657366666667","25.06157","6501100","汐止區"
"221031","353-TW","2018/11/10 19:49:22","新北市汐止區福德三路127號","121.633716666667","25.0674983333333","6501100","汐止區"
"221035","622-UM","2018/11/10 19:49:16","新北市汐止區長江街13巷5弄2號","121.654643333333","25.0717533333333","6501100","汐止區"
"221025","623-UM","2018/11/10 19:49:15","新北市汐止區秀峰路81巷14號","121.660751666667","25.06436","6501100","汐止區"
"221038","646-BX","2018/11/10 19:49:20","新北市汐止區忠孝東路295號","121.664236666667","25.0688966666667","6501100","汐止區"
"221033","647-BX","2018/11/10 19:49:06","新北市汐止區東勢街60號","121.632523333333","25.03921","6501100","汐止區"
"221002","707-TV","2018/11/10 19:49:05","新北市汐止區大同路一段219巷14號","121.633406666667","25.058215","6501100","汐止區"
"221018","753-BX","2018/11/10 19:49:11","新北市汐止區汐萬路一段3號","121.656075","25.06734","6501100","汐止區"
"220080","200-UY","2018/11/10 19:49:08","新北市板橋區大觀路二段37巷29號","121.448245","25.0026133333333","6500100","板橋區"
"220082","610-BX","2018/11/10 19:49:03","新北市板橋區金門街182號","121.432595","24.9909133333333","6500100","板橋區"
"220101","245-BX","2018/11/10 19:49:16","新北市板橋區縣民大道三段79巷14號","121.475186666667","25.0221083333333","6500100","板橋區"
"220072","277-BY","2018/11/10 19:49:23","新北市板橋區篤行路二段79號","121.431768333333","24.9918766666667","6500100","板橋區"
"220094","283-UM","2018/11/10 19:49:16","新北市板橋區溪頭街2號","121.457468333333","25.0288933333333","6500100","板橋區"
"220071","283-VK","2018/11/10 19:49:08","新北市板橋區五權街30巷24弄15號","121.46387","24.9933933333333","6500100","板橋區"
"220053","285-VK","2018/11/10 19:49:05","新北市板橋區中山路二段90巷37號","121.475926666667","25.0153183333333","6500100","板橋區"
"220083","286-VK","2018/11/10 19:49:05","新北市板橋區龍興街63巷10號","121.44286","25.001415","6500100","板橋區"
"220081","287-VK","2018/11/10 19:49:15","新北市板橋區大觀路一段29巷133弄2號","121.450305","25.00542","6500100","板橋區"
"220090","288-VK","2018/11/10 19:49:07","新北市板橋區龍泉街72巷11號","121.456111666667","25.0261516666667","6500100","板橋區"
"220061","295-UM","2018/11/10 19:49:12","新北市板橋區中山路一段283巷2弄16號","121.470485","25.0148266666667","6500100","板橋區"
"220084","296-UM","2018/11/10 19:49:18","新北市板橋區溪崑二街111巷11號","121.426828333333","24.9885133333333","6500100","板橋區"
"242002","281-VK","2018/11/10 19:49:20","新北市新莊區新泰路2-10號","121.450175","25.032555","6500500","新莊區"
"220075","303-R5","2018/11/10 19:49:18","新北市板橋區中正路225號","121.455966666667","25.0177583333333","6500100","板橋區"
"220062","305-R5","2018/11/10 19:49:17","新北市板橋區光復街33巷12號","121.482016666667","25.01893","6500100","板橋區"
"220092","307-R5","2018/11/10 19:49:21","新北市板橋區四維路259巷25號","121.462005","25.0274316666667","6500100","板橋區"
"220098","317-R6","2018/11/10 19:49:05","新北市板橋區裕民街131號","121.459113333333","25.0273116666667","6500100","板橋區"
"220089","487-VK","2018/11/10 19:49:17","新北市板橋區龍泉街83-3號","121.456683333333","25.0250483333333","6500100","板橋區"
"242034","280-VK","2018/11/10 19:49:17","新北市新莊區建中街90巷7弄17號","121.44572","25.0374783333333","6500500","新莊區"
"220088","491-VK","2018/11/10 19:49:16","新北市板橋區仁化街90號","121.476425","25.03203","6500100","板橋區"
"220035","560-BX","2018/11/10 19:49:04","新北市板橋區金華街80-3號","121.457791666667","25.0206416666667","6500100","板橋區"
"220103","561-BX","2018/11/10 19:49:19","新北市板橋區陽明街29巷3號","121.465286666667","25.0216383333333","6500100","板橋區"
"220079","568-UM","2018/11/10 19:49:24","新北市板橋區南雅西路二段175巷1號","121.451593333333","25.012415","6500100","板橋區"
"220063","609-BX","2018/11/10 19:49:08","新北市板橋區三民路一段73號","121.479623333333","25.0222633333333","6500100","板橋區"
"220091","637-BX","2018/11/10 19:49:11","新北市板橋區懷德街191巷26弄8號","121.480621666667","25.0293283333333","6500100","板橋區"
"220057","686-BX","2018/11/10 19:49:08","新北市板橋區信義路215號","121.459385","24.9915083333333","6500100","板橋區"
"220077","687-BX","2018/11/10 19:49:18","新北市板橋區僑中一街144號","121.445136666667","25.0119233333333","6500100","板橋區"
"220093","689-BX","2018/11/10 19:49:21","新北市板橋區長江路三段68號","121.473873333333","25.0340583333333","6500100","板橋區"
"220054","741-BX","2018/11/10 19:49:14","新北市板橋區國泰街75巷28弄76號","121.467128333333","25.0044","6500100","板橋區"
"220102","KEA-2699","2018/11/10 19:49:04","新北市板橋區松柏街33巷1號","121.475181666667","25.030335","6500100","板橋區"
"220055","827-TW","2018/11/10 19:49:18","新北市板橋區國慶路149巷13弄13號","121.460378333333","24.9967683333333","6500100","板橋區"
"220067","829-TW","2018/11/10 19:49:23","新北市板橋區長安街259巷27號","121.472865","25.011115","6500100","板橋區"
"220096","831-TW","2018/11/10 19:49:11","新北市板橋區莒光路39巷18號","121.470968333333","25.02531","6500100","板橋區"
"220064","833-TW","2018/11/10 19:49:16","新北市板橋區實踐路108號","121.464208333333","25.0045783333333","6500100","板橋區"
"220074","895-R6","2018/11/10 19:49:18","新北市板橋區東門街30-1號","121.458095","25.0083933333333","6500100","板橋區"
"220073","985-R7","2018/11/10 19:49:16","新北市板橋區南雅西路二段283號","121.451953333333","25.0152983333333","6500100","板橋區"
"220097","AAC-210","2018/11/10 19:49:10","新北市板橋區漢生西路62號","121.463111666667","25.0189233333333","6500100","板橋區"
"220070","AAC-253","2018/11/10 19:49:08","新北市板橋區成都街10號","121.46036","25.00469","6500100","板橋區"
"235068","KEA-2873","2018/11/10 19:49:19","新北市中和區莊敬路16巷1號","121.499948333333","25.00424","6500300","中和區"
"235061","KEA-2875","2018/11/10 19:48:56","新北市中和區員山路325-3號","121.481245","25.00086","6500300","中和區"
