"lineid","car","time","location","longitude","latitude","cityid","cityname"
"234040","862-TW","2018/11/10 21:39:10","新北市永和區福和路1號","121.526378333333","25.00976","6500400","永和區"
"243001","297-R6","2018/11/10 21:17:19","新北市泰山區黎明路25號","121.42187","25.0608533333333","6501600","泰山區"
"231040","047-UY","2018/11/10 21:39:04","新北市新店區薏仁坑路自強巷1號","121.497088333333","24.9580133333333","6500600","新店區"
"251014","742-BX","2018/11/10 21:39:17","新北市淡水區淡金路三段426號","121.450198333333","25.21187","6501000","淡水區"
"241005","262-UM","2018/11/10 21:39:17","新北市三重區碧華街1號","121.483513333333","25.0810766666667","6500200","三重區"
"241032","269-UM","2018/11/10 21:39:03","新北市八里區中山路三段409號","121.36842","25.1349766666667","6500200","三重區"
"247012","KEA-2869","2018/11/10 21:39:10","新北市五股區凌雲路三段24巷10號","121.435935","25.10702","6501400","蘆洲區"
"251009","008-UM","2018/11/10 21:39:17","新北市淡水區民生路52巷22弄12號","121.4625","25.1370983333333","6501000","淡水區"
"251005","010-UM","2018/11/10 21:39:24","新北市淡水區水源街一段148號","121.44816","25.1715816666667","6501000","淡水區"
"251002","012-UM","2018/11/10 21:39:17","新北市淡水區學府路152號","121.446425","25.1742866666667","6501000","淡水區"
"251016","179-VK","2018/11/10 21:39:25","新北市淡水區中山北路三段163號","121.445236666667","25.1967416666667","6501000","淡水區"
"251008","180-VK","2018/11/10 21:39:18","新北市淡水區水源街二段86號","121.4516","25.17431","6501000","淡水區"
"251010","413-VK","2018/11/10 21:39:16","新北市淡水區沙崙路242號","121.425766666667","25.1849466666667","6501000","淡水區"
"251012","441-VK","2018/11/10 21:39:09","新北市淡水區淡金路四段207號","121.451593333333","25.2220766666667","6501000","淡水區"
"251004","443-VK","2018/11/10 21:39:12","新北市淡水區民生路47-4號","121.462118333333","25.13798","6501000","淡水區"
"251001","559-UM","2018/11/10 21:39:09","新北市淡水區崁頂二路250號","121.435825","25.1968183333333","6501000","淡水區"
"251006","561-UM","2018/11/10 21:39:13","新北市淡水區中正路73號","121.440621666667","25.1693083333333","6501000","淡水區"
"251011","650-BX","2018/11/10 21:39:23","新北市淡水區新民街322巷1號","121.435606666667","25.1837683333333","6501000","淡水區"
"251003","673-BX","2018/11/10 21:39:25","新北市淡水區新春街36號","121.437056666667","25.1815283333333","6501000","淡水區"
"220081","287-VK","2018/11/10 21:39:22","新北市五股區新五路三段202號","121.445955","25.0898816666667","6500100","板橋區"
