"lineid","car","time","location","longitude","latitude","cityid","cityname"
"234040","862-TW","2018/11/10 21:59:47","新北市永和區福和路1號","121.52645","25.0097133333333","6500400","永和區"
"247007","336-TH","2018/11/10 22:29:17","新北市五股區中興路三段163號","121.449051666667","25.080845","6501400","蘆洲區"
"251008","180-VK","2018/11/10 22:29:18","新北市淡水區學府路104號","121.449888333333","25.1717716666667","6501000","淡水區"
"251010","413-VK","2018/11/10 22:29:16","新北市淡水區沙崙路200號","121.424705","25.1839383333333","6501000","淡水區"
"251007","442-VK","2018/11/10 22:29:15","新北市淡水區北新路133號","121.449283333333","25.1788566666667","6501000","淡水區"
"251004","443-VK","2018/11/10 22:29:12","新北市淡水區民族路33號","121.46221","25.1358566666667","6501000","淡水區"
"251011","650-BX","2018/11/10 22:29:08","新北市淡水區水碓街15-1號","121.443266666667","25.1771916666667","6501000","淡水區"
