"lineid","car","time","location","longitude","latitude","cityid","cityname"
"248005","653-BX","2018/07/23 07:09:25","新北市五股區成泰路一段106-1號","121.43569","25.0719183333333","6501500","五股區"
"248003","655-BX","2018/07/23 07:09:30","新北市五股區中興路二段30-2號","121.462123333333","25.0760166666667","6501500","五股區"
"232001","290-BY","2018/07/23 07:09:30","新北市坪林區桶盤嶼8-2號","121.707238333333","24.957455","6502000","坪林區"
"232012","291-BY","2018/07/23 07:09:29","新北市坪林區黃舉皮寮8-1號","121.68922","24.9362716666667","6502000","坪林區"
"232010","375-UM","2018/07/23 07:09:35","新北市坪林區水聳淒坑7-10號","121.723981666667","24.9248416666667","6502000","坪林區"
"232017","705-BZ","2018/07/23 07:09:30","新北市坪林區九芎坑5號","121.731671666667","24.9616433333333","6502000","坪林區"
"232005","758-BX","2018/07/23 07:09:42","新北市坪林區魚堀55-5號","121.706543333333","24.9287","6502000","坪林區"
"244001","248-BX","2018/07/23 07:09:35","新北市林口區頭湖83-24號","121.36989","25.0835366666667","6501700","林口區"
"235001","611-BX","2018/07/23 07:09:39","新北市中和區圓通路367巷6號","121.49158","24.9892233333333","6500300","中和區"
"226005","5620-A6","2018/07/23 07:09:37","新北市平溪區菁桐里菁桐街8號","121.727188333333","25.0240616666667","6502400","平溪區"
"226001","7418-A5","2018/07/23 07:09:21","新北市平溪區靜安路二段430號","121.741075","25.0248966666667","6502400","平溪區"
"226003","AGD-0702","2018/07/23 07:09:24","新北市平溪區靜安路二段500號","121.74386","25.0268516666667","6502400","平溪區"
"223006","022-BY","2018/07/23 07:09:39","新北市石碇區新興坑8-2號","121.653448333333","25.0184016666667","6501900","石碇區"
"223002","KEA-2673","2018/07/23 07:09:34","新北市石碇區碇格路二段24號","121.64428","24.9619733333333","6501900","石碇區"
"223003","205-TH","2018/07/23 07:09:27","新北市石碇區溪邊寮1號","121.658278333333","24.9798233333333","6501900","石碇區"
"223008","406-TH","2018/07/23 07:09:35","新北市石碇區番子坑25-1號","121.677725","25.0024316666667","6501900","石碇區"
"223001","592-UM","2018/07/23 07:09:28","新北市石碇區溪邊寮1號","121.65835","24.979625","6501900","石碇區"
"223004","660-BX","2018/07/23 07:09:38","新北市石碇區碇坪路一段16號","121.651651666667","25.00593","6501900","石碇區"
"223007","661-BX","2018/07/23 07:09:29","新北市石碇區番子坑24-3號","121.678785","25.0018166666667","6501900","石碇區"
"223005","677-TV","2018/07/23 07:09:38","新北市石碇區碇坪路一段16號","121.651643333333","25.0058966666667","6501900","石碇區"
"227005","282-VK","2018/07/23 07:09:30","新北市雙溪區新基里自強路5號","121.86629","25.038995","6502500","雙溪區"
"252006","073-UM","2018/07/23 07:09:40","新北市三芝區福德里埔尾20-3號","121.502285","25.2413833333333","6502100","三芝區"
"252004","249-BX","2018/07/23 07:09:26","新北市三芝區錫板里小坑子11-1號","121.502995","25.2368766666667","6502100","三芝區"
"236007","165-UM","2018/07/23 07:09:31","新北市土城區中華路二段199號","121.438188333333","24.9742","6501300","土城區"
"236001","339-SR","2018/07/23 07:09:38","新北市土城區和平路73號","121.443756666667","24.9714333333333","6501300","土城區"
"242022","362-BY","2018/07/23 07:09:20","新北市新莊區新泰路255巷83號","121.442556666667","25.038755","6500500","新莊區"
