"lineid","car","time","location","longitude","latitude","cityid","cityname"
"248005","653-BX","2018/07/23 07:29:25","新北市五股區明德路10號","121.433375","25.0717466666667","6501500","五股區"
"248003","655-BX","2018/07/23 07:29:30","新北市五股區中興路二段11號","121.462996666667","25.07421","6501500","五股區"
"232001","290-BY","2018/07/23 07:29:30","新北市坪林區上坑子口9-1號","121.701588333333","24.96313","6502000","坪林區"
"232012","291-BY","2018/07/23 07:29:30","新北市坪林區金瓜寮3-2號","121.681058333333","24.918545","6502000","坪林區"
"232010","375-UM","2018/07/23 07:29:35","新北市坪林區水聳淒坑5-1號","121.725901666667","24.9261166666667","6502000","坪林區"
"232017","705-BZ","2018/07/23 07:29:30","新北市坪林區樟空子6-1號","121.725913333333","24.97023","6502000","坪林區"
"232005","758-BX","2018/07/23 07:29:22","新北市坪林區魚堀36-2號","121.70031","24.930805","6502000","坪林區"
"244001","248-BX","2018/07/23 07:29:35","新北市林口區頂福里73-2號","121.340958333333","25.0934483333333","6501700","林口區"
"235001","611-BX","2018/07/23 07:29:39","新北市中和區圓通路367巷8號","121.491595","24.9892033333333","6500300","中和區"
"226005","5620-A6","2018/07/23 07:29:37","新北市平溪區薯榔里雙菁路42號","121.720755","25.0244516666667","6502400","平溪區"
"226001","7418-A5","2018/07/23 07:19:41","新北市平溪區望古里灰4-1號","121.76286","25.0299666666667","6502400","平溪區"
"226003","AGD-0702","2018/07/23 07:29:24","新北市平溪區嶺腳里嶺腳寮94號","121.746191666667","25.0376283333333","6502400","平溪區"
"223006","022-BY","2018/07/23 07:29:38","新北市石碇區靜安路一段108號","121.64896","25.0092016666667","6501900","石碇區"
"223002","KEA-2673","2018/07/23 07:28:14","新北市石碇區北宜路五段土巷10號","121.626773333333","24.9442583333333","6501900","石碇區"
"223003","205-TH","2018/07/23 07:29:23","新北市石碇區內楒仔腳4-1號","121.64156","24.9713566666667","6501900","石碇區"
"223008","406-TH","2018/07/23 07:29:35","新北市石碇區靜安路一段243號","121.686571666667","25.010415","6501900","石碇區"
"223001","592-UM","2018/07/23 07:29:28","新北市石碇區內楒仔腳4-1號","121.642118333333","24.971275","6501900","石碇區"
"223004","660-BX","2018/07/23 07:29:38","新北市石碇區八分寮55-5號","121.645276666667","25.0169266666667","6501900","石碇區"
"223007","661-BX","2018/07/23 07:29:28","新北市石碇區大溪墘14號","121.69444","25.0082283333333","6501900","石碇區"
"223005","677-TV","2018/07/23 07:29:38","新北市石碇區八分寮55-5號","121.645493333333","25.016585","6501900","石碇區"
"227005","282-VK","2018/07/23 07:29:30","新北市雙溪區新基里自強路7號","121.866281666667","25.03901","6502500","雙溪區"
"252006","073-UM","2018/07/23 07:29:40","新北市三芝區埔頭里埔頭27-2號","121.497183333333","25.2597766666667","6502100","三芝區"
"252004","249-BX","2018/07/23 07:29:26","新北市三芝區興華里楓子林55-1號","121.501003333333","25.2137183333333","6502100","三芝區"
"237001","159-UY","2018/07/23 07:29:23","新北市三峽區隆恩街245號","121.357713333333","24.94085","6500900","三峽區"
"236007","165-UM","2018/07/23 07:29:30","新北市板橋區五權街34-1號","121.46434","24.99212","6501300","土城區"
"236001","339-SR","2018/07/23 07:29:38","新北市土城區忠義路90-3號","121.443561666667","24.9601583333333","6501300","土城區"
"242052","751-BX","2018/07/23 07:29:33","新北市新莊區三和路12-21號","121.44185","25.03885","6500500","新莊區"
"242026","615-BX","2018/07/23 07:29:30","新北市新莊區新泰路255巷83號","121.442266666667","25.03883","6500500","新莊區"
"242049","441-UM","2018/07/23 07:29:22","新北市新莊區三和路12-21號","121.44201","25.0382183333333","6500500","新莊區"
"242035","415-TV","2018/07/23 07:29:28","新北市新莊區新泰路357巷3弄57號","121.44203","25.03928","6500500","新莊區"
"242006","413-TV","2018/07/23 07:29:34","新北市新莊區新泰路357巷3弄57號","121.442035","25.039345","6500500","新莊區"
"242022","362-BY","2018/07/23 07:29:39","新北市新莊區新泰路255巷83號","121.442298333333","25.03872","6500500","新莊區"
"242030","135-UY","2018/07/23 07:29:38","新北市新莊區三和路12-21號","121.441831666667","25.0385166666667","6500500","新莊區"
"242016","175-VK","2018/07/23 07:29:24","新北市新莊區三和路12-21號","121.44199","25.038785","6500500","新莊區"
"242020","348-TH","2018/07/23 07:29:23","新北市新莊區新泰路357巷3弄57號","121.441998333333","25.0393333333333","6500500","新莊區"
"242018","350-TH","2018/07/23 07:29:28","新北市新莊區新泰路255巷83號","121.442145","25.0390266666667","6500500","新莊區"
"242012","351-TH","2018/07/23 07:29:31","新北市新莊區新泰路357巷3弄57號","121.442073333333","25.039465","6500500","新莊區"
