"lineid","car","time","location","longitude","latitude","cityid","cityname"
"248005","653-BX","2018/07/06 08:29:43","新北市五股區明德路12巷3號","121.433316666667","25.0718233333333","6501500","五股區"
"243012","646-TV","2018/07/06 08:29:39","新北市泰山區泰林路三段28巷8號","121.418725","25.0652466666667","6501600","泰山區"
"222005","289-BY","2018/07/06 08:29:43","新北市深坑區深南路178號","121.626648333333","25.0157033333333","6501800","深坑區"
"231007","189-VK","2018/07/06 08:29:40","新北市新店區小坑二路71-1號","121.521986666667","24.9133516666667","6500600","新店區"
"231009","192-VK","2018/07/06 08:29:40","新北市新店區新烏路一段159號","121.544763333333","24.935545","6500600","新店區"
"235001","611-BX","2018/07/06 08:29:49","新北市中和區中山路二段523巷32弄7號","121.481576666667","25.0036816666667","6500300","中和區"
"226005","5620-A6","2018/07/06 08:29:45","新北市平溪區南山里六分13號","121.797848333333","25.0497833333333","6502400","平溪區"
"226001","7418-A5","2018/07/06 08:29:42","新北市平溪區東勢里芊蓁林59-1號","121.751985","25.006765","6502400","平溪區"
"226006","AGD-0702","2018/07/06 08:29:43","新北市平溪區十分里十分街259號","121.778288333333","25.04498","6502400","平溪區"
"223006","022-BY","2018/07/06 08:27:44","新北市坪林區下坑子口24-5號","121.701528333333","24.9496016666667","6501900","石碇區"
"223003","205-TH","2018/07/06 08:29:44","新北市石碇區北宜路六段柑腳巷2號","121.659556666667","24.9380333333333","6501900","石碇區"
"223008","406-TH","2018/07/06 08:29:43","新北市石碇區碇南路二段松柏崎巷6號","121.673823333333","25.0187633333333","6501900","石碇區"
"223001","592-UM","2018/07/06 08:29:35","新北市石碇區北宜路六段柑腳巷2號","121.659671666667","24.9380183333333","6501900","石碇區"
"223004","660-BX","2018/07/06 08:29:39","新北市石碇區碇坪路一段149號","121.675336666667","24.97818","6501900","石碇區"
"223005","677-TV","2018/07/06 08:29:45","新北市石碇區碇坪路一段149號","121.675401666667","24.97824","6501900","石碇區"
"227005","282-VK","2018/07/06 08:29:53","新北市雙溪區外柑里三叉坑8號","121.827626666667","25.0084416666667","6502500","雙溪區"
"252003","249-BX","2018/07/06 08:29:49","新北市八里區下罟子1-15號","121.389253333333","25.1421933333333","6502100","三芝區"
"237001","159-UY","2018/07/06 08:29:44","新北市三峽區大觀路7號","121.375651666667","24.9438616666667","6500900","三峽區"
"236010","165-UM","2018/07/06 08:24:54","新北市土城區石門路78-1號","121.459411666667","24.954865","6501300","土城區"
"236006","498-BY","2018/07/06 08:29:34","新北市土城區中央路四段37巷23號","121.42369","24.96111","6501300","土城區"
