"lineid","car","time","location","longitude","latitude","cityid","cityname"
"248005","653-BX","2018/07/06 09:59:38","新北市五股區成泰路一段241巷15號","121.435626666667","25.08112","6501500","五股區"
"231007","189-VK","2018/07/06 09:59:40","新北市新店區新潭路三段215巷25號","121.5081","24.9041","6500600","新店區"
"231009","192-VK","2018/07/06 09:36:20","新北市新店區平廣路一段250號","121.508503333333","24.8886616666667","6500600","新店區"
"227005","282-VK","2018/07/06 09:59:52","新北市雙溪區泰平里灣潭路36號","121.811446666667","24.9287916666667","6502500","雙溪區"
"237001","159-UY","2018/07/06 09:59:44","新北市三峽區隆恩街166號","121.363326666667","24.9428783333333","6500900","三峽區"
"236006","498-BY","2018/07/06 09:59:34","新北市土城區亞洲路2號","121.43719","24.9754983333333","6501300","土城區"
"220003","256-TC","2018/07/06 09:59:32","新北市板橋區中正路435-2號","121.450971666667","25.0246566666667","6500100","板橋區"
