"lineid","car","time","location","longitude","latitude","cityid","cityname"
"248005","653-BX","2018/07/06 10:19:38","新北市五股區中興路二段37巷24號","121.460665","25.07515","6501500","五股區"
"231007","189-VK","2018/07/06 10:19:40","新北市新店區小坑二路136號","121.51321","24.9112566666667","6500600","新店區"
"231009","192-VK","2018/07/06 10:19:40","新北市新店區小坑一路35巷1號","121.52958","24.908395","6500600","新店區"
"227005","282-VK","2018/07/06 10:02:52","新北市雙溪區泰平里灣潭路20-1號","121.813026666667","24.9291733333333","6502500","雙溪區"
"237001","159-UY","2018/07/06 10:19:44","新北市三峽區大觀路90號","121.373841666667","24.9466433333333","6500900","三峽區"
"220003","256-TC","2018/07/06 10:19:52","新北市板橋區大仁街33巷2號","121.455213333333","25.0164083333333","6500100","板橋區"
