"lineid","car","time","location","longitude","latitude","cityid","cityname"
"234044","148-BY","2018/07/06 12:49:22","新北市永和區秀朗路二段179號","121.525826666667","25.0014933333333","6500400","永和區"
"234005","207-UY","2018/07/06 12:49:10","新北市永和區文化路170號","121.511968333333","25.0154716666667","6500400","永和區"
"234078","298-R6","2018/07/06 12:49:26","新北市永和區永利路130號","121.521731666667","25.00306","6500400","永和區"
"234036","336-UY","2018/07/06 12:49:22","新北市永和區成功路二段153號","121.526668333333","24.9975616666667","6500400","永和區"
"234068","552-UM","2018/07/06 12:48:56","新北市永和區中興街100號","121.519046666667","25.01211","6500400","永和區"
"234084","553-UM","2018/07/06 12:49:24","新北市永和區中正路59號","121.51462","24.9963166666667","6500400","永和區"
"234015","745-BX","2018/07/06 12:49:18","新北市永和區忠孝街26巷8號","121.515361666667","25.0167266666667","6500400","永和區"
"234028","746-BX","2018/07/06 12:49:13","新北市永和區得和路321號","121.523346666667","24.9996116666667","6500400","永和區"
"234052","KEA-2590","2018/07/06 12:49:24","新北市永和區竹林路159號","121.520576666667","25.010315","6500400","永和區"
"234012","KEA-2591","2018/07/06 12:49:14","新北市永和區保安路105巷8號","121.508721666667","25.01386","6500400","永和區"
"234060","AAD-866","2018/07/06 12:49:23","新北市永和區福和路309巷1號","121.516296666667","25.0069966666667","6500400","永和區"
"234040","862-TW","2018/07/06 12:49:16","新北市永和區永貞路308號","121.511928333333","25.004925","6500400","永和區"
"234048","863-TW","2018/07/06 12:49:28","新北市永和區福和路1號","121.526575","25.010005","6500400","永和區"
"234025","9371-KE","2018/07/06 12:49:19","新北市永和區永和路184-1號","121.514236666667","25.009175","6500400","永和區"
"234010","9373-KE","2018/07/06 12:49:23","新北市永和區保福路二段158巷1號","121.509118333333","25.0150233333333","6500400","永和區"
"248019","225-UY","2018/07/06 12:49:22","新北市五股區中興路二段37巷28號","121.460136666667","25.0749866666667","6501500","五股區"
"234022","9380-KE","2018/07/06 12:49:20","新北市永和區竹林路119巷22弄3-1號","121.52167","25.01156","6500400","永和區"
"234076","969-R7","2018/07/06 12:49:08","新北市中和區安樂路101-3號","121.513511666667","24.9950666666667","6500400","永和區"
"234066","AAC-212","2018/07/06 12:49:22","新北市永和區永和路一段22號","121.513075","25.0048","6500400","永和區"
"234001","AAC-295","2018/07/06 12:49:26","新北市永和區中正路649號","121.51513","25.0100816666667","6500400","永和區"
"244004","248-BX","2018/07/06 12:49:18","新北市林口區粉寮路二段160巷28號","121.405146666667","25.090775","6501700","林口區"
"231002","002-UM","2018/07/06 12:49:07","新北市新店區安一路一段1-1號","121.519595","24.96115","6500600","新店區"
"231005","106-UY","2018/07/06 12:49:09","新北市新店區安華路28-1號","121.519663333333","24.9607966666667","6500600","新店區"
"231036","110-UY","2018/07/06 12:49:19","新北市新店區安一路一段1-1號","121.519865","24.96163","6500600","新店區"
"231010","188-VK","2018/07/06 12:49:10","新北市新店區安一路一段1-1號","121.519243333333","24.9613216666667","6500600","新店區"
"231003","268-BY","2018/07/06 12:49:29","新北市新店區安華路28-1號","121.519406666667","24.96069","6500600","新店區"
"231018","278-BY","2018/07/06 12:49:17","新北市新店區安一路一段1-1號","121.51957","24.9611716666667","6500600","新店區"
"231016","AAD-862","2018/07/06 12:49:27","新北市新店區安一路一段1-1號","121.519971666667","24.961165","6500600","新店區"
"231013","513-UM","2018/07/06 12:49:18","新北市新店區安一路一段1-1號","121.519628333333","24.961135","6500600","新店區"
"231030","619-UM","2018/07/06 12:49:22","新北市新店區安華路28-1號","121.519545","24.9609033333333","6500600","新店區"
"231035","719-UM","2018/07/06 12:49:19","新北市新店區安一路一段1-1號","121.51968","24.9615833333333","6500600","新店區"
"231029","897-TW","2018/07/06 12:49:18","新北市新店區安華路28-1號","121.519681666667","24.96081","6500600","新店區"
"231024","AKT-0513","2018/07/06 12:48:57","新北市新店區安華路28-1號","121.519506666667","24.9606283333333","6500600","新店區"
"235028","005-UY","2018/07/06 12:49:19","新北市中和區員山路36巷16-3號","121.485153333333","24.9912516666667","6500300","中和區"
"235027","006-UY","2018/07/06 12:49:13","新北市中和區員山路36巷16-3號","121.484978333333","24.991395","6500300","中和區"
"235029","098-UM","2018/07/06 12:49:09","新北市中和區中正路517號","121.488101666667","24.9943333333333","6500300","中和區"
"235031","255-BX","2018/07/06 12:49:11","新北市中和區中正路1155號","121.481856666667","25.0082816666667","6500300","中和區"
"235001","611-BX","2018/07/06 12:49:16","新北市中和區員山路229號","121.481221666667","24.99816","6500300","中和區"
"207002","749-BX","2018/07/06 12:49:17","新北市萬里區雙興里大坪路1-1號","121.641603333333","25.1667483333333","6502800","萬里區"
"207001","662-BX","2018/07/06 12:49:15","新北市萬里區萬里里瑪鋉頂街29-1號","121.689881666667","25.179395","6502800","萬里區"
"236006","498-BY","2018/07/06 12:49:14","新北市土城區永寧路35號","121.430173333333","24.9621066666667","6501300","土城區"
"221032","280-BY","2018/07/06 12:49:10","新北市汐止區汐萬路一段81號","121.654725","25.0699433333333","6501100","汐止區"
