"lineid","car","time","location","longitude","latitude","cityid","cityname"
"234044","148-BY","2018/07/06 14:09:41","新北市永和區得和路275號","121.522176666667","24.999625","6500400","永和區"
"234070","149-BY","2018/07/06 14:09:41","新北市永和區成功路一段6號","121.526968333333","25.0054833333333","6500400","永和區"
"234078","298-R6","2018/07/06 14:09:46","新北市永和區國中路101號","121.524173333333","25.0061766666667","6500400","永和區"
"234036","336-UY","2018/07/06 14:09:42","新北市永和區成功路一段47巷14號","121.5276","25.00386","6500400","永和區"
"234062","337-UY","2018/07/06 14:09:52","新北市永和區永利路156號","121.522595","25.002715","6500400","永和區"
"234068","552-UM","2018/07/06 14:09:36","新北市永和區永亨路56號","121.520453333333","25.00622","6500400","永和區"
"234084","553-UM","2018/07/06 14:09:44","新北市永和區中正路575-1號","121.51673","25.008695","6500400","永和區"
"234015","745-BX","2018/07/06 14:09:38","新北市永和區仁愛路91號","121.513035","25.0129566666667","6500400","永和區"
"234028","746-BX","2018/07/06 14:09:53","新北市永和區民權路51號","121.519955","24.99697","6500400","永和區"
"234052","KEA-2590","2018/07/06 14:09:44","新北市永和區博愛街29號","121.518243333333","25.0157783333333","6500400","永和區"
"234012","KEA-2591","2018/07/06 14:09:54","新北市永和區中山路一段215-1號","121.508196666667","25.0080783333333","6500400","永和區"
"234060","AAD-866","2018/07/06 14:09:51","新北市永和區安樂路146-1號","121.514183333333","25.00043","6500400","永和區"
"234040","862-TW","2018/07/06 14:09:52","新北市永和區雙和街60號","121.509086666667","25.0033866666667","6500400","永和區"
"234048","863-TW","2018/07/06 14:09:48","新北市永和區新生路220號","121.505156666667","25.0129366666667","6500400","永和區"
"234025","9371-KE","2018/07/06 14:09:39","新北市永和區安樂路272巷9弄7號","121.515053333333","25.0045533333333","6500400","永和區"
"234010","9373-KE","2018/07/06 14:09:43","新北市永和區仁愛路352巷122弄14號","121.500858333333","25.0088266666667","6500400","永和區"
"248019","225-UY","2018/07/06 14:03:10","新北市五股區凌雲路三段57號","121.425285","25.125035","6501500","五股區"
"234022","9380-KE","2018/07/06 14:09:40","新北市永和區博愛街31巷6號","121.518358333333","25.0160616666667","6500400","永和區"
"234076","969-R7","2018/07/06 14:09:48","新北市永和區民有街75巷10弄33號","121.519271666667","24.9960283333333","6500400","永和區"
"234072","AAC-211","2018/07/06 14:09:38","新北市永和區豫溪街156-1號","121.522798333333","25.0096966666667","6500400","永和區"
"234066","AAC-212","2018/07/06 14:09:54","新北市永和區保平路236巷7弄2號","121.508658333333","25.0061266666667","6500400","永和區"
"234001","AAC-295","2018/07/06 14:09:46","新北市永和區中正路696-1號","121.516473333333","25.0098066666667","6500400","永和區"
"244004","248-BX","2018/07/06 14:09:39","新北市林口區南勢里31號","121.35213","25.0704916666667","6501700","林口區"
"231002","002-UM","2018/07/06 14:09:47","新北市新店區中正路487號","121.533928333333","24.9820966666667","6500600","新店區"
"231027","0293-UT","2018/07/06 14:09:44","新北市新店區光明街224巷20弄9號","121.540621666667","24.9621633333333","6500600","新店區"
"231001","047-UY","2018/07/06 14:09:43","新北市新店區中華路7號","121.540745","24.9674166666667","6500600","新店區"
"231005","106-UY","2018/07/06 14:09:49","新北市新店區中興路三段292號","121.542575","24.9846316666667","6500600","新店區"
"231022","108-UY","2018/07/06 14:09:47","新北市新店區新烏路二段202號","121.547621666667","24.9163533333333","6500600","新店區"
"231036","110-UY","2018/07/06 14:09:45","新北市新店區安祥路109巷83號","121.477765","24.9603416666667","6500600","新店區"
"231012","187-VK","2018/07/06 14:09:35","新北市新店區五峰路63巷8弄44號","121.548018333333","24.9686083333333","6500600","新店區"
"231010","188-VK","2018/07/06 14:09:50","新北市新店區安康路一段266巷4號","121.520123333333","24.9639533333333","6500600","新店區"
"231023","KEA-2219","2018/07/06 14:09:55","新北市新店區文中路45號","121.539661666667","24.9567333333333","6500600","新店區"
"231003","268-BY","2018/07/06 14:09:49","新北市新店區北宜路一段3號","121.538535","24.958385","6500600","新店區"
"231018","278-BY","2018/07/06 14:09:37","新北市新店區中央五街46號","121.528113333333","24.9751683333333","6500600","新店區"
"231016","AAD-862","2018/07/06 14:09:53","新北市新店區北宜路二段392巷17號","121.566723333333","24.9535766666667","6500600","新店區"
"231028","355-BY","2018/07/06 14:09:37","新北市新店區安和路二段231號","121.517038333333","24.9762066666667","6500600","新店區"
"231038","3712-VJ","2018/07/06 14:09:52","新北市新店區安康路一段321巷5-1號","121.522068333333","24.9626116666667","6500600","新店區"
"231037","4716-K9","2018/07/06 14:09:57","新北市新店區安康路二段341巷36號","121.496671666667","24.9544366666667","6500600","新店區"
"231025","4715-K9","2018/07/06 14:09:46","新北市新店區二十張路129巷5弄3號","121.5366","24.97878","6500600","新店區"
"231013","513-UM","2018/07/06 14:09:38","新北市新店區北新路三段65巷34弄18號","121.540043333333","24.98166","6500600","新店區"
"231006","617-UM","2018/07/06 14:09:41","新北市新店區北宜路二段427號","121.560546666667","24.9543783333333","6500600","新店區"
"231030","619-UM","2018/07/06 14:09:42","新北市新店區安民街115巷28號","121.515145","24.9676483333333","6500600","新店區"
"231034","641-BX","2018/07/06 14:09:41","新北市新店區車子路11號","121.503031666667","24.95202","6500600","新店區"
"231035","719-UM","2018/07/06 14:09:39","新北市新店區安和路一段51號","121.517536666667","24.965935","6500600","新店區"
"231032","720-UM","2018/07/06 14:09:38","新北市新店區碧潭路36號","121.534221666667","24.9564583333333","6500600","新店區"
"231029","897-TW","2018/07/06 14:09:38","新北市新店區安康路二段159巷2號","121.510433333333","24.9592516666667","6500600","新店區"
"231004","899-TW","2018/07/06 14:09:35","新北市新店區北新路二段162號","121.542993333333","24.9756683333333","6500600","新店區"
"235030","003-UY","2018/07/06 14:09:40","新北市中和區廣福路59號","121.502661666667","25.0012116666667","6500300","中和區"
"235028","005-UY","2018/07/06 14:09:39","新北市中和區中和路24號","121.499763333333","25.0017683333333","6500300","中和區"
"235027","006-UY","2018/07/06 14:09:53","新北市中和區中正路262號","121.495441666667","24.9943683333333","6500300","中和區"
"235020","096-UM","2018/07/06 14:09:35","新北市中和區中山路二段586-2號","121.482198333333","25.00517","6500300","中和區"
"235003","097-UM","2018/07/06 14:09:44","新北市中和區秀峰街119巷6弄1號","121.519635","24.9899516666667","6500300","中和區"
"235029","098-UM","2018/07/06 14:09:48","新北市中和區中山路二段64巷14弄26號","121.503878333333","25.0061466666667","6500300","中和區"
"235004","150-BY","2018/07/06 14:09:45","新北市中和區安平路36巷59號","121.510536666667","24.9945416666667","6500300","中和區"
"235022","151-BY","2018/07/06 14:09:54","新北市中和區員山路145號","121.48107","24.996195","6500300","中和區"
"235019","183-VK","2018/07/06 14:09:47","新北市中和區民德路1號","121.468801666667","25.0034383333333","6500300","中和區"
"235002","185-VK","2018/07/06 14:09:49","新北市中和區大仁街10巷9弄27號","121.519218333333","24.99283","6500300","中和區"
"235013","186-VK","2018/07/06 14:09:36","新北市中和區景新街224-20號","121.50793","24.9945266666667","6500300","中和區"
"235031","255-BX","2018/07/06 14:09:51","新北市中和區新生街162號","121.483615","25.000325","6500300","中和區"
"235008","293-VK","2018/07/06 14:09:44","新北市中和區中興街202巷2號","121.499498333333","24.99007","6500300","中和區"
"235036","301-VK","2018/07/06 14:09:51","新北市中和區景平路747號","121.496203333333","25.0045566666667","6500300","中和區"
"235007","352-BY","2018/07/06 13:43:01","新北市中和區景德街26號","121.518393333333","24.991445","6500300","中和區"
"235006","KEA-2878","2018/07/06 14:09:55","新北市中和區自強路15巷5號","121.5211","24.9936216666667","6500300","中和區"
"235014","4979-A6","2018/07/06 14:09:42","新北市中和區復興路263巷9弄1號","121.502908333333","24.9897516666667","6500300","中和區"
"235033","4980-A6","2018/07/06 14:09:38","新北市中和區枋寮街11號","121.502118333333","25.0002033333333","6500300","中和區"
"235034","558-UM","2018/07/06 14:09:50","新北市中和區連城路28號","121.49865","25.0020883333333","6500300","中和區"
"235009","565-BX","2018/07/06 14:09:45","新北市中和區景新街467巷15弄11號","121.51374","24.98871","6500300","中和區"
"235018","640-BX","2018/07/06 14:09:55","新北市中和區國光街109巷31號","121.469225","24.999065","6500300","中和區"
"235024","647-TV","2018/07/06 14:09:40","新北市中和區中山路三段37巷47號","121.48002","25.0044383333333","6500300","中和區"
"235011","732-UM","2018/07/06 14:09:35","新北市中和區興南路一段61號","121.510411666667","24.9897016666667","6500300","中和區"
"235010","733-UM","2018/07/06 14:09:49","新北市中和區忠孝街1巷44號","121.508511666667","24.9841583333333","6500300","中和區"
"235035","783-BX","2018/07/06 14:09:50","新北市中和區橋和路77號","121.4892","25.0051983333333","6500300","中和區"
"235026","800-TS","2018/07/06 14:09:37","新北市中和區中山路二段366巷15號","121.491665","25.0047466666667","6500300","中和區"
"235021","801-TS","2018/07/06 14:09:38","新北市中和區民利街50號","121.479353333333","24.998775","6500300","中和區"
"235005","802-TS","2018/07/06 14:09:42","新北市中和區中安街178巷13弄6號","121.510253333333","24.99855","6500300","中和區"
"235016","805-TS","2018/07/06 14:09:37","新北市中和區興南路二段128巷7弄6號","121.503138333333","24.9839133333333","6500300","中和區"
"235012","896-TW","2018/07/06 14:09:45","新北市中和區工專路147號","121.508426666667","24.9787933333333","6500300","中和區"
"235017","900-TW","2018/07/06 14:09:41","新北市中和區華福街71巷2號","121.467226666667","24.9968733333333","6500300","中和區"
"235015","157-BY","2018/07/06 14:09:44","新北市中和區和平街2巷4弄2號","121.510021666667","24.9905666666667","6500300","中和區"
"235001","AAC-213","2018/07/06 14:09:47","新北市中和區秀朗路三段50巷5-1號","121.525961666667","24.995415","6500300","中和區"
"235023","AAC-215","2018/07/06 14:09:35","新北市中和區圓通路294巷7號","121.488858333333","24.9898666666667","6500300","中和區"
"220016","013-TV","2018/07/06 14:09:46","新北市板橋區翠華街6巷53號","121.481366666667","25.024635","6500100","板橋區"
"220003","015-TV","2018/07/06 14:09:34","新北市板橋區新民街7巷12號","121.463555","25.0103883333333","6500100","板橋區"
"220013","072-UY","2018/07/06 14:09:47","新北市板橋區民族路219巷70號","121.468843333333","25.00877","6500100","板橋區"
"220105","075-UY","2018/07/06 14:09:43","新北市板橋區雙十路三段14號","121.471651666667","25.0303333333333","6500100","板橋區"
"220017","AAD-861","2018/07/06 14:09:40","新北市板橋區華興街21巷23號","121.45886","25.00358","6500100","板橋區"
"247023","893-R6","2018/07/06 14:09:50","新北市蘆洲區光榮路116號","121.464516666667","25.0892816666667","6501400","蘆洲區"
"247013","546-UM","2018/07/06 14:09:54","新北市蘆洲區三民路100號","121.471996666667","25.08661","6501400","蘆洲區"
"247021","500-BY","2018/07/06 14:09:51","新北市蘆洲區三民路165號","121.471383333333","25.087085","6501400","蘆洲區"
"247009","341-TH","2018/07/06 14:09:38","新北市蘆洲區民族路104號","121.4783","25.0851816666667","6501400","蘆洲區"
"247011","339-TH","2018/07/06 14:09:44","新北市蘆洲區信義路252號","121.478438333333","25.0865716666667","6501400","蘆洲區"
"247003","337-TH","2018/07/06 14:09:49","新北市蘆洲區長安街102巷5弄12號","121.461563333333","25.0819","6501400","蘆洲區"
"247005","336-TH","2018/07/06 14:09:42","新北市蘆洲區九芎街13號","121.468216666667","25.0785966666667","6501400","蘆洲區"
"247017","057-VK","2018/07/06 14:09:52","新北市蘆洲區民族路227巷29號","121.476596666667","25.0885883333333","6501400","蘆洲區"
"247007","056-VK","2018/07/06 14:09:54","新北市蘆洲區中山一路299-1號","121.471026666667","25.07801","6501400","蘆洲區"
"247015","007-UY","2018/07/06 14:09:55","新北市蘆洲區光華路46巷30號","121.468073333333","25.083985","6501400","蘆洲區"
"247001","002-UY","2018/07/06 14:09:52","新北市蘆洲區永平街65號","121.457336666667","25.09154","6501400","蘆洲區"
"247019","001-UY","2018/07/06 14:09:43","新北市蘆洲區民族路426巷56號","121.47281","25.0937266666667","6501400","蘆洲區"
"207002","749-BX","2018/07/06 14:06:17","新北市萬里區溪底里瑞泉路20號","121.605271666667","25.1477383333333","6502800","萬里區"
"207001","662-BX","2018/07/06 14:09:34","新北市萬里區磺潭里清水18號","121.63775","25.19766","6502800","萬里區"
"236040","107-UM","2018/07/06 14:09:44","新北市土城區明德路二段108號","121.445131666667","24.984185","6501300","土城區"
"236077","166-UM","2018/07/06 14:09:46","新北市土城區永寧路32巷8號","121.429031666667","24.9606916666667","6501300","土城區"
"236029","253-BX","2018/07/06 14:09:51","新北市土城區城林路6巷80號","121.438395","24.97984","6501300","土城區"
"236024","269-VK","2018/07/06 14:09:44","新北市土城區承天路43巷3號","121.4391","24.9646116666667","6501300","土城區"
"236032","271-VK","2018/07/06 14:09:52","新北市土城區青雲路451巷1號","121.459051666667","24.9747666666667","6501300","土城區"
"236067","KEA-2877","2018/07/06 14:09:51","新北市土城區明德路一段385-1號","121.45276","24.979745","6501300","土城區"
"236016","401-BY","2018/07/06 14:09:53","新北市土城區城林路6巷80號","121.438516666667","24.9797633333333","6501300","土城區"
"236006","498-BY","2018/07/06 14:09:54","新北市土城區中央路一段10號","121.44922","24.9921383333333","6501300","土城區"
"236013","752-BX","2018/07/06 14:09:04","新北市土城區中央路二段61巷22號","121.443158333333","24.9787416666667","6501300","土城區"
"236057","912-UM","2018/07/06 14:09:52","新北市土城區中央路四段89號","121.41699","24.9580983333333","6501300","土城區"
"236045","913-UM","2018/07/06 14:09:36","新北市土城區明德路一段365-1號","121.453548333333","24.97903","6501300","土城區"
"236060","915-UM","2018/07/06 14:09:40","新北市土城區金城路二段392號","121.463708333333","24.9856533333333","6501300","土城區"
"236054","AAC-216","2018/07/06 14:09:46","新北市土城區城林路6巷80號","121.438438333333","24.9797266666667","6501300","土城區"
"242048","172-VK","2018/07/06 14:09:46","新北市樹林區中山路三段210-2號","121.380798333333","24.9666133333333","6500500","新莊區"
"220027","145-BY","2018/07/06 14:09:42","新北市板橋區民權路302巷1弄2號","121.457391666667","25.0161766666667","6500100","板橋區"
"220028","200-UY","2018/07/06 14:09:41","新北市板橋區大觀路二段3巷17號","121.447986666667","25.00371","6500100","板橋區"
"220030","610-BX","2018/07/06 14:09:48","新北市板橋區溪崑一街30巷31號","121.42887","24.9915933333333","6500100","板橋區"
"220050","245-BX","2018/07/06 14:09:54","新北市板橋區莊敬路231號","121.472548333333","25.0214583333333","6500100","板橋區"
"220003","256-TC","2018/07/06 14:09:45","新北市板橋區文化路一段18-1號","121.457753333333","25.0128316666667","6500100","板橋區"
"220040","267-BY","2018/07/06 14:09:37","新北市板橋區縣民大道三段245巷2號","121.481421666667","25.02592","6500100","板橋區"
"220004","276-BY","2018/07/06 14:09:45","新北市板橋區信義路150巷18號","121.458151666667","24.9918033333333","6500100","板橋區"
"220020","277-BY","2018/07/06 14:09:51","新北市板橋區金門街319-1號","121.429631666667","24.986095","6500100","板橋區"
"220019","283-VK","2018/07/06 14:09:53","新北市板橋區仁愛路73巷12號","121.460976666667","25.0004383333333","6500100","板橋區"
"220043","285-UM","2018/07/06 14:09:44","新北市板橋區光武街142號","121.465325","25.0301716666667","6500100","板橋區"
"220001","285-VK","2018/07/06 14:09:37","新北市板橋區懷仁街24巷23號","121.475673333333","25.0192033333333","6500100","板橋區"
"220031","286-VK","2018/07/06 14:09:40","新北市板橋區大觀路二段174巷196弄8號","121.44271","25.003795","6500100","板橋區"
"220029","287-VK","2018/07/06 14:09:41","新北市板橋區南雅西路一段188號","121.453025","25.0083983333333","6500100","板橋區"
"220039","288-VK","2018/07/06 14:09:47","新北市板橋區裕民街29號","121.461848333333","25.0288416666667","6500100","板橋區"
"220009","293-UM","2018/07/06 14:09:48","新北市板橋區三民路二段21巷6號","121.4798","25.0181716666667","6500100","板橋區"
"220032","296-UM","2018/07/06 14:09:51","新北市板橋區溪崑二街66巷4號","121.427771666667","24.9907216666667","6500100","板橋區"
"220023","303-R5","2018/07/06 14:09:53","新北市板橋區館前西路92號","121.457365","25.0072866666667","6500100","板橋區"
"220010","305-R5","2018/07/06 14:09:55","新北市板橋區三民路二段居仁巷2弄5號","121.4795","25.0129266666667","6500100","板橋區"
"220041","307-R5","2018/07/06 14:09:48","新北市板橋區文化路二段225巷60弄45號","121.469036666667","25.0294966666667","6500100","板橋區"
"220047","317-R6","2018/07/06 14:09:44","新北市板橋區四維路101號","121.465638333333","25.02447","6500100","板橋區"
"220012","486-VK","2018/07/06 14:09:51","新北市板橋區板新路152號","121.47034","25.0156816666667","6500100","板橋區"
"220037","491-VK","2018/07/06 14:09:50","新北市板橋區文化路二段182巷7弄7號","121.472173333333","25.0272933333333","6500100","板橋區"
"220104","560-BX","2018/07/06 14:09:54","新北市板橋區中正路360巷1號","121.454625","25.02389","6500100","板橋區"
"220052","561-BX","2018/07/06 14:09:36","新北市板橋區文化路一段188巷9弄25號","121.468696666667","25.0194183333333","6500100","板橋區"
"220011","609-BX","2018/07/06 14:09:42","新北市板橋區三民路二段167號","121.479186666667","25.0145683333333","6500100","板橋區"
"220034","630-UY","2018/07/06 14:09:47","新北市板橋區中正路236巷106號","121.459001666667","25.0195","6500100","板橋區"
"220005","686-BX","2018/07/06 14:09:55","新北市板橋區和平路161巷22號","121.463413333333","24.9966983333333","6500100","板橋區"
"220042","689-BX","2018/07/06 14:09:50","新北市板橋區民生路三段85號","121.467001666667","25.0245483333333","6500100","板橋區"
"220002","741-BX","2018/07/06 14:09:45","新北市板橋區後埔街56號","121.460503333333","25.0057166666667","6500100","板橋區"
"220051","KEA-2699","2018/07/06 14:09:50","新北市板橋區田單街32號","121.482463333333","25.02825","6500100","板橋區"
"220025","806-UM","2018/07/06 14:09:54","新北市板橋區大觀路二段295號","121.442205","24.99868","6500100","板橋區"
"220014","829-TW","2018/07/06 14:09:44","新北市板橋區中山路二段90巷43弄18-2號","121.476948333333","25.015105","6500100","板橋區"
"220045","830-TW","2018/07/06 14:09:43","新北市板橋區大同街10號","121.477133333333","25.0268333333333","6500100","板橋區"
"220038","833-TW","2018/07/06 14:09:51","新北市板橋區文化路二段334號","121.472803333333","25.03029","6500100","板橋區"
"220022","895-R6","2018/07/06 14:09:49","新北市板橋區公館街18號","121.45735","25.0125566666667","6500100","板橋區"
"220021","985-R7","2018/07/06 14:09:49","新北市板橋區中正路148號","121.456891666667","25.0162066666667","6500100","板橋區"
"220046","AAC-210","2018/07/06 14:09:47","新北市板橋區幸福路70巷32號","121.460155","25.0209383333333","6500100","板橋區"
"220018","AAC-253","2018/07/06 14:09:40","新北市板橋區忠孝路58號","121.461148333333","25.0020116666667","6500100","板橋區"
"235032","KEA-2873","2018/07/06 14:09:25","新北市中和區連城路231號","121.493933333333","24.99742","6500300","中和區"
"235025","KEA-2875","2018/07/06 14:09:36","新北市中和區員山路244號","121.481363333333","25.00142","6500300","中和區"
