"lineid","car","time","location","longitude","latitude","cityid","cityname"
"234070","149-BY","2018/07/06 14:39:41","新北市八里區下罟子17號","121.379585","25.14297","6500400","永和區"
"234062","337-UY","2018/07/06 14:39:52","新北市永和區中正路610-1號","121.517028333333","25.00733","6500400","永和區"
"234028","746-BX","2018/07/06 14:39:52","新北市永和區民有街100號","121.51754","24.9957883333333","6500400","永和區"
"234025","9371-KE","2018/07/06 14:39:39","新北市永和區中和路501巷5號","121.51041","25.0026666666667","6500400","永和區"
"248019","225-UY","2018/07/06 14:39:46","新北市五股區凌雲路三段41-2號","121.430415","25.1173616666667","6501500","五股區"
"234072","AAC-211","2018/07/06 14:39:38","新北市永和區環河東路二段54-1號","121.52332","25.0114983333333","6500400","永和區"
"234001","AAC-295","2018/07/06 14:39:46","新北市永和區中正路614-2號","121.517068333333","25.0076433333333","6500400","永和區"
"244004","248-BX","2018/07/06 14:39:39","新北市林口區南勢里31號","121.352071666667","25.0704133333333","6501700","林口區"
"231002","002-UM","2018/07/06 14:39:47","新北市新店區中正路468號","121.533998333333","24.9794133333333","6500600","新店區"
"231027","0293-UT","2018/07/06 14:39:44","新北市新店區中正路309號","121.536536666667","24.9749966666667","6500600","新店區"
"231001","047-UY","2018/07/06 14:39:50","新北市新店區中正路69號","121.543628333333","24.9702016666667","6500600","新店區"
"231005","106-UY","2018/07/06 14:39:49","新北市新店區復興路2號","121.53243","24.9882533333333","6500600","新店區"
"231022","108-UY","2018/07/06 14:39:46","新北市新店區桂山路81巷5號","121.568066666667","24.8987766666667","6500600","新店區"
"231036","110-UY","2018/07/06 14:39:39","新北市新店區安祥路106巷226號","121.473708333333","24.959865","6500600","新店區"
"231012","187-VK","2018/07/06 14:38:55","新北市新店區寶宏路13巷1號","121.549598333333","24.975625","6500600","新店區"
"231010","188-VK","2018/07/06 14:17:56","新北市新店區安一路一段1-1號","121.519723333333","24.961185","6500600","新店區"
"231023","KEA-2219","2018/07/06 14:39:55","新北市新店區檳榔路63號","121.543625","24.9623066666667","6500600","新店區"
"231003","268-BY","2018/07/06 14:39:49","新北市新店區中正路5號","121.545813333333","24.9691","6500600","新店區"
"231018","278-BY","2018/07/06 14:39:37","新北市新店區中央一街25號","121.528223333333","24.97323","6500600","新店區"
"231016","AAD-862","2018/07/06 14:39:47","新北市新店區北宜路三段335巷15號","121.610048333333","24.959045","6500600","新店區"
"231028","355-BY","2018/07/06 14:39:38","新北市新店區安德街64號","121.510685","24.96194","6500600","新店區"
"231038","3712-VJ","2018/07/06 14:39:39","新北市新店區安康路一段266巷4號","121.520131666667","24.9639683333333","6500600","新店區"
"231037","4716-K9","2018/07/06 14:39:57","新北市新店區柴埕路52巷13號","121.511556666667","24.9651666666667","6500600","新店區"
"231013","513-UM","2018/07/06 14:39:38","新北市新店區明德路22號","121.542143333333","24.97706","6500600","新店區"
"231006","617-UM","2018/07/06 14:39:41","新北市新店區北宜路二段103號","121.550446666667","24.9523883333333","6500600","新店區"
"231030","619-UM","2018/07/06 14:39:42","新北市新店區安民街204號","121.517296666667","24.9719283333333","6500600","新店區"
"231034","641-BX","2018/07/06 14:39:41","新北市新店區車子路28號","121.504095","24.952595","6500600","新店區"
"231035","719-UM","2018/07/06 14:29:39","新北市新店區安民街26號","121.515671666667","24.9649116666667","6500600","新店區"
"231032","720-UM","2018/07/06 14:39:37","新北市新店區溪洲路27號","121.533906666667","24.9596916666667","6500600","新店區"
"231029","897-TW","2018/07/06 14:39:53","新北市新店區安康路三段466-2號","121.484176666667","24.951065","6500600","新店區"
"231004","899-TW","2018/07/06 14:39:55","新北市新店區中正路277號","121.537593333333","24.974215","6500600","新店區"
"231024","AKT-0513","2018/07/06 14:39:57","新北市新店區新生街5巷3號","121.540153333333","24.96579","6500600","新店區"
"235030","003-UY","2018/07/06 14:39:40","新北市中和區景新街117號","121.50562","24.9975416666667","6500300","中和區"
"235028","005-UY","2018/07/06 14:39:39","新北市中和區南山路40號","121.501981666667","24.9976366666667","6500300","中和區"
"235027","006-UY","2018/07/06 14:39:53","新北市中和區連城路261-3號","121.492285","24.9966666666667","6500300","中和區"
"235020","096-UM","2018/07/06 14:39:55","新北市中和區員山路581巷31弄22號","121.476555","25.0104166666667","6500300","中和區"
"235003","097-UM","2018/07/06 14:39:44","新北市中和區安平路210號","121.513666666667","24.9998116666667","6500300","中和區"
"235029","098-UM","2018/07/06 14:39:48","新北市中和區福祥路85巷2弄1號","121.498603333333","25.005755","6500300","中和區"
"235004","150-BY","2018/07/06 14:39:45","新北市中和區安平路59號","121.509525","24.9950683333333","6500300","中和區"
"235022","151-BY","2018/07/06 14:39:54","新北市中和區員山路132巷3號","121.48162","24.9962683333333","6500300","中和區"
"235019","183-VK","2018/07/06 14:39:46","新北市中和區民生街15號","121.471273333333","25.005855","6500300","中和區"
"235002","185-VK","2018/07/06 14:39:49","新北市中和區自強路27巷12號","121.521255","24.9931683333333","6500300","中和區"
"235013","186-VK","2018/07/06 14:39:36","新北市中和區景新街212號","121.506943333333","24.9951616666667","6500300","中和區"
"235031","255-BX","2018/07/06 14:39:50","新北市中和區新生街211號","121.483808333333","24.9997333333333","6500300","中和區"
"235008","293-VK","2018/07/06 14:39:44","新北市中和區興南路一段181號","121.508298333333","24.986635","6500300","中和區"
"235036","301-VK","2018/07/06 14:39:51","新北市中和區保平路340巷18號","121.506025","25.0045233333333","6500300","中和區"
"235006","KEA-2878","2018/07/06 14:39:35","新北市中和區保健路2巷4號","121.50772","24.9982183333333","6500300","中和區"
"235014","4979-A6","2018/07/06 14:39:42","新北市中和區錦和路350-1號","121.490536666667","24.9935716666667","6500300","中和區"
"235034","558-UM","2018/07/06 14:39:50","新北市中和區連勝街66號","121.497235","24.996985","6500300","中和區"
"235009","565-BX","2018/07/06 14:39:45","新北市中和區景平路332號","121.512091666667","24.9927683333333","6500300","中和區"
"235018","640-BX","2018/07/06 14:39:35","新北市中和區莒光路63號","121.47229","25.0037866666667","6500300","中和區"
"235024","647-TV","2018/07/06 14:39:40","新北市中和區中山路二段523巷10弄2號","121.481513333333","25.0046","6500300","中和區"
"235011","732-UM","2018/07/06 14:39:55","新北市中和區南山路156號","121.504318333333","24.9920166666667","6500300","中和區"
"235010","733-UM","2018/07/06 14:39:49","新北市中和區信義街115號","121.512213333333","24.9869016666667","6500300","中和區"
"235035","783-BX","2018/07/06 14:39:50","新北市中和區建八路116號","121.488096666667","24.9982033333333","6500300","中和區"
"235026","800-TS","2018/07/06 14:39:58","新北市中和區中山路二段530號","121.485891666667","25.0050333333333","6500300","中和區"
"235021","801-TS","2018/07/06 14:39:38","新北市中和區員山路152-3號","121.48145","24.9987216666667","6500300","中和區"
"235005","802-TS","2018/07/06 14:39:42","新北市中和區宜安路118巷28號","121.511126666667","24.998935","6500300","中和區"
"235016","805-TS","2018/07/06 14:39:37","新北市中和區華新街206巷16號","121.506258333333","24.9825383333333","6500300","中和區"
"235012","896-TW","2018/07/06 14:39:45","新北市中和區四維街18號","121.513063333333","24.9871816666667","6500300","中和區"
"235017","900-TW","2018/07/06 14:39:41","新北市中和區國光街142巷6號","121.468288333333","25.001665","6500300","中和區"
"235015","157-BY","2018/07/06 14:39:44","新北市中和區中興街180巷37號","121.498171666667","24.9893216666667","6500300","中和區"
"235001","AAC-213","2018/07/06 14:39:53","新北市中和區秀朗路三段10巷21弄14號","121.52551","24.9959616666667","6500300","中和區"
"235023","AAC-215","2018/07/06 14:39:55","新北市中和區圓通路305巷7弄1號","121.493628333333","24.9900433333333","6500300","中和區"
"220016","013-TV","2018/07/06 14:39:46","新北市板橋區中山路二段416巷33號","121.483166666667","25.0197883333333","6500100","板橋區"
"220003","015-TV","2018/07/06 14:39:54","新北市板橋區國慶路149巷21弄5號","121.460673333333","24.9972816666667","6500100","板橋區"
"220013","072-UY","2018/07/06 14:39:54","新北市板橋區民族路270巷51號","121.469131666667","25.00602","6500100","板橋區"
"220105","075-UY","2018/07/06 14:39:42","新北市板橋區文化路二段324號","121.472543333333","25.0301","6500100","板橋區"
"220017","AAD-861","2018/07/06 14:39:40","新北市板橋區貴興路119巷4號","121.45566","25.002215","6500100","板橋區"
"247023","893-R6","2018/07/06 14:39:50","新北市蘆洲區正和街63巷12號","121.468986666667","25.0808533333333","6501400","蘆洲區"
"247013","546-UM","2018/07/06 14:39:54","新北市蘆洲區得勝街145號","121.47173","25.08316","6501400","蘆洲區"
"247009","341-TH","2018/07/06 14:39:38","新北市蘆洲區集賢路406號","121.480126666667","25.0819516666667","6501400","蘆洲區"
"247011","339-TH","2018/07/06 14:39:44","新北市蘆洲區民族路204巷10號","121.480738333333","25.08766","6501400","蘆洲區"
"247005","336-TH","2018/07/06 14:39:42","新北市蘆洲區中華街47號","121.462821666667","25.0810733333333","6501400","蘆洲區"
"247007","056-VK","2018/07/06 14:39:54","新北市蘆洲區信義路52號","121.475231666667","25.07954","6501400","蘆洲區"
"247015","007-UY","2018/07/06 14:39:55","新北市蘆洲區正和街53號","121.468973333333","25.0813666666667","6501400","蘆洲區"
"247001","002-UY","2018/07/06 14:39:52","新北市蘆洲區長安街359號","121.457233333333","25.0872216666667","6501400","蘆洲區"
"247019","001-UY","2018/07/06 14:39:43","新北市蘆洲區民義街90號","121.473633333333","25.090395","6501400","蘆洲區"
"207002","749-BX","2018/07/06 14:39:37","新北市萬里區崁腳里崁腳路73號","121.647643333333","25.1595983333333","6502800","萬里區"
"207001","662-BX","2018/07/06 14:39:54","新北市萬里區雙興里豐稟路26號","121.641178333333","25.18808","6502800","萬里區"
"236040","107-UM","2018/07/06 14:39:24","新北市土城區裕民路55巷1號","121.448948333333","24.9880333333333","6501300","土城區"
"236077","166-UM","2018/07/06 14:39:42","新北市土城區中央路四段52巷10號","121.42002","24.960905","6501300","土城區"
"236029","253-BX","2018/07/06 14:39:51","新北市土城區慶樂街33號","121.438465","24.97311","6501300","土城區"
"236024","269-VK","2018/07/06 14:39:44","新北市土城區和平路5巷2號","121.442726666667","24.9744283333333","6501300","土城區"
"236032","271-VK","2018/07/06 14:39:52","新北市土城區明德路一段176號","121.462496666667","24.9781633333333","6501300","土城區"
"236067","KEA-2877","2018/07/06 14:39:51","新北市土城區永豐路169-2號","121.467851666667","24.9802283333333","6501300","土城區"
"236016","401-BY","2018/07/06 14:39:53","新北市土城區延吉街307-1號","121.466273333333","24.98447","6501300","土城區"
"236006","498-BY","2018/07/06 14:39:34","新北市土城區城林路6巷80號","121.43862","24.979775","6501300","土城區"
"236013","752-BX","2018/07/06 14:39:44","新北市土城區清水路234巷20弄1號","121.462133333333","24.981745","6501300","土城區"
"236057","912-UM","2018/07/06 14:39:52","新北市土城區大安路2號","121.432635","24.9653466666667","6501300","土城區"
"236045","913-UM","2018/07/06 14:39:40","新北市土城區明德路一段30號","121.465165","24.984705","6501300","土城區"
"236060","915-UM","2018/07/06 14:39:40","新北市土城區延和路125巷30號","121.46929","24.9909533333333","6501300","土城區"
"236054","AAC-216","2018/07/06 14:39:46","新北市土城區裕民路38號","121.448058333333","24.9883666666667","6501300","土城區"
"242048","172-VK","2018/07/06 14:39:46","新北市樹林區八德街336號","121.408918333333","24.96974","6500500","新莊區"
"220027","145-BY","2018/07/06 14:39:43","新北市板橋區建國街100號","121.45988","25.0173333333333","6500100","板橋區"
"220028","200-UY","2018/07/06 14:39:40","新北市板橋區大觀路二段79巷2弄16號","121.447393333333","25.0016383333333","6500100","板橋區"
"220030","610-BX","2018/07/06 14:39:42","新北市板橋區大觀路三段261號","121.429186666667","24.992115","6500100","板橋區"
"220050","245-BX","2018/07/06 14:39:54","新北市板橋區莊敬路261號","121.473901666667","25.021555","6500100","板橋區"
"220003","256-TC","2018/07/06 14:39:44","新北市樹林區中山路三段214號","121.380136666667","24.9678883333333","6500100","板橋區"
"220040","267-BY","2018/07/06 14:39:37","新北市板橋區懷德街139巷20弄1號","121.480061666667","25.030855","6500100","板橋區"
"220004","276-BY","2018/07/06 14:39:45","新北市板橋區信義路1巷26弄1號","121.458165","24.997015","6500100","板橋區"
"220020","277-BY","2018/07/06 14:39:51","新北市板橋區篤行路二段77巷9弄1號","121.432228333333","24.9918116666667","6500100","板橋區"
"220019","283-VK","2018/07/06 14:39:52","新北市板橋區五權街30巷24弄2號","121.464008333333","24.993325","6500100","板橋區"
"220043","285-UM","2018/07/06 14:39:49","新北市板橋區宏國路77巷2弄9號","121.469661666667","25.0325816666667","6500100","板橋區"
"220001","285-VK","2018/07/06 14:39:37","新北市板橋區中山路二段253號","121.477525","25.017585","6500100","板橋區"
"220031","286-VK","2018/07/06 14:39:40","新北市板橋區僑中二街102巷2號","121.446155","25.0083633333333","6500100","板橋區"
"220029","287-VK","2018/07/06 14:39:41","新北市板橋區大觀路一段28巷97弄2號","121.45021","25.011795","6500100","板橋區"
"220039","288-VK","2018/07/06 14:39:47","新北市板橋區龍泉街54巷8弄14號","121.457426666667","25.0269183333333","6500100","板橋區"
"220009","293-UM","2018/07/06 14:39:41","新北市板橋區漢生東路111-1號","121.467226666667","25.0150183333333","6500100","板橋區"
"220032","296-UM","2018/07/06 14:39:42","新北市板橋區溪崑二街103巷13號","121.427161666667","24.98876","6500100","板橋區"
"220023","303-R5","2018/07/06 14:39:52","新北市板橋區大勇街4巷2號","121.45496","25.0174633333333","6500100","板橋區"
"220010","305-R5","2018/07/06 14:39:53","新北市板橋區光復街49號","121.482176666667","25.0185533333333","6500100","板橋區"
"220041","307-R5","2018/07/06 14:39:47","新北市板橋區陽明街1號","121.466731666667","25.0215116666667","6500100","板橋區"
"220047","317-R6","2018/07/06 14:39:44","新北市板橋區裕民街104號","121.45991","25.02784","6500100","板橋區"
"220012","486-VK","2018/07/06 14:39:51","新北市板橋區公園街36-1號","121.46235","25.0083283333333","6500100","板橋區"
"220037","491-VK","2018/07/06 14:39:50","新北市板橋區文化路二段550號","121.476221666667","25.0340816666667","6500100","板橋區"
"220104","560-BX","2018/07/06 14:39:40","新北市板橋區新生街23巷1弄1號","121.456108333333","25.0214516666667","6500100","板橋區"
"220052","561-BX","2018/07/06 14:39:56","新北市板橋區文化路一段341號","121.46676","25.020775","6500100","板橋區"
"220011","609-BX","2018/07/06 14:39:42","新北市板橋區萬安街53巷22號","121.48331","25.02373","6500100","板橋區"
"220034","630-UY","2018/07/06 14:39:49","新北市板橋區國光路162號","121.460113333333","25.0182033333333","6500100","板橋區"
"220005","686-BX","2018/07/06 14:39:55","新北市板橋區廣權路35號","121.462706666667","24.991785","6500100","板橋區"
"220042","689-BX","2018/07/06 14:39:50","新北市板橋區長江路一段172號","121.461573333333","25.030445","6500100","板橋區"
"220002","741-BX","2018/07/06 14:39:46","新北市板橋區忠孝路忠義巷15弄35號","121.465548333333","25.0044583333333","6500100","板橋區"
"220051","KEA-2699","2018/07/06 14:39:49","新北市板橋區雙十路二段46巷19號","121.476203333333","25.028165","6500100","板橋區"
"220025","806-UM","2018/07/06 14:39:54","新北市板橋區僑中一街150號","121.444858333333","25.0119416666667","6500100","板橋區"
"220014","829-TW","2018/07/06 14:39:38","新北市板橋區長安街251巷42號","121.471785","25.0114216666667","6500100","板橋區"
"220045","830-TW","2018/07/06 14:39:45","新北市板橋區文化路二段2號","121.46872","25.0238283333333","6500100","板橋區"
"220038","833-TW","2018/07/06 14:39:51","新北市板橋區陽明街249號","121.46276","25.02501","6500100","板橋區"
"220022","895-R6","2018/07/06 14:39:49","新北市板橋區文化路一段46巷23號","121.460403333333","25.011355","6500100","板橋區"
"220021","985-R7","2018/07/06 14:39:48","新北市板橋區大仁街86號","121.45402","25.01627","6500100","板橋區"
"220046","AAC-210","2018/07/06 14:39:49","新北市板橋區漢生西路89巷4-2號","121.462536666667","25.0195566666667","6500100","板橋區"
"220018","AAC-253","2018/07/06 14:39:40","新北市板橋區民族路260號","121.469435","25.007085","6500100","板橋區"
"235032","KEA-2873","2018/07/06 14:39:55","新北市中和區枋寮街7號","121.502175","25.00015","6500300","中和區"
"235025","KEA-2875","2018/07/06 14:39:54","新北市中和區新生街148巷26號","121.482545","25.00091","6500300","中和區"
