"lineid","car","time","location","longitude","latitude","cityid","cityname"
"234070","149-BY","2018/07/06 14:49:21","新北市八里區下罟子30-35號","121.367661666667","25.1351233333333","6500400","永和區"
"234062","337-UY","2018/07/06 14:49:12","新北市永和區福和路1號","121.526356666667","25.00921","6500400","永和區"
"234025","9371-KE","2018/07/06 14:49:19","新北市永和區雙和街25巷5號","121.508991666667","25.0019416666667","6500400","永和區"
"248019","225-UY","2018/07/06 14:49:06","新北市五股區中直路20-3號","121.425238333333","25.1118033333333","6501500","五股區"
"244004","248-BX","2018/07/06 14:49:18","新北市林口區南勢里31號","121.352121666667","25.0704316666667","6501700","林口區"
"231002","002-UM","2018/07/06 14:49:07","新北市新店區民權路72號","121.538216666667","24.9829566666667","6500600","新店區"
"231027","0293-UT","2018/07/06 14:49:24","新北市新店區安和路三段4巷3號","121.519358333333","24.980975","6500600","新店區"
"231001","047-UY","2018/07/06 14:49:23","新北市新店區三民路130號","121.534828333333","24.9748116666667","6500600","新店區"
"231005","106-UY","2018/07/06 14:49:09","新北市新店區復興路2號","121.532436666667","24.9882416666667","6500600","新店區"
"231022","108-UY","2018/07/06 14:49:26","新北市新店區新烏路47號","121.547021666667","24.9286166666667","6500600","新店區"
"231036","110-UY","2018/07/06 14:49:19","新北市新店區安祥路104巷6弄36號","121.483133333333","24.9629616666667","6500600","新店區"
"231012","187-VK","2018/07/06 14:49:17","新北市新店區寶橋路61號","121.545191666667","24.9750883333333","6500600","新店區"
"231023","KEA-2219","2018/07/06 14:49:15","新北市新店區檳榔路109號","121.544398333333","24.961585","6500600","新店區"
"231026","256-BX","2018/07/06 14:49:12","新北市新店區安康路一段323-1號","121.521571666667","24.9637983333333","6500600","新店區"
"231003","268-BY","2018/07/06 14:49:09","新北市新店區中興路二段55號","121.54645","24.9702483333333","6500600","新店區"
"231018","278-BY","2018/07/06 14:49:17","新北市新店區中央六街7號","121.530263333333","24.9745183333333","6500600","新店區"
"231016","AAD-862","2018/07/06 14:49:07","新北市新店區北宜路三段132號","121.582678333333","24.95023","6500600","新店區"
"231028","355-BY","2018/07/06 14:49:26","新北市新店區安德街116巷10號","121.509051666667","24.960925","6500600","新店區"
"231038","3712-VJ","2018/07/06 14:49:19","新北市新店區安華路28-1號","121.519581666667","24.9609016666667","6500600","新店區"
"231037","4716-K9","2018/07/06 14:49:17","新北市新店區安德街60巷5號","121.509988333333","24.9629583333333","6500600","新店區"
"231025","4715-K9","2018/07/06 14:49:06","新北市新店區建國路133號","121.539326666667","24.9781666666667","6500600","新店區"
"231013","513-UM","2018/07/06 14:49:18","新北市新店區北新路二段51號","121.542596666667","24.97305","6500600","新店區"
"231006","617-UM","2018/07/06 14:49:21","新北市新店區北宜路一段122號","121.539255","24.9550216666667","6500600","新店區"
"231030","619-UM","2018/07/06 14:49:22","新北市新店區安民街383號","121.516256666667","24.976515","6500600","新店區"
"231034","641-BX","2018/07/06 14:49:21","新北市新店區玫瑰路4-1號","121.493608333333","24.9513666666667","6500600","新店區"
"231039","718-UY","2018/07/06 14:49:12","新北市新店區安一路一段1-1號","121.519731666667","24.9614683333333","6500600","新店區"
"231035","719-UM","2018/07/06 14:49:19","新北市新店區安利街32號","121.519071666667","24.9748066666667","6500600","新店區"
"231032","719-UY","2018/07/06 14:49:15","新北市新店區溪洲路37號","121.533685","24.9596633333333","6500600","新店區"
"231032","720-UM","2018/07/06 14:49:18","新北市新店區溪洲路27號","121.53394","24.9596866666667","6500600","新店區"
"231029","897-TW","2018/07/06 14:49:18","新北市新店區錦秀路11巷11號","121.479836666667","24.944725","6500600","新店區"
"231004","899-TW","2018/07/06 14:49:15","新北市新店區民族路81號","121.538921666667","24.9778666666667","6500600","新店區"
"231024","AKT-0513","2018/07/06 14:49:17","新北市新店區中華路83巷67號","121.538361666667","24.9672833333333","6500600","新店區"
"235030","003-UY","2018/07/06 14:49:20","新北市中和區南工路40號","121.505776666667","25.0011816666667","6500300","中和區"
"235020","096-UM","2018/07/06 14:49:15","新北市中和區中山路三段102號","121.47695","25.0060216666667","6500300","中和區"
"235003","097-UM","2018/07/06 14:49:25","新北市中和區宜安路18巷2號","121.513393333333","24.9959183333333","6500300","中和區"
"235029","098-UM","2018/07/06 14:49:15","新北市中和區橋和路294號","121.496776666667","25.00687","6500300","中和區"
"235004","150-BY","2018/07/06 14:49:05","新北市中和區景安路79巷36號","121.507071666667","24.9963383333333","6500300","中和區"
"235022","151-BY","2018/07/06 14:49:14","新北市中和區員山路150巷2弄1號","121.481718333333","24.9982783333333","6500300","中和區"
"235019","183-VK","2018/07/06 14:49:06","新北市中和區民德路10號","121.468711666667","25.00275","6500300","中和區"
"235002","185-VK","2018/07/06 14:49:09","新北市中和區更生街1號","121.521371666667","24.9962683333333","6500300","中和區"
"235013","186-VK","2018/07/06 14:49:16","新北市中和區中正路60號","121.501536666667","24.99364","6500300","中和區"
"235031","255-BX","2018/07/06 14:49:11","新北市中和區中正路866-5號","121.484556666667","25.006235","6500300","中和區"
"235008","293-VK","2018/07/06 14:49:24","新北市中和區南山路231號","121.503496666667","24.9933933333333","6500300","中和區"
"235036","301-VK","2018/07/06 14:49:11","新北市中和區連城路45號","121.498155","25.001765","6500300","中和區"
"235014","4979-A6","2018/07/06 14:49:22","新北市中和區景平路241巷82弄38號","121.50636","24.9925683333333","6500300","中和區"
"235033","4980-A6","2018/07/06 14:49:17","新北市中和區和城路一段271巷1號","121.485385","24.9918066666667","6500300","中和區"
"235034","558-UM","2018/07/06 14:49:10","新北市中和區連勝街17號","121.498733333333","24.998235","6500300","中和區"
"235018","640-BX","2018/07/06 14:49:15","新北市中和區莒光路207-8號","121.470553333333","24.9963916666667","6500300","中和區"
"235024","647-TV","2018/07/06 14:49:20","新北市中和區新生街30巷21號","121.482376666667","25.0038016666667","6500300","中和區"
"235011","732-UM","2018/07/06 14:49:15","新北市中和區和平街74號","121.507796666667","24.9910433333333","6500300","中和區"
"235010","733-UM","2018/07/06 14:49:09","新北市中和區仁愛街62號","121.511268333333","24.9878733333333","6500300","中和區"
"235035","783-BX","2018/07/06 14:49:10","新北市中和區建康路95號","121.487983333333","25.0002933333333","6500300","中和區"
"235026","800-TS","2018/07/06 14:49:18","新北市中和區建三路7號","121.486098333333","25.0034916666667","6500300","中和區"
"235005","802-TS","2018/07/06 14:49:22","新北市中和區宜安路96號","121.510771666667","24.99761","6500300","中和區"
"235016","805-TS","2018/07/06 14:49:17","新北市中和區華新街96號","121.508551666667","24.98312","6500300","中和區"
"235012","896-TW","2018/07/06 14:49:25","新北市中和區忠孝街117號","121.512631666667","24.9877083333333","6500300","中和區"
"235017","900-TW","2018/07/06 14:49:21","新北市中和區國光街189巷12弄2號","121.46742","25.0015116666667","6500300","中和區"
"235015","157-BY","2018/07/06 14:47:28","新北市中和區景安路247號","121.504208333333","24.9906483333333","6500300","中和區"
"235001","AAC-213","2018/07/06 14:49:27","新北市中和區秀朗路三段167號","121.524663333333","24.9917683333333","6500300","中和區"
"235023","AAC-215","2018/07/06 14:49:15","新北市中和區圓通路305巷5弄10號","121.493906666667","24.9901716666667","6500300","中和區"
"220016","013-TV","2018/07/06 14:49:17","新北市板橋區光復街149號","121.485693333333","25.0200766666667","6500100","板橋區"
"220003","015-TV","2018/07/06 14:49:14","新北市板橋區仁愛路76巷10號","121.460613333333","24.9990333333333","6500100","板橋區"
"220013","072-UY","2018/07/06 14:49:24","新北市板橋區民族路69巷18弄30號","121.466766666667","25.0098733333333","6500100","板橋區"
"220105","075-UY","2018/07/06 14:49:22","新北市板橋區民治街57巷32-1號","121.480146666667","25.0340716666667","6500100","板橋區"
"220017","AAD-861","2018/07/06 14:49:21","新北市板橋區大明街25巷2弄25號","121.457441666667","25.002605","6500100","板橋區"
"247001","002-UY","2018/07/06 14:46:32","新北市蘆洲區永康街2巷16號","121.459386666667","25.086485","6501400","蘆洲區"
"207002","749-BX","2018/07/06 14:49:17","新北市萬里區崁腳里崁腳路73號","121.647591666667","25.159605","6502800","萬里區"
"207001","662-BX","2018/07/06 14:49:14","新北市萬里區雙興里豐稟路16號","121.648301666667","25.180995","6502800","萬里區"
"236040","107-UM","2018/07/06 14:49:24","新北市土城區學府路一段256巷4弄3號","121.450891666667","24.9850583333333","6501300","土城區"
"236077","166-UM","2018/07/06 14:49:22","新北市土城區中央路四段185巷32弄1號","121.415843333333","24.955825","6501300","土城區"
"236029","253-BX","2018/07/06 14:49:11","新北市土城區忠義路26巷19號","121.4398","24.96987","6501300","土城區"
"236024","269-VK","2018/07/06 14:49:24","新北市土城區慶安街26號","121.441605","24.9733916666667","6501300","土城區"
"236032","271-VK","2018/07/06 14:49:12","新北市土城區仁愛路54巷1-3號","121.462371666667","24.9785516666667","6501300","土城區"
"236067","KEA-2877","2018/07/06 14:49:11","新北市土城區明德路一段385-1號","121.452683333333","24.98024","6501300","土城區"
"236016","401-BY","2018/07/06 14:49:13","新北市土城區延安街13號","121.467446666667","24.9857483333333","6501300","土城區"
"236013","752-BX","2018/07/06 14:49:24","新北市土城區金城路二段360-2號","121.461761666667","24.9851733333333","6501300","土城區"
"236057","912-UM","2018/07/06 14:49:12","新北市土城區金城路一段80號","121.444416666667","24.97304","6501300","土城區"
"236045","913-UM","2018/07/06 14:49:16","新北市土城區青雲路28號","121.459965","24.9887033333333","6501300","土城區"
"236060","915-UM","2018/07/06 14:49:20","新北市土城區金城路三段149巷9號","121.468123333333","24.9888416666667","6501300","土城區"
"236054","AAC-216","2018/07/06 14:49:26","新北市土城區裕民路174號","121.452645","24.9853533333333","6501300","土城區"
"242048","172-VK","2018/07/06 14:49:06","新北市土城區城林路6巷75號","121.437703333333","24.9787833333333","6500500","新莊區"
"220027","145-BY","2018/07/06 14:49:22","新北市板橋區中正路183巷42號","121.4551","25.016075","6500100","板橋區"
"220028","200-UY","2018/07/06 14:49:20","新北市板橋區大觀路二段179巷32號","121.446115","24.99953","6500100","板橋區"
"220030","610-BX","2018/07/06 14:49:23","新北市板橋區溪崑一街80號","121.42926","24.9896116666667","6500100","板橋區"
"220050","245-BX","2018/07/06 14:49:13","新北市板橋區縣民大道三段103巷1號","121.476145","25.0224516666667","6500100","板橋區"
"220003","256-TC","2018/07/06 14:49:24","新北市樹林區八德街65-2號","121.400293333333","24.9693433333333","6500100","板橋區"
"220040","267-BY","2018/07/06 14:49:16","新北市板橋區文聖街149巷45號","121.48027","25.0291416666667","6500100","板橋區"
"220004","276-BY","2018/07/06 14:49:25","新北市板橋區德興街37巷14號","121.453936666667","24.99384","6500100","板橋區"
"220020","277-BY","2018/07/06 14:49:25","新北市板橋區金門街96-2號","121.433081666667","24.992405","6500100","板橋區"
"220019","283-VK","2018/07/06 14:49:12","新北市板橋區和平路174巷37號","121.4652","24.9941733333333","6500100","板橋區"
"220043","285-UM","2018/07/06 14:49:24","新北市板橋區長江路一段25號","121.45825","25.0293833333333","6500100","板橋區"
"220001","285-VK","2018/07/06 14:49:17","新北市板橋區中山路二段60巷9號","121.474228333333","25.0152716666667","6500100","板橋區"
"220031","286-VK","2018/07/06 14:49:20","新北市板橋區大觀路一段38巷156弄210號","121.444986666667","25.010565","6500100","板橋區"
"220029","287-VK","2018/07/06 14:49:21","新北市板橋區僑中一街124巷20弄46號","121.448241666667","25.0137","6500100","板橋區"
"220039","288-VK","2018/07/06 14:49:27","新北市板橋區幸福路32巷2弄47號","121.460565","25.0223183333333","6500100","板橋區"
"220009","293-UM","2018/07/06 14:49:21","新北市板橋區中山路一段283巷2弄1號","121.470048333333","25.0145866666667","6500100","板橋區"
"220023","303-R5","2018/07/06 14:49:12","新北市板橋區金華街10巷48弄41號","121.458448333333","25.0200966666667","6500100","板橋區"
"220010","305-R5","2018/07/06 14:49:13","新北市板橋區萬安街140-3號","121.484015","25.02615","6500100","板橋區"
"220041","307-R5","2018/07/06 14:49:10","新北市板橋區四維路259巷25號","121.462011666667","25.027445","6500100","板橋區"
"220047","317-R6","2018/07/06 14:49:27","新北市板橋區龍泉街55巷22號","121.457623333333","25.025265","6500100","板橋區"
"220012","486-VK","2018/07/06 14:49:13","新北市板橋區實踐路100號","121.464048333333","25.00491","6500100","板橋區"
"220037","491-VK","2018/07/06 14:49:16","新北市板橋區仁化街76號","121.47615","25.031815","6500100","板橋區"
"220052","561-BX","2018/07/06 14:49:17","新北市板橋區陽明街29巷29號","121.464046666667","25.0224783333333","6500100","板橋區"
"220011","609-BX","2018/07/06 14:49:23","新北市板橋區中山路二段390號","121.482388333333","25.0206116666667","6500100","板橋區"
"220034","630-UY","2018/07/06 14:49:14","新北市板橋區林園街2號","121.454335","25.0093566666667","6500100","板橋區"
"220005","686-BX","2018/07/06 14:49:15","新北市板橋區四川路一段338號","121.456775","24.99693","6500100","板橋區"
"220042","689-BX","2018/07/06 14:49:17","新北市板橋區長江路二段215號","121.468018333333","25.0324316666667","6500100","板橋區"
"220002","741-BX","2018/07/06 14:49:25","新北市板橋區忠孝路201巷54號","121.464883333333","25.00394","6500100","板橋區"
"220051","KEA-2699","2018/07/06 14:49:10","新北市板橋區文化路二段410巷1弄2號","121.474321666667","25.0311416666667","6500100","板橋區"
"220025","806-UM","2018/07/06 14:49:14","新北市板橋區僑中一街124巷69號","121.446701666667","25.0174366666667","6500100","板橋區"
"220014","829-TW","2018/07/06 14:49:18","新北市板橋區漢生東路193巷87-3號","121.472926666667","25.011985","6500100","板橋區"
"220045","830-TW","2018/07/06 14:49:23","新北市板橋區民生路二段226巷30號","121.47111","25.0220633333333","6500100","板橋區"
"220038","833-TW","2018/07/06 14:49:24","新北市板橋區龍泉街118號","121.457051666667","25.024305","6500100","板橋區"
"220022","895-R6","2018/07/06 14:49:09","新北市板橋區府中路23號","121.45891","25.0093933333333","6500100","板橋區"
"220021","985-R7","2018/07/06 14:49:18","新北市板橋區南雅西路二段83號","121.452668333333","25.010225","6500100","板橋區"
"220046","AAC-210","2018/07/06 14:49:27","新北市板橋區光正街45巷34號","121.461363333333","25.0158733333333","6500100","板橋區"
"220018","AAC-253","2018/07/06 14:49:20","新北市板橋區民族路83號","121.46562","25.0085333333333","6500100","板橋區"
"235032","KEA-2873","2018/07/06 14:49:25","新北市中和區中山路二段136巷3弄4號","121.501375","25.0035666666667","6500300","中和區"
