"lineid","car","time","location","longitude","latitude","cityid","cityname"
"234070","149-BY","2018/07/06 15:09:21","新北市板橋區文化路二段656號","121.480336666667","25.04039","6500400","永和區"
"234062","337-UY","2018/07/06 15:09:12","新北市永和區福和路1號","121.526411666667","25.00991","6500400","永和區"
"248019","225-UY","2018/07/06 15:09:26","新北市五股區凌雲路三段16-2號","121.438031666667","25.1033766666667","6501500","五股區"
"231002","002-UM","2018/07/06 15:09:07","新北市新店區中正路645號","121.533871666667","24.9896966666667","6500600","新店區"
"231027","0293-UT","2018/07/06 15:09:24","新北市新店區安康路二段382號","121.5004","24.957265","6500600","新店區"
"231001","047-UY","2018/07/06 15:09:23","新北市新店區中正路141號","121.54162","24.97147","6500600","新店區"
"231005","106-UY","2018/07/06 15:09:09","新北市新店區北新路三段141號","121.54118","24.9832366666667","6500600","新店區"
"231022","108-UY","2018/07/06 15:09:06","新北市新店區永福路54號","121.55813","24.9286916666667","6500600","新店區"
"231036","110-UY","2018/07/06 15:09:19","新北市新店區安祥路102巷27號","121.48519","24.9644616666667","6500600","新店區"
"231012","187-VK","2018/07/06 15:09:15","新北市新店區寶元路一段65號","121.542173333333","24.9858116666667","6500600","新店區"
"231023","KEA-2219","2018/07/06 15:09:15","新北市新店區檳榔路109號","121.544373333333","24.96161","6500600","新店區"
"231026","256-BX","2018/07/06 15:09:12","新北市新店區建安街15巷1號","121.539743333333","24.975455","6500600","新店區"
"231003","268-BY","2018/07/06 15:09:09","新北市新店區寶橋路207號","121.548573333333","24.9770533333333","6500600","新店區"
"231018","278-BY","2018/07/06 15:09:17","新北市新店區中央七街126號","121.524928333333","24.9780066666667","6500600","新店區"
"231016","AAD-862","2018/07/06 15:09:07","新北市新店區明山路45號","121.563806666667","24.9559783333333","6500600","新店區"
"231028","355-BY","2018/07/06 15:09:18","新北市新店區僑愛七路20號","121.501591666667","24.944525","6500600","新店區"
"231038","3712-VJ","2018/07/06 14:53:05","新北市新店區安華路28-1號","121.519581666667","24.9608966666667","6500600","新店區"
"231037","4716-K9","2018/07/06 15:09:17","新北市新店區安興路56號","121.516618333333","24.9748466666667","6500600","新店區"
"231025","4715-K9","2018/07/06 15:09:26","新北市新店區二十張路46巷37弄20號","121.536071666667","24.9816216666667","6500600","新店區"
"231006","617-UM","2018/07/06 15:09:21","新北市新店區新坡一街2號","121.547941666667","24.9607616666667","6500600","新店區"
"231030","619-UM","2018/07/06 15:09:22","新北市新店區安民街341-1號","121.516831666667","24.974885","6500600","新店區"
"231034","641-BX","2018/07/06 15:09:21","新北市新店區玫瑰路4-1號","121.493663333333","24.9514033333333","6500600","新店區"
"231039","718-UY","2018/07/06 15:09:12","新北市新店區民權路19號","121.542081666667","24.9828516666667","6500600","新店區"
"231035","719-UM","2018/07/06 15:09:23","新北市新店區安和路三段120巷20號","121.51786","24.9858733333333","6500600","新店區"
"231032","719-UY","2018/07/06 15:09:15","新北市新店區安泰路18-1號","121.485553333333","24.9486683333333","6500600","新店區"
"231029","897-TW","2018/07/06 15:09:18","新北市新店區安康路三段738號","121.473935","24.942015","6500600","新店區"
"231004","899-TW","2018/07/06 15:09:15","新北市新店區建國路35巷2號","121.5404","24.9745316666667","6500600","新店區"
"231024","AKT-0513","2018/07/06 15:09:17","新北市新店區北新路一段297巷15號","121.540818333333","24.9677416666667","6500600","新店區"
"235030","003-UY","2018/07/06 15:09:00","新北市中和區保平路231號","121.50807","25.0043683333333","6500300","中和區"
"235020","096-UM","2018/07/06 15:09:15","新北市中和區中山路三段157號","121.473486666667","25.0062216666667","6500300","中和區"
"235004","150-BY","2018/07/06 15:09:25","新北市中和區景安路79巷21號","121.50702","24.99678","6500300","中和區"
"235014","4979-A6","2018/07/06 15:09:22","新北市中和區景新街276號","121.510763333333","24.99234","6500300","中和區"
"235033","4980-A6","2018/07/06 15:09:17","新北市中和區景新街96巷6號","121.504655","24.9982633333333","6500300","中和區"
"235034","558-UM","2018/07/06 15:09:10","新北市中和區中正路434號","121.491218333333","24.9942533333333","6500300","中和區"
"235035","783-BX","2018/07/06 15:09:10","新北市中和區中正路998號","121.48247","25.008725","6500300","中和區"
"235005","802-TS","2018/07/06 15:09:22","新北市三重區五谷王北街181-2號","121.4771","25.0556583333333","6500300","中和區"
"235016","805-TS","2018/07/06 15:09:17","新北市中和區中正路418號","121.491815","24.9941416666667","6500300","中和區"
"235012","896-TW","2018/07/06 15:09:05","新北市中和區興南路二段49號","121.507331666667","24.9854066666667","6500300","中和區"
"235001","AAC-213","2018/07/06 15:09:27","新北市中和區自立路76號","121.523988333333","24.99132","6500300","中和區"
"235023","AAC-215","2018/07/06 15:09:15","新北市中和區圓通路335巷13號","121.493455","24.9894966666667","6500300","中和區"
"220016","013-TV","2018/07/06 15:09:26","新北市板橋區光復街234-1號","121.484628333333","25.0215133333333","6500100","板橋區"
"207002","749-BX","2018/07/06 15:09:17","新北市萬里區崁腳里內中福路87號","121.655683333333","25.166035","6502800","萬里區"
"207001","662-BX","2018/07/06 15:09:14","新北市萬里區雙興里麗水路8-1號","121.649768333333","25.1875766666667","6502800","萬里區"
"236040","107-UM","2018/07/06 15:09:24","新北市土城區裕民路274號","121.45494","24.9824383333333","6501300","土城區"
"236077","166-UM","2018/07/06 15:09:22","新北市土城區中州路27巷78號","121.412561666667","24.9563283333333","6501300","土城區"
"236029","253-BX","2018/07/06 15:09:11","新北市土城區中央路二段78號","121.442403333333","24.9789583333333","6501300","土城區"
"236024","269-VK","2018/07/06 15:09:24","新北市土城區中央路二段149巷14號","121.442718333333","24.97662","6501300","土城區"
"236032","271-VK","2018/07/06 15:09:12","新北市土城區國際路70號","121.466475","24.97807","6501300","土城區"
"236067","KEA-2877","2018/07/06 15:09:11","新北市土城區裕民路24號","121.447711666667","24.9885783333333","6501300","土城區"
"236016","401-BY","2018/07/06 15:09:23","新北市土城區延峰街2號","121.468525","24.986725","6501300","土城區"
"236013","752-BX","2018/07/06 15:09:24","新北市土城區學府路一段23巷41號","121.457213333333","24.9863766666667","6501300","土城區"
"236057","912-UM","2018/07/06 15:09:12","新北市土城區金城路一段118號","121.445576666667","24.97442","6501300","土城區"
"236045","913-UM","2018/07/06 15:09:16","新北市土城區清水路262號","121.461621666667","24.983195","6501300","土城區"
"236060","915-UM","2018/07/06 15:09:20","新北市土城區延平街69巷8號","121.467328333333","24.9928516666667","6501300","土城區"
"236054","AAC-216","2018/07/06 15:09:26","新北市土城區學府路一段276號","121.44991","24.9829966666667","6501300","土城區"
"220030","610-BX","2018/07/06 15:09:22","新北市板橋區金門街289號","121.431036666667","24.9874816666667","6500100","板橋區"
"220050","245-BX","2018/07/06 15:09:13","新北市板橋區雙十路二段47巷4弄33號","121.47492","25.0267533333333","6500100","板橋區"
"220003","256-TC","2018/07/06 15:09:04","新北市板橋區大觀路三段45號","121.434158333333","24.995515","6500100","板橋區"
"220031","286-VK","2018/07/06 15:09:20","新北市板橋區僑中二街102巷25-4號","121.445048333333","25.0083566666667","6500100","板橋區"
"220029","287-VK","2018/07/06 15:09:21","新北市板橋區大觀路一段28巷96號","121.450438333333","25.0110383333333","6500100","板橋區"
"220009","293-UM","2018/07/06 15:09:21","新北市板橋區中山路一段156號","121.465075","25.01184","6500100","板橋區"
"220041","307-R5","2018/07/06 15:09:27","新北市板橋區文化路一段117號","121.461883333333","25.0148","6500100","板橋區"
"220037","491-VK","2018/07/06 15:09:10","新北市板橋區民治街85號","121.479503333333","25.032165","6500100","板橋區"
"220052","561-BX","2018/07/06 15:09:16","新北市板橋區陽明街279巷35號","121.460918333333","25.025535","6500100","板橋區"
"220042","689-BX","2018/07/06 15:09:10","新北市板橋區長江路二段59號","121.464686666667","25.0313933333333","6500100","板橋區"
"220051","KEA-2699","2018/07/06 15:09:10","新北市板橋區縣民大道三段203號","121.479928333333","25.024935","6500100","板橋區"
"220038","833-TW","2018/07/06 15:09:11","新北市板橋區互助街78號","121.460685","25.0264333333333","6500100","板橋區"
"220046","AAC-210","2018/07/06 15:09:27","新北市板橋區民權路202巷22號","121.461155","25.0166916666667","6500100","板橋區"
"220018","AAC-253","2018/07/06 15:09:20","新北市板橋區德興街22號","121.45336","24.9941483333333","6500100","板橋區"
"235032","KEA-2873","2018/07/06 15:08:55","新北市中和區景平路756號","121.496588333333","25.0047433333333","6500300","中和區"
