"lineid","car","time","location","longitude","latitude","cityid","cityname"
"249005","172-UM","2018/07/06 16:59:25","新北市八里區渡船頭2號","121.433981666667","25.151845","6502300","八里區"
"249001","173-UM","2018/07/06 16:59:18","新北市八里區中山路三段106號","121.392751666667","25.1434066666667","6502300","八里區"
"249004","303-UY","2018/07/06 16:59:28","新北市八里區挖子尾街1-1號","121.415683333333","25.1654533333333","6502300","八里區"
"249002","305-UY","2018/07/06 16:57:32","新北市八里區牛寮埔28-5號","121.432473333333","25.1433433333333","6502300","八里區"
"249003","759-BX","2018/07/06 16:59:24","新北市八里區中山路二段370號","121.401028333333","25.1481133333333","6502300","八里區"
"244017","485-VK","2018/07/06 16:59:26","新北市林口區粉寮69號","121.405086666667","25.090825","6501700","林口區"
"244025","837-TS","2018/07/06 16:59:18","新北市林口區粉寮69號","121.405081666667","25.090755","6501700","林口區"
"231046","188-VK","2018/07/06 16:59:17","新北市新店區直潭十街10號","121.531963333333","24.9388733333333","6500600","新店區"
"241011","013-R5","2018/07/06 16:59:23","新北市三重區仁愛街53巷76號","121.49805","25.0724466666667","6500200","三重區"
"241028","022-UY","2018/07/06 16:59:17","新北市三重區中正南路41巷1號","121.493878333333","25.0598983333333","6500200","三重區"
"241008","059-VK","2018/07/06 16:59:17","新北市三重區永福街179巷30號","121.477878333333","25.074825","6500200","三重區"
"241022","060-VK","2018/07/06 16:59:13","新北市三重區中華路89號","121.483555","25.0629483333333","6500200","三重區"
"241015","062-VK","2018/07/06 16:59:29","新北市三重區福德北路82號","121.501661666667","25.0663416666667","6500200","三重區"
"241024","065-VK","2018/07/06 16:59:09","新北市三重區大勇街82巷15弄30號","121.481176666667","25.071965","6500200","三重區"
"241026","066-VK","2018/07/06 16:59:26","新北市三重區文化南路42號","121.500403333333","25.0602533333333","6500200","三重區"
"241002","090-VK","2018/07/06 16:59:22","新北市三重區仁義街225巷41號","121.497876666667","25.082935","6500200","三重區"
"241003","091-VK","2018/07/06 16:59:20","新北市三重區五華街141巷60號","121.493508333333","25.08668","6500200","三重區"
"241005","262-UM","2018/07/06 16:59:25","新北市三重區碧華街112巷15號","121.484386666667","25.082595","6500200","三重區"
"241020","265-UM","2018/07/06 16:59:14","新北市三重區國道路一段6號","121.486246666667","25.0733816666667","6500200","三重區"
"241016","266-UM","2018/07/06 16:59:27","新北市三重區大同北路102號","121.493463333333","25.0640116666667","6500200","三重區"
"241009","267-UM","2018/07/06 16:59:12","新北市三重區仁美街105號","121.485741666667","25.080645","6500200","三重區"
"241018","268-UM","2018/07/06 16:59:15","新北市三重區六張街126巷2弄10號","121.492306666667","25.0693766666667","6500200","三重區"
"241032","269-UM","2018/07/06 16:59:27","新北市三重區新北大道一段33號","121.486048333333","25.0612933333333","6500200","三重區"
"241013","270-UM","2018/07/06 16:59:17","新北市三重區仁孝街62號","121.497286666667","25.074465","6500200","三重區"
"241025","271-UM","2018/07/06 16:59:27","新北市三重區中正北路508巷9號","121.472711666667","25.0712366666667","6500200","三重區"
"241007","398-BY","2018/07/06 16:59:23","新北市三重區溪尾街136號","121.489128333333","25.0795616666667","6500200","三重區"
"241031","413-TH","2018/07/06 16:59:24","新北市三重區三寧街25號","121.48975","25.0599133333333","6500200","三重區"
"241004","475-VK","2018/07/06 16:59:24","新北市三重區五華街106號","121.49255","25.0825083333333","6500200","三重區"
"241030","480-VK","2018/07/06 16:59:22","新北市三重區昌隆街61號","121.491026666667","25.0511466666667","6500200","三重區"
"241014","543-UM","2018/07/06 16:59:10","新北市三重區三和路二段173巷145號","121.501131666667","25.0706566666667","6500200","三重區"
"241023","545-UM","2018/07/06 16:59:15","新北市三重區新北大道一段252號","121.480216666667","25.0616816666667","6500200","三重區"
"241001","547-UM","2018/07/06 16:59:24","新北市三重區仁愛街170號","121.4942","25.0766483333333","6500200","三重區"
"241019","KEA-2593","2018/07/06 16:59:17","新北市三重區自強路二段74巷23-1號","121.487905","25.069835","6500200","三重區"
"241006","AAD-863","2018/07/06 16:59:25","新北市三重區三和路四段218巷24號","121.485273333333","25.0760533333333","6500200","三重區"
"241017","887-TS","2018/07/06 16:59:25","新北市三重區中正北路25巷25弄7號","121.493483333333","25.0627916666667","6500200","三重區"
"241012","941-UM","2018/07/06 16:59:10","新北市三重區仁和街84號","121.499295","25.0745416666667","6500200","三重區"
"241029","942-UM","2018/07/06 16:59:10","新北市三重區重安街99-2號","121.49377","25.055295","6500200","三重區"
"241033","AAC-255","2018/07/06 16:59:19","新北市三重區中興北街271號","121.469125","25.0607033333333","6500200","三重區"
"235064","005-UY","2018/07/06 16:59:23","新北市中和區員山路36巷16-3號","121.484983333333","24.991275","6500300","中和區"
"220016","013-TV","2018/07/06 16:33:16","新北市板橋區民生路二段120號","121.470468333333","25.0195133333333","6500100","板橋區"
"247024","893-R6","2018/07/06 16:59:08","新北市蘆洲區長興路202號","121.460593333333","25.08749","6501400","蘆洲區"
"247014","546-UM","2018/07/06 16:59:19","新北市蘆洲區中山二路36巷40號","121.47408","25.0835633333333","6501400","蘆洲區"
"247009","341-TH","2018/07/06 16:59:30","新北市蘆洲區三民路26巷65號","121.47848","25.0832566666667","6501400","蘆洲區"
"247004","337-TH","2018/07/06 16:59:22","新北市蘆洲區長安街110號","121.461","25.0816683333333","6501400","蘆洲區"
"247006","336-TH","2018/07/06 16:59:20","新北市蘆洲區永安南路二段234號","121.460505","25.07956","6501400","蘆洲區"
"247018","057-VK","2018/07/06 16:59:21","新北市蘆洲區民族路227巷20號","121.4767","25.0891933333333","6501400","蘆洲區"
"247008","056-VK","2018/07/06 16:59:10","新北市蘆洲區信義路60號","121.475741666667","25.079555","6501400","蘆洲區"
"247016","007-UY","2018/07/06 16:59:31","新北市蘆洲區正和街26號","121.469776666667","25.0823133333333","6501400","蘆洲區"
"247020","001-UY","2018/07/06 16:59:11","新北市蘆洲區民族路422巷35-1號","121.473506666667","25.0937783333333","6501400","蘆洲區"
"228001","212-TW","2018/07/06 16:59:14","新北市貢寮區貢寮里朝陽街1-2號","121.912205","25.0212683333333","6502600","貢寮區"
"228002","663-BX","2018/07/06 16:59:27","新北市貢寮區貢寮里朝陽街46號","121.910795","25.0213266666667","6502600","貢寮區"
"228003","828-UM","2018/07/06 16:59:21","新北市貢寮區福隆里興隆街36號","121.941611666667","25.01697","6502600","貢寮區"
"224006","676-BX","2018/07/06 16:59:16","新北市瑞芳區大寮路2-2號","121.785531666667","25.1022783333333","6501200","瑞芳區"
"224008","285-BY","2018/07/06 16:59:20","新北市瑞芳區明燈路一段245號","121.817636666667","25.1082483333333","6501200","瑞芳區"
"224007","275-VK","2018/07/06 16:59:12","新北市瑞芳區粗坑口路15號","121.761105","25.0989983333333","6501200","瑞芳區"
"224009","273-VK","2018/07/06 16:59:30","新北市瑞芳區濱二路31號","121.836095","25.1121783333333","6501200","瑞芳區"
"224005","271-BY","2018/07/06 16:59:20","新北市瑞芳區長仁路1號","121.872051666667","25.1235383333333","6501200","瑞芳區"
"227011","642-TC","2018/07/06 16:59:10","新北市雙溪區牡丹里聖南35號","121.853145","25.0560616666667","6502500","雙溪區"
"227003","400-TW","2018/07/06 16:59:13","新北市雙溪區長源里柑腳19號","121.80449","25.0142083333333","6502500","雙溪區"
"251004","009-UM","2018/07/06 16:59:25","新北市淡水區中正路二段16號","121.420243333333","25.1809666666667","6501000","淡水區"
"251008","181-VK","2018/07/06 16:59:29","新北市淡水區樹梅坑9號","121.472761666667","25.142685","6501000","淡水區"
"251010","413-VK","2018/07/06 16:59:04","新北市淡水區沙崙路198號","121.424523333333","25.1838333333333","6501000","淡水區"
"251012","441-VK","2018/07/06 16:59:08","新北市淡水區沙崙路198號","121.42441","25.1837666666667","6501000","淡水區"
"251005","443-VK","2018/07/06 16:59:29","新北市淡水區中正路259號","121.432961666667","25.1745166666667","6501000","淡水區"
"251006","561-UM","2018/07/06 16:59:25","新北市淡水區中正路二段31號","121.41943","25.1822983333333","6501000","淡水區"
"251009","575-R6","2018/07/06 16:59:24","新北市淡水區中正路一段17號","121.426453333333","25.17616","6501000","淡水區"
"251007","577-R6","2018/07/06 16:59:07","新北市淡水區中正東路二段48巷20號","121.457633333333","25.1583366666667","6501000","淡水區"
"251011","650-BX","2018/07/06 16:59:26","新北市淡水區中山路36號","121.444326666667","25.1698766666667","6501000","淡水區"
"252002","178-VK","2018/07/06 16:59:23","新北市三芝區忠孝街171號","121.505496666667","25.261325","6502100","三芝區"
"252001","292-VK","2018/07/06 16:59:22","新北市三芝區淡金路二段76-1號","121.503725","25.2608516666667","6502100","三芝區"
"242054","751-BX","2018/07/06 16:59:19","新北市新莊區新泰路357巷3弄57號","121.441955","25.0391333333333","6500500","新莊區"
"242025","613-BX","2018/07/06 16:58:00","新北市新莊區新泰路357巷3弄57號","121.442173333333","25.0396583333333","6500500","新莊區"
"242029","612-BX","2018/07/06 16:59:20","新北市新莊區新泰路357巷3弄57號","121.442195","25.0391916666667","6500500","新莊區"
"242041","566-BX","2018/07/06 16:59:31","新北市新莊區新泰路357巷3弄57號","121.441953333333","25.0390483333333","6500500","新莊區"
"242056","440-UM","2018/07/06 16:59:22","新北市新莊區新泰路357巷3弄57號","121.441918333333","25.039185","6500500","新莊區"
"242023","362-BY","2018/07/06 16:59:12","新北市新莊區新泰路255巷83號","121.44233","25.0389116666667","6500500","新莊區"
"242005","176-VK","2018/07/06 16:59:20","新北市新莊區新泰路255巷83號","121.442063333333","25.03887","6500500","新莊區"
"242037","347-TH","2018/07/06 16:59:21","新北市新莊區三和路12-16號","121.441743333333","25.0374116666667","6500500","新莊區"
"242002","349-TH","2018/07/06 16:44:02","新北市新莊區新泰路225巷22弄19號","121.44423","25.0390616666667","6500500","新莊區"
"238018","571-TV","2018/07/06 16:59:30","新北市樹林區育德街78-1號","121.388116666667","24.9680966666667","6500700","樹林區"
"238020","268-VK","2018/07/06 16:59:26","新北市樹林區保安街二段61號","121.416125","25.0004633333333","6500700","樹林區"
"239007","AAC-297","2018/07/06 16:59:12","新北市鶯歌區二甲路13-16號","121.345001666667","24.9351766666667","6500800","鶯歌區"
"239001","417-VK","2018/07/06 16:54:18","新北市鶯歌區環河路177-3號","121.3459","24.9352433333333","6500800","鶯歌區"
"242021","281-VK","2018/07/06 16:59:22","新北市新莊區三和路12-18號","121.441841666667","25.03763","6500500","新莊區"
