"lineid","car","time","location","longitude","latitude","cityid","cityname"
"249005","172-UM","2018/07/06 17:29:25","新北市八里區荖阡坑路65-3號","121.404261666667","25.130945","6502300","八里區"
"249001","173-UM","2018/07/06 17:29:18","新北市八里區大崁腳47-3號","121.424471666667","25.1590066666667","6502300","八里區"
"249004","303-UY","2018/07/06 17:29:28","新北市八里區賢三街176號","121.414356666667","25.1566283333333","6502300","八里區"
"249002","305-UY","2018/07/06 17:29:11","新北市八里區龍米路二段65巷17-2號","121.44718","25.1409016666667","6502300","八里區"
"249003","759-BX","2018/07/06 17:29:24","新北市八里區中山路二段313號","121.400665","25.14786","6502300","八里區"
"244007","080-UY","2018/07/06 17:29:26","新北市林口區湖子8-2號","121.392075","25.0921216666667","6501700","林口區"
"244019","403-UM","2018/07/06 17:29:17","新北市林口區公園路122號","121.3707","25.0713","6501700","林口區"
"244013","742-UY","2018/07/06 17:29:21","新北市林口區粉寮69號","121.404725","25.090735","6501700","林口區"
"244023","483-VK","2018/07/06 17:29:14","新北市林口區東明一街50號","121.392291666667","25.07217","6501700","林口區"
"244017","485-VK","2018/07/06 17:29:26","新北市林口區中山路319號","121.383443333333","25.08058","6501700","林口區"
"244011","657-BX","2018/07/06 17:29:13","新北市林口區仁愛路一段386巷2號","121.38796","25.07719","6501700","林口區"
"244025","837-TS","2018/07/06 17:29:18","新北市林口區仁愛二路63號","121.368471666667","25.0754333333333","6501700","林口區"
"244021","838-TS","2018/07/06 17:29:27","新北市林口區粉寮1號","121.397355","25.0798216666667","6501700","林口區"
"231046","188-VK","2018/07/06 17:29:17","新北市新店區直潭路92號","121.53092","24.9375716666667","6500600","新店區"
"241015","062-VK","2018/07/06 17:29:29","新北市三重區開元街1號","121.503513333333","25.066305","6500200","三重區"
"241024","065-VK","2018/07/06 17:29:09","新北市三重區大勇街82巷15弄19號","121.48062","25.0719566666667","6500200","三重區"
"241002","090-VK","2018/07/06 17:29:22","新北市三重區溪尾街56號","121.490675","25.0775783333333","6500200","三重區"
"241003","091-VK","2018/07/06 17:29:20","新北市三重區通華街11號","121.495945","25.0843966666667","6500200","三重區"
"241005","262-UM","2018/07/06 17:29:24","新北市三重區永安北路二段5巷20號","121.482365","25.0812033333333","6500200","三重區"
"241020","265-UM","2018/07/06 17:29:14","新北市三重區忠孝路二段53號","121.485388333333","25.07074","6500200","三重區"
"241016","266-UM","2018/07/06 17:29:27","新北市三重區信義西街41號","121.49528","25.063965","6500200","三重區"
"241009","267-UM","2018/07/06 17:29:32","新北市三重區車路頭街137號","121.484198333333","25.0761916666667","6500200","三重區"
"241018","268-UM","2018/07/06 17:29:15","新北市三重區新北大道一段7號","121.489576666667","25.0613333333333","6500200","三重區"
"241025","271-UM","2018/07/06 17:29:27","新北市三重區中正北路380號","121.476433333333","25.0698833333333","6500200","三重區"
"241007","398-BY","2018/07/06 17:29:23","新北市三重區三和路四段145巷184號","121.48875","25.0796083333333","6500200","三重區"
"241004","475-VK","2018/07/06 17:29:24","新北市三重區自強路四段62號","121.490173333333","25.078395","6500200","三重區"
"241030","480-VK","2018/07/06 17:29:22","新北市三重區環河南路220-8號","121.493393333333","25.052685","6500200","三重區"
"241014","543-UM","2018/07/06 17:29:11","新北市三重區安和路17號","121.501338333333","25.0684616666667","6500200","三重區"
"241023","545-UM","2018/07/06 17:29:15","新北市三重區忠孝路三段84巷47號","121.481313333333","25.0643366666667","6500200","三重區"
"241019","KEA-2593","2018/07/06 17:29:17","新北市三重區自強路二段26巷1號","121.489211666667","25.0691","6500200","三重區"
"241006","AAD-863","2018/07/06 17:29:25","新北市三重區車路頭街139巷14號","121.4843","25.076165","6500200","三重區"
"241017","887-TS","2018/07/06 17:29:19","新北市三重區大同北路34巷24號","121.494661666667","25.062405","6500200","三重區"
"241012","941-UM","2018/07/06 17:29:10","新北市三重區仁興街33巷2號","121.499198333333","25.0754916666667","6500200","三重區"
"241033","AAC-255","2018/07/06 17:29:18","新北市三重區中興北街153-17號","121.469055","25.0549283333333","6500200","三重區"
"235064","005-UY","2018/07/06 17:29:23","新北市中和區員山路36巷16-3號","121.48505","24.9912966666667","6500300","中和區"
"247024","893-R6","2018/07/06 17:29:28","新北市蘆洲區長興路296-8號","121.460588333333","25.0902433333333","6501400","蘆洲區"
"247014","546-UM","2018/07/06 17:29:19","新北市蘆洲區三民路33號","121.475425","25.0830183333333","6501400","蘆洲區"
"247022","500-BY","2018/07/06 17:29:20","新北市蘆洲區三民路182號","121.469638333333","25.088555","6501400","蘆洲區"
"247009","341-TH","2018/07/06 17:29:29","新北市蘆洲區集賢路406號","121.480076666667","25.0819933333333","6501400","蘆洲區"
"247012","339-TH","2018/07/06 17:28:49","新北市蘆洲區民族路31號","121.477511666667","25.0849383333333","6501400","蘆洲區"
"247004","337-TH","2018/07/06 17:29:22","新北市蘆洲區長安街233巷22號","121.45856","25.0825316666667","6501400","蘆洲區"
"247006","336-TH","2018/07/06 17:29:20","新北市蘆洲區九芎街90巷31號","121.46451","25.081475","6501400","蘆洲區"
"247018","057-VK","2018/07/06 17:29:21","新北市蘆洲區水湳街25號","121.472238333333","25.0881566666667","6501400","蘆洲區"
"247008","056-VK","2018/07/06 17:29:30","新北市蘆洲區成功路1號","121.47383","25.0778566666667","6501400","蘆洲區"
"247016","007-UY","2018/07/06 17:29:26","新北市蘆洲區中正路185巷26號","121.467976666667","25.085185","6501400","蘆洲區"
"247002","002-UY","2018/07/06 17:29:28","新北市蘆洲區永樂街38巷57弄3號","121.458153333333","25.0901066666667","6501400","蘆洲區"
"247020","001-UY","2018/07/06 17:29:23","新北市蘆洲區仁愛街93巷8號","121.47077","25.0940483333333","6501400","蘆洲區"
"228001","212-TW","2018/07/06 17:29:14","新北市貢寮區仁理村仁愛路24號","121.924635","25.053265","6502600","貢寮區"
"228002","663-BX","2018/07/06 17:29:27","新北市貢寮區福隆里福隆街12號","121.944921666667","25.01627","6502600","貢寮區"
"228003","828-UM","2018/07/06 17:29:20","新北市貢寮區仁理村研海街45號","121.926145","25.0415316666667","6502600","貢寮區"
"224010","AGQ-8101","2018/07/06 17:29:13","新北市瑞芳區瑞芳街11號","121.806931666667","25.1097","6501200","瑞芳區"
"224006","676-BX","2018/07/06 17:29:16","新北市瑞芳區靜安路四段91號","121.793358333333","25.1090716666667","6501200","瑞芳區"
"224008","285-BY","2018/07/06 17:29:20","新北市瑞芳區九芎橋路14號","121.832131666667","25.09129","6501200","瑞芳區"
"224009","273-VK","2018/07/06 17:29:10","新北市瑞芳區烏勢巷145號","121.847841666667","25.1090916666667","6501200","瑞芳區"
"224005","271-BY","2018/07/06 17:29:20","新北市瑞芳區南雅路91號","121.88386","25.123075","6501200","瑞芳區"
"227011","642-TC","2018/07/06 17:29:30","新北市雙溪區三貂里定福路1-2號","121.850833333333","25.063485","6502500","雙溪區"
"227003","400-TW","2018/07/06 17:29:13","新北市雙溪區上林里新寮子1-1號","121.839533333333","25.0315116666667","6502500","雙溪區"
"251004","009-UM","2018/07/06 17:20:54","新北市淡水區中正東路二段88巷15號","121.4591","25.1505016666667","6501000","淡水區"
"251002","012-UM","2018/07/06 17:29:22","新北市淡水區中正路261號","121.43192","25.1747683333333","6501000","淡水區"
"251008","181-VK","2018/07/06 17:29:28","新北市淡水區大同路107巷11號","121.46292","25.1409083333333","6501000","淡水區"
"251010","413-VK","2018/07/06 17:29:24","新北市淡水區中正路二段211號","121.426206666667","25.189135","6501000","淡水區"
"251012","441-VK","2018/07/06 17:29:28","新北市淡水區北新路111號","121.448026666667","25.1783966666667","6501000","淡水區"
"251005","443-VK","2018/07/06 17:29:12","新北市淡水區鄧公路31巷6號","121.451526666667","25.1707283333333","6501000","淡水區"
"251006","561-UM","2018/07/06 17:29:25","新北市淡水區大仁街31號","121.442608333333","25.1754983333333","6501000","淡水區"
"251009","575-R6","2018/07/06 17:29:24","新北市淡水區中正路177號","121.438598333333","25.1713716666667","6501000","淡水區"
"251007","577-R6","2018/07/06 17:29:27","新北市淡水區民生路47-4號","121.462105","25.1380383333333","6501000","淡水區"
"251011","650-BX","2018/07/06 17:29:26","新北市淡水區坪頂路712號","121.482501666667","25.1584816666667","6501000","淡水區"
"251003","673-BX","2018/07/06 17:29:17","新北市淡水區中正路235號","121.435146666667","25.1735666666667","6501000","淡水區"
"207003","291-VK","2018/07/06 17:29:28","新北市萬里區龜吼里翡翠路17號","121.683395","25.1870816666667","6502800","萬里區"
"207004","225-TW","2018/07/06 17:29:22","新北市萬里區萬里里景美路16號","121.686658333333","25.1733766666667","6502800","萬里區"
"252002","178-VK","2018/07/06 17:29:23","新北市三芝區忠孝街1-14號","121.505455","25.25393","6502100","三芝區"
"252001","292-VK","2018/07/06 17:29:22","新北市三芝區長安街119號","121.498065","25.2596516666667","6502100","三芝區"
"237015","649-BX","2018/07/06 17:29:14","新北市三峽區中山路323號","121.360643333333","24.9381033333333","6500900","三峽區"
"242034","AAC-296","2018/07/06 17:29:27","新北市新莊區新莊路467號","121.449245","25.0333416666667","6500500","新莊區"
"242058","986-R7","2018/07/06 17:29:17","新北市新莊區福營路94號","121.436773333333","25.0330433333333","6500500","新莊區"
"242054","751-BX","2018/07/06 17:29:19","新北市新莊區瓊林南路305巷25號","121.435653333333","25.005025","6500500","新莊區"
"242027","615-BX","2018/07/06 17:29:16","新北市新莊區思源路32號","121.460235","25.0404","6500500","新莊區"
"242025","613-BX","2018/07/06 17:29:21","新北市新莊區復興路二段22號","121.454336666667","25.04397","6500500","新莊區"
"242029","612-BX","2018/07/06 17:29:30","新北市新莊區復興路二段182號","121.458941666667","25.0443683333333","6500500","新莊區"
"242041","566-BX","2018/07/06 17:29:11","新北市新莊區新樹路113巷32號","121.438761666667","25.026685","6500500","新莊區"
"242046","497-BY","2018/07/06 17:29:20","新北市新莊區新樹路65-5號","121.439415","25.0308966666667","6500500","新莊區"
"242050","442-UM","2018/07/06 17:29:24","新北市新莊區新樹路449巷5號","121.433093333333","25.0136466666667","6500500","新莊區"
"242056","440-UM","2018/07/06 17:29:22","新北市新莊區景德路202號","121.449356666667","25.0338283333333","6500500","新莊區"
"242007","413-TV","2018/07/06 17:29:23","新北市新莊區自強街49號","121.454703333333","25.0469233333333","6500500","新莊區"
"242044","400-BY","2018/07/06 17:29:27","新北市新莊區富國路86號","121.420461666667","25.0257466666667","6500500","新莊區"
"242023","362-BY","2018/07/06 17:29:12","新北市新莊區公園路148號","121.453116666667","25.0400966666667","6500500","新莊區"
"242060","353-BY","2018/07/06 17:29:23","新北市新莊區瓊林路180號","121.440038333333","25.0216766666667","6500500","新莊區"
"242009","132-UY","2018/07/06 17:29:14","新北市新莊區中華路二段227號","121.452126666667","25.053285","6500500","新莊區"
"242039","133-UY","2018/07/06 17:29:27","新北市新莊區民安東路45號","121.429188333333","25.0209116666667","6500500","新莊區"
"242032","135-UY","2018/07/06 17:29:18","新北市新莊區新泰路401巷29-1號","121.442423333333","25.0439416666667","6500500","新莊區"
"242048","172-VK","2018/07/06 17:29:24","新北市新莊區龍安路252號","121.421096666667","25.0196116666667","6500500","新莊區"
"242017","175-VK","2018/07/06 17:29:17","新北市新莊區復興路一段193號","121.45188","25.0435616666667","6500500","新莊區"
"242005","176-VK","2018/07/06 17:29:31","新北市新莊區中港路288巷14號","121.453443333333","25.04454","6500500","新莊區"
"242015","346-TH","2018/07/06 17:29:18","新北市新莊區新泰路161號","121.447793333333","25.03707","6500500","新莊區"
"242037","347-TH","2018/07/06 17:29:21","新北市新莊區建國一路288巷51號","121.434143333333","25.02587","6500500","新莊區"
"242009","350-TH","2018/07/06 17:29:17","新北市新莊區中港路76號","121.455528333333","25.0389716666667","6500500","新莊區"
"242013","351-TH","2018/07/06 17:29:21","新北市新莊區中誠街14號","121.451976666667","25.048255","6500500","新莊區"
"238015","755-BX","2018/07/06 17:29:21","新北市樹林區大安路269號","121.418983333333","24.99367","6500700","樹林區"
"238019","599-UM","2018/07/06 17:29:29","新北市樹林區太平路25-1號","121.419135","24.98334","6500700","樹林區"
"238018","571-TV","2018/07/06 17:29:30","新北市樹林區鎮前街97巷2號","121.424516666667","24.9895716666667","6500700","樹林區"
"238024","5061-A6","2018/07/06 17:29:21","新北市樹林區中華路6-3號","121.424633333333","24.9841","6500700","樹林區"
"238022","KEA-2213","2018/07/06 17:29:26","新北市樹林區信義街25號","121.42317","24.98222","6500700","樹林區"
"238021","KEA-2539","2018/07/06 17:29:19","新北市樹林區民權街16-1號","121.397278333333","24.9580583333333","6500700","樹林區"
"238025","303-VK","2018/07/06 17:29:19","新北市樹林區保安街一段195號","121.421033333333","24.9959733333333","6500700","樹林區"
"238017","283-BY","2018/07/06 17:29:28","新北市樹林區中正路254號","121.417558333333","25.0073333333333","6500700","樹林區"
"238014","282-BY","2018/07/06 17:29:11","新北市樹林區長壽街57號","121.419943333333","24.9958033333333","6500700","樹林區"
"238020","268-VK","2018/07/06 17:29:26","新北市樹林區俊英街160巷17號","121.427465","25.00692","6500700","樹林區"
"238026","172-UY","2018/07/06 17:29:19","新北市樹林區新興街17號","121.400183333333","24.97281","6500700","樹林區"
"238016","169-UY","2018/07/06 17:29:20","新北市樹林區長壽街2巷2號","121.424186666667","24.99352","6500700","樹林區"
"239007","AAC-297","2018/07/06 17:29:12","新北市鶯歌區中正一路214號","121.35351","24.9567616666667","6500800","鶯歌區"
"239006","891-R6","2018/07/06 17:29:31","新北市鶯歌區鳳鳴路105號","121.334405","24.966335","6500800","鶯歌區"
"239008","527-UM","2018/07/06 17:29:28","新北市鶯歌區大湖路584號","121.335805","24.9738966666667","6500800","鶯歌區"
"239005","526-UM","2018/07/06 17:29:10","新北市鶯歌區鶯桃路二段9號","121.326001666667","24.9719983333333","6500800","鶯歌區"
"239001","417-VK","2018/07/06 17:29:18","新北市鶯歌區尖山路235號","121.340031666667","24.9436766666667","6500800","鶯歌區"
"239003","360-BY","2018/07/06 17:29:17","新北市鶯歌區鶯桃路297-1號","121.33466","24.9603783333333","6500800","鶯歌區"
"239004","193-VK","2018/07/06 17:29:11","新北市鶯歌區三鶯路29巷34號","121.35366","24.9392816666667","6500800","鶯歌區"
"221010","269-BY","2018/07/06 17:29:15","新北市汐止區汐萬路一段256巷3號","121.652066666667","25.074735","6501100","汐止區"
"221033","647-BX","2018/07/06 17:29:19","新北市汐止區大同路二段187巷39號","121.651925","25.0657616666667","6501100","汐止區"
"242021","281-VK","2018/07/06 17:29:22","新北市新莊區中華路一段2號","121.45213","25.0361283333333","6500500","新莊區"
