"lineid","car","time","location","longitude","latitude","cityid","cityname"
"234046","148-BY","2018/07/06 18:39:30","新北市永和區永元路68號","121.522543333333","25.0014633333333","6500400","永和區"
"234081","298-R6","2018/07/06 18:39:14","新北市永和區林森路81號","121.52389","25.0038266666667","6500400","永和區"
"234038","336-UY","2018/07/06 18:39:17","新北市永和區福和路1號","121.526671666667","25.0100516666667","6500400","永和區"
"234064","337-UY","2018/07/06 18:39:10","新北市永和區福和路1號","121.526518333333","25.01","6500400","永和區"
"234030","746-BX","2018/07/06 18:39:26","新北市永和區得和路325號","121.52346","24.9996066666667","6500400","永和區"
"234013","KEA-2591","2018/07/06 18:39:30","新北市永和區仁愛路88號","121.512545","25.01334","6500400","永和區"
"234042","862-TW","2018/07/06 18:39:29","新北市永和區永貞路306號","121.511916666667","25.0048233333333","6500400","永和區"
"234050","863-TW","2018/07/06 18:39:24","新北市永和區福和路1號","121.526535","25.009855","6500400","永和區"
"234026","9371-KE","2018/07/06 18:39:28","新北市永和區中山路一段214號","121.508291666667","25.0085166666667","6500400","永和區"
"234011","9373-KE","2018/07/06 18:39:27","新北市永和區文化路9巷22弄1號","121.515211666667","25.01451","6500400","永和區"
"249005","172-UM","2018/07/06 18:39:25","新北市八里區中華路三段212號","121.388901666667","25.1252433333333","6502300","八里區"
"249001","173-UM","2018/07/06 18:39:18","新北市八里區龍米路一段410號","121.451181666667","25.1334083333333","6502300","八里區"
"249004","303-UY","2018/07/06 18:39:28","新北市八里區中山路一段81號","121.417173333333","25.1593966666667","6502300","八里區"
"249002","305-UY","2018/07/06 18:39:31","新北市八里區龍形一街33巷6-2號","121.449326666667","25.129475","6502300","八里區"
"248016","026-BX","2018/07/06 18:39:19","新北市五股區凌雲路一段149巷13-1號","121.448616666667","25.1008533333333","6501500","五股區"
"248008","095-VK","2018/07/06 18:39:26","新北市五股區中興路一段152號","121.464603333333","25.0738533333333","6501500","五股區"
"248018","225-UY","2018/07/06 18:39:12","新北市五股區民義路二段58號","121.40641","25.1076683333333","6501500","五股區"
"248012","247-BX","2018/07/06 18:39:17","新北市五股區成泰路三段2巷1-12號","121.441288333333","25.0867083333333","6501500","五股區"
"248014","261-SL","2018/07/06 18:39:13","新北市五股區蓬萊路24號","121.434166666667","25.07983","6501500","五股區"
"248010","272-BY","2018/07/06 18:39:29","新北市五股區水碓三路120號","121.431815","25.0734783333333","6501500","五股區"
"248004","677-BX","2018/07/06 18:39:29","新北市五股區民義路一段230號","121.428453333333","25.0906866666667","6501500","五股區"
"248002","678-BX","2018/07/06 18:39:25","新北市五股區西雲路199號","121.448063333333","25.0962266666667","6501500","五股區"
"234077","969-R7","2018/07/06 18:39:24","新北市永和區福和路261號","121.5179","25.0074333333333","6500400","永和區"
"234067","AAC-212","2018/07/06 18:39:27","新北市永和區安樂路268號","121.514603333333","25.00389","6500400","永和區"
"234003","AAC-295","2018/07/06 18:39:14","新北市永和區福和路1號","121.526523333333","25.0099383333333","6500400","永和區"
"244007","080-UY","2018/07/06 18:39:26","新北市林口區後湖19-1號","121.387856666667","25.0985283333333","6501700","林口區"
"244019","403-UM","2018/07/06 18:39:14","新北市林口區忠孝路648號","121.379033333333","25.06834","6501700","林口區"
"244013","742-UY","2018/07/06 18:39:21","新北市林口區中正路514巷6弄1號","121.382196666667","25.0780633333333","6501700","林口區"
"244009","410-SL","2018/07/06 18:39:23","新北市林口區竹林路326巷78號","121.39268","25.08243","6501700","林口區"
"244023","483-VK","2018/07/06 18:39:14","新北市林口區吉祥路178號","121.376698333333","25.08048","6501700","林口區"
"244017","485-VK","2018/07/06 18:39:26","新北市林口區文化二路一段62-6號","121.365546666667","25.0684566666667","6501700","林口區"
"244011","657-BX","2018/07/06 18:39:13","新北市林口區仁愛路一段348號","121.390703333333","25.0764666666667","6501700","林口區"
"244025","837-TS","2018/07/06 18:39:18","新北市林口區南勢三街57號","121.357563333333","25.07701","6501700","林口區"
"244021","838-TS","2018/07/06 18:39:27","新北市林口區工六路27號","121.401215","25.0767483333333","6501700","林口區"
"243013","AAD-798","2018/07/06 18:31:27","新北市泰山區明志路三段206巷1號","121.423318333333","25.0379133333333","6501600","泰山區"
"243012","646-TV","2018/07/06 18:39:25","新北市泰山區福興三街13號","121.43442","25.05779","6501600","泰山區"
"222002","016-RS","2018/07/06 18:39:25","新北市深坑區雲鄉路2號","121.620961666667","24.9996733333333","6501800","深坑區"
"222003","436-BY","2018/07/06 18:39:26","新北市深坑區翠谷街14號","121.627016666667","25.008635","6501800","深坑區"
"231041","002-UM","2018/07/06 18:39:29","新北市新店區安華路28-1號","121.519541666667","24.960825","6500600","新店區"
"231040","047-UY","2018/07/06 18:39:19","新北市新店區安華路28-1號","121.519318333333","24.9609266666667","6500600","新店區"
"231044","106-UY","2018/07/06 18:39:27","新北市新店區安康路一段24巷2號","121.5329","24.960335","6500600","新店區"
"231053","108-UY","2018/07/06 18:39:22","新北市新店區永興路7號","121.544755","24.9397483333333","6500600","新店區"
"231065","110-UY","2018/07/06 18:39:12","新北市新店區安一路一段1-1號","121.51966","24.9611283333333","6500600","新店區"
"231048","187-VK","2018/07/06 18:39:11","新北市新店區安康路一段164-1號","121.525995","24.9629933333333","6500600","新店區"
"231046","188-VK","2018/07/06 18:39:17","新北市新店區直潭二街1號","121.535543333333","24.943175","6500600","新店區"
"231054","KEA-2219","2018/07/06 18:39:22","新北市新店區安一路一段1-1號","121.519761666667","24.9612433333333","6500600","新店區"
"221018","KEA-2785","2018/07/06 18:39:18","新北市汐止區茄苳路301號","121.673213333333","25.067035","6501100","汐止區"
"231057","256-BX","2018/07/06 18:39:20","新北市新店區新烏路一段171號","121.545171666667","24.9343466666667","6500600","新店區"
"231042","268-BY","2018/07/06 18:39:23","新北市新店區安華路28-1號","121.519386666667","24.9606166666667","6500600","新店區"
"231051","278-BY","2018/07/06 18:39:14","新北市新店區環河路29巷1號","121.537001666667","24.961415","6500600","新店區"
"231050","AAD-862","2018/07/06 18:39:28","新北市新店區安一路一段1-1號","121.519721666667","24.961385","6500600","新店區"
"231059","355-BY","2018/07/06 18:39:29","新北市新店區安華路28-1號","121.519356666667","24.96093","6500600","新店區"
"231058","3713-VJ","2018/07/06 18:39:23","新北市新店區北宜路一段168號","121.540508333333","24.95299","6500600","新店區"
"231066","4716-K9","2018/07/06 18:39:30","新北市新店區安一路一段1-1號","121.519326666667","24.9611483333333","6500600","新店區"
"231056","4715-K9","2018/07/06 18:39:16","新北市新店區建國路167號","121.538456666667","24.9793483333333","6500600","新店區"
"231067","4772-VM","2018/07/06 18:39:22","新北市新店區安華路1-1號","121.519325","24.9605133333333","6500600","新店區"
"231049","513-UM","2018/07/06 18:39:28","新北市新店區安一路一段1-1號","121.519558333333","24.961115","6500600","新店區"
"231045","617-UM","2018/07/06 18:39:18","新北市新店區安華路28-1號","121.519421666667","24.96079","6500600","新店區"
"231061","619-UM","2018/07/06 18:39:18","新北市新店區安華路28-1號","121.519435","24.960865","6500600","新店區"
"231063","641-BX","2018/07/06 18:39:32","新北市新店區安華路28-1號","121.519531666667","24.9605266666667","6500600","新店區"
"231064","719-UM","2018/07/06 18:39:23","新北市新店區安一路一段1-1號","121.519501666667","24.9612083333333","6500600","新店區"
"231062","720-UM","2018/07/06 18:39:29","新北市新店區安一路一段1-1號","121.519416666667","24.9612","6500600","新店區"
"231060","897-TW","2018/07/06 18:39:19","新北市新店區安華路28-1號","121.519468333333","24.960755","6500600","新店區"
"231043","899-TW","2018/07/06 18:39:30","新北市新店區安華路28-1號","121.519328333333","24.96086","6500600","新店區"
"231055","AKT-0513","2018/07/06 18:39:27","新北市新店區中華路47巷2弄2號","121.539733333333","24.9676583333333","6500600","新店區"
"235066","003-UY","2018/07/06 18:39:28","新北市中和區水源路39號","121.504581666667","25.003565","6500300","中和區"
"235064","005-UY","2018/07/06 18:39:23","新北市中和區連城路127巷31號","121.497426666667","24.9975616666667","6500300","中和區"
"235063","006-UY","2018/07/06 18:39:17","新北市中和區連城路347巷4弄3號","121.488151666667","24.99555","6500300","中和區"
"235056","096-UM","2018/07/06 18:39:12","新北市中和區員山路611巷1號","121.477901666667","25.01126","6500300","中和區"
"235039","097-UM","2018/07/06 18:39:18","新北市中和區安樂路129號","121.51416","24.99631","6500300","中和區"
"235065","098-UM","2018/07/06 18:39:26","新北市中和區莊敬路49巷18號","121.501656666667","25.0061966666667","6500300","中和區"
"235058","151-BY","2018/07/06 18:39:29","新北市中和區員山路24-1號","121.484125","24.9856866666667","6500300","中和區"
"235055","183-VK","2018/07/06 18:39:29","新北市板橋區民族路276巷48號","121.46916","25.0055116666667","6500300","中和區"
"235038","185-VK","2018/07/06 18:39:29","新北市中和區大勇街60巷18號","121.518878333333","24.9947116666667","6500300","中和區"
"235049","186-VK","2018/07/06 18:39:25","新北市中和區明義街28號","121.50404","24.9950916666667","6500300","中和區"
"235067","255-BX","2018/07/06 18:34:23","新北市中和區新生街181號","121.483715","25.0005466666667","6500300","中和區"
"235044","293-VK","2018/07/06 18:39:20","新北市中和區復興路280巷5號","121.502256666667","24.9910133333333","6500300","中和區"
"235043","352-BY","2018/07/06 18:39:25","新北市中和區景平路155號","121.513533333333","24.992365","6500300","中和區"
"235042","KEA-2878","2018/07/06 18:39:17","新北市中和區成功路27號","121.5263","24.9934566666667","6500300","中和區"
"235050","4979-A6","2018/07/06 18:39:30","新北市中和區景新街496巷30弄11號","121.513098333333","24.9855083333333","6500300","中和區"
"235069","4980-A6","2018/07/06 18:39:26","新北市中和區連城路99巷74號","121.497413333333","24.9981883333333","6500300","中和區"
"235070","558-UM","2018/07/06 18:39:23","新北市中和區南華路7號","121.50212","24.9955116666667","6500300","中和區"
"235045","565-BX","2018/07/06 18:39:28","新北市中和區南山路236巷34-10號","121.504438333333","24.9881733333333","6500300","中和區"
"235054","640-BX","2018/07/06 18:39:20","新北市中和區民享街32巷17號","121.472793333333","25.003145","6500300","中和區"
"235060","647-TV","2018/07/06 18:39:28","新北市中和區中山路三段4號","121.479738333333","25.006115","6500300","中和區"
"235047","732-UM","2018/07/06 18:39:15","新北市中和區南山路320巷10弄21號","121.506813333333","24.986695","6500300","中和區"
"235046","733-UM","2018/07/06 18:39:20","新北市中和區仁愛街46號","121.511101666667","24.988155","6500300","中和區"
"235062","800-TS","2018/07/06 18:39:15","新北市中和區中山路二段312巷10弄1號","121.495656666667","25.003175","6500300","中和區"
"235057","801-TS","2018/07/06 18:39:20","新北市中和區民安街1號","121.480945","25.00103","6500300","中和區"
"235041","802-TS","2018/07/06 18:39:25","新北市中和區宜安路118巷30號","121.511128333333","24.999025","6500300","中和區"
"235052","805-TS","2018/07/06 18:39:19","新北市中和區興南路三段52巷2-5號","121.494331666667","24.9757416666667","6500300","中和區"
"235048","896-TW","2018/07/06 18:39:20","新北市中和區南山路291號","121.504408333333","24.9920233333333","6500300","中和區"
"235053","900-TW","2018/07/06 18:39:28","新北市中和區民享街486號","121.469466666667","24.9923283333333","6500300","中和區"
"235051","157-BY","2018/07/06 18:39:20","新北市中和區華新街143巷106弄34號","121.506311666667","24.9785683333333","6500300","中和區"
"235037","AAC-213","2018/07/06 18:39:21","新北市中和區景德街56號","121.517408333333","24.9915716666667","6500300","中和區"
"235059","AAC-215","2018/07/06 18:39:25","新北市中和區錦和路350-1號","121.49039","24.9935383333333","6500300","中和區"
"220055","015-TV","2018/07/06 18:39:18","新北市板橋區華東街1-8號","121.448055","24.9947083333333","6500100","板橋區"
"220065","072-UY","2018/07/06 18:39:33","新北市板橋區區運路60號","121.46608","25.010155","6500100","板橋區"
"220069","AAD-861","2018/07/06 18:39:22","新北市板橋區華東街1-10號","121.448365","24.9950183333333","6500100","板橋區"
"226004","205-ST","2018/07/06 18:39:28","新北市平溪區平溪里三坑路49-1號","121.732433333333","25.0335333333333","6502400","平溪區"
"228001","212-TW","2018/07/06 18:39:14","新北市貢寮區仁理村研海街12-1號","121.923785","25.0516383333333","6502600","貢寮區"
"228002","663-BX","2018/07/06 18:39:27","新北市貢寮區福隆里桂安街18號","121.958338333333","25.0198383333333","6502600","貢寮區"
"228003","828-UM","2018/07/06 18:39:20","新北市貢寮區和美里龍洞街40-1號","121.915581666667","25.11165","6502600","貢寮區"
"224010","AGQ-8101","2018/07/06 18:38:13","新北市瑞芳區崙頂路47號","121.844566666667","25.1072616666667","6501200","瑞芳區"
"224006","676-BX","2018/07/06 18:39:16","新北市瑞芳區明燈路三段97號","121.80434","25.1085283333333","6501200","瑞芳區"
"224002","639-TC","2018/07/06 18:39:19","新北市瑞芳區中正路2號","121.809195","25.10694","6501200","瑞芳區"
"224008","285-BY","2018/07/06 18:39:27","新北市瑞芳區瑞芳街21號","121.806508333333","25.1095983333333","6501200","瑞芳區"
"224007","275-VK","2018/07/06 18:39:12","新北市瑞芳區大埔路117號","121.763495","25.1009816666667","6501200","瑞芳區"
"224009","273-VK","2018/07/06 18:39:30","新北市瑞芳區祈堂路40號","121.858885","25.11051","6501200","瑞芳區"
"224005","271-BY","2018/07/06 18:39:20","新北市瑞芳區建基路一段40號","121.819333333333","25.1212916666667","6501200","瑞芳區"
"227011","642-TC","2018/07/06 18:39:30","新北市雙溪區牡丹里下坑11號","121.851025","25.05618","6502500","雙溪區"
"227003","400-TW","2018/07/06 18:39:25","新北市雙溪區魚行里坤溪5號","121.874261666667","25.0221883333333","6502500","雙溪區"
"253005","032-BX","2018/07/06 18:39:18","新北市石門區中山路50號","121.566606666667","25.29029","6502200","石門區"
"253006","295-VK","2018/07/06 18:39:21","新北市石門區崁子腳1號","121.532311666667","25.2882566666667","6502200","石門區"
"222001","KEA-2212","2018/07/06 18:39:20","新北市深坑區北深路一段82號","121.636353333333","25.01072","6501800","深坑區"
"208002","KEA-2872","2018/07/06 18:39:11","新北市金山區忠孝一路19巷17號","121.637335","25.2177633333333","6502700","金山區"
"208003","665-BX","2018/07/06 18:39:13","新北市金山區中山路276-3號","121.63502","25.2243083333333","6502700","金山區"
"208001","761-BX","2018/07/06 18:39:21","新北市金山區文化三路11號","121.634981666667","25.2248933333333","6502700","金山區"
"251004","009-UM","2018/07/06 18:39:14","新北市淡水區中正東路二段143巷6弄1號","121.461048333333","25.14736","6501000","淡水區"
"251001","011-UM","2018/07/06 18:39:24","新北市淡水區自強路419號","121.465586666667","25.13431","6501000","淡水區"
"251002","012-UM","2018/07/06 18:39:22","新北市淡水區中正東路一段3巷14弄1號","121.450941666667","25.1642083333333","6501000","淡水區"
"251008","181-VK","2018/07/06 18:39:29","新北市淡水區北投子15-3號","121.452231666667","25.1826466666667","6501000","淡水區"
"251010","413-VK","2018/07/06 18:39:24","新北市淡水區沙崙路126號","121.423456666667","25.1828766666667","6501000","淡水區"
"251012","441-VK","2018/07/06 18:39:28","新北市淡水區北新路117號","121.448956666667","25.1786016666667","6501000","淡水區"
"251006","561-UM","2018/07/06 18:39:24","新北市淡水區崁頂36-6號","121.439326666667","25.193885","6501000","淡水區"
"251009","575-R6","2018/07/06 18:39:24","新北市淡水區中山北路三段132-1號","121.44402","25.19415","6501000","淡水區"
"251011","650-BX","2018/07/06 18:39:26","新北市淡水區鄧公路36巷13號","121.455953333333","25.1691666666667","6501000","淡水區"
"251003","673-BX","2018/07/06 18:39:17","新北市淡水區北新路69巷26號","121.44671","25.1800716666667","6501000","淡水區"
"207003","291-VK","2018/07/06 18:39:28","新北市萬里區野柳里八斗60號","121.66035","25.20722","6502800","萬里區"
"207004","225-TW","2018/07/06 18:39:18","新北市萬里區萬里里獅頭路7號","121.691993333333","25.178355","6502800","萬里區"
"252002","178-VK","2018/07/06 18:39:23","新北市三芝區民生街64巷8號","121.503605","25.2552233333333","6502100","三芝區"
"252003","249-BX","2018/07/06 18:39:21","新北市三芝區後厝里土地公坑57-1號","121.461295","25.2479633333333","6502100","三芝區"
"252001","292-VK","2018/07/06 18:38:22","新北市三芝區中興街二段260號","121.501435","25.2532866666667","6502100","三芝區"
"237004","KEA-2597","2018/07/06 18:39:15","新北市三峽區插角232號","121.4136","24.8687516666667","6500900","三峽區"
"237007","153-BY","2018/07/06 18:37:22","新北市三峽區柑樹路6巷29號","121.361701666667","24.903605","6500900","三峽區"
"237009","210-TH","2018/07/06 18:39:17","新北市三峽區弘園街26號","121.366495","24.9273916666667","6500900","三峽區"
"237013","252-BX","2018/07/06 18:39:11","新北市三峽區光明路69巷25號","121.376755","24.9292133333333","6500900","三峽區"
"237008","302-VK","2018/07/06 18:39:25","新北市三峽區白雞57-30號","121.39115","24.9116366666667","6500900","三峽區"
"237014","433-BY","2018/07/06 18:39:16","新北市三峽區復興路480巷52-1號","121.361825","24.9410366666667","6500900","三峽區"
"237006","5529-G3","2018/07/06 18:39:14","新北市三峽區溪東路371巷4弄2號","121.412278333333","24.929905","6500900","三峽區"
"237015","649-BX","2018/07/06 18:39:14","新北市三峽區安坑1-12號","121.438246666667","24.9262816666667","6500900","三峽區"
"237010","706-TV","2018/07/06 18:39:14","新北市三峽區國光街364巷15號","121.371098333333","24.9401816666667","6500900","三峽區"
"237011","760-BX","2018/07/06 18:39:19","新北市三峽區溪東路240號","121.408415","24.9316183333333","6500900","三峽區"
"237005","AKY-6261","2018/07/06 18:39:33","新北市三峽區大勇路29巷6弄12號","121.36769","24.935835","6500900","三峽區"
"236069","105-UM","2018/07/06 18:39:15","新北市土城區永豐路230號","121.467066666667","24.9813283333333","6501300","土城區"
"236042","107-UM","2018/07/06 18:39:23","新北市土城區裕民路55巷1號","121.449","24.988115","6501300","土城區"
"236079","166-UM","2018/07/06 18:39:29","新北市土城區中央路四段52巷8號","121.420086666667","24.9609383333333","6501300","土城區"
"236030","253-BX","2018/07/06 18:39:28","新北市土城區中華路二段187號","121.438583333333","24.9745533333333","6501300","土城區"
"236026","269-VK","2018/07/06 18:39:21","新北市土城區金城路一段42號","121.442016666667","24.9701883333333","6501300","土城區"
"236039","271-VK","2018/07/06 18:39:32","新北市土城區明德路一段291巷3號","121.460315","24.9769383333333","6501300","土城區"
"236020","401-BY","2018/07/06 18:39:26","新北市土城區延吉街253巷1號","121.467615","24.9846683333333","6501300","土城區"
"236014","752-BX","2018/07/06 18:38:56","新北市土城區清水路234巷20弄1號","121.462145","24.9817083333333","6501300","土城區"
"236059","912-UM","2018/07/06 18:39:22","新北市土城區中央路三段198號","121.430343333333","24.9648016666667","6501300","土城區"
"236048","913-UM","2018/07/06 18:39:14","新北市土城區金城路二段372號","121.462528333333","24.9855016666667","6501300","土城區"
"236063","915-UM","2018/07/06 18:39:19","新北市土城區延壽路13巷15號","121.470511666667","24.9906333333333","6501300","土城區"
"236055","AAC-216","2018/07/06 18:39:17","新北市土城區裕民路35號","121.448278333333","24.98842","6501300","土城區"
"242058","986-R7","2018/07/06 18:39:17","新北市新莊區龍安路2號","121.414188333333","25.0231016666667","6500500","新莊區"
"242054","751-BX","2018/07/06 18:39:19","新北市新莊區新樹路460號","121.431378333333","25.0009866666667","6500500","新莊區"
"242025","613-BX","2018/07/06 18:39:21","新北市新莊區立信一街45號","121.442241666667","25.0495916666667","6500500","新莊區"
"242060","353-BY","2018/07/06 18:39:23","新北市新莊區四維路97巷22號","121.424188333333","25.02331","6500500","新莊區"
"238023","601-UM","2018/07/06 18:39:22","新北市樹林區三福街114號","121.406428333333","25.0163216666667","6500700","樹林區"
"238019","599-UM","2018/07/06 18:39:28","新北市樹林區中華路190-16號","121.411678333333","24.9805333333333","6500700","樹林區"
"238018","571-TV","2018/07/06 18:39:30","新北市樹林區鎮前街160號","121.424486666667","24.990095","6500700","樹林區"
"238024","5061-A6","2018/07/06 18:39:21","新北市樹林區太順街49巷16號","121.418135","24.97879","6500700","樹林區"
"238022","KEA-2213","2018/07/06 18:39:26","新北市樹林區中華路190-8號","121.411303333333","24.98051","6500700","樹林區"
"238025","303-VK","2018/07/06 18:39:19","新北市樹林區中山路三段22號","121.395576666667","24.9729016666667","6500700","樹林區"
"238017","283-BY","2018/07/06 18:39:13","新北市樹林區光興街54號","121.409666666667","25.002765","6500700","樹林區"
"238014","282-BY","2018/07/06 18:39:12","新北市樹林區大安路111巷25號","121.423273333333","24.99765","6500700","樹林區"
"238020","268-VK","2018/07/06 18:39:26","新北市樹林區俊安街33號","121.420278333333","25.0132316666667","6500700","樹林區"
"238026","172-UY","2018/07/06 18:39:19","新北市樹林區中山路三段174號","121.388556666667","24.9697233333333","6500700","樹林區"
"238016","169-UY","2018/07/06 18:39:20","新北市樹林區文化街23號","121.419345","24.9876233333333","6500700","樹林區"
"239007","AAC-297","2018/07/06 18:39:12","新北市鶯歌區中正一路建德二巷2號","121.363885","24.956535","6500800","鶯歌區"
"239006","891-R6","2018/07/06 18:39:31","新北市鶯歌區鶯桃路296巷93弄1號","121.336201666667","24.961785","6500800","鶯歌區"
"239008","527-UM","2018/07/06 18:39:28","新北市鶯歌區國際一路179號","121.336228333333","24.9765133333333","6500800","鶯歌區"
"239005","526-UM","2018/07/06 18:39:30","新北市鶯歌區鳳吉一街48號","121.326236666667","24.9738666666667","6500800","鶯歌區"
"239001","417-VK","2018/07/06 18:39:18","新北市鶯歌區二橋街82巷5號","121.336981666667","24.9382383333333","6500800","鶯歌區"
"239003","360-BY","2018/07/06 18:39:30","新北市鶯歌區永和街99巷2號","121.333586666667","24.9683183333333","6500800","鶯歌區"
"239004","193-VK","2018/07/06 18:39:31","新北市鶯歌區中正三路230巷12號","121.330126666667","24.93936","6500800","鶯歌區"
"221008","489-VK","2018/07/06 18:39:31","新北市汐止區康寧街901號","121.651391666667","25.075015","6501100","汐止區"
"221036","130-UY","2018/07/06 18:39:17","新北市汐止區水碓街2號","121.663673333333","25.0698283333333","6501100","汐止區"
"221015","131-UY","2018/07/06 18:39:29","新北市汐止區鄉長路二段4號","121.668828333333","25.0807083333333","6501100","汐止區"
"221010","269-BY","2018/07/06 18:39:15","新北市汐止區汐萬路二段221巷2號","121.647035","25.0872266666667","6501100","汐止區"
"221012","278-VK","2018/07/06 18:39:15","新北市汐止區汐萬路一段142號","121.653168333333","25.0711866666667","6501100","汐止區"
"221032","280-BY","2018/07/06 18:39:32","台北市南港區福山街44巷15弄31號","121.617896666667","25.045375","6501100","汐止區"
"221027","281-BY","2018/07/06 18:39:22","新北市汐止區汐萬路一段312號","121.650578333333","25.0753583333333","6501100","汐止區"
"221029","298-VK","2018/07/06 18:39:27","新北市汐止區樟樹一路142號","121.642373333333","25.0649833333333","6501100","汐止區"
"221021","299-VK","2018/07/06 18:39:26","新北市汐止區大同路二段132-2號","121.651726666667","25.064","6501100","汐止區"
"221031","353-TW","2018/07/06 18:39:21","新北市汐止區福德一路272巷9號","121.631875","25.0642666666667","6501100","汐止區"
"221035","622-UM","2018/07/06 18:39:25","新北市汐止區大同路二段112號","121.650295","25.0634133333333","6501100","汐止區"
"221025","623-UM","2018/07/06 18:39:25","新北市汐止區仁愛路119巷25號","121.66204","25.0643716666667","6501100","汐止區"
"221038","646-BX","2018/07/06 18:39:31","新北市汐止區康寧街901號","121.65076","25.0753533333333","6501100","汐止區"
"221033","647-BX","2018/07/06 18:39:19","新北市汐止區南勢街1巷1號","121.627128333333","25.0375116666667","6501100","汐止區"
"221002","707-TV","2018/07/06 18:39:21","新北市汐止區中興路25號","121.636913333333","25.05962","6501100","汐止區"
"220079","145-BY","2018/07/06 18:39:15","新北市板橋區館前西路162號","121.452776666667","25.0086366666667","6500100","板橋區"
"220080","200-UY","2018/07/06 18:39:16","新北市板橋區大觀路二段265巷76弄31號","121.441338333333","24.9967366666667","6500100","板橋區"
"220082","610-BX","2018/07/06 18:39:19","新北市板橋區大觀路二段443-2號","121.440595","24.9950733333333","6500100","板橋區"
"220056","276-BY","2018/07/06 18:39:19","新北市板橋區四川路二段橋頭6號","121.44834","24.99405","6500100","板橋區"
"220072","277-BY","2018/07/06 18:39:30","新北市板橋區大觀路二段443-2號","121.4382","24.9953","6500100","板橋區"
"220071","283-VK","2018/07/06 18:39:22","新北市板橋區四川路二段121號","121.451316666667","24.994125","6500100","板橋區"
"220094","285-UM","2018/07/06 18:39:26","新北市板橋區民生路二段161巷3號","121.47014","25.019815","6500100","板橋區"
"220081","287-VK","2018/07/06 18:39:27","新北市板橋區大觀路二段111號","121.446201666667","25.00161","6500100","板橋區"
"220061","293-UM","2018/07/06 18:39:11","新北市板橋區民生路二段161巷5號","121.470275","25.01977","6500100","板橋區"
"220084","296-UM","2018/07/06 18:39:14","新北市板橋區合安一路51號","121.447508333333","24.9991516666667","6500100","板橋區"
"220075","303-R5","2018/07/06 18:39:25","新北市板橋區華東街298號","121.452763333333","25.002515","6500100","板橋區"
"220062","305-R5","2018/07/06 18:39:21","新北市板橋區民生路二段120號","121.470343333333","25.0196733333333","6500100","板橋區"
"220098","317-R6","2018/07/06 18:39:18","新北市板橋區民生路二段89-6號","121.470835","25.0191016666667","6500100","板橋區"
"220064","486-VK","2018/07/06 18:39:29","新北市板橋區縣民大道一段310號","121.461433333333","25.0107783333333","6500100","板橋區"
"220088","491-VK","2018/07/06 18:39:13","新北市板橋區民生路二段171號","121.469876666667","25.0201233333333","6500100","板橋區"
"220035","560-BX","2018/07/06 18:39:18","新北市板橋區南雅西路二段145巷6號","121.451575","25.0118766666667","6500100","板橋區"
"220103","561-BX","2018/07/06 18:39:23","新北市板橋區民生路二段56-6號","121.471258333333","25.0188683333333","6500100","板橋區"
"220063","609-BX","2018/07/06 18:39:15","新北市板橋區民生路二段171號","121.469843333333","25.0200966666667","6500100","板橋區"
"220086","630-UY","2018/07/06 18:39:28","新北市板橋區南雅西路二段192巷1弄1號","121.451908333333","25.0144733333333","6500100","板橋區"
"220057","686-BX","2018/07/06 18:39:13","新北市板橋區華東街1-9號","121.448126666667","24.9949016666667","6500100","板橋區"
"220054","741-BX","2018/07/06 18:39:23","新北市板橋區華東街1-9號","121.448111666667","24.99489","6500100","板橋區"
"220077","806-UM","2018/07/06 18:39:23","新北市板橋區大觀路二段435號","121.441765","24.9950933333333","6500100","板橋區"
"220074","895-R6","2018/07/06 18:39:26","新北市板橋區南雅南路二段18號","121.454565","25.0033733333333","6500100","板橋區"
"220073","985-R7","2018/07/06 18:39:30","新北市板橋區貴興路60號","121.45672","25.0029816666667","6500100","板橋區"
"220070","AAC-253","2018/07/06 18:39:21","新北市板橋區華東街1-8號","121.447495","24.995055","6500100","板橋區"
"235068","KEA-2873","2018/07/06 18:39:17","新北市中和區中正路219號","121.496535","24.9937233333333","6500300","中和區"
"235061","KEA-2875","2018/07/06 18:39:17","新北市中和區民享街94號","121.474703333333","24.9998733333333","6500300","中和區"
