"lineid","car","time","location","longitude","latitude","cityid","cityname"
"234046","148-BY","2018/07/06 20:19:30","新北市永和區永元路122號","121.522735","25.0027916666667","6500400","永和區"
"234081","298-R6","2018/07/06 20:19:14","新北市永和區福和路19巷1弄1號","121.524261666667","25.007795","6500400","永和區"
"234038","336-UY","2018/07/06 20:19:17","新北市永和區成功路一段93巷21弄2號","121.528346666667","25.0026466666667","6500400","永和區"
"234064","337-UY","2018/07/06 20:19:30","新北市永和區得和路119號","121.51862","25.0002383333333","6500400","永和區"
"234070","552-UM","2018/07/06 20:19:19","新北市永和區永利路27號","121.51834","25.00602","6500400","永和區"
"234086","553-UM","2018/07/06 20:19:15","新北市永和區永和路二段85號","121.51484","25.0113633333333","6500400","永和區"
"234017","745-BX","2018/07/06 20:19:32","新北市永和區仁愛路35號","121.514163333333","25.0133783333333","6500400","永和區"
"234030","746-BX","2018/07/06 20:19:26","新北市永和區民有街25巷10號","121.517408333333","24.9965","6500400","永和區"
"234054","KEA-2590","2018/07/06 20:19:35","新北市永和區光復街2巷23號","121.517143333333","25.0166733333333","6500400","永和區"
"234013","KEA-2591","2018/07/06 20:19:30","新北市永和區保生路40巷1號","121.50583","25.008345","6500400","永和區"
"234061","AAD-866","2018/07/06 20:19:25","新北市永和區得和路39號","121.516308333333","25.0000983333333","6500400","永和區"
"234042","862-TW","2018/07/06 20:19:29","新北市中和區安平路164號","121.512763333333","24.9987","6500400","永和區"
"234050","863-TW","2018/07/06 20:19:24","新北市永和區保安路2號","121.510871666667","25.0174383333333","6500400","永和區"
"249005","172-UM","2018/07/06 20:19:25","新北市八里區下罟子1-16號","121.389798333333","25.1420133333333","6502300","八里區"
"249001","173-UM","2018/07/06 20:19:24","新北市八里區中華路二段538號","121.39908","25.1450366666667","6502300","八里區"
"249004","303-UY","2018/07/06 20:19:17","新北市八里區中山路一段129巷31號","121.414073333333","25.1585266666667","6502300","八里區"
"249002","305-UY","2018/07/06 20:19:31","新北市八里區龍米路一段352號","121.451528333333","25.1311516666667","6502300","八里區"
"249003","759-BX","2018/07/06 20:19:14","新北市八里區中山路二段447巷28號","121.397485","25.145115","6502300","八里區"
"248016","026-BX","2018/07/06 20:19:19","新北市五股區天乙路34號","121.448456666667","25.1034816666667","6501500","五股區"
"248012","247-BX","2018/07/06 20:19:17","新北市五股區民義路一段206號","121.430525","25.08915","6501500","五股區"
"248004","677-BX","2018/07/06 20:19:29","新北市五股區中興路四段17號","121.440075","25.0822333333333","6501500","五股區"
"248002","678-BX","2018/07/06 20:19:05","新北市五股區成泰路三段165號","121.445216666667","25.0918183333333","6501500","五股區"
"234023","9380-KE","2018/07/06 20:19:20","新北市永和區永和路二段169號","121.515243333333","25.0131066666667","6500400","永和區"
"234077","969-R7","2018/07/06 20:19:24","新北市永和區民享街6號","121.51513","24.9955166666667","6500400","永和區"
"234074","AAC-211","2018/07/06 20:19:23","新北市永和區竹林路201巷24弄8號","121.522401666667","25.0095866666667","6500400","永和區"
"234067","AAC-212","2018/07/06 20:19:27","新北市永和區保平路268巷19號","121.50823","25.0055683333333","6500400","永和區"
"234003","AAC-295","2018/07/06 20:19:14","新北市永和區大新街16號","121.515048333333","25.0084566666667","6500400","永和區"
"243010","267-VK","2018/07/06 20:19:32","新北市泰山區明志路二段273巷2號","121.427028333333","25.0472066666667","6501600","泰山區"
"243013","AAD-798","2018/07/06 20:19:19","新北市泰山區新民路14巷2弄2號","121.426276666667","25.0446183333333","6501600","泰山區"
"243009","297-R6","2018/07/06 20:19:18","新北市泰山區福泰街11號","121.432656666667","25.06033","6501600","泰山區"
"243016","380-SR","2018/07/06 20:19:24","新北市泰山區明志路三段153-2號","121.424883333333","25.0397816666667","6501600","泰山區"
"243015","421-VK","2018/07/06 20:19:17","新北市泰山區仁愛路72號","121.432666666667","25.0550066666667","6501600","泰山區"
"243011","KEA-2215","2018/07/06 20:19:13","新北市新莊區壽山路160巷21號","121.417408333333","25.0319483333333","6501600","泰山區"
"243012","646-TV","2018/07/06 20:19:25","新北市泰山區楓江路113號","121.438598333333","25.0642566666667","6501600","泰山區"
"243014","680-BX","2018/07/06 20:19:34","新北市泰山區泰林路二段449號","121.425836666667","25.0639783333333","6501600","泰山區"
"222002","016-RS","2018/07/06 20:19:25","新北市深坑區萬福路75巷46號","121.598271666667","25.0098516666667","6501800","深坑區"
"222003","436-BY","2018/07/06 20:19:28","新北市深坑區文化街43號","121.617603333333","25.0017316666667","6501800","深坑區"
"231041","002-UM","2018/07/06 20:19:29","新北市新店區民權路44號","121.540208333333","24.9829033333333","6500600","新店區"
"231040","047-UY","2018/07/06 20:19:19","新北市新店區中正路184號","121.540996666667","24.9721233333333","6500600","新店區"
"231044","106-UY","2018/07/06 20:19:27","新北市新店區北新路三段130號","121.541563333333","24.9819083333333","6500600","新店區"
"231053","108-UY","2018/07/06 20:19:31","新北市新店區新烏路三段336號","121.54672","24.8960766666667","6500600","新店區"
"231065","110-UY","2018/07/06 20:19:12","新北市新店區安祥路104-2號","121.480343333333","24.9623883333333","6500600","新店區"
"231048","187-VK","2018/07/06 20:19:11","新北市新店區寶橋路132號","121.547398333333","24.9759766666667","6500600","新店區"
"231054","KEA-2219","2018/07/06 20:19:22","新北市新店區檳榔路109號","121.544436666667","24.9617016666667","6500600","新店區"
"221018","KEA-2785","2018/07/06 20:19:18","新北市汐止區茄福街1號","121.673233333333","25.0676766666667","6501100","汐止區"
"231057","256-BX","2018/07/06 20:19:22","新北市新店區花園七路一段11號","121.553983333333","24.93488","6500600","新店區"
"231042","268-BY","2018/07/06 20:19:23","新北市新店區中興路二段89號","121.547251666667","24.97128","6500600","新店區"
"231051","278-BY","2018/07/06 20:19:34","新北市新店區溪園路465號","121.525505","24.9772483333333","6500600","新店區"
"231050","AAD-862","2018/07/06 20:19:28","新北市新店區博愛街13巷1號","121.541048333333","24.9733216666667","6500600","新店區"
"231059","355-BY","2018/07/06 20:19:29","新北市新店區安德街60巷35號","121.51116","24.9636366666667","6500600","新店區"
"231066","4716-K9","2018/07/06 20:19:10","新北市新店區柴埕路60巷9-2號","121.50839","24.9651683333333","6500600","新店區"
"231056","4715-K9","2018/07/06 20:19:16","新北市新店區中正路328巷45號","121.538021666667","24.976405","6500600","新店區"
"231067","4772-VM","2018/07/06 20:19:14","新北市新店區溪洲路6巷20號","121.533801666667","24.9626783333333","6500600","新店區"
"231049","513-UM","2018/07/06 20:19:28","新北市新店區北新路一段128號","121.542168333333","24.96999","6500600","新店區"
"231045","617-UM","2018/07/06 20:19:18","新北市新店區新坡一街72號","121.548898333333","24.9645683333333","6500600","新店區"
"231061","619-UM","2018/07/06 20:19:18","新北市新店區安民街133巷26號","121.515371666667","24.9695983333333","6500600","新店區"
"231063","641-BX","2018/07/06 20:19:12","新北市新店區柴埕路116號","121.504541666667","24.95965","6500600","新店區"
"231068","718-UY","2018/07/06 20:19:13","新北市新店區寶安街30號","121.542058333333","24.9824266666667","6500600","新店區"
"231064","719-UM","2018/07/06 20:19:23","新北市新店區安業街67巷22號","121.51906","24.9760016666667","6500600","新店區"
"231062","720-UM","2018/07/06 20:19:29","新北市新店區安泰路7巷16號","121.485675","24.9509933333333","6500600","新店區"
"231060","897-TW","2018/07/06 20:19:19","新北市新店區錦秀路11巷96弄2號","121.4801","24.942165","6500600","新店區"
"231043","899-TW","2018/07/06 20:19:30","新北市新店區建國路133號","121.539358333333","24.9781966666667","6500600","新店區"
"231055","AKT-0513","2018/07/06 20:19:27","新北市新店區北新路一段121號","121.539475","24.9626916666667","6500600","新店區"
"241011","013-R5","2018/07/06 20:19:27","新北市三重區龍門路195號","121.499655","25.0732866666667","6500200","三重區"
"241028","022-UY","2018/07/06 20:19:17","新北市三重區大同南路83-5號","121.496048333333","25.0592533333333","6500200","三重區"
"241008","059-VK","2018/07/06 20:19:18","新北市三重區永福街211巷22號","121.479103333333","25.074005","6500200","三重區"
"241022","060-VK","2018/07/06 20:19:33","新北市三重區市前街14號","121.489111666667","25.0623","6500200","三重區"
"241015","062-VK","2018/07/06 20:19:19","新北市三重區重新路一段128號","121.500276666667","25.06289","6500200","三重區"
"241024","065-VK","2018/07/06 20:19:29","新北市三重區中正北路242號","121.48167","25.0679216666667","6500200","三重區"
"241026","066-VK","2018/07/06 20:19:12","新北市三重區福德南路15號","121.502685","25.063265","6500200","三重區"
"241002","090-VK","2018/07/06 20:19:22","新北市三重區仁義街101巷2號","121.497565","25.0801366666667","6500200","三重區"
"241003","091-VK","2018/07/06 20:19:34","新北市三重區富華街92號","121.491141666667","25.083575","6500200","三重區"
"241005","262-UM","2018/07/06 20:19:24","新北市三重區仁愛街477號","121.48918","25.0820833333333","6500200","三重區"
"241020","265-UM","2018/07/06 20:19:18","新北市三重區三和路三段170巷28號","121.491596666667","25.07266","6500200","三重區"
"241016","266-UM","2018/07/06 20:19:16","新北市三重區大同北路97-3號","121.494356666667","25.0635833333333","6500200","三重區"
"241009","267-UM","2018/07/06 20:19:32","新北市三重區三和路四段177-1號","121.48263","25.0788666666667","6500200","三重區"
"241018","268-UM","2018/07/06 20:19:34","新北市三重區自強路一段155-1號","121.49375","25.0671816666667","6500200","三重區"
"241032","269-UM","2018/07/06 20:19:29","新北市三重區捷運路19巷8弄13號","121.484418333333","25.0572416666667","6500200","三重區"
"241013","270-UM","2018/07/06 20:19:21","新北市三重區三和路三段167巷15號","121.492526666667","25.074215","6500200","三重區"
"241025","271-UM","2018/07/06 20:19:22","新北市三重區三民街271號","121.47931","25.0680116666667","6500200","三重區"
"241007","398-BY","2018/07/06 20:19:30","新北市三重區溪尾街108巷28-1號","121.488246666667","25.0784183333333","6500200","三重區"
"241035","KEA-2210","2018/07/06 20:19:20","新北市三重區正義北路33巷14號","121.498033333333","25.0637616666667","6500200","三重區"
"241031","413-TH","2018/07/06 20:19:23","新北市三重區三寧街25號","121.489568333333","25.0597966666667","6500200","三重區"
"241004","475-VK","2018/07/06 20:19:23","新北市三重區自強路四段108號","121.491463333333","25.0798533333333","6500200","三重區"
"241030","480-VK","2018/07/06 20:19:22","新北市三重區環河南路254巷55號","121.487968333333","25.05234","6500200","三重區"
"241014","543-UM","2018/07/06 20:19:29","新北市三重區龍門路246號","121.500855","25.0737983333333","6500200","三重區"
"241023","545-UM","2018/07/06 20:19:34","新北市三重區頂崁街142號","121.477613333333","25.0651733333333","6500200","三重區"
"241019","KEA-2593","2018/07/06 20:19:16","新北市三重區大智街159號","121.490216666667","25.0716816666667","6500200","三重區"
"241006","AAD-863","2018/07/06 20:19:24","新北市三重區車路頭街135-1號","121.48424","25.0761866666667","6500200","三重區"
"241017","887-TS","2018/07/06 20:19:11","新北市三重區自強路一段165號","121.493156666667","25.0672916666667","6500200","三重區"
"241012","941-UM","2018/07/06 20:19:27","新北市三重區河邊北街266號","121.501661666667","25.076485","6500200","三重區"
"241029","942-UM","2018/07/06 20:19:21","新北市三重區重安街98號","121.492675","25.05607","6500200","三重區"
"241033","AAC-255","2018/07/06 20:19:32","新北市三重區五谷王北街42巷8號","121.47541","25.04925","6500200","三重區"
"235066","003-UY","2018/07/06 20:19:28","新北市中和區南工路94巷1號","121.50718","25.00303","6500300","中和區"
"235039","097-UM","2018/07/06 20:19:18","新北市中和區大勇街27巷6號","121.517158333333","24.9937516666667","6500300","中和區"
"235065","098-UM","2018/07/06 20:19:25","新北市中和區福美路310號","121.49684","25.0047816666667","6500300","中和區"
"235050","4979-A6","2018/07/06 20:19:30","新北市中和區景安路177巷8號","121.505728333333","24.9940333333333","6500300","中和區"
"235069","4980-A6","2018/07/06 20:19:26","新北市中和區圓通路107號","121.499531666667","24.9965683333333","6500300","中和區"
"235041","802-TS","2018/07/06 20:19:25","新北市五股區中直路17-4號","121.422635","25.1113866666667","6500300","中和區"
"235059","AAC-215","2018/07/06 20:19:25","新北市中和區員山路30-2號","121.483173333333","24.9878666666667","6500300","中和區"
"247024","893-R6","2018/07/06 20:19:20","新北市蘆洲區光榮路120巷8弄39號","121.464586666667","25.0879533333333","6501400","蘆洲區"
"247014","546-UM","2018/07/06 20:19:15","新北市蘆洲區中山二路137巷17號","121.472251666667","25.0811066666667","6501400","蘆洲區"
"247022","500-BY","2018/07/06 20:19:34","新北市蘆洲區民族路564號","121.467376666667","25.0888533333333","6501400","蘆洲區"
"247010","341-TH","2018/07/06 20:19:28","新北市蘆洲區信義路224號","121.478941666667","25.085275","6501400","蘆洲區"
"247012","339-TH","2018/07/06 20:19:18","新北市蘆洲區中興街36號","121.481216666667","25.087075","6501400","蘆洲區"
"247004","337-TH","2018/07/06 20:19:26","新北市蘆洲區長安街299巷21號","121.457075","25.084535","6501400","蘆洲區"
"247006","336-TH","2018/07/06 20:19:25","新北市蘆洲區九芎街167巷6號","121.464983333333","25.0785566666667","6501400","蘆洲區"
"247018","057-VK","2018/07/06 20:19:22","新北市蘆洲區民族路305號","121.474863333333","25.0911916666667","6501400","蘆洲區"
"247008","056-VK","2018/07/06 20:19:24","新北市蘆洲區集賢路215號","121.483036666667","25.0869866666667","6501400","蘆洲區"
"247016","007-UY","2018/07/06 20:19:27","新北市蘆洲區光華路132巷30號","121.465645","25.0835716666667","6501400","蘆洲區"
"247002","002-UY","2018/07/06 20:19:25","新北市蘆洲區長安街313巷14號","121.456441666667","25.0865366666667","6501400","蘆洲區"
"247020","001-UY","2018/07/06 20:19:22","新北市蘆洲區仁愛街59號","121.471703333333","25.0932983333333","6501400","蘆洲區"
"224010","AGQ-8101","2018/07/06 20:16:54","新北市瑞芳區烏勢巷145號","121.847448333333","25.1082416666667","6501200","瑞芳區"
"222001","KEA-2212","2018/07/06 20:19:33","新北市深坑區北深路三段256號","121.599698333333","25.0043166666667","6501800","深坑區"
"208003","665-BX","2018/07/06 20:19:13","新北市金山區中正路168號","121.630926666667","25.2211983333333","6502700","金山區"
"251004","009-UM","2018/07/06 20:19:24","新北市淡水區民生路111號","121.464288333333","25.13842","6501000","淡水區"
"251001","011-UM","2018/07/06 20:19:24","新北市淡水區新市二路四段265號","121.445733333333","25.1924716666667","6501000","淡水區"
"251002","012-UM","2018/07/06 20:19:22","新北市淡水區中正路125號","121.439498333333","25.170185","6501000","淡水區"
"251008","181-VK","2018/07/06 20:19:31","新北市淡水區淡海路180巷20號","121.421396666667","25.1845983333333","6501000","淡水區"
"251010","413-VK","2018/07/06 20:19:23","新北市淡水區新民街一段132號","121.427621666667","25.188725","6501000","淡水區"
"251012","441-VK","2018/07/06 20:19:28","新北市淡水區下圭柔山431-1號","121.449955","25.21047","6501000","淡水區"
"251006","561-UM","2018/07/06 20:19:24","新北市淡水區北新路169巷2號","121.450315","25.17944","6501000","淡水區"
"251003","673-BX","2018/07/06 20:19:17","新北市淡水區中山北路一段229號","121.444445","25.1794416666667","6501000","淡水區"
"207004","225-TW","2018/07/06 20:19:30","新北市萬里區北基里大仁路1號","121.681716666667","25.17512","6502800","萬里區"
"252002","178-VK","2018/07/06 20:19:22","新北市三芝區中正路一段41號","121.503236666667","25.2582916666667","6502100","三芝區"
"252001","292-VK","2018/07/06 20:19:22","新北市三芝區中山路一段14號","121.500751666667","25.2580233333333","6502100","三芝區"
"237006","5529-G3","2018/07/06 20:19:14","新北市三峽區中正路二段66號","121.36662","24.9183916666667","6500900","三峽區"
"236069","105-UM","2018/07/06 20:19:15","新北市土城區亞洲路59號","121.433258333333","24.970965","6501300","土城區"
"236042","107-UM","2018/07/06 20:19:22","新北市土城區中央路一段264-2號","121.443856666667","24.9836066666667","6501300","土城區"
"236030","253-BX","2018/07/06 20:19:34","新北市土城區學成路128巷11號","121.449496666667","24.9900316666667","6501300","土城區"
"236026","269-VK","2018/07/06 20:19:29","新北市土城區中央路一段211巷6弄26號","121.446446666667","24.9860116666667","6501300","土城區"
"236014","752-BX","2018/07/06 20:18:36","新北市土城區廣明街90巷26號","121.4557","24.99459","6501300","土城區"
"236059","912-UM","2018/07/06 20:19:32","新北市土城區中央路三段119-1號","121.434355","24.965725","6501300","土城區"
"242034","AAC-296","2018/07/06 20:19:27","新北市新莊區仁愛街54巷12號","121.444936666667","25.0370666666667","6500500","新莊區"
"242058","986-R7","2018/07/06 20:19:31","新北市新莊區龍安路333號","121.422436666667","25.01929","6500500","新莊區"
"242054","751-BX","2018/07/06 20:19:19","新北市新莊區民安西路261巷18號","121.426765","25.0130783333333","6500500","新莊區"
"242027","615-BX","2018/07/06 20:19:22","新北市新莊區幸福路556號","121.454751666667","25.049335","6500500","新莊區"
"242025","613-BX","2018/07/06 20:19:20","新北市新莊區五工二路70巷11號","121.460583333333","25.066265","6500500","新莊區"
"242029","612-BX","2018/07/06 20:19:14","新北市新莊區中華路二段203號","121.452341666667","25.0527666666667","6500500","新莊區"
"242041","566-BX","2018/07/06 20:19:31","新北市新莊區中正路694巷116號","121.416776666667","25.0301966666667","6500500","新莊區"
"242046","497-BY","2018/07/06 20:19:19","新北市新莊區中正路新生巷31號","121.417085","25.0234733333333","6500500","新莊區"
"242050","442-UM","2018/07/06 20:19:29","新北市新莊區民安西路246號","121.42595","25.0139166666667","6500500","新莊區"
"242056","440-UM","2018/07/06 20:19:22","新北市新莊區新莊路649巷11-1號","121.445106666667","25.0320816666667","6500500","新莊區"
"242007","413-TV","2018/07/06 20:19:18","新北市新莊區福壽街124巷41弄16號","121.45932","25.0518083333333","6500500","新莊區"
"242044","400-BY","2018/07/06 20:19:19","新北市新莊區中正路新建巷28弄8號","121.414018333333","25.0217233333333","6500500","新莊區"
"242023","362-BY","2018/07/06 20:19:27","新北市新莊區化成路802號","121.465023333333","25.059565","6500500","新莊區"
"242060","353-BY","2018/07/06 20:19:26","新北市新莊區瓊林路206-6號","121.435558333333","25.0221666666667","6500500","新莊區"
"242009","132-UY","2018/07/06 20:19:25","新北市新莊區昌平街1號","121.454766666667","25.0513233333333","6500500","新莊區"
"242039","133-UY","2018/07/06 20:19:29","新北市新莊區成功街70號","121.424311666667","25.0191166666667","6500500","新莊區"
"242032","135-UY","2018/07/06 20:19:15","新北市新莊區三泰路30-4號","121.4383","25.0352966666667","6500500","新莊區"
"242048","172-VK","2018/07/06 20:19:24","新北市新莊區龍安路224號","121.420333333333","25.019825","6500500","新莊區"
"242011","173-VK","2018/07/06 20:19:15","新北市新莊區中信街16號","121.450983333333","25.0509066666667","6500500","新莊區"
"242017","175-VK","2018/07/06 20:19:16","新北市新莊區中港二街99號","121.449273333333","25.045715","6500500","新莊區"
"242005","176-VK","2018/07/06 20:19:20","新北市新莊區頭前路20號","121.467916666667","25.052555","6500500","新莊區"
"242015","346-TH","2018/07/06 20:19:28","新北市新莊區中平路82巷24號","121.445831666667","25.0447583333333","6500500","新莊區"
"242037","347-TH","2018/07/06 20:19:31","新北市新莊區建安街62巷22號","121.42677","25.025265","6500500","新莊區"
"242002","349-TH","2018/07/06 20:19:30","新北市新莊區化成路82號","121.465235","25.043895","6500500","新莊區"
"242019","350-TH","2018/07/06 20:19:31","新北市新莊區復興路二段196巷1號","121.459401666667","25.0440366666667","6500500","新莊區"
"242013","351-TH","2018/07/06 20:19:21","新北市新莊區中和街155巷24弄18號","121.446665","25.0503966666667","6500500","新莊區"
"221008","489-VK","2018/07/06 20:19:31","新北市汐止區康寧街237號","121.624193333333","25.0668466666667","6501100","汐止區"
"221036","130-UY","2018/07/06 20:19:33","新北市汐止區仁愛路152巷27號","121.664873333333","25.0638266666667","6501100","汐止區"
"221015","131-UY","2018/07/06 20:19:28","新北市汐止區建成路142巷19弄11號","121.66194","25.073745","6501100","汐止區"
"221010","269-BY","2018/07/06 20:19:15","新北市汐止區八連路二段439號","121.628491666667","25.1036616666667","6501100","汐止區"
"221012","278-VK","2018/07/06 20:19:32","新北市汐止區保新街101號","121.686761666667","25.0713116666667","6501100","汐止區"
"221032","280-BY","2018/07/06 20:19:12","新北市汐止區民權街二段47號","121.61945","25.0491383333333","6501100","汐止區"
"221027","281-BY","2018/07/06 20:19:22","新北市汐止區大同路二段383號","121.657608333333","25.0673016666667","6501100","汐止區"
"221029","298-VK","2018/07/06 20:19:27","新北市汐止區工建路31號","121.63956","25.0634283333333","6501100","汐止區"
"221021","299-VK","2018/07/06 20:19:26","新北市汐止區水源路一段280號","121.654213333333","25.05835","6501100","汐止區"
"221031","353-TW","2018/07/06 20:19:21","新北市汐止區中興路91號","121.632401666667","25.06449","6501100","汐止區"
"221035","622-UM","2018/07/06 20:19:25","新北市汐止區長江街101-5號","121.658696666667","25.073135","6501100","汐止區"
"221025","623-UM","2018/07/06 20:19:25","新北市汐止區水源路二段32號","121.65486","25.057295","6501100","汐止區"
"221038","646-BX","2018/07/06 20:19:31","新北市汐止區忠孝東路430號","121.6661","25.0721966666667","6501100","汐止區"
"221033","647-BX","2018/07/06 20:19:19","新北市汐止區東勢街201巷33號","121.634898333333","25.0435833333333","6501100","汐止區"
"221002","707-TV","2018/07/06 20:19:21","新北市汐止區福德三路67號","121.636703333333","25.0694366666667","6501100","汐止區"
"220083","286-VK","2018/07/06 20:19:26","新北市板橋區僑中二街102巷24號","121.44517","25.00845","6500100","板橋區"
"220081","287-VK","2018/07/06 20:19:27","新北市板橋區僑中一街80巷1弄8號","121.44718","25.0119816666667","6500100","板橋區"
"220061","293-UM","2018/07/06 20:19:31","新北市板橋區文華街20-3號","121.457543333333","25.0005483333333","6500100","板橋區"
"242021","281-VK","2018/07/06 20:19:22","新北市新莊區和興街43號","121.4468","25.0404166666667","6500500","新莊區"
"220088","491-VK","2018/07/06 20:19:13","新北市五股區五工一路103號","121.458471666667","25.0694733333333","6500100","板橋區"
"220103","561-BX","2018/07/06 20:19:22","新北市板橋區新海路206號","121.461176666667","25.0235833333333","6500100","板橋區"
"220102","KEA-2699","2018/07/06 20:19:30","新北市板橋區板新路238號","121.467935","25.0163683333333","6500100","板橋區"
"220089","833-TW","2018/07/06 20:19:14","新北市板橋區四維路137巷25號","121.464016666667","25.0247333333333","6500100","板橋區"
"220073","985-R7","2018/07/06 20:19:29","新北市八里區商港路88號","121.394988333333","25.14689","6500100","板橋區"
"220097","AAC-210","2018/07/06 20:19:15","新北市板橋區文化路一段101巷11號","121.460738333333","25.0146066666667","6500100","板橋區"
"220070","AAC-253","2018/07/06 20:19:21","新北市板橋區南雅南路二段120-9號","121.452846666667","24.9991716666667","6500100","板橋區"
"235068","KEA-2873","2018/07/06 20:19:17","新北市中和區福祥路90巷1號","121.499366666667","25.0056983333333","6500300","中和區"
