"lineid","car","time","location","longitude","latitude","cityid","cityname"
"234086","553-UM","2018/07/06 20:49:15","新北市五股區孝義路14-1號","121.4519","25.1065","6500400","永和區"
"249002","305-UY","2018/07/06 20:49:31","新北市八里區中山路三段409號","121.368705","25.135785","6502300","八里區"
"248016","026-BX","2018/07/06 20:49:19","新北市八里區中山路三段409號","121.368728333333","25.134325","6501500","五股區"
"248004","677-BX","2018/07/06 20:49:29","新北市八里區中山路三段409號","121.368651666667","25.1348283333333","6501500","五股區"
"234074","AAC-211","2018/07/06 20:49:25","新北市永和區環河東路二段36號","121.522735","25.0124633333333","6500400","永和區"
"222002","016-RS","2018/07/06 20:49:24","新北市深坑區北深路三段93巷71號","121.603491666667","25.001135","6501800","深坑區"
"222003","436-BY","2018/07/06 20:49:27","新北市深坑區文山路三段48-1號","121.609906666667","24.9984633333333","6501800","深坑區"
"231040","047-UY","2018/07/06 20:49:19","新北市新店區中正路266號","121.53905","24.9734916666667","6500600","新店區"
"231044","106-UY","2018/07/06 20:49:27","新北市新店區中正路397號","121.534518333333","24.977275","6500600","新店區"
"231053","108-UY","2018/07/06 20:49:31","新北市新店區新烏路一段247號","121.547256666667","24.9304683333333","6500600","新店區"
"231065","110-UY","2018/07/06 20:49:32","新北市新店區安祥路69巷17號","121.481908333333","24.961345","6500600","新店區"
"231048","187-VK","2018/07/06 20:49:31","新北市新店區寶元路一段109號","121.545666666667","24.9831083333333","6500600","新店區"
"231054","KEA-2219","2018/07/06 20:49:22","新北市新店區北新路一段96巷23號","121.542991666667","24.96893","6500600","新店區"
"221018","KEA-2785","2018/07/06 20:49:18","新北市汐止區大同路二段381號","121.657523333333","25.0672683333333","6501100","汐止區"
"231042","268-BY","2018/07/06 20:49:22","新北市新店區寶高路120巷1號","121.55459","24.9761283333333","6500600","新店區"
"231051","278-BY","2018/07/06 20:49:34","新北市新店區民生路156巷62號","121.527778333333","24.9817783333333","6500600","新店區"
"231050","AAD-862","2018/07/06 20:49:28","新北市新店區三民路117巷5弄2號","121.534181666667","24.97115","6500600","新店區"
"231059","355-BY","2018/07/06 20:49:29","新北市新店區僑信路102巷42號","121.498855","24.9468083333333","6500600","新店區"
"231058","3713-VJ","2018/07/06 20:49:23","新北市新店區安和路三段4巷1-3號","121.518416666667","24.9807583333333","6500600","新店區"
"231066","4716-K9","2018/07/06 20:49:30","新北市新店區安民街339號","121.516918333333","24.9747366666667","6500600","新店區"
"231056","4715-K9","2018/07/06 20:49:16","新北市新店區安民街133巷26號","121.515476666667","24.9695066666667","6500600","新店區"
"231067","4772-VM","2018/07/06 20:49:14","新北市新店區安一路一段1-1號","121.519915","24.96132","6500600","新店區"
"231049","513-UM","2018/07/06 20:49:28","新北市新店區華城路11號","121.529406666667","24.959195","6500600","新店區"
"231045","617-UM","2018/07/06 20:49:17","新北市新店區安康路一段85號","121.529441666667","24.961395","6500600","新店區"
"231061","619-UM","2018/07/06 20:49:18","新北市新店區新和街77號","121.520638333333","24.986135","6500600","新店區"
"231063","641-BX","2018/07/06 20:49:32","新北市新店區如意街8-1號","121.494711666667","24.9482416666667","6500600","新店區"
"231068","718-UY","2018/07/06 20:49:13","新北市新店區寶元路二段14巷1號","121.545903333333","24.9825416666667","6500600","新店區"
"231064","719-UM","2018/07/06 20:49:23","新北市新店區安民街379巷1號","121.516165","24.9762666666667","6500600","新店區"
"231062","720-UM","2018/07/06 20:49:29","新北市新店區和成街16巷31號","121.488735","24.9468716666667","6500600","新店區"
"231060","897-TW","2018/07/06 20:49:19","新北市新店區安康路三段780-2號","121.47248","24.9411166666667","6500600","新店區"
"231043","899-TW","2018/07/06 20:49:30","新北市新店區建國路86號","121.540476666667","24.976945","6500600","新店區"
"241011","013-R5","2018/07/06 20:49:27","新北市三重區龍濱路231號","121.501601666667","25.0722083333333","6500200","三重區"
"241028","022-UY","2018/07/06 20:49:17","新北市三重區中正南路40號","121.493855","25.060115","6500200","三重區"
"241008","059-VK","2018/07/06 20:49:18","新北市三重區永福街72巷11號","121.479443333333","25.0767883333333","6500200","三重區"
"241022","060-VK","2018/07/06 20:49:13","新北市三重區中正北路20巷12號","121.487958333333","25.0624416666667","6500200","三重區"
"241015","062-VK","2018/07/06 20:49:19","新北市三重區自強路一段3號","121.498825","25.0684083333333","6500200","三重區"
"241024","065-VK","2018/07/06 20:49:31","新北市三重區國道路一段58巷18號","121.480975","25.0720066666667","6500200","三重區"
"241026","066-VK","2018/07/06 20:49:33","新北市三重區和平街1號","121.500111666667","25.062345","6500200","三重區"
"241002","090-VK","2018/07/06 20:49:22","新北市三重區仁義街157巷38號","121.497996666667","25.0814233333333","6500200","三重區"
"241003","091-VK","2018/07/06 20:49:14","新北市三重區五華街141巷60號","121.493476666667","25.08672","6500200","三重區"
"241005","262-UM","2018/07/06 20:49:24","新北市三重區五華街141巷9號","121.491378333333","25.08488","6500200","三重區"
"241020","265-UM","2018/07/06 20:49:15","新北市三重區忠孝路一段101號","121.489485","25.072165","6500200","三重區"
"241016","266-UM","2018/07/06 20:49:16","新北市三重區自強路一段220號","121.494156666667","25.0666466666667","6500200","三重區"
"241009","267-UM","2018/07/06 20:49:31","新北市三重區三和路四段392號","121.481916666667","25.079285","6500200","三重區"
"241018","268-UM","2018/07/06 20:49:35","新北市三重區自強路一段236號","121.493198333333","25.0670766666667","6500200","三重區"
"241032","269-UM","2018/07/06 20:49:29","新北市三重區重陽路一段120巷48號","121.484993333333","25.0601666666667","6500200","三重區"
"241013","270-UM","2018/07/06 20:49:21","新北市三重區仁愛街129巷1號","121.495573333333","25.07497","6500200","三重區"
"241025","271-UM","2018/07/06 20:49:22","新北市三重區貴陽街21號","121.48427","25.06189","6500200","三重區"
"241007","398-BY","2018/07/06 20:49:30","新北市三重區慈愛街10號","121.484523333333","25.07845","6500200","三重區"
"241035","KEA-2210","2018/07/06 20:49:20","新北市三重區三和路三段8號","121.49713","25.0700666666667","6500200","三重區"
"241031","413-TH","2018/07/06 20:49:23","新北市三重區重陽路一段113巷3號","121.487555","25.0598383333333","6500200","三重區"
"241004","475-VK","2018/07/06 20:49:23","新北市三重區溪尾街227巷1弄1號","121.4886","25.0813516666667","6500200","三重區"
"241030","480-VK","2018/07/06 20:49:21","新北市三重區昌隆街26號","121.492021666667","25.05225","6500200","三重區"
"241014","543-UM","2018/07/06 20:49:29","新北市三重區長壽街120巷64號","121.501705","25.0704416666667","6500200","三重區"
"241023","545-UM","2018/07/06 20:49:34","新北市三重區忠孝路三段84巷1號","121.480295","25.06452","6500200","三重區"
"241019","KEA-2593","2018/07/06 20:49:25","新北市三重區重陽路四段132號","121.492453333333","25.071405","6500200","三重區"
"241006","AAD-863","2018/07/06 20:49:24","新北市三重區車路頭街133號","121.484486666667","25.0761833333333","6500200","三重區"
"241017","887-TS","2018/07/06 20:49:32","新北市三重區民生街38巷2弄24號","121.492276666667","25.0672883333333","6500200","三重區"
"241012","941-UM","2018/07/06 20:49:27","新北市三重區仁信街27號","121.501273333333","25.0755233333333","6500200","三重區"
"241029","942-UM","2018/07/06 20:49:21","新北市三重區重安街18號","121.49031","25.0581383333333","6500200","三重區"
"241033","AAC-255","2018/07/06 20:49:32","新北市三重區光復路二段1號","121.472273333333","25.05341","6500200","三重區"
"235069","4980-A6","2018/07/06 20:49:26","新北市中和區新生街199號","121.483791666667","25.0000333333333","6500300","中和區"
"247024","893-R6","2018/07/06 20:49:20","新北市蘆洲區長樂路140號","121.462068333333","25.090145","6501400","蘆洲區"
"247014","546-UM","2018/07/06 20:49:35","新北市蘆洲區三民路95號","121.47389","25.084935","6501400","蘆洲區"
"247022","500-BY","2018/07/06 20:49:34","新北市蘆洲區民義街24號","121.47139","25.0885783333333","6501400","蘆洲區"
"247010","341-TH","2018/07/06 20:49:28","新北市蘆洲區鷺江街87號","121.476938333333","25.0837066666667","6501400","蘆洲區"
"247012","339-TH","2018/07/06 20:49:18","新北市蘆洲區集賢路222巷22號","121.482221666667","25.0872116666667","6501400","蘆洲區"
"247004","337-TH","2018/07/06 20:49:26","新北市蘆洲區長安街101號","121.461608333333","25.0808283333333","6501400","蘆洲區"
"247006","336-TH","2018/07/06 20:49:22","新北市蘆洲區永安南路二段18號","121.467701666667","25.0771816666667","6501400","蘆洲區"
"247016","007-UY","2018/07/06 20:49:33","新北市蘆洲區正和街3號","121.470493333333","25.08273","6501400","蘆洲區"
"247002","002-UY","2018/07/06 20:49:25","新北市蘆洲區長安街240號","121.457683333333","25.0858566666667","6501400","蘆洲區"
"247020","001-UY","2018/07/06 20:49:22","新北市蘆洲區仁愛街60號","121.47159","25.0937816666667","6501400","蘆洲區"
"222001","KEA-2212","2018/07/06 20:49:20","新北市深坑區北深路三段137號","121.603953333333","25.0025616666667","6501800","深坑區"
"251001","011-UM","2018/07/06 20:49:24","新北市淡水區淡金路一段69號","121.458831666667","25.1730766666667","6501000","淡水區"
"251002","012-UM","2018/07/06 20:49:22","新北市淡水區中正東路6號","121.447035","25.1670583333333","6501000","淡水區"
"251010","413-VK","2018/07/06 20:49:23","新北市淡水區沙崙路145號","121.423403333333","25.1830033333333","6501000","淡水區"
"251012","441-VK","2018/07/06 20:49:28","新北市淡水區淡金路四段514號","121.452065","25.2258183333333","6501000","淡水區"
"251007","577-R6","2018/07/06 20:49:26","新北市淡水區鄧公路29巷26號","121.452711666667","25.17038","6501000","淡水區"
"251011","650-BX","2018/07/06 20:49:20","新北市淡水區新民街一段13號","121.43279","25.1847316666667","6501000","淡水區"
"251003","673-BX","2018/07/06 20:49:26","新北市淡水區新興街71號","121.441371666667","25.1795566666667","6501000","淡水區"
"252002","178-VK","2018/07/06 20:49:22","新北市三芝區淡金路二段89-1號","121.504055","25.2608533333333","6502100","三芝區"
"242034","AAC-296","2018/07/06 20:49:27","新北市新莊區中正路318巷2號","121.446156666667","25.035005","6500500","新莊區"
"242054","751-BX","2018/07/06 20:49:19","新北市新莊區民安西路189巷10弄24-1號","121.426543333333","25.015045","6500500","新莊區"
"242027","615-BX","2018/07/06 20:49:22","新北市新莊區環河路636-7號","121.437108333333","25.011595","6500500","新莊區"
"242041","566-BX","2018/07/06 20:49:31","新北市新莊區天祥街19巷6號","121.416878333333","25.0279883333333","6500500","新莊區"
"242050","442-UM","2018/07/06 20:49:24","新北市新莊區民安西路47號","121.427453333333","25.0206833333333","6500500","新莊區"
"242044","400-BY","2018/07/06 20:49:33","新北市樹林區中正路280-1號","121.415871666667","25.0095566666667","6500500","新莊區"
"242023","362-BY","2018/07/06 20:49:27","新北市新莊區復興路三段2號","121.460368333333","25.04444","6500500","新莊區"
"242009","132-UY","2018/07/06 20:49:25","新北市新莊區幸福路6號","121.45935","25.0495466666667","6500500","新莊區"
"242037","347-TH","2018/07/06 20:49:21","新北市新莊區中正路449-1號","121.44297","25.0340733333333","6500500","新莊區"
"242002","349-TH","2018/07/06 20:49:22","新北市新莊區中港路五守新村23巷2號","121.454976666667","25.03831","6500500","新莊區"
"242013","351-TH","2018/07/06 20:49:21","新北市新莊區環河路506號","121.438885","25.0163866666667","6500500","新莊區"
"221036","130-UY","2018/07/06 20:49:17","新北市汐止區新台五路二段73號","121.664048333333","25.06675","6501100","汐止區"
"221032","280-BY","2018/07/06 20:49:12","新北市汐止區新台五路一段131號","121.652343333333","25.0619133333333","6501100","汐止區"
"221027","281-BY","2018/07/06 20:49:22","新北市汐止區汐萬路一段39-3號","121.654805","25.069735","6501100","汐止區"
"221029","298-VK","2018/07/06 20:47:19","新北市汐止區汐萬路一段39號","121.654981666667","25.069005","6501100","汐止區"
"221035","622-UM","2018/07/06 20:49:25","新北市汐止區汐萬路一段312號","121.650468333333","25.075125","6501100","汐止區"
"221038","646-BX","2018/07/06 20:49:31","新北市汐止區汐萬路一段256巷3號","121.65206","25.07469","6501100","汐止區"
"221033","647-BX","2018/07/06 20:49:19","新北市汐止區合順街18巷8弄5號","121.620353333333","25.04195","6501100","汐止區"
"221002","707-TV","2018/07/06 20:49:21","新北市汐止區福德二路171號","121.630745","25.0649583333333","6501100","汐止區"
"220070","AAC-253","2018/07/06 20:49:20","新北市林口區太平里180號","121.367008333333","25.1351466666667","6500100","板橋區"
