"lineid","car","time","location","longitude","latitude","cityid","cityname"
"234086","553-UM","2018/07/06 20:59:35","新北市八里區中山路三段372號","121.368853333333","25.1361766666667","6500400","永和區"
"249002","305-UY","2018/07/06 20:59:31","新北市林口區太平里180號","121.368585","25.1339083333333","6502300","八里區"
"248016","026-BX","2018/07/06 20:59:19","新北市林口區太平里180號","121.368275","25.134505","6501500","五股區"
"248004","677-BX","2018/07/06 20:59:29","新北市林口區太平里180號","121.36667","25.13396","6501500","五股區"
"234074","AAC-211","2018/07/06 20:59:23","新北市中和區勝利路2號","121.49915","25.0089983333333","6500400","永和區"
"231040","047-UY","2018/07/06 20:59:19","新北市新店區北新路一段349號","121.541963333333","24.969205","6500600","新店區"
"231053","108-UY","2018/07/06 20:57:02","新北市新店區北宜路一段187號","121.546855","24.9526766666667","6500600","新店區"
"231065","110-UY","2018/07/06 20:59:32","新北市新店區安祥路67巷28弄6號","121.484736666667","24.9596366666667","6500600","新店區"
"231048","187-VK","2018/07/06 20:59:31","新北市新店區寶元路一段109號","121.545671666667","24.9831016666667","6500600","新店區"
"231054","KEA-2219","2018/07/06 20:59:22","新北市新店區中正路75巷71號","121.543088333333","24.968925","6500600","新店區"
"221018","KEA-2785","2018/07/06 20:59:18","新北市汐止區汐萬路一段256巷3號","121.653073333333","25.0744416666667","6501100","汐止區"
"231042","268-BY","2018/07/06 20:59:22","新北市新店區中興路二段239號","121.547388333333","24.9756383333333","6500600","新店區"
"231051","278-BY","2018/07/06 20:59:14","新北市新店區中正路663巷1弄2號","121.53296","24.9899933333333","6500600","新店區"
"231050","AAD-862","2018/07/06 20:59:28","新北市新店區三民路29巷2弄2號","121.537796666667","24.9699583333333","6500600","新店區"
"231059","355-BY","2018/07/06 20:59:29","新北市新店區僑信路55號","121.49936","24.94951","6500600","新店區"
"231058","3713-VJ","2018/07/06 20:59:23","新北市新店區薏仁坑路自強巷1號","121.496901666667","24.9580833333333","6500600","新店區"
"231066","4716-K9","2018/07/06 20:59:30","新北市新店區吉安街14號","121.51673","24.965785","6500600","新店區"
"231067","4772-VM","2018/07/06 20:59:14","新北市新店區安康路一段266巷4號","121.519921666667","24.9639666666667","6500600","新店區"
"231061","619-UM","2018/07/06 20:59:18","新北市新店區永安街107號","121.521083333333","24.985585","6500600","新店區"
"231063","641-BX","2018/07/06 20:59:12","新北市新店區如意街97號","121.495451666667","24.9469","6500600","新店區"
"231064","719-UM","2018/07/06 20:57:03","新北市新店區安民街303巷9弄2號","121.516873333333","24.973375","6500600","新店區"
"231062","720-UM","2018/07/06 20:59:29","新北市新店區雙城路20巷6號","121.491511666667","24.950665","6500600","新店區"
"231060","897-TW","2018/07/06 20:59:19","新北市新店區安康路三段421-1號","121.483136666667","24.9497383333333","6500600","新店區"
"231043","899-TW","2018/07/06 20:59:30","新北市新店區中正路397號","121.534505","24.9773516666667","6500600","新店區"
"241011","013-R5","2018/07/06 20:59:27","新北市三重區秀江街119-1號","121.499671666667","25.0721816666667","6500200","三重區"
"241028","022-UY","2018/07/06 20:59:17","新北市三重區重新路二段47號","121.49725","25.0620233333333","6500200","三重區"
"241008","059-VK","2018/07/06 20:59:18","新北市三重區力行路二段162巷22號","121.481603333333","25.07647","6500200","三重區"
"241022","060-VK","2018/07/06 20:59:33","新北市三重區過圳街27-5號","121.488025","25.0623533333333","6500200","三重區"
"241015","062-VK","2018/07/06 20:59:19","新北市三重區福德北路46號","121.50203","25.0654833333333","6500200","三重區"
"241024","065-VK","2018/07/06 20:59:29","新北市三重區國道路一段58巷20號","121.481291666667","25.072105","6500200","三重區"
"241026","066-VK","2018/07/06 20:59:32","新北市三重區文化南路45號","121.500166666667","25.0613816666667","6500200","三重區"
"241002","090-VK","2018/07/06 20:59:22","新北市三重區五華街1巷94號","121.497241666667","25.0805683333333","6500200","三重區"
"241003","091-VK","2018/07/06 20:59:14","新北市三重區進安街198號","121.493913333333","25.0859383333333","6500200","三重區"
"241005","262-UM","2018/07/06 20:59:24","新北市三重區五華街184號","121.488691666667","25.0863716666667","6500200","三重區"
"241020","265-UM","2018/07/06 20:59:15","新北市三重區忠孝路二段35號","121.485918333333","25.0710666666667","6500200","三重區"
"241016","266-UM","2018/07/06 20:59:27","新北市三重區正義北路101號","121.497005","25.065485","6500200","三重區"
"241009","267-UM","2018/07/06 20:59:31","新北市三重區三和路四段386號","121.482266666667","25.07908","6500200","三重區"
"241018","268-UM","2018/07/06 20:59:14","新北市三重區雙園街105號","121.49367","25.0673533333333","6500200","三重區"
"241032","269-UM","2018/07/06 20:59:29","新北市三重區中華路2巷6號","121.482848333333","25.0601383333333","6500200","三重區"
"241013","270-UM","2018/07/06 20:59:21","新北市三重區仁愛街129巷1號","121.49561","25.07494","6500200","三重區"
"241025","271-UM","2018/07/06 20:59:22","新北市三重區貴陽街14號","121.484233333333","25.06184","6500200","三重區"
"241007","398-BY","2018/07/06 20:59:30","新北市三重區慈愛街32號","121.485065","25.0789166666667","6500200","三重區"
"241031","413-TH","2018/07/06 20:59:23","新北市三重區過圳街42-2號","121.487863333333","25.0600716666667","6500200","三重區"
"241004","475-VK","2018/07/06 20:59:24","新北市三重區仁愛街420號","121.490398333333","25.08137","6500200","三重區"
"241030","480-VK","2018/07/06 20:59:21","新北市三重區中正南路252巷5號","121.493451666667","25.052675","6500200","三重區"
"241014","543-UM","2018/07/06 20:59:29","新北市三重區長榮路75號","121.502536666667","25.06907","6500200","三重區"
"241023","545-UM","2018/07/06 20:59:14","新北市三重區忠孝路三段84巷63號","121.482253333333","25.0637716666667","6500200","三重區"
"241019","KEA-2593","2018/07/06 20:59:16","新北市三重區三張街104號","121.487863333333","25.069925","6500200","三重區"
"241006","AAD-863","2018/07/06 20:59:24","新北市三重區永福街23號","121.481673333333","25.078185","6500200","三重區"
"241017","887-TS","2018/07/06 20:59:32","新北市三重區國隆路26號","121.492418333333","25.0643766666667","6500200","三重區"
"241012","941-UM","2018/07/06 20:59:27","新北市三重區仁信街27號","121.50127","25.0755183333333","6500200","三重區"
"241029","942-UM","2018/07/06 20:59:21","新北市三重區正義南路111號","121.498183333333","25.058605","6500200","三重區"
"241033","AAC-255","2018/07/06 20:59:32","新北市三重區光復路二段45號","121.472163333333","25.05553","6500200","三重區"
"235069","4980-A6","2018/07/06 20:59:26","新北市中和區中正路637巷17號","121.484893333333","24.9946416666667","6500300","中和區"
"247024","893-R6","2018/07/06 20:59:20","新北市蘆洲區長興路213號","121.461166666667","25.08633","6501400","蘆洲區"
"247014","546-UM","2018/07/06 20:59:35","新北市蘆洲區中山二路36巷38號","121.474053333333","25.0834533333333","6501400","蘆洲區"
"247022","500-BY","2018/07/06 20:59:35","新北市蘆洲區中正路198號","121.466726666667","25.0883266666667","6501400","蘆洲區"
"247010","341-TH","2018/07/06 20:59:28","新北市蘆洲區鷺江街74號","121.477068333333","25.083785","6501400","蘆洲區"
"247012","339-TH","2018/07/06 20:59:18","新北市蘆洲區民權路5號","121.476698333333","25.0857183333333","6501400","蘆洲區"
"247004","337-TH","2018/07/06 20:59:26","新北市蘆洲區永安南路二段268號","121.458636666667","25.0807283333333","6501400","蘆洲區"
"247006","336-TH","2018/07/06 20:59:22","新北市蘆洲區永安南路二段18號","121.467686666667","25.077175","6501400","蘆洲區"
"247018","057-VK","2018/07/06 20:59:22","新北市蘆洲區民權路136-2號","121.473135","25.0888366666667","6501400","蘆洲區"
"247008","056-VK","2018/07/06 20:59:24","新北市蘆洲區民生街117號","121.472898333333","25.0788183333333","6501400","蘆洲區"
"247016","007-UY","2018/07/06 20:59:26","新北市蘆洲區正和街94號","121.468023333333","25.0807983333333","6501400","蘆洲區"
"247020","001-UY","2018/07/06 20:59:22","新北市蘆洲區民族路484號","121.471161666667","25.0914183333333","6501400","蘆洲區"
"251001","011-UM","2018/07/06 20:59:24","新北市淡水區淡金路二段66-1號","121.450295","25.182545","6501000","淡水區"
"251002","012-UM","2018/07/06 20:59:27","新北市淡水區英專路68號","121.445745","25.171035","6501000","淡水區"
"251010","413-VK","2018/07/06 20:59:23","新北市淡水區淡海路23號","121.423685","25.1790666666667","6501000","淡水區"
"251012","441-VK","2018/07/06 20:59:28","新北市淡水區淡金路五段98號","121.456275","25.2361033333333","6501000","淡水區"
"251005","443-VK","2018/07/06 20:59:29","新北市淡水區學府路51巷2弄6號","121.447778333333","25.1697233333333","6501000","淡水區"
"251007","577-R6","2018/07/06 20:59:26","新北市淡水區仁愛街2巷11號","121.446163333333","25.1706366666667","6501000","淡水區"
"251011","650-BX","2018/07/06 20:59:20","新北市淡水區新民街322巷2號","121.435335","25.18359","6501000","淡水區"
"251003","673-BX","2018/07/06 20:59:23","新北市淡水區新春街146-6號","121.44202","25.1813633333333","6501000","淡水區"
"221036","130-UY","2018/07/06 20:59:36","新北市汐止區康寧街901號","121.651493333333","25.075005","6501100","汐止區"
"221032","280-BY","2018/07/06 20:59:32","新北市汐止區汐萬路一段256巷3號","121.653311666667","25.0746433333333","6501100","汐止區"
"220070","AAC-253","2018/07/06 20:59:20","新北市八里區中山路三段409號","121.368748333333","25.1339416666667","6500100","板橋區"
