"lineid","car","time","location","longitude","latitude","cityid","cityname"
"241005","262-UM","2018/07/06 21:39:24","新北市三重區碧華街1號","121.483595","25.0810533333333","6500200","三重區"
"241006","AAD-863","2018/07/06 21:39:24","新北市八里區中山路三段386號","121.3685","25.1358183333333","6500200","三重區"
"251004","009-UM","2018/07/06 21:39:18","新北市淡水區民生路6號","121.460575","25.1377316666667","6501000","淡水區"
"251001","011-UM","2018/07/06 21:39:23","新北市淡水區新市二路三段152號","121.435351666667","25.1941316666667","6501000","淡水區"
"251002","012-UM","2018/07/06 21:39:22","新北市淡水區學府路183號","121.446631666667","25.1747366666667","6501000","淡水區"
"251008","181-VK","2018/07/06 21:39:31","新北市淡水區水源街二段56-3號","121.450736666667","25.1738666666667","6501000","淡水區"
"251010","413-VK","2018/07/06 21:39:23","新北市淡水區沙崙路242號","121.426011666667","25.18491","6501000","淡水區"
"251012","441-VK","2018/07/06 21:39:27","新北市淡水區淡金路四段207號","121.45165","25.222095","6501000","淡水區"
"251005","443-VK","2018/07/06 21:39:29","新北市淡水區學府路88號","121.449146666667","25.1709433333333","6501000","淡水區"
"251006","561-UM","2018/07/06 21:39:24","新北市淡水區中正路11巷4號","121.438903333333","25.1702","6501000","淡水區"
"251009","575-R6","2018/07/06 21:39:35","新北市淡水區民族路29巷1弄1號","121.462705","25.1374183333333","6501000","淡水區"
"251007","577-R6","2018/07/06 21:39:26","新北市淡水區忠愛街12號","121.457468333333","25.1748766666667","6501000","淡水區"
"251011","650-BX","2018/07/06 21:39:28","新北市淡水區新民街296號","121.435075","25.1823366666667","6501000","淡水區"
"251003","673-BX","2018/07/06 21:39:17","新北市淡水區新春街30號","121.436848333333","25.1813433333333","6501000","淡水區"
"220070","AAC-253","2018/07/06 21:39:21","新北市板橋區僑中一街124巷72-3號","121.448528333333","25.0167416666667","6500100","板橋區"
