"lineid","car","time","location","longitude","latitude","cityid","cityname"
"241006","AAD-863","2018/07/06 22:09:24","新北市五股區中興路三段2巷10號","121.44915","25.0809233333333","6500200","三重區"
"235010","733-UM","2018/07/06 21:44:14","新北市中和區員山路36巷13號","121.484166666667","24.9908066666667","6500300","中和區"
"251004","009-UM","2018/07/06 22:09:18","新北市淡水區民族路76號","121.462131666667","25.13573","6501000","淡水區"
"251008","181-VK","2018/07/06 22:09:30","新北市淡水區學府路104號","121.4499","25.17187","6501000","淡水區"
"251010","413-VK","2018/07/06 22:09:23","新北市淡水區沙崙路200號","121.424673333333","25.1838666666667","6501000","淡水區"
"251005","443-VK","2018/07/06 22:09:29","新北市淡水區忠愛街4號","121.459411666667","25.171325","6501000","淡水區"
"251007","577-R6","2018/07/06 22:09:26","新北市淡水區北新路139號","121.449488333333","25.17888","6501000","淡水區"
"251011","650-BX","2018/07/06 22:09:20","新北市淡水區水碓街7號","121.443176666667","25.1771266666667","6501000","淡水區"
