"lineid","car","time","location","longitude","latitude","cityid","cityname"
"248005","653-BX","2018/07/07 07:09:34","新北市五股區成泰路一段98巷2號","121.436166666667","25.0719016666667","6501500","五股區"
"232004","290-BY","2018/07/07 07:09:33","新北市坪林區虎寮潭1號","121.740778333333","24.9524216666667","6502000","坪林區"
"232016","291-BY","2018/07/07 07:09:34","新北市坪林區金瓜寮10-2號","121.681446666667","24.9170166666667","6502000","坪林區"
"232010","375-UM","2018/07/07 07:09:39","新北市坪林區水聳淒坑1號","121.726196666667","24.9254","6502000","坪林區"
"232009","758-BX","2018/07/07 07:09:41","新北市坪林區魚堀50號","121.704545","24.9309216666667","6502000","坪林區"
"244005","248-BX","2018/07/07 07:09:41","新北市林口區南勢里77-8號","121.348005","25.0761966666667","6501700","林口區"
"222004","289-BY","2018/07/07 07:09:28","新北市深坑區昇高坑路30號","121.626868333333","25.0003583333333","6501800","深坑區"
"226005","5620-A6","2018/07/07 07:09:31","新北市平溪區菁桐里菁桐街41號","121.726413333333","25.0238316666667","6502400","平溪區"
"226007","7418-A5","2018/07/07 07:09:31","新北市平溪區石底里石筍尖13號","121.735036666667","25.0255566666667","6502400","平溪區"
"226003","AGD-0702","2018/07/07 07:09:43","新北市平溪區靜安路二段482號","121.743196666667","25.0259866666667","6502400","平溪區"
"223006","022-BY","2018/07/07 07:09:27","新北市石碇區深按2號","121.660043333333","25.0176533333333","6501900","石碇區"
"223002","KEA-2673","2018/07/07 07:09:35","新北市石碇區碇格路二段15號","121.642225","24.9553233333333","6501900","石碇區"
"223003","205-TH","2018/07/07 07:09:48","新北市石碇區烏塗窟19號","121.656488333333","24.97496","6501900","石碇區"
"223008","406-TH","2018/07/07 07:09:46","新北市石碇區番子坑22-5號","121.677146666667","25.0004283333333","6501900","石碇區"
"223001","592-UM","2018/07/07 07:09:33","新北市石碇區烏塗窟2號","121.655126666667","24.9765766666667","6501900","石碇區"
"223004","660-BX","2018/07/07 07:09:33","新北市石碇區石崁1號","121.651485","25.0028183333333","6501900","石碇區"
"223007","661-BX","2018/07/07 07:09:40","新北市石碇區蚯蚓坑19-2號","121.688015","25.0027266666667","6501900","石碇區"
"223005","677-TV","2018/07/07 07:09:34","新北市石碇區石崁1號","121.651705","25.0020416666667","6501900","石碇區"
"227006","282-VK","2018/07/07 07:09:33","新北市雙溪區新基里自強路5號","121.866303333333","25.0390716666667","6502500","雙溪區"
"252004","249-BX","2018/07/07 07:09:46","新北市三芝區錫板里小坑子20號","121.501128333333","25.235355","6502100","三芝區"
"252007","AAC-283","2018/07/07 07:09:26","新北市三芝區福德里埔尾20-4號","121.502971666667","25.2399266666667","6502100","三芝區"
"236011","165-UM","2018/07/07 07:09:43","新北市土城區永寧路55號","121.42936","24.9606083333333","6501300","土城區"
"236002","339-SR","2018/07/07 07:09:28","新北市土城區承天路27號","121.4367","24.9654083333333","6501300","土城區"
