"lineid","car","time","location","longitude","latitude","cityid","cityname"
"248005","653-BX","2018/06/28 07:09:30","新北市五股區新五路二段83號","121.436686666667","25.0736816666667","6501500","五股區"
"232001","290-BY","2018/06/28 07:09:35","新北市坪林區桶盤嶼8-2號","121.706598333333","24.956605","6502000","坪林區"
"232014","291-BY","2018/06/28 07:09:27","新北市坪林區金瓜寮3-3號","121.68087","24.9180283333333","6502000","坪林區"
"232010","375-UM","2018/06/28 07:09:31","新北市坪林區水聳淒坑1號","121.726195","24.9254233333333","6502000","坪林區"
"232017","705-BZ","2018/06/28 07:09:28","新北市坪林區九芎坑5號","121.732941666667","24.9608566666667","6502000","坪林區"
"232008","758-BX","2018/06/28 07:09:36","新北市坪林區魚堀54-4號","121.706288333333","24.9300666666667","6502000","坪林區"
"244001","248-BX","2018/06/28 07:09:31","新北市林口區文化北路一段411-1號","121.364535","25.0765216666667","6501700","林口區"
"235044","293-VK","2018/06/28 07:09:42","新北市中和區和平街29-1號","121.507446666667","24.9909783333333","6500300","中和區"
"235001","611-BX","2018/06/28 07:09:43","新北市中和區圓通路367巷6號","121.491403333333","24.9892216666667","6500300","中和區"
"226005","5620-A6","2018/06/28 07:09:25","新北市平溪區菁桐里菁桐街8號","121.727208333333","25.0240816666667","6502400","平溪區"
"226007","7418-A5","2018/06/28 07:09:27","新北市平溪區平溪里平溪街51-1號","121.737276666667","25.0261883333333","6502400","平溪區"
"226003","AGD-0702","2018/06/28 07:09:28","新北市平溪區靜安路二段500號","121.74379","25.0267283333333","6502400","平溪區"
"223002","KEA-2673","2018/06/28 07:09:31","新北市石碇區碇格路二段8號","121.644585","24.96173","6501900","石碇區"
"223003","205-TH","2018/06/28 07:09:42","新北市石碇區烏塗窟8號","121.655893333333","24.97503","6501900","石碇區"
"223008","406-TH","2018/06/28 07:09:33","新北市石碇區靜安路一段252號","121.676998333333","25.0106716666667","6501900","石碇區"
"223001","592-UM","2018/06/28 07:09:29","新北市石碇區烏塗窟4-1號","121.653096666667","24.9778416666667","6501900","石碇區"
"223004","660-BX","2018/06/28 07:09:26","新北市石碇區碇坪路一段16號","121.651726666667","25.005945","6501900","石碇區"
"223007","661-BX","2018/06/28 07:09:35","新北市石碇區靜安路一段252號","121.677623333333","25.0104566666667","6501900","石碇區"
"223005","677-TV","2018/06/28 07:09:38","新北市石碇區碇坪路一段18號","121.651803333333","25.005545","6501900","石碇區"
"227007","282-VK","2018/06/28 07:09:30","新北市雙溪區新基里自強路5號","121.86642","25.0390633333333","6502500","雙溪區"
"252005","073-UM","2018/06/28 07:09:35","新北市三芝區中正路三段3號","121.503068333333","25.2543233333333","6502100","三芝區"
"252004","249-BX","2018/06/28 07:09:28","新北市三芝區錫板里小坑子11-1號","121.503088333333","25.2369616666667","6502100","三芝區"
"252007","AAC-283","2018/06/28 07:09:36","新北市三芝區福德里埔尾27號","121.502371666667","25.2402983333333","6502100","三芝區"
"236009","165-UM","2018/06/28 07:09:32","新北市土城區中華路二段209號","121.437893333333","24.9735916666667","6501300","土城區"
"236003","339-SR","2018/06/28 07:09:36","新北市土城區金城路一段12號","121.439101666667","24.968745","6501300","土城區"
"242001","233-RS","2018/06/28 07:09:40","新北市新莊區中港路301號","121.452885","25.0445033333333","6500500","新莊區"
