"lineid","car","time","location","longitude","latitude","cityid","cityname"
"248005","653-BX","2018/08/20 10:19:51","新北市五股區成泰路二段119號","121.438476666667","25.084575","6501500","五股區"
"244018","403-UM","2018/08/20 10:19:44","新北市林口區仁愛路一段285巷116號","121.395513333333","25.0758116666667","6501700","林口區"
"244022","483-VK","2018/08/20 10:19:50","新北市林口區文林三街139號","121.374588333333","25.0878716666667","6501700","林口區"
"244016","485-VK","2018/08/20 10:19:42","新北市林口區中山路67號","121.393696666667","25.0784666666667","6501700","林口區"
"231007","189-VK","2018/08/20 10:19:41","新北市新店區新潭路三段215巷26號","121.507671666667","24.9036366666667","6500600","新店區"
"231008","192-VK","2018/08/20 10:19:48","新北市新店區小坑一路35巷1號","121.528485","24.90832","6500600","新店區"
"235001","611-BX","2018/08/20 10:19:45","新北市中和區員山路102號","121.481086666667","24.9954116666667","6500300","中和區"
"227005","282-VK","2018/08/20 10:10:19","新北市雙溪區泰平里灣潭路20-1號","121.813101666667","24.929145","6502500","雙溪區"
"252006","AAC-283","2018/08/20 10:19:42","新北市三芝區新庄里番社后31-1號","121.498698333333","25.2735966666667","6502100","三芝區"
"237001","159-UY","2018/08/20 10:19:45","新北市三峽區中山路459巷163-1號","121.349308333333","24.93339","6500900","三峽區"
"242049","441-UM","2018/08/20 10:19:39","新北市新莊區瓊泰路77巷15號","121.442516666667","25.0288833333333","6500500","新莊區"
