"lineid","car","time","location","longitude","latitude","cityid","cityname"
"248005","653-BX","2018/08/20 10:29:40","新北市五股區新五路二段572號","121.44292","25.08574","6501500","五股區"
"244022","483-VK","2018/08/20 10:29:50","新北市林口區寶斗厝坑58-1號","121.335521666667","25.123075","6501700","林口區"
"231007","189-VK","2018/08/20 10:29:41","新北市新店區小坑三路51-2號","121.517216666667","24.9083316666667","6500600","新店區"
"231008","192-VK","2018/08/20 10:29:48","新北市新店區小坑一路21-1號","121.530361666667","24.911355","6500600","新店區"
"235001","611-BX","2018/08/20 10:29:25","新北市中和區員山路61號","121.480795","24.9935216666667","6500300","中和區"
"227005","282-VK","2018/08/20 10:10:19","新北市雙溪區泰平里灣潭路20-1號","121.813101666667","24.929145","6502500","雙溪區"
"252006","AAC-283","2018/08/20 10:29:42","新北市三芝區新庄里番社后1-1號","121.501406666667","25.2642566666667","6502100","三芝區"
"237001","159-UY","2018/08/20 10:29:45","新北市三峽區中山路459巷163-1號","121.349316666667","24.9334066666667","6500900","三峽區"
"242049","441-UM","2018/08/20 10:29:39","新北市新莊區三和路12-21號","121.441971666667","25.0382616666667","6500500","新莊區"
