"lineid","car","time","location","longitude","latitude","cityid","cityname"
"244019","403-UM","2018/08/20 10:49:44","新北市林口區粉寮69號","121.405053333333","25.0907983333333","6501700","林口區"
"244022","483-VK","2018/08/20 10:49:50","新北市八里區中華路三段184號","121.392248333333","25.1299583333333","6501700","林口區"
"231007","189-VK","2018/08/20 10:49:41","新北市新店區新潭路三段80巷3號","121.502685","24.909975","6500600","新店區"
"231008","192-VK","2018/08/20 10:49:48","新北市新店區成功路43號","121.544303333333","24.901995","6500600","新店區"
"235001","611-BX","2018/08/20 10:49:45","新北市中和區中正路488-1號","121.489105","24.9943216666667","6500300","中和區"
"227005","282-VK","2018/08/20 10:49:39","新北市雙溪區泰平里溪尾寮46號","121.821393333333","24.9674883333333","6502500","雙溪區"
"237001","159-UY","2018/08/20 10:49:45","新北市三峽區中山路459巷163-1號","121.349308333333","24.9333983333333","6500900","三峽區"
