"lineid","car","time","location","longitude","latitude","cityid","cityname"
"244019","403-UM","2018/08/20 11:19:44","新北市林口區粉寮69號","121.40507","25.09084","6501700","林口區"
"231007","189-VK","2018/08/20 11:19:41","新北市新店區新潭路二段24號","121.526895","24.9262233333333","6500600","新店區"
"231008","192-VK","2018/08/20 11:19:48","新北市新店區新烏路二段300號","121.548268333333","24.9128033333333","6500600","新店區"
"235001","611-BX","2018/08/20 11:19:45","新北市樹林區佳園路三段103號","121.38785","24.9515516666667","6500300","中和區"
"224011","420-VK","2018/08/20 11:19:52","新北市平溪區新寮里五分寮10-2號","121.800156666667","25.0762116666667","6501200","瑞芳區"
"227005","282-VK","2018/08/20 11:19:39","新北市雙溪區泰平里泰平8號","121.846606666667","24.98956","6502500","雙溪區"
"237001","159-UY","2018/08/20 11:19:44","新北市三峽區中山路459巷163-1號","121.34931","24.9333966666667","6500900","三峽區"
"235025","KEA-2875","2018/08/20 11:19:46","新北市中和區員山路36巷13號","121.484165","24.9916133333333","6500300","中和區"
