"lineid","car","time","location","longitude","latitude","cityid","cityname"
"244019","403-UM","2018/08/20 11:29:44","新北市林口區粉寮69號","121.405111666667","25.0908416666667","6501700","林口區"
"231007","189-VK","2018/08/20 11:29:41","新北市新店區新潭路一段120巷16號","121.527145","24.9357616666667","6500600","新店區"
"231008","192-VK","2018/08/20 11:29:48","新北市新店區頂石厝路8號","121.540236666667","24.9195633333333","6500600","新店區"
"235001","611-BX","2018/08/20 11:29:25","新北市中和區中正路612號","121.485551666667","24.9956433333333","6500300","中和區"
"224011","420-VK","2018/08/20 11:29:52","新北市瑞芳區八分寮路12號","121.796223333333","25.088575","6501200","瑞芳區"
"227005","282-VK","2018/08/20 11:29:39","新北市雙溪區魚行里丁子蘭坑29號","121.854371666667","25.0099166666667","6502500","雙溪區"
"237001","159-UY","2018/08/20 11:29:44","新北市三峽區中山路459巷163-1號","121.349306666667","24.9334","6500900","三峽區"
"235025","KEA-2875","2018/08/20 11:29:46","新北市中和區員山路36巷13號","121.483943333333","24.9915583333333","6500300","中和區"
