"lineid","car","time","location","longitude","latitude","cityid","cityname"
"244019","403-UM","2018/08/20 11:39:44","新北市林口區粉寮69號","121.405126666667","25.0908166666667","6501700","林口區"
"231008","192-VK","2018/08/20 11:39:48","新北市新店區頂石厝路8號","121.54022","24.9195666666667","6500600","新店區"
"235029","098-UM","2018/08/20 11:39:38","新北市中和區員山路36巷16-3號","121.485093333333","24.9913633333333","6500300","中和區"
"224011","420-VK","2018/08/20 11:39:52","新北市瑞芳區中正路2號","121.809261666667","25.1069316666667","6501200","瑞芳區"
"227005","282-VK","2018/08/20 11:39:39","新北市雙溪區魚行里丁子蘭坑6號","121.871995","25.0101716666667","6502500","雙溪區"
"237001","159-UY","2018/08/20 11:39:44","新北市三峽區中山路459巷163-1號","121.349325","24.9334133333333","6500900","三峽區"
"235025","KEA-2875","2018/08/20 11:33:42","新北市中和區員山路36巷13號","121.483906666667","24.9913633333333","6500300","中和區"
