"lineid","car","time","location","longitude","latitude","cityid","cityname"
"244019","403-UM","2018/08/20 11:44:04","新北市林口區粉寮69號","121.405125","25.09082","6501700","林口區"
"231008","192-VK","2018/08/20 11:44:08","新北市新店區頂石厝路8號","121.540205","24.9195283333333","6500600","新店區"
"235029","098-UM","2018/08/20 11:44:18","新北市中和區員山路36巷16-3號","121.485068333333","24.991325","6500300","中和區"
"224011","420-VK","2018/08/20 11:44:12","新北市瑞芳區民權街3-1號","121.809276666667","25.10835","6501200","瑞芳區"
"227005","282-VK","2018/08/20 11:44:19","新北市雙溪區魚行里丁子蘭坑47號","121.865718333333","24.9999716666667","6502500","雙溪區"
"237001","159-UY","2018/08/20 11:44:25","新北市三峽區中山路459巷163-1號","121.34932","24.9334433333333","6500900","三峽區"
"235025","KEA-2875","2018/08/20 11:33:42","新北市中和區員山路36巷13號","121.483906666667","24.9913633333333","6500300","中和區"
