"lineid","car","time","location","longitude","latitude","cityid","cityname"
"244019","403-UM","2018/08/20 11:59:44","新北市林口區粉寮69號","121.405088333333","25.0908133333333","6501700","林口區"
"243008","KEA-2801","2018/08/20 11:59:01","新北市泰山區黎明路25號","121.422063333333","25.0607333333333","6501600","泰山區"
"231008","192-VK","2018/08/20 11:59:48","新北市新店區頂石厝路72號","121.535345","24.9183683333333","6500600","新店區"
"235029","098-UM","2018/08/20 11:59:38","新北市中和區員山路36巷16-3號","121.485091666667","24.9913216666667","6500300","中和區"
"224011","420-VK","2018/08/20 11:59:52","新北市瑞芳區明燈路二段66號","121.809398333333","25.1076033333333","6501200","瑞芳區"
"227005","282-VK","2018/08/20 11:58:59","新北市雙溪區魚行里丁子蘭坑7號","121.874118333333","25.008265","6502500","雙溪區"
"237001","159-UY","2018/08/20 11:59:44","新北市三峽區中山路459巷163-1號","121.349305","24.9334183333333","6500900","三峽區"
"235025","KEA-2875","2018/08/20 11:33:42","新北市中和區員山路36巷13號","121.483906666667","24.9913633333333","6500300","中和區"
