"lineid","car","time","location","longitude","latitude","cityid","cityname"
"234044","148-BY","2018/08/20 12:49:21","新北市永和區秀朗路二段148巷12弄16號","121.524786666667","25.0011966666667","6500400","永和區"
"234005","207-UY","2018/08/20 12:49:20","新北市永和區文化路32號","121.515078333333","25.0150766666667","6500400","永和區"
"234078","298-R6","2018/08/20 12:49:15","新北市永和區林森路122號","121.522596666667","25.00309","6500400","永和區"
"234036","336-UY","2018/08/20 12:49:24","新北市永和區成功路二段93號","121.526756666667","24.9992283333333","6500400","永和區"
"234062","337-UY","2018/08/20 12:49:12","新北市永和區福和路1號","121.526506666667","25.0099066666667","6500400","永和區"
"234084","338-UY","2018/08/20 12:49:25","新北市永和區中正路75號","121.51504","24.9968383333333","6500400","永和區"
"234068","552-UM","2018/08/20 12:49:28","新北市永和區竹林路159號","121.520591666667","25.0102616666667","6500400","永和區"
"234015","745-BX","2018/08/20 12:49:18","新北市永和區忠孝街26巷17號","121.515238333333","25.0167216666667","6500400","永和區"
"234028","746-BX","2018/08/20 12:49:16","新北市永和區得和路327號","121.523486666667","24.99958","6500400","永和區"
"234052","KEA-2590","2018/08/20 12:49:17","新北市永和區環河東路一段122號","121.52054","25.0155283333333","6500400","永和區"
"234012","KEA-2591","2018/08/20 12:49:13","新北市永和區仁愛路202巷26號","121.5089","25.0129733333333","6500400","永和區"
"234060","AAD-866","2018/08/20 12:49:09","新北市永和區福和路285號","121.51735","25.0074","6500400","永和區"
"234066","847-RS","2018/08/20 12:49:22","新北市永和區永貞路218-1號","121.515261666667","25.0039983333333","6500400","永和區"
"234040","862-TW","2018/08/20 12:49:16","新北市永和區永貞路267號","121.511823333333","25.0048","6500400","永和區"
"234048","863-TW","2018/08/20 12:49:11","新北市永和區保安路2號","121.510795","25.01752","6500400","永和區"
"234025","9371-KE","2018/08/20 12:49:14","新北市永和區永和路一段149-2號","121.514195","25.0092233333333","6500400","永和區"
"234010","9373-KE","2018/08/20 12:49:19","新北市永和區保福路二段158巷1號","121.509131666667","25.015065","6500400","永和區"
"248013","025-BX","2018/08/20 12:49:15","新北市五股區中興路二段83巷26-6號","121.46007","25.07528","6501500","五股區"
"248005","077-UY","2018/08/20 12:49:24","新北市五股區中興路二段83巷26-6號","121.45999","25.0749883333333","6501500","五股區"
"248019","225-UY","2018/08/20 12:49:19","新北市五股區中興路二段83巷26-6號","121.460026666667","25.07531","6501500","五股區"
"234022","9380-KE","2018/08/20 12:49:08","新北市永和區竹林路119巷45號","121.521916666667","25.011805","6500400","永和區"
"234076","969-R7","2018/08/20 12:49:24","新北市永和區中正路40號","121.512945","24.99434","6500400","永和區"
"234001","AAC-295","2018/08/20 12:49:13","新北市永和區中正路612號","121.517228333333","25.007495","6500400","永和區"
"231002","002-UM","2018/08/20 12:49:20","新北市新店區安華路28-1號","121.519693333333","24.9608233333333","6500600","新店區"
"231005","106-UY","2018/08/20 12:49:26","新北市新店區安華路28-1號","121.519591666667","24.96079","6500600","新店區"
"231010","107-UY","2018/08/20 12:49:29","新北市新店區安一路一段1-1號","121.519398333333","24.961405","6500600","新店區"
"231023","KEA-2219","2018/08/20 12:49:16","新北市新店區安一路一段1-1號","121.51995","24.96112","6500600","新店區"
"231003","268-BY","2018/08/20 12:49:17","新北市新店區安華路28-1號","121.519385","24.960635","6500600","新店區"
"231018","278-BY","2018/08/20 12:49:13","新北市新店區安華路28-1號","121.519338333333","24.9609666666667","6500600","新店區"
"231014","AAD-862","2018/08/20 12:49:19","新北市新店區安一路一段1-1號","121.51998","24.9611466666667","6500600","新店區"
"231037","4716-K9","2018/08/20 12:49:09","新北市新店區安一路一段1-1號","121.519351666667","24.96119","6500600","新店區"
"231025","4715-K9","2018/08/20 12:49:14","新北市新店區安華路28-1號","121.519371666667","24.9606166666667","6500600","新店區"
"231036","512-UM","2018/08/20 12:49:13","新北市新店區安一路一段1-1號","121.519393333333","24.96138","6500600","新店區"
"231013","513-UM","2018/08/20 12:49:17","新北市新店區安一路一段1-1號","121.519666666667","24.9612433333333","6500600","新店區"
"231035","719-UM","2018/08/20 12:49:20","新北市新店區安一路一段1-1號","121.51949","24.961155","6500600","新店區"
"231031","720-UM","2018/08/20 12:49:22","新北市新店區安一路一段1-1號","121.519246666667","24.961265","6500600","新店區"
"231029","897-TW","2018/08/20 12:49:24","新北市新店區安華路28-1號","121.519523333333","24.960625","6500600","新店區"
"231024","AKT-0513","2018/08/20 12:49:23","新北市新店區安華路28-1號","121.519475","24.9606233333333","6500600","新店區"
"235028","005-UY","2018/08/20 12:49:08","新北市中和區員山路36巷16-3號","121.485081666667","24.9913166666667","6500300","中和區"
"235027","006-UY","2018/08/20 12:49:22","新北市中和區員山路36巷16-3號","121.484928333333","24.99147","6500300","中和區"
"235029","098-UM","2018/08/20 12:49:18","新北市中和區建八路116號","121.488038333333","24.9983333333333","6500300","中和區"
"235022","151-BY","2018/08/20 12:49:27","新北市中和區員山路36巷16-2號","121.485223333333","24.9916333333333","6500300","中和區"
"235002","185-VK","2018/08/20 12:49:07","新北市中和區員山路36巷16-8號","121.485453333333","24.992465","6500300","中和區"
"235031","255-BX","2018/08/20 12:49:19","新北市中和區中山路二段568巷38號","121.482531666667","25.00688","6500300","中和區"
"235001","611-BX","2018/08/20 12:49:16","新北市中和區中山路三段8號","121.479505","25.0061266666667","6500300","中和區"
"224011","420-VK","2018/08/20 12:49:12","新北市瑞芳區明燈路二段66號","121.809291666667","25.10754","6501200","瑞芳區"
"207002","749-BX","2018/08/20 12:49:28","新北市萬里區雙興里二坪路30號","121.647108333333","25.16865","6502800","萬里區"
"207001","662-BX","2018/08/20 12:49:10","新北市萬里區萬里里瑪鋉下街2號","121.69114","25.1781033333333","6502800","萬里區"
"237001","159-UY","2018/08/20 12:49:25","新北市鶯歌區中正一路481號","121.37333","24.9597316666667","6500900","三峽區"
"236005","498-BY","2018/08/20 12:49:24","新北市土城區永寧路57-1號","121.429105","24.96005","6501300","土城區"
"221010","269-BY","2018/08/20 12:49:26","新北市汐止區忠三街8號","121.624725","25.0784716666667","6501100","汐止區"
