"lineid","car","time","location","longitude","latitude","cityid","cityname"
"234044","148-BY","2018/08/20 13:09:21","新北市永和區永元路18巷31號","121.523801666667","25.0002066666667","6500400","永和區"
"234005","207-UY","2018/08/20 13:09:00","新北市永和區中山路一段147號","121.510216666667","25.0095233333333","6500400","永和區"
"234078","298-R6","2018/08/20 13:09:10","新北市永和區福和路57巷14弄1號","121.522773333333","25.0070333333333","6500400","永和區"
"234036","336-UY","2018/08/20 13:09:23","新北市永和區民樂街69巷1號","121.527428333333","24.9977233333333","6500400","永和區"
"234062","337-UY","2018/08/20 13:09:12","新北市永和區秀朗路二段15號","121.52102","25.0027633333333","6500400","永和區"
"234084","338-UY","2018/08/20 13:09:25","新北市永和區永貞路47-1號","121.519588333333","25.004535","6500400","永和區"
"234068","552-UM","2018/08/20 13:09:11","新北市永和區豫溪街95巷8號","121.518291666667","25.0107983333333","6500400","永和區"
"234015","745-BX","2018/08/20 13:09:18","新北市永和區文化路90巷15弄3號","121.51367","25.0159883333333","6500400","永和區"
"234028","746-BX","2018/08/20 13:09:26","新北市永和區四維街121號","121.523181666667","24.99829","6500400","永和區"
"234052","KEA-2590","2018/08/20 13:09:25","新北市永和區中興街133巷8號","121.518746666667","25.01276","6500400","永和區"
"234012","KEA-2591","2018/08/20 13:09:13","新北市永和區保福路二段45號","121.510933333333","25.0117333333333","6500400","永和區"
"234060","AAD-866","2018/08/20 13:09:29","新北市永和區安樂路447號","121.51436","25.0049183333333","6500400","永和區"
"234066","847-RS","2018/08/20 13:09:22","新北市永和區永和路一段65巷2號","121.512826666667","25.0072533333333","6500400","永和區"
"234040","862-TW","2018/08/20 13:09:16","新北市永和區保平路59號","121.511665","25.0068083333333","6500400","永和區"
"234048","863-TW","2018/08/20 13:09:11","新北市永和區仁愛路104巷7弄54號","121.511061666667","25.0143383333333","6500400","永和區"
"234025","9371-KE","2018/08/20 13:09:14","新北市永和區秀朗路一段10巷19號","121.513466666667","25.006145","6500400","永和區"
"234010","9373-KE","2018/08/20 13:09:19","新北市永和區仁愛路24號","121.514723333333","25.0135933333333","6500400","永和區"
"248013","025-BX","2018/08/20 13:09:15","新北市五股區成泰路一段158號","121.435066666667","25.076535","6501500","五股區"
"248015","026-BX","2018/08/20 13:09:20","新北市五股區新五路三段2號","121.444416666667","25.088025","6501500","五股區"
"248005","077-UY","2018/08/20 13:09:24","新北市五股區中興路二段82號","121.460856666667","25.0773233333333","6501500","五股區"
"248007","095-VK","2018/08/20 13:09:20","新北市五股區更洲路32巷15弄9號","121.45818","25.0805333333333","6501500","五股區"
"248019","225-UY","2018/08/20 13:09:19","新北市五股區成泰路三段544-1號","121.454463333333","25.1024816666667","6501500","五股區"
"248003","677-BX","2018/08/20 13:09:26","新北市五股區成泰路二段128號","121.438038333333","25.08359","6501500","五股區"
"248001","678-BX","2018/08/20 13:09:20","新北市五股區成泰路三段51-1號","121.442728333333","25.0895333333333","6501500","五股區"
"248009","682-TV","2018/08/20 13:09:24","新北市五股區中興路四段17號","121.440173333333","25.0822033333333","6501500","五股區"
"234022","9380-KE","2018/08/20 13:09:28","新北市永和區竹林路124巷40號","121.517845","25.0111666666667","6500400","永和區"
"234076","969-R7","2018/08/20 13:09:14","新北市永和區中正路166號","121.51518","24.996495","6500400","永和區"
"234072","AAC-211","2018/08/20 13:09:21","新北市永和區福和路170號","121.521205","25.00784","6500400","永和區"
"234001","AAC-295","2018/08/20 13:09:13","新北市永和區中山路一段149號","121.510156666667","25.0094766666667","6500400","永和區"
"244001","248-BX","2018/08/20 13:09:25","新北市林口區嘉溪雅坑6-1號","121.342095","25.1055983333333","6501700","林口區"
"243005","AAD-798","2018/08/20 13:09:10","新北市泰山區南林路99巷21號","121.417731666667","25.04974","6501600","泰山區"
"231002","002-UM","2018/08/20 13:09:20","新北市新店區安華路28-1號","121.519725","24.9607983333333","6500600","新店區"
"231027","0291-UT","2018/08/20 13:09:25","新北市新店區安華路1-1號","121.519291666667","24.9605616666667","6500600","新店區"
"231028","046-UY","2018/08/20 13:09:17","新北市新店區安華路28-1號","121.51956","24.9608116666667","6500600","新店區"
"231005","106-UY","2018/08/20 13:09:26","新北市新店區安華路28-1號","121.519698333333","24.9607633333333","6500600","新店區"
"231010","107-UY","2018/08/20 13:09:08","新北市新店區安一路一段1-1號","121.51941","24.9612716666667","6500600","新店區"
"231019","108-UY","2018/08/20 13:09:14","新北市新店區安華路28-1號","121.519561666667","24.9609266666667","6500600","新店區"
"231011","187-VK","2018/08/20 13:09:18","新北市新店區安一路一段1-1號","121.519563333333","24.9613133333333","6500600","新店區"
"231023","KEA-2219","2018/08/20 13:09:16","新北市新店區安一路一段1-1號","121.519901666667","24.9611233333333","6500600","新店區"
"231026","256-BX","2018/08/20 13:09:12","新北市新店區安一路一段1-1號","121.519661666667","24.961165","6500600","新店區"
"231003","268-BY","2018/08/20 13:09:17","新北市新店區安華路28-1號","121.519406666667","24.9606516666667","6500600","新店區"
"231018","278-BY","2018/08/20 13:09:13","新北市新店區安一路一段1-1號","121.519881666667","24.961155","6500600","新店區"
"231014","AAD-862","2018/08/20 13:09:19","新北市新店區安一路一段1-1號","121.519916666667","24.9612666666667","6500600","新店區"
"231001","355-BY","2018/08/20 13:09:15","新北市新店區安一路一段1-1號","121.519095","24.961","6500600","新店區"
"231037","4716-K9","2018/08/20 13:09:09","新北市新店區安華路28-1號","121.519651666667","24.9609933333333","6500600","新店區"
"231025","4715-K9","2018/08/20 13:09:14","新北市新店區安華路28-1號","121.519328333333","24.9605933333333","6500600","新店區"
"231036","512-UM","2018/08/20 13:09:11","新北市新店區安一路一段1-1號","121.519525","24.9612583333333","6500600","新店區"
"231013","513-UM","2018/08/20 13:09:17","新北市新店區安一路一段1-1號","121.51965","24.96115","6500600","新店區"
"231006","617-UM","2018/08/20 13:09:13","新北市新店區安一路一段1-1號","121.5193","24.96153","6500600","新店區"
"231030","619-UM","2018/08/20 13:09:14","新北市新店區安一路一段1-1號","121.519615","24.9610383333333","6500600","新店區"
"231034","641-BX","2018/08/20 13:09:01","新北市新店區安華路28-1號","121.519518333333","24.9606133333333","6500600","新店區"
"231035","719-UM","2018/08/20 13:09:15","新北市新店區安一路一段1-1號","121.519526666667","24.961245","6500600","新店區"
"231031","720-UM","2018/08/20 13:09:22","新北市新店區安一路一段1-1號","121.519326666667","24.9612616666667","6500600","新店區"
"231029","897-TW","2018/08/20 13:09:24","新北市新店區安華路28-1號","121.519621666667","24.9608516666667","6500600","新店區"
"231004","899-TW","2018/08/20 13:09:19","新北市新店區安華路28-1號","121.519351666667","24.96091","6500600","新店區"
"231024","AKT-0513","2018/08/20 13:09:23","新北市新店區安華路28-1號","121.519626666667","24.9606816666667","6500600","新店區"
"235030","003-UY","2018/08/20 13:09:26","新北市中和區連勝街2號","121.499145","24.9986833333333","6500300","中和區"
"235028","005-UY","2018/08/20 13:09:28","新北市中和區中正路273號","121.495561666667","24.993795","6500300","中和區"
"235027","006-UY","2018/08/20 13:09:22","新北市中和區員山路36巷16-3號","121.484928333333","24.9915116666667","6500300","中和區"
"235020","096-UM","2018/08/20 13:09:25","新北市中和區員山路36巷13號","121.484261666667","24.9915716666667","6500300","中和區"
"235003","097-UM","2018/08/20 13:09:20","新北市中和區錦和路350-1號","121.490563333333","24.99357","6500300","中和區"
"235029","098-UM","2018/08/20 13:09:22","新北市中和區中山路二段64巷24號","121.502968333333","25.005965","6500300","中和區"
"235004","150-BY","2018/08/20 13:09:24","新北市中和區和城路一段271巷1號","121.485411666667","24.9917666666667","6500300","中和區"
"235022","151-BY","2018/08/20 13:09:07","新北市中和區圓通路367巷55弄2號","121.492048333333","24.9839116666667","6500300","中和區"
"235019","183-VK","2018/08/20 13:09:25","新北市中和區員山路36巷16-3號","121.48501","24.9914383333333","6500300","中和區"
"235002","185-VK","2018/08/20 13:09:07","新北市中和區自立路33號","121.52216","24.9954916666667","6500300","中和區"
"235031","255-BX","2018/08/20 13:09:19","新北市中和區中正路751巷14弄13號","121.484076666667","25.00018","6500300","中和區"
"235006","KEA-2878","2018/08/20 13:09:24","新北市中和區景平路159巷35弄11號","121.513276666667","24.9911183333333","6500300","中和區"
"235014","4979-A6","2018/08/20 13:09:25","新北市中和區員山路36巷16-2號","121.48531","24.9916816666667","6500300","中和區"
"235034","558-UM","2018/08/20 13:09:24","新北市中和區圓通路172號","121.497246666667","24.9945466666667","6500300","中和區"
"235009","565-BX","2018/08/20 13:09:07","新北市中和區員山路36巷13號","121.484193333333","24.9910166666667","6500300","中和區"
"235018","640-BX","2018/08/20 13:09:29","新北市土城區金城路三段257號","121.471815","24.9900516666667","6500300","中和區"
"235011","732-UM","2018/08/20 13:09:19","新北市中和區錦和路350-1號","121.490561666667","24.9935983333333","6500300","中和區"
"235035","783-BX","2018/08/20 13:09:17","新北市中和區板南路520巷1號","121.484038333333","25.0088216666667","6500300","中和區"
"235026","800-TS","2018/08/20 13:09:25","新北市中和區建八路119號","121.48929","24.998755","6500300","中和區"
"235021","801-TS","2018/08/20 13:09:11","新北市中和區員山路36巷16-3號","121.48495","24.991645","6500300","中和區"
"235005","802-TS","2018/08/20 13:09:13","新北市中和區錦和路350-1號","121.490008333333","24.993545","6500300","中和區"
"235016","805-TS","2018/08/20 13:09:22","新北市中和區中正路13號","121.503013333333","24.9933583333333","6500300","中和區"
"235017","900-TW","2018/08/20 13:09:16","新北市中和區員山路36巷16-3號","121.484776666667","24.9915066666667","6500300","中和區"
"235015","157-BY","2018/08/20 13:09:29","新北市中和區板南路168號","121.501396666667","24.9927533333333","6500300","中和區"
"224011","420-VK","2018/08/20 13:09:12","新北市瑞芳區傑魚坑路319-1號","121.785678333333","25.1035866666667","6501200","瑞芳區"
"253003","6232-TK","2018/08/20 13:09:21","新北市石門區石崩山24號","121.564233333333","25.2800983333333","6502200","石門區"
"253001","6251-TK","2018/08/20 13:09:09","新北市石門區老梅路7號","121.544171666667","25.2897483333333","6502200","石門區"
"253002","637-UY","2018/08/20 13:09:10","新北市石門區九芎林2號","121.555491666667","25.2741816666667","6502200","石門區"
"253004","8270-PC","2018/08/20 13:09:18","新北市石門區阿里荖4-2號","121.613906666667","25.27868","6502200","石門區"
"207002","749-BX","2018/08/20 13:09:28","新北市萬里區溪底里香員林路7號","121.632666666667","25.1648066666667","6502800","萬里區"
"252005","073-UM","2018/08/20 13:09:14","新北市三芝區八賢里八連溪1號","121.50873","25.24696","6502100","三芝區"
"207001","662-BX","2018/08/20 13:09:10","新北市萬里區萬里里瑪鋉下街2號","121.691103333333","25.17817","6502800","萬里區"
"237001","159-UY","2018/08/20 13:09:25","新北市鶯歌區文化路145巷7-1號","121.357526666667","24.9538383333333","6500900","三峽區"
"236005","498-BY","2018/08/20 13:09:24","新北市土城區永寧路23號","121.43043","24.9638083333333","6501300","土城區"
"221015","131-UY","2018/08/20 13:09:08","新北市汐止區瑞松街47巷17號","121.645285","25.1080416666667","6501100","汐止區"
"221010","269-BY","2018/08/20 13:09:26","新北市汐止區忠三街8號","121.624791666667","25.078515","6501100","汐止區"
"220005","686-BX","2018/08/20 13:09:23","新北市板橋區華東街1-9號","121.448205","24.9949133333333","6500100","板橋區"
"235032","KEA-2873","2018/08/20 13:09:22","新北市中和區員山路36巷16-3號","121.484971666667","24.991245","6500300","中和區"
"235025","KEA-2875","2018/08/20 13:09:01","新北市土城區金城路三段216號","121.472221666667","24.9901833333333","6500300","中和區"
