"lineid","car","time","location","longitude","latitude","cityid","cityname"
"234044","148-BY","2018/08/20 14:09:21","新北市永和區得和路342號","121.523638333333","24.9994233333333","6500400","永和區"
"234005","207-UY","2018/08/20 14:09:20","新北市中和區中和路250號","121.50737","24.99947","6500400","永和區"
"234078","298-R6","2018/08/20 14:09:30","新北市永和區國中路53號","121.524543333333","25.0061116666667","6500400","永和區"
"234036","336-UY","2018/08/20 14:09:28","新北市永和區成功路一段47巷21弄1號","121.52787","25.00387","6500400","永和區"
"234062","337-UY","2018/08/20 14:09:12","新北市永和區永利路156號","121.522543333333","25.0027283333333","6500400","永和區"
"234084","338-UY","2018/08/20 14:09:25","新北市永和區中正路632號","121.51694","25.0081","6500400","永和區"
"234068","552-UM","2018/08/20 14:09:28","新北市永和區中正路638號","121.51708","25.0082216666667","6500400","永和區"
"234015","745-BX","2018/08/20 14:09:18","新北市永和區仁愛路19號","121.514608333333","25.0133933333333","6500400","永和區"
"234028","746-BX","2018/08/20 14:09:16","新北市永和區民生路22巷31號","121.520966666667","24.996885","6500400","永和區"
"234052","KEA-2590","2018/08/20 14:09:17","新北市永和區環河東路一段106號","121.520038333333","25.0161","6500400","永和區"
"234012","KEA-2591","2018/08/20 14:09:23","新北市永和區永貞路393號","121.50785","25.0088266666667","6500400","永和區"
"234060","AAD-866","2018/08/20 14:09:09","新北市永和區安樂路100巷11號","121.51445","24.9991933333333","6500400","永和區"
"234066","847-RS","2018/08/20 14:09:22","新北市永和區保平路236巷12弄2號","121.5086","25.006305","6500400","永和區"
"234040","862-TW","2018/08/20 14:09:19","新北市永和區雙和街64巷8號","121.50934","25.003365","6500400","永和區"
"234048","863-TW","2018/08/20 14:09:31","新北市永和區環河西路二段61號","121.507031666667","25.0153083333333","6500400","永和區"
"234025","9371-KE","2018/08/20 14:09:14","新北市永和區安樂路272巷9弄7號","121.515096666667","25.0046216666667","6500400","永和區"
"234010","9373-KE","2018/08/20 14:09:19","新北市永和區仁愛路352巷122弄11號","121.500676666667","25.0088666666667","6500400","永和區"
"248015","026-BX","2018/08/20 14:09:19","新北市五股區成泰路三段543巷56號","121.449568333333","25.1030766666667","6501500","五股區"
"248007","095-VK","2018/08/20 14:09:20","新北市五股區中興路一段164-1號","121.464116666667","25.0739783333333","6501500","五股區"
"248019","225-UY","2018/08/20 14:03:22","新北市五股區凌雲路三段57號","121.425271666667","25.1250316666667","6501500","五股區"
"248011","247-BX","2018/08/20 14:09:17","新北市五股區工商路36巷18號","121.439831666667","25.0843016666667","6501500","五股區"
"248003","677-BX","2018/08/20 14:09:26","新北市五股區民義路一段158號","121.433028333333","25.087585","6501500","五股區"
"248001","678-BX","2018/08/20 14:09:13","新北市五股區成泰路三段577巷81號","121.44966","25.1037383333333","6501500","五股區"
"248009","682-TV","2018/08/20 14:09:24","新北市五股區水碓一路23號","121.43061","25.0713066666667","6501500","五股區"
"234022","9380-KE","2018/08/20 14:09:08","新北市永和區博愛街32巷17-1號","121.518881666667","25.0152466666667","6500400","永和區"
"234076","969-R7","2018/08/20 14:09:15","新北市永和區民族街81巷60號","121.52011","24.99637","6500400","永和區"
"234072","AAC-211","2018/08/20 14:09:21","新北市永和區竹林路201巷22弄4號","121.522326666667","25.0092683333333","6500400","永和區"
"234001","AAC-295","2018/08/20 14:09:13","新北市永和區和平街2號","121.514216666667","25.00995","6500400","永和區"
"243005","AAD-798","2018/08/20 14:09:14","新北市泰山區台麗街13巷1號","121.424541666667","25.0382433333333","6501600","泰山區"
"243001","297-R6","2018/08/20 14:09:25","新北市泰山區楓樹街15巷13號","121.434696666667","25.0630066666667","6501600","泰山區"
"243008","KEA-2801","2018/08/20 14:09:21","新北市泰山區明志路二段341號","121.425565","25.0447116666667","6501600","泰山區"
"243007","421-VK","2018/08/20 14:09:26","新北市泰山區明志路二段6號","121.429935","25.0539116666667","6501600","泰山區"
"243003","KEA-2215","2018/08/20 14:09:15","新北市泰山區明志路二段318號","121.426133333333","25.0460683333333","6501600","泰山區"
"243002","KEA-2216","2018/08/20 14:09:15","新北市泰山區明志路一段483巷1弄2號","121.431198333333","25.0552983333333","6501600","泰山區"
"243004","646-TV","2018/08/20 14:09:27","新北市泰山區辭修路36巷8弄1號","121.42787","25.0585216666667","6501600","泰山區"
"243006","680-BX","2018/08/20 14:09:16","新北市泰山區泰林路二段480號","121.425036666667","25.064115","6501600","泰山區"
"231002","002-UM","2018/08/20 14:09:29","新北市新店區中正路547號","121.533758333333","24.9877466666667","6500600","新店區"
"231027","0291-UT","2018/08/20 14:09:25","新北市新店區光明街35號","121.538573333333","24.9596916666667","6500600","新店區"
"231028","046-UY","2018/08/20 14:09:06","新北市新店區安和路三段77號","121.518016666667","24.98363","6500600","新店區"
"231005","106-UY","2018/08/20 14:09:26","新北市新店區中興路三段297號","121.542171666667","24.985165","6500600","新店區"
"231019","108-UY","2018/08/20 14:09:14","新北市新店區自強路99號","121.546268333333","24.9235666666667","6500600","新店區"
"231011","187-VK","2018/08/20 14:09:18","新北市新店區五峰路109號","121.545245","24.96683","6500600","新店區"
"231023","KEA-2219","2018/08/20 14:09:16","新北市新店區文中路45號","121.539496666667","24.95672","6500600","新店區"
"231003","268-BY","2018/08/20 14:09:17","新北市新店區中興路一段56號","121.539173333333","24.9594333333333","6500600","新店區"
"231018","278-BY","2018/08/20 14:09:13","新北市新店區中央五街46號","121.528171666667","24.9751716666667","6500600","新店區"
"231014","AAD-862","2018/08/20 14:09:09","新北市新店區北宜路二段392巷1號","121.56595","24.9532583333333","6500600","新店區"
"231001","355-BY","2018/08/20 14:09:15","新北市新店區中華路83號","121.539523333333","24.9685566666667","6500600","新店區"
"231038","3712-VJ","2018/08/20 14:09:14","新北市新店區安康路一段104號","121.527351666667","24.96241","6500600","新店區"
"231037","4716-K9","2018/08/20 14:09:09","新北市新店區安康路三段226號","121.488238333333","24.9518116666667","6500600","新店區"
"231025","4715-K9","2018/08/20 14:09:14","新北市新店區中正路302巷10號","121.537928333333","24.975065","6500600","新店區"
"231036","512-UM","2018/08/20 14:09:11","新北市新店區安祥路108巷35號","121.47504","24.957135","6500600","新店區"
"231013","513-UM","2018/08/20 14:09:17","新北市新店區北新路3段65巷34弄29-1號","121.540066666667","24.9820883333333","6500600","新店區"
"231006","617-UM","2018/08/20 14:09:24","新北市新店區北宜路二段126號","121.556863333333","24.9538416666667","6500600","新店區"
"231030","619-UM","2018/08/20 14:09:18","新北市新店區安興路7號","121.515053333333","24.9682416666667","6500600","新店區"
"231034","641-BX","2018/08/20 14:09:21","新北市新店區車子路11號","121.503065","24.9519116666667","6500600","新店區"
"231035","719-UM","2018/08/20 14:09:15","新北市新店區安和路一段52巷2號","121.517605","24.9662133333333","6500600","新店區"
"231031","720-UM","2018/08/20 14:09:22","新北市新店區永業路23號","121.533198333333","24.9556616666667","6500600","新店區"
"231029","897-TW","2018/08/20 14:09:23","新北市新店區安康路二段156號","121.512256666667","24.9608666666667","6500600","新店區"
"231004","899-TW","2018/08/20 14:09:19","新北市新店區北新路二段158號","121.543095","24.9755783333333","6500600","新店區"
"235030","003-UY","2018/08/20 14:09:26","新北市中和區廣福路112號","121.502188333333","25.0011416666667","6500300","中和區"
"235028","005-UY","2018/08/20 14:09:28","新北市中和區連城路45號","121.498231666667","25.00188","6500300","中和區"
"235027","006-UY","2018/08/20 14:09:22","新北市中和區連城路249巷5號","121.493713333333","24.99678","6500300","中和區"
"235020","096-UM","2018/08/20 14:09:25","新北市中和區員山路562號","121.47909","25.0105366666667","6500300","中和區"
"235003","097-UM","2018/08/20 14:09:20","新北市中和區秀峰街56號","121.520935","24.9903816666667","6500300","中和區"
"235029","098-UM","2018/08/20 14:09:18","新北市中和區中山路二段64巷12弄17號","121.504275","25.0056883333333","6500300","中和區"
"235004","150-BY","2018/08/20 14:09:24","新北市中和區保健路44巷14號","121.509056666667","24.9967783333333","6500300","中和區"
"235022","151-BY","2018/08/20 14:09:27","新北市中和區員山路104號","121.48109","24.9954666666667","6500300","中和區"
"235019","183-VK","2018/08/20 14:09:24","新北市中和區德光路119-1號","121.46801","25.0031266666667","6500300","中和區"
"235002","185-VK","2018/08/20 14:09:27","新北市中和區大仁街10巷27弄6號","121.519226666667","24.992775","6500300","中和區"
"235013","186-VK","2018/08/20 14:09:11","新北市中和區景新街175號","121.506766666667","24.9953933333333","6500300","中和區"
"235031","255-BX","2018/08/20 14:09:18","新北市中和區中正路711號","121.484551666667","24.99853","6500300","中和區"
"235008","293-VK","2018/08/20 14:09:19","新北市中和區復興路327巷6號","121.500813333333","24.9897716666667","6500300","中和區"
"235036","301-VK","2018/08/20 14:09:17","新北市中和區中山路二段170號","121.501273333333","25.0027733333333","6500300","中和區"
"235007","352-BY","2018/08/20 14:09:09","新北市中和區景平路100-3號","121.520038333333","24.991435","6500300","中和區"
"235006","KEA-2878","2018/08/20 14:09:24","新北市中和區自立路16巷2號","121.521648333333","24.9937266666667","6500300","中和區"
"247009","KEA-2869","2018/08/20 14:09:10","新北市蘆洲區三民路52號","121.475411666667","25.0835466666667","6501400","蘆洲區"
"235014","4979-A6","2018/08/20 14:09:24","新北市中和區復興路249巷11弄3號","121.503495","24.9896883333333","6500300","中和區"
"235033","4980-A6","2018/08/20 14:09:18","新北市中和區中和路165巷18號","121.50332","25.0004833333333","6500300","中和區"
"235034","558-UM","2018/08/20 14:09:24","新北市中和區中和路51號","121.500375","25.0011916666667","6500300","中和區"
"235009","565-BX","2018/08/20 14:09:27","新北市中和區景新街467巷15弄11號","121.513743333333","24.9886966666667","6500300","中和區"
"235018","640-BX","2018/08/20 14:09:09","新北市中和區國光街107巷4弄6號","121.470291666667","24.9995383333333","6500300","中和區"
"235024","647-TV","2018/08/20 14:09:17","新北市中和區中山路三段105號","121.475065","25.006","6500300","中和區"
"235011","732-UM","2018/08/20 14:09:19","新北市中和區興南路一段94號","121.509866666667","24.98912","6500300","中和區"
"235010","733-UM","2018/08/20 14:09:28","新北市中和區忠孝街1巷10號","121.508761666667","24.9835216666667","6500300","中和區"
"235035","783-BX","2018/08/20 14:09:17","新北市中和區中正路776號","121.4852","25.0003016666667","6500300","中和區"
"235026","800-TS","2018/08/20 14:09:25","新北市中和區中山路二段380巷2號","121.490973333333","25.0043316666667","6500300","中和區"
"235021","801-TS","2018/08/20 14:09:11","新北市中和區民利街50號","121.47931","24.9988033333333","6500300","中和區"
"235005","802-TS","2018/08/20 14:09:13","新北市中和區中安街90號","121.512213333333","25.0011916666667","6500300","中和區"
"235016","805-TS","2018/08/20 14:09:22","新北市中和區興南路二段114巷21弄1號","121.50366","24.9843733333333","6500300","中和區"
"235012","896-TW","2018/08/20 14:09:26","新北市中和區華新街143巷71弄13號","121.508333333333","24.97888","6500300","中和區"
"235017","900-TW","2018/08/20 14:09:16","新北市中和區民德路274號","121.46763","24.99647","6500300","中和區"
"235015","157-BY","2018/08/20 14:09:29","新北市中和區和平街2巷2弄2號","121.510275","24.9901616666667","6500300","中和區"
"235001","AAC-213","2018/08/20 14:09:13","新北市中和區秀朗路三段60巷42號","121.524938333333","24.9949333333333","6500300","中和區"
"235023","AAC-215","2018/08/20 14:09:09","新北市中和區圓通路294巷1號","121.488875","24.9894733333333","6500300","中和區"
"220013","072-UY","2018/08/20 14:09:28","新北市板橋區民族路219巷9號","121.469275","25.0079516666667","6500100","板橋區"
"220034","073-UY","2018/08/20 14:09:25","新北市板橋區中正路216巷22號","121.456771666667","25.0186983333333","6500100","板橋區"
"220105","075-UY","2018/08/20 14:09:29","新北市板橋區雙十路三段10巷11號","121.472178333333","25.03094","6500100","板橋區"
"220017","AAD-861","2018/08/20 14:09:13","新北市板橋區貴興路5號","121.457785","25.0044466666667","6500100","板橋區"
"247023","893-R6","2018/08/20 14:09:16","新北市蘆洲區光榮路88號","121.463561666667","25.0888933333333","6501400","蘆洲區"
"247013","546-UM","2018/08/20 14:09:23","新北市蘆洲區忠孝路37號","121.471391666667","25.085795","6501400","蘆洲區"
"247021","500-BY","2018/08/20 14:09:29","新北市蘆洲區三民路213號","121.470121666667","25.0879783333333","6501400","蘆洲區"
"247011","339-TH","2018/08/20 14:09:28","新北市蘆洲區信義路337號","121.477693333333","25.0869983333333","6501400","蘆洲區"
"247003","337-TH","2018/08/20 14:09:16","新北市蘆洲區長安街102巷51-1號","121.462325","25.0819383333333","6501400","蘆洲區"
"247005","336-TH","2018/08/20 14:09:28","新北市蘆洲區九芎街61號","121.467041666667","25.0788983333333","6501400","蘆洲區"
"247017","057-VK","2018/08/20 14:09:24","新北市蘆洲區民族路227巷29號","121.476405","25.0887116666667","6501400","蘆洲區"
"247007","056-VK","2018/08/20 14:09:14","新北市五股區國道路三段17號","121.468783333333","25.0752016666667","6501400","蘆洲區"
"247015","007-UY","2018/08/20 14:09:24","新北市蘆洲區光華路46巷34號","121.467948333333","25.0841516666667","6501400","蘆洲區"
"247001","002-UY","2018/08/20 14:09:16","新北市蘆洲區永平街45號","121.458033333333","25.091215","6501400","蘆洲區"
"247019","001-UY","2018/08/20 14:09:22","新北市蘆洲區民族路426巷40弄3號","121.473143333333","25.0932183333333","6501400","蘆洲區"
"253003","6232-TK","2018/08/20 14:09:21","新北市石門區尖子鹿54-2號","121.581961666667","25.2735416666667","6502200","石門區"
"253001","6251-TK","2018/08/20 14:09:29","新北市石門區八甲73-1號","121.531106666667","25.2689783333333","6502200","石門區"
"253002","637-UY","2018/08/20 14:09:10","新北市石門區七股30號","121.551778333333","25.263935","6502200","石門區"
"253004","8270-PC","2018/08/20 14:09:18","新北市石門區坪林40號","121.590121666667","25.2617033333333","6502200","石門區"
"207002","749-BX","2018/08/20 14:09:28","新北市萬里區溪底里溪底路11號","121.612418333333","25.146675","6502800","萬里區"
"252005","073-UM","2018/08/20 14:09:14","新北市三芝區橫山里橫山57-2號","121.535325","25.2536283333333","6502100","三芝區"
"207001","662-BX","2018/08/20 14:09:30","新北市萬里區磺潭里清水18號","121.638061666667","25.1980183333333","6502800","萬里區"
"237001","159-UY","2018/08/20 14:09:24","新北市三峽區中山路365號","121.358695","24.9371266666667","6500900","三峽區"
"236064","105-UM","2018/08/20 14:09:10","新北市土城區明德路一段295號","121.460018333333","24.9772466666667","6501300","土城區"
"236040","107-UM","2018/08/20 14:09:19","新北市土城區城林路6巷80號","121.438625","24.9797116666667","6501300","土城區"
"236074","166-UM","2018/08/20 14:09:14","新北市土城區永寧路32巷36號","121.42823","24.960855","6501300","土城區"
"236029","253-BX","2018/08/20 14:09:18","新北市土城區城林路6巷80號","121.438541666667","24.9798066666667","6501300","土城區"
"236024","269-VK","2018/08/20 14:09:11","新北市土城區承天路18號","121.439473333333","24.9634616666667","6501300","土城區"
"236012","270-VK","2018/08/20 14:09:16","新北市土城區中央路二段61巷40號","121.443775","24.9784833333333","6501300","土城區"
"236032","271-VK","2018/08/20 14:09:13","新北市土城區中正路76號","121.44465","24.9755266666667","6501300","土城區"
"236005","KEA-2877","2018/08/20 14:09:22","新北市土城區員福街6號","121.441865","24.97845","6501300","土城區"
"236016","401-BY","2018/08/20 14:09:16","新北市土城區城林路6巷80號","121.438478333333","24.979765","6501300","土城區"
"236057","912-UM","2018/08/20 14:09:13","新北市土城區中央路四段196-1號","121.416303333333","24.9576716666667","6501300","土城區"
"236045","913-UM","2018/08/20 14:09:11","新北市土城區明德路一段365-1號","121.453566666667","24.9790433333333","6501300","土城區"
"236060","915-UM","2018/08/20 14:09:16","新北市土城區金城路二段208號","121.45525","24.9820583333333","6501300","土城區"
"236054","AAC-216","2018/08/20 14:09:19","新北市土城區城林路6巷80號","121.438578333333","24.979755","6501300","土城區"
"239001","417-VK","2018/08/20 14:09:24","桃園市龜山區明興街271巷12號","121.333633333333","24.981575","6500800","鶯歌區"
"221015","131-UY","2018/08/20 14:09:08","新北市汐止區南陽街2號","121.62408","25.0663566666667","6501100","汐止區"
"221010","269-BY","2018/08/20 14:09:26","新北市汐止區長青路210巷81號","121.616061666667","25.1152983333333","6501100","汐止區"
"220027","145-BY","2018/08/20 14:09:30","新北市板橋區民權路202巷9弄29號","121.459395","25.015685","6500100","板橋區"
"220028","200-UY","2018/08/20 14:09:24","新北市板橋區大觀路二段19巷37號","121.44803","25.0031083333333","6500100","板橋區"
"220030","610-BX","2018/08/20 14:09:10","新北市樹林區博愛街55號","121.427778333333","24.99177","6500100","板橋區"
"220050","245-BX","2018/08/20 14:09:22","新北市板橋區萬板路51號","121.471228333333","25.0215116666667","6500100","板橋區"
"220040","267-BY","2018/08/20 14:09:23","新北市板橋區縣民大道三段247巷6號","121.481676666667","25.0262516666667","6500100","板橋區"
"220004","276-BY","2018/08/20 14:09:17","新北市板橋區信義路74巷2弄1號","121.457055","24.9931283333333","6500100","板橋區"
"220020","277-BY","2018/08/20 14:09:26","新北市板橋區金門街369巷99號","121.428268333333","24.981595","6500100","板橋區"
"220019","283-VK","2018/08/20 14:09:22","新北市板橋區大豐街23號","121.462168333333","25.0013966666667","6500100","板橋區"
"220043","285-UM","2018/08/20 14:09:08","新北市板橋區光武街161號","121.465373333333","25.029775","6500100","板橋區"
"220001","285-VK","2018/08/20 14:09:24","新北市板橋區懷仁街10巷26號","121.474985","25.01956","6500100","板橋區"
"220031","286-VK","2018/08/20 14:09:27","新北市板橋區大觀路二段174巷165弄16號","121.44134","25.0034916666667","6500100","板橋區"
"220029","287-VK","2018/08/20 14:09:12","新北市板橋區南雅西路二段203號","121.451696666667","25.0134266666667","6500100","板橋區"
"220039","288-VK","2018/08/20 14:09:18","新北市板橋區裕民街45巷4號","121.461526666667","25.0283783333333","6500100","板橋區"
"220009","293-UM","2018/08/20 14:09:24","新北市板橋區三民路二段21巷2號","121.479698333333","25.0181766666667","6500100","板橋區"
"220032","296-UM","2018/08/20 14:09:24","新北市板橋區溪崑一街30巷16-3號","121.429605","24.991225","6500100","板橋區"
"220041","299-UM","2018/08/20 14:09:22","新北市板橋區文化路二段225巷60弄16號","121.469218333333","25.0288416666667","6500100","板橋區"
"220023","303-R5","2018/08/20 14:09:01","新北市板橋區西門街42號","121.454413333333","25.009585","6500100","板橋區"
"220010","305-R5","2018/08/20 14:09:21","新北市板橋區三民路二段居仁巷1弄22號","121.479868333333","25.01355","6500100","板橋區"
"220047","317-R6","2018/08/20 14:09:30","新北市板橋區自由路51巷4號","121.465245","25.02357","6500100","板橋區"
"220012","486-VK","2018/08/20 14:09:23","新北市板橋區板新路1號","121.475701666667","25.01229","6500100","板橋區"
"220037","491-VK","2018/08/20 14:09:12","新北市板橋區文化路二段182巷5弄13-2號","121.472038333333","25.02755","6500100","板橋區"
"220104","560-BX","2018/08/20 14:09:25","新北市板橋區中正路399巷13弄8號","121.45316","25.022335","6500100","板橋區"
"220052","561-BX","2018/08/20 14:09:19","新北市板橋區文化路一段188巷7弄38號","121.468108333333","25.0193866666667","6500100","板橋區"
"220011","609-BX","2018/08/20 14:09:25","新北市板橋區三民路二段33號","121.479496666667","25.0176883333333","6500100","板橋區"
"220005","686-BX","2018/08/20 14:09:23","新北市板橋區重慶路346巷5-1號","121.463755","24.997065","6500100","板橋區"
"220025","687-BX","2018/08/20 14:09:20","新北市板橋區龍興街95巷2號","121.44417","25.0023","6500100","板橋區"
"220042","689-BX","2018/08/20 14:09:16","新北市板橋區民生路三段127號","121.465941666667","25.025845","6500100","板橋區"
"220002","741-BX","2018/08/20 14:09:27","新北市板橋區重慶路89巷53號","121.46333","25.0065766666667","6500100","板橋區"
"220051","KEA-2699","2018/08/20 14:09:08","新北市板橋區萬板路818巷9號","121.482955","25.0266966666667","6500100","板橋區"
"220003","827-TW","2018/08/20 14:09:26","新北市板橋區新民街11號","121.463825","25.0098716666667","6500100","板橋區"
"220014","829-TW","2018/08/20 14:09:15","新北市板橋區民生路一段35號","121.475773333333","25.01289","6500100","板橋區"
"220016","830-TW","2018/08/20 14:09:10","新北市板橋區翠華街6巷16號","121.48104","25.0242733333333","6500100","板橋區"
"220045","831-TW","2018/08/20 14:09:22","新北市板橋區雙十路二段6-11號","121.476673333333","25.0265133333333","6500100","板橋區"
"220038","833-TW","2018/08/20 14:09:09","新北市板橋區文化路二段328號","121.472685","25.0302566666667","6500100","板橋區"
"220022","895-R6","2018/08/20 14:09:23","新北市板橋區林園街24號","121.453813333333","25.0099416666667","6500100","板橋區"
"220021","985-R7","2018/08/20 14:09:23","新北市板橋區民權路258-1號","121.458093333333","25.01499","6500100","板橋區"
"220046","AAC-210","2018/08/20 14:09:12","新北市板橋區新海路135巷29號","121.460168333333","25.0229083333333","6500100","板橋區"
"220018","AAC-253","2018/08/20 14:09:17","新北市板橋區忠孝路40號","121.460445","25.001875","6500100","板橋區"
"235032","KEA-2873","2018/08/20 14:09:22","新北市中和區圓通路158巷3-1號","121.497671666667","24.9962","6500300","中和區"
"235025","KEA-2875","2018/08/20 14:09:01","新北市中和區員山路358號","121.481133333333","25.003735","6500300","中和區"
