"lineid","car","time","location","longitude","latitude","cityid","cityname"
"243009","297-R6","2018/08/20 15:46:49","新北市泰山區黎明路25號","121.4219","25.06099","6501600","泰山區"
"243012","646-TV","2018/08/20 15:46:42","新北市泰山區黎明路25號","121.421908333333","25.0607283333333","6501600","泰山區"
"243014","680-BX","2018/08/20 15:46:42","新北市泰山區黎明路25號","121.422398333333","25.0607766666667","6501600","泰山區"
"231046","107-UY","2018/08/20 15:59:31","新北市新店區安康路一段198號","121.524433333333","24.963425","6500600","新店區"
"231019","108-UY","2018/08/20 15:59:14","新北市新店區新烏路一段65號","121.546196666667","24.9444016666667","6500600","新店區"
"231011","187-VK","2018/08/20 15:59:17","新北市新店區中正路374號","121.535048333333","24.9763633333333","6500600","新店區"
"231003","268-BY","2018/08/20 15:59:17","新北市新店區寶興路60巷2號","121.549901666667","24.9719516666667","6500600","新店區"
"231018","278-BY","2018/08/20 15:59:13","新北市新店區中正路663巷7弄13號","121.532843333333","24.9900533333333","6500600","新店區"
"231014","AAD-862","2018/08/20 15:59:29","新北市新店區中正路284巷4弄3號","121.538525","24.97475","6500600","新店區"
"231037","4716-K9","2018/08/20 15:59:29","新北市新店區吉安街10號","121.516828333333","24.9657766666667","6500600","新店區"
"231013","513-UM","2018/08/20 15:59:17","新北市新店區安民街2號","121.51529","24.9637816666667","6500600","新店區"
"231030","619-UM","2018/08/20 15:59:24","新北市新店區永平街24號","121.516673333333","24.983745","6500600","新店區"
"231034","641-BX","2018/08/20 15:59:21","新北市新店區富貴街20巷17號","121.493183333333","24.9476266666667","6500600","新店區"
"231035","719-UM","2018/08/20 15:59:15","新北市新店區安民街363號","121.51662","24.9758766666667","6500600","新店區"
"241011","013-R5","2018/08/20 15:59:11","新北市三重區文化北路224巷30-1號","121.497036666667","25.0687116666667","6500200","三重區"
"241028","022-UY","2018/08/20 15:59:20","新北市三重區大同南路128號","121.496413333333","25.058245","6500200","三重區"
"241022","060-VK","2018/08/20 15:59:13","新北市三重區忠孝路三段40巷22弄5號","121.482836666667","25.0661966666667","6500200","三重區"
"241015","062-VK","2018/08/20 15:59:25","新北市三重區中正北路193巷1號","121.477126666667","25.069805","6500200","三重區"
"241017","063-VK","2018/08/20 15:59:16","新北市三重區大仁街48巷29號","121.491106666667","25.06452","6500200","三重區"
"241024","065-VK","2018/08/20 15:59:16","新北市三重區力行路一段147號","121.485465","25.0686316666667","6500200","三重區"
"241026","066-VK","2018/08/20 15:59:24","新北市三重區光興街129號","121.496616666667","25.0598683333333","6500200","三重區"
"241002","090-VK","2018/08/20 15:59:15","新北市三重區仁義街91號","121.49984","25.0796183333333","6500200","三重區"
"241016","266-UM","2018/08/20 15:59:18","新北市三重區重新路四段121號","121.484651666667","25.0521216666667","6500200","三重區"
"241018","268-UM","2018/08/20 15:59:17","新北市三重區大仁街20-1號","121.491556666667","25.0634283333333","6500200","三重區"
"241013","270-UM","2018/08/20 15:59:16","新北市三重區三和路三段16巷1號","121.496736666667","25.0701316666667","6500200","三重區"
"241025","271-UM","2018/08/20 15:59:10","新北市三重區三民街206號","121.480885","25.0662","6500200","三重區"
"241007","398-BY","2018/08/20 15:59:32","新北市三重區力行路二段30巷46弄2號","121.479811666667","25.0726583333333","6500200","三重區"
"241004","475-VK","2018/08/20 15:59:22","新北市三重區五華街74號","121.493488333333","25.0819583333333","6500200","三重區"
"241020","478-VK","2018/08/20 15:59:31","新北市三重區力行路一段201號","121.483191666667","25.0702883333333","6500200","三重區"
"241030","480-VK","2018/08/20 15:59:12","新北市三重區重新路四段121號","121.48478","25.052485","6500200","三重區"
"241014","543-UM","2018/08/20 15:59:10","新北市三重區重新路四段121號","121.48484","25.052125","6500200","三重區"
"241023","545-UM","2018/08/20 15:59:22","新北市三重區中正北路174-6號","121.48357","25.066735","6500200","三重區"
"241019","KEA-2593","2018/08/20 15:59:25","新北市五股區四維路183號","121.467801666667","25.0756083333333","6500200","三重區"
"241006","AAD-863","2018/08/20 15:59:26","新北市三重區車路頭街135-1號","121.484256666667","25.075945","6500200","三重區"
"241005","887-TS","2018/08/20 15:59:23","新北市三重區三信路5號","121.488606666667","25.08648","6500200","三重區"
"241012","941-UM","2018/08/20 15:59:26","新北市三重區文化北路118巷56號","121.497291666667","25.066075","6500200","三重區"
"241029","942-UM","2018/08/20 15:59:29","新北市三重區大同南路212巷42號","121.497858333333","25.05671","6500200","三重區"
"241033","AAC-255","2018/08/20 15:59:14","新北市三重區重新路五段447號","121.474471666667","25.0475","6500200","三重區"
"235026","800-TS","2018/08/20 15:59:24","新北市中和區橋和路126號","121.493106666667","25.00598","6500300","中和區"
"247006","336-TH","2018/08/20 15:54:54","新北市五股區中興路三段163號","121.449268333333","25.080675","6501400","蘆洲區"
"224007","275-VK","2018/08/20 15:59:28","新北市瑞芳區粗坑口路1巷1-1號","121.76198","25.0970516666667","6501200","瑞芳區"
"227001","642-TC","2018/08/20 15:59:22","新北市雙溪區平林里外平林67號","121.843256666667","25.0350233333333","6502500","雙溪區"
"227008","400-TW","2018/08/20 15:59:12","新北市雙溪區三貂里政光路42-2號","121.874628333333","25.0516183333333","6502500","雙溪區"
"236074","166-UM","2018/08/20 15:59:14","新北市土城區民族街20號","121.418991666667","24.9630416666667","6501300","土城區"
"236057","912-UM","2018/08/20 15:59:13","新北市土城區中央路二段128號","121.442028333333","24.9775883333333","6501300","土城區"
"238002","755-BX","2018/08/20 15:59:11","新北市樹林區大安路307巷1弄3號","121.41818","24.992165","6500700","樹林區"
"238010","601-UM","2018/08/20 15:59:20","新北市樹林區龍興街29號","121.403066666667","25.0159183333333","6500700","樹林區"
"238006","599-UM","2018/08/20 15:59:14","新北市樹林區國凱街65號","121.4222","24.9798183333333","6500700","樹林區"
"238005","571-TV","2018/08/20 15:59:18","新北市樹林區博愛街29巷10號","121.427446666667","24.9925333333333","6500700","樹林區"
"238011","5061-A6","2018/08/20 15:59:26","新北市樹林區中山路三段116號","121.3927","24.9721966666667","6500700","樹林區"
"238009","KEA-2213","2018/08/20 15:59:20","新北市樹林區太元街75號","121.419165","24.97837","6500700","樹林區"
"238012","303-VK","2018/08/20 15:59:28","新北市樹林區保安街一段92號","121.424178333333","24.99472","6500700","樹林區"
"238001","283-BY","2018/08/20 15:59:25","新北市樹林區中正路433-1號","121.414885","25.0081433333333","6500700","樹林區"
"238001","282-BY","2018/08/20 15:59:14","新北市樹林區保安二街64巷1弄1號","121.424111666667","24.9954883333333","6500700","樹林區"
"238007","268-VK","2018/08/20 15:59:17","新北市樹林區三俊街147號","121.418561666667","25.0155533333333","6500700","樹林區"
"238013","172-UY","2018/08/20 15:59:26","新北市樹林區柑園街72巷8-1號","121.39275","24.969705","6500700","樹林區"
"238003","169-UY","2018/08/20 15:59:26","新北市樹林區文化街25巷7弄2號","121.418595","24.9868833333333","6500700","樹林區"
