"lineid","car","time","location","longitude","latitude","cityid","cityname"
"249005","172-UM","2018/08/20 16:59:31","新北市八里區渡船頭3-19號","121.433946666667","25.1518216666667","6502300","八里區"
"249001","173-UM","2018/08/20 16:59:30","新北市八里區下罟子1-12號","121.390093333333","25.1421316666667","6502300","八里區"
"249004","303-UY","2018/08/20 16:59:18","新北市八里區挖子尾街46號","121.415595","25.1661666666667","6502300","八里區"
"249002","305-UY","2018/08/20 16:59:27","新北市八里區牛寮埔11號","121.432938333333","25.1425366666667","6502300","八里區"
"249003","593-UM","2018/08/20 16:59:20","新北市八里區中山路二段301號","121.401083333333","25.1481366666667","6502300","八里區"
"244007","080-UY","2018/08/20 16:59:21","新北市林口區林口路187巷31弄23號","121.387876666667","25.0811633333333","6501700","林口區"
"244019","403-UM","2018/08/20 16:59:25","新北市林口區粉寮路一段64號","121.396883333333","25.0786383333333","6501700","林口區"
"244017","485-VK","2018/08/20 16:59:17","新北市林口區粉寮路二段160巷28號","121.405155","25.09077","6501700","林口區"
"244025","837-TS","2018/08/20 16:59:25","新北市林口區粉寮69號","121.40497","25.09087","6501700","林口區"
"244021","838-TS","2018/08/20 16:59:14","新北市林口區粉寮路二段160巷28號","121.405213333333","25.0906716666667","6501700","林口區"
"231046","107-UY","2018/08/20 16:59:31","新北市新店區永業路81巷12號","121.530925","24.9456616666667","6500600","新店區"
"241011","013-R5","2018/08/20 16:59:31","新北市三重區龍門路219號","121.50036","25.0733366666667","6500200","三重區"
"241028","022-UY","2018/08/20 16:59:20","新北市三重區中正南路50號","121.493993333333","25.0599233333333","6500200","三重區"
"241008","059-VK","2018/08/20 16:59:20","新北市三重區永福街179巷42號","121.477395","25.0747066666667","6500200","三重區"
"241022","060-VK","2018/08/20 16:59:12","新北市三重區中華路75巷6號","121.483938333333","25.0626433333333","6500200","三重區"
"241031","061-VK","2018/08/20 16:59:33","新北市三重區三寧街18號","121.489298333333","25.05973","6500200","三重區"
"241015","062-VK","2018/08/20 16:59:25","新北市三重區福德北路82-1號","121.501686666667","25.0662483333333","6500200","三重區"
"241017","063-VK","2018/08/20 16:59:16","新北市三重區大仁街3巷41號","121.492775","25.0640133333333","6500200","三重區"
"241024","065-VK","2018/08/20 16:59:16","新北市三重區國道路一段68號","121.480683333333","25.072925","6500200","三重區"
"241026","066-VK","2018/08/20 16:59:24","新北市三重區文化南路42號","121.500376666667","25.0602783333333","6500200","三重區"
"241002","090-VK","2018/08/20 16:59:26","新北市三重區仁義街101巷2號","121.497856666667","25.079835","6500200","三重區"
"241003","091-VK","2018/08/20 16:59:12","新北市三重區五華街141巷60號","121.493396666667","25.086625","6500200","三重區"
"241016","266-UM","2018/08/20 16:59:18","新北市三重區大同北路111號","121.494146666667","25.0642283333333","6500200","三重區"
"241009","267-UM","2018/08/20 16:59:23","新北市三重區仁美街108巷18號","121.484965","25.08059","6500200","三重區"
"241018","268-UM","2018/08/20 16:59:17","新北市三重區民生東街8號","121.492775","25.06848","6500200","三重區"
"241032","269-UM","2018/08/20 16:59:16","新北市三重區重陽路一段130巷26號","121.485735","25.0603966666667","6500200","三重區"
"241013","270-UM","2018/08/20 16:59:16","新北市三重區仁和街27號","121.496578333333","25.07358","6500200","三重區"
"241025","271-UM","2018/08/20 16:59:29","新北市三重區中正北路510號","121.472656666667","25.0716783333333","6500200","三重區"
"241007","398-BY","2018/08/20 16:59:12","新北市三重區三和路四段181巷245號","121.487958333333","25.080525","6500200","三重區"
"241004","475-VK","2018/08/20 16:59:29","新北市三重區五華街98巷10號","121.491731666667","25.0818","6500200","三重區"
"241020","478-VK","2018/08/20 16:59:11","新北市三重區後竹圍街175巷1號","121.485911666667","25.0720816666667","6500200","三重區"
"241030","480-VK","2018/08/20 16:59:32","新北市三重區昌隆街61號","121.491056666667","25.0511116666667","6500200","三重區"
"241014","543-UM","2018/08/20 16:59:30","新北市三重區三和路二段173巷145號","121.501076666667","25.070665","6500200","三重區"
"241023","545-UM","2018/08/20 16:59:18","新北市三重區新北大道一段252號","121.480176666667","25.0617566666667","6500200","三重區"
"241001","547-UM","2018/08/20 16:59:30","新北市三重區仁愛街170號","121.49421","25.0766116666667","6500200","三重區"
"241019","KEA-2593","2018/08/20 16:59:25","新北市三重區自強路二段74巷19號","121.487973333333","25.069905","6500200","三重區"
"241006","AAD-863","2018/08/20 16:59:25","新北市三重區車路頭街117巷54號","121.48549","25.0758016666667","6500200","三重區"
"241005","887-TS","2018/08/20 16:59:23","新北市三重區仁華街73號","121.485348333333","25.0830283333333","6500200","三重區"
"241012","941-UM","2018/08/20 16:59:26","新北市三重區仁和街169號","121.500005","25.074755","6500200","三重區"
"241029","942-UM","2018/08/20 16:59:29","新北市三重區集美街238號","121.492455","25.0558566666667","6500200","三重區"
"241033","AAC-255","2018/08/20 16:59:14","新北市三重區中興北街234號","121.468993333333","25.0606633333333","6500200","三重區"
"235064","005-UY","2018/08/20 16:36:43","新北市中和區員山路36巷16-2號","121.485216666667","24.9914483333333","6500300","中和區"
"247010","KEA-2869","2018/08/20 16:59:16","新北市蘆洲區信義路158號","121.479298333333","25.0835333333333","6501400","蘆洲區"
"247024","893-R6","2018/08/20 16:59:19","新北市蘆洲區長興路255號","121.460523333333","25.0875216666667","6501400","蘆洲區"
"247014","546-UM","2018/08/20 16:59:24","新北市蘆洲區中山二路36巷40號","121.474016666667","25.0835416666667","6501400","蘆洲區"
"247012","339-TH","2018/08/20 16:59:25","新北市蘆洲區復興路186號","121.478018333333","25.0887183333333","6501400","蘆洲區"
"247004","337-TH","2018/08/20 16:59:13","新北市蘆洲區長安街123號","121.460955","25.0814266666667","6501400","蘆洲區"
"247006","336-TH","2018/08/20 16:59:15","新北市蘆洲區長安街99巷31號","121.46073","25.0796516666667","6501400","蘆洲區"
"247018","057-VK","2018/08/20 16:59:22","新北市蘆洲區民族路227巷25號","121.476743333333","25.0890833333333","6501400","蘆洲區"
"247008","056-VK","2018/08/20 16:59:25","新北市蘆洲區信義路60號","121.475685","25.0794966666667","6501400","蘆洲區"
"247016","007-UY","2018/08/20 16:59:18","新北市蘆洲區正和街22號","121.469913333333","25.0822316666667","6501400","蘆洲區"
"247020","001-UY","2018/08/20 16:59:10","新北市蘆洲區民族路422巷35-1號","121.473453333333","25.0937133333333","6501400","蘆洲區"
"228003","097-TW","2018/08/20 16:59:28","新北市貢寮區福隆里興隆街36號","121.942203333333","25.0166833333333","6502600","貢寮區"
"228001","212-TW","2018/08/20 16:59:31","新北市貢寮區貢寮里朝陽街1-2號","121.9122","25.0212483333333","6502600","貢寮區"
"228002","663-BX","2018/08/20 16:59:19","新北市貢寮區貢寮里朝陽街46號","121.91079","25.0213183333333","6502600","貢寮區"
"224006","676-BX","2018/08/20 16:59:21","新北市瑞芳區大寮路2-1號","121.78554","25.1013666666667","6501200","瑞芳區"
"224008","285-BY","2018/08/20 16:59:15","新北市瑞芳區明燈路二段66號","121.809395","25.1072483333333","6501200","瑞芳區"
"224007","275-VK","2018/08/20 16:59:28","新北市瑞芳區大埔路17-1號","121.766916666667","25.1039316666667","6501200","瑞芳區"
"224009","273-VK","2018/08/20 16:59:12","新北市瑞芳區濱二路28號","121.839141666667","25.113605","6501200","瑞芳區"
"224005","271-BY","2018/08/20 16:59:25","新北市瑞芳區明里路43號","121.870408333333","25.1226233333333","6501200","瑞芳區"
"227001","642-TC","2018/08/20 16:59:22","新北市雙溪區長源里土地公山1-1號","121.799441666667","25.0131233333333","6502500","雙溪區"
"227008","400-TW","2018/08/20 16:59:32","新北市雙溪區牡丹里聖南34號","121.853663333333","25.0557933333333","6502500","雙溪區"
"251005","010-UM","2018/08/20 16:59:28","新北市淡水區水源街一段75號","121.444803333333","25.1722633333333","6501000","淡水區"
"251013","KEA-2871","2018/08/20 16:59:26","新北市淡水區泉洲厝32號","121.489263333333","25.1925733333333","6501000","淡水區"
"251016","179-VK","2018/08/20 16:59:27","新北市淡水區瓦坑3號","121.47755","25.1807716666667","6501000","淡水區"
"251014","180-VK","2018/08/20 16:59:16","新北市淡水區淡金路四段472巷24號","121.453","25.2239433333333","6501000","淡水區"
"251015","181-VK","2018/08/20 16:59:22","新北市淡水區忠愛街9-1號","121.4569","25.1743083333333","6501000","淡水區"
"251010","413-VK","2018/08/20 16:59:14","新北市淡水區中正路二段31號","121.419485","25.181385","6501000","淡水區"
"251012","441-VK","2018/08/20 16:59:24","新北市淡水區中正路一段22巷100號","121.427011666667","25.18632","6501000","淡水區"
"251008","442-VK","2018/08/20 16:59:18","新北市淡水區樹梅坑9號","121.472695","25.142705","6501000","淡水區"
"251004","443-VK","2018/08/20 16:59:31","新北市淡水區中正路二段31號","121.419188333333","25.18224","6501000","淡水區"
"251006","561-UM","2018/08/20 16:59:15","新北市淡水區中正路259號","121.432283333333","25.17471","6501000","淡水區"
"251009","575-R6","2018/08/20 16:59:21","新北市淡水區中正路二段31號","121.419443333333","25.1815016666667","6501000","淡水區"
"251007","577-R6","2018/08/20 16:59:29","新北市淡水區中正東路二段51-2號","121.459418333333","25.1555566666667","6501000","淡水區"
"251011","650-BX","2018/08/20 16:59:21","新北市淡水區中山路50號","121.444038333333","25.1702633333333","6501000","淡水區"
"252001","292-VK","2018/08/20 16:59:21","新北市三芝區淡金路二段81號","121.50372","25.2607716666667","6502100","三芝區"
"242023","705-TV","2018/08/20 16:59:33","新北市新莊區三和路12-12號","121.442203333333","25.0370783333333","6500500","新莊區"
"242042","566-BX","2018/08/20 16:59:18","新北市新莊區新泰路357巷3弄57號","121.44206","25.0392233333333","6500500","新莊區"
"242060","353-BY","2018/08/20 16:59:22","新北市新莊區新泰路255巷83號","121.442301666667","25.0387666666667","6500500","新莊區"
"242017","175-VK","2018/08/20 16:59:31","新北市新莊區三和路12-21號","121.441795","25.0387933333333","6500500","新莊區"
"242015","346-TH","2018/08/20 16:50:00","新北市新莊區三和路12-18號","121.442188333333","25.0375966666667","6500500","新莊區"
"238005","571-TV","2018/08/20 16:59:21","新北市樹林區育德街78-1號","121.388135","24.9680866666667","6500700","樹林區"
"238022","KEA-2213","2018/08/20 16:59:20","新北市樹林區八德街263-1號","121.41925","24.9738466666667","6500700","樹林區"
"238017","283-BY","2018/08/20 16:59:25","新北市樹林區中正路433-2號","121.414721666667","25.008255","6500700","樹林區"
"238001","282-BY","2018/08/20 16:59:14","新北市樹林區中正路22-1號","121.42783","24.9994633333333","6500700","樹林區"
"239007","AAC-297","2018/08/20 16:59:16","新北市鶯歌區二甲路12-2號","121.345581666667","24.93509","6500800","鶯歌區"
"239005","526-UM","2018/08/20 16:57:35","新北市鶯歌區二甲路13-16號","121.345275","24.935045","6500800","鶯歌區"
"239001","417-VK","2018/08/20 16:59:18","新北市鶯歌區二甲路13-16號","121.345238333333","24.9352183333333","6500800","鶯歌區"
"239003","360-BY","2018/08/20 16:59:21","新北市鶯歌區二甲路12-2號","121.345563333333","24.93515","6500800","鶯歌區"
"239002","359-BY","2018/08/20 16:59:26","新北市鶯歌區二甲路12-2號","121.345868333333","24.934915","6500800","鶯歌區"
