"lineid","car","time","location","longitude","latitude","cityid","cityname"
"234077","969-R7","2018/08/20 21:59:27","新北市永和區福和路1號","121.526393333333","25.009785","6500400","永和區"
"247010","KEA-2869","2018/08/20 21:59:26","新北市八里區下罟子23號","121.376896666667","25.1387283333333","6501400","蘆洲區"
"235010","733-UM","2018/08/20 21:47:57","新北市中和區員山路36巷13號","121.484181666667","24.9908133333333","6500300","中和區"
"224011","420-VK","2018/08/20 21:59:21","新北市瑞芳區中正路63號","121.8063","25.1073083333333","6501200","瑞芳區"
"251005","010-UM","2018/08/20 21:59:22","新北市淡水區鄧公路30巷1弄65號","121.454521666667","25.1696716666667","6501000","淡水區"
"251010","413-VK","2018/08/20 21:59:14","新北市淡水區中正路二段211號","121.426186666667","25.1890883333333","6501000","淡水區"
"251008","442-VK","2018/08/20 21:59:18","新北市淡水區學府路104號","121.449881666667","25.1718016666667","6501000","淡水區"
"251004","443-VK","2018/08/20 21:59:22","新北市淡水區民權路159號","121.45998","25.1360583333333","6501000","淡水區"
"251006","561-UM","2018/08/20 21:59:15","新北市淡水區中正路11巷3號","121.437871666667","25.170895","6501000","淡水區"
"251007","577-R6","2018/08/20 21:59:29","新北市淡水區北新路184巷160號","121.451553333333","25.17735","6501000","淡水區"
"251011","650-BX","2018/08/20 21:59:14","新北市淡水區水碓街7號","121.443201666667","25.17714","6501000","淡水區"
"251003","673-BX","2018/08/20 21:59:18","新北市淡水區新春街87號","121.438871666667","25.1825866666667","6501000","淡水區"
