"lineid","car","time","location","longitude","latitude","cityid","cityname"
"248005","653-BX","2018/06/14 08:39:32","新北市五股區明德路10號","121.433353333333","25.071765","6501500","五股區"
"232001","290-BY","2018/06/14 08:39:39","新北市坪林區坪雙路一段100號","121.729541666667","24.9480966666667","6502000","坪林區"
"232014","291-BY","2018/06/14 08:39:26","新北市坪林區北宜路八段58號","121.704765","24.93538","6502000","坪林區"
"244012","069-UM","2018/06/14 08:39:42","新北市林口區中山路3號","121.396565","25.0781066666667","6501700","林口區"
"244006","080-UY","2018/06/14 08:39:38","新北市林口區林口路272巷2號","121.386451666667","25.084655","6501700","林口區"
"244003","248-BX","2018/06/14 08:39:34","新北市林口區下福135號","121.295676666667","25.1205116666667","6501700","林口區"
"244018","403-UM","2018/06/14 08:39:39","新北市林口區公園路120-1號","121.370675","25.0711966666667","6501700","林口區"
"244008","410-SL","2018/06/14 08:39:31","新北市林口區文化一路二段295號","121.38524","25.0850016666667","6501700","林口區"
"244022","483-VK","2018/06/14 08:39:37","新北市林口區東明二街61號","121.389668333333","25.069365","6501700","林口區"
"244016","485-VK","2018/06/14 08:39:32","新北市林口區文化二路一段226-1號","121.369591666667","25.0723983333333","6501700","林口區"
"244011","657-BX","2018/06/14 08:39:42","新北市林口區中正路136號","121.392988333333","25.0772816666667","6501700","林口區"
"244024","837-TS","2018/06/14 08:39:31","新北市林口區文化三路一段39巷17號","121.359821666667","25.0664766666667","6501700","林口區"
"244020","838-TS","2018/06/14 08:39:33","新北市林口區自強七街23號","121.399716666667","25.0759816666667","6501700","林口區"
"222006","289-BY","2018/06/14 08:39:43","新北市深坑區風格街31巷33號","121.627611666667","25.0176533333333","6501800","深坑區"
"231069","189-VK","2018/06/14 08:39:45","新北市新店區新潭路三段15號","121.508533333333","24.9148116666667","6500600","新店區"
"231008","192-VK","2018/06/14 08:39:25","新北市新店區新烏路三段165巷42-2號","121.553573333333","24.90102","6500600","新店區"
"226005","5620-A6","2018/06/14 08:39:06","新北市平溪區南山里南山坪107號","121.782398333333","25.043555","6502400","平溪區"
"226007","7418-A5","2018/06/14 08:39:30","新北市平溪區東勢里芊蓁林27號","121.73073","24.979675","6502400","平溪區"
"226003","AGD-0702","2018/06/14 08:39:41","新北市平溪區新寮里石碣7號","121.788245","25.05831","6502400","平溪區"
"223006","022-BY","2018/06/14 08:39:27","新北市深坑區文山路一段10號","121.642951666667","25.0085966666667","6501900","石碇區"
"223003","205-TH","2018/06/14 08:39:31","新北市石碇區北宜路六段柑腳巷2號","121.659628333333","24.93808","6501900","石碇區"
"223008","406-TH","2018/06/14 08:39:28","新北市石碇區碇南路二段松柏崎巷38號","121.678385","25.0244183333333","6501900","石碇區"
"223001","592-UM","2018/06/14 08:39:28","新北市石碇區北宜路六段柑腳巷2號","121.659631666667","24.9380933333333","6501900","石碇區"
"223004","660-BX","2018/06/14 08:39:46","新北市石碇區崩山18-4號","121.67743","24.9680583333333","6501900","石碇區"
"223005","677-TV","2018/06/14 08:39:40","新北市石碇區崩山22號","121.677281666667","24.971865","6501900","石碇區"
"252004","702-TV","2018/06/14 08:38:07","新北市三芝區興華里楓子林38號","121.490711666667","25.2079383333333","6502100","三芝區"
"252007","AAC-283","2018/06/14 08:39:36","新北市三芝區後厝里番子崙25號","121.484213333333","25.2432766666667","6502100","三芝區"
"237001","159-UY","2018/06/14 08:39:35","新北市三峽區學成路343號","121.37608","24.9447833333333","6500900","三峽區"
"236009","165-UM","2018/06/14 08:39:28","新北市土城區清水路32巷29號","121.456285","24.9811016666667","6501300","土城區"
"236003","339-SR","2018/06/14 08:39:42","新北市土城區中州路76號","121.412021666667","24.958355","6501300","土城區"
"236005","498-BY","2018/06/14 08:39:39","新北市土城區永安街99號","121.429858333333","24.963875","6501300","土城區"
"242033","AAC-296","2018/06/14 08:39:28","新北市新莊區景德路260號","121.448596666667","25.0336966666667","6500500","新莊區"
"242057","986-R7","2018/06/14 08:39:28","新北市新莊區中正路742-2號","121.41354","25.0229","6500500","新莊區"
"242052","751-BX","2018/06/14 08:39:30","新北市新莊區民安西路402號","121.428796666667","25.0101516666667","6500500","新莊區"
"242024","705-TV","2018/06/14 08:39:32","新北市新莊區五工三路94巷1號","121.458241666667","25.0655866666667","6500500","新莊區"
"242026","615-BX","2018/06/14 08:39:27","新北市新莊區幸福路822號","121.445301666667","25.0491616666667","6500500","新莊區"
"242028","612-BX","2018/06/14 08:39:31","新北市新莊區幸福路864號","121.443553333333","25.0490083333333","6500500","新莊區"
"242040","566-BX","2018/06/14 08:39:41","新北市新莊區天祥街85號","121.415406666667","25.0294383333333","6500500","新莊區"
"242045","497-BY","2018/06/14 08:39:38","新北市新莊區民安路31號","121.423146666667","25.0275316666667","6500500","新莊區"
"242049","441-UM","2018/06/14 08:39:41","新北市新莊區西盛街151號","121.428238333333","25.018125","6500500","新莊區"
"242055","440-UM","2018/06/14 08:39:42","新北市新莊區豐年街豐2巷21號","121.447413333333","25.0309016666667","6500500","新莊區"
"242035","415-TV","2018/06/14 08:39:26","新北市新莊區建福路59巷28號","121.42803","25.0275533333333","6500500","新莊區"
"242006","413-TV","2018/06/14 08:39:34","新北市新莊區思源路593巷22號","121.458298333333","25.05968","6500500","新莊區"
"242043","400-BY","2018/06/14 08:39:42","新北市新莊區鳳山街56巷19號","121.413978333333","25.0262683333333","6500500","新莊區"
"242022","362-BY","2018/06/14 08:39:39","新北市新莊區化成路348號","121.465815","25.0490316666667","6500500","新莊區"
"242059","353-BY","2018/06/14 08:39:30","新北市新莊區新樹路81號","121.437808333333","25.02748","6500500","新莊區"
"242038","133-UY","2018/06/14 08:39:29","新北市新莊區民安路309號","121.429876666667","25.0226516666667","6500500","新莊區"
"242030","135-UY","2018/06/14 08:39:31","新北市新莊區新泰路255巷36號","121.444676666667","25.03966","6500500","新莊區"
"242047","172-VK","2018/06/14 08:39:35","新北市新莊區民安路100號","121.423923333333","25.0258783333333","6500500","新莊區"
"242010","173-VK","2018/06/14 08:39:02","新北市新莊區思源路485號","121.459091666667","25.055215","6500500","新莊區"
"242016","175-VK","2018/06/14 08:39:35","新北市新莊區中港路360號","121.4521","25.0469366666667","6500500","新莊區"
"242003","176-VK","2018/06/14 08:39:46","新北市新莊區思源路157號","121.459596666667","25.0445516666667","6500500","新莊區"
"242014","346-TH","2018/06/14 08:39:41","新北市新莊區中和街48號","121.448081666667","25.0443983333333","6500500","新莊區"
"242020","348-TH","2018/06/14 08:39:30","新北市新莊區新興街66巷2號","121.450911666667","25.037745","6500500","新莊區"
"242018","350-TH","2018/06/14 08:39:40","新北市新莊區中港路132巷12號","121.45588","25.04064","6500500","新莊區"
"242012","351-TH","2018/06/14 08:39:12","新北市新莊區中泰街38巷10號","121.450825","25.0473166666667","6500500","新莊區"
"242001","KEA-2550","2018/06/14 08:39:41","新北市新莊區利濟街10號","121.453326666667","25.0335833333333","6500500","新莊區"
"242008","281-VK","2018/06/14 08:39:28","新北市新莊區中華路二段254號","121.452606666667","25.05314","6500500","新莊區"
