"lineid","car","time","location","longitude","latitude","cityid","cityname"
"248005","653-BX","2018/06/14 09:49:32","新北市五股區成泰路一段173-1號","121.43526","25.0747033333333","6501500","五股區"
"244018","403-UM","2018/06/14 09:49:39","新北市林口區麗園二街33巷2號","121.380338333333","25.0693616666667","6501700","林口區"
"244022","483-VK","2018/06/14 09:49:37","新北市林口區文化三路二段77巷39號","121.373045","25.0802733333333","6501700","林口區"
"244016","485-VK","2018/06/14 09:49:33","新北市林口區忠孝路376巷41-1號","121.368558333333","25.0706966666667","6501700","林口區"
"244008","656-BX","2018/06/14 09:49:41","新北市林口區竹林路326巷20-1號","121.392486666667","25.0820433333333","6501700","林口區"
"222006","289-BY","2018/06/14 09:49:45","新北市深坑區大崙腳2-2號","121.614561666667","24.9943483333333","6501800","深坑區"
"231069","189-VK","2018/06/14 09:49:45","新北市新店區新潭路三段215巷25號","121.508048333333","24.904125","6500600","新店區"
"231008","192-VK","2018/06/14 09:35:28","新北市新店區平廣路一段256號","121.508026666667","24.8882066666667","6500600","新店區"
"223005","677-TV","2018/06/14 09:44:20","新北市石碇區小粗坑(潭邊里)9-1號","121.678241666667","24.9853216666667","6501900","石碇區"
"252004","702-TV","2018/06/14 09:49:47","新北市三芝區福德里大水堀21號","121.512336666667","25.21998","6502100","三芝區"
"252007","AAC-283","2018/06/14 09:49:36","新北市三芝區新庄里新庄子91號","121.51049","25.2692133333333","6502100","三芝區"
"237001","159-UY","2018/06/14 09:49:35","新北市樹林區學勤路199號","121.376938333333","24.94747","6500900","三峽區"
"236003","339-SR","2018/06/14 09:49:41","新北市土城區學府路一段99巷10號","121.456695","24.9868366666667","6501300","土城區"
"236005","498-BY","2018/06/14 09:49:39","新北市土城區中央路二段263號","121.439733333333","24.9709633333333","6501300","土城區"
"242057","986-R7","2018/06/14 09:49:28","新北市新莊區民安路106號","121.424068333333","25.025435","6500500","新莊區"
"242055","440-UM","2018/06/14 09:49:42","新北市新莊區瓊林路13-3號","121.4488","25.0309833333333","6500500","新莊區"
"242059","353-BY","2018/06/14 09:49:30","新北市新莊區新樹路280號","121.432573333333","25.0126816666667","6500500","新莊區"
"242030","135-UY","2018/06/14 09:49:31","新北市新莊區中正路506號","121.435708333333","25.032875","6500500","新莊區"
"242047","172-VK","2018/06/14 09:49:28","新北市新莊區瓊林南路75-37號","121.438171666667","25.014655","6500500","新莊區"
"242001","KEA-2550","2018/06/14 09:49:41","新北市新莊區瓊泰路85號","121.443055","25.0295016666667","6500500","新莊區"
