"lineid","car","time","location","longitude","latitude","cityid","cityname"
"244019","403-UM","2018/06/14 12:01:12","新北市林口區粉寮69號","121.40514","25.09083","6501700","林口區"
"231008","192-VK","2018/06/14 12:09:44","新北市新店區屈尺路6號","121.549351666667","24.9235483333333","6500600","新店區"
"235029","098-UM","2018/06/14 12:09:39","新北市中和區員山路36巷16-3號","121.485003333333","24.9913066666667","6500300","中和區"
"228005","097-TW","2018/06/14 12:09:47","","121.942408333333","25.0166183333333","6502600","貢寮區"
"228004","212-TW","2018/06/14 12:09:34","新北市貢寮區貢寮里貢寮街4號","121.907883333333","25.0189383333333","6502600","貢寮區"
"221038","297-VK","2018/06/14 12:09:48","","121.651623333333","25.074905","6501100","汐止區"
