"lineid","car","time","location","longitude","latitude","cityid","cityname"
"234044","148-BY","2018/06/14 12:29:38","新北市永和區福和路1號","121.52637","25.0098516666667","6500400","永和區"
"234005","207-UY","2018/06/14 12:29:38","新北市永和區福和路1號","121.526186666667","25.0095416666667","6500400","永和區"
"234078","298-R6","2018/06/14 12:27:05","新北市永和區福和路1號","121.526233333333","25.0096816666667","6500400","永和區"
"234036","336-UY","2018/06/14 12:29:52","新北市永和區福和路1號","121.526596666667","25.0101183333333","6500400","永和區"
"234015","745-BX","2018/06/14 12:29:35","新北市永和區福和路1號","121.526415","25.009655","6500400","永和區"
"234012","KEA-2591","2018/06/14 12:29:44","新北市永和區文化路154號","121.512431666667","25.0152566666667","6500400","永和區"
"234048","863-TW","2018/06/14 12:29:48","台北市中正區思源街3號","121.527083333333","25.010245","6500400","永和區"
"234010","9373-KE","2018/06/14 12:29:32","新北市永和區福和路1號","121.525563333333","25.00979","6500400","永和區"
"234076","969-R7","2018/06/14 12:29:47","新北市永和區福和路1號","121.526391666667","25.0096733333333","6500400","永和區"
"244019","403-UM","2018/06/14 12:01:12","新北市林口區粉寮69號","121.40514","25.09083","6501700","林口區"
"243001","297-R6","2018/06/14 12:14:43","新北市泰山區黎明路25號","121.421811666667","25.0607666666667","6501600","泰山區"
"243008","380-SR","2018/06/14 12:11:13","新北市泰山區黎明路25號","121.422213333333","25.06069","6501600","泰山區"
"231062","720-UM","2018/06/14 12:21:49","新北市新店區安一路一段1-1號","121.519326666667","24.9613816666667","6500600","新店區"
"235029","098-UM","2018/06/14 12:29:39","新北市中和區員山路36巷16-3號","121.485045","24.9912416666667","6500300","中和區"
"228005","097-TW","2018/06/14 12:29:47","新北市貢寮區福連里蓬萊街16號","121.980118333333","24.9927816666667","6502600","貢寮區"
"228004","212-TW","2018/06/14 12:28:54","新北市貢寮區龍崗里嵩陽街29號","121.905816666667","25.018875","6502600","貢寮區"
"207002","749-BX","2018/06/14 12:29:33","新北市萬里區雙興里太和路7-2號","121.658671666667","25.1741316666667","6502800","萬里區"
"221038","297-VK","2018/06/14 12:29:48","新北市汐止區康寧街901號","121.65167","25.0748733333333","6501100","汐止區"
