"lineid","car","time","location","longitude","latitude","cityid","cityname"
"234062","337-UY","2018/06/14 14:49:50","新北市中和區光環路二段27號","121.488178333333","25.0123533333333","6500400","永和區"
"234028","746-BX","2018/06/14 14:49:45","新北市中和區景平路334號","121.51189","24.9928516666667","6500400","永和區"
"234060","AAD-866","2018/06/14 14:49:39","新北市三重區重新路5段221巷6弄11-1號","121.478936666667","25.0515116666667","6500400","永和區"
"234025","9371-KE","2018/06/14 14:49:48","新北市永和區中和路501巷2號","121.510468333333","25.002545","6500400","永和區"
"248013","025-BX","2018/06/14 14:49:38","新北市五股區五福路14巷29號","121.4355","25.0889883333333","6501500","五股區"
"248015","026-BX","2018/06/14 14:49:52","新北市五股區成泰路三段577巷80弄61號","121.449093333333","25.10494","6501500","五股區"
"248007","095-VK","2018/06/14 14:49:38","新北市五股區國道路三段6號","121.469631666667","25.07507","6501500","五股區"
"248011","247-BX","2018/06/14 14:49:41","新北市五股區民義路一段212號","121.430515","25.089485","6501500","五股區"
"248003","677-BX","2018/06/14 14:49:52","新北市五股區成泰路一段106-1號","121.435748333333","25.0717966666667","6501500","五股區"
"248001","678-BX","2018/06/14 14:49:43","新北市五股區成泰路三段155號","121.445003333333","25.091535","6501500","五股區"
"248009","682-TV","2018/06/14 14:49:45","新北市五股區登林路46巷2號","121.43206","25.0686183333333","6501500","五股區"
"244003","248-BX","2018/06/14 14:49:43","新北市林口區竹林路267號","121.389586666667","25.0808116666667","6501700","林口區"
"243005","AAD-798","2018/06/14 14:49:40","新北市泰山區明志路三段79號","121.424935","25.0418066666667","6501600","泰山區"
"243001","297-R6","2018/06/14 14:49:46","新北市泰山區泰林路二段116巷4弄2號","121.435073333333","25.0594966666667","6501600","泰山區"
"243008","380-SR","2018/06/14 14:49:48","新北市泰山區新北大道六段287號","121.42445","25.0342083333333","6501600","泰山區"
"243007","421-VK","2018/06/14 14:49:42","新北市泰山區明志路一段384號","121.430688333333","25.05749","6501600","泰山區"
"243003","KEA-2215","2018/06/14 14:49:41","新北市泰山區明志路三段166號","121.424333333333","25.0393866666667","6501600","泰山區"
"243002","KEA-2216","2018/06/14 14:49:51","新北市泰山區明志路二段214巷16弄43號","121.426825","25.0504383333333","6501600","泰山區"
"243004","646-TV","2018/06/14 14:49:44","新北市泰山區楓江路81號","121.436828333333","25.0633816666667","6501600","泰山區"
"243006","680-BX","2018/06/14 14:49:48","新北市泰山區明志路一段24號","121.433631666667","25.06543","6501600","泰山區"
"231002","002-UM","2018/06/14 14:49:49","新北市新店區民權路101號","121.53684","24.9828616666667","6500600","新店區"
"231038","0291-UT","2018/06/14 14:49:49","新北市新店區安華路28-1號","121.519651666667","24.9609233333333","6500600","新店區"
"231027","0293-UT","2018/06/14 14:49:37","新北市新店區安民街115巷16號","121.515091666667","24.9680816666667","6500600","新店區"
"231028","046-UY","2018/06/14 14:49:43","新北市新店區安德街85號","121.509465","24.9608266666667","6500600","新店區"
"231001","047-UY","2018/06/14 14:49:54","新北市新店區三民路42-1號","121.536038333333","24.971635","6500600","新店區"
"231005","106-UY","2018/06/14 14:49:43","新北市新店區復興路2號","121.532443333333","24.9882416666667","6500600","新店區"
"231021","108-UY","2018/06/14 14:49:49","新北市新店區永福路30號","121.549395","24.9287816666667","6500600","新店區"
"231011","110-UY","2018/06/14 14:49:38","新北市新店區永華街36號","121.544716666667","24.9753866666667","6500600","新店區"
"231023","KEA-2219","2018/06/14 14:49:36","新北市新店區檳榔路109號","121.544425","24.96164","6500600","新店區"
"231003","268-BY","2018/06/14 14:49:46","新北市新店區寶興路42巷37號","121.547643333333","24.971955","6500600","新店區"
"231018","278-BY","2018/06/14 14:49:46","新北市新店區中央六街8號","121.53015","24.97449","6500600","新店區"
"231017","AAD-862","2018/06/14 14:49:42","新北市新店區北宜路二段458號","121.570808333333","24.9563316666667","6500600","新店區"
"231037","4716-K9","2018/06/14 14:49:51","新北市新店區柴埕路116號","121.505435","24.96017","6500600","新店區"
"231036","512-UM","2018/06/14 14:49:47","新北市新店區安祥路106巷268號","121.473001666667","24.9587433333333","6500600","新店區"
"231013","513-UM","2018/06/14 14:49:45","新北市新店區北新路二段97巷7號","121.542253333333","24.9742566666667","6500600","新店區"
"231030","619-UM","2018/06/14 14:49:51","新北市新店區安民街291號","121.517601666667","24.973515","6500600","新店區"
"231034","641-BX","2018/06/14 14:49:48","新北市新店區安康路二段330號","121.503895","24.957875","6500600","新店區"
"231039","718-UY","2018/06/14 14:49:45","新北市新店區民權路19號","121.542051666667","24.982835","6500600","新店區"
"231035","719-UM","2018/06/14 14:49:36","新北市新店區安樂街16號","121.520853333333","24.97322","6500600","新店區"
"231031","720-UM","2018/06/14 14:49:47","新北市新店區安康路二段383號","121.495023333333","24.9545566666667","6500600","新店區"
"231029","897-TW","2018/06/14 14:49:52","新北市新店區錦秀路11巷96弄2號","121.480101666667","24.9421083333333","6500600","新店區"
"231006","898-TW","2018/06/14 14:49:37","新北市新店區北宜路一段109巷2號","121.539788333333","24.9547783333333","6500600","新店區"
"231004","899-TW","2018/06/14 14:49:43","新北市新店區民族路161號","121.537751666667","24.9768416666667","6500600","新店區"
"231024","AKT-0513","2018/06/14 14:49:45","新北市新店區北新路一段235號","121.540545","24.96568","6500600","新店區"
"235028","005-UY","2018/06/14 14:49:52","新北市中和區南華路36號","121.503715","24.9962433333333","6500300","中和區"
"235020","096-UM","2018/06/14 14:49:48","新北市中和區中山路三段114巷26弄1號","121.475828333333","25.00705","6500300","中和區"
"235003","097-UM","2018/06/14 14:49:42","新北市中和區安樂路109號","121.513808333333","24.995745","6500300","中和區"
"235029","098-UM","2018/06/14 14:49:38","新北市中和區永和路90巷5號","121.497436666667","25.0059866666667","6500300","中和區"
"235004","150-BY","2018/06/14 14:49:48","新北市中和區保健路10巷20-3號","121.507818333333","24.9967466666667","6500300","中和區"
"235022","151-BY","2018/06/14 14:49:49","新北市中和區員山路150巷2弄10號","121.481566666667","24.99803","6500300","中和區"
"235019","183-VK","2018/06/14 14:49:50","新北市中和區民德路27號","121.468928333333","25.00262","6500300","中和區"
"235002","185-VK","2018/06/14 14:49:54","新北市中和區立人街43號","121.520698333333","24.9941","6500300","中和區"
"235013","186-VK","2018/06/14 14:49:46","新北市中和區景平路401號","121.502391666667","24.9946683333333","6500300","中和區"
"235031","255-BX","2018/06/14 14:49:51","新北市中和區新生街233巷16號","121.484231666667","24.9990916666667","6500300","中和區"
"235008","293-VK","2018/06/14 14:49:54","新北市中和區南山路231號","121.503486666667","24.9932","6500300","中和區"
"235007","352-BY","2018/06/14 14:49:38","新北市中和區安和路9號","121.511528333333","24.9935383333333","6500300","中和區"
"235014","4979-A6","2018/06/14 14:49:50","新北市中和區景平路241巷84弄54號","121.506108333333","24.9924566666667","6500300","中和區"
"235034","558-UM","2018/06/14 14:49:46","新北市中和區連勝街40號","121.498038333333","24.997605","6500300","中和區"
"235018","640-BX","2018/06/14 14:49:53","新北市中和區莒光路175-3號","121.472763333333","24.999455","6500300","中和區"
"235024","647-TV","2018/06/14 14:49:46","新北市中和區中山路二段481號","121.48298","25.0049233333333","6500300","中和區"
"235011","732-UM","2018/06/14 14:49:36","新北市中和區和平街74號","121.507848333333","24.9910566666667","6500300","中和區"
"235010","733-UM","2018/06/14 14:49:35","新北市中和區仁愛街62號","121.511251666667","24.9878366666667","6500300","中和區"
"235035","783-BX","2018/06/14 14:49:54","新北市中和區建六路86號","121.487466666667","25.0022133333333","6500300","中和區"
"235026","800-TS","2018/06/14 14:49:46","新北市中和區中山路二段365號","121.487615","25.0045633333333","6500300","中和區"
"235021","801-TS","2018/06/14 14:49:48","新北市中和區民樂路81號","121.4847","25.001325","6500300","中和區"
"235005","802-TS","2018/06/14 14:49:47","新北市中和區安平路59號","121.509545","24.9951733333333","6500300","中和區"
"235016","805-TS","2018/06/14 14:49:47","新北市中和區興南路二段121號","121.505625","24.9841516666667","6500300","中和區"
"235012","896-TW","2018/06/14 14:49:54","新北市中和區四維街37巷2號","121.512281666667","24.9868716666667","6500300","中和區"
"235017","900-TW","2018/06/14 14:49:44","新北市中和區國光街144號","121.468288333333","25.001475","6500300","中和區"
"235030","911-UM","2018/06/14 14:49:40","新北市中和區中和路255號","121.50496","24.9997183333333","6500300","中和區"
"235015","157-BY","2018/06/14 14:49:54","新北市中和區景安路247號","121.504025","24.99072","6500300","中和區"
"235001","AAC-213","2018/06/14 14:49:41","新北市中和區自立路56巷2號","121.523305","24.9919866666667","6500300","中和區"
"235023","AAC-215","2018/06/14 14:49:53","新北市中和區圓通路305巷5弄45號","121.494933333333","24.990355","6500300","中和區"
"220016","013-TV","2018/06/14 14:47:43","新北市板橋區中山路二段412巷29弄27號","121.484711666667","25.0202616666667","6500100","板橋區"
"220017","015-TV","2018/06/14 14:49:51","新北市板橋區南雅南路二段1-1號","121.45472","25.0036016666667","6500100","板橋區"
"220013","072-UY","2018/06/14 14:49:41","新北市板橋區國泰街39巷9弄2號","121.468693333333","25.0052916666667","6500100","板橋區"
"220105","075-UY","2018/06/14 14:49:55","新北市板橋區文化路二段608巷50號","121.479695","25.0344383333333","6500100","板橋區"
"220039","120-SR","2018/06/14 14:49:51","新北市板橋區龍泉街82巷14弄23號","121.45602","25.0262833333333","6500100","板橋區"
"247023","893-R6","2018/06/14 14:49:49","新北市蘆洲區中山二路256號","121.469265","25.078855","6501400","蘆洲區"
"247013","546-UM","2018/06/14 14:49:50","新北市蘆洲區中央路56號","121.473315","25.0836533333333","6501400","蘆洲區"
"247021","500-BY","2018/06/14 14:49:49","新北市蘆洲區仁愛街212巷2號","121.464771666667","25.0930533333333","6501400","蘆洲區"
"247009","341-TH","2018/06/14 14:49:47","新北市蘆洲區中山一路281巷6號","121.472168333333","25.0793183333333","6501400","蘆洲區"
"247005","336-TH","2018/06/14 14:49:40","新北市蘆洲區中華街30號","121.46266","25.0811666666667","6501400","蘆洲區"
"247007","056-VK","2018/06/14 14:49:36","新北市蘆洲區中山一路135巷8號","121.475756666667","25.0811183333333","6501400","蘆洲區"
"247015","007-UY","2018/06/14 14:49:53","新北市蘆洲區和平路174巷20號","121.467168333333","25.0817333333333","6501400","蘆洲區"
"247001","002-UY","2018/06/14 14:49:45","新北市蘆洲區永康街46號","121.4588","25.0861083333333","6501400","蘆洲區"
"247019","001-UY","2018/06/14 14:49:33","新北市蘆洲區民義街73號","121.4732","25.0901133333333","6501400","蘆洲區"
"228005","097-TW","2018/06/14 14:49:47","新北市貢寮區美豐里丹裡街65號","121.909438333333","25.0589133333333","6502600","貢寮區"
"228004","212-TW","2018/06/14 14:49:34","新北市貢寮區福隆里裕隆街3-1號","121.946143333333","25.015915","6502600","貢寮區"
"253003","6232-TK","2018/06/14 14:49:22","新北市石門區尖子鹿103-3號","121.58043","25.29401","6502200","石門區"
"253001","6251-TK","2018/06/14 14:49:46","新北市石門區崁子腳53-3號","121.536268333333","25.2823333333333","6502200","石門區"
"253002","637-UY","2018/06/14 14:49:33","新北市石門區楓林42號","121.540401666667","25.2813883333333","6502200","石門區"
"253004","8270-PC","2018/06/14 14:49:46","新北市石門區坪林31號","121.590548333333","25.2638816666667","6502200","石門區"
"207002","749-BX","2018/06/14 14:49:53","新北市萬里區崁腳里崁腳路73號","121.647565","25.15961","6502800","萬里區"
"252005","073-UM","2018/06/14 14:49:34","新北市三芝區埔坪里埔頭坑157號","121.508978333333","25.2493883333333","6502100","三芝區"
"207001","662-BX","2018/06/14 14:46:55","新北市萬里區雙興里豐稟路39號","121.642663333333","25.18194","6502800","萬里區"
"236040","107-UM","2018/06/14 14:49:45","新北市土城區裕民路134號","121.451538333333","24.9862566666667","6501300","土城區"
"236074","166-UM","2018/06/14 14:49:41","新北市土城區中央路四段125巷29號","121.417521666667","24.9562683333333","6501300","土城區"
"236029","253-BX","2018/06/14 14:49:45","新北市土城區忠義路36巷8號","121.440145","24.9697383333333","6501300","土城區"
"236024","269-VK","2018/06/14 14:49:55","新北市土城區慶安街56號","121.440946666667","24.973185","6501300","土城區"
"236012","270-VK","2018/06/14 14:49:49","新北市土城區金城路二段354巷4號","121.460801666667","24.9848666666667","6501300","土城區"
"236032","271-VK","2018/06/14 14:49:56","新北市土城區仁愛路52號","121.462188333333","24.9788116666667","6501300","土城區"
"236068","KEA-2877","2018/06/14 14:49:55","新北市土城區明德路一段283號","121.460793333333","24.97746","6501300","土城區"
"236017","401-BY","2018/06/14 14:49:51","新北市土城區延安街40號","121.467385","24.9857483333333","6501300","土城區"
"236057","912-UM","2018/06/14 14:49:41","新北市土城區中央路三段155號","121.432085","24.9653783333333","6501300","土城區"
"236045","913-UM","2018/06/14 14:49:50","新北市土城區青雲路35號","121.460003333333","24.9884966666667","6501300","土城區"
"236060","915-UM","2018/06/14 14:49:38","新北市土城區金城路三段197號","121.469986666667","24.9892583333333","6501300","土城區"
"236054","AAC-216","2018/06/14 14:49:39","新北市土城區裕民路179號","121.453375","24.9847016666667","6501300","土城區"
"238012","303-VK","2018/06/14 14:49:41","新北市樹林區育德街78號","121.387498333333","24.9684683333333","6500700","樹林區"
"220027","145-BY","2018/06/14 14:49:54","新北市板橋區建國街54巷3號","121.459113333333","25.0168466666667","6500100","板橋區"
"220028","200-UY","2018/06/14 14:49:50","新北市板橋區大觀路二段79巷2弄16號","121.447361666667","25.0016116666667","6500100","板橋區"
"220030","610-BX","2018/06/14 14:49:50","新北市板橋區溪崑一街30巷1號","121.429983333333","24.990845","6500100","板橋區"
"220050","245-BX","2018/06/14 14:49:44","新北市板橋區縣民大道三段93巷28號","121.47478","25.022465","6500100","板橋區"
"220003","256-TC","2018/06/14 14:49:41","新北市板橋區國慶路149巷13弄13號","121.460418333333","24.9969833333333","6500100","板橋區"
"220004","276-BY","2018/06/14 14:49:56","新北市板橋區四川路二段99巷4弄2號","121.45285","24.9941483333333","6500100","板橋區"
"220020","277-BY","2018/06/14 14:49:43","新北市板橋區金門街149號","121.432721666667","24.9906616666667","6500100","板橋區"
"220019","283-VK","2018/06/14 14:49:54","新北市板橋區五權街30巷18號","121.464123333333","24.99332","6500100","板橋區"
"220043","285-UM","2018/06/14 14:49:49","新北市板橋區新海路436號","121.45803","25.0277216666667","6500100","板橋區"
"220001","285-VK","2018/06/14 14:49:48","新北市板橋區民享街53號","121.475826666667","25.0150066666667","6500100","板橋區"
"220031","286-VK","2018/06/14 14:49:48","新北市板橋區僑中二街10巷2號","121.446973333333","25.0109583333333","6500100","板橋區"
"220029","287-VK","2018/06/14 14:49:35","新北市板橋區大觀路一段28巷91-1號","121.450146666667","25.0113683333333","6500100","板橋區"
"220009","293-UM","2018/06/14 14:49:49","新北市板橋區板新路114號","121.471248333333","25.0153966666667","6500100","板橋區"
"220010","295-UM","2018/06/14 14:49:50","新北市板橋區三民路二段29巷31弄7-3號","121.481676666667","25.0177316666667","6500100","板橋區"
"220032","296-UM","2018/06/14 14:49:52","新北市板橋區滿平街2巷27號","121.425371666667","24.9892966666667","6500100","板橋區"
"220023","303-R5","2018/06/14 14:49:51","新北市板橋區大勇街9號","121.455468333333","25.01759","6500100","板橋區"
"220041","307-R5","2018/06/14 14:49:46","新北市板橋區四維路133號","121.465076666667","25.0252616666667","6500100","板橋區"
"220047","317-R6","2018/06/14 14:49:43","新北市板橋區新海路385巷12號","121.458413333333","25.0258083333333","6500100","板橋區"
"220012","486-VK","2018/06/14 14:49:35","新北市板橋區實踐路30號","121.463496666667","25.007325","6500100","板橋區"
"220037","491-VK","2018/06/14 14:49:49","新北市板橋區文化路二段498號","121.475511666667","25.0334066666667","6500100","板橋區"
"220104","560-BX","2018/06/14 14:49:36","新北市板橋區金華街104號","121.458588333333","25.0207916666667","6500100","板橋區"
"220052","561-BX","2018/06/14 14:49:35","新北市板橋區陽明街27巷1號","121.465656666667","25.021885","6500100","板橋區"
"220011","609-BX","2018/06/14 14:49:37","新北市板橋區三民路一段5巷22-1號","121.480148333333","25.0234516666667","6500100","板橋區"
"220034","630-UY","2018/06/14 14:49:49","新北市板橋區西門街18-5號","121.454436666667","25.01129","6500100","板橋區"
"220040","637-BX","2018/06/14 14:49:43","新北市板橋區懷德街127巷25號","121.479623333333","25.0313833333333","6500100","板橋區"
"220005","686-BX","2018/06/14 14:49:51","新北市板橋區信義路243號","121.460296666667","24.99113","6500100","板橋區"
"220025","687-BX","2018/06/14 14:49:46","新北市板橋區僑中三街31號","121.44557","25.00472","6500100","板橋區"
"220042","689-BX","2018/06/14 14:49:47","新北市板橋區民生路三段323號","121.46354","25.0311683333333","6500100","板橋區"
"220002","741-BX","2018/06/14 14:49:52","新北市板橋區忠孝路忠義巷15弄42號","121.465658333333","25.0044816666667","6500100","板橋區"
"220051","KEA-2699","2018/06/14 14:49:48","新北市板橋區松柏街33巷1號","121.475088333333","25.0302783333333","6500100","板橋區"
"220014","830-TW","2018/06/14 14:49:45","新北市板橋區漢生東路193巷93號","121.47316","25.01206","6500100","板橋區"
"220045","831-TW","2018/06/14 14:49:39","新北市板橋區莊敬路148-1號","121.47047","25.0226","6500100","板橋區"
"220038","833-TW","2018/06/14 14:49:34","新北市板橋區英士路151號","121.460026666667","25.0240866666667","6500100","板橋區"
"220022","895-R6","2018/06/14 14:49:38","新北市板橋區文化路一段34號","121.459415","25.0116066666667","6500100","板橋區"
"220021","985-R7","2018/06/14 14:49:52","新北市板橋區南雅西路二段206號","121.4519","25.0149616666667","6500100","板橋區"
"220046","AAC-210","2018/06/14 14:49:43","新北市板橋區漢生西路87號","121.462415","25.019505","6500100","板橋區"
"220018","AAC-253","2018/06/14 14:49:39","新北市板橋區民族路253號","121.470276666667","25.00698","6500100","板橋區"
"235032","KEA-2873","2018/06/14 14:49:32","新北市中和區景平路752號","121.496553333333","25.0045283333333","6500300","中和區"
"235025","KEA-2875","2018/06/14 14:49:31","新北市中和區員山路174巷2號","121.481768333333","24.9998566666667","6500300","中和區"
