"lineid","car","time","location","longitude","latitude","cityid","cityname"
"248007","095-VK","2018/06/14 15:19:53","新北市五股區中興路一段1巷12弄32號","121.469403333333","25.0698416666667","6501500","五股區"
"248003","677-BX","2018/06/14 15:19:52","新北市五股區中興路四段19號","121.439316666667","25.0824283333333","6501500","五股區"
"243008","380-SR","2018/06/14 15:19:47","新北市泰山區文程路111號","121.430315","25.0482066666667","6501600","泰山區"
"231002","002-UM","2018/06/14 15:19:49","台北市文山區景文街146巷26號","121.533421666667","24.9917483333333","6500600","新店區"
"231038","0291-UT","2018/06/14 15:19:49","新北市新店區安華路28-1號","121.519683333333","24.9609066666667","6500600","新店區"
"231028","046-UY","2018/06/14 15:19:43","新北市新店區僑信路120巷40號","121.49935","24.94594","6500600","新店區"
"231001","047-UY","2018/06/14 15:19:54","新北市新店區北新路一段14號","121.540743333333","24.9655933333333","6500600","新店區"
"231005","106-UY","2018/06/14 15:19:43","新北市新店區建國路209號","121.53765","24.98035","6500600","新店區"
"231021","108-UY","2018/06/14 15:19:49","新北市新店區湖興路131-1號","121.563036666667","24.9372566666667","6500600","新店區"
"231011","110-UY","2018/06/14 15:19:38","新北市新店區寶元路一段23號","121.541245","24.9866416666667","6500600","新店區"
"231023","KEA-2219","2018/06/14 15:19:56","新北市新店區北新路一段64巷39弄4號","121.54257","24.9658083333333","6500600","新店區"
"231026","256-BX","2018/06/14 15:19:41","新北市新店區中正路265巷21號","121.537696666667","24.9732266666667","6500600","新店區"
"231003","268-BY","2018/06/14 15:19:46","新北市新店區寶橋路194號","121.550606666667","24.9783883333333","6500600","新店區"
"231018","278-BY","2018/06/14 15:19:46","新北市新店區中央六街54號","121.528083333333","24.975725","6500600","新店區"
"231017","AAD-862","2018/06/14 15:19:42","新北市新店區明山路45號","121.563856666667","24.9558616666667","6500600","新店區"
"231037","4716-K9","2018/06/14 15:19:51","新北市新店區安民街341-1號","121.516713333333","24.97515","6500600","新店區"
"231025","4715-K9","2018/06/14 15:19:42","新北市新店區中央路151號","121.529385","24.9723533333333","6500600","新店區"
"231036","512-UM","2018/06/14 15:19:47","新北市新店區安祥路69巷5號","121.48213","24.961755","6500600","新店區"
"231030","619-UM","2018/06/14 15:19:51","新北市新店區安民街341-1號","121.516761666667","24.9748583333333","6500600","新店區"
"231034","641-BX","2018/06/14 15:19:48","新北市新店區如意街3巷2號","121.495568333333","24.9491133333333","6500600","新店區"
"231039","718-UY","2018/06/14 15:19:45","新北市新店區中興路三段330號","121.542155","24.9866133333333","6500600","新店區"
"231035","719-UM","2018/06/14 15:19:36","新北市新店區永平街25巷16號","121.516195","24.983165","6500600","新店區"
"231031","720-UM","2018/06/14 15:19:47","新北市新店區雙城路4巷12號","121.490688333333","24.9504183333333","6500600","新店區"
"231029","897-TW","2018/06/14 15:19:52","新北市新店區安康路三段744號","121.47375","24.941925","6500600","新店區"
"231006","898-TW","2018/06/14 15:19:37","新北市新店區北新路一段2號","121.54081","24.9651916666667","6500600","新店區"
"231004","899-TW","2018/06/14 15:19:43","新北市新店區博愛街13巷24號","121.540278333333","24.9740933333333","6500600","新店區"
"231024","AKT-0513","2018/06/14 15:19:45","新北市新店區新生街20巷2號","121.539881666667","24.966395","6500600","新店區"
"235014","4979-A6","2018/06/14 15:19:50","新北市中和區景平路478號","121.50523","24.9936133333333","6500300","中和區"
"235033","4980-A6","2018/06/14 15:19:38","新北市中和區南山路127巷27弄14號","121.503363333333","24.9979766666667","6500300","中和區"
"235034","558-UM","2018/06/14 15:19:46","新北市中和區中正路436號","121.491135","24.99416","6500300","中和區"
"235012","896-TW","2018/06/14 15:19:34","新北市中和區興南路一段18號","121.511316666667","24.99127","6500300","中和區"
"235030","911-UM","2018/06/14 15:19:40","新北市中和區水源路99號","121.507246666667","25.0034033333333","6500300","中和區"
"235023","AAC-215","2018/06/14 15:19:33","新北市中和區圓通路435巷2-2號","121.48656","24.98674","6500300","中和區"
"253003","6232-TK","2018/06/14 15:19:42","新北市石門區小坑9號","121.594396666667","25.2883516666667","6502200","石門區"
"253001","6251-TK","2018/06/14 15:19:46","新北市石門區小坑9號","121.594471666667","25.28917","6502200","石門區"
"253002","637-UY","2018/06/14 15:19:53","新北市石門區小坑9號","121.595091666667","25.2861966666667","6502200","石門區"
"253004","8270-PC","2018/06/14 15:19:55","新北市石門區小坑9號","121.594285","25.28895","6502200","石門區"
"207002","749-BX","2018/06/14 15:19:53","新北市萬里區崁腳里內中福路2-1號","121.66922","25.165405","6502800","萬里區"
"207001","662-BX","2018/06/14 15:19:34","新北市萬里區野柳里八斗60號","121.659388333333","25.2074566666667","6502800","萬里區"
"236040","107-UM","2018/06/14 15:19:45","新北市土城區裕民路259巷5-1號","121.455203333333","24.9830633333333","6501300","土城區"
"236074","166-UM","2018/06/14 15:19:41","新北市土城區中州路24巷21號","121.415021666667","24.9580783333333","6501300","土城區"
"236029","253-BX","2018/06/14 15:19:45","新北市土城區中央路一段262巷29-2號","121.44282","24.9842333333333","6501300","土城區"
"236024","269-VK","2018/06/14 15:19:55","新北市土城區員林街61巷2弄2號","121.444088333333","24.977725","6501300","土城區"
"236012","270-VK","2018/06/14 15:19:49","新北市土城區廣福街68巷32-1號","121.458771666667","24.990345","6501300","土城區"
"236032","271-VK","2018/06/14 15:19:37","新北市土城區國際路139巷52號","121.468421666667","24.9775233333333","6501300","土城區"
"236068","KEA-2877","2018/06/14 15:19:55","新北市土城區裕民路185巷36弄10號","121.454368333333","24.984415","6501300","土城區"
"236017","401-BY","2018/06/14 15:19:51","新北市土城區明峰街83號","121.46894","24.9873283333333","6501300","土城區"
"236057","912-UM","2018/06/14 15:19:41","新北市土城區金城路一段131號","121.44485","24.9737966666667","6501300","土城區"
"236045","913-UM","2018/06/14 15:19:52","新北市土城區明德路一段71號","121.465573333333","24.983615","6501300","土城區"
"236060","915-UM","2018/06/14 15:19:38","新北市土城區延和路146巷10號","121.468031666667","24.98961","6501300","土城區"
"236054","AAC-216","2018/06/14 15:19:39","新北市土城區學府路一段44號","121.457866666667","24.988435","6501300","土城區"
"238010","601-UM","2018/06/14 15:19:53","新北市樹林區三俊街2號","121.410666666667","25.0151283333333","6500700","樹林區"
"238005","571-TV","2018/06/14 15:19:49","新北市樹林區樹新路95號","121.427926666667","24.995425","6500700","樹林區"
"238011","5061-A6","2018/06/14 15:19:53","新北市樹林區東榮街8號","121.41815","24.983835","6500700","樹林區"
"238008","KEA-2539","2018/06/14 15:19:40","新北市樹林區西圳街一段183巷29-3號","121.395435","24.9599683333333","6500700","樹林區"
"238012","303-VK","2018/06/14 15:19:41","新北市樹林區中山路一段239號","121.420731666667","24.98672","6500700","樹林區"
"238001","283-BY","2018/06/14 15:19:45","新北市樹林區保安街一段316號","121.418565","24.9976066666667","6500700","樹林區"
"238001","282-BY","2018/06/14 15:19:46","新北市樹林區大安路145巷4號","121.422236666667","24.996715","6500700","樹林區"
"238007","268-VK","2018/06/14 15:19:35","新北市樹林區俊英街138號","121.427055","25.006105","6500700","樹林區"
"238013","172-UY","2018/06/14 15:19:47","新北市樹林區新興街2-1號","121.400288333333","24.9744433333333","6500700","樹林區"
"238003","169-UY","2018/06/14 15:19:37","新北市樹林區育英街19號","121.42172","24.98909","6500700","樹林區"
"220050","245-BX","2018/06/14 15:19:44","新北市板橋區莊敬路171號","121.47103","25.023795","6500100","板橋區"
"220003","256-TC","2018/06/14 15:19:41","新北市板橋區仁愛路28號","121.458871666667","24.9994233333333","6500100","板橋區"
"220031","286-VK","2018/06/14 15:19:48","新北市板橋區僑中二街106巷25號","121.44476","25.007625","6500100","板橋區"
"220009","293-UM","2018/06/14 15:19:52","新北市板橋區四川路一段286巷7號","121.458283333333","25.000895","6500100","板橋區"
"220041","307-R5","2018/06/14 15:19:49","新北市板橋區文化路一段81巷7號","121.460463333333","25.01414","6500100","板橋區"
"220037","491-VK","2018/06/14 15:19:49","新北市板橋區仁化街191號","121.47859","25.034085","6500100","板橋區"
"220052","561-BX","2018/06/14 15:19:34","新北市板橋區新海路104號","121.461421666667","25.0224583333333","6500100","板橋區"
"220011","609-BX","2018/06/14 15:19:57","新北市板橋區三民路一段141號","121.479146666667","25.0199183333333","6500100","板橋區"
"220042","689-BX","2018/06/14 15:19:47","新北市板橋區長江路二段2號","121.464498333333","25.0311816666667","6500100","板橋區"
"220051","KEA-2699","2018/06/14 15:19:48","新北市板橋區漢生東路83巷2號","121.466871666667","25.0157516666667","6500100","板橋區"
"220038","833-TW","2018/06/14 15:19:53","新北市板橋區互助街47號","121.461021666667","25.0265666666667","6500100","板橋區"
"220046","AAC-210","2018/06/14 15:19:43","新北市板橋區復興街139號","121.461175","25.01812","6500100","板橋區"
"220018","AAC-253","2018/06/14 15:19:39","新北市板橋區德興街13號","121.453425","24.9945","6500100","板橋區"
