"lineid","car","time","location","longitude","latitude","cityid","cityname"
"249005","172-UM","2018/06/14 16:49:33","新北市八里區大堀湖2-3號","121.422291666667","25.1537","6502300","八里區"
"249004","303-UY","2018/06/14 16:49:28","新北市八里區中山路二段210巷191號","121.40326","25.1576833333333","6502300","八里區"
"249002","305-UY","2018/06/14 16:49:45","新北市八里區牛寮埔33號","121.430028333333","25.14573","6502300","八里區"
"249003","593-UM","2018/06/14 16:49:29","新北市八里區中山路二段289號","121.401531666667","25.1486116666667","6502300","八里區"
"244013","069-UM","2018/06/14 16:49:27","新北市林口區粉寮69號","121.404833333333","25.090815","6501700","林口區"
"244007","080-UY","2018/06/14 16:49:27","新北市林口區粉寮路一段137號","121.399013333333","25.081145","6501700","林口區"
"244019","403-UM","2018/06/14 16:49:35","新北市林口區粉寮69號","121.405058333333","25.0908133333333","6501700","林口區"
"244023","483-VK","2018/06/14 16:49:41","新北市林口區粉寮路二段160巷28號","121.40514","25.0907883333333","6501700","林口區"
"231046","188-VK","2018/06/14 16:49:32","新北市新店區灣潭路15-8號","121.540775","24.9388433333333","6500600","新店區"
"241011","013-R5","2018/06/14 16:49:35","新北市三重區公園街9號","121.499561666667","25.0727633333333","6500200","三重區"
"241028","022-UY","2018/06/14 16:49:32","新北市三重區光興街81號","121.497718333333","25.0600033333333","6500200","三重區"
"241008","059-VK","2018/06/14 16:49:40","新北市三重區永福街179巷27號","121.477938333333","25.0748616666667","6500200","三重區"
"241009","060-VK","2018/06/14 16:49:34","新北市三重區三和路四段203巷240號","121.487041666667","25.08089","6500200","三重區"
"241031","061-VK","2018/06/14 16:49:26","新北市三重區過圳街30號","121.48828","25.0594466666667","6500200","三重區"
"241015","062-VK","2018/06/14 16:49:40","新北市三重區文化北路47號","121.498916666667","25.0655083333333","6500200","三重區"
"241017","063-VK","2018/06/14 16:49:31","新北市三重區國隆路8巷19號","121.492958333333","25.0635566666667","6500200","三重區"
"241024","065-VK","2018/06/14 16:49:37","新北市三重區中正北路315巷6弄53號","121.476525","25.07221","6500200","三重區"
"241002","090-VK","2018/06/14 16:49:45","新北市三重區仁義街241巷46號","121.497381666667","25.0832816666667","6500200","三重區"
"241005","742-BX","2018/06/14 16:49:41","新北市三重區碧華街148巷19號","121.48527","25.0824","6500200","三重區"
"241003","265-UM","2018/06/14 16:49:42","新北市三重區五華街87巷24號","121.492771666667","25.08386","6500200","三重區"
"241016","266-UM","2018/06/14 16:49:39","新北市三重區大同北路117號","121.494113333333","25.064325","6500200","三重區"
"241022","267-UM","2018/06/14 16:49:41","新北市三重區中華路94號","121.483453333333","25.0630866666667","6500200","三重區"
"241018","268-UM","2018/06/14 16:49:26","新北市三重區正義北路294號","121.495343333333","25.0695166666667","6500200","三重區"
"241032","269-UM","2018/06/14 16:49:33","新北市三重區重陽路一段120巷39號","121.484951666667","25.06032","6500200","三重區"
"241013","270-UM","2018/06/14 16:49:36","新北市三重區仁壽街10號","121.496455","25.07332","6500200","三重區"
"241025","271-UM","2018/06/14 16:49:32","新北市三重區中正北路530巷19號","121.471876666667","25.0703866666667","6500200","三重區"
"241007","398-BY","2018/06/14 16:49:46","新北市三重區三和路四段181巷132號","121.485415","25.079825","6500200","三重區"
"241004","475-VK","2018/06/14 16:49:32","新北市三重區仁愛街397巷5號","121.491561666667","25.081175","6500200","三重區"
"241020","478-VK","2018/06/14 16:49:46","新北市三重區後竹圍街206號","121.48606","25.0716933333333","6500200","三重區"
"241030","480-VK","2018/06/14 16:49:25","新北市三重區中正南路275號","121.492635","25.0525866666667","6500200","三重區"
"241014","543-UM","2018/06/14 16:49:27","新北市三重區龍濱路151號","121.502616666667","25.0693083333333","6500200","三重區"
"241023","545-UM","2018/06/14 16:49:44","新北市三重區新北大道一段206巷13號","121.482493333333","25.062465","6500200","三重區"
"241001","547-UM","2018/06/14 16:49:42","新北市三重區仁政街58號","121.492875","25.077075","6500200","三重區"
"241019","KEA-2593","2018/06/14 16:49:39","新北市三重區三張街149巷10弄14號","121.485963333333","25.069725","6500200","三重區"
"241006","AAD-863","2018/06/14 16:49:27","新北市三重區力行路二段160號","121.482736666667","25.0764133333333","6500200","三重區"
"241026","887-TS","2018/06/14 16:49:42","新北市三重區文化南路12號","121.500305","25.0620383333333","6500200","三重區"
"241012","941-UM","2018/06/14 16:49:27","新北市三重區仁興街11巷26號","121.500481666667","25.0742966666667","6500200","三重區"
"241029","942-UM","2018/06/14 16:49:32","新北市三重區集美街207巷7號","121.491998333333","25.0542983333333","6500200","三重區"
"241033","AAC-255","2018/06/14 16:49:48","新北市三重區光華路69號","121.466636666667","25.06002","6500200","三重區"
"235046","733-UM","2018/06/14 16:34:42","新北市中和區員山路36巷13號","121.484173333333","24.99081","6500300","中和區"
"247004","337-TH","2018/06/14 16:49:38","新北市蘆洲區長榮路151號","121.461703333333","25.0839633333333","6501400","蘆洲區"
"247006","336-TH","2018/06/14 16:49:44","新北市蘆洲區長安街49巷8弄1號","121.462355","25.078655","6501400","蘆洲區"
"247008","056-VK","2018/06/14 16:49:36","新北市蘆洲區中山一路174號","121.474363333333","25.0813216666667","6501400","蘆洲區"
"247020","001-UY","2018/06/14 16:49:28","新北市蘆洲區民族路331-2號","121.474023333333","25.09165","6501400","蘆洲區"
"228003","097-TW","2018/06/14 16:49:36","新北市貢寮區貢寮里朝陽街1-2號","121.912353333333","25.021255","6502600","貢寮區"
"228002","585-TW","2018/06/14 16:49:30","新北市貢寮區貢寮里朝陽街122號","121.907946666667","25.0223866666667","6502600","貢寮區"
"224006","676-BX","2018/06/14 16:49:30","新北市瑞芳區大寮路356-1號","121.784845","25.10317","6501200","瑞芳區"
"224008","285-BY","2018/06/14 16:49:43","新北市瑞芳區明燈路二段66號","121.809383333333","25.1071833333333","6501200","瑞芳區"
"224007","275-VK","2018/06/14 16:49:43","新北市瑞芳區中央路48巷吉祥園8號","121.759436666667","25.1035566666667","6501200","瑞芳區"
"224009","273-VK","2018/06/14 16:49:34","新北市瑞芳區中正路2號","121.809353333333","25.1070483333333","6501200","瑞芳區"
"224005","271-BY","2018/06/14 16:49:33","新北市瑞芳區明里路90號","121.867778333333","25.122015","6501200","瑞芳區"
"227004","642-TC","2018/06/14 16:49:30","新北市雙溪區外柑里外柑腳71號","121.807143333333","25.01761","6502500","雙溪區"
"227010","400-TW","2018/06/14 16:49:36","新北市雙溪區牡丹里五分10號","121.866565","25.047085","6502500","雙溪區"
"251004","009-UM","2018/06/14 16:49:43","新北市淡水區中正路二段31號","121.419461666667","25.1816233333333","6501000","淡水區"
"251005","010-UM","2018/06/14 16:49:34","新北市淡水區中正路二段31號","121.419128333333","25.1819066666667","6501000","淡水區"
"251013","KEA-2871","2018/06/14 16:49:31","新北市淡水區泉洲厝32號","121.48925","25.1925866666667","6501000","淡水區"
"251016","179-VK","2018/06/14 16:49:28","新北市淡水區水頭42號","121.478243333333","25.184975","6501000","淡水區"
"251014","180-VK","2018/06/14 16:49:27","新北市淡水區淡金路四段476號","121.452431666667","25.2239066666667","6501000","淡水區"
"251015","182-VK","2018/06/14 16:49:41","新北市淡水區忠愛街4號","121.459533333333","25.171335","6501000","淡水區"
"251010","413-VK","2018/06/14 16:49:26","新北市淡水區中正路二段31號","121.419511666667","25.1814833333333","6501000","淡水區"
"251012","441-VK","2018/06/14 16:49:21","新北市淡水區中正路二段31號","121.419743333333","25.1815633333333","6501000","淡水區"
"251007","442-VK","2018/06/14 16:49:42","新北市淡水區中正路二段31號","121.419581666667","25.1814616666667","6501000","淡水區"
"251008","443-VK","2018/06/14 16:49:41","新北市淡水區樹梅坑42號","121.474565","25.14425","6501000","淡水區"
"251011","650-BX","2018/06/14 16:49:41","新北市淡水區中正路二段31號","121.41947","25.1817883333333","6501000","淡水區"
"252002","178-VK","2018/06/14 16:49:35","新北市三芝區忠孝街156號","121.506155","25.2586","6502100","三芝區"
"252001","292-VK","2018/06/14 16:49:39","新北市三芝區淡金路二段76-1號","121.503816666667","25.260825","6502100","三芝區"
"236057","912-UM","2018/06/14 16:49:41","新北市樹林區中山路三段210-2號","121.380653333333","24.9666566666667","6501300","土城區"
"242053","751-BX","2018/06/14 16:49:46","新北市新莊區新泰路357巷3弄57號","121.44214","25.0391516666667","6500500","新莊區"
"242036","415-TV","2018/06/14 16:49:38","新北市新莊區新泰路357巷3弄57號","121.442283333333","25.0392566666667","6500500","新莊區"
"242023","362-BY","2018/06/14 16:49:37","新北市新莊區三和路12-21號","121.442175","25.0385283333333","6500500","新莊區"
"238011","5061-A6","2018/06/14 16:37:37","新北市樹林區育德街78-1號","121.387825","24.9681016666667","6500700","樹林區"
"238025","303-VK","2018/06/14 16:47:28","新北市樹林區中正路22-1號","121.427835","24.9992983333333","6500700","樹林區"
"238001","283-BY","2018/06/14 16:49:45","新北市樹林區中正路433-2號","121.414678333333","25.00844","6500700","樹林區"
"238001","282-BY","2018/06/14 16:49:39","新北市樹林區中正路22號","121.42807","24.9998","6500700","樹林區"
"238007","268-VK","2018/06/14 16:49:35","新北市樹林區環河路2號","121.42806","24.979045","6500700","樹林區"
"220014","830-TW","2018/06/14 16:28:12","新北市板橋區民生路二段161巷5號","121.47022","25.0197133333333","6500100","板橋區"
