"lineid","car","time","location","longitude","latitude","cityid","cityname"
"249005","172-UM","2018/06/14 17:09:33","新北市八里區華富山6-8號","121.419776666667","25.1430383333333","6502300","八里區"
"249001","173-UM","2018/06/14 17:09:32","新北市八里區中華路二段310號","121.403868333333","25.1483716666667","6502300","八里區"
"249004","303-UY","2018/06/14 17:09:28","新北市八里區忠孝路276號","121.420365","25.1611016666667","6502300","八里區"
"249002","305-UY","2018/06/14 17:09:25","新北市八里區米倉14-2號","121.439578333333","25.14996","6502300","八里區"
"249003","593-UM","2018/06/14 17:09:29","新北市八里區中山路二段496號","121.39832","25.147105","6502300","八里區"
"244013","069-UM","2018/06/14 17:09:27","新北市林口區粉寮69號","121.40479","25.0908","6501700","林口區"
"244007","080-UY","2018/06/14 17:09:27","新北市林口區中湖26-16號","121.376088333333","25.0941333333333","6501700","林口區"
"244019","403-UM","2018/06/14 17:09:35","新北市林口區仁愛路二段167號","121.38169","25.0740016666667","6501700","林口區"
"244023","483-VK","2018/06/14 17:09:41","新北市林口區仁愛路一段382號","121.388003333333","25.0767333333333","6501700","林口區"
"244017","485-VK","2018/06/14 17:09:46","新北市林口區粉寮69號","121.405071666667","25.0908266666667","6501700","林口區"
"244009","656-BX","2018/06/14 17:09:26","新北市林口區中北二街19巷18號","121.383385","25.0880766666667","6501700","林口區"
"244011","657-BX","2018/06/14 17:09:47","新北市林口區中山路6號","121.396691666667","25.0783233333333","6501700","林口區"
"244025","837-TS","2018/06/14 17:09:44","新北市林口區粉寮路二段1-1號","121.400461666667","25.0837833333333","6501700","林口區"
"244021","838-TS","2018/06/14 17:09:31","新北市林口區粉寮一街150號","121.4038","25.0867416666667","6501700","林口區"
"231046","188-VK","2018/06/14 17:09:37","新北市新店區直潭路90-1號","121.531815","24.937715","6500600","新店區"
"241011","013-R5","2018/06/14 17:09:35","新北市三重區龍門路220號","121.50025","25.07358","6500200","三重區"
"241028","022-UY","2018/06/14 17:09:31","新北市三重區重新路三段108號","121.492406666667","25.0604816666667","6500200","三重區"
"241008","059-VK","2018/06/14 17:09:40","新北市三重區力行路二段136巷23弄2號","121.48124","25.07558","6500200","三重區"
"241009","060-VK","2018/06/14 17:09:34","新北市三重區三和路四段215巷14號","121.48233","25.0799633333333","6500200","三重區"
"241015","062-VK","2018/06/14 17:09:40","新北市三重區長生街32號","121.499616666667","25.0664883333333","6500200","三重區"
"241017","063-VK","2018/06/14 17:09:31","新北市三重區中正北路25巷25弄5號","121.493363333333","25.062685","6500200","三重區"
"241024","065-VK","2018/06/14 17:09:37","新北市三重區國道路一段58巷20號","121.481198333333","25.0720383333333","6500200","三重區"
"241002","090-VK","2018/06/14 17:09:25","新北市三重區仁義街225巷40號","121.497713333333","25.0829583333333","6500200","三重區"
"241005","742-BX","2018/06/14 17:09:41","新北市三重區碧華街56巷3號","121.483931666667","25.0816366666667","6500200","三重區"
"241003","265-UM","2018/06/14 17:09:44","新北市三重區富福街114號","121.493543333333","25.0857383333333","6500200","三重區"
"241016","266-UM","2018/06/14 17:09:42","新北市三重區大同北路135巷2號","121.492898333333","25.0646516666667","6500200","三重區"
"241022","267-UM","2018/06/14 17:09:41","新北市三重區三民街88號","121.48562","25.062975","6500200","三重區"
"241018","268-UM","2018/06/14 17:09:46","新北市三重區大智街160-1號","121.491765","25.0689466666667","6500200","三重區"
"241032","269-UM","2018/06/14 17:09:30","新北市三重區興華街38號","121.485345","25.0596566666667","6500200","三重區"
"241013","270-UM","2018/06/14 17:09:36","新北市三重區仁愛街88號","121.495498333333","25.07386","6500200","三重區"
"241025","271-UM","2018/06/14 17:09:32","新北市三重區中正北路560巷38號","121.471523333333","25.0682416666667","6500200","三重區"
"241007","398-BY","2018/06/14 17:09:25","新北市三重區三和路四段163巷24號","121.484911666667","25.079135","6500200","三重區"
"241004","475-VK","2018/06/14 17:09:32","新北市三重區五華街96號","121.492581666667","25.0823366666667","6500200","三重區"
"241020","478-VK","2018/06/14 17:09:46","新北市三重區自強路三段75號","121.48686","25.0736916666667","6500200","三重區"
"241030","480-VK","2018/06/14 17:09:45","新北市三重區成功路39號","121.489648333333","25.0505533333333","6500200","三重區"
"241014","543-UM","2018/06/14 17:09:27","新北市三重區長壽街120巷113號","121.501665","25.0714683333333","6500200","三重區"
"241023","545-UM","2018/06/14 17:09:34","新北市三重區忠孝路三段84巷5號","121.480271666667","25.0644433333333","6500200","三重區"
"241001","547-UM","2018/06/14 17:09:42","新北市三重區仁愛街255巷28號","121.493743333333","25.0786866666667","6500200","三重區"
"241019","KEA-2593","2018/06/14 17:09:39","新北市三重區自強路二段74巷45號","121.487316666667","25.0695916666667","6500200","三重區"
"241006","AAD-863","2018/06/14 17:09:27","新北市三重區車路頭街139巷2號","121.483806666667","25.0763633333333","6500200","三重區"
"241026","887-TS","2018/06/14 17:09:41","新北市三重區重新路二段1號","121.499643333333","25.063015","6500200","三重區"
"241012","941-UM","2018/06/14 17:09:27","新北市三重區仁興街10號","121.499721666667","25.0743466666667","6500200","三重區"
"241029","942-UM","2018/06/14 17:09:32","新北市三重區重安街106號","121.493256666667","25.055665","6500200","三重區"
"241033","AAC-255","2018/06/14 17:09:48","新北市三重區中興北街271號","121.469215","25.060635","6500200","三重區"
"235046","733-UM","2018/06/14 17:08:46","新北市中和區員山路36巷13號","121.484123333333","24.9908666666667","6500300","中和區"
"235062","800-TS","2018/06/14 17:09:46","新北市中和區員山路36巷16-3號","121.484916666667","24.9913616666667","6500300","中和區"
"247024","893-R6","2018/06/14 17:09:36","新北市蘆洲區長興路62號","121.463176666667","25.0838933333333","6501400","蘆洲區"
"247014","546-UM","2018/06/14 17:09:40","新北市蘆洲區中央路37巷15號","121.473335","25.0825","6501400","蘆洲區"
"247022","500-BY","2018/06/14 17:09:26","新北市蘆洲區三民路222號","121.468928333333","25.0892116666667","6501400","蘆洲區"
"247010","341-TH","2018/06/14 17:09:32","新北市蘆洲區民族路20號","121.476028333333","25.0841866666667","6501400","蘆洲區"
"247012","339-TH","2018/06/14 17:09:49","新北市蘆洲區信義路278號","121.478028333333","25.0872666666667","6501400","蘆洲區"
"247004","337-TH","2018/06/14 17:09:38","新北市蘆洲區長安街193巷27號","121.459595","25.0813883333333","6501400","蘆洲區"
"247006","336-TH","2018/06/14 17:09:24","新北市蘆洲區長安街102巷63-1號","121.462526666667","25.08227","6501400","蘆洲區"
"247018","057-VK","2018/06/14 17:08:54","新北市蘆洲區復興路173號","121.478591666667","25.0893666666667","6501400","蘆洲區"
"247008","056-VK","2018/06/14 17:09:36","新北市蘆洲區信義路30巷56號","121.474658333333","25.07805","6501400","蘆洲區"
"247016","007-UY","2018/06/14 17:09:43","新北市蘆洲區光華路71號","121.46811","25.0827083333333","6501400","蘆洲區"
"247002","002-UY","2018/06/14 17:09:43","新北市蘆洲區永樂街108號","121.455921666667","25.0888783333333","6501400","蘆洲區"
"247020","001-UY","2018/06/14 17:09:48","新北市蘆洲區仁愛街36巷18號","121.472815","25.093505","6501400","蘆洲區"
"228003","097-TW","2018/06/14 17:09:36","新北市貢寮區福隆里東興街31-1號","121.952481666667","25.020745","6502600","貢寮區"
"228001","212-TW","2018/06/14 17:09:35","新北市貢寮區仁理村尖山腳街20號","121.924168333333","25.0477083333333","6502600","貢寮區"
"228002","585-TW","2018/06/14 17:09:30","新北市貢寮區龍崗里嵩陽街55號","121.907711666667","25.0166066666667","6502600","貢寮區"
"224006","676-BX","2018/06/14 17:09:40","新北市瑞芳區大寮路101-4號","121.77799","25.099525","6501200","瑞芳區"
"224008","285-BY","2018/06/14 17:09:43","新北市瑞芳區侯硐路145號","121.831726666667","25.0904783333333","6501200","瑞芳區"
"224007","275-VK","2018/06/14 17:09:43","新北市瑞芳區粗坑口路88號","121.760576666667","25.0991483333333","6501200","瑞芳區"
"224009","273-VK","2018/06/14 17:09:34","新北市瑞芳區坑尾巷29號","121.843635","25.1106416666667","6501200","瑞芳區"
"224005","271-BY","2018/06/14 17:09:33","新北市瑞芳區鼻頭路93號","121.91612","25.1242883333333","6501200","瑞芳區"
"227004","642-TC","2018/06/14 17:09:30","新北市雙溪區外柑里外柑腳51號","121.808186666667","25.0179383333333","6502500","雙溪區"
"227010","400-TW","2018/06/14 17:09:36","新北市雙溪區三貂里子崙坑1-6號","121.84988","25.0574616666667","6502500","雙溪區"
"251009","008-UM","2018/06/14 17:09:29","新北市淡水區三民街20號","121.439003333333","25.1717466666667","6501000","淡水區"
"251004","009-UM","2018/06/14 17:09:44","新北市淡水區中正東路二段87-3號","121.459285","25.15283","6501000","淡水區"
"251005","010-UM","2018/06/14 17:09:34","新北市淡水區水源街一段145號","121.447378333333","25.1718266666667","6501000","淡水區"
"251013","KEA-2871","2018/06/14 17:09:11","新北市淡水區大埤頭5-2號","121.484326666667","25.195705","6501000","淡水區"
"251016","179-VK","2018/06/14 17:09:48","新北市淡水區社厝坑3-11號","121.475121666667","25.1888033333333","6501000","淡水區"
"251014","180-VK","2018/06/14 17:09:47","新北市淡水區公埔子2-1號","121.461868333333","25.2259583333333","6501000","淡水區"
"251015","182-VK","2018/06/14 17:09:41","新北市淡水區樹林口22號","121.477526666667","25.169825","6501000","淡水區"
"251010","413-VK","2018/06/14 17:09:26","新北市淡水區新市五路二段75號","121.431363333333","25.1984816666667","6501000","淡水區"
"251012","441-VK","2018/06/14 17:09:41","新北市淡水區中山北路一段156號","121.444196666667","25.1779483333333","6501000","淡水區"
"251007","442-VK","2018/06/14 17:09:42","新北市淡水區中正東路二段141號","121.459576666667","25.1478216666667","6501000","淡水區"
"251008","443-VK","2018/06/14 17:09:41","新北市淡水區民生路169號","121.469591666667","25.1420616666667","6501000","淡水區"
"251006","561-UM","2018/06/14 17:09:26","新北市淡水區真理街6號","121.438431666667","25.1746116666667","6501000","淡水區"
"251011","650-BX","2018/06/14 17:09:41","新北市淡水區坪頂路51巷2號","121.458045","25.1626583333333","6501000","淡水區"
"252002","178-VK","2018/06/14 17:09:35","新北市三芝區忠孝街1-18號","121.505626666667","25.2536733333333","6502100","三芝區"
"252001","292-VK","2018/06/14 17:09:39","新北市三芝區埔頭里埔頭37號","121.498445","25.2602516666667","6502100","三芝區"
"242034","AAC-296","2018/06/14 17:09:41","新北市新莊區新泰路357巷3弄57號","121.442281666667","25.03954","6500500","新莊區"
"242058","986-R7","2018/06/14 17:09:43","新北市新莊區新泰路255巷83號","121.4422","25.039045","6500500","新莊區"
"242053","751-BX","2018/06/14 17:09:46","新北市新莊區新泰路357巷3弄49號","121.442","25.040105","6500500","新莊區"
"242025","705-TV","2018/06/14 17:09:26","新北市新莊區新泰路357巷3弄51號","121.44231","25.0399866666667","6500500","新莊區"
"242027","615-BX","2018/06/14 17:09:32","新北市新莊區新泰路413巷22號","121.442333333333","25.0444316666667","6500500","新莊區"
"242042","566-BX","2018/06/14 17:09:45","新北市新莊區新泰路255巷83號","121.442123333333","25.0390816666667","6500500","新莊區"
"242046","497-BY","2018/06/14 17:09:39","新北市新莊區三和路12-9號","121.442223333333","25.0366533333333","6500500","新莊區"
"242051","441-UM","2018/06/14 17:09:35","新北市新莊區新莊路773號","121.442053333333","25.0326466666667","6500500","新莊區"
"242056","440-UM","2018/06/14 17:09:35","新北市新莊區新泰路357巷3弄49號","121.441898333333","25.0401133333333","6500500","新莊區"
"242036","415-TV","2018/06/14 17:09:38","新北市新莊區三和路12-16號","121.442141666667","25.0373616666667","6500500","新莊區"
"242007","413-TV","2018/06/14 17:09:28","新北市新莊區新泰路357巷3弄57號","121.442066666667","25.03943","6500500","新莊區"
"242044","400-BY","2018/06/14 17:09:28","新北市新莊區新泰路357巷3弄1號","121.442311666667","25.0414783333333","6500500","新莊區"
"242023","362-BY","2018/06/14 17:09:36","新北市新莊區中港一街141號","121.448041666667","25.04498","6500500","新莊區"
"242061","353-BY","2018/06/14 17:09:44","新北市新莊區新泰路255巷83號","121.442203333333","25.038755","6500500","新莊區"
"242039","133-UY","2018/06/14 17:09:41","新北市新莊區三和路10號","121.441928333333","25.0360916666667","6500500","新莊區"
"242031","135-UY","2018/06/14 17:09:35","新北市新莊區三和路12-21號","121.442075","25.0387966666667","6500500","新莊區"
"242048","172-VK","2018/06/14 17:09:46","新北市新莊區福營路250號","121.426048333333","25.0292016666667","6500500","新莊區"
"242017","175-VK","2018/06/14 17:09:42","新北市新莊區中港路301號","121.452861666667","25.0444116666667","6500500","新莊區"
"242004","176-VK","2018/06/14 17:09:30","新北市新莊區三和路12-21號","121.441966666667","25.0386516666667","6500500","新莊區"
"242019","350-TH","2018/06/14 17:09:30","新北市新莊區新泰路357巷3弄57號","121.442335","25.0396166666667","6500500","新莊區"
"242013","351-TH","2018/06/14 17:09:41","新北市新莊區新泰路357巷3弄57號","121.442193333333","25.0394616666667","6500500","新莊區"
"238023","601-UM","2018/06/14 17:09:32","新北市樹林區保安街一段237號","121.420216666667","24.9965166666667","6500700","樹林區"
"238024","5061-A6","2018/06/14 17:09:30","新北市樹林區鎮前街77-21號","121.424661666667","24.9901016666667","6500700","樹林區"
"238022","KEA-2213","2018/06/14 17:09:37","新北市樹林區忠孝街31號","121.423711666667","24.9821966666667","6500700","樹林區"
"238021","KEA-2539","2018/06/14 17:09:28","新北市樹林區西圳街一段165巷20弄11號","121.395663333333","24.960185","6500700","樹林區"
"238025","303-VK","2018/06/14 17:09:49","新北市樹林區中正路22-1號","121.427806666667","24.9993066666667","6500700","樹林區"
"238017","283-BY","2018/06/14 17:09:46","新北市樹林區光武街28號","121.415848333333","25.00566","6500700","樹林區"
"238001","282-BY","2018/06/14 17:09:38","新北市樹林區大慶街99-1號","121.427723333333","24.9996483333333","6500700","樹林區"
"238020","268-VK","2018/06/14 17:09:35","新北市樹林區八德街1146號","121.390931666667","24.9684683333333","6500700","樹林區"
"238026","172-UY","2018/06/14 17:09:30","新北市樹林區新興街67號","121.399895","24.9708066666667","6500700","樹林區"
"238016","169-UY","2018/06/14 17:09:38","新北市樹林區八德街1號","121.417526666667","24.9849633333333","6500700","樹林區"
"239006","891-R6","2018/06/14 17:09:40","新北市鶯歌區八德路2巷20弄2號","121.33627","24.9466333333333","6500800","鶯歌區"
"239008","527-UM","2018/06/14 17:09:44","新北市鶯歌區尖山路57-1號","121.350081666667","24.94979","6500800","鶯歌區"
"239005","526-UM","2018/06/14 17:09:26","新北市鶯歌區鶯桃路311號","121.333873333333","24.9608033333333","6500800","鶯歌區"
"239001","417-VK","2018/06/14 17:09:29","新北市鶯歌區尖山路140巷6弄1號","121.346496666667","24.9490133333333","6500800","鶯歌區"
"239003","360-BY","2018/06/14 17:09:42","新北市鶯歌區八德路50號","121.330493333333","24.9554783333333","6500800","鶯歌區"
"239002","359-BY","2018/06/14 17:09:41","新北市鶯歌區建國路253號","121.348088333333","24.9534583333333","6500800","鶯歌區"
"239004","193-VK","2018/06/14 17:09:32","新北市鶯歌區文化路324巷1-10號","121.351315","24.94517","6500800","鶯歌區"
"242002","KEA-2550","2018/06/14 17:09:39","新北市新莊區新泰路357巷2-2號","121.44205","25.0412416666667","6500500","新莊區"
"242009","281-VK","2018/06/14 17:09:42","新北市新莊區新泰路255巷83號","121.442236666667","25.0390083333333","6500500","新莊區"
