"lineid","car","time","location","longitude","latitude","cityid","cityname"
"249005","172-UM","2018/06/14 17:29:33","新北市八里區荖阡坑路67號","121.405473333333","25.12863","6502300","八里區"
"249001","173-UM","2018/06/14 17:29:32","新北市八里區中華路一段1-5號","121.423316666667","25.15863","6502300","八里區"
"249004","303-UY","2018/06/14 17:29:28","新北市八里區埤頭一街6號","121.415758333333","25.1560483333333","6502300","八里區"
"249002","305-UY","2018/06/14 17:29:45","新北市八里區烏山頭1-10號","121.447343333333","25.140385","6502300","八里區"
"249003","593-UM","2018/06/14 17:29:29","新北市八里區中山路二段315號","121.400616666667","25.1477733333333","6502300","八里區"
"232011","375-UM","2018/06/14 17:29:31","新北市坪林區北宜路八段558號","121.718383333333","24.9093266666667","6502000","坪林區"
"244013","069-UM","2018/06/14 17:29:27","新北市林口區粉寮路31-2號","121.40384","25.087385","6501700","林口區"
"244007","080-UY","2018/06/14 17:29:47","新北市林口區湖子17-3號","121.384995","25.0912266666667","6501700","林口區"
"244019","403-UM","2018/06/14 17:29:44","新北市林口區公園路163號","121.370918333333","25.071495","6501700","林口區"
"244023","483-VK","2018/06/14 17:29:41","新北市林口區東明三街364號","121.391703333333","25.070525","6501700","林口區"
"244017","485-VK","2018/06/14 17:29:46","新北市林口區中山路301號","121.383951666667","25.0803416666667","6501700","林口區"
"244009","656-BX","2018/06/14 17:29:26","新北市林口區中北一街17巷11號","121.384795","25.0874416666667","6501700","林口區"
"244011","657-BX","2018/06/14 17:29:47","新北市林口區中正路455號","121.38444","25.0774733333333","6501700","林口區"
"244025","837-TS","2018/06/14 17:29:44","新北市林口區忠孝路53號","121.365391666667","25.0751066666667","6501700","林口區"
"244021","838-TS","2018/06/14 17:29:31","新北市林口區粉寮路二段227-1號","121.403726666667","25.0910683333333","6501700","林口區"
"231046","188-VK","2018/06/14 17:29:32","新北市新店區直潭路92號","121.53093","24.9376783333333","6500600","新店區"
"241011","013-R5","2018/06/14 17:29:35","新北市三重區河邊北街110巷53號","121.502753333333","25.070675","6500200","三重區"
"241009","060-VK","2018/06/14 17:29:34","新北市三重區車路頭街137號","121.484021666667","25.0762133333333","6500200","三重區"
"241015","062-VK","2018/06/14 17:29:40","新北市三重區長元街65巷22弄20號","121.503685","25.0659216666667","6500200","三重區"
"241017","063-VK","2018/06/14 17:29:31","新北市三重區大同北路34巷52號","121.49356","25.0618983333333","6500200","三重區"
"241024","065-VK","2018/06/14 17:29:37","新北市三重區中正北路193巷21弄24號","121.47777","25.070815","6500200","三重區"
"241002","090-VK","2018/06/14 17:29:25","新北市三重區仁義街393號","121.494595","25.0855833333333","6500200","三重區"
"241005","742-BX","2018/06/14 17:29:41","新北市三重區永安北路二段25巷35號","121.482905","25.0819","6500200","三重區"
"241003","265-UM","2018/06/14 17:29:42","新北市三重區富福街3號","121.48999","25.0831183333333","6500200","三重區"
"241016","266-UM","2018/06/14 17:29:39","新北市三重區信義西街144號","121.495548333333","25.0640316666667","6500200","三重區"
"241022","267-UM","2018/06/14 17:29:41","新北市三重區重陽路二段36號","121.486833333333","25.06319","6500200","三重區"
"241018","268-UM","2018/06/14 17:29:26","新北市三重區自強路一段179號","121.492398333333","25.0677916666667","6500200","三重區"
"241025","271-UM","2018/06/14 17:29:47","新北市三重區中正北路416號","121.475076666667","25.0708183333333","6500200","三重區"
"241007","398-BY","2018/06/14 17:29:46","新北市三重區三和路四段145巷181號","121.488108333333","25.079385","6500200","三重區"
"241020","478-VK","2018/06/14 17:29:46","新北市三重區自強路三段7巷58號","121.488685","25.0724783333333","6500200","三重區"
"241030","480-VK","2018/06/14 17:29:45","新北市三重區集美街168號","121.490191666667","25.0530183333333","6500200","三重區"
"241014","543-UM","2018/06/14 17:29:48","新北市三重區長壽街63號","121.501495","25.0684733333333","6500200","三重區"
"241023","545-UM","2018/06/14 17:29:34","新北市三重區忠孝路三段50巷41弄8號","121.482395","25.0644816666667","6500200","三重區"
"241019","KEA-2593","2018/06/14 17:29:39","新北市三重區自強路二段27號","121.489616666667","25.0693216666667","6500200","三重區"
"241012","941-UM","2018/06/14 17:29:47","新北市三重區仁昌街76號","121.498833333333","25.0747466666667","6500200","三重區"
"241033","AAC-255","2018/06/14 17:29:48","新北市三重區興德路145-2號","121.469011666667","25.0527766666667","6500200","三重區"
"235046","733-UM","2018/06/14 17:24:11","新北市中和區員山路36巷13號","121.484123333333","24.990875","6500300","中和區"
"235062","800-TS","2018/06/14 17:15:27","新北市中和區員山路36巷16-3號","121.484861666667","24.991605","6500300","中和區"
"247024","893-R6","2018/06/14 17:29:36","新北市蘆洲區長興路353號","121.460993333333","25.0914116666667","6501400","蘆洲區"
"247014","546-UM","2018/06/14 17:29:40","新北市蘆洲區三民路33號","121.475411666667","25.0830066666667","6501400","蘆洲區"
"247022","500-BY","2018/06/14 17:29:26","新北市蘆洲區三民路226號","121.468556666667","25.0893616666667","6501400","蘆洲區"
"247010","341-TH","2018/06/14 17:29:32","新北市蘆洲區中山一路120巷25號","121.478058333333","25.0820166666667","6501400","蘆洲區"
"247012","339-TH","2018/06/14 17:29:29","新北市蘆洲區民族路43號","121.478268333333","25.0854066666667","6501400","蘆洲區"
"247004","337-TH","2018/06/14 17:29:38","新北市蘆洲區中原路27號","121.46019","25.0827383333333","6501400","蘆洲區"
"247006","336-TH","2018/06/14 17:29:44","新北市蘆洲區長安街68巷33號","121.463851666667","25.080975","6501400","蘆洲區"
"247018","057-VK","2018/06/14 17:29:34","新北市蘆洲區民權路85號","121.473206666667","25.08868","6501400","蘆洲區"
"247008","056-VK","2018/06/14 17:29:36","新北市蘆洲區信義路34巷35號","121.47498","25.07843","6501400","蘆洲區"
"247016","007-UY","2018/06/14 17:29:48","新北市蘆洲區光華路22巷40號","121.46839","25.0848516666667","6501400","蘆洲區"
"247002","002-UY","2018/06/14 17:29:45","新北市蘆洲區永樂街38巷65號","121.458581666667","25.090365","6501400","蘆洲區"
"247020","001-UY","2018/06/14 17:29:28","新北市蘆洲區水湳街150號","121.469973333333","25.0937366666667","6501400","蘆洲區"
"228003","097-TW","2018/06/14 17:29:36","新北市貢寮區仁理村研海街45號","121.925881666667","25.0423616666667","6502600","貢寮區"
"228001","212-TW","2018/06/14 17:29:34","新北市貢寮區仁理村仁愛路52號","121.925385","25.05334","6502600","貢寮區"
"228002","585-TW","2018/06/14 17:29:30","新北市貢寮區福隆里興隆街21-1號","121.94337","25.0165033333333","6502600","貢寮區"
"224010","AGQ-8101","2018/06/14 17:28:33","新北市瑞芳區逢甲路135號","121.80712","25.1095916666667","6501200","瑞芳區"
"224006","676-BX","2018/06/14 17:29:30","新北市瑞芳區傑魚坑路95號","121.792436666667","25.110415","6501200","瑞芳區"
"224008","285-BY","2018/06/14 17:29:43","新北市瑞芳區侯硐路204號","121.830453333333","25.08821","6501200","瑞芳區"
"224009","273-VK","2018/06/14 17:29:37","新北市瑞芳區汽車路9-3號","121.84551","25.1098533333333","6501200","瑞芳區"
"224005","271-BY","2018/06/14 17:29:33","新北市瑞芳區海濱路8-6號","121.831665","25.1261683333333","6501200","瑞芳區"
"227004","642-TC","2018/06/14 17:29:30","新北市雙溪區平林里外平林74-1號","121.844361666667","25.0334433333333","6502500","雙溪區"
"227010","400-TW","2018/06/14 17:29:36","新北市雙溪區三貂里政光路3-1號","121.851018333333","25.063265","6502500","雙溪區"
"251009","008-UM","2018/06/14 17:29:29","新北市淡水區重建街1巷11號","121.439726666667","25.173885","6501000","淡水區"
"251004","009-UM","2018/06/14 17:12:49","新北市淡水區中正東路二段88巷15號","121.45919","25.1504883333333","6501000","淡水區"
"251005","010-UM","2018/06/14 17:29:34","新北市淡水區鄧公路31巷17號","121.45199","25.1706333333333","6501000","淡水區"
"251013","KEA-2871","2018/06/14 17:29:31","新北市淡水區大竹圍5號","121.466551666667","25.1952183333333","6501000","淡水區"
"251016","179-VK","2018/06/14 17:29:48","新北市淡水區埤島71號","121.457918333333","25.1923583333333","6501000","淡水區"
"251014","180-VK","2018/06/14 17:29:47","新北市淡水區公埔子20-2號","121.469858333333","25.229085","6501000","淡水區"
"251015","182-VK","2018/06/14 17:27:21","新北市淡水區樹林口7-1號","121.47949","25.1671283333333","6501000","淡水區"
"251010","413-VK","2018/06/14 17:29:45","新北市淡水區中正路二段206號","121.426225","25.1890816666667","6501000","淡水區"
"251012","441-VK","2018/06/14 17:29:41","新北市淡水區北新路111號","121.448053333333","25.1783566666667","6501000","淡水區"
"251007","442-VK","2018/06/14 17:29:42","新北市淡水區民生路47-4號","121.462096666667","25.138025","6501000","淡水區"
"251008","443-VK","2018/06/14 17:29:41","新北市淡水區大同路124巷14號","121.463573333333","25.1401216666667","6501000","淡水區"
"251006","561-UM","2018/06/14 17:29:46","新北市淡水區大仁街19號","121.442478333333","25.175115","6501000","淡水區"
"251011","650-BX","2018/06/14 17:29:41","新北市淡水區坪頂路712號","121.482506666667","25.1585133333333","6501000","淡水區"
"251002","672-BX","2018/06/14 17:29:32","新北市淡水區中正路437號","121.432036666667","25.17471","6501000","淡水區"
"251003","766-UM","2018/06/14 17:29:48","新北市淡水區文化路61號","121.438323333333","25.1728666666667","6501000","淡水區"
"207004","225-TW","2018/06/14 17:29:36","新北市萬里區萬里里景美路11-2號","121.68561","25.1728066666667","6502800","萬里區"
"252002","178-VK","2018/06/14 17:29:35","新北市三芝區忠孝街1-15號","121.505605","25.253975","6502100","三芝區"
"252001","292-VK","2018/06/14 17:29:39","新北市三芝區長安街119號","121.498073333333","25.259685","6502100","三芝區"
"237012","275-BY","2018/06/14 17:29:29","新北市三峽區中山路459巷163-3號","121.348958333333","24.933255","6500900","三峽區"
"237016","649-BX","2018/06/14 17:29:45","新北市三峽區中山路321-2號","121.360813333333","24.9380266666667","6500900","三峽區"
"237010","706-TV","2018/06/14 17:29:44","新北市三峽區中山路459巷163-3號","121.348821666667","24.93311","6500900","三峽區"
"242034","AAC-296","2018/06/14 17:29:41","新北市新莊區新莊路471號","121.449156666667","25.03337","6500500","新莊區"
"242058","986-R7","2018/06/14 17:29:43","新北市新莊區福營路98號","121.436658333333","25.033025","6500500","新莊區"
"242053","751-BX","2018/06/14 17:29:46","新北市新莊區瓊林南路305巷25號","121.435553333333","25.005075","6500500","新莊區"
"242025","705-TV","2018/06/14 17:29:46","新北市新莊區復興路二段39號","121.454468333333","25.0441683333333","6500500","新莊區"
"242027","615-BX","2018/06/14 17:29:31","新北市新莊區思源路32號","121.460201666667","25.0407383333333","6500500","新莊區"
"242029","612-BX","2018/06/14 17:29:30","新北市新莊區復興路二段190號","121.459151666667","25.0444516666667","6500500","新莊區"
"242042","566-BX","2018/06/14 17:29:45","新北市新莊區新樹路113巷32號","121.438688333333","25.0267033333333","6500500","新莊區"
"242046","497-BY","2018/06/14 17:29:39","新北市新莊區新樹路51號","121.440103333333","25.0319616666667","6500500","新莊區"
"242051","441-UM","2018/06/14 17:29:35","新北市新莊區西盛街245巷27弄1號","121.429335","25.0161566666667","6500500","新莊區"
"242056","440-UM","2018/06/14 17:29:35","新北市新莊區新泰路31號","121.449508333333","25.032975","6500500","新莊區"
"242036","415-TV","2018/06/14 17:29:38","新北市新莊區建國二路1號","121.435065","25.0237483333333","6500500","新莊區"
"242007","413-TV","2018/06/14 17:29:28","新北市新莊區自強街52號","121.454721666667","25.0467333333333","6500500","新莊區"
"242044","400-BY","2018/06/14 17:29:32","新北市新莊區富國路72號","121.41988","25.0258816666667","6500500","新莊區"
"242023","362-BY","2018/06/14 17:29:36","新北市新莊區公園路61號","121.453833333333","25.0402716666667","6500500","新莊區"
"242061","353-BY","2018/06/14 17:29:44","新北市新莊區瓊林南路42巷1-2號","121.435996666667","25.0180233333333","6500500","新莊區"
"242039","133-UY","2018/06/14 17:29:41","新北市新莊區民安路262號","121.427365","25.02123","6500500","新莊區"
"242031","135-UY","2018/06/14 17:29:35","新北市新莊區新泰路401巷15號","121.442915","25.0440116666667","6500500","新莊區"
"242048","172-VK","2018/06/14 17:29:46","新北市新莊區四維路227號","121.421395","25.0196833333333","6500500","新莊區"
"242017","175-VK","2018/06/14 17:29:43","新北市新莊區建豐街15號","121.451698333333","25.0437333333333","6500500","新莊區"
"242004","176-VK","2018/06/14 17:29:30","新北市新莊區中港路288巷20號","121.453638333333","25.0445733333333","6500500","新莊區"
"242015","346-TH","2018/06/14 17:29:42","新北市新莊區建中街90巷20號","121.447091666667","25.03777","6500500","新莊區"
"242021","348-TH","2018/06/14 17:29:35","新北市新莊區中華路一段3號","121.451906666667","25.03712","6500500","新莊區"
"242019","350-TH","2018/06/14 17:29:30","新北市新莊區中港路54號","121.455398333333","25.0385166666667","6500500","新莊區"
"242013","351-TH","2018/06/14 17:29:41","新北市新莊區中誠街16巷9號","121.45189","25.0487133333333","6500500","新莊區"
"238015","755-BX","2018/06/14 17:29:41","新北市樹林區大安路269號","121.418956666667","24.9936866666667","6500700","樹林區"
"238023","601-UM","2018/06/14 17:29:32","新北市樹林區中正路350-1號","121.414135","25.010695","6500700","樹林區"
"238018","571-TV","2018/06/14 17:29:45","新北市樹林區鎮前街169巷21號","121.423523333333","24.9885483333333","6500700","樹林區"
"238024","5061-A6","2018/06/14 17:29:30","新北市樹林區博愛一街40號","121.425878333333","24.9906533333333","6500700","樹林區"
"238022","KEA-2213","2018/06/14 17:29:40","新北市樹林區和平街3號","121.42152","24.9813066666667","6500700","樹林區"
"238021","KEA-2539","2018/06/14 17:29:28","新北市樹林區民權街3號","121.395316666667","24.9570683333333","6500700","樹林區"
"238025","303-VK","2018/06/14 17:29:29","新北市樹林區保安街二段24-1號","121.415495","25.00183","6500700","樹林區"
"238017","283-BY","2018/06/14 17:29:45","新北市樹林區中正路254號","121.417553333333","25.00727","6500700","樹林區"
"238014","282-BY","2018/06/14 17:29:38","新北市樹林區保安街一段243號","121.419696666667","24.99629","6500700","樹林區"
"238020","268-VK","2018/06/14 17:29:35","新北市樹林區中正路22-1號","121.427916666667","24.9993783333333","6500700","樹林區"
"238026","172-UY","2018/06/14 17:29:30","新北市樹林區中山路三段27巷3弄12-2號","121.401696666667","24.9737433333333","6500700","樹林區"
"238016","169-UY","2018/06/14 17:29:38","新北市樹林區日新街11號","121.423476666667","24.9929866666667","6500700","樹林區"
"239007","AAC-297","2018/06/14 17:29:41","新北市鶯歌區中山路48號","121.35211","24.957115","6500800","鶯歌區"
"239006","891-R6","2018/06/14 17:29:40","新北市鶯歌區鳳鳴路103號","121.33426","24.9662333333333","6500800","鶯歌區"
"239008","527-UM","2018/06/14 17:29:44","新北市鶯歌區大湖路762號","121.331883333333","24.9773133333333","6500800","鶯歌區"
"239005","526-UM","2018/06/14 17:29:26","新北市鶯歌區鶯桃路二段9號","121.326006666667","24.9720433333333","6500800","鶯歌區"
"239001","417-VK","2018/06/14 17:29:29","新北市鶯歌區中正三路72號","121.338655","24.94125","6500800","鶯歌區"
"239003","360-BY","2018/06/14 17:29:42","新北市鶯歌區德昌街88號","121.3325","24.9601433333333","6500800","鶯歌區"
"239002","359-BY","2018/06/14 17:29:41","新北市鶯歌區南雅路19號","121.349583333333","24.954275","6500800","鶯歌區"
"239004","193-VK","2018/06/14 17:29:32","新北市鶯歌區三鶯路12號","121.356501666667","24.9412616666667","6500800","鶯歌區"
"221008","489-VK","2018/06/14 17:29:44","新北市汐止區康寧街901號","121.651456666667","25.0751333333333","6501100","汐止區"
"221010","269-BY","2018/06/14 17:29:30","新北市汐止區汐萬路一段256巷1號","121.652053333333","25.0746266666667","6501100","汐止區"
"221033","647-BX","2018/06/14 17:29:40","新北市汐止區新江北路30巷15號","121.65302","25.06942","6501100","汐止區"
"242002","KEA-2550","2018/06/14 17:29:39","新北市新莊區景德路192號","121.449926666667","25.034095","6500500","新莊區"
"242009","281-VK","2018/06/14 17:29:42","新北市新莊區中華路二段258巷25號","121.453135","25.05436","6500500","新莊區"
