"lineid","car","time","location","longitude","latitude","cityid","cityname"
"234026","9371-KE","2018/06/14 17:49:46","新北市永和區中山路一段17巷4弄15號","121.513461666667","25.0101033333333","6500400","永和區"
"249005","172-UM","2018/06/14 17:49:43","新北市八里區荖阡里41-1號","121.402225","25.1342916666667","6502300","八里區"
"249001","173-UM","2018/06/14 17:49:32","新北市八里區龍米路二段133-1號","121.445016666667","25.147735","6502300","八里區"
"249004","303-UY","2018/06/14 17:49:48","新北市八里區中華路一段81巷22號","121.41956","25.1555333333333","6502300","八里區"
"249002","305-UY","2018/06/14 17:49:45","新北市八里區石壁腳19號","121.441688333333","25.1353133333333","6502300","八里區"
"249003","593-UM","2018/06/14 17:49:29","新北市八里區中山路二段123號","121.405551666667","25.1518616666667","6502300","八里區"
"248014","025-BX","2018/06/14 17:49:43","新北市五股區中興路二段83巷26-6號","121.460175","25.0752016666667","6501500","五股區"
"248006","077-UY","2018/06/14 17:49:37","新北市五股區中興路二段37巷26號","121.460375","25.075035","6501500","五股區"
"248018","225-UY","2018/06/14 17:49:44","新北市五股區中興路二段83巷26-6號","121.460095","25.0752633333333","6501500","五股區"
"232011","375-UM","2018/06/14 17:49:31","新北市坪林區水柳腳132號","121.708895","24.9348833333333","6502000","坪林區"
"244013","069-UM","2018/06/14 17:49:47","新北市林口區佳林路169號","121.38512","25.078855","6501700","林口區"
"244007","080-UY","2018/06/14 17:49:47","新北市林口區林口路272巷13號","121.386585","25.0847333333333","6501700","林口區"
"244019","403-UM","2018/06/14 17:49:35","新北市林口區忠孝路512巷39號","121.37147","25.0681683333333","6501700","林口區"
"244023","483-VK","2018/06/14 17:49:41","新北市林口區隆林街101巷6號","121.385118333333","25.074435","6501700","林口區"
"244017","485-VK","2018/06/14 17:49:46","新北市林口區文化二路一段262-8號","121.371795","25.0734066666667","6501700","林口區"
"244009","656-BX","2018/06/14 17:49:46","新北市林口區林口路303號","121.385561666667","25.0851016666667","6501700","林口區"
"244011","657-BX","2018/06/14 17:49:47","新北市林口區竹林路48號","121.387023333333","25.0775766666667","6501700","林口區"
"244025","837-TS","2018/06/14 17:49:44","新北市林口區文化三路一段167號","121.361855","25.06925","6501700","林口區"
"244021","838-TS","2018/06/14 17:49:31","新北市林口區仁愛路一段139巷20號","121.397558333333","25.0717383333333","6501700","林口區"
"243009","297-R6","2018/06/14 17:43:09","新北市泰山區黎明路25號","121.421961666667","25.0606716666667","6501600","泰山區"
"243012","646-TV","2018/06/14 17:49:40","新北市泰山區黎明路2-7號","121.420318333333","25.0631866666667","6501600","泰山區"
"222003","436-BY","2018/06/14 17:49:38","新北市深坑區阿柔洋60-1號","121.608573333333","24.998515","6501800","深坑區"
"231046","188-VK","2018/06/14 17:49:32","新北市新店區康雅崙路6號","121.536526666667","24.9261233333333","6500600","新店區"
"241005","742-BX","2018/06/14 17:49:41","新北市三重區仁愛街568號","121.485161666667","25.0813933333333","6500200","三重區"
"241016","266-UM","2018/06/14 17:49:39","新北市三重區新北大道一段3-1號","121.490675","25.0613216666667","6500200","三重區"
"241024","462-BY","2018/06/14 17:49:46","新北市三重區車路頭街62巷26號","121.483166666667","25.0722283333333","6500200","三重區"
"241020","478-VK","2018/06/14 17:49:46","新北市三重區忠孝路三段84巷5號","121.480211666667","25.0644683333333","6500200","三重區"
"241012","941-UM","2018/06/14 17:49:46","新北市三重區龍濱路285號","121.501091666667","25.0733133333333","6500200","三重區"
"241033","AAC-255","2018/06/14 17:49:28","新北市三重區光復路一段5號","121.472073333333","25.0470283333333","6500200","三重區"
"235064","005-UY","2018/06/14 17:49:46","新北市中和區員山路36巷16-3號","121.485035","24.9914366666667","6500300","中和區"
"235065","098-UM","2018/06/14 17:49:38","新北市中和區員山路36巷16-2號","121.485213333333","24.9916183333333","6500300","中和區"
"235046","733-UM","2018/06/14 17:24:11","新北市中和區員山路36巷13號","121.484123333333","24.990875","6500300","中和區"
"247024","893-R6","2018/06/14 17:49:36","新北市蘆洲區光榮路61巷11號","121.460993333333","25.0888266666667","6501400","蘆洲區"
"247014","546-UM","2018/06/14 17:49:40","新北市蘆洲區保和街69巷18號","121.46967","25.085395","6501400","蘆洲區"
"247022","500-BY","2018/06/14 17:49:46","新北市蘆洲區中正路264巷7號","121.4659","25.0900266666667","6501400","蘆洲區"
"247010","341-TH","2018/06/14 17:49:32","新北市蘆洲區民族路64號","121.477273333333","25.0846833333333","6501400","蘆洲區"
"247012","339-TH","2018/06/14 17:49:45","新北市蘆洲區復興路21號","121.475616666667","25.08697","6501400","蘆洲區"
"247004","337-TH","2018/06/14 17:49:38","新北市蘆洲區長榮路152號","121.461208333333","25.0847783333333","6501400","蘆洲區"
"247006","336-TH","2018/06/14 17:49:44","新北市蘆洲區長安街22巷3弄1號","121.46423","25.07939","6501400","蘆洲區"
"247018","057-VK","2018/06/14 17:49:34","新北市蘆洲區復興路100號","121.47589","25.0870816666667","6501400","蘆洲區"
"247008","056-VK","2018/06/14 17:49:36","新北市蘆洲區中山一路285號","121.47192","25.079575","6501400","蘆洲區"
"247016","007-UY","2018/06/14 17:49:48","新北市蘆洲區中正路185巷25弄10號","121.466971666667","25.0840733333333","6501400","蘆洲區"
"247002","002-UY","2018/06/14 17:49:36","新北市蘆洲區永平街32巷45弄18號","121.458901666667","25.0929233333333","6501400","蘆洲區"
"247020","001-UY","2018/06/14 17:49:30","新北市蘆洲區民義街75號","121.473251666667","25.0901833333333","6501400","蘆洲區"
"228003","097-TW","2018/06/14 17:49:36","新北市貢寮區真理里延平街72-5號","121.92518","25.058215","6502600","貢寮區"
"228001","212-TW","2018/06/14 17:49:35","新北市貢寮區仁理村仁愛路95-1號","121.927635","25.05541","6502600","貢寮區"
"228002","585-TW","2018/06/14 17:45:35","新北市貢寮區福隆里外隆林街14-1號","121.959133333333","25.0036466666667","6502600","貢寮區"
"224006","676-BX","2018/06/14 17:49:30","新北市瑞芳區傑魚坑路183號","121.788443333333","25.1082916666667","6501200","瑞芳區"
"224008","285-BY","2018/06/14 17:49:43","新北市瑞芳區明燈路一段18巷1號","121.821878333333","25.1076166666667","6501200","瑞芳區"
"224009","273-VK","2018/06/14 17:49:34","新北市瑞芳區新山路139號","121.852545","25.1086333333333","6501200","瑞芳區"
"224005","271-BY","2018/06/14 17:49:33","新北市瑞芳區建基路一段12號","121.820501666667","25.12173","6501200","瑞芳區"
"253006","295-VK","2018/06/14 17:49:41","新北市石門區石門街1號","121.566053333333","25.2914783333333","6502200","石門區"
"208003","665-BX","2018/06/14 17:49:43","新北市金山區磺清路135號","121.639323333333","25.2276283333333","6502700","金山區"
"208001","761-BX","2018/06/14 17:49:46","新北市金山區磺清路135號","121.639348333333","25.227845","6502700","金山區"
"251009","008-UM","2018/06/14 17:49:29","新北市淡水區長興街43-2號","121.444118333333","25.1716183333333","6501000","淡水區"
"251004","009-UM","2018/06/14 17:49:41","新北市淡水區民權一街60號","121.459373333333","25.1362166666667","6501000","淡水區"
"251005","010-UM","2018/06/14 17:49:33","新北市淡水區學府路102巷4號","121.450481666667","25.1719116666667","6501000","淡水區"
"251013","KEA-2871","2018/06/14 17:49:31","新北市淡水區泉洲厝31號","121.479591666667","25.1910566666667","6501000","淡水區"
"251016","179-VK","2018/06/14 17:49:28","新北市淡水區埤島39-15號","121.452725","25.195835","6501000","淡水區"
"251014","180-VK","2018/06/14 17:49:47","新北市淡水區公埔子16-6號","121.481015","25.224565","6501000","淡水區"
"251015","182-VK","2018/06/14 17:49:41","新北市淡水區興福寮66巷541號","121.484666666667","25.1652166666667","6501000","淡水區"
"251010","413-VK","2018/06/14 17:49:45","新北市淡水區淡海路300號","121.418145","25.1881066666667","6501000","淡水區"
"251012","441-VK","2018/06/14 17:49:41","新北市淡水區商工路398號","121.472905","25.18483","6501000","淡水區"
"251007","442-VK","2018/06/14 17:49:42","新北市淡水區民生路52巷4號","121.461878333333","25.13753","6501000","淡水區"
"251008","443-VK","2018/06/14 17:49:21","新北市淡水區八勢路一段149號","121.467575","25.1571033333333","6501000","淡水區"
"251001","559-UM","2018/06/14 17:49:32","新北市淡水區民權路92巷35-1號","121.462158333333","25.1267483333333","6501000","淡水區"
"251006","561-UM","2018/06/14 17:49:46","新北市淡水區大信街15巷13號","121.441155","25.1766966666667","6501000","淡水區"
"251011","650-BX","2018/06/14 17:44:21","新北市淡水區吳(仔)厝10-3號","121.481565","25.1484216666667","6501000","淡水區"
"251002","672-BX","2018/06/14 17:49:32","新北市淡水區中山路44號","121.444235","25.1700683333333","6501000","淡水區"
"251003","766-UM","2018/06/14 17:49:28","新北市淡水區大忠街5巷1號","121.44313","25.17638","6501000","淡水區"
"207004","225-TW","2018/06/14 17:49:36","新北市萬里區萬里里瑪鋉頂街61號","121.688373333333","25.18044","6502800","萬里區"
"252002","178-VK","2018/06/14 17:49:35","新北市三芝區民生街30號","121.503743333333","25.2566716666667","6502100","三芝區"
"252001","292-VK","2018/06/14 17:49:39","新北市三芝區中興街一段12號","121.497435","25.2590033333333","6502100","三芝區"
"237009","210-TH","2018/06/14 17:49:36","新北市三峽區大勇路3巷32號","121.367581666667","24.93681","6500900","三峽區"
"237013","252-BX","2018/06/14 17:49:35","新北市三峽區愛國路14號","121.374168333333","24.933555","6500900","三峽區"
"237012","275-BY","2018/06/14 17:49:29","新北市三峽區文化路117號","121.370165","24.93604","6500900","三峽區"
"237014","433-BY","2018/06/14 17:49:31","新北市三峽區文化路120巷7號","121.37094","24.9365316666667","6500900","三峽區"
"237006","5529-G3","2018/06/14 17:49:30","新北市三峽區介壽路二段38巷75-1號","121.392038333333","24.9336016666667","6500900","三峽區"
"237011","KEA-2596","2018/06/14 17:49:41","新北市三峽區中山路459巷92號","121.354536666667","24.9360633333333","6500900","三峽區"
"237016","649-BX","2018/06/14 17:49:45","新北市三峽區白雞129-1號","121.398238333333","24.9056733333333","6500900","三峽區"
"237010","706-TV","2018/06/14 17:49:44","新北市三峽區文化路117號","121.370056666667","24.936095","6500900","三峽區"
"237005","AKY-6261","2018/06/14 17:49:37","新北市三峽區中山路196號","121.36354","24.9370283333333","6500900","三峽區"
"236070","105-UM","2018/06/14 17:49:41","新北市土城區青雲路322巷20號","121.457523333333","24.97566","6501300","土城區"
"236042","107-UM","2018/06/14 17:49:40","新北市土城區城林路6巷80號","121.438516666667","24.9795283333333","6501300","土城區"
"236078","166-UM","2018/06/14 17:49:32","新北市土城區中華路二段210號","121.437591666667","24.9689383333333","6501300","土城區"
"236030","253-BX","2018/06/14 17:49:36","新北市土城區城林路6巷80號","121.438676666667","24.9796566666667","6501300","土城區"
"236026","269-VK","2018/06/14 17:49:43","新北市土城區中華路二段2號","121.43943","24.9795633333333","6501300","土城區"
"236014","270-VK","2018/06/14 17:49:37","新北市土城區城林路6巷80號","121.438463333333","24.979595","6501300","土城區"
"236038","271-VK","2018/06/14 17:49:34","新北市土城區城林路6巷80號","121.438486666667","24.97982","6501300","土城區"
"236021","401-BY","2018/06/14 17:49:41","新北市土城區城林路6巷80號","121.438698333333","24.97975","6501300","土城區"
"236055","AAC-216","2018/06/14 17:49:29","新北市土城區城林路6巷80號","121.438481666667","24.9795966666667","6501300","土城區"
"242034","AAC-296","2018/06/14 17:49:41","新北市新莊區新莊路470號","121.44704","25.0333283333333","6500500","新莊區"
"242058","986-R7","2018/06/14 17:49:43","新北市新莊區中正路706-5號","121.417081666667","25.02519","6500500","新莊區"
"242053","751-BX","2018/06/14 17:49:46","新北市新莊區民安西路490號","121.43261","25.0072983333333","6500500","新莊區"
"242025","705-TV","2018/06/14 17:49:46","新北市三重區新北大道二段25號","121.471528333333","25.0613083333333","6500500","新莊區"
"242027","615-BX","2018/06/14 17:49:31","新北市新莊區福壽街175號","121.457953333333","25.05397","6500500","新莊區"
"242029","612-BX","2018/06/14 17:49:30","新北市新莊區復興路一段31號","121.446506666667","25.0416633333333","6500500","新莊區"
"242042","566-BX","2018/06/14 17:49:45","新北市新莊區中正路612-1號","121.426125","25.030275","6500500","新莊區"
"242046","497-BY","2018/06/14 17:49:39","新北市新莊區福營路127號","121.43301","25.03168","6500500","新莊區"
"242051","441-UM","2018/06/14 17:49:35","新北市新莊區民安西路155巷7弄8號","121.42688","25.0167433333333","6500500","新莊區"
"242056","440-UM","2018/06/14 17:49:35","新北市新莊區瓊林路40巷30號","121.446758333333","25.0302616666667","6500500","新莊區"
"242036","415-TV","2018/06/14 17:49:38","新北市新莊區建福路57號","121.426795","25.027355","6500500","新莊區"
"242007","413-TV","2018/06/14 17:49:48","新北市新莊區福樂街132巷1號","121.45673","25.0482283333333","6500500","新莊區"
"242044","400-BY","2018/06/14 17:49:34","新北市新莊區雙鳳路12號","121.417118333333","25.026885","6500500","新莊區"
"242023","362-BY","2018/06/14 17:49:36","新北市新莊區福樂街45號","121.457571666667","25.047255","6500500","新莊區"
"242061","353-BY","2018/06/14 17:49:44","新北市新莊區新樹路601號","121.433185","25.0058616666667","6500500","新莊區"
"242039","133-UY","2018/06/14 17:49:42","新北市新莊區民安路172號","121.42505","25.02398","6500500","新莊區"
"242031","135-UY","2018/06/14 17:49:46","新北市新莊區新泰路357巷3弄45號","121.442245","25.0401933333333","6500500","新莊區"
"242048","172-VK","2018/06/14 17:49:46","新北市新莊區萬安街62號","121.420926666667","25.0235433333333","6500500","新莊區"
"242017","175-VK","2018/06/14 17:49:43","新北市新莊區永安街15號","121.45211","25.0447866666667","6500500","新莊區"
"242004","176-VK","2018/06/14 17:49:30","新北市新莊區福樂街58號","121.457958333333","25.046055","6500500","新莊區"
"242015","346-TH","2018/06/14 17:49:38","新北市新莊區新泰路502巷40號","121.44368","25.0462233333333","6500500","新莊區"
"242021","348-TH","2018/06/14 17:49:34","新北市新莊區永寧街35巷1號","121.452853333333","25.039235","6500500","新莊區"
"242019","350-TH","2018/06/14 17:49:30","新北市新莊區復興路二段23號","121.453798333333","25.0440083333333","6500500","新莊區"
"242013","351-TH","2018/06/14 17:49:41","新北市新莊區中和街82巷5號","121.448148333333","25.046575","6500500","新莊區"
"238015","755-BX","2018/06/14 17:49:41","新北市樹林區復興路41號","121.42196","24.9935316666667","6500700","樹林區"
"238023","601-UM","2018/06/14 17:49:37","新北市樹林區龍興街32巷19號","121.402315","25.015645","6500700","樹林區"
"238018","571-TV","2018/06/14 17:49:45","新北市樹林區鎮前街72號","121.425595","24.9921783333333","6500700","樹林區"
"238022","KEA-2213","2018/06/14 17:49:37","新北市樹林區福順街59號","121.416078333333","24.97829","6500700","樹林區"
"238021","KEA-2539","2018/06/14 17:49:48","新北市樹林區柑園街一段56號","121.403251666667","24.9602733333333","6500700","樹林區"
"238025","303-VK","2018/06/14 17:49:29","新北市樹林區俊興街211巷7弄38號","121.416406666667","25.013125","6500700","樹林區"
"238017","283-BY","2018/06/14 17:49:45","新北市樹林區三德街30巷33號","121.414726666667","25.0121916666667","6500700","樹林區"
"238014","282-BY","2018/06/14 17:49:38","新北市樹林區保安街一段289巷28號","121.417778333333","24.9970833333333","6500700","樹林區"
"238020","268-VK","2018/06/14 17:49:35","新北市樹林區俊英街222號","121.424951666667","25.0099416666667","6500700","樹林區"
"238026","172-UY","2018/06/14 17:49:30","新北市樹林區中洲街51巷4號","121.396733333333","24.97099","6500700","樹林區"
"238016","169-UY","2018/06/14 17:49:38","新北市樹林區啟智街189巷7號","121.415023333333","24.986935","6500700","樹林區"
"239007","AAC-297","2018/06/14 17:49:46","新北市鶯歌區永利街22號","121.339275","24.954805","6500800","鶯歌區"
"239006","891-R6","2018/06/14 17:49:40","新北市鶯歌區鶯桃路438號","121.333121666667","24.9648","6500800","鶯歌區"
"239008","527-UM","2018/06/14 17:49:44","新北市鶯歌區香賓街10巷2號","121.336715","24.9792083333333","6500800","鶯歌區"
"239005","526-UM","2018/06/14 17:47:26","新北市鶯歌區鳳吉四街18號","121.326783333333","24.9727316666667","6500800","鶯歌區"
"239001","417-VK","2018/06/14 17:49:29","新北市鶯歌區中正三路359號","121.327746666667","24.9349316666667","6500800","鶯歌區"
"239003","360-BY","2018/06/14 17:49:42","新北市鶯歌區鶯桃路272號","121.33541","24.9600566666667","6500800","鶯歌區"
"239002","359-BY","2018/06/14 17:49:41","新北市鶯歌區育德街23-1號","121.34445","24.9544833333333","6500800","鶯歌區"
"239004","193-VK","2018/06/14 17:49:32","新北市鶯歌區文化路136巷33號","121.35123","24.9506416666667","6500800","鶯歌區"
"221008","489-VK","2018/06/14 17:49:44","新北市汐止區康寧街901號","121.651376666667","25.075005","6501100","汐止區"
"221036","130-UY","2018/06/14 17:49:30","新北市汐止區汐萬路一段220號","121.651836666667","25.0727883333333","6501100","汐止區"
"221015","131-UY","2018/06/14 17:49:32","新北市汐止區長江街213號","121.661208333333","25.0775283333333","6501100","汐止區"
"221010","269-BY","2018/06/14 17:49:30","新北市汐止區汐萬路二段104號","121.6483","25.08403","6501100","汐止區"
"221012","278-VK","2018/06/14 17:49:34","新北市汐止區長江街61號","121.65664","25.0717666666667","6501100","汐止區"
"221023","279-VK","2018/06/14 17:49:35","新北市汐止區民族二街32巷2號","121.634895","25.0712916666667","6501100","汐止區"
"221032","280-BY","2018/06/14 17:49:29","新北市汐止區工建路202號","121.63687","25.0626766666667","6501100","汐止區"
"221038","297-VK","2018/06/14 17:49:30","新北市汐止區汐萬路一段220號","121.651725","25.0728516666667","6501100","汐止區"
"221029","298-VK","2018/06/14 17:49:44","新北市汐止區汐萬路一段256巷1號","121.651883333333","25.07499","6501100","汐止區"
"221021","299-VK","2018/06/14 17:49:39","新北市汐止區水源路一段33號","121.657146666667","25.06641","6501100","汐止區"
"221031","353-TW","2018/06/14 17:49:38","新北市汐止區工建路161-5號","121.637273333333","25.0630016666667","6501100","汐止區"
"221035","622-UM","2018/06/14 17:49:45","新北市汐止區汐萬路一段211巷15號","121.651365","25.07169","6501100","汐止區"
"221025","623-UM","2018/06/14 17:49:45","新北市汐止區大同路二段173號","121.651673333333","25.0644266666667","6501100","汐止區"
"221033","647-BX","2018/06/14 17:47:40","新北市汐止區林森街124號","121.624388333333","25.04089","6501100","汐止區"
"221002","707-TV","2018/06/14 17:49:39","新北市汐止區康寧街901號","121.651623333333","25.0750283333333","6501100","汐止區"
"221018","753-BX","2018/06/14 17:49:39","新北市汐止區汐萬路一段18號","121.656086666667","25.0675816666667","6501100","汐止區"
"242002","KEA-2550","2018/06/14 17:49:39","新北市新莊區大觀街42巷31號","121.454628333333","25.0365066666667","6500500","新莊區"
"242009","281-VK","2018/06/14 17:49:42","新北市新莊區昌明街40號","121.456383333333","25.0521716666667","6500500","新莊區"
