"lineid","car","time","location","longitude","latitude","cityid","cityname"
"234046","148-BY","2018/06/14 18:59:31","新北市永和區得和路373巷16弄1號","121.52512","25.0003333333333","6500400","永和區"
"234007","207-UY","2018/06/14 18:59:32","新北市永和區中山路一段51號","121.512958333333","25.01047","6500400","永和區"
"234081","298-R6","2018/06/14 18:59:48","新北市永和區永貞路39巷13號","121.522511666667","25.0063733333333","6500400","永和區"
"234038","336-UY","2018/06/14 18:59:31","新北市中和區秀朗路三段36巷2號","121.526426666667","24.9960533333333","6500400","永和區"
"234064","337-UY","2018/06/14 18:59:47","新北市永和區秀朗路一段140號","121.518091666667","25.0034016666667","6500400","永和區"
"234086","338-UY","2018/06/14 18:59:35","新北市永和區永利路10巷3號","121.517915","25.00573","6500400","永和區"
"234070","552-UM","2018/06/14 18:59:28","新北市永和區竹林路96巷9號","121.519108333333","25.0120133333333","6500400","永和區"
"234017","745-BX","2018/06/14 18:59:31","新北市永和區永和路二段297號","121.516011666667","25.0160233333333","6500400","永和區"
"234030","746-BX","2018/06/14 18:59:39","新北市永和區四維街69號","121.525583333333","24.99799","6500400","永和區"
"234054","KEA-2590","2018/06/14 18:59:43","新北市永和區竹林路64號","121.518396666667","25.0134583333333","6500400","永和區"
"234013","KEA-2591","2018/06/14 18:59:38","新北市永和區信義路17巷22號","121.513216666667","25.0111216666667","6500400","永和區"
"234061","AAD-866","2018/06/14 18:59:34","新北市永和區福和路303號","121.516385","25.0071883333333","6500400","永和區"
"234042","862-TW","2018/06/14 18:59:39","新北市永和區永貞路330號","121.511265","25.0055383333333","6500400","永和區"
"234050","863-TW","2018/06/14 18:59:34","新北市永和區文化路210號","121.510233333333","25.0167116666667","6500400","永和區"
"234026","9371-KE","2018/06/14 18:59:37","新北市永和區安樂路467號","121.51432","25.00549","6500400","永和區"
"234011","9373-KE","2018/06/14 18:59:44","新北市永和區忠孝街34巷12弄1號","121.514605","25.0166166666667","6500400","永和區"
"249005","172-UM","2018/06/14 18:59:33","新北市八里區長道坑5-2號","121.393455","25.1225883333333","6502300","八里區"
"249001","173-UM","2018/06/14 18:59:49","新北市八里區龍米路二段208號","121.43339","25.1584766666667","6502300","八里區"
"248016","026-BX","2018/06/14 18:59:33","新北市五股區成泰路三段543巷54號","121.449676666667","25.1030433333333","6501500","五股區"
"248006","077-UY","2018/06/14 18:59:37","新北市五股區中興路一段22號","121.4689","25.0723766666667","6501500","五股區"
"248008","095-VK","2018/06/14 18:59:42","新北市五股區中興路一段128巷38號","121.465776666667","25.0753666666667","6501500","五股區"
"248018","225-UY","2018/06/14 18:59:44","新北市五股區凌雲路三段57號","121.425265","25.1250033333333","6501500","五股區"
"248012","247-BX","2018/06/14 18:59:39","新北市五股區中興路四段48巷16號","121.43868","25.08341","6501500","五股區"
"248010","272-BY","2018/06/14 18:59:34","新北市五股區水碓三路1號","121.428946666667","25.0706416666667","6501500","五股區"
"248004","677-BX","2018/06/14 18:59:28","新北市五股區民義路二段41-1號","121.411143333333","25.1037133333333","6501500","五股區"
"248002","678-BX","2018/06/14 18:59:41","新北市五股區凌雲路一段149號","121.449228333333","25.1023283333333","6501500","五股區"
"234023","9380-KE","2018/06/14 18:59:47","新北市永和區竹林路75巷33弄47號","121.521106666667","25.0145666666667","6500400","永和區"
"234077","969-R7","2018/06/14 18:59:35","新北市永和區智光街32巷1號","121.517828333333","24.9988166666667","6500400","永和區"
"234074","AAC-211","2018/06/14 18:59:40","新北市永和區環河東路二段100號","121.524121666667","25.0103283333333","6500400","永和區"
"234067","AAC-212","2018/06/14 18:59:38","新北市永和區自由街49號","121.513963333333","25.005945","6500400","永和區"
"234003","AAC-295","2018/06/14 18:59:43","新北市永和區和平街32號","121.51321","25.0099766666667","6500400","永和區"
"232011","375-UM","2018/06/14 18:59:47","新北市坪林區水聳淒坑28號","121.711375","24.9340233333333","6502000","坪林區"
"244013","069-UM","2018/06/14 18:59:27","新北市林口區麗園一街6巷2-3號","121.376445","25.0698866666667","6501700","林口區"
"244007","080-UY","2018/06/14 18:59:27","新北市林口區太平里3鄰13號","121.378165","25.1147216666667","6501700","林口區"
"244019","403-UM","2018/06/14 18:59:35","新北市林口區麗園二街87號","121.382685","25.066765","6501700","林口區"
"244023","483-VK","2018/06/14 18:59:41","新北市林口區文林六街62巷26號","121.371741666667","25.0817566666667","6501700","林口區"
"244017","485-VK","2018/06/14 18:59:46","新北市林口區文化二路一段68巷11號","121.366451666667","25.0688066666667","6501700","林口區"
"244009","656-BX","2018/06/14 18:59:46","新北市林口區台電新村26號","121.387126666667","25.0862016666667","6501700","林口區"
"244011","657-BX","2018/06/14 18:59:47","新北市林口區中正路26號","121.395853333333","25.0775216666667","6501700","林口區"
"244025","837-TS","2018/06/14 18:59:44","新北市林口區民族路69號","121.365471666667","25.0756683333333","6501700","林口區"
"243013","AAD-798","2018/06/14 18:59:32","新北市泰山區明志路三段243號","121.423528333333","25.0376783333333","6501600","泰山區"
"243009","297-R6","2018/06/14 18:59:31","新北市泰山區泰林路二段353號","121.428368333333","25.0636633333333","6501600","泰山區"
"243016","380-SR","2018/06/14 18:59:44","新北市泰山區民權街2號","121.427708333333","25.0508616666667","6501600","泰山區"
"243015","421-VK","2018/06/14 18:59:32","新北市泰山區美寧街3號","121.43008","25.0633483333333","6501600","泰山區"
"243011","KEA-2215","2018/06/14 18:59:41","新北市泰山區明志路二段246號","121.42706","25.0478066666667","6501600","泰山區"
"243010","KEA-2216","2018/06/14 18:59:38","新北市泰山區辭修路24號","121.429026666667","25.0581483333333","6501600","泰山區"
"243012","646-TV","2018/06/14 18:59:29","新北市泰山區福興三街168號","121.432408333333","25.057105","6501600","泰山區"
"243014","680-BX","2018/06/14 18:59:36","新北市泰山區泰林路二段595號","121.421671666667","25.0634783333333","6501600","泰山區"
"222003","436-BY","2018/06/14 18:59:38","新北市深坑區深南路51-1號","121.621351666667","25.0101083333333","6501800","深坑區"
"222002","659-BX","2018/06/14 18:59:37","新北市深坑區文山路一段31巷2號","121.629901666667","25.0032716666667","6501800","深坑區"
"231041","002-UM","2018/06/14 18:59:35","新北市新店區環河路64號","121.537093333333","24.9626966666667","6500600","新店區"
"231059","046-UY","2018/06/14 18:59:38","新北市新店區安華路28-1號","121.519586666667","24.9609016666667","6500600","新店區"
"231040","047-UY","2018/06/14 18:59:50","新北市新店區中正路397號","121.534543333333","24.97727","6500600","新店區"
"231044","106-UY","2018/06/14 18:59:31","新北市新店區寶中路72號","121.547858333333","24.9805866666667","6500600","新店區"
"231052","108-UY","2018/06/14 18:59:44","新北市新店區屈尺路12號","121.548916666667","24.9225883333333","6500600","新店區"
"231047","110-UY","2018/06/14 18:59:42","新北市新店區德正街25巷2號","121.544395","24.9715416666667","6500600","新店區"
"231046","188-VK","2018/06/14 18:59:35","新北市新店區直潭五街58號","121.532846666667","24.941115","6500600","新店區"
"231054","KEA-2219","2018/06/14 18:59:44","新北市新店區新店路15號","121.540283333333","24.9527883333333","6500600","新店區"
"231042","268-BY","2018/06/14 18:59:38","新北市新店區北新路一段126巷25號","121.543408333333","24.9698233333333","6500600","新店區"
"231051","278-BY","2018/06/14 18:59:37","新北市新店區百忍街28號","121.534135","24.975755","6500600","新店區"
"231050","AAD-862","2018/06/14 18:59:44","新北市新店區北宜路二段30巷5弄5號","121.548428333333","24.9507816666667","6500600","新店區"
"231058","3713-VJ","2018/06/14 18:59:40","新北市新店區中興路一段292號","121.546005","24.969065","6500600","新店區"
"231066","4716-K9","2018/06/14 18:59:42","新北市新店區安祥路22號","121.49314","24.9556333333333","6500600","新店區"
"231056","4715-K9","2018/06/14 18:59:48","新北市新店區建國路210-1號","121.53792","24.9810383333333","6500600","新店區"
"231067","4772-VM","2018/06/14 18:59:40","新北市新店區安康路一段195巷3號","121.526375","24.96263","6500600","新店區"
"231065","512-UM","2018/06/14 18:59:40","新北市新店區安祥路199號","121.475791666667","24.9546383333333","6500600","新店區"
"231049","513-UM","2018/06/14 18:59:47","新北市新店區中正路454-5號","121.53452","24.9790483333333","6500600","新店區"
"231061","619-UM","2018/06/14 18:59:39","新北市新店區安華路30巷3號","121.518906666667","24.9588516666667","6500600","新店區"
"231063","641-BX","2018/06/14 18:59:48","新北市新店區車子路18-1號","121.50658","24.9546216666667","6500600","新店區"
"231064","719-UM","2018/06/14 18:59:34","新北市新店區安一路一段1-1號","121.51934","24.9612283333333","6500600","新店區"
"231062","720-UM","2018/06/14 18:59:47","新北市新店區安豐路60-1號","121.497958333333","24.9537216666667","6500600","新店區"
"231045","898-TW","2018/06/14 18:59:47","新北市新店區光明街1-1號","121.538211666667","24.959155","6500600","新店區"
"231043","899-TW","2018/06/14 18:59:47","新北市新店區北新路二段2號","121.54252","24.9705116666667","6500600","新店區"
"231055","AKT-0513","2018/06/14 18:59:34","新北市新店區中央路183-3號","121.536166666667","24.9687633333333","6500600","新店區"
"241029","942-UM","2018/06/14 18:59:32","新北市三重區重安街18號","121.490335","25.0581583333333","6500200","三重區"
"235064","005-UY","2018/06/14 18:59:46","新北市中和區泰和街44巷44號","121.498145","25.001425","6500300","中和區"
"235063","006-UY","2018/06/14 18:59:34","新北市中和區中正路462號","121.490176666667","24.9942466666667","6500300","中和區"
"235056","096-UM","2018/06/14 18:59:24","新北市中和區新民街96號","121.481198333333","25.0082983333333","6500300","中和區"
"235039","097-UM","2018/06/14 18:59:44","新北市永和區安樂路58巷2號","121.515155","24.9980133333333","6500300","中和區"
"235065","098-UM","2018/06/14 18:59:47","新北市中和區福祥路129號","121.498556666667","25.0071133333333","6500300","中和區"
"235040","150-BY","2018/06/14 18:59:31","新北市中和區宜安路28號","121.512996666667","24.9959166666667","6500300","中和區"
"235058","151-BY","2018/06/14 18:59:16","新北市中和區員山路143巷21號","121.47991","24.99564","6500300","中和區"
"235055","183-VK","2018/06/14 18:59:35","新北市中和區民德路25巷1號","121.469126666667","25.00275","6500300","中和區"
"235038","185-VK","2018/06/14 18:59:33","新北市中和區立人街24-5號","121.518835","24.9941583333333","6500300","中和區"
"235049","186-VK","2018/06/14 18:59:27","新北市中和區景安路167巷11號","121.506081666667","24.99477","6500300","中和區"
"235067","255-BX","2018/06/14 18:59:37","新北市中和區民樂路74號","121.484286666667","25.0011516666667","6500300","中和區"
"235044","293-VK","2018/06/14 18:59:47","新北市中和區中興街161巷8弄1號","121.50113","24.990895","6500300","中和區"
"235043","352-BY","2018/06/14 18:59:32","新北市中和區成功路66號","121.525986666667","24.9920566666667","6500300","中和區"
"235050","4979-A6","2018/06/14 18:59:39","新北市中和區忠孝街7號","121.509875","24.9827883333333","6500300","中和區"
"235069","4980-A6","2018/06/14 18:59:40","新北市中和區圓通路109巷20號","121.49997","24.9962866666667","6500300","中和區"
"235042","551-UM","2018/06/14 18:59:33","新北市中和區秀朗路三段50巷2弄7號","121.52597","24.9959283333333","6500300","中和區"
"235070","558-UM","2018/06/14 18:59:37","新北市中和區安和路165號","121.50623","24.9976466666667","6500300","中和區"
"235045","565-BX","2018/06/14 18:59:31","新北市中和區景新街467巷22號","121.514228333333","24.9882866666667","6500300","中和區"
"235054","640-BX","2018/06/14 18:59:35","新北市中和區民享街6號","121.47398","25.0049666666667","6500300","中和區"
"235060","647-TV","2018/06/14 18:59:40","新北市中和區民治街9巷2號","121.475173333333","25.004465","6500300","中和區"
"235047","732-UM","2018/06/14 18:59:36","新北市中和區興南路二段54巷2-8號","121.50602","24.9855316666667","6500300","中和區"
"235046","733-UM","2018/06/14 18:59:47","新北市中和區興南路二段3巷13號","121.508318333333","24.9861333333333","6500300","中和區"
"235062","800-TS","2018/06/14 18:59:49","新北市中和區中山路二段331號","121.492925","25.0023733333333","6500300","中和區"
"235057","801-TS","2018/06/14 18:59:33","新北市中和區民利街56號","121.479103333333","24.9986866666667","6500300","中和區"
"235041","802-TS","2018/06/14 18:59:44","新北市中和區宜安路125號","121.509888333333","24.99813","6500300","中和區"
"235052","805-TS","2018/06/14 18:59:47","新北市中和區興南路二段112巷2弄2號","121.50444","24.9841983333333","6500300","中和區"
"235048","896-TW","2018/06/14 18:59:44","新北市中和區華新街109巷16號","121.508758333333","24.9810733333333","6500300","中和區"
"235053","900-TW","2018/06/14 18:59:41","新北市中和區民德路376號","121.465506666667","24.994595","6500300","中和區"
"235066","911-UM","2018/06/14 18:59:48","新北市中和區水源路6巷10號","121.503323333333","25.0033966666667","6500300","中和區"
"235051","157-BY","2018/06/14 18:59:47","新北市中和區忠孝街9號","121.5099","24.9829966666667","6500300","中和區"
"235037","AAC-213","2018/06/14 18:59:36","新北市中和區秀朗路三段10巷37弄4號","121.524158333333","24.99605","6500300","中和區"
"235059","AAC-215","2018/06/14 18:59:37","新北市中和區圓通路369巷33弄7號","121.491195","24.9880766666667","6500300","中和區"
"220016","013-TV","2018/06/14 18:59:38","新北市板橋區三民路一段31巷39-1號","121.480505","25.02327","6500100","板橋區"
"220069","015-TV","2018/06/14 18:59:34","新北市板橋區華興街73-1號","121.457086666667","25.00506","6500100","板橋區"
"220065","072-UY","2018/06/14 18:59:36","新北市板橋區漢生東路340巷2號","121.471731666667","25.0074633333333","6500100","板橋區"
"220086","073-UY","2018/06/14 18:59:40","新北市板橋區中正路154號","121.45668","25.0166483333333","6500100","板橋區"
"220106","075-UY","2018/06/14 18:59:47","新北市板橋區文化路二段124巷28-2號","121.471235","25.0256883333333","6500100","板橋區"
"220090","120-SR","2018/06/14 18:59:45","新北市板橋區四維路179號","121.464295","25.0263866666667","6500100","板橋區"
"226004","312-R5","2018/06/14 18:59:43","新北市平溪區嶺腳里嶺腳寮13號","121.747863333333","25.029855","6502400","平溪區"
"228003","097-TW","2018/06/14 18:59:36","新北市貢寮區和美里龍洞街56-2號","121.912148333333","25.113935","6502600","貢寮區"
"228001","212-TW","2018/06/14 18:59:34","新北市貢寮區仁理村保健街73號","121.923718333333","25.05166","6502600","貢寮區"
"228002","585-TW","2018/06/14 18:59:31","新北市貢寮區福隆里東興街66號","121.948043333333","25.0175716666667","6502600","貢寮區"
"224010","AGQ-8101","2018/06/14 18:58:10","新北市瑞芳區基山街41號","121.845443333333","25.1092133333333","6501200","瑞芳區"
"224006","676-BX","2018/06/14 18:59:30","新北市瑞芳區民族街24-1號","121.806738333333","25.106815","6501200","瑞芳區"
"224002","639-TC","2018/06/14 18:59:38","新北市瑞芳區八分寮路21號","121.79209","25.0835966666667","6501200","瑞芳區"
"224008","285-BY","2018/06/14 18:59:43","新北市瑞芳區逢甲路343-11號","121.799475","25.1123733333333","6501200","瑞芳區"
"224007","275-VK","2018/06/14 18:59:43","新北市瑞芳區大埔路慶安新村32號","121.762698333333","25.0999833333333","6501200","瑞芳區"
"224009","273-VK","2018/06/14 18:59:34","新北市瑞芳區山尖路13號","121.85514","25.112695","6501200","瑞芳區"
"224005","271-BY","2018/06/14 18:55:30","新北市瑞芳區海濱路157-2號","121.828966666667","25.1215416666667","6501200","瑞芳區"
"227004","642-TC","2018/06/14 18:59:50","新北市雙溪區平林里康福家園10號","121.858816666667","25.03734","6502500","雙溪區"
"227010","400-TW","2018/06/14 18:59:36","新北市雙溪區牡丹里中正路58巷23號","121.86648","25.0415416666667","6502500","雙溪區"
"253005","032-BX","2018/06/14 18:59:39","新北市石門區中央路7號","121.566603333333","25.2915216666667","6502200","石門區"
"253006","295-VK","2018/06/14 18:59:41","新北市石門區下員坑28-2號","121.51901","25.2806583333333","6502200","石門區"
"222001","KEA-2212","2018/06/14 18:59:45","新北市深坑區北深路一段166號","121.634045","25.0107716666667","6501800","深坑區"
"208002","KEA-2872","2018/06/14 18:59:43","新北市金山區信義路39號","121.635291666667","25.2195466666667","6502700","金山區"
"208003","665-BX","2018/06/14 18:59:43","新北市金山區中山路273號","121.636318333333","25.2229433333333","6502700","金山區"
"208001","761-BX","2018/06/14 18:59:46","新北市金山區民生路51巷1-2號","121.641958333333","25.2201133333333","6502700","金山區"
"251009","008-UM","2018/06/14 18:59:29","新北市淡水區重建街81號","121.43988","25.172235","6501000","淡水區"
"251005","010-UM","2018/06/14 18:59:33","新北市淡水區中正路18巷6號","121.437645","25.172785","6501000","淡水區"
"251013","KEA-2871","2018/06/14 18:59:31","新北市淡水區安子內12號","121.481016666667","25.2193816666667","6501000","淡水區"
"251016","179-VK","2018/06/14 18:59:48","新北市淡水區淡金路三段331巷3號","121.448536666667","25.2061233333333","6501000","淡水區"
"251014","180-VK","2018/06/14 18:59:47","新北市淡水區小中寮22號","121.489236666667","25.22953","6501000","淡水區"
"251015","182-VK","2018/06/14 18:59:40","新北市淡水區糞箕湖62號","121.485235","25.1721983333333","6501000","淡水區"
"251010","413-VK","2018/06/14 18:59:45","新北市淡水區沙崙路97號","121.422333333333","25.18235","6501000","淡水區"
"251007","442-VK","2018/06/14 18:59:42","新北市淡水區民生路113巷1弄56號","121.46241","25.138595","6501000","淡水區"
"251001","559-UM","2018/06/14 18:59:32","新北市淡水區自強路58-1號","121.463268333333","25.1276166666667","6501000","淡水區"
"251002","672-BX","2018/06/14 18:59:32","新北市淡水區中正東路49號","121.446616666667","25.1679116666667","6501000","淡水區"
"251003","766-UM","2018/06/14 18:59:48","新北市淡水區中山北路一段149巷28號","121.442993333333","25.1780433333333","6501000","淡水區"
"207004","225-TW","2018/06/14 18:59:36","新北市萬里區萬里里獅頭路23號","121.693213333333","25.17827","6502800","萬里區"
"252002","178-VK","2018/06/14 18:59:35","新北市三芝區中正路一段56號","121.503596666667","25.2580133333333","6502100","三芝區"
"252003","249-BX","2018/06/14 18:59:39","新北市三芝區後厝里北勢子42-1號","121.471861666667","25.2523533333333","6502100","三芝區"
"252001","292-VK","2018/06/14 18:59:39","新北市三芝區中興街二段260號","121.501756666667","25.2530183333333","6502100","三芝區"
"237007","153-BY","2018/06/14 18:59:43","新北市三峽區大埔路39號","121.36604","24.9091333333333","6500900","三峽區"
"237013","252-BX","2018/06/14 18:59:35","新北市三峽區光明路69巷31號","121.377008333333","24.929355","6500900","三峽區"
"237012","275-BY","2018/06/14 18:59:29","新北市三峽區三樹路222巷150-1號","121.386028333333","24.9428383333333","6500900","三峽區"
"237008","302-VK","2018/06/14 18:59:35","新北市三峽區白雞28-1號","121.370498333333","24.91213","6500900","三峽區"
"237014","433-BY","2018/06/14 18:59:31","新北市三峽區隆恩街551號","121.357606666667","24.940045","6500900","三峽區"
"237006","5529-G3","2018/06/14 18:59:29","新北市三峽區溪東路226號","121.407956666667","24.931915","6500900","三峽區"
"237011","KEA-2596","2018/06/14 18:59:41","新北市三峽區溪東路215號","121.406128333333","24.9328416666667","6500900","三峽區"
"237016","649-BX","2018/06/14 18:59:45","新北市三峽區建安80-3號","121.45276","24.9220433333333","6500900","三峽區"
"237010","706-TV","2018/06/14 18:59:44","新北市三峽區國光街93號","121.373405","24.9388533333333","6500900","三峽區"
"237005","AKY-6261","2018/06/14 18:59:37","新北市三峽區中山路459巷163-3號","121.349101666667","24.9332983333333","6500900","三峽區"
"236070","105-UM","2018/06/14 18:59:41","新北市土城區學士路33巷10號","121.453395","24.9808566666667","6501300","土城區"
"236042","107-UM","2018/06/14 18:59:40","新北市土城區學府路一段189巷7號","121.452605","24.98469","6501300","土城區"
"236078","166-UM","2018/06/14 18:59:32","新北市土城區中央路四段466號","121.409953333333","24.9506066666667","6501300","土城區"
"236030","253-BX","2018/06/14 18:59:36","新北市土城區慶利街11號","121.439516666667","24.9736433333333","6501300","土城區"
"236026","269-VK","2018/06/14 18:59:45","新北市土城區光明街4號","121.442005","24.9744866666667","6501300","土城區"
"236014","270-VK","2018/06/14 18:59:36","新北市土城區永豐路31巷2號","121.462855","24.9879766666667","6501300","土城區"
"236038","271-VK","2018/06/14 18:59:36","新北市土城區仁愛路22號","121.461098333333","24.9800333333333","6501300","土城區"
"236021","401-BY","2018/06/14 18:59:41","新北市土城區延吉街168巷1號","121.468266666667","24.9855083333333","6501300","土城區"
"236059","912-UM","2018/06/14 18:59:40","新北市土城區明德路一段385-1號","121.45247","24.979835","6501300","土城區"
"236049","913-UM","2018/06/14 18:59:42","新北市土城區青雲路322巷2弄4號","121.45805","24.977305","6501300","土城區"
"236063","915-UM","2018/06/14 18:59:38","新北市土城區延和路41巷6弄20號","121.466635","24.9903883333333","6501300","土城區"
"236055","AAC-216","2018/06/14 18:59:49","新北市土城區學成路147號","121.448785","24.9895466666667","6501300","土城區"
"242034","AAC-296","2018/06/14 18:59:40","新北市新莊區景德路449號","121.443973333333","25.033205","6500500","新莊區"
"238023","601-UM","2018/06/14 18:59:44","新北市樹林區工興街35巷1號","121.401325","25.01322","6500700","樹林區"
"238019","599-UM","2018/06/14 18:59:34","新北市樹林區東榮街180號","121.414321666667","24.9819166666667","6500700","樹林區"
"238018","571-TV","2018/06/14 18:59:45","新北市樹林區太平路46巷4號","121.418733333333","24.9825466666667","6500700","樹林區"
"238022","KEA-2213","2018/06/14 18:59:37","新北市樹林區東興街16巷2弄2號","121.409823333333","24.9782783333333","6500700","樹林區"
"238021","KEA-2539","2018/06/14 18:59:41","新北市樹林區柑園街二段276巷26號","121.372386666667","24.95336","6500700","樹林區"
"238025","303-VK","2018/06/14 18:59:40","新北市樹林區民和街81號","121.378926666667","24.972975","6500700","樹林區"
"238017","283-BY","2018/06/14 18:59:45","新北市樹林區中山路三段130號","121.392046666667","24.9722183333333","6500700","樹林區"
"238014","282-BY","2018/06/14 18:59:38","新北市樹林區中正路22-1號","121.427821666667","24.999415","6500700","樹林區"
"238020","268-VK","2018/06/14 18:59:35","新北市樹林區俊英街93號","121.425053333333","25.00913","6500700","樹林區"
"238026","172-UY","2018/06/14 18:59:30","新北市樹林區佳園路一段71-2號","121.393208333333","24.9701816666667","6500700","樹林區"
"238016","169-UY","2018/06/14 18:59:39","新北市樹林區文化街25巷5弄1號","121.419075","24.9871383333333","6500700","樹林區"
"239007","AAC-297","2018/06/14 18:59:41","新北市鶯歌區成功街8號","121.358545","24.9574333333333","6500800","鶯歌區"
"239006","891-R6","2018/06/14 18:59:40","新北市鶯歌區鶯桃路296巷53號","121.335905","24.9613266666667","6500800","鶯歌區"
"239008","527-UM","2018/06/14 18:59:44","新北市鶯歌區國際二路46號","121.335613333333","24.975615","6500800","鶯歌區"
"239005","526-UM","2018/06/14 18:59:45","新北市鶯歌區鳳吉一街69號","121.326671666667","24.9740683333333","6500800","鶯歌區"
"239001","417-VK","2018/06/14 18:59:49","新北市鶯歌區永明街67號","121.340588333333","24.95611","6500800","鶯歌區"
"239003","360-BY","2018/06/14 18:59:42","新北市鶯歌區鶯桃路658巷4號","121.3294","24.9693916666667","6500800","鶯歌區"
"239004","193-VK","2018/06/14 18:59:32","新北市鶯歌區中正三路247巷67弄2號","121.333803333333","24.9362883333333","6500800","鶯歌區"
"221008","489-VK","2018/06/14 18:59:44","新北市汐止區伯爵街2巷9號","121.642356666667","25.0755283333333","6501100","汐止區"
"221036","130-UY","2018/06/14 18:59:30","新北市汐止區忠孝東路314巷19弄2號","121.664505","25.0684183333333","6501100","汐止區"
"221015","131-UY","2018/06/14 18:59:32","新北市汐止區橋東街61號","121.665496666667","25.074965","6501100","汐止區"
"221010","269-BY","2018/06/14 18:59:30","新北市汐止區康寧街901號","121.65144","25.07502","6501100","汐止區"
"221012","278-VK","2018/06/14 18:59:34","新北市汐止區康寧街901號","121.650808333333","25.0752233333333","6501100","汐止區"
"221023","279-VK","2018/06/14 18:59:35","新北市汐止區康寧街901號","121.651013333333","25.0752266666667","6501100","汐止區"
"221032","280-BY","2018/06/14 18:59:29","新北市汐止區橫科路241-6號","121.62271","25.0484583333333","6501100","汐止區"
"221027","281-BY","2018/06/14 18:59:43","新北市汐止區康寧街901號","121.65147","25.0749583333333","6501100","汐止區"
"221038","297-VK","2018/06/14 18:59:30","新北市汐止區汐萬路一段312號","121.65069","25.0752733333333","6501100","汐止區"
"221029","298-VK","2018/06/14 18:59:44","新北市汐止區樟樹一路254號","121.642413333333","25.0671916666667","6501100","汐止區"
"221021","299-VK","2018/06/14 18:59:39","新北市汐止區康寧街901號","121.651335","25.0751716666667","6501100","汐止區"
"221031","353-TW","2018/06/14 18:59:38","新北市汐止區福德二路156巷27號","121.63001","25.0655166666667","6501100","汐止區"
"221035","622-UM","2018/06/14 18:59:45","新北市汐止區汐萬路一段16號","121.656138333333","25.0674916666667","6501100","汐止區"
"221025","623-UM","2018/06/14 18:59:45","新北市汐止區汐萬路一段124號","121.653643333333","25.0711783333333","6501100","汐止區"
"221033","647-BX","2018/06/14 18:59:39","新北市汐止區南勢街1巷1號","121.626981666667","25.03739","6501100","汐止區"
"221002","707-TV","2018/06/14 18:59:39","新北市汐止區大同路一段4號","121.621105","25.0550716666667","6501100","汐止區"
"220079","145-BY","2018/06/14 18:59:39","新北市板橋區民權路202巷14弄1號","121.460598333333","25.0159383333333","6500100","板橋區"
"220080","200-UY","2018/06/14 18:59:34","新北市板橋區大觀路二段265巷3弄5號","121.443083333333","24.9983316666667","6500100","板橋區"
"242002","KEA-2550","2018/06/14 18:59:49","新北市新莊區大觀街42巷12號","121.454468333333","25.03602","6500500","新莊區"
"220082","610-BX","2018/06/14 18:59:49","新北市板橋區溪崑二街89號","121.427215","24.9894066666667","6500100","板橋區"
"220101","245-BX","2018/06/14 18:59:40","新北市板橋區莊敬路62號","121.472475","25.0264133333333","6500100","板橋區"
"220055","256-TC","2018/06/14 18:59:28","新北市板橋區中山路一段158巷23-1號","121.46646","25.011205","6500100","板橋區"
"220056","276-BY","2018/06/14 18:59:33","新北市板橋區信義路161號","121.458435","24.9925583333333","6500100","板橋區"
"220072","277-BY","2018/06/14 18:59:35","新北市板橋區溪北路142號","121.430023333333","24.9886133333333","6500100","板橋區"
"220071","283-VK","2018/06/14 18:59:39","新北市板橋區重慶路256號","121.462943333333","25.000855","6500100","板橋區"
"220094","285-UM","2018/06/14 18:59:34","新北市板橋區文化路二段76號","121.469368333333","25.0249783333333","6500100","板橋區"
"220053","285-VK","2018/06/14 18:59:34","新北市板橋區中山路二段157號","121.475668333333","25.0166883333333","6500100","板橋區"
"220083","286-VK","2018/06/14 18:59:33","新北市板橋區大觀路一段38巷174號","121.44171","25.004585","6500100","板橋區"
"220081","287-VK","2018/06/14 18:59:35","新北市板橋區光華街19巷2號","121.453901666667","25.0122","6500100","板橋區"
"220061","293-UM","2018/06/14 18:59:48","新北市板橋區永豐街120巷3號","121.476611666667","25.0205766666667","6500100","板橋區"
"220062","295-UM","2018/06/14 18:59:34","新北市板橋區三民路二段202-29號","121.478708333333","25.012555","6500100","板橋區"
"220084","296-UM","2018/06/14 18:59:33","新北市板橋區龍興街2號","121.4427","24.999335","6500100","板橋區"
"220075","303-R5","2018/06/14 18:59:43","新北市板橋區後菜園街49號","121.455961666667","25.0100083333333","6500100","板橋區"
"220092","307-R5","2018/06/14 18:59:38","新北市板橋區漢生東路83巷2-1號","121.467103333333","25.0157583333333","6500100","板橋區"
"220098","317-R6","2018/06/14 18:59:46","新北市板橋區民有街26號","121.46609","25.0252533333333","6500100","板橋區"
"220064","486-VK","2018/06/14 18:59:33","新北市板橋區漢生東路111-1號","121.467306666667","25.0150283333333","6500100","板橋區"
"220088","491-VK","2018/06/14 18:59:45","新北市板橋區民生路二段206號","121.469688333333","25.0210083333333","6500100","板橋區"
"220035","560-BX","2018/06/14 18:59:47","新北市板橋區中正路325巷8號","121.454385","25.0198516666667","6500100","板橋區"
"220103","561-BX","2018/06/14 18:59:46","新北市板橋區民生路二段121號","121.470731666667","25.018515","6500100","板橋區"
"220063","609-BX","2018/06/14 18:59:42","新北市板橋區中山路二段173號","121.476025","25.0168","6500100","板橋區"
"220091","637-BX","2018/06/14 18:59:43","新北市板橋區雙十路二段47巷19號","121.475495","25.0257166666667","6500100","板橋區"
"220057","686-BX","2018/06/14 18:59:36","新北市板橋區重慶路99號","121.462236666667","25.0055766666667","6500100","板橋區"
"220077","687-BX","2018/06/14 18:59:46","新北市板橋區大觀路二段146-2號","121.44206","24.9989033333333","6500100","板橋區"
"220093","689-BX","2018/06/14 18:59:48","新北市板橋區民生路三段68-1號","121.466743333333","25.0259933333333","6500100","板橋區"
"220054","741-BX","2018/06/14 18:59:47","新北市板橋區重慶路139巷12號","121.462733333333","25.004535","6500100","板橋區"
"220102","KEA-2699","2018/06/14 18:59:36","新北市板橋區雙十路一段44巷36號","121.477201666667","25.0247916666667","6500100","板橋區"
"220067","830-TW","2018/06/14 18:59:39","新北市板橋區三民路二段186巷18號","121.478016666667","25.014355","6500100","板橋區"
"220096","831-TW","2018/06/14 18:59:36","新北市板橋區莒光路69號","121.47143","25.0241916666667","6500100","板橋區"
"220089","833-TW","2018/06/14 18:59:41","新北市板橋區仁化街45號","121.474943333333","25.0317533333333","6500100","板橋區"
"220074","895-R6","2018/06/14 18:59:33","新北市板橋區府中路98號","121.456045","25.0095983333333","6500100","板橋區"
"220073","985-R7","2018/06/14 18:59:38","新北市板橋區民權路258-2號","121.458016666667","25.015025","6500100","板橋區"
"220097","AAC-210","2018/06/14 18:59:38","新北市板橋區漢生東路83巷2-1號","121.467043333333","25.015825","6500100","板橋區"
"220070","AAC-253","2018/06/14 18:59:35","新北市板橋區四川路一段489號","121.457141666667","24.9971483333333","6500100","板橋區"
"235068","KEA-2873","2018/06/14 18:59:40","新北市中和區圓通路200號","121.496205","24.9942583333333","6500300","中和區"
"235061","KEA-2875","2018/06/14 18:59:40","新北市中和區民治街134巷4號","121.47513","25.0021883333333","6500300","中和區"
