"lineid","car","time","location","longitude","latitude","cityid","cityname"
"234046","148-BY","2018/06/14 19:09:38","新北市永和區永元路18巷31號","121.523718333333","25.0001566666667","6500400","永和區"
"234007","207-UY","2018/06/14 19:09:37","新北市永和區中山路一段203號","121.508888333333","25.008595","6500400","永和區"
"234081","298-R6","2018/06/14 19:09:51","新北市永和區福和路57巷14弄1號","121.522763333333","25.0069716666667","6500400","永和區"
"234038","336-UY","2018/06/14 19:09:31","新北市永和區民樂街71巷2號","121.527348333333","24.9973683333333","6500400","永和區"
"234064","337-UY","2018/06/14 19:09:27","新北市永和區秀朗路二段17號","121.52098","25.002645","6500400","永和區"
"234086","338-UY","2018/06/14 19:09:36","新北市永和區永貞路120號","121.518666666667","25.004535","6500400","永和區"
"234070","552-UM","2018/06/14 19:09:48","新北市永和區豫溪街95巷9號","121.518096666667","25.010675","6500400","永和區"
"234017","745-BX","2018/06/14 19:09:46","新北市永和區文化路90巷15弄1號","121.513768333333","25.0159233333333","6500400","永和區"
"234030","746-BX","2018/06/14 19:09:39","新北市永和區民生路23號","121.52284","24.9988283333333","6500400","永和區"
"234054","KEA-2590","2018/06/14 19:09:39","新北市永和區中興街149號","121.519058333333","25.01246","6500400","永和區"
"234013","KEA-2591","2018/06/14 19:09:38","新北市永和區保福路二段6號","121.510948333333","25.01107","6500400","永和區"
"234061","AAD-866","2018/06/14 19:09:34","新北市永和區安樂路304巷7號","121.514371666667","25.0050916666667","6500400","永和區"
"234042","862-TW","2018/06/14 19:09:39","新北市永和區保平路179號","121.509358333333","25.0054083333333","6500400","永和區"
"234050","863-TW","2018/06/14 19:09:36","新北市永和區文化路135巷22弄1號","121.510411666667","25.0147133333333","6500400","永和區"
"234026","9371-KE","2018/06/14 19:09:34","新北市永和區安樂路270號","121.514521666667","25.004045","6500400","永和區"
"234011","9373-KE","2018/06/14 19:09:48","新北市永和區信義路43巷25號","121.511978333333","25.01192","6500400","永和區"
"249005","172-UM","2018/06/14 19:09:33","新北市八里區中華路三段73號","121.394593333333","25.1408416666667","6502300","八里區"
"249001","173-UM","2018/06/14 19:09:32","新北市八里區龍米路二段236-2號","121.43137","25.1586166666667","6502300","八里區"
"249003","593-UM","2018/06/14 19:09:49","新北市八里區商港一路12號","121.395791666667","25.1471516666667","6502300","八里區"
"248016","026-BX","2018/06/14 19:09:46","新北市五股區成泰路三段543巷30號","121.450623333333","25.1025216666667","6501500","五股區"
"248006","077-UY","2018/06/14 19:09:37","新北市五股區四維路112號","121.467715","25.073755","6501500","五股區"
"248008","095-VK","2018/06/14 19:09:42","新北市五股區中興路一段118巷20號","121.466016666667","25.0743816666667","6501500","五股區"
"248018","225-UY","2018/06/14 19:09:44","新北市五股區凌雲路三段57號","121.425276666667","25.125","6501500","五股區"
"248012","247-BX","2018/06/14 19:09:39","新北市五股區中興路四段48巷16號","121.438591666667","25.08343","6501500","五股區"
"248010","272-BY","2018/06/14 19:09:33","新北市五股區水碓二路1號","121.430633333333","25.07122","6501500","五股區"
"248004","677-BX","2018/06/14 19:09:48","新北市五股區民義路一段155號","121.432906666667","25.0876816666667","6501500","五股區"
"248002","678-BX","2018/06/14 19:09:41","新北市五股區凌雲路一段158巷14-1號","121.44785","25.103435","6501500","五股區"
"234023","9380-KE","2018/06/14 19:09:40","新北市永和區中興街12號","121.51571","25.01194","6500400","永和區"
"234077","969-R7","2018/06/14 19:09:46","新北市永和區民族街45-1號","121.518626666667","24.9983633333333","6500400","永和區"
"234074","AAC-211","2018/06/14 19:09:40","新北市永和區竹林路198號","121.520501666667","25.0095983333333","6500400","永和區"
"234067","AAC-212","2018/06/14 19:09:38","新北市永和區永和路一段106號","121.513456666667","25.0072783333333","6500400","永和區"
"234003","AAC-295","2018/06/14 19:09:43","新北市永和區保福路一段84號","121.512235","25.010195","6500400","永和區"
"244013","069-UM","2018/06/14 19:09:47","新北市林口區麗園二街1巷3-2號","121.377218333333","25.0703866666667","6501700","林口區"
"244019","403-UM","2018/06/14 19:09:35","新北市林口區麗園二街1巷9-1號","121.378836666667","25.070165","6501700","林口區"
"244023","483-VK","2018/06/14 19:09:41","新北市林口區文化三路一段617巷185號","121.371385","25.07792","6501700","林口區"
"244017","485-VK","2018/06/14 19:09:46","新北市林口區公園路60號","121.36917","25.070065","6501700","林口區"
"244009","656-BX","2018/06/14 19:09:46","新北市林口區中山路168-1號","121.389695","25.078905","6501700","林口區"
"244011","657-BX","2018/06/14 19:09:47","新北市林口區仁愛路一段356號","121.390383333333","25.0766116666667","6501700","林口區"
"244025","837-TS","2018/06/14 19:09:44","新北市林口區文化北路一段542巷13弄81號","121.369905","25.0794433333333","6501700","林口區"
"243013","AAD-798","2018/06/14 19:09:32","新北市泰山區明志路三段277號","121.423166666667","25.0367633333333","6501600","泰山區"
"243009","297-R6","2018/06/14 19:09:31","新北市泰山區明志路一段122巷15號","121.432955","25.0635966666667","6501600","泰山區"
"243016","380-SR","2018/06/14 19:09:44","新北市泰山區明志路二段360號","121.425846666667","25.045195","6501600","泰山區"
"243015","421-VK","2018/06/14 19:09:32","新北市泰山區明志路一段431號","121.430738333333","25.05648","6501600","泰山區"
"243011","KEA-2215","2018/06/14 19:09:41","新北市泰山區明志路二段323號","121.426363333333","25.0457316666667","6501600","泰山區"
"243010","KEA-2216","2018/06/14 19:08:58","新北市泰山區明志路一段481號","121.430966666667","25.0553916666667","6501600","泰山區"
"243012","646-TV","2018/06/14 19:09:29","新北市泰山區辭修路36巷8弄5號","121.42788","25.0585866666667","6501600","泰山區"
"243014","680-BX","2018/06/14 19:09:36","新北市泰山區泰林路二段332-1號","121.429753333333","25.06326","6501600","泰山區"
"222003","436-BY","2018/06/14 19:09:38","新北市深坑區深南路162號","121.626048333333","25.0149083333333","6501800","深坑區"
"222002","659-BX","2018/06/14 19:09:37","新北市深坑區北深路一段199號","121.630526666667","25.0090316666667","6501800","深坑區"
"231041","002-UM","2018/06/14 19:09:36","新北市新店區溪園路365-7號","121.52319","24.9804833333333","6500600","新店區"
"231059","046-UY","2018/06/14 19:09:38","新北市新店區安和路一段49號","121.517453333333","24.965845","6500600","新店區"
"231040","047-UY","2018/06/14 19:09:30","新北市新店區三民路98-3號","121.533958333333","24.9734133333333","6500600","新店區"
"231044","106-UY","2018/06/14 19:09:31","新北市新店區中興路三段182號","121.544098333333","24.9813166666667","6500600","新店區"
"231052","108-UY","2018/06/14 19:09:44","新北市新店區自強路94號","121.546401666667","24.9240066666667","6500600","新店區"
"231047","110-UY","2018/06/14 19:09:42","新北市新店區德正街27巷29弄135號","121.545701666667","24.9733316666667","6500600","新店區"
"231046","188-VK","2018/06/14 19:09:32","新北市新店區新潭路一段1-1號","121.5236","24.9448616666667","6500600","新店區"
"231054","KEA-2219","2018/06/14 19:09:44","新北市新店區新店路162-1號","121.537115","24.9556366666667","6500600","新店區"
"231042","268-BY","2018/06/14 19:09:38","新北市新店區中興路一段171號","121.542786666667","24.9644983333333","6500600","新店區"
"231051","278-BY","2018/06/14 19:09:37","新北市新店區中正路400巷16號","121.535081666667","24.97806","6500600","新店區"
"231050","AAD-862","2018/06/14 19:09:44","新北市新店區竹林路2巷31號","121.550396666667","24.950165","6500600","新店區"
"231058","3713-VJ","2018/06/14 19:09:40","新北市新店區光明街168巷5弄2-1號","121.540528333333","24.961985","6500600","新店區"
"231066","4716-K9","2018/06/14 19:09:42","新北市新店區安康路三段359巷12弄3號","121.484351666667","24.9496816666667","6500600","新店區"
"231056","4715-K9","2018/06/14 19:09:48","新北市新店區民權路107-4號","121.536245","24.9823766666667","6500600","新店區"
"231065","512-UM","2018/06/14 19:09:40","新北市新店區安祥路109巷6弄55號","121.47567","24.9570333333333","6500600","新店區"
"231049","513-UM","2018/06/14 19:09:46","新北市新店區二十張路25巷12號","121.53904","24.98203","6500600","新店區"
"231061","619-UM","2018/06/14 19:09:39","新北市新店區安康路一段275-1號","121.52397","24.9634633333333","6500600","新店區"
"231063","641-BX","2018/06/14 19:09:48","新北市新店區車子路148號","121.505333333333","24.9473283333333","6500600","新店區"
"231064","719-UM","2018/06/14 19:09:34","新北市新店區安忠路56巷6號","121.513028333333","24.959395","6500600","新店區"
"231062","720-UM","2018/06/14 19:09:47","新北市新店區安平路53號","121.519815","24.9683583333333","6500600","新店區"
"231045","898-TW","2018/06/14 19:09:47","新北市新店區北宜路一段175號","121.544666666667","24.95307","6500600","新店區"
"231043","899-TW","2018/06/14 19:09:47","新北市新店區寶橋路98號","121.546813333333","24.9761233333333","6500600","新店區"
"241035","KEA-2210","2018/06/14 19:09:32","新北市三重區重新路四段41巷16號","121.487578333333","25.0580266666667","6500200","三重區"
"241020","478-VK","2018/06/14 19:09:46","新北市三重區後竹圍街133號","121.487413333333","25.0723316666667","6500200","三重區"
"241026","887-TS","2018/06/14 19:09:31","新北市三重區泉州街61巷1號","121.494675","25.0546583333333","6500200","三重區"
"241029","942-UM","2018/06/14 19:09:32","新北市三重區集美街222號","121.49206","25.0553033333333","6500200","三重區"
"235064","005-UY","2018/06/14 19:09:46","新北市中和區連城路23巷3號","121.498955","25.0018433333333","6500300","中和區"
"235063","006-UY","2018/06/14 19:09:49","新北市中和區連城路403號","121.486151666667","24.9962216666667","6500300","中和區"
"235056","096-UM","2018/06/14 19:09:44","新北市中和區員山路548號","121.478768333333","25.01026","6500300","中和區"
"235039","097-UM","2018/06/14 19:09:44","新北市中和區自立路58巷14號","121.52306","24.9913933333333","6500300","中和區"
"235065","098-UM","2018/06/14 19:09:38","新北市中和區中山路二段136巷13號","121.501555","25.00398","6500300","中和區"
"235040","150-BY","2018/06/14 19:09:31","新北市中和區宜安路96號","121.51076","24.9976433333333","6500300","中和區"
"235058","151-BY","2018/06/14 19:09:36","新北市中和區連城路523巷13弄9號","121.481888333333","24.9938266666667","6500300","中和區"
"235055","183-VK","2018/06/14 19:09:35","新北市中和區德光路47號","121.470211666667","25.0041183333333","6500300","中和區"
"235038","185-VK","2018/06/14 19:09:33","新北市中和區大仁街10巷42號","121.519011666667","24.992455","6500300","中和區"
"235049","186-VK","2018/06/14 19:09:47","新北市中和區景新街142巷7號","121.504895","24.9974666666667","6500300","中和區"
"235067","255-BX","2018/06/14 19:09:37","新北市中和區新生街176巷10號","121.483171666667","24.9999566666667","6500300","中和區"
"235044","293-VK","2018/06/14 19:09:47","新北市中和區復興路327巷8號","121.500835","24.9897283333333","6500300","中和區"
"235043","352-BY","2018/06/14 19:09:32","新北市中和區景平路166號","121.51702","24.9923016666667","6500300","中和區"
"235050","4979-A6","2018/06/14 19:09:39","新北市中和區復興路249巷11弄3號","121.503516666667","24.98974","6500300","中和區"
"235069","4980-A6","2018/06/14 19:09:40","新北市中和區中和路217巷6號","121.50411","25.00043","6500300","中和區"
"235042","551-UM","2018/06/14 19:09:33","新北市中和區自立路117巷2弄4號","121.522265","24.9943216666667","6500300","中和區"
"235070","558-UM","2018/06/14 19:09:37","新北市中和區中和路131號","121.501748333333","24.99995","6500300","中和區"
"235045","565-BX","2018/06/14 19:09:30","新北市中和區景新街449號","121.513345","24.9886283333333","6500300","中和區"
"235054","640-BX","2018/06/14 19:09:35","新北市中和區民德路95號","121.468983333333","25.0010766666667","6500300","中和區"
"235060","647-TV","2018/06/14 19:09:40","新北市中和區中山路三段145號","121.4738","25.00594","6500300","中和區"
"235047","732-UM","2018/06/14 19:09:36","新北市中和區興南路一段140號","121.509075","24.9879733333333","6500300","中和區"
"235046","733-UM","2018/06/14 19:09:47","新北市中和區忠孝街1巷77號","121.50821","24.984805","6500300","中和區"
"235071","783-BX","2018/06/14 19:09:33","新北市中和區連城路314號","121.483578333333","24.9960933333333","6500300","中和區"
"235062","800-TS","2018/06/14 19:09:29","新北市中和區中山路二段526巷25弄2號","121.485618333333","25.0058283333333","6500300","中和區"
"235057","801-TS","2018/06/14 19:09:33","新北市中和區民利街68巷6號","121.478275","24.9989266666667","6500300","中和區"
"235041","802-TS","2018/06/14 19:09:44","新北市中和區中和路252巷3號","121.507645","24.9991866666667","6500300","中和區"
"235052","805-TS","2018/06/14 19:09:27","新北市中和區興南路二段142巷31弄62號","121.501683333333","24.9836866666667","6500300","中和區"
"235048","896-TW","2018/06/14 19:09:44","新北市中和區忠孝街1巷2-1號","121.509116666667","24.9830466666667","6500300","中和區"
"235053","900-TW","2018/06/14 19:09:41","新北市中和區華福街82號","121.46745","24.9964433333333","6500300","中和區"
"235066","911-UM","2018/06/14 19:09:48","新北市中和區廣福路64號","121.50346","25.0018433333333","6500300","中和區"
"235051","157-BY","2018/06/14 19:09:47","新北市中和區仁愛街36巷55號","121.511436666667","24.9862216666667","6500300","中和區"
"235037","AAC-213","2018/06/14 19:09:36","新北市中和區秀朗路三段50巷2號","121.525898333333","24.9954683333333","6500300","中和區"
"235059","AAC-215","2018/06/14 19:09:37","新北市中和區圓通路294巷17-5號","121.488605","24.9904133333333","6500300","中和區"
"220016","013-TV","2018/06/14 19:09:38","新北市板橋區中山路二段443巷74號","121.480845","25.0221733333333","6500100","板橋區"
"220069","015-TV","2018/06/14 19:09:46","新北市板橋區華興街26號","121.459133333333","25.0046666666667","6500100","板橋區"
"220065","072-UY","2018/06/14 19:09:47","新北市板橋區民族路219巷26號","121.469498333333","25.00858","6500100","板橋區"
"220086","073-UY","2018/06/14 19:09:40","新北市板橋區中正路250巷81號","121.458865","25.019925","6500100","板橋區"
"220106","075-UY","2018/06/14 19:09:47","新北市板橋區雙十路三段14號","121.471618333333","25.0303366666667","6500100","板橋區"
"220090","120-SR","2018/06/14 19:09:41","新北市板橋區裕民街54號","121.461423333333","25.0286416666667","6500100","板橋區"
"226004","312-R5","2018/06/14 19:09:43","新北市平溪區南山里南山坪24號","121.771311666667","25.036355","6502400","平溪區"
"228003","097-TW","2018/06/14 19:09:36","新北市貢寮區和美里和美街37號","121.912263333333","25.0863966666667","6502600","貢寮區"
"228001","212-TW","2018/06/14 19:09:34","新北市貢寮區真理里新港街10號","121.925491666667","25.0543633333333","6502600","貢寮區"
"228002","585-TW","2018/06/14 19:09:51","新北市貢寮區福隆里福隆街32-1號","121.94507","25.0173566666667","6502600","貢寮區"
"224010","AGQ-8101","2018/06/14 19:09:30","新北市瑞芳區金光路372號","121.849188333333","25.1112766666667","6501200","瑞芳區"
"224006","676-BX","2018/06/14 19:09:37","新北市瑞芳區中山路147號","121.802605","25.10644","6501200","瑞芳區"
"224008","285-BY","2018/06/14 19:09:47","新北市瑞芳區明燈路三段231號","121.79971","25.1115566666667","6501200","瑞芳區"
"224007","275-VK","2018/06/14 19:09:43","新北市瑞芳區瑞竹路46號","121.763498333333","25.10336","6501200","瑞芳區"
"224009","273-VK","2018/06/14 19:09:34","新北市瑞芳區洞頂路148號","121.85942","25.11814","6501200","瑞芳區"
"224005","271-BY","2018/06/14 19:09:30","新北市瑞芳區中正路4號","121.808841666667","25.1071816666667","6501200","瑞芳區"
"227004","642-TC","2018/06/14 19:09:50","新北市雙溪區平林里外平林9-25號","121.859811666667","25.0377733333333","6502500","雙溪區"
"227010","400-TW","2018/06/14 19:09:36","新北市雙溪區牡丹里中正路34號","121.8646","25.0382583333333","6502500","雙溪區"
"253005","032-BX","2018/06/14 19:09:39","新北市石門區阿里荖33-1號","121.606553333333","25.2811116666667","6502200","石門區"
"253006","295-VK","2018/06/14 19:09:41","新北市石門區崁子腳58-1號","121.529805","25.2859933333333","6502200","石門區"
"222001","KEA-2212","2018/06/14 19:09:45","新北市深坑區北深路一段300號","121.624206666667","25.0057166666667","6501800","深坑區"
"208002","KEA-2872","2018/06/14 19:09:43","新北市金山區中華路112巷13號","121.633941666667","25.220875","6502700","金山區"
"208003","665-BX","2018/06/14 19:09:43","新北市金山區中正路143-1號","121.632168333333","25.2214383333333","6502700","金山區"
"208001","761-BX","2018/06/14 19:09:46","新北市金山區金包里街51號","121.638998333333","25.2213533333333","6502700","金山區"
"251009","008-UM","2018/06/14 19:09:49","新北市淡水區重建街66號","121.43987","25.1719183333333","6501000","淡水區"
"251005","010-UM","2018/06/14 19:09:33","新北市淡水區原德路11號","121.44214","25.1712516666667","6501000","淡水區"
"251013","KEA-2871","2018/06/14 19:09:31","新北市淡水區安子內12號","121.481045","25.219365","6501000","淡水區"
"251016","179-VK","2018/06/14 19:09:48","新北市淡水區淡金路三段66號","121.448216666667","25.1999216666667","6501000","淡水區"
"251014","180-VK","2018/06/14 19:09:47","新北市淡水區小中寮19-9號","121.48511","25.2285483333333","6501000","淡水區"
"251015","182-VK","2018/06/14 19:09:40","新北市淡水區南勢埔27-2號","121.483256666667","25.1806383333333","6501000","淡水區"
"251010","413-VK","2018/06/14 19:09:45","新北市淡水區中正路一段156巷11號","121.421263333333","25.1803533333333","6501000","淡水區"
"251007","442-VK","2018/06/14 19:09:42","新北市淡水區民生路135巷32號","121.466671666667","25.1390666666667","6501000","淡水區"
"251001","559-UM","2018/06/14 19:09:32","新北市淡水區自強路201巷39號","121.462118333333","25.1267966666667","6501000","淡水區"
"251006","561-UM","2018/06/14 19:09:46","新北市淡水區中山北路二段3號","121.444451666667","25.183265","6501000","淡水區"
"251002","672-BX","2018/06/14 19:09:32","新北市淡水區中山路95巷2-3號","121.442008333333","25.1705333333333","6501000","淡水區"
"251003","766-UM","2018/06/14 19:09:28","新北市淡水區中山北路一段96號","121.442543333333","25.17639","6501000","淡水區"
"207004","225-TW","2018/06/14 19:09:36","新北市萬里區萬里里瑪鋉下街46-1號","121.691481666667","25.179285","6502800","萬里區"
"252002","178-VK","2018/06/14 19:09:35","新北市三芝區埔坪里埔頭坑84號","121.508073333333","25.2542633333333","6502100","三芝區"
"252003","249-BX","2018/06/14 19:09:38","新北市三芝區錫板里南勢崗7號","121.479336666667","25.261775","6502100","三芝區"
"252001","292-VK","2018/06/14 19:09:39","新北市三芝區長勤街45巷2號","121.50035","25.2551366666667","6502100","三芝區"
"237007","153-BY","2018/06/14 19:09:43","新北市三峽區中正路二段41號","121.366736666667","24.9187066666667","6500900","三峽區"
"237009","210-TH","2018/06/14 19:09:36","新北市三峽區文化路208號","121.36927","24.9360083333333","6500900","三峽區"
"237013","252-BX","2018/06/14 19:09:35","新北市三峽區大同路48巷17弄8-1號","121.376751666667","24.9289866666667","6500900","三峽區"
"237012","275-BY","2018/06/14 19:09:29","新北市三峽區三樹路222巷236弄23號","121.391385","24.9430483333333","6500900","三峽區"
"237008","302-VK","2018/06/14 19:09:35","新北市三峽區中正路一段219號","121.372063333333","24.927245","6500900","三峽區"
"237014","433-BY","2018/06/14 19:09:31","新北市三峽區隆恩街158巷44號","121.365515","24.9458383333333","6500900","三峽區"
"237006","5529-G3","2018/06/14 19:09:29","新北市三峽區溪東路233巷4弄19號","121.407246666667","24.9337316666667","6500900","三峽區"
"237011","KEA-2596","2018/06/14 19:09:41","新北市三峽區介壽路三段107號","121.395705","24.9400216666667","6500900","三峽區"
"237016","649-BX","2018/06/14 19:09:45","新北市三峽區建安64-4號","121.447823333333","24.9273583333333","6500900","三峽區"
"237010","706-TV","2018/06/14 19:09:44","新北市三峽區民生街58號","121.375236666667","24.936345","6500900","三峽區"
"237005","AKY-6261","2018/06/14 19:09:37","新北市三峽區中山路459巷163-3號","121.348638333333","24.9329066666667","6500900","三峽區"
"236070","105-UM","2018/06/14 19:09:41","新北市土城區中央路一段249巷29弄3號","121.446623333333","24.98558","6501300","土城區"
"236078","166-UM","2018/06/14 19:09:32","新北市土城區龍泉路39-1號","121.41454","24.94379","6501300","土城區"
"236026","269-VK","2018/06/14 19:09:43","新北市土城區中正路74巷2弄1號","121.444643333333","24.9750966666667","6501300","土城區"
"236014","270-VK","2018/06/14 19:09:36","新北市土城區學府路一段37巷30號","121.457346666667","24.9875683333333","6501300","土城區"
"236021","401-BY","2018/06/14 19:09:41","新北市土城區延峰街28號","121.469221666667","24.98541","6501300","土城區"
"236059","912-UM","2018/06/14 19:09:41","新北市土城區金城路二段229號","121.45549","24.98244","6501300","土城區"
"236049","913-UM","2018/06/14 19:09:38","新北市土城區明德路一段365-1號","121.453653333333","24.9790783333333","6501300","土城區"
"242034","AAC-296","2018/06/14 19:09:41","新北市新莊區福海街29號","121.445036666667","25.03393","6500500","新莊區"
"238015","755-BX","2018/06/14 19:09:29","新北市樹林區備內街99-1號","121.407743333333","24.989245","6500700","樹林區"
"238023","601-UM","2018/06/14 19:09:32","新北市樹林區大慶街88號","121.396008333333","25.0139866666667","6500700","樹林區"
"238019","599-UM","2018/06/14 19:09:34","新北市樹林區東榮街91巷4弄20號","121.415543333333","24.9816333333333","6500700","樹林區"
"238018","571-TV","2018/06/14 19:09:45","新北市樹林區中華路116-1號","121.41792","24.980705","6500700","樹林區"
"238022","KEA-2213","2018/06/14 19:09:37","新北市樹林區中山路二段151巷8弄20號","121.405973333333","24.9776183333333","6500700","樹林區"
"238021","KEA-2539","2018/06/14 19:09:43","新北市樹林區柑園街二段378巷1號","121.368735","24.9497533333333","6500700","樹林區"
"238025","303-VK","2018/06/14 19:09:48","新北市樹林區中山路三段68號","121.393795","24.9723766666667","6500700","樹林區"
"238017","283-BY","2018/06/14 19:09:45","新北市樹林區大安路325號","121.417348333333","24.9917133333333","6500700","樹林區"
"238014","282-BY","2018/06/14 19:09:38","新北市樹林區中正路22-1號","121.427786666667","24.99953","6500700","樹林區"
"238020","268-VK","2018/06/14 19:09:35","新北市樹林區俊英街155巷13號","121.423735","25.01223","6500700","樹林區"
"238026","172-UY","2018/06/14 19:09:50","新北市樹林區佳園路一段70號","121.393156666667","24.9701233333333","6500700","樹林區"
"238016","169-UY","2018/06/14 19:09:38","新北市樹林區中山路一段306巷51弄22號","121.417843333333","24.9858866666667","6500700","樹林區"
"239007","AAC-297","2018/06/14 19:09:41","新北市鶯歌區中正一路221號","121.354025","24.9570783333333","6500800","鶯歌區"
"239006","891-R6","2018/06/14 19:09:40","新北市鶯歌區鶯桃路296巷102號","121.337105","24.96218","6500800","鶯歌區"
"239008","527-UM","2018/06/14 19:09:44","新北市鶯歌區國際二路12巷11號","121.338008333333","24.97458","6500800","鶯歌區"
"239005","526-UM","2018/06/14 19:09:45","新北市鶯歌區大湖路361巷26號","121.33043","24.9778466666667","6500800","鶯歌區"
"239001","417-VK","2018/06/14 19:09:29","新北市鶯歌區永明街55號","121.339441666667","24.95614","6500800","鶯歌區"
"239003","360-BY","2018/06/14 19:09:42","新北市鶯歌區鶯桃路362-1號","121.333818333333","24.9628133333333","6500800","鶯歌區"
"239004","193-VK","2018/06/14 19:09:48","新北市鶯歌區中正三路282巷12弄1號","121.328423333333","24.937075","6500800","鶯歌區"
"221008","489-VK","2018/06/14 19:09:44","新北市汐止區康寧街464號","121.631783333333","25.068185","6501100","汐止區"
"221036","130-UY","2018/06/14 19:09:30","新北市汐止區大同路二段339號","121.656375","25.067155","6501100","汐止區"
"221015","131-UY","2018/06/14 19:09:32","新北市汐止區汐萬路一段306號","121.650478333333","25.0746566666667","6501100","汐止區"
"221010","269-BY","2018/06/14 19:09:50","新北市汐止區汐萬路一段278巷5號","121.651216666667","25.0746016666667","6501100","汐止區"
"221012","278-VK","2018/06/14 19:09:34","新北市汐止區康寧街901號","121.650788333333","25.075235","6501100","汐止區"
"221023","279-VK","2018/06/14 19:09:35","新北市汐止區康寧街901號","121.650978333333","25.07521","6501100","汐止區"
"221032","280-BY","2018/06/14 19:09:49","新北市汐止區橫科路403巷18號","121.625326666667","25.0474516666667","6501100","汐止區"
"221027","281-BY","2018/06/14 19:09:43","新北市汐止區康寧街901號","121.651476666667","25.0749183333333","6501100","汐止區"
"221038","297-VK","2018/06/14 19:09:30","新北市汐止區汐萬路一段312號","121.650698333333","25.0752716666667","6501100","汐止區"
"221029","298-VK","2018/06/14 19:09:44","新北市汐止區汐萬路一段256巷3號","121.652466666667","25.0746566666667","6501100","汐止區"
"221021","299-VK","2018/06/14 19:09:39","新北市汐止區康寧街901號","121.651426666667","25.0750616666667","6501100","汐止區"
"221031","353-TW","2018/06/14 19:09:44","新北市汐止區福德三路141號","121.632953333333","25.0673933333333","6501100","汐止區"
"221035","622-UM","2018/06/14 19:09:25","新北市汐止區汐萬路一段247-1號","121.651485","25.073085","6501100","汐止區"
"221033","647-BX","2018/06/14 19:09:39","新北市汐止區南勢街1巷1號","121.62703","25.0373666666667","6501100","汐止區"
"221002","707-TV","2018/06/14 19:09:39","台北市南港區南港路一段6號","121.619696666667","25.054665","6501100","汐止區"
"220079","145-BY","2018/06/14 19:09:39","新北市板橋區民權路262號","121.45777","25.01527","6500100","板橋區"
"220080","200-UY","2018/06/14 19:09:47","新北市板橋區大觀路二段5-1號","121.447225","25.0038916666667","6500100","板橋區"
"242002","KEA-2550","2018/06/14 19:09:39","新北市新莊區瓊林路59-66號","121.441935","25.022555","6500500","新莊區"
"220082","610-BX","2018/06/14 19:09:49","新北市板橋區溪崑二街88號","121.427168333333","24.9895716666667","6500100","板橋區"
"220101","245-BX","2018/06/14 19:09:40","新北市板橋區民生路二段89-6號","121.47086","25.0191183333333","6500100","板橋區"
"220055","256-TC","2018/06/14 19:09:48","新北市板橋區新民街7巷10號","121.463596666667","25.01028","6500100","板橋區"
"220056","276-BY","2018/06/14 19:09:33","新北市板橋區信義路74巷3弄1號","121.45706","24.9930583333333","6500100","板橋區"
"220072","277-BY","2018/06/14 19:09:35","新北市板橋區金門街260巷2號","121.429743333333","24.9868716666667","6500100","板橋區"
"220071","283-VK","2018/06/14 19:09:39","新北市板橋區和平路239號","121.465261666667","24.9987166666667","6500100","板橋區"
"220094","285-UM","2018/06/14 19:09:34","新北市板橋區光武街108-5號","121.465718333333","25.0291766666667","6500100","板橋區"
"220053","285-VK","2018/06/14 19:09:38","新北市板橋區懷仁街10巷22-3號","121.475173333333","25.0196366666667","6500100","板橋區"
"220083","286-VK","2018/06/14 19:09:38","新北市板橋區大觀路二段174巷175號","121.44197","25.0035983333333","6500100","板橋區"
"220081","287-VK","2018/06/14 19:09:35","新北市板橋區南雅西路二段152號","121.452003333333","25.0133316666667","6500100","板橋區"
"220061","293-UM","2018/06/14 19:09:48","新北市板橋區三民路二段15號","121.479481666667","25.01827","6500100","板橋區"
"220062","295-UM","2018/06/14 19:09:34","新北市板橋區三民路二段居仁巷1弄55-1號","121.481145","25.0136716666667","6500100","板橋區"
"220084","296-UM","2018/06/14 19:09:14","新北市板橋區溪崑二街56巷36號","121.428293333333","24.991525","6500100","板橋區"
"220075","303-R5","2018/06/14 19:09:43","新北市板橋區南雅南路一段4巷10號","121.454938333333","25.0053383333333","6500100","板橋區"
"220092","307-R5","2018/06/14 19:09:38","新北市板橋區文化路一段479巷42號","121.467933333333","25.023155","6500100","板橋區"
"220098","317-R6","2018/06/14 19:09:45","新北市板橋區四維路103巷26號","121.464688333333","25.02411","6500100","板橋區"
"220064","486-VK","2018/06/14 19:09:33","新北市板橋區民生路一段35號","121.475708333333","25.0127216666667","6500100","板橋區"
"220088","491-VK","2018/06/14 19:09:34","新北市板橋區文化路二段182巷1弄2號","121.47092","25.0274533333333","6500100","板橋區"
"220035","560-BX","2018/06/14 19:09:33","新北市板橋區中正路379巷20號","121.453605","25.021825","6500100","板橋區"
"220103","561-BX","2018/06/14 19:09:46","新北市板橋區文化路一段188巷9弄108號","121.468413333333","25.0194816666667","6500100","板橋區"
"220063","609-BX","2018/06/14 19:09:42","新北市板橋區三民路二段151號","121.479295","25.0150133333333","6500100","板橋區"
"220091","637-BX","2018/06/14 19:09:43","新北市板橋區縣民大道247巷80號","121.482111666667","25.026945","6500100","板橋區"
"220057","686-BX","2018/06/14 19:09:36","新北市板橋區重慶路253-3號","121.463315","25.000245","6500100","板橋區"
"220077","687-BX","2018/06/14 19:09:46","新北市板橋區大觀路二段28號","121.446666666667","25.0029833333333","6500100","板橋區"
"220093","689-BX","2018/06/14 19:09:48","新北市板橋區民生路三段171號","121.465593333333","25.0270933333333","6500100","板橋區"
"220054","741-BX","2018/06/14 19:09:46","新北市板橋區重慶路89巷33號","121.46316","25.0066383333333","6500100","板橋區"
"220102","KEA-2699","2018/06/14 19:09:36","新北市板橋區田單街2巷31號","121.482226666667","25.0280083333333","6500100","板橋區"
"220067","830-TW","2018/06/14 19:09:39","新北市板橋區中山路二段90巷41號","121.476338333333","25.014725","6500100","板橋區"
"220096","831-TW","2018/06/14 19:09:36","新北市板橋區雙十路二段49號","121.476443333333","25.0262016666667","6500100","板橋區"
"220089","833-TW","2018/06/14 19:09:41","新北市板橋區文化路二段357號","121.472966666667","25.030725","6500100","板橋區"
"220074","895-R6","2018/06/14 19:09:33","新北市板橋區中正路自強新村43-2號","121.454878333333","25.0138883333333","6500100","板橋區"
"220073","985-R7","2018/06/14 19:09:38","新北市板橋區中正路232號","121.455735","25.0187133333333","6500100","板橋區"
"220097","AAC-210","2018/06/14 19:09:38","新北市板橋區英士路192-1號","121.45861","25.0233216666667","6500100","板橋區"
"220070","AAC-253","2018/06/14 19:09:35","新北市板橋區忠孝路93號","121.462288333333","25.0022316666667","6500100","板橋區"
"235068","KEA-2873","2018/06/14 19:09:40","新北市中和區圓通路158巷1弄9號","121.497275","24.9959616666667","6500300","中和區"
"235061","KEA-2875","2018/06/14 19:09:39","新北市中和區中山路三段179巷12號","121.473568333333","25.00571","6500300","中和區"
