"lineid","car","time","location","longitude","latitude","cityid","cityname"
"234046","148-BY","2018/06/14 19:29:32","新北市永和區成功路二段38號","121.526545","25.0002416666667","6500400","永和區"
"234007","207-UY","2018/06/14 19:29:32","新北市永和區永和路二段35號","121.514518333333","25.0104","6500400","永和區"
"234081","298-R6","2018/06/14 19:29:31","新北市永和區福和路7巷10弄2號","121.525171666667","25.0080166666667","6500400","永和區"
"234038","336-UY","2018/06/14 19:29:34","新北市永和區成功路二段47巷7號","121.527386666667","25.0001783333333","6500400","永和區"
"234064","337-UY","2018/06/14 19:29:47","新北市永和區得和路243巷26號","121.520796666667","25.00119","6500400","永和區"
"234086","338-UY","2018/06/14 19:29:35","新北市永和區林森路39巷1號","121.525543333333","25.0048366666667","6500400","永和區"
"234070","552-UM","2018/06/14 19:29:48","新北市永和區警光街5-1號","121.519741666667","25.0094883333333","6500400","永和區"
"234017","745-BX","2018/06/14 19:29:51","新北市永和區環河西路一段63號","121.513365","25.0181383333333","6500400","永和區"
"234030","746-BX","2018/06/14 19:29:48","新北市永和區民生路35號","121.52277","24.9981716666667","6500400","永和區"
"234054","KEA-2590","2018/06/14 19:29:39","新北市永和區復興街19巷4號","121.516198333333","25.0131383333333","6500400","永和區"
"234013","KEA-2591","2018/06/14 19:29:38","新北市永和區中山路一段138-1號","121.510228333333","25.009845","6500400","永和區"
"234061","AAD-866","2018/06/14 19:29:34","新北市永和區中正路570號","121.517093333333","25.0062266666667","6500400","永和區"
"234042","862-TW","2018/06/14 19:29:39","新北市永和區中和路519巷12號","121.511005","25.0032666666667","6500400","永和區"
"234050","863-TW","2018/06/14 19:29:33","新北市永和區信義路126號","121.512368333333","25.0148","6500400","永和區"
"234026","9371-KE","2018/06/14 19:29:34","新北市中和區安樂路139號","121.514463333333","24.9966516666667","6500400","永和區"
"234011","9373-KE","2018/06/14 19:29:43","新北市永和區保福路二段163巷13弄5號","121.509178333333","25.0143066666667","6500400","永和區"
"249002","305-UY","2018/06/14 19:29:28","新北市八里區龍形一街33巷1-6號","121.449366666667","25.1294916666667","6502300","八里區"
"249003","593-UM","2018/06/14 19:29:36","新北市八里區商港六路23號","121.396641666667","25.148585","6502300","八里區"
"248014","025-BX","2018/06/14 19:29:46","新北市五股區民義路一段163-2號","121.432085","25.0878483333333","6501500","五股區"
"248008","095-VK","2018/06/14 19:29:42","新北市五股區中興路一段95巷9號","121.46665","25.0724216666667","6501500","五股區"
"248018","225-UY","2018/06/14 19:29:44","新北市五股區凌雲路三段37號","121.431598333333","25.1168433333333","6501500","五股區"
"248012","247-BX","2018/06/14 19:29:39","新北市五股區成泰路二段97號","121.437953333333","25.0843016666667","6501500","五股區"
"248010","272-BY","2018/06/14 19:29:33","新北市五股區水碓二路1號","121.430645","25.0712416666667","6501500","五股區"
"248004","677-BX","2018/06/14 19:29:48","新北市五股區五福路2號","121.433936666667","25.0873333333333","6501500","五股區"
"248002","678-BX","2018/06/14 19:29:41","新北市五股區凌雲路一段158巷14-1號","121.447916666667","25.103415","6501500","五股區"
"234023","9380-KE","2018/06/14 19:29:40","新北市永和區竹林路91巷21弄11號","121.520868333333","25.012485","6500400","永和區"
"234077","969-R7","2018/06/14 19:29:35","新北市永和區民族街43巷8號","121.518943333333","24.99833","6500400","永和區"
"234074","AAC-211","2018/06/14 19:29:40","新北市永和區博愛街57巷1號","121.519875","25.0162833333333","6500400","永和區"
"234067","AAC-212","2018/06/14 19:29:38","新北市永和區永貞路404號","121.509138333333","25.00761","6500400","永和區"
"234003","AAC-295","2018/06/14 19:29:43","新北市永和區福和路352號","121.514628333333","25.007415","6500400","永和區"
"244019","403-UM","2018/06/14 19:29:35","新北市林口區寶林路123號","121.382855","25.085575","6501700","林口區"
"244023","483-VK","2018/06/14 19:29:41","新北市林口區文化三路二段179號","121.375786666667","25.082325","6501700","林口區"
"243013","AAD-798","2018/06/14 19:29:32","新北市泰山區貴子路36巷10號","121.4259","25.041375","6501600","泰山區"
"243009","297-R6","2018/06/14 19:29:31","新北市泰山區半山雅6號","121.431603333333","25.0673066666667","6501600","泰山區"
"243016","380-SR","2018/06/14 19:29:44","新北市泰山區明志路三段271號","121.423073333333","25.0370783333333","6501600","泰山區"
"243015","421-VK","2018/06/14 19:29:49","新北市泰山區民權街5號","121.428066666667","25.050925","6501600","泰山區"
"243011","KEA-2215","2018/06/14 19:29:41","新北市泰山區貴子路140號","121.428858333333","25.0403316666667","6501600","泰山區"
"243010","KEA-2216","2018/06/14 19:29:38","新北市泰山區民生路17巷36號","121.429493333333","25.0515966666667","6501600","泰山區"
"243012","646-TV","2018/06/14 19:29:49","新北市泰山區仁愛路132號","121.434351666667","25.0557383333333","6501600","泰山區"
"243014","680-BX","2018/06/14 19:29:36","新北市泰山區仁愛路64號","121.432173333333","25.05488","6501600","泰山區"
"222003","436-BY","2018/06/14 19:29:38","新北市深坑區深南路51-1號","121.621365","25.00963","6501800","深坑區"
"222002","659-BX","2018/06/14 19:29:37","新北市深坑區北深路一段177號","121.63254","25.010885","6501800","深坑區"
"231041","002-UM","2018/06/14 19:29:35","新北市新店區中正路608號","121.533928333333","24.9884033333333","6500600","新店區"
"231059","046-UY","2018/06/14 19:29:38","新北市新店區安和路三段7號","121.518033333333","24.9805566666667","6500600","新店區"
"231040","047-UY","2018/06/14 19:29:30","新北市新店區北新路一段32號","121.540945","24.965965","6500600","新店區"
"231044","106-UY","2018/06/14 19:29:31","新北市新店區中興路三段143號","121.54449","24.97988","6500600","新店區"
"231052","108-UY","2018/06/14 19:29:44","新北市新店區新烏路二段202號","121.547513333333","24.9165266666667","6500600","新店區"
"231047","110-UY","2018/06/14 19:29:42","新北市新店區中興路一段252號","121.544475","24.96651","6500600","新店區"
"231046","188-VK","2018/06/14 19:29:32","新北市新店區安康路一段3-1號","121.535145","24.9608666666667","6500600","新店區"
"231054","KEA-2219","2018/06/14 19:29:44","新北市新店區文中路40號","121.539591666667","24.9565283333333","6500600","新店區"
"231057","256-BX","2018/06/14 19:29:08","新北市新店區花園一路三段28號","121.550768333333","24.9327283333333","6500600","新店區"
"231042","268-BY","2018/06/14 19:29:37","新北市新店區北宜路一段7號","121.538405","24.9583366666667","6500600","新店區"
"231051","278-BY","2018/06/14 19:29:37","新北市新店區中央五街67號","121.527213333333","24.9757833333333","6500600","新店區"
"231050","AAD-862","2018/06/14 19:29:44","新北市新店區竹林路151號","121.55602","24.9486183333333","6500600","新店區"
"231058","3713-VJ","2018/06/14 19:29:40","新北市新店區寶橋路75號","121.545543333333","24.97513","6500600","新店區"
"231066","4716-K9","2018/06/14 19:29:42","新北市新店區安康路三段165巷2弄10號","121.489123333333","24.9513366666667","6500600","新店區"
"231065","512-UM","2018/06/14 19:29:40","新北市新店區安祥路109巷3弄26號","121.476151666667","24.9601483333333","6500600","新店區"
"231049","513-UM","2018/06/14 19:29:30","新北市新店區二十張路1巷3弄3號","121.54064","24.9821116666667","6500600","新店區"
"231061","619-UM","2018/06/14 19:29:39","新北市新店區安康路一段285號","121.52325","24.9636083333333","6500600","新店區"
"231063","641-BX","2018/06/14 19:29:47","新北市新店區達觀路16號","121.503393333333","24.940085","6500600","新店區"
"231064","719-UM","2018/06/14 19:29:34","新北市新店區安忠路57巷9弄1號","121.5134","24.9584116666667","6500600","新店區"
"231062","720-UM","2018/06/14 19:29:47","新北市新店區莒光路97號","121.522551666667","24.9540466666667","6500600","新店區"
"231045","898-TW","2018/06/14 19:29:47","新北市新店區北宜路二段209號","121.55315","24.9534166666667","6500600","新店區"
"231043","899-TW","2018/06/14 19:29:47","新北市新店區北新路二段187號","121.542761666667","24.9777033333333","6500600","新店區"
"241028","022-UY","2018/06/14 19:29:47","新北市三重區中寮街70號","121.493051666667","25.0582866666667","6500200","三重區"
"241008","059-VK","2018/06/14 19:29:31","新北市三重區永福街135巷34號","121.477491666667","25.0771583333333","6500200","三重區"
"241009","060-VK","2018/06/14 19:29:34","新北市三重區溪尾街242巷77號","121.485825","25.0814","6500200","三重區"
"241031","061-VK","2018/06/14 19:29:46","新北市三重區集美街69號","121.488418333333","25.053845","6500200","三重區"
"241017","063-VK","2018/06/14 19:29:50","新北市三重區大仁街29號","121.492536666667","25.0651366666667","6500200","三重區"
"241022","267-UM","2018/06/14 19:29:47","新北市三重區三民街88號","121.485563333333","25.06293","6500200","三重區"
"241032","269-UM","2018/06/14 19:29:41","新北市三重區三陽路43號","121.484965","25.0588783333333","6500200","三重區"
"241013","270-UM","2018/06/14 19:29:36","新北市三重區仁愛街129巷4號","121.495793333333","25.0750183333333","6500200","三重區"
"241025","271-UM","2018/06/14 19:29:32","新北市三重區頂崁街210巷23弄1號","121.4758","25.0680883333333","6500200","三重區"
"241007","398-BY","2018/06/14 19:29:45","新北市三重區溪尾街124-2號","121.489338333333","25.0793416666667","6500200","三重區"
"241035","KEA-2210","2018/06/14 19:29:32","新北市三重區信義西街1巷3號","121.498058333333","25.0649083333333","6500200","三重區"
"241020","478-VK","2018/06/14 19:29:46","新北市三重區三和路四段34號","121.490811666667","25.0743616666667","6500200","三重區"
"241030","480-VK","2018/06/14 19:29:44","新北市三重區成功路41巷14號","121.490353333333","25.0516883333333","6500200","三重區"
"241023","545-UM","2018/06/14 19:29:29","新北市三重區頂崁街139號","121.47774","25.06473","6500200","三重區"
"241006","AAD-863","2018/06/14 19:29:38","新北市三重區自強路三段72號","121.486695","25.0735233333333","6500200","三重區"
"241026","887-TS","2018/06/14 19:29:31","新北市三重區文化南路47巷41號","121.49913","25.06121","6500200","三重區"
"241029","942-UM","2018/06/14 19:29:32","新北市三重區中正南路216號","121.493871666667","25.055125","6500200","三重區"
"235064","005-UY","2018/06/14 19:29:46","新北市中和區南山路81巷61-1號","121.504253333333","24.9978","6500300","中和區"
"235063","006-UY","2018/06/14 19:29:29","新北市中和區連勝街149號","121.494508333333","24.9962366666667","6500300","中和區"
"235056","096-UM","2018/06/14 19:29:44","新北市中和區民富街15-2號","121.476493333333","25.0073966666667","6500300","中和區"
"235039","097-UM","2018/06/14 19:29:44","新北市中和區秀峰街119巷6弄12號","121.519031666667","24.990195","6500300","中和區"
"235065","098-UM","2018/06/14 19:29:38","新北市中和區莊敬路35號","121.50059","25.0048416666667","6500300","中和區"
"235040","150-BY","2018/06/14 19:29:31","新北市中和區保健路46巷20弄15號","121.508313333333","24.9963933333333","6500300","中和區"
"235058","151-BY","2018/06/14 19:29:45","新北市中和區連城路525號","121.481571666667","24.9952083333333","6500300","中和區"
"235055","183-VK","2018/06/14 19:29:35","新北市中和區國光街8巷7號","121.471625","25.0006966666667","6500300","中和區"
"235038","185-VK","2018/06/14 19:29:33","新北市中和區自立路15巷6號","121.52272","24.9958733333333","6500300","中和區"
"235049","186-VK","2018/06/14 19:29:47","新北市中和區景新街283號","121.509598333333","24.993375","6500300","中和區"
"235067","255-BX","2018/06/14 19:29:37","新北市中和區連城路322號","121.483286666667","24.9961233333333","6500300","中和區"
"235044","293-VK","2018/06/14 19:29:47","新北市中和區捷運路185號","121.50546","24.9914","6500300","中和區"
"235043","352-BY","2018/06/14 19:29:32","新北市中和區安和路25號","121.51063","24.994265","6500300","中和區"
"235050","4979-A6","2018/06/14 19:29:39","新北市中和區中正路426號","121.491566666667","24.9940366666667","6500300","中和區"
"235042","551-UM","2018/06/14 19:29:33","新北市中和區安平路161號","121.512463333333","24.998645","6500300","中和區"
"235070","558-UM","2018/06/14 19:29:37","新北市中和區景平路626巷1號","121.500438333333","24.9977333333333","6500300","中和區"
"235045","565-BX","2018/06/14 19:29:50","新北市中和區景新街392-1號","121.512525","24.9897566666667","6500300","中和區"
"235054","640-BX","2018/06/14 19:29:35","新北市中和區國光街112巷23弄1號","121.469678333333","25.0022383333333","6500300","中和區"
"235060","647-TV","2018/06/14 19:29:40","新北市中和區員山路266巷37號","121.48281","25.0018783333333","6500300","中和區"
"235047","732-UM","2018/06/14 19:29:36","新北市中和區景平路241巷64弄8號","121.50775","24.9926266666667","6500300","中和區"
"235046","733-UM","2018/06/14 19:29:47","新北市中和區忠孝街37巷30號","121.510843333333","24.9842666666667","6500300","中和區"
"235071","783-BX","2018/06/14 19:29:33","新北市中和區連城路469巷21弄12號","121.483955","24.9950183333333","6500300","中和區"
"235026","800-TS","2018/06/14 19:29:29","新北市中和區員山路36巷13號","121.484293333333","24.9906333333333","6500300","中和區"
"235057","801-TS","2018/06/14 19:29:34","新北市中和區中山路三段25號","121.47923","25.0057783333333","6500300","中和區"
"235041","802-TS","2018/06/14 19:29:44","新北市中和區中安街132號","121.511011666667","25.0003166666667","6500300","中和區"
"235052","805-TS","2018/06/14 19:29:47","新北市中和區華新街143巷67弄35號","121.507585","24.9792733333333","6500300","中和區"
"235048","896-TW","2018/06/14 19:29:44","新北市中和區忠孝街113巷1號","121.512496666667","24.9873216666667","6500300","中和區"
"235053","900-TW","2018/06/14 19:29:41","新北市中和區華順街2巷3號","121.467495","24.9990916666667","6500300","中和區"
"235066","911-UM","2018/06/14 19:29:28","新北市中和區中和路140號","121.503973333333","24.9994616666667","6500300","中和區"
"235051","157-BY","2018/06/14 19:29:47","新北市中和區景新街105號","121.505638333333","24.99773","6500300","中和區"
"235037","AAC-213","2018/06/14 19:29:36","新北市中和區秀朗路三段52號","121.5263","24.9954133333333","6500300","中和區"
"235059","AAC-215","2018/06/14 19:29:37","新北市中和區圓通路252巷5弄1號","121.49343","24.99137","6500300","中和區"
"220068","013-TV","2018/06/14 19:29:38","新北市板橋區翠華街6巷123號","121.48176","25.0246683333333","6500100","板橋區"
"220069","015-TV","2018/06/14 19:29:38","新北市板橋區大明街20巷41-3號","121.458146666667","25.0037616666667","6500100","板橋區"
"220065","072-UY","2018/06/14 19:29:47","新北市板橋區實踐路93巷55號","121.466905","25.0048183333333","6500100","板橋區"
"220086","073-UY","2018/06/14 19:29:40","新北市板橋區中正路216巷8號","121.456358333333","25.018435","6500100","板橋區"
"220106","075-UY","2018/06/14 19:29:47","新北市板橋區文化路二段441巷2弄1號","121.47462","25.0334266666667","6500100","板橋區"
"220090","120-SR","2018/06/14 19:29:41","新北市板橋區長江路一段106巷20弄11號","121.460138333333","25.0281983333333","6500100","板橋區"
"247004","337-TH","2018/06/14 19:29:48","新北市蘆洲區長安街271號","121.458586666667","25.0840183333333","6501400","蘆洲區"
"226004","312-R5","2018/06/14 19:29:43","新北市平溪區靜安路三段392巷3號","121.784395","25.0495333333333","6502400","平溪區"
"228003","097-TW","2018/06/14 19:29:36","新北市貢寮區和美里和美街22-1號","121.912798333333","25.082615","6502600","貢寮區"
"228001","212-TW","2018/06/14 19:29:34","新北市貢寮區真理里延平街68號","121.92539","25.0574033333333","6502600","貢寮區"
"228002","585-TW","2018/06/14 19:29:31","新北市貢寮區龍門里龍門街24-1號","121.932763333333","25.025695","6502600","貢寮區"
"224010","AGQ-8101","2018/06/14 19:29:30","新北市瑞芳區基山街169號","121.843328333333","25.10804","6501200","瑞芳區"
"227004","642-TC","2018/06/14 19:29:30","新北市雙溪區雙溪里光復街20號","121.865156666667","25.0354516666667","6502500","雙溪區"
"227010","400-TW","2018/06/14 19:29:36","新北市雙溪區新基里新基北街43號","121.868166666667","25.0396833333333","6502500","雙溪區"
"253005","032-BX","2018/06/14 19:29:39","新北市石門區小坑9號","121.594373333333","25.2886233333333","6502200","石門區"
"222001","KEA-2212","2018/06/14 19:29:45","新北市深坑區深坑街10號","121.615873333333","25.00279","6501800","深坑區"
"208002","KEA-2872","2018/06/14 19:29:45","新北市金山區仁愛路78巷2號","121.634715","25.22145","6502700","金山區"
"208003","665-BX","2018/06/14 19:29:43","新北市金山區忠孝一路82號","121.636831666667","25.2210633333333","6502700","金山區"
"208001","761-BX","2018/06/14 19:29:46","新北市金山區南勢40號","121.628658333333","25.2208016666667","6502700","金山區"
"251009","008-UM","2018/06/14 19:29:49","新北市淡水區大忠街5巷8號","121.443358333333","25.1765266666667","6501000","淡水區"
"251005","010-UM","2018/06/14 19:29:33","新北市淡水區水源街一段71巷18號","121.444238333333","25.172945","6501000","淡水區"
"251013","KEA-2871","2018/06/14 19:29:51","新北市淡水區大牛稠5號","121.470376666667","25.2195183333333","6501000","淡水區"
"251016","179-VK","2018/06/14 19:29:48","新北市淡水區下圭柔山119-51號","121.450728333333","25.2084666666667","6501000","淡水區"
"251014","180-VK","2018/06/14 19:29:47","新北市淡水區小中寮15-1號","121.48571","25.2304216666667","6501000","淡水區"
"251015","182-VK","2018/06/14 19:29:40","新北市淡水區山子頂22-2號","121.492683333333","25.1888566666667","6501000","淡水區"
"251010","413-VK","2018/06/14 19:29:45","新北市淡水區中正路二段109號","121.420536666667","25.187055","6501000","淡水區"
"251012","441-VK","2018/06/14 19:29:41","新北市淡水區崁頂75-2號","121.436515","25.2034883333333","6501000","淡水區"
"251007","442-VK","2018/06/14 19:29:42","新北市淡水區中正東路二段143巷6弄1號","121.46123","25.147475","6501000","淡水區"
"251001","559-UM","2018/06/14 19:29:44","新北市淡水區民權路155號","121.460041666667","25.13617","6501000","淡水區"
"251006","561-UM","2018/06/14 19:29:46","新北市淡水區大義街31號","121.44243","25.1782916666667","6501000","淡水區"
"251011","650-BX","2018/06/14 19:29:42","新北市淡水區中正東路二段143巷2弄1號","121.460683333333","25.147115","6501000","淡水區"
"207004","225-TW","2018/06/14 19:29:36","新北市萬里區萬里里瑪鋉路123號","121.689063333333","25.17809","6502800","萬里區"
"252002","178-VK","2018/06/14 19:29:35","新北市三芝區淡金路二段18-1號","121.502686666667","25.2595166666667","6502100","三芝區"
"252001","292-VK","2018/06/14 19:29:39","新北市三芝區長勤街62-1號","121.500125","25.2561483333333","6502100","三芝區"
"237007","153-BY","2018/06/14 19:29:43","新北市三峽區二鬮路136巷18弄16號","121.358878333333","24.90863","6500900","三峽區"
"237009","210-TH","2018/06/14 19:29:36","新北市三峽區民權街48號","121.369666666667","24.9334516666667","6500900","三峽區"
"237013","252-BX","2018/06/14 19:29:35","新北市三峽區介壽路一段318巷11號","121.381051666667","24.9296183333333","6500900","三峽區"
"237012","275-BY","2018/06/14 19:28:49","新北市三峽區三樹路98巷111號","121.382496666667","24.93834","6500900","三峽區"
"237008","302-VK","2018/06/14 19:29:35","新北市三峽區光明路106巷76號","121.37475","24.9266066666667","6500900","三峽區"
"237014","433-BY","2018/06/14 19:29:48","新北市三峽區中山路241號","121.36263","24.9372483333333","6500900","三峽區"
"237006","5529-G3","2018/06/14 19:29:49","新北市三峽區溪北街109號","121.398385","24.9354466666667","6500900","三峽區"
"237011","KEA-2596","2018/06/14 19:29:41","新北市三峽區介壽路二段112號","121.393253333333","24.9357433333333","6500900","三峽區"
"237016","649-BX","2018/06/14 19:29:45","新北市三峽區建安25-3號","121.445433333333","24.9273683333333","6500900","三峽區"
"237010","706-TV","2018/06/14 19:29:44","新北市三峽區復興路73號","121.372735","24.9374383333333","6500900","三峽區"
"237005","AKY-6261","2018/06/14 19:29:37","新北市三峽區復興路367巷3號","121.363711666667","24.9380866666667","6500900","三峽區"
"236070","105-UM","2018/06/14 19:29:41","新北市土城區學府路一段157號","121.45327","24.98579","6501300","土城區"
"236042","107-UM","2018/06/14 19:29:40","新北市土城區學府路一段276號","121.450118333333","24.9831283333333","6501300","土城區"
"236078","166-UM","2018/06/14 19:29:46","新北市土城區中州路12巷3號","121.414915","24.9573416666667","6501300","土城區"
"236030","253-BX","2018/06/14 19:29:36","新北市土城區中央路一段324號","121.443203333333","24.9815983333333","6501300","土城區"
"236026","269-VK","2018/06/14 19:29:43","新北市土城區中央路二段61巷26號","121.443298333333","24.9787883333333","6501300","土城區"
"236021","401-BY","2018/06/14 19:29:41","新北市土城區峰廷街3號","121.469056666667","24.9873133333333","6501300","土城區"
"236059","912-UM","2018/06/14 19:29:40","新北市土城區中央路二段63號","121.442586666667","24.97897","6501300","土城區"
"236049","913-UM","2018/06/14 19:29:47","新北市土城區清水路205號","121.460201666667","24.981785","6501300","土城區"
"242023","362-BY","2018/06/14 19:29:37","新北市新莊區新泰路498號","121.442521666667","25.0463166666667","6500500","新莊區"
"242031","135-UY","2018/06/14 19:29:38","新北市新莊區新泰路225巷24號","121.44525","25.0391166666667","6500500","新莊區"
"242048","172-VK","2018/06/14 19:29:46","新北市新莊區後港一路3號","121.424045","25.0263583333333","6500500","新莊區"
"242013","351-TH","2018/06/14 19:29:43","新北市新莊區新泰路498號","121.442556666667","25.0462616666667","6500500","新莊區"
"238015","755-BX","2018/06/14 19:29:29","新北市樹林區復興路202號","121.419735","24.990655","6500700","樹林區"
"238023","601-UM","2018/06/14 19:29:32","新北市樹林區中正路865號","121.408818333333","25.0181616666667","6500700","樹林區"
"238019","599-UM","2018/06/14 19:29:34","新北市樹林區鎮前街375號","121.415736666667","24.9838583333333","6500700","樹林區"
"238018","571-TV","2018/06/14 19:29:45","新北市樹林區八德街395號","121.415491666667","24.971365","6500700","樹林區"
"238024","5061-A6","2018/06/14 19:29:50","新北市樹林區中山路三段87號","121.40014","24.974835","6500700","樹林區"
"238022","KEA-2213","2018/06/14 19:29:37","新北市樹林區名園街25號","121.419386666667","24.9792583333333","6500700","樹林區"
"238021","KEA-2539","2018/06/14 19:29:41","新北市樹林區大成路162號","121.381738333333","24.9484283333333","6500700","樹林區"
"238025","303-VK","2018/06/14 19:29:48","新北市樹林區中山路一段39號","121.424075","24.9923916666667","6500700","樹林區"
"238017","283-BY","2018/06/14 19:29:45","新北市樹林區光興街166號","121.406718333333","25.0043266666667","6500700","樹林區"
"238014","282-BY","2018/06/14 19:29:38","新北市樹林區保安二街64巷25號","121.42438","24.9967283333333","6500700","樹林區"
"238020","268-VK","2018/06/14 19:29:35","新北市樹林區俊英街121巷29號","121.423365","25.0100333333333","6500700","樹林區"
"238026","172-UY","2018/06/14 19:29:40","新北市樹林區柑園街一段359號","121.388865","24.955895","6500700","樹林區"
"238016","169-UY","2018/06/14 19:29:38","新北市樹林區大安路593號","121.411706666667","24.9833116666667","6500700","樹林區"
"239007","AAC-297","2018/06/14 19:29:41","新北市鶯歌區大湖路余厝巷5號","121.342213333333","24.96129","6500800","鶯歌區"
"239006","891-R6","2018/06/14 19:29:39","新北市鶯歌區鶯桃路67巷3號","121.340941666667","24.9526033333333","6500800","鶯歌區"
"239008","527-UM","2018/06/14 19:29:44","新北市鶯歌區大湖路460巷2弄2號","121.339958333333","24.9724916666667","6500800","鶯歌區"
"239005","526-UM","2018/06/14 19:29:45","新北市鶯歌區東湖路36號","121.356485","24.9722116666667","6500800","鶯歌區"
"239001","417-VK","2018/06/14 19:29:49","新北市鶯歌區建國路455號","121.339131666667","24.95199","6500800","鶯歌區"
"239003","360-BY","2018/06/14 19:29:42","新北市鶯歌區國華路56號","121.342281666667","24.9549383333333","6500800","鶯歌區"
"239004","193-VK","2018/06/14 19:29:32","新北市鶯歌區鶯華新村41號","121.330578333333","24.9341016666667","6500800","鶯歌區"
"221008","489-VK","2018/06/14 19:29:43","新北市汐止區康寧街235號","121.62391","25.0667683333333","6501100","汐止區"
"221036","130-UY","2018/06/14 19:29:30","新北市汐止區汐萬路一段312號","121.650683333333","25.075315","6501100","汐止區"
"221015","131-UY","2018/06/14 19:29:32","新北市汐止區康寧街901號","121.651606666667","25.0749283333333","6501100","汐止區"
"221010","269-BY","2018/06/14 19:29:50","新北市汐止區連峰街3巷2號","121.646548333333","25.0765566666667","6501100","汐止區"
"221012","278-VK","2018/06/14 19:29:46","新北市汐止區大同路三段184號","121.674283333333","25.074655","6501100","汐止區"
"221023","279-VK","2018/06/14 19:29:35","新北市汐止區康寧街571號","121.634726666667","25.0695616666667","6501100","汐止區"
"221027","281-BY","2018/06/14 19:29:32","新北市汐止區忠孝東路9號","121.658296666667","25.066","6501100","汐止區"
"221038","297-VK","2018/06/14 19:29:30","新北市汐止區汐萬路一段20號","121.656023333333","25.0675616666667","6501100","汐止區"
"221029","298-VK","2018/06/14 19:29:44","新北市汐止區康寧街901號","121.651543333333","25.0749866666667","6501100","汐止區"
"221021","299-VK","2018/06/14 19:29:39","新北市汐止區康寧街901號","121.65141","25.0750033333333","6501100","汐止區"
"221031","353-TW","2018/06/14 19:29:38","新北市汐止區汐萬路一段312號","121.650405","25.0749833333333","6501100","汐止區"
"221025","623-UM","2018/06/14 19:29:45","新北市汐止區新台五路二段10號","121.660296666667","25.0650616666667","6501100","汐止區"
"221033","647-BX","2018/06/14 19:29:39","新北市汐止區南勢街1巷1號","121.627038333333","25.0374033333333","6501100","汐止區"
"221002","707-TV","2018/06/14 19:29:39","新北市汐止區大同路一段301號","121.63734","25.0589183333333","6501100","汐止區"
"220079","145-BY","2018/06/14 19:29:39","新北市板橋區建國街3-1號","121.457153333333","25.016995","6500100","板橋區"
"220080","200-UY","2018/06/14 19:29:34","新北市板橋區大觀路二段37巷64號","121.449513333333","25.00224","6500100","板橋區"
"220082","610-BX","2018/06/14 19:29:49","新北市板橋區金門街43號","121.433423333333","24.9935116666667","6500100","板橋區"
"220101","245-BX","2018/06/14 19:29:40","新北市板橋區莊敬路262-1號","121.474226666667","25.02178","6500100","板橋區"
"220055","256-TC","2018/06/14 19:29:48","新北市板橋區重慶路278巷18-1號","121.462363333333","24.9996016666667","6500100","板橋區"
"220056","276-BY","2018/06/14 19:29:38","新北市板橋區信義路1巷26弄36號","121.458665","24.9965783333333","6500100","板橋區"
"220072","277-BY","2018/06/14 19:29:35","新北市板橋區金門街253巷16弄8號","121.432651666667","24.9879516666667","6500100","板橋區"
"220071","283-VK","2018/06/14 19:29:39","新北市板橋區忠孝路48巷9弄1號","121.461168333333","25.0000916666667","6500100","板橋區"
"220094","285-UM","2018/06/14 19:29:33","新北市板橋區吳鳳路50巷21弄2號","121.468425","25.0303733333333","6500100","板橋區"
"220053","285-VK","2018/06/14 19:29:33","新北市板橋區永豐街205號","121.476541666667","25.0209733333333","6500100","板橋區"
"220083","286-VK","2018/06/14 19:29:32","新北市板橋區大觀路一段38巷184號","121.441425","25.0047183333333","6500100","板橋區"
"220081","287-VK","2018/06/14 19:29:35","新北市板橋區大觀路一段28巷1弄102號","121.451758333333","25.006305","6500100","板橋區"
"220061","293-UM","2018/06/14 19:29:48","新北市板橋區成功路8號","121.475678333333","25.0169633333333","6500100","板橋區"
"220062","295-UM","2018/06/14 19:29:34","新北市板橋區三民路二段123巷19號","121.480176666667","25.0156533333333","6500100","板橋區"
"220084","296-UM","2018/06/14 19:29:37","新北市板橋區滿平街84巷100弄15號","121.426","24.9861733333333","6500100","板橋區"
"220075","303-R5","2018/06/14 19:29:43","新北市板橋區中正路253巷58號","121.453483333333","25.0175166666667","6500100","板橋區"
"220092","307-R5","2018/06/14 19:29:38","新北市板橋區文化路二段125巷13號","121.469431666667","25.0269183333333","6500100","板橋區"
"220098","317-R6","2018/06/14 19:29:48","新北市板橋區四維路266巷5弄15號","121.463641666667","25.0288583333333","6500100","板橋區"
"220064","486-VK","2018/06/14 19:29:46","新北市板橋區中山路一段24號","121.460333333333","25.0081966666667","6500100","板橋區"
"220088","491-VK","2018/06/14 19:29:34","新北市板橋區雙十路二段138-1號","121.473666666667","25.0289816666667","6500100","板橋區"
"220035","560-BX","2018/06/14 19:29:33","新北市板橋區中正路399巷34號","121.452976666667","25.02293","6500100","板橋區"
"220103","561-BX","2018/06/14 19:29:46","新北市板橋區文化路一段270巷3弄2號","121.467473333333","25.0208816666667","6500100","板橋區"
"220063","609-BX","2018/06/14 19:29:42","新北市板橋區三民路一段3巷30號","121.480156666667","25.0236766666667","6500100","板橋區"
"220091","637-BX","2018/06/14 19:29:43","新北市板橋區文聖街149巷23弄16號","121.479205","25.028965","6500100","板橋區"
"220057","686-BX","2018/06/14 19:29:45","新北市板橋區五權街3-4號","121.463813333333","24.9948066666667","6500100","板橋區"
"220077","687-BX","2018/06/14 19:29:46","新北市板橋區僑中二街114巷1號","121.445708333333","25.006635","6500100","板橋區"
"220093","689-BX","2018/06/14 19:29:48","新北市板橋區英士路49-1號","121.461196666667","25.0246033333333","6500100","板橋區"
"220054","741-BX","2018/06/14 19:29:34","新北市板橋區光明街46號","121.460526666667","25.0025216666667","6500100","板橋區"
"220102","KEA-2699","2018/06/14 19:29:37","新北市板橋區雙十路二段112號","121.474478333333","25.02887","6500100","板橋區"
"220067","830-TW","2018/06/14 19:29:35","新北市板橋區漢生東路313巷9號","121.47225","25.008275","6500100","板橋區"
"220096","831-TW","2018/06/14 19:29:36","新北市板橋區大同街21巷22號","121.476976666667","25.0277233333333","6500100","板橋區"
"220089","833-TW","2018/06/14 19:29:41","新北市板橋區文化路一段123號","121.461986666667","25.0148933333333","6500100","板橋區"
"220074","895-R6","2018/06/14 19:29:33","新北市板橋區北門街8號","121.45771","25.0105416666667","6500100","板橋區"
"220073","985-R7","2018/06/14 19:29:38","新北市板橋區中正路294號","121.454873333333","25.0204566666667","6500100","板橋區"
"220097","AAC-210","2018/06/14 19:29:43","新北市板橋區漢生西路183號","121.46325","25.0239716666667","6500100","板橋區"
"220070","AAC-253","2018/06/14 19:29:48","新北市板橋區民族路168-2號","121.46737","25.0079033333333","6500100","板橋區"
"235068","KEA-2873","2018/06/14 19:29:40","新北市中和區景平路493巷12弄2號","121.499043333333","24.9971783333333","6500300","中和區"
"235061","KEA-2875","2018/06/14 19:29:39","新北市中和區員山路150-13號","121.481398333333","24.9976766666667","6500300","中和區"
