"lineid","car","time","location","longitude","latitude","cityid","cityname"
"234046","148-BY","2018/06/14 19:59:22","新北市永和區成功路一段105號","121.526861666667","25.0025216666667","6500400","永和區"
"234007","207-UY","2018/06/14 19:59:12","新北市永和區保生路22巷19弄2號","121.507146666667","25.0083483333333","6500400","永和區"
"234081","298-R6","2018/06/14 19:59:20","新北市永和區永利路81巷2弄1號","121.521816666667","25.0036816666667","6500400","永和區"
"234038","336-UY","2018/06/14 19:59:20","新北市永和區成功路二段142號","121.52655","24.9971833333333","6500400","永和區"
"234064","337-UY","2018/06/14 19:59:27","新北市永和區中正路412巷2弄12號","121.5185","25.0018083333333","6500400","永和區"
"234086","338-UY","2018/06/14 19:59:15","新北市永和區福和路152號","121.521661666667","25.007935","6500400","永和區"
"234070","552-UM","2018/06/14 19:59:28","新北市永和區國光路12巷1號","121.519173333333","25.00862","6500400","永和區"
"234017","745-BX","2018/06/14 19:59:11","新北市永和區文化路69號","121.513956666667","25.0150466666667","6500400","永和區"
"234030","746-BX","2018/06/14 19:59:18","新北市永和區民生路22巷9號","121.521928333333","24.9971616666667","6500400","永和區"
"234054","KEA-2590","2018/06/14 19:59:19","新北市永和區環河東路一段122號","121.520563333333","25.0154583333333","6500400","永和區"
"234013","KEA-2591","2018/06/14 19:59:18","新北市永和區保生路55號","121.504718333333","25.0105883333333","6500400","永和區"
"234061","AAD-866","2018/06/14 19:59:14","新北市永和區中正路283巷13號","121.516825","25.0004983333333","6500400","永和區"
"234042","862-TW","2018/06/14 19:59:28","新北市永和區中和路335巷12號","121.507508333333","25.00021","6500400","永和區"
"234050","863-TW","2018/06/14 19:59:13","新北市永和區保安路232號","121.506926666667","25.0132766666667","6500400","永和區"
"234026","9371-KE","2018/06/14 19:59:21","新北市永和區水源街33巷1號","121.510886666667","25.0044266666667","6500400","永和區"
"234011","9373-KE","2018/06/14 19:59:24","新北市永和區仁愛路352巷112弄12號","121.50118","25.0086","6500400","永和區"
"249005","172-UM","2018/06/14 19:59:13","新北市八里區楓林路3-4號","121.382078333333","25.1292833333333","6502300","八里區"
"249001","173-UM","2018/06/14 19:59:14","新北市八里區中華路二段312號","121.403783333333","25.1483716666667","6502300","八里區"
"249004","303-UY","2018/06/14 19:59:21","新北市八里區中華路一段333-1號","121.413243333333","25.1539","6502300","八里區"
"249002","305-UY","2018/06/14 19:59:27","新北市八里區頂寮二街62巷3號","121.45059","25.125925","6502300","八里區"
"249003","593-UM","2018/06/14 19:59:09","新北市八里區中華路二段560巷7號","121.39844","25.1449633333333","6502300","八里區"
"248014","025-BX","2018/06/14 19:59:30","新北市五股區五福路22巷2號","121.43446","25.0889566666667","6501500","五股區"
"248016","026-BX","2018/06/14 19:59:14","新北市五股區成泰路三段577巷80弄50號","121.449696666667","25.1049283333333","6501500","五股區"
"248008","095-VK","2018/06/14 19:59:23","新北市五股區四維路30巷31號","121.468641666667","25.0715","6501500","五股區"
"248018","225-UY","2018/06/14 19:59:24","新北市五股區凌雲路三段26-41號","121.434175","25.1043566666667","6501500","五股區"
"248012","247-BX","2018/06/14 19:59:19","新北市五股區民義路一段93號","121.43453","25.0858966666667","6501500","五股區"
"248010","272-BY","2018/06/14 19:59:13","新北市五股區登林路102號","121.427445","25.0706416666667","6501500","五股區"
"248004","677-BX","2018/06/14 19:59:08","新北市五股區成泰路一段8巷2-3號","121.434878333333","25.066855","6501500","五股區"
"248002","678-BX","2018/06/14 19:59:29","新北市五股區成泰路三段553號","121.45202","25.1018583333333","6501500","五股區"
"234077","969-R7","2018/06/14 19:59:15","新北市永和區民有街16號","121.516453333333","24.9966783333333","6500400","永和區"
"234074","AAC-211","2018/06/14 19:59:20","新北市永和區豫溪街207巷16號","121.523453333333","25.0100466666667","6500400","永和區"
"234067","AAC-212","2018/06/14 19:59:18","新北市永和區永貞路325號","121.509778333333","25.0067866666667","6500400","永和區"
"234003","AAC-295","2018/06/14 19:59:23","新北市永和區中山路一段7號","121.514243333333","25.010205","6500400","永和區"
"243013","AAD-798","2018/06/14 19:46:24","新北市泰山區應化街13號","121.42386","25.043705","6501600","泰山區"
"243009","297-R6","2018/06/14 19:59:11","新北市泰山區楓江路16巷25號","121.43405","25.0614466666667","6501600","泰山區"
"243016","380-SR","2018/06/14 19:59:24","新北市泰山區貴鳳街2號","121.421055","25.0309333333333","6501600","泰山區"
"243015","421-VK","2018/06/14 19:59:12","新北市泰山區明志路二段194號","121.427486666667","25.0496666666667","6501600","泰山區"
"243011","KEA-2215","2018/06/14 19:59:21","新北市泰山區明志路三段196巷41號","121.421445","25.0399216666667","6501600","泰山區"
"243010","KEA-2216","2018/06/14 19:59:18","新北市泰山區中華街9號","121.427816666667","25.0524966666667","6501600","泰山區"
"243012","646-TV","2018/06/14 19:59:29","新北市泰山區全興路3-1號","121.43212","25.0592666666667","6501600","泰山區"
"243014","680-BX","2018/06/14 19:59:16","新北市泰山區泰林路二段155號","121.43386","25.0603566666667","6501600","泰山區"
"222003","436-BY","2018/06/14 19:59:18","新北市深坑區深南路1號","121.622026666667","25.0050016666667","6501800","深坑區"
"222002","659-BX","2018/06/14 19:59:20","新北市深坑區北深路二段55巷12弄16號","121.618528333333","25.0032033333333","6501800","深坑區"
"231041","002-UM","2018/06/14 19:59:16","新北市新店區民族路192號","121.535993333333","24.97549","6500600","新店區"
"231059","046-UY","2018/06/14 19:59:18","新北市新店區安和路一段9號","121.516805","24.9640166666667","6500600","新店區"
"231040","047-UY","2018/06/14 19:59:30","新北市新店區中正路75巷71號","121.54308","24.9687366666667","6500600","新店區"
"231044","106-UY","2018/06/14 19:59:11","新北市新店區復興路36號","121.539006666667","24.98681","6500600","新店區"
"231052","108-UY","2018/06/14 19:59:23","新北市新店區新烏路三段225號","121.547301666667","24.8966683333333","6500600","新店區"
"231047","110-UY","2018/06/14 19:59:22","新北市新店區寶宏路38號","121.549501666667","24.9756016666667","6500600","新店區"
"231046","188-VK","2018/06/14 19:59:12","新北市新店區三民路159巷19弄2號","121.532735","24.974035","6500600","新店區"
"231054","KEA-2219","2018/06/14 19:59:24","新北市新店區光明街135號","121.539448333333","24.9619566666667","6500600","新店區"
"231057","256-BX","2018/06/14 19:59:08","新北市新店區花園二路一段11號","121.555523333333","24.9324616666667","6500600","新店區"
"231042","268-BY","2018/06/14 19:59:17","新北市新店區中正路5號","121.545806666667","24.969115","6500600","新店區"
"231051","278-BY","2018/06/14 19:59:17","新北市新店區中央三街27號","121.528608333333","24.974155","6500600","新店區"
"231050","AAD-862","2018/06/14 19:56:04","新北市新店區北宜路二段579巷13號","121.565426666667","24.95426","6500600","新店區"
"231056","4715-K9","2018/06/14 19:59:28","新北市新店區明德路26巷2號","121.542216666667","24.9777533333333","6500600","新店區"
"231065","512-UM","2018/06/14 19:59:19","新北市新店區安祥路109巷35號","121.476451666667","24.9594466666667","6500600","新店區"
"231049","513-UM","2018/06/14 19:59:25","新北市新店區明德路42-1號","121.541558333333","24.9782333333333","6500600","新店區"
"231061","619-UM","2018/06/14 19:59:18","新北市新店區安民街285號","121.517561666667","24.9733016666667","6500600","新店區"
"231063","641-BX","2018/06/14 19:59:28","新北市新店區黎明路51巷2號","121.501963333333","24.9490283333333","6500600","新店區"
"231068","718-UY","2018/06/14 19:59:14","新北市新店區安一路一段1-1號","121.519761666667","24.9620833333333","6500600","新店區"
"231064","719-UM","2018/06/14 19:59:14","新北市新店區安民街135號","121.516401666667","24.9691833333333","6500600","新店區"
"231062","720-UM","2018/06/14 19:59:27","新北市新店區華城路36號","121.52828","24.9557716666667","6500600","新店區"
"231045","898-TW","2018/06/14 19:59:27","新北市新店區北宜路二段271號","121.554735","24.9536166666667","6500600","新店區"
"231043","899-TW","2018/06/14 19:59:07","新北市新店區中正路263-4號","121.538285","24.9738183333333","6500600","新店區"
"241011","013-R5","2018/06/14 19:59:28","新北市三重區三和路二段119號","121.498926666667","25.06916","6500200","三重區"
"241028","022-UY","2018/06/14 19:59:28","新北市三重區中正南路30號","121.493726666667","25.0603033333333","6500200","三重區"
"241008","059-VK","2018/06/14 19:59:11","新北市三重區永福街122-2號","121.479196666667","25.0750083333333","6500200","三重區"
"241009","060-VK","2018/06/14 19:59:14","新北市三重區三和路四段390巷11號","121.481321666667","25.0788933333333","6500200","三重區"
"241031","061-VK","2018/06/14 19:59:26","新北市三重區重新路四段144巷23號","121.486928333333","25.0551916666667","6500200","三重區"
"241015","062-VK","2018/06/14 19:59:20","新北市三重區三和路二段8號","121.501106666667","25.06691","6500200","三重區"
"241017","063-VK","2018/06/14 19:59:10","新北市三重區重陽路四段4號","121.490693333333","25.0688233333333","6500200","三重區"
"241024","065-VK","2018/06/14 19:59:20","新北市三重區力行路一段277號","121.482198333333","25.07144","6500200","三重區"
"241002","090-VK","2018/06/14 19:59:25","新北市三重區仁愛街269巷12號","121.493545","25.0790933333333","6500200","三重區"
"241005","742-BX","2018/06/14 19:59:21","新北市三重區溪尾街325巷11號","121.488473333333","25.0837716666667","6500200","三重區"
"241003","265-UM","2018/06/14 19:59:20","新北市三重區仁愛街445巷14號","121.490555","25.082765","6500200","三重區"
"241016","266-UM","2018/06/14 19:59:19","新北市三重區正義北路36巷13號","121.49679","25.0634","6500200","三重區"
"241022","267-UM","2018/06/14 19:59:27","新北市三重區新北大道一段7號","121.489681666667","25.0612266666667","6500200","三重區"
"241018","268-UM","2018/06/14 19:59:17","新北市三重區雙園街57巷16號","121.494523333333","25.0678166666667","6500200","三重區"
"241032","269-UM","2018/06/14 19:59:21","新北市三重區朝陽街23號","121.483611666667","25.056505","6500200","三重區"
"241013","270-UM","2018/06/14 19:59:16","新北市三重區三和路三段125巷40號","121.493931666667","25.073765","6500200","三重區"
"241025","271-UM","2018/06/14 19:59:12","新北市三重區頂崁街210巷16號","121.476485","25.067775","6500200","三重區"
"241007","398-BY","2018/06/14 19:59:25","新北市三重區溪尾街169號","121.488956666667","25.080185","6500200","三重區"
"241035","KEA-2210","2018/06/14 19:59:12","新北市三重區大榮街7號","121.498206666667","25.063015","6500200","三重區"
"241004","475-VK","2018/06/14 19:59:12","新北市三重區五華街110號","121.492323333333","25.08279","6500200","三重區"
"241020","478-VK","2018/06/14 19:59:26","新北市三重區忠孝路一段87號","121.489786666667","25.07208","6500200","三重區"
"241030","480-VK","2018/06/14 19:59:24","新北市三重區成功路110-3號","121.486926666667","25.051915","6500200","三重區"
"241014","543-UM","2018/06/14 19:59:27","新北市三重區三和路二段160號","121.499275","25.06852","6500200","三重區"
"241023","545-UM","2018/06/14 19:59:29","新北市三重區頂崁街187巷4號","121.477836666667","25.066405","6500200","三重區"
"241001","547-UM","2018/06/14 19:59:29","新北市三重區仁愛街283巷36號","121.49431","25.0799366666667","6500200","三重區"
"241019","KEA-2593","2018/06/14 19:59:16","新北市三重區重陽路四段12號","121.49081","25.068955","6500200","三重區"
"241006","AAD-863","2018/06/14 19:59:18","新北市三重區力行路二段90號","121.482043333333","25.0743583333333","6500200","三重區"
"241026","887-TS","2018/06/14 19:59:11","新北市三重區仁慈街18號","121.501963333333","25.0631166666667","6500200","三重區"
"241012","941-UM","2018/06/14 19:59:26","新北市三重區仁厚街70號","121.500598333333","25.076685","6500200","三重區"
"241029","942-UM","2018/06/14 19:59:12","新北市三重區重安街12號","121.490156666667","25.0581733333333","6500200","三重區"
"241033","AAC-255","2018/06/14 19:59:15","新北市三重區中興北街14號","121.46945","25.0470533333333","6500200","三重區"
"235056","096-UM","2018/06/14 19:59:24","新北市中和區中山路三段170巷8弄9號","121.472868333333","25.00763","6500300","中和區"
"235039","097-UM","2018/06/14 19:59:24","新北市中和區景平路278巷14弄2號","121.514248333333","24.9930233333333","6500300","中和區"
"235065","098-UM","2018/06/14 19:59:18","新北市中和區莊敬路2號","121.499465","25.0041733333333","6500300","中和區"
"235040","150-BY","2018/06/14 19:59:11","新北市中和區保健路10巷3弄1號","121.50776","24.9977133333333","6500300","中和區"
"235058","151-BY","2018/06/14 19:59:26","新北市中和區員山路146-4號","121.481311666667","24.9971016666667","6500300","中和區"
"235055","183-VK","2018/06/14 19:59:15","新北市中和區民生街23巷2弄2號","121.470795","25.0054","6500300","中和區"
"235049","186-VK","2018/06/14 19:59:27","新北市中和區南華路6號","121.502268333333","24.9955","6500300","中和區"
"235067","255-BX","2018/06/14 19:59:19","新北市中和區員山路148巷23弄30號","121.482228333333","24.9978966666667","6500300","中和區"
"235044","293-VK","2018/06/14 19:59:27","新北市中和區中興街75號","121.500276666667","24.99314","6500300","中和區"
"235050","4979-A6","2018/06/14 19:59:19","新北市中和區景平路241巷64弄1號","121.507646666667","24.9924266666667","6500300","中和區"
"235069","4980-A6","2018/06/14 19:59:20","新北市中和區南山路14號","121.502061666667","24.9984983333333","6500300","中和區"
"235070","558-UM","2018/06/14 19:59:17","新北市中和區圓通路120-2號","121.49913","24.9960383333333","6500300","中和區"
"235054","640-BX","2018/06/14 19:59:15","新北市中和區莒光路55號","121.472113333333","25.004435","6500300","中和區"
"235047","732-UM","2018/06/14 19:59:16","新北市中和區和平街146號","121.506273333333","24.9917383333333","6500300","中和區"
"235046","733-UM","2018/06/14 19:59:27","新北市中和區興南路一段93巷58弄1號","121.510698333333","24.985895","6500300","中和區"
"235026","800-TS","2018/06/14 19:59:13","新北市中和區員山路36巷16-3號","121.484773333333","24.9916616666667","6500300","中和區"
"235041","802-TS","2018/06/14 19:59:24","新北市中和區安平路60號","121.510376666667","24.9958633333333","6500300","中和區"
"235052","805-TS","2018/06/14 19:59:27","新北市中和區華新街192巷24號","121.506358333333","24.983205","6500300","中和區"
"235048","896-TW","2018/06/14 19:59:24","新北市中和區景新街376號","121.512223333333","24.9901216666667","6500300","中和區"
"235066","911-UM","2018/06/14 19:59:24","新北市中和區光華街8號","121.504185","25.004305","6500300","中和區"
"235051","157-BY","2018/06/14 19:59:27","新北市中和區復興路301巷16號","121.501461666667","24.9895816666667","6500300","中和區"
"235037","AAC-213","2018/06/14 19:59:16","新北市中和區自立路99巷22弄3號","121.523385","24.9943733333333","6500300","中和區"
"235059","AAC-215","2018/06/14 19:59:19","新北市中和區圓通路355號","121.491453333333","24.990065","6500300","中和區"
"220068","013-TV","2018/06/14 19:59:18","新北市板橋區光復街172巷16號","121.485613333333","25.0188866666667","6500100","板橋區"
"220069","015-TV","2018/06/14 19:59:14","新北市板橋區大明街18號","121.458966666667","25.0026116666667","6500100","板橋區"
"220065","072-UY","2018/06/14 19:59:07","新北市板橋區民族路87號","121.466158333333","25.0085266666667","6500100","板橋區"
"220106","075-UY","2018/06/14 19:59:27","新北市板橋區民治街96巷27號","121.478393333333","25.032235","6500100","板橋區"
"220090","120-SR","2018/06/14 19:59:21","新北市板橋區龍泉街122號","121.457071666667","25.024175","6500100","板橋區"
"247024","893-R6","2018/06/14 19:59:13","新北市蘆洲區光榮路120巷12號","121.465488333333","25.0884166666667","6501400","蘆洲區"
"247014","546-UM","2018/06/14 19:59:20","新北市蘆洲區中山二路100號","121.47251","25.081925","6501400","蘆洲區"
"247012","339-TH","2018/06/14 19:59:16","新北市蘆洲區民族路163號","121.479355","25.0882766666667","6501400","蘆洲區"
"247004","337-TH","2018/06/14 19:59:27","新北市蘆洲區永康街77號","121.455751666667","25.0852083333333","6501400","蘆洲區"
"247006","336-TH","2018/06/14 19:59:25","新北市蘆洲區九芎街141號","121.465456666667","25.079415","6501400","蘆洲區"
"247008","056-VK","2018/06/14 19:59:29","新北市蘆洲區中山一路95巷18號","121.477226666667","25.0807633333333","6501400","蘆洲區"
"247016","007-UY","2018/06/14 19:59:28","新北市蘆洲區光華路13號","121.469788333333","25.0834266666667","6501400","蘆洲區"
"247002","002-UY","2018/06/14 19:59:18","新北市蘆洲區長安街274巷6弄1號","121.457835","25.086855","6501400","蘆洲區"
"247020","001-UY","2018/06/14 19:59:13","新北市蘆洲區民義街59號","121.472923333333","25.0898316666667","6501400","蘆洲區"
"226004","312-R5","2018/06/14 19:59:23","新北市平溪區石底里公園街18-3號","121.733241666667","25.0258416666667","6502400","平溪區"
"228003","097-TW","2018/06/14 19:59:16","新北市貢寮區仁理村仁和路160號","121.923216666667","25.0519783333333","6502600","貢寮區"
"224010","AGQ-8101","2018/06/14 19:59:30","新北市瑞芳區輕便路324號","121.841388333333","25.1073233333333","6501200","瑞芳區"
"224002","639-TC","2018/06/14 19:59:17","新北市瑞芳區三爪子坑路325號","121.818398333333","25.1045616666667","6501200","瑞芳區"
"227004","642-TC","2018/06/14 19:59:10","新北市雙溪區雙溪里長安街16號","121.86503","25.0346883333333","6502500","雙溪區"
"227010","400-TW","2018/06/14 19:59:16","新北市雙溪區新基里新基南街25號","121.866241666667","25.0381466666667","6502500","雙溪區"
"222001","KEA-2212","2018/06/14 19:59:25","新北市深坑區北深路三段165-1號","121.602183333333","25.0033616666667","6501800","深坑區"
"208002","KEA-2872","2018/06/14 19:59:23","新北市金山區中華路360號","121.632911666667","25.2238183333333","6502700","金山區"
"208003","665-BX","2018/06/14 19:59:26","新北市金山區海興路172-2號","121.632721666667","25.2399083333333","6502700","金山區"
"208001","761-BX","2018/06/14 19:59:26","新北市金山區南勢湖36-1號","121.615106666667","25.21808","6502700","金山區"
"251009","008-UM","2018/06/14 19:59:29","新北市淡水區英專路26號","121.445525","25.1699533333333","6501000","淡水區"
"251004","009-UM","2018/06/14 19:59:12","新北市淡水區民權路177巷7號","121.460831666667","25.1356366666667","6501000","淡水區"
"251005","010-UM","2018/06/14 19:59:13","新北市淡水區學府路136巷19號","121.451418333333","25.17282","6501000","淡水區"
"251013","KEA-2871","2018/06/14 19:59:31","新北市淡水區下圭柔山63-7號","121.451768333333","25.2062033333333","6501000","淡水區"
"251016","179-VK","2018/06/14 19:59:28","新北市淡水區淡金路四段518號","121.452018333333","25.2259366666667","6501000","淡水區"
"251014","180-VK","2018/06/14 19:59:26","新北市淡水區石頭厝3-2號","121.459175","25.2352483333333","6501000","淡水區"
"251015","182-VK","2018/06/14 19:59:21","新北市淡水區商工路151號","121.447813333333","25.1890633333333","6501000","淡水區"
"251010","413-VK","2018/06/14 19:59:25","新北市淡水區崁頂78-5號","121.42922","25.2074733333333","6501000","淡水區"
"251012","441-VK","2018/06/14 19:59:21","新北市淡水區下圭柔山100-1號","121.437583333333","25.21041","6501000","淡水區"
"251001","559-UM","2018/06/14 19:59:12","新北市淡水區淡金路二段138號","121.446941666667","25.18818","6501000","淡水區"
"251006","561-UM","2018/06/14 19:59:27","新北市淡水區水碓街34號","121.4442","25.1773266666667","6501000","淡水區"
"251011","650-BX","2018/06/14 19:59:22","新北市淡水區崁頂55-3號","121.442321666667","25.1966266666667","6501000","淡水區"
"251003","766-UM","2018/06/14 19:59:28","新北市淡水區中山北路二段189巷15弄29號","121.443315","25.1841866666667","6501000","淡水區"
"207003","550-UM","2018/06/14 19:59:24","新北市萬里區磺潭里公館崙5號","121.641888333333","25.214235","6502800","萬里區"
"207004","225-TW","2018/06/14 19:59:16","新北市萬里區北基里忠二街37號","121.6857","25.175795","6502800","萬里區"
"252002","178-VK","2018/06/14 19:59:15","新北市三芝區忠孝街116-3號","121.50547","25.25757","6502100","三芝區"
"252001","292-VK","2018/06/14 19:59:19","新北市三芝區公正街66號","121.499778333333","25.25745","6502100","三芝區"
"237007","153-BY","2018/06/14 19:59:23","新北市三峽區麻園35-3號","121.363813333333","24.9192866666667","6500900","三峽區"
"237009","210-TH","2018/06/14 19:59:16","新北市三峽區民族街78巷2弄2號","121.36873","24.92982","6500900","三峽區"
"237012","275-BY","2018/06/14 19:59:09","新北市三峽區中華路66號","121.371668333333","24.92968","6500900","三峽區"
"237008","302-VK","2018/06/14 19:59:15","新北市三峽區中正路一段292巷11號","121.370868333333","24.9258933333333","6500900","三峽區"
"237014","433-BY","2018/06/14 19:59:11","新北市三峽區嘉添67號","121.368645","24.91036","6500900","三峽區"
"237006","5529-G3","2018/06/14 19:59:09","新北市三峽區正義街29號","121.369751666667","24.9191983333333","6500900","三峽區"
"237016","649-BX","2018/06/14 19:59:25","新北市三峽區橫溪路99巷71-1號","121.400836666667","24.9376116666667","6500900","三峽區"
"237005","AKY-6261","2018/06/14 19:59:17","新北市三峽區民生街1巷17號","121.380441666667","24.9356583333333","6500900","三峽區"
"236070","105-UM","2018/06/14 19:59:20","新北市土城區忠義路77號","121.442998333333","24.9651116666667","6501300","土城區"
"236042","107-UM","2018/06/14 19:59:20","新北市土城區學府路一段125號","121.45507","24.9871583333333","6501300","土城區"
"236078","166-UM","2018/06/14 19:59:18","新北市土城區福安街106號","121.4173","24.9639383333333","6501300","土城區"
"236030","253-BX","2018/06/14 19:59:16","新北市土城區中央路一段250巷2號","121.444178333333","24.9847466666667","6501300","土城區"
"236026","269-VK","2018/06/14 19:59:24","新北市土城區員林街61巷2弄7號","121.444343333333","24.9777333333333","6501300","土城區"
"236014","270-VK","2018/06/14 19:59:16","新北市土城區廣福街123號","121.456236666667","24.9928283333333","6501300","土城區"
"236038","271-VK","2018/06/14 19:59:14","新北市土城區國際路62號","121.466586666667","24.9774816666667","6501300","土城區"
"236021","401-BY","2018/06/14 19:59:20","新北市土城區延吉街111巷12弄15-3號","121.471651666667","24.9849166666667","6501300","土城區"
"236059","912-UM","2018/06/14 19:59:20","新北市土城區中央路一段271號","121.444665","24.984895","6501300","土城區"
"236049","913-UM","2018/06/14 19:59:17","新北市土城區金城路三段313-3號","121.474663333333","24.9910716666667","6501300","土城區"
"236063","915-UM","2018/06/14 19:59:20","新北市土城區延和路62巷8弄2號","121.466145","24.9884883333333","6501300","土城區"
"236055","AAC-216","2018/06/14 19:59:09","新北市土城區立德路26號","121.463025","24.9876283333333","6501300","土城區"
"242034","AAC-296","2018/06/14 19:59:20","新北市新莊區仁愛街42號","121.444303333333","25.0366883333333","6500500","新莊區"
"242058","986-R7","2018/06/14 19:59:23","新北市新莊區八德街83號","121.424568333333","25.021745","6500500","新莊區"
"242053","751-BX","2018/06/14 19:59:26","新北市新莊區西盛街423號","121.427253333333","25.0121916666667","6500500","新莊區"
"242025","705-TV","2018/06/14 19:59:27","新北市新莊區五工二路86巷50號","121.46082","25.0675866666667","6500500","新莊區"
"242029","612-BX","2018/06/14 19:59:17","新北市新莊區中榮街152巷38號","121.445581666667","25.0538183333333","6500500","新莊區"
"242046","497-BY","2018/06/14 19:59:19","新北市新莊區民安路31號","121.423258333333","25.0275516666667","6500500","新莊區"
"242056","440-UM","2018/06/14 19:59:13","新北市新莊區中正路347巷17號","121.447511666667","25.0345383333333","6500500","新莊區"
"242036","415-TV","2018/06/14 19:59:27","新北市新莊區建安街39號","121.428966666667","25.0254583333333","6500500","新莊區"
"242044","400-BY","2018/06/14 19:59:22","新北市新莊區中正路891-13號","121.41309","25.0226","6500500","新莊區"
"242023","362-BY","2018/06/14 19:59:18","新北市新莊區化成路424號","121.465998333333","25.0510483333333","6500500","新莊區"
"242061","353-BY","2018/06/14 19:59:28","新北市新莊區瓊泰路27號","121.444126666667","25.02858","6500500","新莊區"
"242039","133-UY","2018/06/14 19:59:21","新北市新莊區民安路296號","121.42813","25.0217783333333","6500500","新莊區"
"242031","135-UY","2018/06/14 19:59:18","新北市新莊區公園一路42號","121.443286666667","25.0356483333333","6500500","新莊區"
"242048","172-VK","2018/06/14 19:59:26","新北市新莊區後港二路10號","121.42287","25.024115","6500500","新莊區"
"242011","173-VK","2018/06/14 19:58:26","新北市新莊區中港路531巷92號","121.450128333333","25.0518833333333","6500500","新莊區"
"242017","175-VK","2018/06/14 19:59:25","新北市新莊區中安街15號","121.45295","25.045965","6500500","新莊區"
"242004","176-VK","2018/06/14 19:59:16","新北市新莊區化成路316號","121.46571","25.0483433333333","6500500","新莊區"
"242015","346-TH","2018/06/14 19:59:22","新北市新莊區泰順街33巷2號","121.446183333333","25.0425566666667","6500500","新莊區"
"242021","348-TH","2018/06/14 19:59:11","新北市新莊區建中街48巷10弄12號","121.448581666667","25.0383916666667","6500500","新莊區"
"242019","350-TH","2018/06/14 19:57:30","新北市新莊區民生街15巷9號","121.455296666667","25.0426033333333","6500500","新莊區"
"242013","351-TH","2018/06/14 19:59:23","新北市新莊區幸福路672號","121.450963333333","25.0494216666667","6500500","新莊區"
"238015","755-BX","2018/06/14 19:59:09","新北市樹林區中山路三段166號","121.389078333333","24.9701733333333","6500700","樹林區"
"238021","KEA-2539","2018/06/14 19:59:21","新北市樹林區田尾街172號","121.401641666667","24.94998","6500700","樹林區"
"238017","283-BY","2018/06/14 19:59:25","新北市樹林區保安街二段45巷29-6號","121.41359","25.0002233333333","6500700","樹林區"
"239006","891-R6","2018/06/14 19:59:19","新北市鶯歌區文化路72-3號","121.355023333333","24.9537866666667","6500800","鶯歌區"
"221008","489-VK","2018/06/14 19:59:24","新北市汐止區忠一街1號","121.620581666667","25.0731483333333","6501100","汐止區"
"221036","130-UY","2018/06/14 19:59:30","新北市汐止區新台五路二段87號","121.664748333333","25.0670283333333","6501100","汐止區"
"221015","131-UY","2018/06/14 19:59:12","新北市汐止區大同路三段27號","121.666593333333","25.0763166666667","6501100","汐止區"
"221010","269-BY","2018/06/14 19:59:30","新北市汐止區連峰街225巷18號","121.644281666667","25.08106","6501100","汐止區"
"221012","278-VK","2018/06/14 19:59:14","新北市汐止區大同路三段292號","121.678253333333","25.0712783333333","6501100","汐止區"
"221023","279-VK","2018/06/14 19:59:15","新北市汐止區明峰街194號","121.628031666667","25.0695483333333","6501100","汐止區"
"221032","280-BY","2018/06/14 19:59:29","新北市汐止區橫科路18巷10號","121.617756666667","25.050555","6501100","汐止區"
"221027","281-BY","2018/06/14 19:59:12","新北市汐止區信義路21號","121.66154","25.0693666666667","6501100","汐止區"
"221038","297-VK","2018/06/14 19:59:10","新北市汐止區忠孝東路448號","121.666131666667","25.072645","6501100","汐止區"
"221029","298-VK","2018/06/14 19:59:24","新北市汐止區樟樹一路137巷26號","121.641016666667","25.065925","6501100","汐止區"
"221021","299-VK","2018/06/14 19:59:19","新北市汐止區青山路6號","121.655775","25.06259","6501100","汐止區"
"221031","353-TW","2018/06/14 19:59:10","新北市汐止區福德一路249號","121.633673333333","25.0646866666667","6501100","汐止區"
"221035","622-UM","2018/06/14 19:59:25","新北市汐止區長江街39巷5號","121.655506666667","25.0716883333333","6501100","汐止區"
"221025","623-UM","2018/06/14 19:59:25","新北市汐止區秀峰路118號","121.660006666667","25.0634383333333","6501100","汐止區"
"221033","647-BX","2018/06/14 19:59:19","新北市汐止區東勢街201巷104號","121.633461666667","25.04302","6501100","汐止區"
"220079","145-BY","2018/06/14 19:59:19","新北市板橋區南雅西路二段217號","121.451548333333","25.0137666666667","6500100","板橋區"
"220080","200-UY","2018/06/14 19:59:14","新北市板橋區大觀路二段169巷18號","121.446093333333","24.9998916666667","6500100","板橋區"
"242002","KEA-2550","2018/06/14 19:59:19","新北市新莊區新泰路105號","121.44896","25.0350383333333","6500500","新莊區"
"220082","610-BX","2018/06/14 19:59:09","新北市板橋區大觀路三段100號","121.432655","24.9945716666667","6500100","板橋區"
"220101","245-BX","2018/06/14 19:59:20","新北市板橋區莒光路167-8號","121.474585","25.0234616666667","6500100","板橋區"
"220055","256-TC","2018/06/14 19:59:29","新北市板橋區仁愛路62巷10號","121.459903333333","24.9987583333333","6500100","板橋區"
"220072","277-BY","2018/06/14 19:59:15","新北市板橋區金門街121巷5號","121.433505","24.991595","6500100","板橋區"
"220071","283-VK","2018/06/14 19:59:19","新北市板橋區和平路174巷1號","121.463465","24.995365","6500100","板橋區"
"220094","285-UM","2018/06/14 19:59:13","新北市板橋區陽明街239號","121.463011666667","25.0245416666667","6500100","板橋區"
"220053","285-VK","2018/06/14 19:59:29","新北市板橋區永豐街43號","121.47421","25.0173616666667","6500100","板橋區"
"220083","286-VK","2018/06/14 19:59:12","新北市板橋區僑中二街10巷3號","121.446748333333","25.01093","6500100","板橋區"
"220081","287-VK","2018/06/14 19:59:20","新北市板橋區僑中一街80巷1弄1號","121.447568333333","25.0118666666667","6500100","板橋區"
"220061","293-UM","2018/06/14 19:59:28","新北市板橋區觀光街57巷15弄1號","121.470266666667","25.0160966666667","6500100","板橋區"
"220084","296-UM","2018/06/14 19:59:27","新北市板橋區溪崑二街112巷4號","121.426236666667","24.9887216666667","6500100","板橋區"
"220075","303-R5","2018/06/14 19:59:23","新北市板橋區金華街10巷87-1號","121.458388333333","25.0204866666667","6500100","板橋區"
"220092","307-R5","2018/06/14 19:59:18","新北市板橋區四維路259巷89號","121.459898333333","25.02638","6500100","板橋區"
"220098","317-R6","2018/06/14 19:59:25","新北市板橋區新海路72巷64號","121.461738333333","25.02348","6500100","板橋區"
"220064","486-VK","2018/06/14 19:59:13","新北市板橋區區運路10號","121.465125","25.0091533333333","6500100","板橋區"
"220088","491-VK","2018/06/14 19:59:21","新北市板橋區大同街73號","121.479545","25.0280833333333","6500100","板橋區"
"220035","560-BX","2018/06/14 19:59:16","新北市板橋區新生街29巷15弄4號","121.45651","25.02213","6500100","板橋區"
"220103","561-BX","2018/06/14 19:59:26","新北市板橋區自由路18-3號","121.4655","25.02258","6500100","板橋區"
"220063","609-BX","2018/06/14 19:59:22","新北市板橋區三民路一段214號","121.47917","25.019185","6500100","板橋區"
"220091","637-BX","2018/06/14 19:59:23","新北市板橋區民治街119巷3號","121.478408333333","25.0307516666667","6500100","板橋區"
"220057","686-BX","2018/06/14 19:59:16","新北市板橋區四川路二段2號","121.45663","24.996505","6500100","板橋區"
"220093","689-BX","2018/06/14 19:59:28","新北市板橋區長江路三段118號","121.475163333333","25.0343666666667","6500100","板橋區"
"220054","741-BX","2018/06/14 19:59:19","新北市板橋區忠孝路201巷89號","121.464683333333","25.0046516666667","6500100","板橋區"
"220102","KEA-2699","2018/06/14 19:59:27","新北市板橋區仁化街42巷7號","121.475528333333","25.031425","6500100","板橋區"
"220067","830-TW","2018/06/14 19:59:15","新北市板橋區長安街331巷93弄7號","121.472391666667","25.01268","6500100","板橋區"
"220096","831-TW","2018/06/14 19:59:16","新北市板橋區莒光路15巷14號","121.470261666667","25.0254783333333","6500100","板橋區"
"220089","833-TW","2018/06/14 19:59:21","新北市板橋區龍泉街57號","121.457056666667","25.02592","6500100","板橋區"
"220074","895-R6","2018/06/14 19:59:13","新北市板橋區文化路一段52巷25號","121.46119","25.0113433333333","6500100","板橋區"
"220073","985-R7","2018/06/14 19:59:18","新北市板橋區南雅西路二段126號","121.452048333333","25.012585","6500100","板橋區"
"220097","AAC-210","2018/06/14 19:59:23","新北市板橋區光正街45巷6弄7號","121.46138","25.0169933333333","6500100","板橋區"
"220070","AAC-253","2018/06/14 19:59:15","新北市板橋區四川路一段475號","121.45712","24.9974266666667","6500100","板橋區"
"235068","KEA-2873","2018/06/14 19:59:10","新北市中和區中山路二段250巷15號","121.497235","25.0032816666667","6500300","中和區"
"235061","KEA-2875","2018/06/14 19:59:09","新北市中和區員山路174巷5號","121.481853333333","24.9999166666667","6500300","中和區"
