"lineid","car","time","location","longitude","latitude","cityid","cityname"
"234046","148-BY","2018/06/14 20:09:10","新北市永和區得和路328號","121.523306666667","24.9995833333333","6500400","永和區"
"234007","207-UY","2018/06/14 20:09:12","新北市永和區保順路11號","121.504401666667","25.009785","6500400","永和區"
"234081","298-R6","2018/06/14 20:09:12","新北市永和區國中路25號","121.524458333333","25.0052866666667","6500400","永和區"
"234038","336-UY","2018/06/14 20:09:11","新北市永和區成功路一段47巷8號","121.527531666667","25.004045","6500400","永和區"
"234064","337-UY","2018/06/14 20:09:27","新北市永和區永元路94號","121.522495","25.00173","6500400","永和區"
"234086","338-UY","2018/06/14 20:06:35","新北市永和區福和路188號","121.520251666667","25.00778","6500400","永和區"
"234070","552-UM","2018/06/14 20:09:25","新北市永和區福和路183巷1號","121.519995","25.00741","6500400","永和區"
"234017","745-BX","2018/06/14 20:09:14","新北市永和區文化路92號","121.513791666667","25.015235","6500400","永和區"
"234030","746-BX","2018/06/14 20:09:18","新北市永和區民權路49巷5弄30號","121.521958333333","24.9978733333333","6500400","永和區"
"234054","KEA-2590","2018/06/14 20:09:19","新北市永和區博愛街20巷2號","121.517746666667","25.0158133333333","6500400","永和區"
"234013","KEA-2591","2018/06/14 20:09:18","新北市永和區永貞路405號","121.507665","25.0091","6500400","永和區"
"234061","AAD-866","2018/06/14 20:09:14","新北市永和區中正路283巷84號","121.515473333333","24.9988466666667","6500400","永和區"
"234042","862-TW","2018/06/14 20:09:19","新北市永和區雙和街64巷22弄5-1號","121.509765","25.0029416666667","6500400","永和區"
"234050","863-TW","2018/06/14 20:09:13","新北市永和區新生路253號","121.505781666667","25.013285","6500400","永和區"
"234026","9371-KE","2018/06/14 20:09:14","新北市永和區保生路55-1號","121.50475","25.0109116666667","6500400","永和區"
"234011","9373-KE","2018/06/14 20:09:04","新北市永和區環河西路二段245-1號","121.500448333333","25.009165","6500400","永和區"
"249005","172-UM","2018/06/14 20:09:13","新北市八里區下罟子47號","121.384345","25.1366416666667","6502300","八里區"
"249001","173-UM","2018/06/14 20:09:13","新北市八里區中華路二段312號","121.403783333333","25.1483716666667","6502300","八里區"
"249004","303-UY","2018/06/14 20:09:21","新北市八里區中山路一段418-7號","121.410755","25.15835","6502300","八里區"
"249002","305-UY","2018/06/14 20:09:27","新北市五股區成泰路四段45-1號","121.456785","25.1120783333333","6502300","八里區"
"249003","593-UM","2018/06/14 20:09:09","新北市八里區中山路二段540巷9弄2號","121.396943333333","25.1471783333333","6502300","八里區"
"248014","025-BX","2018/06/14 20:09:27","新北市五股區五福路6巷25號","121.435616666667","25.0884416666667","6501500","五股區"
"248016","026-BX","2018/06/14 20:09:14","新北市五股區天乙路54號","121.44828","25.1042716666667","6501500","五股區"
"248008","095-VK","2018/06/14 20:09:22","新北市五股區中興路一段1巷12弄24-1號","121.469318333333","25.0706466666667","6501500","五股區"
"248018","225-UY","2018/06/14 20:09:24","新北市五股區凌雲路二段10號","121.445648333333","25.1024633333333","6501500","五股區"
"248012","247-BX","2018/06/14 20:09:19","新北市五股區六合街107號","121.429765","25.0906","6501500","五股區"
"248010","272-BY","2018/06/14 20:09:28","新北市五股區成泰路一段7巷38-3號","121.432505","25.0674833333333","6501500","五股區"
"248004","677-BX","2018/06/14 20:09:28","新北市五股區成泰路一段173-1號","121.43516","25.0748066666667","6501500","五股區"
"248002","678-BX","2018/06/14 20:09:21","新北市五股區成泰路三段311-2號","121.447778333333","25.0949133333333","6501500","五股區"
"234023","9380-KE","2018/06/14 20:09:20","新北市永和區中正路662巷12號","121.5177","25.0088016666667","6500400","永和區"
"234077","969-R7","2018/06/14 20:09:15","新北市永和區民光街18號","121.515791666667","24.99584","6500400","永和區"
"234074","AAC-211","2018/06/14 20:09:30","新北市永和區豫溪街161-1號","121.52151","25.0105083333333","6500400","永和區"
"234067","AAC-212","2018/06/14 20:09:18","新北市永和區保平路214巷1弄2號","121.509518333333","25.0061316666667","6500400","永和區"
"234003","AAC-295","2018/06/14 20:09:30","新北市永和區中正路607號","121.516288333333","25.0096","6500400","永和區"
"243013","AAD-798","2018/06/14 20:09:24","新北市泰山區明志路三段74巷17號","121.424161666667","25.041695","6501600","泰山區"
"243009","297-R6","2018/06/14 20:09:11","新北市泰山區泰林路二段138號","121.434305","25.0597883333333","6501600","泰山區"
"243016","380-SR","2018/06/14 20:09:24","新北市泰山區新北大道六段347號","121.422971666667","25.03349","6501600","泰山區"
"243015","421-VK","2018/06/14 20:09:22","新北市泰山區明志路一段354號","121.430785","25.0581783333333","6501600","泰山區"
"243011","KEA-2215","2018/06/14 20:09:21","新北市泰山區明志路三段438號","121.420936666667","25.0328766666667","6501600","泰山區"
"243010","KEA-2216","2018/06/14 20:09:18","新北市泰山區明志路二段136巷16號","121.42672","25.0514883333333","6501600","泰山區"
"243012","646-TV","2018/06/14 20:09:29","新北市泰山區楓江路81號","121.436833333333","25.0634466666667","6501600","泰山區"
"243014","680-BX","2018/06/14 20:09:16","新北市泰山區明志路一段54號","121.433563333333","25.0649116666667","6501600","泰山區"
"222003","436-BY","2018/06/14 20:09:18","新北市深坑區埔新街56號","121.620366666667","25.0025333333333","6501800","深坑區"
"222002","659-BX","2018/06/14 20:09:17","新北市深坑區北深路三段20號","121.609431666667","25.001135","6501800","深坑區"
"231041","002-UM","2018/06/14 20:09:16","新北市新店區中正路460號","121.53403","24.9793683333333","6500600","新店區"
"231059","046-UY","2018/06/14 20:09:18","新北市新店區安成街19號","121.51018","24.960845","6500600","新店區"
"231040","047-UY","2018/06/14 20:09:30","新北市新店區中正路82號","121.543675","24.9702683333333","6500600","新店區"
"231044","106-UY","2018/06/14 20:09:11","新北市新店區寶慶街66號","121.54196","24.9868216666667","6500600","新店區"
"231052","108-UY","2018/06/14 20:09:24","新北市新店區新烏路三段191號","121.550405","24.900925","6500600","新店區"
"231047","110-UY","2018/06/14 20:09:25","新北市新店區寶橋路59-1號","121.545193333333","24.974955","6500600","新店區"
"231054","KEA-2219","2018/06/14 20:09:24","新北市新店區檳榔路40號","121.541576666667","24.9637033333333","6500600","新店區"
"231057","256-BX","2018/06/14 20:09:28","新北市新店區花園一路一段2號","121.553181666667","24.932425","6500600","新店區"
"231042","268-BY","2018/06/14 20:09:17","新北市新店區中興路二段89號","121.547031666667","24.9713483333333","6500600","新店區"
"231051","278-BY","2018/06/14 20:09:17","新北市新店區中央五街3-2號","121.530353333333","24.9742766666667","6500600","新店區"
"231050","AAD-862","2018/06/14 20:09:24","新北市新店區北宜路一段2號","121.538","24.9586766666667","6500600","新店區"
"231066","4716-K9","2018/06/14 20:08:41","新北市新店區柴埕路60巷9-2號","121.50836","24.965155","6500600","新店區"
"231056","4715-K9","2018/06/14 20:09:28","新北市新店區中正路275巷19號","121.537153333333","24.9734433333333","6500600","新店區"
"231065","512-UM","2018/06/14 20:09:20","新北市新店區安祥路106巷337號","121.472686666667","24.9590833333333","6500600","新店區"
"231049","513-UM","2018/06/14 20:09:30","新北市新店區北新路二段139巷12弄2號","121.542153333333","24.9758883333333","6500600","新店區"
"231061","619-UM","2018/06/14 20:09:18","新北市新店區安民街381號","121.516178333333","24.9763566666667","6500600","新店區"
"231063","641-BX","2018/06/14 20:09:28","新北市新店區黎明路54巷1號","121.50233","24.9481783333333","6500600","新店區"
"231068","718-UY","2018/06/14 20:09:14","新北市新店區中興路三段202號","121.54387","24.9819666666667","6500600","新店區"
"231064","719-UM","2018/06/14 20:09:14","新北市新店區安康路二段100巷5號","121.513248333333","24.9638116666667","6500600","新店區"
"231062","720-UM","2018/06/14 20:09:27","新北市新店區安康路一段196號","121.524478333333","24.963385","6500600","新店區"
"231045","898-TW","2018/06/14 20:09:27","新北市新店區北宜路一段121-1號","121.540388333333","24.9538216666667","6500600","新店區"
"231043","899-TW","2018/06/14 20:09:27","新北市新店區民族路184號","121.536883333333","24.9761616666667","6500600","新店區"
"241011","013-R5","2018/06/14 20:09:08","新北市三重區三和路三段39號","121.495806666667","25.0712866666667","6500200","三重區"
"241028","022-UY","2018/06/14 20:09:28","新北市三重區同安街94號","121.494975","25.05648","6500200","三重區"
"241008","059-VK","2018/06/14 20:09:24","新北市三重區永福街197巷37弄5號","121.478136666667","25.0741833333333","6500200","三重區"
"241009","060-VK","2018/06/14 20:09:14","新北市三重區永福街125巷15-1號","121.47799","25.077575","6500200","三重區"
"241031","061-VK","2018/06/14 20:09:26","新北市三重區過圳街9-1號","121.488745","25.0601733333333","6500200","三重區"
"241015","062-VK","2018/06/14 20:09:21","新北市三重區福德北路26-3號","121.502205","25.0649283333333","6500200","三重區"
"241017","063-VK","2018/06/14 20:09:10","新北市三重區自強路一段177號","121.492896666667","25.06748","6500200","三重區"
"241024","065-VK","2018/06/14 20:09:20","新北市三重區中正北路284號","121.480486666667","25.068525","6500200","三重區"
"241002","090-VK","2018/06/14 20:09:25","新北市三重區仁忠街31號","121.495905","25.0820016666667","6500200","三重區"
"241005","742-BX","2018/06/14 20:09:21","新北市三重區五華街180巷21號","121.488283333333","25.0856716666667","6500200","三重區"
"241003","265-UM","2018/06/14 20:09:20","新北市三重區富華街14號","121.489548333333","25.0824166666667","6500200","三重區"
"241016","266-UM","2018/06/14 20:09:08","新北市三重區大同北路97-3號","121.494338333333","25.06364","6500200","三重區"
"241022","267-UM","2018/06/14 20:09:27","新北市三重區新北大道一段56號","121.487515","25.0615283333333","6500200","三重區"
"241018","268-UM","2018/06/14 20:09:17","新北市三重區正義北路256巷144號","121.493135","25.0676466666667","6500200","三重區"
"241032","269-UM","2018/06/14 20:09:21","新北市三重區捷運路65號","121.483401666667","25.0556133333333","6500200","三重區"
"241013","270-UM","2018/06/14 20:09:16","新北市三重區三和路三段151巷41號","121.493853333333","25.0743083333333","6500200","三重區"
"241025","271-UM","2018/06/14 20:09:12","新北市三重區中正北路430-1號","121.474523333333","25.070995","6500200","三重區"
"241007","398-BY","2018/06/14 20:09:25","新北市三重區三和路四段111-9號","121.486531666667","25.0775983333333","6500200","三重區"
"241035","KEA-2210","2018/06/14 20:09:12","新北市三重區平安街43號","121.49802","25.0641833333333","6500200","三重區"
"241004","475-VK","2018/06/14 20:09:20","新北市三重區自強路四段87號","121.491015","25.0793","6500200","三重區"
"241020","478-VK","2018/06/14 20:09:26","新北市三重區後竹圍街2巷2號","121.491845","25.0734666666667","6500200","三重區"
"241030","480-VK","2018/06/14 20:09:24","新北市三重區重新路四段244巷7弄20號","121.486976666667","25.052765","6500200","三重區"
"241014","543-UM","2018/06/14 20:09:27","新北市三重區安和路41號","121.500921666667","25.0694316666667","6500200","三重區"
"241023","545-UM","2018/06/14 20:09:29","新北市三重區頂崁街232號","121.476936666667","25.06856","6500200","三重區"
"241001","547-UM","2018/06/14 20:09:29","新北市三重區溪尾街24-1號","121.491131666667","25.0761433333333","6500200","三重區"
"241019","KEA-2593","2018/06/14 20:09:16","新北市三重區自強路二段33巷53號","121.49088","25.0698366666667","6500200","三重區"
"241006","AAD-863","2018/06/14 20:09:18","新北市三重區永福街281-2號","121.48275","25.0743633333333","6500200","三重區"
"241026","887-TS","2018/06/14 20:09:11","新北市三重區福德南路65巷2號","121.502336666667","25.060415","6500200","三重區"
"241012","941-UM","2018/06/14 20:09:26","新北市三重區仁興街56巷53號","121.497841666667","25.075545","6500200","三重區"
"241029","942-UM","2018/06/14 20:09:12","新北市三重區光明路32巷26號","121.491956666667","25.058695","6500200","三重區"
"241033","AAC-255","2018/06/14 20:09:14","新北市三重區光復路一段68巷13號","121.47099","25.0493166666667","6500200","三重區"
"235039","097-UM","2018/06/14 20:09:24","新北市中和區大勇街25巷13弄1號","121.516205","24.9935383333333","6500300","中和區"
"235065","098-UM","2018/06/14 20:09:18","新北市中和區永和路39巷4號","121.497876666667","25.0050566666667","6500300","中和區"
"235040","150-BY","2018/06/14 20:09:31","新北市中和區保健路33巷9號","121.509161666667","24.997945","6500300","中和區"
"235050","4979-A6","2018/06/14 20:09:19","新北市中和區安樂路58號","121.512061666667","24.9932633333333","6500300","中和區"
"235069","4980-A6","2018/06/14 20:09:20","新北市中和區景新街64巷7弄16號","121.504643333333","24.9983766666667","6500300","中和區"
"235070","558-UM","2018/06/14 20:09:17","新北市中和區中正路440號","121.491095","24.9943116666667","6500300","中和區"
"235046","733-UM","2018/06/14 20:09:27","新北市中和區忠孝街29號","121.510488333333","24.9830566666667","6500300","中和區"
"235026","800-TS","2018/06/14 20:09:13","新北市中和區員山路36巷16-3號","121.484773333333","24.9916616666667","6500300","中和區"
"235048","896-TW","2018/06/14 20:09:24","新北市中和區景新街497號","121.513868333333","24.9870783333333","6500300","中和區"
"235066","911-UM","2018/06/14 20:09:28","新北市中和區水源路127巷2弄2號","121.508141666667","25.0040083333333","6500300","中和區"
"235051","157-BY","2018/06/14 20:09:27","新北市中和區景安路220巷1弄1號","121.503348333333","24.990755","6500300","中和區"
"235059","AAC-215","2018/06/14 20:09:17","新北市中和區圓通路335巷37弄6號","121.493841666667","24.9890916666667","6500300","中和區"
"220068","013-TV","2018/06/14 20:09:18","新北市板橋區中山路二段318巷2弄14號","121.480646666667","25.0192283333333","6500100","板橋區"
"220069","015-TV","2018/06/14 20:09:14","新北市板橋區大明街25巷4弄12號","121.457575","25.0021816666667","6500100","板橋區"
"220065","072-UY","2018/06/14 20:09:27","新北市板橋區南雅南路二段11-17號","121.454875","25.0017616666667","6500100","板橋區"
"220090","120-SR","2018/06/14 20:09:21","新北市板橋區幸福路32巷54號","121.460386666667","25.0221366666667","6500100","板橋區"
"247024","893-R6","2018/06/14 20:09:13","新北市蘆洲區光明路102號","121.463311666667","25.0880216666667","6501400","蘆洲區"
"247014","546-UM","2018/06/14 20:09:20","新北市蘆洲區中山二路263號","121.469816666667","25.0796183333333","6501400","蘆洲區"
"247022","500-BY","2018/06/14 20:09:09","新北市蘆洲區三民路193號","121.470448333333","25.0878116666667","6501400","蘆洲區"
"247012","339-TH","2018/06/14 20:09:16","新北市蘆洲區民族路266號","121.478788333333","25.0890233333333","6501400","蘆洲區"
"247004","337-TH","2018/06/14 20:09:27","新北市蘆洲區永安南路二段328巷15弄1號","121.45673","25.0837166666667","6501400","蘆洲區"
"247006","336-TH","2018/06/14 20:09:25","新北市蘆洲區九芎街2-3號","121.468765","25.0786566666667","6501400","蘆洲區"
"247018","057-VK","2018/06/14 20:09:26","新北市蘆洲區民族路298巷23號","121.47825","25.0903533333333","6501400","蘆洲區"
"247016","007-UY","2018/06/14 20:09:28","新北市蘆洲區光華路174號","121.465116666667","25.0820983333333","6501400","蘆洲區"
"247002","002-UY","2018/06/14 20:09:18","新北市蘆洲區永康街2巷10號","121.459371666667","25.0863016666667","6501400","蘆洲區"
"247020","001-UY","2018/06/14 20:09:13","新北市蘆洲區民權路106巷5弄2-1號","121.474355","25.0891383333333","6501400","蘆洲區"
"224010","AGQ-8101","2018/06/14 20:09:22","新北市瑞芳區輕便路81號","121.845131666667","25.1092766666667","6501200","瑞芳區"
"222001","KEA-2212","2018/06/14 20:09:25","新北市深坑區北深路三段189巷2號","121.60112","25.003555","6501800","深坑區"
"208002","KEA-2872","2018/06/14 20:09:23","新北市金山區環金路19號","121.6408","25.21761","6502700","金山區"
"208003","665-BX","2018/06/14 20:09:23","新北市金山區香園9號","121.634486666667","25.249575","6502700","金山區"
"251009","008-UM","2018/06/14 20:09:29","新北市淡水區英專路26號","121.445591666667","25.1700466666667","6501000","淡水區"
"251004","009-UM","2018/06/14 20:03:52","新北市淡水區民族路50巷14號","121.460938333333","25.135935","6501000","淡水區"
"251005","010-UM","2018/06/14 20:09:13","新北市淡水區學府路102巷30號","121.451978333333","25.1716433333333","6501000","淡水區"
"251013","KEA-2871","2018/06/14 20:09:11","新北市淡水區奎柔山路309號","121.460975","25.2046683333333","6501000","淡水區"
"251016","179-VK","2018/06/14 20:09:28","新北市淡水區番子田18號","121.45732","25.229205","6501000","淡水區"
"251014","180-VK","2018/06/14 20:09:26","新北市淡水區石頭厝1號","121.458718333333","25.2355233333333","6501000","淡水區"
"251015","182-VK","2018/06/14 20:09:21","新北市淡水區淡金路二段507號","121.44712","25.189555","6501000","淡水區"
"251010","413-VK","2018/06/14 20:09:25","新北市淡水區新市二路二段2號","121.425043333333","25.196425","6501000","淡水區"
"251012","441-VK","2018/06/14 20:09:21","新北市淡水區淡金路三段254號","121.449033333333","25.2062766666667","6501000","淡水區"
"251001","559-UM","2018/06/14 20:09:12","新北市淡水區新市二路四段265號","121.445723333333","25.19247","6501000","淡水區"
"251006","561-UM","2018/06/14 20:09:25","新北市淡水區北新路141巷60弄11號","121.448143333333","25.1796716666667","6501000","淡水區"
"251002","672-BX","2018/06/14 20:09:11","新北市淡水區中正路272號","121.4382","25.1715383333333","6501000","淡水區"
"251003","766-UM","2018/06/14 20:09:28","新北市淡水區中山北路二段189巷15弄31號","121.443365","25.183885","6501000","淡水區"
"207003","550-UM","2018/06/14 20:09:24","新北市萬里區大鵬里萬里加投186號","121.642806666667","25.2156466666667","6502800","萬里區"
"207004","225-TW","2018/06/14 20:09:16","新北市萬里區北基里愛一街2號","121.682825","25.1768516666667","6502800","萬里區"
"252002","178-VK","2018/06/14 20:09:15","新北市三芝區中正路一段68號","121.503833333333","25.2576616666667","6502100","三芝區"
"252001","292-VK","2018/06/14 20:09:19","新北市三芝區公正街66號","121.49977","25.2574616666667","6502100","三芝區"
"237012","275-BY","2018/06/14 20:09:09","新北市三峽區中正路一段216巷6號","121.37161","24.9279966666667","6500900","三峽區"
"237008","302-VK","2018/06/14 20:09:23","新北市三峽區中華路61號","121.37238","24.93038","6500900","三峽區"
"237014","433-BY","2018/06/14 20:09:11","新北市三峽區添福111-2號","121.374031666667","24.9014333333333","6500900","三峽區"
"237006","5529-G3","2018/06/14 20:09:09","新北市三峽區大利路6號","121.366428333333","24.9116","6500900","三峽區"
"237016","649-BX","2018/06/14 20:09:25","新北市三峽區介壽路二段138巷1弄62號","121.396888333333","24.933345","6500900","三峽區"
"237005","AKY-6261","2018/06/14 20:09:17","新北市三峽區三樹路98巷74弄3號","121.384316666667","24.9388416666667","6500900","三峽區"
"236070","105-UM","2018/06/14 20:09:20","新北市土城區中央路三段147巷2弄16號","121.431921666667","24.9649233333333","6501300","土城區"
"236042","107-UM","2018/06/14 20:09:20","新北市土城區學成路24號","121.453068333333","24.98706","6501300","土城區"
"236078","166-UM","2018/06/14 20:09:13","新北市土城區民族街4號","121.419126666667","24.9628166666667","6501300","土城區"
"236030","253-BX","2018/06/14 20:09:16","新北市土城區中央路一段116號","121.446505","24.9880516666667","6501300","土城區"
"236026","269-VK","2018/06/14 20:09:24","新北市土城區明德路二段102巷14號","121.445598333333","24.9846066666667","6501300","土城區"
"236014","270-VK","2018/06/14 20:09:16","新北市土城區廣明街4號","121.456098333333","24.9917983333333","6501300","土城區"
"236038","271-VK","2018/06/14 20:09:14","新北市土城區延吉街353巷6號","121.464588333333","24.9836466666667","6501300","土城區"
"236021","401-BY","2018/06/14 20:09:20","新北市土城區延吉街55號","121.472353333333","24.9874566666667","6501300","土城區"
"236059","912-UM","2018/06/14 20:09:25","新北市土城區光明街1號","121.442096666667","24.9749083333333","6501300","土城區"
"236049","913-UM","2018/06/14 20:09:17","新北市土城區清水路146號","121.45918","24.9814883333333","6501300","土城區"
"236063","915-UM","2018/06/14 20:09:18","新北市土城區延和路19號","121.464418333333","24.98829","6501300","土城區"
"236055","AAC-216","2018/06/14 20:09:29","新北市土城區中華路一段178號","121.441168333333","24.9825166666667","6501300","土城區"
"242034","AAC-296","2018/06/14 20:09:20","新北市新莊區建中街90巷1弄21號","121.445875","25.0367716666667","6500500","新莊區"
"242058","986-R7","2018/06/14 20:09:24","新北市新莊區八德街167號","121.42332","25.0191316666667","6500500","新莊區"
"242053","751-BX","2018/06/14 20:09:26","新北市新莊區西盛街395巷22弄2號","121.42827","25.0127183333333","6500500","新莊區"
"242025","705-TV","2018/06/14 20:09:27","新北市新莊區五權一路12巷25弄11號","121.458286666667","25.0644583333333","6500500","新莊區"
"242027","615-BX","2018/06/14 20:09:23","新北市新莊區中平路256號","121.444955","25.0495766666667","6500500","新莊區"
"242029","612-BX","2018/06/14 20:09:17","新北市新莊區中原路512號","121.44671","25.0545633333333","6500500","新莊區"
"242042","566-BX","2018/06/14 20:09:25","新北市新莊區青山路一段200-4號","121.39774","25.0317833333333","6500500","新莊區"
"242046","497-BY","2018/06/14 20:09:19","新北市新莊區裕民街85巷14號","121.4191","25.0234166666667","6500500","新莊區"
"242051","441-UM","2018/06/14 20:09:27","新北市新莊區民安西路172巷4弄1號","121.42545","25.0160583333333","6500500","新莊區"
"242056","440-UM","2018/06/14 20:09:13","新北市新莊區新莊路649巷15弄1號","121.444913333333","25.031545","6500500","新莊區"
"242036","415-TV","2018/06/14 20:09:22","新北市新莊區建安街17巷13號","121.429706666667","25.0265766666667","6500500","新莊區"
"242007","413-TV","2018/06/14 20:09:28","新北市新莊區福壽街202巷24號","121.459255","25.0536166666667","6500500","新莊區"
"242044","400-BY","2018/06/14 20:09:22","新北市新莊區中正路895-46號","121.412218333333","25.02138","6500500","新莊區"
"242023","362-BY","2018/06/14 20:09:25","新北市新莊區化成路303號","121.465995","25.0553183333333","6500500","新莊區"
"242061","353-BY","2018/06/14 20:09:23","新北市新莊區瓊林路瓊英巷9號","121.443353333333","25.0275583333333","6500500","新莊區"
"242039","133-UY","2018/06/14 20:09:21","新北市新莊區龍安路505號","121.42621","25.0180033333333","6500500","新莊區"
"242031","135-UY","2018/06/14 20:09:18","新北市新莊區公園一路40號","121.443428333333","25.0355683333333","6500500","新莊區"
"242048","172-VK","2018/06/14 20:09:25","新北市新莊區四維路182巷4號","121.42201","25.0218183333333","6500500","新莊區"
"242011","173-VK","2018/06/14 20:06:26","新北市新莊區中和街216號","121.448141666667","25.050995","6500500","新莊區"
"242017","175-VK","2018/06/14 20:09:25","新北市新莊區中港一街26號","121.451265","25.0456983333333","6500500","新莊區"
"242004","176-VK","2018/06/14 20:09:22","新北市新莊區頭興街52號","121.463753333333","25.0535983333333","6500500","新莊區"
"242015","346-TH","2018/06/14 20:09:22","新北市新莊區中平路3號","121.44467","25.0432433333333","6500500","新莊區"
"242021","348-TH","2018/06/14 20:09:32","新北市新莊區中興街37號","121.449171666667","25.0367883333333","6500500","新莊區"
"242019","350-TH","2018/06/14 20:09:10","新北市新莊區民樂街67號","121.45792","25.0418616666667","6500500","新莊區"
"242013","351-TH","2018/06/14 20:09:23","新北市新莊區幸福路678巷3弄2號","121.45046","25.04964","6500500","新莊區"
"238021","KEA-2539","2018/06/14 20:09:21","新北市樹林區佳園路二段34號","121.391496666667","24.962275","6500700","樹林區"
"221008","489-VK","2018/06/14 20:09:24","台北市內湖區康樂街133號","121.619675","25.0739816666667","6501100","汐止區"
"221036","130-UY","2018/06/14 20:09:30","新北市汐止區新台五路二段39號","121.663126666667","25.0664816666667","6501100","汐止區"
"221015","131-UY","2018/06/14 20:09:12","新北市汐止區建成路29號","121.664028333333","25.0727216666667","6501100","汐止區"
"221010","269-BY","2018/06/14 20:09:30","新北市汐止區連峰街225巷36號","121.642971666667","25.0815033333333","6501100","汐止區"
"221012","278-VK","2018/06/14 20:09:29","新北市汐止區汐平路一段178號","121.690435","25.0664333333333","6501100","汐止區"
"221023","279-VK","2018/06/14 20:09:15","新北市汐止區明峰街298巷10弄1號","121.624968333333","25.0689066666667","6501100","汐止區"
"221032","280-BY","2018/06/14 20:09:29","新北市汐止區弘道街10號","121.617005","25.0486633333333","6501100","汐止區"
"221027","281-BY","2018/06/14 20:09:12","新北市汐止區民生街4巷2號","121.660201666667","25.06876","6501100","汐止區"
"221038","297-VK","2018/06/14 20:09:30","新北市汐止區大同路三段66號","121.668036666667","25.0771233333333","6501100","汐止區"
"221029","298-VK","2018/06/14 20:09:24","新北市汐止區樟樹一路123巷19號","121.641318333333","25.0645066666667","6501100","汐止區"
"221021","299-VK","2018/06/14 20:09:19","新北市汐止區連興街146號","121.654065","25.0614383333333","6501100","汐止區"
"221031","353-TW","2018/06/14 20:09:15","新北市汐止區原興路75號","121.6319","25.0663083333333","6501100","汐止區"
"221035","622-UM","2018/06/14 20:09:25","新北市汐止區長江街67巷2弄4號","121.656833333333","25.0721766666667","6501100","汐止區"
"221025","623-UM","2018/06/14 20:09:25","新北市汐止區水源路一段242號","121.654161666667","25.0602583333333","6501100","汐止區"
"221033","647-BX","2018/06/14 20:09:19","新北市汐止區東勢街201巷129弄2號","121.633493333333","25.042845","6501100","汐止區"
"221002","707-TV","2018/06/14 20:09:18","新北市汐止區中興路62號","121.63525","25.061205","6501100","汐止區"
"221018","753-BX","2018/06/14 20:09:19","新北市汐止區茄福街35巷29號","121.673378333333","25.06645","6501100","汐止區"
"220080","200-UY","2018/06/14 20:09:14","新北市板橋區大觀路二段153巷44弄53號","121.446011666667","24.998945","6500100","板橋區"
"242002","KEA-2550","2018/06/14 20:09:19","新北市新莊區中正路145號","121.459466666667","25.038265","6500500","新莊區"
"220101","245-BX","2018/06/14 20:09:20","新北市板橋區雙十路二段47巷2弄14號","121.475753333333","25.02657","6500100","板橋區"
"220055","256-TC","2018/06/14 20:09:28","新北市板橋區仁愛路84號","121.460965","24.999635","6500100","板橋區"
"220072","277-BY","2018/06/14 20:09:15","新北市板橋區金門街354號","121.427716666667","24.984195","6500100","板橋區"
"220071","283-VK","2018/06/14 20:09:19","新北市板橋區廣權路109號","121.464845","24.992795","6500100","板橋區"
"220053","285-VK","2018/06/14 20:09:13","新北市板橋區懷仁街85巷2弄6號","121.477718333333","25.018105","6500100","板橋區"
"220083","286-VK","2018/06/14 20:09:15","新北市板橋區僑中二街88巷22號","121.445233333333","25.00965","6500100","板橋區"
"220081","287-VK","2018/06/14 20:09:15","新北市板橋區僑中一街124巷18弄9號","121.446486666667","25.013705","6500100","板橋區"
"220061","293-UM","2018/06/14 20:09:28","新北市板橋區中山路一段176號","121.467521666667","25.0126783333333","6500100","板橋區"
"242009","281-VK","2018/06/14 20:09:15","新北市新莊區昌盛街35巷3弄1號","121.454088333333","25.05053","6500500","新莊區"
"220092","307-R5","2018/06/14 20:09:18","新北市板橋區文化路一段45巷6號","121.460196666667","25.0134883333333","6500100","板橋區"
"220098","317-R6","2018/06/14 20:09:25","新北市板橋區新海路72巷5弄17號","121.461725","25.022635","6500100","板橋區"
"220064","486-VK","2018/06/14 20:09:26","新北市板橋區長安街331巷34號","121.47383","25.0128216666667","6500100","板橋區"
"220088","491-VK","2018/06/14 20:09:28","新北市板橋區民治街53號","121.479365","25.0335533333333","6500100","板橋區"
"220103","561-BX","2018/06/14 20:09:26","新北市板橋區陽明街57號","121.464566666667","25.0225683333333","6500100","板橋區"
"220093","689-BX","2018/06/14 20:09:31","新北市板橋區長江路一段134號","121.460441666667","25.0300383333333","6500100","板橋區"
"220102","KEA-2699","2018/06/14 20:09:16","新北市板橋區民治街126巷5號","121.47776","25.0312333333333","6500100","板橋區"
"220067","830-TW","2018/06/14 20:08:54","新北市板橋區中山路一段206巷63號","121.471298333333","25.0130433333333","6500100","板橋區"
"220096","831-TW","2018/06/14 20:09:16","新北市板橋區莒光路79巷4號","121.471948333333","25.0244016666667","6500100","板橋區"
"220089","833-TW","2018/06/14 20:09:21","新北市板橋區互助街72號","121.460865","25.0265816666667","6500100","板橋區"
"220074","895-R6","2018/06/14 20:09:13","新北市板橋區府中路67號","121.4582","25.00946","6500100","板橋區"
"220097","AAC-210","2018/06/14 20:09:18","新北市板橋區漢生西路34號","121.463398333333","25.0182966666667","6500100","板橋區"
"220070","AAC-253","2018/06/14 20:09:17","新北市板橋區四川路二段245巷75-121號","121.452601666667","24.99273","6500100","板橋區"
"235068","KEA-2873","2018/06/14 20:09:10","新北市中和區福祥路85巷5號","121.498645","25.0056633333333","6500300","中和區"
"235061","KEA-2875","2018/06/14 20:09:09","新北市中和區員山路263號","121.481265","24.99922","6500300","中和區"
