"lineid","car","time","location","longitude","latitude","cityid","cityname"
"231059","046-UY","2018/06/14 20:59:38","新北市新店區僑信路123號","121.500795","24.9458416666667","6500600","新店區"
"231040","047-UY","2018/06/14 20:59:30","新北市新店區北新路一段128-3號","121.542066666667","24.9696333333333","6500600","新店區"
"231052","108-UY","2018/06/14 20:59:24","新北市新店區北新路一段89號","121.538713333333","24.9614816666667","6500600","新店區"
"231047","110-UY","2018/06/14 20:59:22","新北市新店區寶元路二段1巷2號","121.550628333333","24.9840866666667","6500600","新店區"
"231054","KEA-2219","2018/06/14 20:59:24","新北市新店區北新路一段96巷21號","121.54267","24.96912","6500600","新店區"
"231042","268-BY","2018/06/14 20:59:37","新北市新店區中興路二段239號","121.547393333333","24.9755183333333","6500600","新店區"
"231051","278-BY","2018/06/14 20:59:38","新北市新店區中正路663巷7弄15號","121.532921666667","24.9900766666667","6500600","新店區"
"231050","AAD-862","2018/06/14 20:59:24","新北市新店區三民路30號","121.53675","24.97114","6500600","新店區"
"231066","4716-K9","2018/06/14 20:59:41","新北市新店區吉安街10號","121.51681","24.9657383333333","6500600","新店區"
"231056","4715-K9","2018/06/14 20:59:28","新北市新店區薏仁坑路自強巷6號","121.496431666667","24.958465","6500600","新店區"
"231065","512-UM","2018/06/14 20:59:27","新北市新店區安祥路69巷14號","121.481661666667","24.9609066666667","6500600","新店區"
"231049","513-UM","2018/06/14 20:59:29","新北市新店區華潭街14號","121.529563333333","24.952345","6500600","新店區"
"231061","619-UM","2018/06/14 20:59:39","新北市新店區永安街109巷11號","121.521338333333","24.986015","6500600","新店區"
"231063","641-BX","2018/06/14 20:59:28","新北市新店區富貴街10巷2號","121.494241666667","24.9497383333333","6500600","新店區"
"231068","718-UY","2018/06/14 20:59:33","新北市新店區寶元路二段39號","121.547026666667","24.98132","6500600","新店區"
"231064","719-UM","2018/06/14 20:59:34","新北市新店區安民街300號","121.517646666667","24.9737616666667","6500600","新店區"
"231062","720-UM","2018/06/14 20:59:27","新北市新店區裕合街82號","121.490326666667","24.9486716666667","6500600","新店區"
"231060","897-TW","2018/06/14 20:59:34","新北市新店區安康路三段90號","121.491855","24.951985","6500600","新店區"
"231043","899-TW","2018/06/14 20:59:27","新北市新店區中正路373號","121.53488","24.9765783333333","6500600","新店區"
"241011","013-R5","2018/06/14 20:59:28","新北市三重區秀江街119-1號","121.49966","25.0721866666667","6500200","三重區"
"241028","022-UY","2018/06/14 20:59:28","新北市三重區重新路三段90號","121.492993333333","25.060885","6500200","三重區"
"241008","059-VK","2018/06/14 20:59:31","新北市三重區力行路二段162巷3號","121.482713333333","25.0766016666667","6500200","三重區"
"241009","060-VK","2018/06/14 20:59:34","新北市三重區三和路四段199號","121.482158333333","25.07935","6500200","三重區"
"241031","061-VK","2018/06/14 20:59:26","新北市三重區重陽路一段113巷1弄1號","121.487428333333","25.0598316666667","6500200","三重區"
"241015","062-VK","2018/06/14 20:59:40","新北市三重區福德北路46號","121.501958333333","25.0655033333333","6500200","三重區"
"241017","063-VK","2018/06/14 20:59:30","新北市三重區自強路一段266號","121.492403333333","25.0674733333333","6500200","三重區"
"241024","065-VK","2018/06/14 20:59:40","新北市三重區國道路一段58巷15號","121.481376666667","25.07203","6500200","三重區"
"241002","090-VK","2018/06/14 20:59:25","新北市三重區五華街7巷14號","121.495665","25.08038","6500200","三重區"
"241005","742-BX","2018/06/14 20:59:41","新北市三重區五華街141巷39號","121.492626666667","25.085895","6500200","三重區"
"241003","265-UM","2018/06/14 20:59:40","新北市三重區進安街198號","121.493885","25.0860366666667","6500200","三重區"
"241016","266-UM","2018/06/14 20:59:39","新北市三重區自強路一段119號","121.495403333333","25.0665666666667","6500200","三重區"
"241022","267-UM","2018/06/14 20:59:27","新北市三重區過圳街27-5號","121.48798","25.0624116666667","6500200","三重區"
"241018","268-UM","2018/06/14 20:59:37","新北市三重區雙園街101號","121.49379","25.0672983333333","6500200","三重區"
"241032","269-UM","2018/06/14 20:59:41","新北市三重區興華街123號","121.48339","25.0599133333333","6500200","三重區"
"241013","270-UM","2018/06/14 20:59:36","新北市三重區仁愛街131號","121.495538333333","25.0748766666667","6500200","三重區"
"241025","271-UM","2018/06/14 20:59:32","新北市三重區貴陽街18-1號","121.484201666667","25.0619216666667","6500200","三重區"
"241007","398-BY","2018/06/14 20:59:25","新北市三重區慈愛街11號","121.485176666667","25.07868","6500200","三重區"
"241004","475-VK","2018/06/14 20:59:32","新北市三重區仁愛街423-1號","121.490375","25.0814466666667","6500200","三重區"
"241020","478-VK","2018/06/14 20:59:26","新北市三重區忠孝路二段31號","121.48604","25.0711683333333","6500200","三重區"
"241030","480-VK","2018/06/14 20:59:24","新北市三重區環河南路220-8號","121.493351666667","25.052705","6500200","三重區"
"241014","543-UM","2018/06/14 20:59:27","新北市三重區長榮路75號","121.502643333333","25.0691616666667","6500200","三重區"
"241023","545-UM","2018/06/14 20:59:29","新北市三重區洛陽街45巷15號","121.482361666667","25.0637416666667","6500200","三重區"
"241001","547-UM","2018/06/14 20:59:29","新北市三重區自強路三段79號","121.48718","25.0745566666667","6500200","三重區"
"241019","KEA-2593","2018/06/14 20:59:36","新北市三重區三張街104號","121.487918333333","25.0698966666667","6500200","三重區"
"241006","AAD-863","2018/06/14 20:59:38","新北市三重區永福街46-4號","121.481878333333","25.0780316666667","6500200","三重區"
"241026","887-TS","2018/06/14 20:59:31","新北市三重區文化南路36號","121.500318333333","25.0613966666667","6500200","三重區"
"241012","941-UM","2018/06/14 20:59:26","新北市三重區仁信街27號","121.501288333333","25.0755416666667","6500200","三重區"
"241029","942-UM","2018/06/14 20:59:32","新北市三重區電信街29號","121.497231666667","25.0584483333333","6500200","三重區"
"241033","AAC-255","2018/06/14 20:59:35","新北市三重區光復路二段1號","121.472325","25.053315","6500200","三重區"
"235069","4980-A6","2018/06/14 20:59:40","新北市中和區連城路469巷19號","121.483825","24.9951083333333","6500300","中和區"
"220065","072-UY","2018/06/14 20:59:27","新北市板橋區華東街1-9號","121.448158333333","24.9949166666667","6500100","板橋區"
"247024","893-R6","2018/06/14 20:59:33","新北市蘆洲區長興路213號","121.461173333333","25.08638","6501400","蘆洲區"
"247014","546-UM","2018/06/14 20:59:40","新北市蘆洲區中山二路36巷33號","121.474146666667","25.0833066666667","6501400","蘆洲區"
"247022","500-BY","2018/06/14 20:59:29","新北市蘆洲區三民路263號","121.468188333333","25.0893266666667","6501400","蘆洲區"
"247010","341-TH","2018/06/14 20:59:35","新北市蘆洲區鷺江街91號","121.47689","25.083765","6501400","蘆洲區"
"247012","339-TH","2018/06/14 20:59:35","新北市蘆洲區民權路8-1號","121.476681666667","25.08588","6501400","蘆洲區"
"247004","337-TH","2018/06/14 20:59:27","新北市蘆洲區永安南路二段268號","121.458626666667","25.0807216666667","6501400","蘆洲區"
"247006","336-TH","2018/06/14 20:59:25","新北市蘆洲區永安南路二段16巷8號","121.467766666667","25.0771616666667","6501400","蘆洲區"
"247018","057-VK","2018/06/14 20:59:26","新北市蘆洲區水湳街3號","121.472858333333","25.0886433333333","6501400","蘆洲區"
"247016","007-UY","2018/06/14 20:59:28","新北市蘆洲區正和街84號","121.468376666667","25.0809216666667","6501400","蘆洲區"
"247020","001-UY","2018/06/14 20:59:33","新北市蘆洲區民族路488號","121.471145","25.091315","6501400","蘆洲區"
"251004","009-UM","2018/06/14 20:59:32","新北市淡水區忠愛街4號","121.459513333333","25.1716916666667","6501000","淡水區"
"251005","010-UM","2018/06/14 20:59:33","新北市淡水區學府路51巷2弄16號","121.448046666667","25.1700116666667","6501000","淡水區"
"251013","KEA-2871","2018/06/14 20:59:31","新北市淡水區行忠路590號","121.467901666667","25.1991933333333","6501000","淡水區"
"251016","179-VK","2018/06/14 20:59:28","新北市淡水區牛埔子11-1號","121.450223333333","25.218445","6501000","淡水區"
"251014","180-VK","2018/06/14 20:59:26","新北市淡水區溪口12號","121.455896666667","25.2364766666667","6501000","淡水區"
"251015","182-VK","2018/06/14 20:59:40","新北市淡水區淡金路四段542巷17號","121.452756666667","25.22708","6501000","淡水區"
"251010","413-VK","2018/06/14 20:59:25","新北市淡水區中正路一段118-3號","121.42387","25.1788066666667","6501000","淡水區"
"251012","441-VK","2018/06/14 20:59:41","新北市淡水區溪口6號","121.456223333333","25.2359666666667","6501000","淡水區"
"251007","442-VK","2018/06/14 20:59:22","新北市淡水區鄧公路33巷2號","121.451308333333","25.1710666666667","6501000","淡水區"
"251001","559-UM","2018/06/14 20:59:32","新北市淡水區淡金路二段141號","121.450216666667","25.1824633333333","6501000","淡水區"
"251011","650-BX","2018/06/14 20:59:22","新北市淡水區新民街322巷1號","121.4353","25.183745","6501000","淡水區"
"251002","672-BX","2018/06/14 20:59:31","新北市淡水區水源街一段111號","121.446398333333","25.1720566666667","6501000","淡水區"
"251003","766-UM","2018/06/14 20:59:28","新北市淡水區新春街148-1號","121.442523333333","25.18123","6501000","淡水區"
"242034","AAC-296","2018/06/14 20:59:20","新北市新莊區中正路268號","121.44767","25.03512","6500500","新莊區"
"242051","441-UM","2018/06/14 20:59:35","新北市新莊區新樹路210號","121.433683333333","25.0204183333333","6500500","新莊區"
"242021","348-TH","2018/06/14 20:59:32","新北市新莊區中華路一段73號","121.452258333333","25.040265","6500500","新莊區"
"221008","489-VK","2018/06/14 20:57:05","新北市汐止區康寧街901號","121.651371666667","25.0749966666667","6501100","汐止區"
"221029","298-VK","2018/06/14 20:59:24","新北市汐止區康寧街901號","121.651613333333","25.07492","6501100","汐止區"
"242002","KEA-2550","2018/06/14 20:59:39","新北市新莊區中港路59號","121.455048333333","25.0384616666667","6500500","新莊區"
"242009","281-VK","2018/06/14 20:59:30","新北市新莊區思源路59號","121.459935","25.04034","6500500","新莊區"
"220102","KEA-2699","2018/06/14 20:59:16","新北市樹林區中山路三段210-2號","121.381766666667","24.9656733333333","6500100","板橋區"
"220070","AAC-253","2018/06/14 20:59:34","新北市林口區太平里180號","121.367206666667","25.133745","6500100","板橋區"
