"lineid","car","time","location","longitude","latitude","cityid","cityname"
"231047","110-UY","2018/06/14 21:29:22","新北市新店區安德街116巷26弄3號","121.508813333333","24.9619683333333","6500600","新店區"
"231051","278-BY","2018/06/14 21:29:38","新北市新店區薏仁坑路自強巷1號","121.496758333333","24.9578216666667","6500600","新店區"
"231063","641-BX","2018/06/14 21:29:28","新北市新店區如意街85號","121.494698333333","24.947075","6500600","新店區"
"231060","897-TW","2018/06/14 21:29:34","新北市新店區車子路12號","121.504761666667","24.95433","6500600","新店區"
"241017","063-VK","2018/06/14 21:29:30","新北市三重區中正北路25巷25弄2號","121.493218333333","25.0626516666667","6500200","三重區"
"241024","065-VK","2018/06/14 21:29:40","新北市三重區中正北路200號","121.482668333333","25.0673","6500200","三重區"
"241005","742-BX","2018/06/14 21:29:41","新北市三重區仁華街85號","121.485796666667","25.0829583333333","6500200","三重區"
"241003","265-UM","2018/06/14 21:29:40","新北市三重區集賢路87-1號","121.49368","25.086915","6500200","三重區"
"241016","266-UM","2018/06/14 21:29:39","新北市三重區信義西街41號","121.495325","25.0639933333333","6500200","三重區"
"241007","398-BY","2018/06/14 21:29:25","新北市三重區正義北路128號","121.496801666667","25.0656466666667","6500200","三重區"
"241033","AAC-255","2018/06/14 21:29:35","新北市三重區光復路二段88巷38號","121.470363333333","25.0573383333333","6500200","三重區"
"247024","893-R6","2018/06/14 21:28:53","新北市五股區凌雲路三段24巷7號","121.43668","25.1067933333333","6501400","蘆洲區"
"247022","500-BY","2018/06/14 21:29:29","新北市蘆洲區長安街313巷46號","121.455295","25.0859766666667","6501400","蘆洲區"
"247010","341-TH","2018/06/14 21:29:35","新北市蘆洲區三民路25號","121.475693333333","25.0825583333333","6501400","蘆洲區"
"247006","336-TH","2018/06/14 21:29:25","新北市蘆洲區中原路16號","121.460886666667","25.0831833333333","6501400","蘆洲區"
"251009","008-UM","2018/06/14 21:29:29","新北市淡水區民族路65巷60號","121.463485","25.13593","6501000","淡水區"
"251004","009-UM","2018/06/14 21:29:32","新北市淡水區民生路7號","121.460551666667","25.1378583333333","6501000","淡水區"
"251005","010-UM","2018/06/14 21:29:33","新北市淡水區水源街一段34巷9號","121.443186666667","25.1718283333333","6501000","淡水區"
"251013","KEA-2871","2018/06/14 21:29:41","新北市淡水區埤島59-2號","121.45979","25.195315","6501000","淡水區"
"251016","179-VK","2018/06/14 21:29:28","新北市淡水區前洲子28號","121.441118333333","25.2192216666667","6501000","淡水區"
"251014","180-VK","2018/06/14 21:29:26","新北市淡水區六塊厝2-1號","121.449676666667","25.2402183333333","6501000","淡水區"
"251015","182-VK","2018/06/14 21:29:20","新北市淡水區淡金路三段70巷1號","121.448156666667","25.2007533333333","6501000","淡水區"
"251010","413-VK","2018/06/14 21:29:25","新北市淡水區沙崙路25巷21號","121.420601666667","25.1824783333333","6501000","淡水區"
"251012","441-VK","2018/06/14 21:29:40","新北市淡水區淡金路五段35巷46號","121.452418333333","25.2347416666667","6501000","淡水區"
"251007","442-VK","2018/06/14 21:29:42","新北市淡水區淡金路一段69號","121.458181666667","25.1733783333333","6501000","淡水區"
"251008","443-VK","2018/06/14 21:29:24","新北市淡水區水源街二段124號","121.453093333333","25.174665","6501000","淡水區"
"251001","559-UM","2018/06/14 21:29:32","新北市淡水區濱海路二段202巷65弄31號","121.434581666667","25.19365","6501000","淡水區"
"251006","561-UM","2018/06/14 21:29:25","新北市淡水區公明街78號","121.444001666667","25.1683283333333","6501000","淡水區"
"251011","650-BX","2018/06/14 21:29:42","新北市淡水區真理街32號","121.43684","25.1784166666667","6501000","淡水區"
"251003","766-UM","2018/06/14 21:29:28","新北市淡水區崁頂15-5號","121.43897","25.185945","6501000","淡水區"
"220070","AAC-253","2018/06/14 21:29:34","新北市板橋區板城路271號","121.45008","24.9982683333333","6500100","板橋區"
