"lineid","car","time","location","longitude","latitude","cityid","cityname"
"248005","653-BX","2018/06/15 07:39:35","新北市五股區明德路12巷6號","121.433341666667","25.07182","6501500","五股區"
"232003","290-BY","2018/06/15 07:39:54","新北市坪林區下坑子口6-15號","121.711228333333","24.9433166666667","6502000","坪林區"
"232015","291-BY","2018/06/15 07:39:42","新北市坪林區黃舉皮寮14-1號","121.68852","24.9348366666667","6502000","坪林區"
"232019","705-BZ","2018/06/15 07:39:44","新北市坪林區乾溪1-7號","121.737296666667","24.97592","6502000","坪林區"
"232008","758-BX","2018/06/15 07:39:37","新北市坪林區魚堀8-5號","121.708968333333","24.9061733333333","6502000","坪林區"
"244004","248-BX","2018/06/15 07:39:46","新北市林口區頂福里73-6號","121.340165","25.0904583333333","6501700","林口區"
"222005","289-BY","2018/06/15 07:39:41","新北市深坑區文化街39巷13號","121.618953333333","25.001065","6501800","深坑區"
"226005","5620-A6","2018/06/15 07:39:43","新北市平溪區石底里公園街12號","121.737841666667","25.0250433333333","6502400","平溪區"
"226001","7418-A5","2018/06/15 07:39:56","新北市平溪區平湖里大厝37-5號","121.77919","25.030465","6502400","平溪區"
"226006","AGD-0702","2018/06/15 07:39:43","新北市平溪區新寮里頂寮子3號","121.770678333333","25.0512766666667","6502400","平溪區"
"223006","022-BY","2018/06/15 07:39:50","新北市坪林區鶯子瀨1-2號","121.709115","24.9181366666667","6501900","石碇區"
"223002","KEA-2673","2018/06/15 07:39:40","新北市石碇區北宜路五段80號","121.646471666667","24.9515683333333","6501900","石碇區"
"223003","205-TH","2018/06/15 07:39:13","新北市石碇區蛇舌子11號","121.660463333333","24.9693433333333","6501900","石碇區"
"223008","406-TH","2018/06/15 07:14:49","新北市石碇區靜安路一段337號","121.698815","25.0146716666667","6501900","石碇區"
"223001","592-UM","2018/06/15 07:38:19","新北市石碇區烏塗窟37號","121.656846666667","24.97138","6501900","石碇區"
"223004","660-BX","2018/06/15 07:39:48","新北市石碇區八分寮45-1號","121.642086666667","25.0134483333333","6501900","石碇區"
"223007","661-BX","2018/06/15 07:28:39","新北市石碇區靜安路一段337號","121.698961666667","25.0145616666667","6501900","石碇區"
"223005","677-TV","2018/06/15 07:39:49","新北市石碇區八分寮47-1號","121.642085","25.0135816666667","6501900","石碇區"
"227005","282-VK","2018/06/15 07:39:37","新北市雙溪區雙溪里太平路54號","121.864793333333","25.0355216666667","6502500","雙溪區"
"237001","159-UY","2018/06/15 07:39:47","新北市三峽區大義路7號","121.378958333333","24.9437066666667","6500900","三峽區"
"236010","165-UM","2018/06/15 07:39:44","新北市土城區金城路三段259-1號","121.472056666667","24.9901166666667","6501300","土城區"
"236004","339-SR","2018/06/15 07:39:48","新北市土城區龍泉路151號","121.450238333333","24.945165","6501300","土城區"
