"lineid","car","time","location","longitude","latitude","cityid","cityname"
"232001","290-BY","2018/09/13 06:39:16","新北市坪林區北宜路八段558號","121.718138333333","24.9092933333333","6502000","坪林區"
"232014","291-BY","2018/09/13 06:39:07","新北市坪林區北宜路八段558號","121.717806666667","24.9093666666667","6502000","坪林區"
"232010","375-UM","2018/09/13 06:39:21","新北市坪林區北宜路八段558號","121.7182","24.9092783333333","6502000","坪林區"
"232018","705-BZ","2018/09/13 06:39:16","新北市坪林區北宜路八段558號","121.718103333333","24.9094533333333","6502000","坪林區"
"232007","758-BX","2018/09/13 06:38:59","新北市坪林區鶯子瀨1-2號","121.70972","24.9173216666667","6502000","坪林區"
"235001","611-BX","2018/09/13 06:38:59","新北市中和區圓通路335巷53號","121.494721666667","24.9890166666667","6500300","中和區"
"223002","KEA-2673","2018/09/13 06:39:02","新北市石碇區石碇東街93號","121.65959","24.9906866666667","6501900","石碇區"
"223003","205-TH","2018/09/13 06:39:06","新北市石碇區下橫坪15號","121.668173333333","24.983685","6501900","石碇區"
"223008","406-TH","2018/09/13 06:39:07","新北市石碇區碇坪路一段282號","121.677081666667","24.9778266666667","6501900","石碇區"
"223007","661-BX","2018/09/13 06:39:16","新北市石碇區碇坪路一段38號","121.65417","24.996655","6501900","石碇區"
"223005","677-TV","2018/09/13 06:39:07","新北市石碇區小粗坑(潭邊里)9-2號","121.678666666667","24.9859683333333","6501900","石碇區"
"227007","282-VK","2018/09/13 06:39:14","新北市雙溪區牡丹里中正路60號","121.866106666667","25.0424133333333","6502500","雙溪區"
