"lineid","car","time","location","longitude","latitude","cityid","cityname"
"232001","290-BY","2018/05/21 08:29:07","新北市坪林區大粗坑6-1號","121.732233333333","24.94825","6502000","坪林區"
"232012","291-BY","2018/05/21 08:29:18","新北市坪林區九芎根2-1號","121.668003333333","24.887935","6502000","坪林區"
"232017","705-BZ","2018/05/21 08:28:09","新北市坪林區中心崙13號","121.774451666667","24.942955","6502000","坪林區"
"232005","758-BX","2018/05/21 08:29:08","新北市坪林區石16號","121.710208333333","24.90858","6502000","坪林區"
"244012","069-UM","2018/05/21 08:29:17","新北市林口區中正路438號","121.383818333333","25.077705","6501700","林口區"
"244006","080-UY","2018/05/21 08:29:22","新北市林口區湖子10-2號","121.387991666667","25.0901416666667","6501700","林口區"
"244001","248-BX","2018/05/21 08:29:02","新北市林口區嘉寶里26號","121.335081666667","25.106945","6501700","林口區"
"244018","403-UM","2018/05/21 08:29:06","新北市林口區公園路166號","121.372066666667","25.0722333333333","6501700","林口區"
"244008","410-SL","2018/05/21 08:29:08","新北市林口區文化一路二段285-1號","121.384811666667","25.084615","6501700","林口區"
"244022","483-VK","2018/05/21 08:29:10","新北市林口區東明一街1巷25號","121.393543333333","25.0723116666667","6501700","林口區"
"244016","485-VK","2018/05/21 08:29:09","新北市林口區文化二路一段260巷1-1號","121.371445","25.073375","6501700","林口區"
"244010","657-BX","2018/05/21 08:29:15","新北市林口區中興街11號","121.388783333333","25.077195","6501700","林口區"
"244025","837-TS","2018/05/21 08:29:20","新北市林口區忠孝三路13號","121.361113333333","25.069165","6501700","林口區"
"244020","838-TS","2018/05/21 08:29:14","新北市林口區中山路2-2號","121.396771666667","25.0787133333333","6501700","林口區"
"222005","289-BY","2018/05/21 08:29:12","新北市深坑區萬福路181號","121.615941666667","25.01525","6501800","深坑區"
"231007","189-VK","2018/05/21 08:29:14","新北市新店區新潭路二段2號","121.528183333333","24.9265933333333","6500600","新店區"
"231008","192-VK","2018/05/21 08:29:00","新北市新店區桂山路51巷6-1號","121.562011666667","24.901565","6500600","新店區"
"235001","611-BX","2018/05/21 08:29:09","新北市中和區新生街163號","121.483628333333","25.0011633333333","6500300","中和區"
"226005","5620-A6","2018/05/21 08:29:14","新北市平溪區南山里六分10號","121.797451666667","25.0498766666667","6502400","平溪區"
"226001","7418-A5","2018/05/21 08:29:10","新北市平溪區東勢里火燒寮6號","121.747036666667","25.0014083333333","6502400","平溪區"
"226003","AGD-0702","2018/05/21 08:29:11","新北市平溪區十分里十分街54號","121.775245","25.0414333333333","6502400","平溪區"
"223006","022-BY","2018/05/21 08:29:13","新北市深坑區昇高坑路34號","121.62774","24.9997083333333","6501900","石碇區"
"223002","KEA-2673","2018/05/21 08:29:15","新北市石碇區碇格路二段8號","121.644815","24.9615633333333","6501900","石碇區"
"223003","205-TH","2018/05/21 08:29:16","新北市石碇區北宜路六段塗潭巷27號","121.64949","24.9338783333333","6501900","石碇區"
"223008","406-TH","2018/05/21 08:26:00","新北市石碇區串空湖7號","121.670766666667","25.0014583333333","6501900","石碇區"
"223001","592-UM","2018/05/21 08:29:17","新北市石碇區北宜路六段塗潭巷47-1號","121.651626666667","24.9343866666667","6501900","石碇區"
"223004","660-BX","2018/05/21 08:29:12","新北市石碇區石碇東街23號","121.661485","24.9907416666667","6501900","石碇區"
"223007","661-BX","2018/05/21 08:29:18","新北市石碇區石碇子埔97-4號","121.668603333333","25.0055133333333","6501900","石碇區"
"223005","677-TV","2018/05/21 08:29:06","新北市石碇區湳窟22號","121.660773333333","24.9909116666667","6501900","石碇區"
"227005","282-VK","2018/05/21 08:29:11","新北市雙溪區外柑里三叉坑8號","121.827713333333","25.00832","6502500","雙溪區"
"252006","073-UM","2018/05/21 08:29:13","新北市三芝區後厝里番社后38號","121.471593333333","25.24314","6502100","三芝區"
"252004","249-BX","2018/05/21 08:29:22","新北市三芝區興華里楓子林45-7號","121.501261666667","25.2046516666667","6502100","三芝區"
"237001","159-UY","2018/05/21 08:29:09","新北市三峽區三樹路199號","121.378083333333","24.9421983333333","6500900","三峽區"
"236007","165-UM","2018/05/21 08:29:14","新北市土城區石門路95號","121.46925","24.95901","6501300","土城區"
"236001","339-SR","2018/05/21 08:29:20","新北市土城區中州路76號","121.41202","24.9583366666667","6501300","土城區"
"236005","498-BY","2018/05/21 08:29:14","新北市土城區大暖路52號","121.423148333333","24.9592733333333","6501300","土城區"
"242033","AAC-296","2018/05/21 08:29:21","新北市新莊區中正路377巷5號","121.446353333333","25.034025","6500500","新莊區"
"242057","986-R7","2018/05/21 08:29:18","新北市新莊區新北大道七段556號","121.412228333333","25.0286733333333","6500500","新莊區"
"242052","751-BX","2018/05/21 08:29:03","新北市新莊區民安西路470-1號","121.431671666667","25.007795","6500500","新莊區"
"242026","615-BX","2018/05/21 08:29:12","新北市新莊區幸福路73號","121.456888333333","25.0493783333333","6500500","新莊區"
"242024","613-BX","2018/05/21 08:29:05","新北市新莊區新北大道二段370號","121.461871666667","25.061915","6500500","新莊區"
"242028","612-BX","2018/05/21 08:29:02","新北市新莊區幸福路842號","121.444548333333","25.0492216666667","6500500","新莊區"
"242040","566-BX","2018/05/21 08:29:04","新北市新莊區天祥街92巷51號","121.41503","25.0304083333333","6500500","新莊區"
"242049","441-UM","2018/05/21 08:29:04","新北市新莊區民本街23巷17號","121.429071666667","25.0197966666667","6500500","新莊區"
"242055","440-UM","2018/05/21 08:29:08","新北市新莊區豐年街124巷18號","121.445488333333","25.029855","6500500","新莊區"
"242035","415-TV","2018/05/21 08:29:16","新北市新莊區後港一路63號","121.426473333333","25.0265633333333","6500500","新莊區"
"242006","413-TV","2018/05/21 08:29:09","新北市新莊區思源路593巷6弄23號","121.45785","25.05984","6500500","新莊區"
"242022","362-BY","2018/05/21 08:29:03","新北市新莊區化成路43巷2號","121.464898333333","25.04474","6500500","新莊區"
"242059","353-BY","2018/05/21 08:29:22","新北市新莊區新樹路225號","121.435198333333","25.0226433333333","6500500","新莊區"
"242008","132-UY","2018/05/21 08:29:09","新北市新莊區中華路二段258巷15號","121.45311","25.0538566666667","6500500","新莊區"
"242038","133-UY","2018/05/21 08:29:20","新北市新莊區民安西路24巷9號","121.426423333333","25.0209883333333","6500500","新莊區"
"242030","135-UY","2018/05/21 08:29:15","新北市新莊區新泰路277巷71號","121.443","25.0400183333333","6500500","新莊區"
"242047","172-VK","2018/05/21 08:29:07","新北市新莊區後港二路16號","121.422725","25.0237883333333","6500500","新莊區"
"242010","173-VK","2018/05/21 08:29:04","新北市新莊區中榮街56巷12號","121.44924","25.0536166666667","6500500","新莊區"
"242016","175-VK","2018/05/21 08:29:11","新北市新莊區中華路二段3巷15號","121.453371666667","25.0459","6500500","新莊區"
"242003","176-VK","2018/05/21 08:29:16","新北市新莊區自由街6號","121.455791666667","25.0478583333333","6500500","新莊區"
"242014","346-TH","2018/05/21 08:29:21","新北市新莊區中平路132巷12號","121.445573333333","25.046645","6500500","新莊區"
"242020","348-TH","2018/05/21 08:29:24","新北市新莊區建興街81號","121.44992","25.03865","6500500","新莊區"
"242018","350-TH","2018/05/21 08:29:19","新北市新莊區明中街51巷2弄1號","121.456413333333","25.03927","6500500","新莊區"
"242012","351-TH","2018/05/21 08:29:06","新北市新莊區中誠街147巷8號","121.44887","25.0469433333333","6500500","新莊區"
"242001","KEA-2550","2018/05/21 08:29:06","新北市新莊區新莊路58號","121.457828333333","25.0367966666667","6500500","新莊區"
"242043","281-VK","2018/05/21 08:29:22","新北市新莊區中正路730-2號","121.41484","25.023925","6500500","新莊區"
"242045","280-VK","2018/05/21 08:29:22","新北市新莊區福營路221號","121.430185","25.030175","6500500","新莊區"
