"lineid","car","time","location","longitude","latitude","cityid","cityname"
"232001","290-BY","2018/05/21 08:49:07","新北市坪林區虎寮潭1-5號","121.74417","24.95527","6502000","坪林區"
"232012","291-BY","2018/05/21 08:49:18","新北市坪林區金瓜寮22號","121.679911666667","24.9122866666667","6502000","坪林區"
"232017","705-BZ","2018/05/21 08:48:49","新北市坪林區鷺鶿岫4-2號","121.785688333333","24.9560033333333","6502000","坪林區"
"232005","758-BX","2018/05/21 08:49:08","新北市坪林區魚堀9-13號","121.704611666667","24.9065833333333","6502000","坪林區"
"244012","069-UM","2018/05/21 08:49:16","新北市林口區中山路138號","121.391745","25.0787233333333","6501700","林口區"
"244006","080-UY","2018/05/21 08:49:22","新北市林口區竹林路170號","121.388753333333","25.0797216666667","6501700","林口區"
"244001","248-BX","2018/05/21 08:49:02","新北市林口區下福147-12號","121.300676666667","25.11659","6501700","林口區"
"244018","403-UM","2018/05/21 08:49:06","新北市林口區文化一路一段83巷14弄92號","121.372805","25.0716666666667","6501700","林口區"
"244008","410-SL","2018/05/21 08:49:08","新北市林口區竹林路614號","121.38652","25.08253","6501700","林口區"
"244022","483-VK","2018/05/21 08:49:10","新北市林口區東湖路66號","121.387221666667","25.0741016666667","6501700","林口區"
"244016","485-VK","2018/05/21 08:49:09","新北市林口區八德路36號","121.367488333333","25.066475","6501700","林口區"
"244010","657-BX","2018/05/21 08:49:15","新北市林口區新生街11號","121.394216666667","25.0767416666667","6501700","林口區"
"244025","837-TS","2018/05/21 08:49:20","新北市林口區南勢四街325號","121.356608333333","25.0748433333333","6501700","林口區"
"244020","838-TS","2018/05/21 08:49:14","新北市林口區自強二街8號","121.397398333333","25.078255","6501700","林口區"
"222005","289-BY","2018/05/21 08:49:12","新北市深坑區風格街31巷47號","121.627178333333","25.0179766666667","6501800","深坑區"
"231007","189-VK","2018/05/21 08:49:18","新北市新店區新潭路三段220號","121.5031","24.90378","6500600","新店區"
"231008","192-VK","2018/05/21 08:49:00","新北市新店區新烏路三段寶島巷8號","121.55184","24.8989033333333","6500600","新店區"
"235001","611-BX","2018/05/21 08:49:09","新北市中和區民安街63號","121.478721666667","24.9998633333333","6500300","中和區"
"226005","5620-A6","2018/05/21 08:49:06","新北市平溪區十分里十分街96-2號","121.776675","25.0425666666667","6502400","平溪區"
"226001","7418-A5","2018/05/21 08:45:30","新北市平溪區東勢里番仔坑16號","121.755686666667","24.9916","6502400","平溪區"
"226003","AGD-0702","2018/05/21 08:49:11","新北市平溪區十分里十分街271-1號","121.778943333333","25.0449333333333","6502400","平溪區"
"223006","022-BY","2018/05/21 08:49:12","新北市深坑區昇高坑路15號","121.624136666667","25.0007083333333","6501900","石碇區"
"223002","KEA-2673","2018/05/21 08:49:15","新北市石碇區員潭子坑11-1號","121.640308333333","24.9926483333333","6501900","石碇區"
"223003","205-TH","2018/05/21 08:49:16","新北市石碇區北宜路六段水底寮巷26號","121.663553333333","24.9433283333333","6501900","石碇區"
"223008","406-TH","2018/05/21 08:49:22","新北市石碇區碇南路二段松柏崎巷37-1號","121.678828333333","25.02317","6501900","石碇區"
"223001","592-UM","2018/05/21 08:49:17","新北市石碇區北宜路六段水底寮巷12-1號","121.665058333333","24.9471883333333","6501900","石碇區"
"223004","660-BX","2018/05/21 08:49:12","新北市石碇區崩山24-2號","121.679438333333","24.9676283333333","6501900","石碇區"
"223007","661-BX","2018/05/21 08:49:18","新北市石碇區碇南路二段松柏崎巷8號","121.675081666667","25.01936","6501900","石碇區"
"223005","677-TV","2018/05/21 08:49:06","新北市石碇區崩山30號","121.678675","24.9664083333333","6501900","石碇區"
"227005","282-VK","2018/05/21 08:49:11","新北市雙溪區泰平里泰平10號","121.845688333333","24.985395","6502500","雙溪區"
"252006","073-UM","2018/05/21 08:49:13","新北市三芝區古庄里四棧橋24號","121.486901666667","25.26042","6502100","三芝區"
"252004","249-BX","2018/05/21 08:46:02","新北市三芝區興華里田心子15-14號","121.492806666667","25.20428","6502100","三芝區"
"237001","159-UY","2018/05/21 08:49:09","新北市三峽區學成路343號","121.376191666667","24.9446416666667","6500900","三峽區"
"236007","165-UM","2018/05/21 08:49:14","新北市土城區清水路32巷14號","121.457095","24.9812166666667","6501300","土城區"
"236001","339-SR","2018/05/21 08:49:20","新北市土城區中央路三段279號","121.426736666667","24.9635033333333","6501300","土城區"
"236005","498-BY","2018/05/21 08:49:14","新北市土城區永和街62巷8號","121.434795","24.9591566666667","6501300","土城區"
"242033","AAC-296","2018/05/21 08:49:21","新北市新莊區仁愛街54巷6號","121.444621666667","25.0370733333333","6500500","新莊區"
"242057","986-R7","2018/05/21 08:49:20","新北市新莊區中正路887-19號","121.415895","25.02404","6500500","新莊區"
"242052","751-BX","2018/05/21 08:49:03","新北市新莊區民安西路362號","121.427515","25.0110716666667","6500500","新莊區"
"242026","615-BX","2018/05/21 08:49:12","新北市新莊區立信三街25號","121.44293","25.050485","6500500","新莊區"
"242024","613-BX","2018/05/21 08:49:15","新北市新莊區五工三路86巷20號","121.459243333333","25.065975","6500500","新莊區"
"242028","612-BX","2018/05/21 08:49:02","新北市新莊區中平路380號","121.444565","25.05356","6500500","新莊區"
"242040","566-BX","2018/05/21 08:49:04","新北市新莊區天祥街82巷13號","121.415861666667","25.030025","6500500","新莊區"
"242049","441-UM","2018/05/21 08:49:04","新北市新莊區民安西路194號","121.425801666667","25.0154533333333","6500500","新莊區"
"242055","440-UM","2018/05/21 08:49:08","新北市新莊區瓊林路46-11號","121.446841666667","25.0291466666667","6500500","新莊區"
"242035","415-TV","2018/05/21 08:49:16","新北市新莊區建安街60號","121.427213333333","25.02465","6500500","新莊區"
"242006","413-TV","2018/05/21 08:49:09","新北市新莊區福壽街124巷34弄15號","121.45931","25.05061","6500500","新莊區"
"242022","362-BY","2018/05/21 08:49:03","新北市新莊區化成路604號","121.466183333333","25.054555","6500500","新莊區"
"242059","353-BY","2018/05/21 08:49:22","新北市新莊區民安路186號","121.425276666667","25.0235466666667","6500500","新莊區"
"242008","132-UY","2018/05/21 08:49:08","新北市新莊區昌盛街27號","121.453768333333","25.0499483333333","6500500","新莊區"
"242038","133-UY","2018/05/21 08:49:20","新北市新莊區民安路301號","121.429525","25.0225433333333","6500500","新莊區"
"242030","135-UY","2018/05/21 08:49:15","新北市新莊區新泰路225巷11號","121.445858333333","25.0391833333333","6500500","新莊區"
"242047","172-VK","2018/05/21 08:49:06","新北市新莊區建安街76巷1弄15號","121.425968333333","25.0242066666667","6500500","新莊區"
"242010","173-VK","2018/05/21 08:49:04","新北市新莊區中港路531巷5號","121.451408333333","25.0513766666667","6500500","新莊區"
"242016","175-VK","2018/05/21 08:49:11","新北市新莊區中港二街96號","121.449238333333","25.04578","6500500","新莊區"
"242003","176-VK","2018/05/21 08:49:16","新北市新莊區化成路29巷72號","121.462523333333","25.044015","6500500","新莊區"
"242014","346-TH","2018/05/21 08:49:21","新北市新莊區復興路一段47巷3號","121.446968333333","25.042325","6500500","新莊區"
"242020","348-TH","2018/05/21 08:49:15","新北市新莊區建中街24號","121.449151666667","25.0375866666667","6500500","新莊區"
"242018","350-TH","2018/05/21 08:49:19","新北市新莊區長青街35巷9號","121.456845","25.0418233333333","6500500","新莊區"
"242012","351-TH","2018/05/21 08:49:06","新北市新莊區幸福路710巷1弄2號","121.449571666667","25.0496983333333","6500500","新莊區"
"242001","KEA-2550","2018/05/21 08:49:06","新北市新莊區新豐街2號","121.44915","25.0347566666667","6500500","新莊區"
"242043","281-VK","2018/05/21 08:49:22","新北市新莊區龍安路101號","121.416251666667","25.0225","6500500","新莊區"
"242045","280-VK","2018/05/21 08:49:22","新北市新莊區中正路803巷76號","121.421986666667","25.027545","6500500","新莊區"
