"lineid","car","time","location","longitude","latitude","cityid","cityname"
"244012","069-UM","2018/05/21 09:09:16","新北市林口區中山路305號","121.383736666667","25.0803733333333","6501700","林口區"
"244006","080-UY","2018/05/21 09:09:22","新北市林口區林口路194號","121.387361666667","25.0831366666667","6501700","林口區"
"244001","248-BX","2018/05/21 09:09:02","新北市林口區嘉寶里15鄰43-1號","121.341516666667","25.108035","6501700","林口區"
"244018","403-UM","2018/05/21 09:09:06","新北市林口區文化一路一段90號","121.372898333333","25.070845","6501700","林口區"
"244008","410-SL","2018/05/21 09:09:08","新北市林口區文林一街59號","121.377403333333","25.0869083333333","6501700","林口區"
"244022","483-VK","2018/05/21 09:09:10","新北市林口區東湖路153巷135號","121.382206666667","25.0735816666667","6501700","林口區"
"244016","485-VK","2018/05/21 09:09:09","新北市林口區文化二路一段20巷57號","121.365365","25.066375","6501700","林口區"
"244010","657-BX","2018/05/21 09:09:15","新北市林口區中正路41巷9號","121.395711666667","25.0768016666667","6501700","林口區"
"244025","837-TS","2018/05/21 09:09:19","新北市林口區仁愛二路101-1號","121.367861666667","25.0751583333333","6501700","林口區"
"222005","289-BY","2018/05/21 09:00:30","新北市深坑區土庫尖路75-1號","121.631191666667","25.0182333333333","6501800","深坑區"
"231007","189-VK","2018/05/21 09:09:14","新北市新店區新潭路三段215巷25號","121.508103333333","24.9041183333333","6500600","新店區"
"231008","192-VK","2018/05/21 09:09:20","新北市新店區廣興路60巷35號","121.54238","24.9164683333333","6500600","新店區"
"235001","611-BX","2018/05/21 09:09:09","新北市中和區民德路274號","121.467828333333","24.9964366666667","6500300","中和區"
"226001","7418-A5","2018/05/21 09:09:10","新北市平溪區東勢里芊蓁林59-1號","121.751548333333","25.0083583333333","6502400","平溪區"
"226003","AGD-0702","2018/05/21 09:09:15","新北市平溪區望古里望古坑29號","121.763506666667","25.0341666666667","6502400","平溪區"
"223003","205-TH","2018/05/21 09:09:16","新北市石碇區北宜路五段坑內巷1號","121.63684","24.9532283333333","6501900","石碇區"
"223008","406-TH","2018/05/21 09:09:22","新北市石碇區光明路13號","121.680146666667","25.0336333333333","6501900","石碇區"
"223001","592-UM","2018/05/21 09:09:17","新北市石碇區北宜路五段坑內巷1號","121.637001666667","24.9533383333333","6501900","石碇區"
"223004","660-BX","2018/05/21 09:09:12","新北市石碇區磨石坑39-3號","121.688458333333","24.9655866666667","6501900","石碇區"
"223007","661-BX","2018/05/21 09:09:18","新北市石碇區光明路1號","121.675736666667","25.02843","6501900","石碇區"
"223005","677-TV","2018/05/21 09:09:06","新北市石碇區崩山58號","121.686156666667","24.9659783333333","6501900","石碇區"
"227005","282-VK","2018/05/21 09:05:51","新北市雙溪區泰平里料角坑13-1號","121.816768333333","24.9732333333333","6502500","雙溪區"
"252006","073-UM","2018/05/21 09:09:13","新北市三芝區埔坪里埔頭坑107號","121.504491666667","25.26151","6502100","三芝區"
"252004","249-BX","2018/05/21 09:09:02","新北市淡水區大埤頭1-2號","121.492845","25.1945783333333","6502100","三芝區"
"236007","165-UM","2018/05/21 09:09:14","新北市土城區金安街48巷2號","121.420661666667","24.9654316666667","6501300","土城區"
"236001","339-SR","2018/05/21 09:09:20","新北市土城區和平路46號","121.443201666667","24.97056","6501300","土城區"
"236005","498-BY","2018/05/21 09:09:14","新北市土城區中央路三段99-6號","121.436305","24.9668866666667","6501300","土城區"
"242033","AAC-296","2018/05/21 09:09:21","新北市新莊區中正路316號","121.446313333333","25.0350466666667","6500500","新莊區"
"242057","986-R7","2018/05/21 09:09:18","新北市新莊區八德街115號","121.424083333333","25.0207616666667","6500500","新莊區"
"242052","751-BX","2018/05/21 09:09:22","新北市新莊區西盛街380號","121.427925","25.0130566666667","6500500","新莊區"
"242026","615-BX","2018/05/21 09:09:15","新北市新莊區幸福路20號","121.45894","25.0494933333333","6500500","新莊區"
"242024","613-BX","2018/05/21 09:09:21","新北市新莊區五工一路80巷1號","121.461953333333","25.067455","6500500","新莊區"
"242028","612-BX","2018/05/21 09:09:02","新北市新莊區昌隆街3巷1弄2號","121.454216666667","25.05136","6500500","新莊區"
"242040","566-BX","2018/05/21 09:09:04","新北市新莊區壽山路49號","121.41448","25.03115","6500500","新莊區"
"242049","441-UM","2018/05/21 09:09:04","新北市新莊區民安西路265號","121.426165","25.0129833333333","6500500","新莊區"
"242055","440-UM","2018/05/21 09:09:22","新北市新莊區新豐街56號","121.446873333333","25.0338466666667","6500500","新莊區"
"242035","415-TV","2018/05/21 09:09:16","新北市新莊區建安街7號","121.428866666667","25.0266116666667","6500500","新莊區"
"242022","362-BY","2018/05/21 09:09:23","新北市新莊區化成路750-2號","121.465531666667","25.0578583333333","6500500","新莊區"
"242059","353-BY","2018/05/21 09:09:22","新北市新莊區瓊林路瓊英巷9號","121.443371666667","25.0275416666667","6500500","新莊區"
"242008","132-UY","2018/05/21 09:09:08","新北市新莊區昌隆街94號","121.45614","25.0507283333333","6500500","新莊區"
"242038","133-UY","2018/05/21 09:09:20","新北市新莊區龍安路435號","121.424061666667","25.0187283333333","6500500","新莊區"
"242030","135-UY","2018/05/21 09:09:15","新北市新莊區中正路354號","121.443915","25.03443","6500500","新莊區"
"242047","172-VK","2018/05/21 09:09:06","新北市新莊區萬安街149巷23弄1號","121.421351666667","25.0211966666667","6500500","新莊區"
"242010","173-VK","2018/05/21 09:01:03","新北市新莊區中港路531巷116號","121.449885","25.0517283333333","6500500","新莊區"
"242016","175-VK","2018/05/21 09:09:11","新北市泰山區新五路一段89號","121.441275","25.060495","6500500","新莊區"
"242003","176-VK","2018/05/21 09:09:16","新北市新莊區頭前路88-1號","121.464411666667","25.0525283333333","6500500","新莊區"
"242014","346-TH","2018/05/21 09:09:21","新北市新莊區永樂街255號","121.44559","25.0442433333333","6500500","新莊區"
"242020","348-TH","2018/05/21 09:09:15","新北市新莊區新泰路259號","121.446056666667","25.0399383333333","6500500","新莊區"
"242018","350-TH","2018/05/21 09:09:19","新北市新莊區銘德街5號","121.459191666667","25.0436783333333","6500500","新莊區"
"242012","351-TH","2018/05/21 09:09:06","新北市新莊區中和街155巷24弄81號","121.446328333333","25.0514566666667","6500500","新莊區"
"242001","KEA-2550","2018/05/21 09:09:20","新北市新莊區中正路36號","121.464933333333","25.04165","6500500","新莊區"
"242043","281-VK","2018/05/21 09:09:02","桃園市龜山區萬壽路一段21巷10號","121.410563333333","25.020315","6500500","新莊區"
"242045","280-VK","2018/05/21 09:09:02","新北市新莊區裕民街126號","121.418043333333","25.02245","6500500","新莊區"
