"lineid","car","time","location","longitude","latitude","cityid","cityname"
"234044","148-BY","2018/05/21 12:59:22","新北市永和區得和路373巷16弄1號","121.525113333333","25.0003816666667","6500400","永和區"
"234005","207-UY","2018/05/21 12:59:07","新北市永和區永和路二段32號","121.51477","25.0106183333333","6500400","永和區"
"234078","298-R6","2018/05/21 12:59:19","新北市永和區永亨路83號","121.522016666667","25.005735","6500400","永和區"
"234036","336-UY","2018/05/21 12:59:25","新北市中和區秀朗路三段38號","121.526446666667","24.9959566666667","6500400","永和區"
"234062","337-UY","2018/05/21 12:59:22","新北市永和區秀朗路一段156號","121.51832","25.00337","6500400","永和區"
"234084","338-UY","2018/05/21 12:59:04","新北市永和區中正路397號","121.517216666667","25.0041383333333","6500400","永和區"
"234068","552-UM","2018/05/21 12:59:09","新北市永和區中興街84巷1號","121.518578333333","25.0119066666667","6500400","永和區"
"234015","745-BX","2018/05/21 12:59:12","新北市永和區永和路二段297號","121.515948333333","25.0160583333333","6500400","永和區"
"234028","746-BX","2018/05/21 12:59:23","新北市永和區秀朗路二段274號","121.525991666667","24.9979566666667","6500400","永和區"
"234052","KEA-2590","2018/05/21 12:59:13","新北市永和區竹林路64號","121.518236666667","25.0135233333333","6500400","永和區"
"234012","KEA-2591","2018/05/21 12:59:08","新北市永和區信義路17巷9弄1號","121.513956666667","25.0116533333333","6500400","永和區"
"234060","AAD-866","2018/05/21 12:59:21","新北市永和區福和路297號","121.51656","25.0071483333333","6500400","永和區"
"234040","862-TW","2018/05/21 12:59:19","新北市永和區永貞路320號","121.511561666667","25.0050416666667","6500400","永和區"
"234048","863-TW","2018/05/21 12:59:09","新北市永和區文化路194號","121.51083","25.0163116666667","6500400","永和區"
"234025","9371-KE","2018/05/21 12:59:26","新北市永和區永和路一段64號","121.512996666667","25.0059583333333","6500400","永和區"
"234010","9373-KE","2018/05/21 12:59:08","新北市永和區文化路113巷25號","121.513216666667","25.0139666666667","6500400","永和區"
"248015","026-BX","2018/05/21 12:58:51","新北市五股區中興路二段83巷26-6號","121.459973333333","25.0752966666667","6501500","五股區"
"248005","077-UY","2018/05/21 12:59:17","新北市五股區中興路二段37巷28號","121.460115","25.074995","6501500","五股區"
"248007","095-VK","2018/05/21 12:59:13","新北市五股區更洲路18號","121.45825","25.0788983333333","6501500","五股區"
"248019","225-UY","2018/05/21 12:59:19","新北市五股區中興路二段83巷26-3號","121.460161666667","25.07528","6501500","五股區"
"248011","247-BX","2018/05/21 12:59:07","新北市五股區中興路二段83巷26-6號","121.460118333333","25.07515","6501500","五股區"
"248013","261-SL","2018/05/21 12:59:17","新北市五股區更洲路47號","121.456853333333","25.0790133333333","6501500","五股區"
"248003","677-BX","2018/05/21 12:59:16","新北市五股區中興路二段103巷14號","121.45886","25.0766883333333","6501500","五股區"
"248001","678-BX","2018/05/21 12:59:17","新北市五股區中興路二段83巷26-6號","121.459925","25.0751133333333","6501500","五股區"
"248009","682-TV","2018/05/21 12:59:05","新北市五股區中興路二段37巷24號","121.460645","25.0749133333333","6501500","五股區"
"234022","9380-KE","2018/05/21 12:59:19","新北市永和區竹林路91巷70號","121.521978333333","25.01352","6500400","永和區"
"234076","969-R7","2018/05/21 12:59:21","新北市永和區智光街126號","121.515051666667","24.995625","6500400","永和區"
"234072","AAC-211","2018/05/21 12:59:15","新北市永和區環河東路二段100號","121.524116666667","25.0103183333333","6500400","永和區"
"234066","AAC-212","2018/05/21 12:59:14","新北市永和區自由街49號","121.514026666667","25.00584","6500400","永和區"
"234001","AAC-295","2018/05/21 12:59:18","新北市永和區永平路9號","121.513525","25.0087816666667","6500400","永和區"
"244001","248-BX","2018/05/21 12:59:12","新北市林口區粉寮路一段147號","121.399176666667","25.081305","6501700","林口區"
"243005","AAD-798","2018/05/21 12:34:19","新北市泰山區黎明路25號","121.422066666667","25.06077","6501600","泰山區"
"231027","0291-UT","2018/05/21 12:59:10","新北市新店區安華路1-1號","121.519273333333","24.9605516666667","6500600","新店區"
"231028","046-UY","2018/05/21 12:59:15","新北市新店區安華路28-1號","121.519576666667","24.9608733333333","6500600","新店區"
"231001","047-UY","2018/05/21 12:59:10","新北市新店區安華路28-1號","121.519291666667","24.9609266666667","6500600","新店區"
"231005","106-UY","2018/05/21 12:59:15","新北市新店區安華路28-1號","121.519655","24.9609116666667","6500600","新店區"
"231010","107-UY","2018/05/21 12:59:23","新北市新店區安一路一段1-1號","121.51951","24.9612933333333","6500600","新店區"
"231019","108-UY","2018/05/21 12:59:09","新北市新店區安一路一段1-1號","121.519708333333","24.96147","6500600","新店區"
"231011","187-VK","2018/05/21 12:59:27","新北市新店區安一路一段1-1號","121.519621666667","24.9612983333333","6500600","新店區"
"231003","268-BY","2018/05/21 12:59:16","新北市新店區安華路28-1號","121.519345","24.960685","6500600","新店區"
"231018","278-BY","2018/05/21 12:59:13","新北市新店區安華路28-1號","121.519668333333","24.9610183333333","6500600","新店區"
"231037","4716-K9","2018/05/21 12:59:11","新北市新店區安一路一段1-1號","121.519378333333","24.9612433333333","6500600","新店區"
"231025","4715-K9","2018/05/21 12:59:15","新北市新店區安華路1-1號","121.519168333333","24.96048","6500600","新店區"
"231036","512-UM","2018/05/21 12:59:13","新北市新店區安一路一段1-1號","121.519288333333","24.96129","6500600","新店區"
"231013","513-UM","2018/05/21 12:59:25","新北市新店區安一路一段1-1號","121.519676666667","24.9612416666667","6500600","新店區"
"231034","616-UM","2018/05/21 12:59:18","新北市新店區安華路1-1號","121.519478333333","24.9604733333333","6500600","新店區"
"231030","619-UM","2018/05/21 12:59:15","新北市新店區安華路28-1號","121.519435","24.9606116666667","6500600","新店區"
"231035","719-UY","2018/05/21 12:59:07","新北市新店區安華路28-1號","121.519603333333","24.9610283333333","6500600","新店區"
"231031","720-UM","2018/05/21 12:59:19","新北市新店區安一路一段1-1號","121.519331666667","24.96115","6500600","新店區"
"231029","897-TW","2018/05/21 12:59:11","新北市新店區安華路28-1號","121.519445","24.96076","6500600","新店區"
"231006","898-TW","2018/05/21 12:59:10","新北市新店區安華路28-1號","121.519285","24.9608566666667","6500600","新店區"
"231004","899-TW","2018/05/21 12:59:08","新北市新店區安華路28-1號","121.519051666667","24.960905","6500600","新店區"
"231024","AKT-0513","2018/05/21 12:59:14","新北市新店區安華路28-1號","121.519355","24.9605633333333","6500600","新店區"
"235028","005-UY","2018/05/21 12:59:19","新北市中和區員山路36巷16-3號","121.485006666667","24.9912633333333","6500300","中和區"
"235027","006-UY","2018/05/21 12:59:21","新北市中和區員山路36巷16-3號","121.485108333333","24.9913316666667","6500300","中和區"
"235029","098-UM","2018/05/21 12:59:21","新北市中和區板南路399巷10號","121.493045","24.99831","6500300","中和區"
"235022","151-BY","2018/05/21 12:59:18","新北市中和區圓通路367巷2號","121.491305","24.9894266666667","6500300","中和區"
"235002","185-VK","2018/05/21 12:59:11","新北市中和區景平路353號","121.504728333333","24.99355","6500300","中和區"
"235031","255-BX","2018/05/21 12:59:24","新北市中和區新生街13巷3-1號","121.483496666667","25.0043033333333","6500300","中和區"
"235001","611-BX","2018/05/21 12:59:14","新北市中和區中山路三段120-13號","121.474491666667","25.0091233333333","6500300","中和區"
"235035","783-BX","2018/05/21 12:59:15","新北市中和區中正路746號","121.485656666667","24.9982616666667","6500300","中和區"
"235017","900-TW","2018/05/21 12:59:12","新北市中和區員山路36巷16號","121.484656666667","24.9917083333333","6500300","中和區"
"235030","911-UM","2018/05/21 12:59:19","新北市中和區中正路637巷52弄1號","121.485543333333","24.99345","6500300","中和區"
"235015","157-BY","2018/05/21 12:59:13","新北市中和區員山路36巷13號","121.484143333333","24.9908583333333","6500300","中和區"
"235001","AAC-213","2018/05/21 12:59:14","新北市中和區中正路254號","121.49555","24.9939233333333","6500300","中和區"
"207002","749-BX","2018/05/21 12:59:11","新北市萬里區雙興里大坪路37-4號","121.629086666667","25.1695416666667","6502800","萬里區"
"252005","073-UM","2018/05/21 12:59:18","新北市三芝區埔坪里埔頭坑107號","121.504628333333","25.26173","6502100","三芝區"
"207001","662-BX","2018/05/21 12:59:07","新北市萬里區萬里里獅頭路23號","121.693256666667","25.1780183333333","6502800","萬里區"
"236005","498-BY","2018/05/21 12:59:08","新北市土城區亞洲路36號","121.435988333333","24.974095","6501300","土城區"
"242047","172-VK","2018/05/21 12:59:17","新北市新莊區裕民街123號","121.41798","25.020985","6500500","新莊區"
"221032","280-BY","2018/05/21 12:59:21","新北市汐止區建成路62號","121.663331666667","25.0730133333333","6501100","汐止區"
"235032","KEA-2873","2018/05/21 12:59:09","新北市中和區員山路36巷16-3號","121.485146666667","24.9912816666667","6500300","中和區"
