"lineid","car","time","location","longitude","latitude","cityid","cityname"
"234044","148-BY","2018/05/21 13:39:02","新北市永和區永利路101號","121.523056666667","25.0027116666667","6500400","永和區"
"234005","207-UY","2018/05/21 13:39:07","新北市永和區中山路一段85號","121.512095","25.010795","6500400","永和區"
"234078","298-R6","2018/05/21 13:39:08","新北市永和區國中路104巷8弄9號","121.524995","25.006705","6500400","永和區"
"234036","336-UY","2018/05/21 13:39:20","新北市永和區民樂街31巷10弄1號","121.52811","25.0008816666667","6500400","永和區"
"234062","337-UY","2018/05/21 13:39:02","新北市永和區秀朗路二段24巷37號","121.520043333333","25.001935","6500400","永和區"
"234084","338-UY","2018/05/21 13:39:04","新北市永和區成功路一段38巷12號","121.526328333333","25.00455","6500400","永和區"
"234068","552-UM","2018/05/21 13:39:09","新北市永和區永和路二段234號","121.515731666667","25.01442","6500400","永和區"
"234015","745-BX","2018/05/21 13:39:12","新北市永和區文化路90巷32弄7號","121.513416666667","25.0168816666667","6500400","永和區"
"234028","746-BX","2018/05/21 13:39:03","新北市永和區民權路29巷11號","121.520756666667","24.9979566666667","6500400","永和區"
"234052","KEA-2590","2018/05/21 13:39:13","新北市永和區竹林路37號","121.51786","25.014205","6500400","永和區"
"234012","KEA-2591","2018/05/21 13:39:08","新北市永和區永平路246號","121.508595","25.0110316666667","6500400","永和區"
"234060","AAD-866","2018/05/21 13:39:21","新北市永和區中正路446號","121.517426666667","25.0029016666667","6500400","永和區"
"234040","862-TW","2018/05/21 13:39:19","新北市永和區永貞路267號","121.511801666667","25.0047566666667","6500400","永和區"
"234048","863-TW","2018/05/21 13:39:09","新北市永和區文化路165號","121.510086666667","25.0164516666667","6500400","永和區"
"234025","9371-KE","2018/05/21 13:39:05","新北市永和區和平街95巷19號","121.511196666667","25.0091383333333","6500400","永和區"
"234010","9373-KE","2018/05/21 13:39:08","新北市永和區保福路二段20號","121.511006666667","25.0114816666667","6500400","永和區"
"248015","026-BX","2018/05/21 13:39:11","新北市五股區凌雲路一段133巷32號","121.448795","25.1011966666667","6501500","五股區"
"248005","077-UY","2018/05/21 13:39:17","新北市五股區中興路一段2號","121.469706666667","25.072475","6501500","五股區"
"248007","095-VK","2018/05/21 13:39:13","新北市五股區中興路一段150巷21號","121.464675","25.0746216666667","6501500","五股區"
"248019","225-UY","2018/05/21 13:39:19","新北市五股區孝義路87號","121.443973333333","25.1196566666667","6501500","五股區"
"248011","247-BX","2018/05/21 13:39:07","新北市五股區御史路2號","121.442296666667","25.090145","6501500","五股區"
"248013","261-SL","2018/05/21 13:39:17","新北市五股區民義路一段101-3號","121.434021666667","25.08625","6501500","五股區"
"248003","677-BX","2018/05/21 13:39:15","新北市五股區民義路一段283號","121.425733333333","25.0928083333333","6501500","五股區"
"248001","678-BX","2018/05/21 13:39:17","新北市五股區西雲路221號","121.448816666667","25.0969466666667","6501500","五股區"
"248009","682-TV","2018/05/21 13:39:05","新北市五股區水碓七路168號","121.430968333333","25.074025","6501500","五股區"
"234022","9380-KE","2018/05/21 13:39:10","新北市永和區環河東路一段108號","121.52042","25.0160083333333","6500400","永和區"
"234076","969-R7","2018/05/21 13:39:01","新北市永和區得和路245號","121.520435","25.00015","6500400","永和區"
"234072","AAC-211","2018/05/21 13:39:15","新北市永和區豫溪街160巷17號","121.523375","25.009135","6500400","永和區"
"234066","AAC-212","2018/05/21 13:39:14","新北市永和區中山路一段170號","121.509343333333","25.0090966666667","6500400","永和區"
"234001","AAC-295","2018/05/21 13:39:11","新北市永和區秀朗路一段36號","121.514236666667","25.00664","6500400","永和區"
"244001","248-BX","2018/05/21 13:39:12","新北市林口區嘉寶里42號","121.333453333333","25.1222583333333","6501700","林口區"
"243005","AAD-798","2018/05/21 13:27:46","新北市泰山區明志路三段206巷3號","121.423311666667","25.0379383333333","6501600","泰山區"
"243008","380-SR","2018/05/21 13:39:14","新北市泰山區泰林路537巷13-1號","121.423831666667","25.0615616666667","6501600","泰山區"
"243003","KEA-2215","2018/05/21 13:39:08","新北市泰山區黎明路25號","121.42227","25.060695","6501600","泰山區"
"243004","646-TV","2018/05/21 13:39:19","新北市泰山區福興三街13號","121.43445","25.0578083333333","6501600","泰山區"
"231002","002-UM","2018/05/21 13:39:01","新北市新店區中央三街127號","121.524048333333","24.976845","6500600","新店區"
"231027","0291-UT","2018/05/21 13:39:10","新北市新店區北宜路一段170號","121.540668333333","24.9530516666667","6500600","新店區"
"231028","046-UY","2018/05/21 13:39:15","新北市新店區安和路一段52巷2-1號","121.517648333333","24.966365","6500600","新店區"
"231001","047-UY","2018/05/21 13:39:10","新北市新店區中正路397號","121.534576666667","24.9773133333333","6500600","新店區"
"231005","106-UY","2018/05/21 13:39:15","新北市新店區寶中路72號","121.547928333333","24.9806333333333","6500600","新店區"
"231010","107-UY","2018/05/21 13:39:16","新北市新店區中正路326號","121.536875","24.9748916666667","6500600","新店區"
"231019","108-UY","2018/05/21 13:39:10","新北市新店區永興路132號","121.544035","24.93174","6500600","新店區"
"231011","187-VK","2018/05/21 13:39:13","新北市新店區德正街25巷2號","121.544358333333","24.97159","6500600","新店區"
"231023","KEA-2219","2018/05/21 13:39:00","新北市新店區新店路140號","121.537201666667","24.9552183333333","6500600","新店區"
"231026","256-BX","2018/05/21 13:39:10","新北市新店區北新路一段311號","121.541571666667","24.9679566666667","6500600","新店區"
"231003","268-BY","2018/05/21 13:39:16","新北市新店區中興路一段285-1號","121.545548333333","24.9686233333333","6500600","新店區"
"231018","278-BY","2018/05/21 13:39:14","新北市新店區百忍街42巷1號","121.533548333333","24.9758816666667","6500600","新店區"
"231014","AAD-862","2018/05/21 13:39:16","新北市新店區竹林路2巷29弄1號","121.550025","24.9505316666667","6500600","新店區"
"231038","3712-VJ","2018/05/21 13:39:15","新北市新店區安華路30巷1號","121.519605","24.95928","6500600","新店區"
"231037","4716-K9","2018/05/21 13:39:11","新北市新店區薏仁坑路25號","121.496321666667","24.96008","6500600","新店區"
"231025","4715-K9","2018/05/21 13:39:16","新北市新店區中央五街55號","121.52786","24.9755266666667","6500600","新店區"
"231036","512-UM","2018/05/21 13:39:13","新北市新店區安祥路147巷33號","121.476651666667","24.9568266666667","6500600","新店區"
"231013","513-UM","2018/05/21 13:39:14","新北市新店區中正路454-5號","121.534521666667","24.9790516666667","6500600","新店區"
"231034","616-UM","2018/05/21 13:38:58","新北市新店區車子路110號","121.505243333333","24.95206","6500600","新店區"
"231030","619-UM","2018/05/21 13:39:20","新北市新店區安康路一段238號","121.522073333333","24.9637666666667","6500600","新店區"
"231035","719-UY","2018/05/21 13:39:06","新北市新店區安忠路56巷6號","121.512953333333","24.959445","6500600","新店區"
"231031","720-UM","2018/05/21 13:38:59","新北市新店區安康路一段228號","121.523258333333","24.9636483333333","6500600","新店區"
"231029","897-TW","2018/05/21 13:39:11","新北市新店區車子路1-1號","121.504516666667","24.9579133333333","6500600","新店區"
"231006","898-TW","2018/05/21 13:39:10","新北市新店區北宜路一段66號","121.538498333333","24.9558983333333","6500600","新店區"
"231004","899-TW","2018/05/21 13:39:08","新北市新店區北新路二段18號","121.542748333333","24.97131","6500600","新店區"
"231024","AKT-0513","2018/05/21 13:39:14","新北市新店區北新路一段271巷31-1號","121.539831666667","24.967115","6500600","新店區"
"235028","005-UY","2018/05/21 13:39:19","新北市中和區連城路109巷1號","121.496515","24.9992966666667","6500300","中和區"
"235027","006-UY","2018/05/21 13:39:21","新北市中和區連城路403巷1號","121.48626","24.9959233333333","6500300","中和區"
"235011","031-BX","2018/05/21 13:39:21","新北市中和區南山路322號","121.507993333333","24.9865016666667","6500300","中和區"
"235020","096-UM","2018/05/21 13:39:05","新北市中和區員山路466巷25號","121.481268333333","25.0065133333333","6500300","中和區"
"235003","097-UM","2018/05/21 13:39:17","新北市中和區大勇街25巷29弄2號","121.51525","24.9940183333333","6500300","中和區"
"235029","098-UM","2018/05/21 13:39:21","新北市中和區莊敬路33巷48號","121.500481666667","25.00704","6500300","中和區"
"235004","150-BY","2018/05/21 13:39:18","新北市中和區安平路59號","121.509441666667","24.995135","6500300","中和區"
"235022","151-BY","2018/05/21 13:39:18","新北市中和區圓通路369巷36-1號","121.490821666667","24.9845666666667","6500300","中和區"
"235019","183-VK","2018/05/21 13:39:09","新北市中和區莒光路120巷11號","121.471628333333","25.00172","6500300","中和區"
"235002","185-VK","2018/05/21 13:39:11","新北市中和區自強路60號","121.51983","24.9945666666667","6500300","中和區"
"235013","186-VK","2018/05/21 13:39:17","新北市中和區景平路490號","121.504943333333","24.99381","6500300","中和區"
"235031","255-BX","2018/05/21 13:39:04","新北市中和區新生街186巷5弄27號","121.482925","24.9986783333333","6500300","中和區"
"235008","293-VK","2018/05/21 13:39:08","新北市中和區復興路274巷12號","121.502861666667","24.9908816666667","6500300","中和區"
"235036","301-VK","2018/05/21 13:39:19","新北市中和區連城路2號","121.499218333333","25.002375","6500300","中和區"
"235007","352-BY","2018/05/21 13:39:05","新北市中和區景平路161號","121.512483333333","24.9924","6500300","中和區"
"235025","378-QA","2018/05/21 13:39:15","新北市中和區民享街92巷6號","121.474708333333","24.9999466666667","6500300","中和區"
"235014","4979-A6","2018/05/21 13:39:11","新北市中和區景新街496巷28弄12號","121.513005","24.985975","6500300","中和區"
"235033","4980-A6","2018/05/21 13:39:06","新北市中和區連城路97號","121.496546666667","24.9997666666667","6500300","中和區"
"235006","551-UM","2018/05/21 13:39:20","新北市中和區成功路97巷7號","121.526533333333","24.99182","6500300","中和區"
"235034","558-UM","2018/05/21 13:39:15","新北市中和區南華路17-2號","121.502688333333","24.99566","6500300","中和區"
"235009","565-BX","2018/05/21 13:39:08","新北市中和區南山路236巷63弄7號","121.504053333333","24.9877633333333","6500300","中和區"
"235018","640-BX","2018/05/21 13:39:21","新北市中和區民享街32巷20號","121.472928333333","25.0031916666667","6500300","中和區"
"235024","647-TV","2018/05/21 13:39:19","新北市中和區中山路二段525號","121.481585","25.0053033333333","6500300","中和區"
"235035","783-BX","2018/05/21 13:39:15","新北市中和區永和路356巷51號","121.487158333333","25.0145583333333","6500300","中和區"
"235026","800-TS","2018/05/21 13:39:17","新北市中和區中山路二段312巷33弄10號","121.49498","25.0038016666667","6500300","中和區"
"235021","801-TS","2018/05/21 13:39:09","新北市中和區員山路327巷52號","121.480236666667","25.0018116666667","6500300","中和區"
"235005","802-TS","2018/05/21 13:39:06","新北市中和區中安街86號","121.511915","25.00205","6500300","中和區"
"235016","805-TS","2018/05/21 13:39:14","新北市中和區興南路三段52巷2-5號","121.494546666667","24.9759116666667","6500300","中和區"
"235012","896-TW","2018/05/21 13:39:00","新北市中和區中正路79號","121.500806666667","24.99346","6500300","中和區"
"235017","900-TW","2018/05/21 13:39:12","新北市土城區延壽路118-6號","121.469071666667","24.9946916666667","6500300","中和區"
"235030","911-UM","2018/05/21 13:39:19","新北市中和區光華街48號","121.505065","25.0035683333333","6500300","中和區"
"235015","157-BY","2018/05/21 13:39:13","新北市中和區華新街143巷106弄9號","121.506206666667","24.9787983333333","6500300","中和區"
"235001","AAC-213","2018/05/21 13:39:14","新北市中和區景德街3號","121.519033333333","24.9913133333333","6500300","中和區"
"235023","AAC-215","2018/05/21 13:39:07","新北市中和區錦和路354巷15號","121.489355","24.991545","6500300","中和區"
"220016","013-TV","2018/05/21 13:39:15","新北市板橋區民生路二段120號","121.470428333333","25.019535","6500100","板橋區"
"220019","015-TV","2018/05/21 13:39:08","新北市板橋區四川路二段140巷20號","121.44889","24.9935366666667","6500100","板橋區"
"220013","072-UY","2018/05/21 13:39:08","新北市板橋區縣民大道二段106號","121.466836666667","25.0153016666667","6500100","板橋區"
"220034","073-UY","2018/05/21 13:39:13","新北市板橋區華東街262號","121.452648333333","25.0012083333333","6500100","板橋區"
"220017","AAD-861","2018/05/21 13:39:18","新北市板橋區華東街1-10號","121.448725","24.9950033333333","6500100","板橋區"
"247007","056-VK","2018/05/21 13:39:09","新北市五股區四維路171巷12號","121.46735","25.075435","6501400","蘆洲區"
"247019","001-UY","2018/05/21 13:39:13","新北市五股區中興路三段163號","121.448986666667","25.0800033333333","6501400","蘆洲區"
"253003","6232-TK","2018/05/21 13:39:07","新北市石門區中山路62-20號","121.569448333333","25.286175","6502200","石門區"
"253001","6251-TK","2018/05/21 13:39:13","新北市石門區白沙灣別墅33號","121.510686666667","25.27827","6502200","石門區"
"253002","637-UY","2018/05/21 13:39:06","新北市石門區內石門80號","121.565851666667","25.261675","6502200","石門區"
"253004","8270-PC","2018/05/21 13:38:48","新北市石門區五爪崙3號","121.614043333333","25.2571066666667","6502200","石門區"
"207002","749-BX","2018/05/21 13:39:11","新北市萬里區崁腳里崁腳路166號","121.645061666667","25.1558166666667","6502800","萬里區"
"252005","073-UM","2018/05/21 13:39:18","新北市三芝區圓山里內柑宅22-2號","121.536661666667","25.21815","6502100","三芝區"
"207001","662-BX","2018/05/21 13:39:07","新北市萬里區磺潭里公館崙24號","121.634151666667","25.2125366666667","6502800","萬里區"
"236064","105-UM","2018/05/21 13:39:22","新北市土城區城林路6巷80號","121.438636666667","24.9797133333333","6501300","土城區"
"236040","107-UM","2018/05/21 13:39:09","新北市土城區城林路6巷80號","121.43845","24.9797733333333","6501300","土城區"
"236074","166-UM","2018/05/21 13:39:18","新北市土城區中華路二段2號","121.43932","24.9796333333333","6501300","土城區"
"236029","253-BX","2018/05/21 13:39:06","新北市土城區城林路6巷80號","121.438545","24.9798133333333","6501300","土城區"
"236032","271-VK","2018/05/21 13:39:16","新北市土城區城林路6巷80號","121.438511666667","24.97982","6501300","土城區"
"236016","401-BY","2018/05/21 13:39:03","新北市土城區城林路6巷80號","121.438531666667","24.9798466666667","6501300","土城區"
"236005","498-BY","2018/05/21 13:39:08","新北市土城區慶祥街18號","121.437733333333","24.9748616666667","6501300","土城區"
"236060","915-UM","2018/05/21 13:39:08","新北市土城區城林路6巷80號","121.438451666667","24.9797883333333","6501300","土城區"
"242047","172-VK","2018/05/21 13:39:17","新北市新莊區民安西路253號","121.426098333333","25.01346","6500500","新莊區"
"221032","280-BY","2018/05/21 13:39:21","新北市汐止區水源路一段56號","121.65759","25.06559","6501100","汐止區"
"220028","200-UY","2018/05/21 13:39:21","新北市板橋區大觀路二段265巷76弄37號","121.441033333333","24.99674","6500100","板橋區"
"220030","610-BX","2018/05/21 13:39:14","新北市板橋區篤行路一段29號","121.43203","24.9945916666667","6500100","板橋區"
"220043","267-BY","2018/05/21 13:39:18","新北市板橋區民生路二段120號","121.470623333333","25.0198183333333","6500100","板橋區"
"220004","276-BY","2018/05/21 13:39:04","新北市土城區廣興街38號","121.453503333333","24.991465","6500100","板橋區"
"220020","277-BY","2018/05/21 13:39:01","新北市板橋區大觀路二段265巷9-4號","121.442661666667","24.99477","6500100","板橋區"
"220038","280-UM","2018/05/21 13:39:20","新北市板橋區三民路二段253-1號","121.479008333333","25.0116416666667","6500100","板橋區"
"220001","285-VK","2018/05/21 13:39:07","新北市板橋區民生路二段184號","121.471246666667","25.020095","6500100","板橋區"
"220031","286-VK","2018/05/21 13:39:07","新北市板橋區大觀路二段153巷44弄5號","121.446598333333","24.9993883333333","6500100","板橋區"
"220029","287-VK","2018/05/21 13:39:04","新北市板橋區大觀路二段111號","121.44614","25.0016666666667","6500100","板橋區"
"220009","293-UM","2018/05/21 13:39:19","新北市板橋區民生路二段56-6號","121.471143333333","25.0189633333333","6500100","板橋區"
"220032","296-UM","2018/05/21 13:39:19","新北市板橋區大觀路二段152號","121.441703333333","24.9988933333333","6500100","板橋區"
"220023","303-R5","2018/05/21 13:39:19","新北市板橋區南雅西路一段63巷2號","121.45213","25.0075733333333","6500100","板橋區"
"220010","305-R5","2018/05/21 13:39:20","新北市板橋區民生路二段120號","121.470363333333","25.019815","6500100","板橋區"
"220012","486-VK","2018/05/21 13:39:16","新北市板橋區縣民大道二段82號","121.465805","25.0145433333333","6500100","板橋區"
"220104","560-BX","2018/05/21 13:39:04","新北市板橋區南雅西路二段145巷6號","121.451618333333","25.01189","6500100","板橋區"
"220027","568-UM","2018/05/21 13:39:09","新北市板橋區林園街54號","121.453976666667","25.0106333333333","6500100","板橋區"
"220011","609-BX","2018/05/21 13:39:04","新北市板橋區民生路二段188號","121.470165","25.02032","6500100","板橋區"
"220022","630-UY","2018/05/21 13:39:13","新北市板橋區南雅南路一段129號","121.45514","25.004615","6500100","板橋區"
"220005","686-BX","2018/05/21 13:39:21","新北市板橋區華東街1-9號","121.448211666667","24.99488","6500100","板橋區"
"220025","687-BX","2018/05/21 13:39:17","新北市板橋區溪崑一街11-3號","121.430845","24.99235","6500100","板橋區"
"220002","741-BX","2018/05/21 13:39:16","新北市板橋區華東街1-9號","121.448083333333","24.99492","6500100","板橋區"
"220003","827-TW","2018/05/21 13:39:09","新北市板橋區華東街1-9號","121.448178333333","24.9949366666667","6500100","板橋區"
"220014","829-TW","2018/05/21 13:39:19","新北市板橋區民生路二段120號","121.47065","25.0199183333333","6500100","板橋區"
"220021","985-R7","2018/05/21 13:39:10","新北市板橋區南雅南路二段100號","121.453605","25.0011883333333","6500100","板橋區"
"220018","AAC-253","2018/05/21 13:39:19","新北市板橋區大觀路二段266號","121.449688333333","24.996895","6500100","板橋區"
"235032","KEA-2873","2018/05/21 13:38:55","新北市中和區中正路211巷31號","121.497908333333","24.9926716666667","6500300","中和區"
