"lineid","car","time","location","longitude","latitude","cityid","cityname"
"248015","026-BX","2018/05/21 15:09:11","新北市五股區凌雲路一段158巷39弄2號","121.446781666667","25.1037966666667","6501500","五股區"
"248007","095-VK","2018/05/21 15:09:13","新北市三重區中正北路560巷37弄19號","121.469846666667","25.070975","6501500","五股區"
"248019","225-UY","2018/05/21 15:09:02","新北市五股區凌雲路三段24巷20號","121.434355","25.1066666666667","6501500","五股區"
"248003","677-BX","2018/05/21 15:09:15","新北市五股區成泰路一段132號","121.435098333333","25.0755566666667","6501500","五股區"
"244001","248-BX","2018/05/21 15:09:13","新北市林口區林口路76號","121.389696666667","25.0806933333333","6501700","林口區"
"243001","297-R6","2018/05/21 15:09:00","新北市泰山區忠孝街40巷1號","121.428526666667","25.065425","6501600","泰山區"
"243008","380-SR","2018/05/21 15:09:14","新北市泰山區新生路53-1號","121.428223333333","25.0449516666667","6501600","泰山區"
"243007","421-VK","2018/05/21 15:09:07","新北市泰山區泰林路二段180號","121.433716666667","25.0607066666667","6501600","泰山區"
"243002","KEA-2216","2018/05/21 15:09:04","新北市泰山區泰林路二段607巷1-7號","121.421166666667","25.063855","6501600","泰山區"
"243004","646-TV","2018/05/21 15:09:19","新北市泰山區忠孝街17巷2號","121.427561666667","25.0653916666667","6501600","泰山區"
"243006","680-BX","2018/05/21 15:09:14","新北市泰山區泰林路二段2-4號","121.419566666667","25.06514","6501600","泰山區"
"231002","002-UM","2018/05/21 15:09:01","新北市新店區中正路539-5號","121.53351","24.986665","6500600","新店區"
"231028","046-UY","2018/05/21 15:09:15","新北市新店區僑信路92號","121.499851666667","24.9477766666667","6500600","新店區"
"231001","047-UY","2018/05/21 15:09:11","新北市新店區中正路234號","121.539811666667","24.9729183333333","6500600","新店區"
"231005","106-UY","2018/05/21 15:09:15","新北市新店區北新路三段190號","121.541545","24.9831883333333","6500600","新店區"
"231019","108-UY","2018/05/21 15:09:10","新北市新店區永福路54-2號","121.558216666667","24.9287433333333","6500600","新店區"
"231011","187-VK","2018/05/21 15:09:07","新北市新店區寶元路一段65號","121.542238333333","24.9858233333333","6500600","新店區"
"231023","KEA-2219","2018/05/21 15:09:00","新北市新店區檳榔路109號","121.544588333333","24.96163","6500600","新店區"
"231026","256-BX","2018/05/21 15:09:08","新北市新店區建安街18號","121.539886666667","24.975465","6500600","新店區"
"231003","268-BY","2018/05/21 15:09:16","新北市新店區寶橋路138號","121.547658333333","24.9764183333333","6500600","新店區"
"231018","278-BY","2018/05/21 15:09:14","新北市新店區中央六街111號","121.525405","24.9774316666667","6500600","新店區"
"231014","AAD-862","2018/05/21 15:09:16","新北市新店區明山路45號","121.563908333333","24.9557766666667","6500600","新店區"
"231038","3712-VJ","2018/05/21 15:09:15","新北市新店區安華路28-1號","121.519618333333","24.9609633333333","6500600","新店區"
"231037","4716-K9","2018/05/21 15:09:11","新北市新店區安民街341-1號","121.51663","24.9749716666667","6500600","新店區"
"231025","4715-K9","2018/05/21 15:09:16","新北市新店區二十張路46巷37弄41號","121.535618333333","24.9812566666667","6500600","新店區"
"231036","512-UM","2018/05/21 15:09:13","新北市新店區安祥路102巷46弄79號","121.487121666667","24.9634833333333","6500600","新店區"
"231034","616-UM","2018/05/21 15:09:18","新北市新店區玫瑰路4-1號","121.493623333333","24.95141","6500600","新店區"
"231039","718-UY","2018/05/21 15:09:16","新北市新店區中興路三段226號","121.543363333333","24.983155","6500600","新店區"
"231035","719-UY","2018/05/21 15:09:06","新北市新店區永安街56巷6-4號","121.518308333333","24.9861966666667","6500600","新店區"
"231031","720-UM","2018/05/21 15:08:59","新北市新店區安泰路103號","121.486336666667","24.9440433333333","6500600","新店區"
"231029","897-TW","2018/05/21 15:09:10","新北市新店區安康路三段738號","121.473825","24.942035","6500600","新店區"
"231006","898-TW","2018/05/21 15:09:10","新北市新店區新坡一街18巷5弄8-1號","121.550738333333","24.9618416666667","6500600","新店區"
"231004","899-TW","2018/05/21 15:09:08","新北市新店區建國路51號","121.540565","24.97568","6500600","新店區"
"231024","AKT-0513","2018/05/21 15:09:14","新北市新店區中華路42巷10號","121.540381666667","24.968435","6500600","新店區"
"235003","097-UM","2018/05/21 15:09:17","新北市中和區宜安路52巷12號","121.512323333333","24.9971033333333","6500300","中和區"
"235029","098-UM","2018/05/21 15:09:21","新北市中和區永和路69-1號","121.496308333333","25.0055733333333","6500300","中和區"
"235007","352-BY","2018/05/21 15:09:05","新北市中和區興南路二段159巷1號","121.505171666667","24.9832733333333","6500300","中和區"
"235014","4979-A6","2018/05/21 15:09:11","新北市中和區景新街323-3號","121.51134","24.99208","6500300","中和區"
"235033","4980-A6","2018/05/21 15:09:17","新北市中和區景新街64巷5號","121.504053333333","24.998625","6500300","中和區"
"235034","558-UM","2018/05/21 15:09:19","新北市中和區圓通路200號","121.496196666667","24.9942316666667","6500300","中和區"
"235035","783-BX","2018/05/21 15:09:15","新北市中和區立德街321號","121.482086666667","25.0104483333333","6500300","中和區"
"235012","896-TW","2018/05/21 15:09:20","新北市中和區興南路一段146號","121.50845","24.9870416666667","6500300","中和區"
"235030","911-UM","2018/05/21 15:09:19","新北市中和區水源路127巷2弄2號","121.508093333333","25.004","6500300","中和區"
"235001","AAC-213","2018/05/21 15:09:14","新北市中和區秀朗路三段175巷2號","121.524576666667","24.99118","6500300","中和區"
"235023","AAC-215","2018/05/21 15:09:07","新北市中和區圓通路367巷13弄39號","121.493526666667","24.9879016666667","6500300","中和區"
"220016","013-TV","2018/05/21 15:09:15","新北市板橋區中山路二段398號","121.482625","25.0206766666667","6500100","板橋區"
"220105","075-UY","2018/05/21 15:09:07","新北市板橋區民治街52巷5弄10號","121.479546666667","25.0328833333333","6500100","板橋區"
"220017","AAD-861","2018/05/21 15:09:18","新北市板橋區大明街25巷2弄17號","121.457555","25.00252","6500100","板橋區"
"253003","6232-TK","2018/05/21 15:09:07","新北市石門區小坑9號","121.594485","25.289155","6502200","石門區"
"253001","6251-TK","2018/05/21 15:09:10","新北市石門區崁子腳30-1號","121.536176666667","25.2875916666667","6502200","石門區"
"253002","637-UY","2018/05/21 15:09:06","新北市石門區楓林43號","121.540733333333","25.28211","6502200","石門區"
"253004","8270-PC","2018/05/21 15:09:07","新北市石門區小坑26-1號","121.596188333333","25.2746533333333","6502200","石門區"
"207002","749-BX","2018/05/21 15:09:10","新北市萬里區崁腳里內中福路66號","121.655331666667","25.166845","6502800","萬里區"
"207001","662-BX","2018/05/21 15:09:06","新北市萬里區磺潭里員潭路46號","121.645755","25.1927266666667","6502800","萬里區"
"236064","105-UM","2018/05/21 15:09:02","新北市土城區中央路一段67-3號","121.447711666667","24.989685","6501300","土城區"
"236040","107-UM","2018/05/21 15:09:09","新北市土城區裕民路252號","121.454478333333","24.9830616666667","6501300","土城區"
"236074","166-UM","2018/05/21 15:09:15","新北市土城區中州路3巷43號","121.413348333333","24.9563183333333","6501300","土城區"
"236029","253-BX","2018/05/21 15:09:16","新北市土城區中央路二段48號","121.44239","24.9796383333333","6501300","土城區"
"236024","269-VK","2018/05/21 15:09:06","新北市土城區中正路31號","121.443616666667","24.9754466666667","6501300","土城區"
"236012","270-VK","2018/05/21 15:09:03","新北市土城區學府路一段73號","121.456946666667","24.9881633333333","6501300","土城區"
"236032","271-VK","2018/05/21 15:09:16","新北市土城區仁愛路20-1號","121.460966666667","24.9801483333333","6501300","土城區"
"236016","401-BY","2018/05/21 15:09:03","新北市土城區延吉街185號","121.469211666667","24.985505","6501300","土城區"
"236057","912-UM","2018/05/21 15:09:06","新北市土城區金城路一段51號","121.441196666667","24.9697383333333","6501300","土城區"
"236045","913-UM","2018/05/21 15:09:01","新北市土城區清水路157號","121.458668333333","24.9815783333333","6501300","土城區"
"236054","AAC-216","2018/05/21 15:09:11","新北市土城區學府路一段203號","121.451823333333","24.9846783333333","6501300","土城區"
"238002","755-BX","2018/05/21 15:09:03","新北市樹林區中山路三段125-11號","121.398778333333","24.9738916666667","6500700","樹林區"
"238006","599-UM","2018/05/21 15:09:15","新北市樹林區太平路273巷23號","121.421246666667","24.97643","6500700","樹林區"
"238005","571-TV","2018/05/21 15:09:05","新北市板橋區金門街215巷88號","121.433133333333","24.9846266666667","6500700","樹林區"
"238011","5061-A6","2018/05/21 15:09:18","新北市樹林區仁愛街101號","121.424968333333","24.9834733333333","6500700","樹林區"
"238009","KEA-2213","2018/05/21 15:09:03","新北市樹林區環河路2-2號","121.42523","24.9767083333333","6500700","樹林區"
"238008","KEA-2539","2018/05/21 15:09:01","新北市樹林區西圳街一段165巷20弄11號","121.395691666667","24.9601616666667","6500700","樹林區"
"238012","303-VK","2018/05/21 15:09:04","新北市樹林區中山路一段249號","121.420398333333","24.98644","6500700","樹林區"
"238001","283-BY","2018/05/21 15:09:16","新北市樹林區中山路二段219號","121.402603333333","24.9762333333333","6500700","樹林區"
"238007","268-VK","2018/05/21 15:09:09","新北市板橋區金門街215巷88號","121.432463333333","24.9835933333333","6500700","樹林區"
"238013","172-UY","2018/05/21 15:09:05","新北市樹林區東豐街16號","121.415651666667","24.975555","6500700","樹林區"
"238003","169-UY","2018/05/21 15:09:06","新北市樹林區中山路二段38號","121.417206666667","24.98486","6500700","樹林區"
"220030","610-BX","2018/05/21 15:09:16","新北市板橋區篤行路二段129號","121.431295","24.9904533333333","6500100","板橋區"
"220050","245-BX","2018/05/21 15:08:58","新北市板橋區萬板路190-1號","121.476301666667","25.0240733333333","6500100","板橋區"
"220020","277-BY","2018/05/21 15:09:01","新北市板橋區金門街283號","121.431256666667","24.9879983333333","6500100","板橋區"
"220038","280-UM","2018/05/21 15:09:02","新北市板橋區新海路403巷16號","121.457916666667","25.0264716666667","6500100","板橋區"
"220001","285-VK","2018/05/21 15:09:19","新北市板橋區永豐街87號","121.473645","25.0190383333333","6500100","板橋區"
"220031","286-VK","2018/05/21 15:09:07","新北市板橋區僑中二街102巷21號","121.445255","25.0083516666667","6500100","板橋區"
"220029","287-VK","2018/05/21 15:09:12","新北市板橋區僑中一街102巷5弄10號","121.446343333333","25.0127516666667","6500100","板橋區"
"220009","293-UM","2018/05/21 15:08:59","新北市板橋區中山路一段156號","121.465086666667","25.0116783333333","6500100","板橋區"
"220041","307-R5","2018/05/21 15:09:17","新北市板橋區新海路386號","121.459046666667","25.0262733333333","6500100","板橋區"
"220012","486-VK","2018/05/21 15:09:15","新北市板橋區長安街331巷104-4號","121.471786666667","25.0125733333333","6500100","板橋區"
"220037","491-VK","2018/05/21 15:09:14","新北市板橋區大同街71號","121.479445","25.02811","6500100","板橋區"
"220052","561-BX","2018/05/21 15:09:09","新北市板橋區英士路58巷24號","121.460738333333","25.025535","6500100","板橋區"
"220027","568-UM","2018/05/21 15:09:09","新北市板橋區南雅西路二段209號","121.451236666667","25.0134733333333","6500100","板橋區"
"220011","609-BX","2018/05/21 15:09:18","新北市板橋區中山路二段447號","121.481508333333","25.0201616666667","6500100","板橋區"
"220022","630-UY","2018/05/21 15:09:13","新北市板橋區府中路22號","121.459631666667","25.00966","6500100","板橋區"
"220025","687-BX","2018/05/21 15:09:17","新北市板橋區僑中一街124巷19弄2號","121.446141666667","25.014165","6500100","板橋區"
"220042","689-BX","2018/05/21 15:09:19","新北市板橋區長江路三段120號","121.475143333333","25.0344216666667","6500100","板橋區"
"220051","KEA-2699","2018/05/21 15:09:16","新北市板橋區民治街137號","121.47765","25.0307283333333","6500100","板橋區"
"220003","827-TW","2018/05/21 15:09:08","新北市板橋區國慶路167巷13號","121.46186","24.9970616666667","6500100","板橋區"
"220014","829-TW","2018/05/21 15:09:19","新北市板橋區中山路一段206巷25號","121.470335","25.0131183333333","6500100","板橋區"
"220039","830-TW","2018/05/21 15:09:12","新北市板橋區幸福路32巷42號","121.460631666667","25.0218266666667","6500100","板橋區"
"220021","985-R7","2018/05/21 15:09:10","新北市五股區新五路三段10號","121.443976666667","25.0871033333333","6500100","板橋區"
"220046","AAC-210","2018/05/21 15:09:19","新北市板橋區光正街9巷22弄10號","121.462253333333","25.01656","6500100","板橋區"
"220018","AAC-253","2018/05/21 15:08:59","新北市板橋區成都街69號","121.462386666667","25.005085","6500100","板橋區"
