"lineid","car","time","location","longitude","latitude","cityid","cityname"
"244001","248-BX","2018/05/21 15:17:42","新北市林口區林口路76號","121.389691666667","25.08071","6501700","林口區"
"243008","380-SR","2018/05/21 15:19:34","新北市泰山區文程路111號","121.430331666667","25.0482566666667","6501600","泰山區"
"231002","002-UM","2018/05/21 15:19:41","台北市文山區景文街146巷26號","121.53305","24.9917","6500600","新店區"
"231028","046-UY","2018/05/21 15:19:35","新北市新店區僑愛三路6號","121.499611666667","24.944645","6500600","新店區"
"231001","047-UY","2018/05/21 15:19:30","新北市新店區北新路一段337號","121.541751666667","24.968745","6500600","新店區"
"231005","106-UY","2018/05/21 15:19:35","新北市新店區建國路207-1號","121.537783333333","24.9802016666667","6500600","新店區"
"231019","108-UY","2018/05/21 15:19:30","新北市新店區永福路98號","121.5629","24.929185","6500600","新店區"
"231011","187-VK","2018/05/21 15:19:27","新北市新店區寶慶街80號","121.541446666667","24.9867666666667","6500600","新店區"
"231023","KEA-2219","2018/05/21 15:19:20","新北市新店區北新路一段64巷43號","121.542291666667","24.965665","6500600","新店區"
"231026","256-BX","2018/05/21 15:19:28","新北市新店區中正路247巷3號","121.53885","24.97298","6500600","新店區"
"231003","268-BY","2018/05/21 15:19:36","新北市新店區寶橋路210號","121.550926666667","24.978525","6500600","新店區"
"231018","278-BY","2018/05/21 15:19:34","新北市新店區中央路200號","121.530461666667","24.97433","6500600","新店區"
"231014","AAD-862","2018/05/21 15:19:36","新北市新店區明山路45號","121.563893333333","24.9557716666667","6500600","新店區"
"231038","3712-VJ","2018/05/21 15:19:35","新北市新店區安華路28-1號","121.519686666667","24.960945","6500600","新店區"
"231037","4716-K9","2018/05/21 15:19:31","新北市新店區安民街365巷14號","121.515763333333","24.9753583333333","6500600","新店區"
"231025","4715-K9","2018/05/21 15:19:36","新北市新店區中央路151號","121.52955","24.9723066666667","6500600","新店區"
"231036","512-UM","2018/05/21 15:19:32","新北市新店區安祥路69巷17號","121.48192","24.9613583333333","6500600","新店區"
"231034","616-UM","2018/05/21 15:19:38","新北市新店區如意街3巷2號","121.49557","24.9491333333333","6500600","新店區"
"231039","718-UY","2018/05/21 15:19:36","新北市新店區寶元路一段65號","121.542261666667","24.9858233333333","6500600","新店區"
"231035","719-UY","2018/05/21 15:19:26","新北市新店區永平街23巷9號","121.516768333333","24.9828966666667","6500600","新店區"
"231031","720-UM","2018/05/21 15:19:39","新北市新店區和成街15巷2號","121.48776","24.947245","6500600","新店區"
"231029","897-TW","2018/05/21 15:19:31","新北市新店區安康路三段750號","121.47359","24.94183","6500600","新店區"
"231006","898-TW","2018/05/21 15:19:30","新北市新店區中興路一段203號","121.54356","24.965495","6500600","新店區"
"231004","899-TW","2018/05/21 15:19:28","新北市新店區建國路29號","121.540213333333","24.974125","6500600","新店區"
"231024","AKT-0513","2018/05/21 15:19:34","新北市新店區北新路一段309號","121.541391666667","24.9679","6500600","新店區"
"241013","270-UM","2018/05/21 15:19:15","新北市三重區重新路四段121號","121.484755","25.0524566666667","6500200","三重區"
"235014","4979-A6","2018/05/21 15:19:31","新北市中和區景平路468號","121.505595","24.9937716666667","6500300","中和區"
"235033","4980-A6","2018/05/21 15:19:26","新北市中和區圓通路172號","121.497416666667","24.994715","6500300","中和區"
"235034","558-UM","2018/05/21 15:19:35","新北市中和區中正路450號","121.490865","24.994235","6500300","中和區"
"235012","896-TW","2018/05/21 15:19:20","新北市中和區景新街379號","121.512325","24.9903366666667","6500300","中和區"
"235030","911-UM","2018/05/21 15:19:19","新北市中和區保平路326巷1號","121.507163333333","25.0043283333333","6500300","中和區"
"235023","AAC-215","2018/05/21 15:19:27","新北市中和區圓通路320-1號","121.485353333333","24.987835","6500300","中和區"
"220105","075-UY","2018/05/21 15:19:27","新北市板橋區文聖街11巷16號","121.475861666667","25.0325866666667","6500100","板橋區"
"253003","6232-TK","2018/05/21 15:19:27","新北市石門區小坑9號","121.594395","25.2883666666667","6502200","石門區"
"253001","6251-TK","2018/05/21 15:19:30","新北市石門區中央路35-1號","121.568338333333","25.29385","6502200","石門區"
"253002","637-UY","2018/05/21 15:19:26","新北市石門區海園路37號","121.556115","25.291275","6502200","石門區"
"253004","8270-PC","2018/05/21 15:19:27","新北市石門區小坑20號","121.596361666667","25.282245","6502200","石門區"
"207002","749-BX","2018/05/21 15:19:30","新北市萬里區雙興里太和路10-3號","121.664468333333","25.16401","6502800","萬里區"
"207001","662-BX","2018/05/21 15:19:26","新北市萬里區大鵬里萬里加投9號","121.652253333333","25.2086383333333","6502800","萬里區"
"236064","105-UM","2018/05/21 15:19:21","新北市土城區裕民路185巷36弄10號","121.454346666667","24.98456","6501300","土城區"
"236040","107-UM","2018/05/21 15:19:29","新北市土城區金城路二段229號","121.455523333333","24.982405","6501300","土城區"
"236074","166-UM","2018/05/21 15:19:35","新北市土城區中州路27巷81號","121.412643333333","24.9563383333333","6501300","土城區"
"236029","253-BX","2018/05/21 15:19:35","新北市土城區中央路一段290號","121.443286666667","24.9824016666667","6501300","土城區"
"236024","269-VK","2018/05/21 15:19:39","新北市土城區中央路二段61巷42號","121.443963333333","24.9785633333333","6501300","土城區"
"236012","270-VK","2018/05/21 15:19:23","新北市土城區廣福街1號","121.457348333333","24.988755","6501300","土城區"
"236032","271-VK","2018/05/21 15:19:36","新北市土城區國際路123號","121.467776666667","24.9762233333333","6501300","土城區"
"236016","401-BY","2018/05/21 15:19:23","新北市土城區明峰街83號","121.468973333333","24.9873633333333","6501300","土城區"
"236057","912-UM","2018/05/21 15:19:25","新北市土城區光明街28巷30號","121.441341666667","24.9742633333333","6501300","土城區"
"236045","913-UM","2018/05/21 15:19:42","新北市土城區金城路三段6號","121.464388333333","24.9858966666667","6501300","土城區"
"236060","915-UM","2018/05/21 15:19:39","新北市土城區延和路105巷8弄2號","121.467311666667","24.9912483333333","6501300","土城區"
"236054","AAC-216","2018/05/21 15:19:35","新北市土城區學府路一段52號","121.457448333333","24.988555","6501300","土城區"
"238002","755-BX","2018/05/21 15:19:23","新北市樹林區復興路223號","121.420135","24.9910516666667","6500700","樹林區"
"238010","601-UM","2018/05/21 15:19:30","新北市樹林區中正路433號","121.415113333333","25.008605","6500700","樹林區"
"238006","599-UM","2018/05/21 15:19:20","新北市樹林區八德街87號","121.419976666667","24.9814583333333","6500700","樹林區"
"238005","571-TV","2018/05/21 15:19:25","新北市樹林區樹新路227號","121.431106666667","25.00062","6500700","樹林區"
"238011","5061-A6","2018/05/21 15:19:38","新北市樹林區鎮前街299號","121.418021666667","24.9849683333333","6500700","樹林區"
"238009","KEA-2213","2018/05/21 15:19:25","新北市樹林區仁愛街73巷1號","121.42359","24.98278","6500700","樹林區"
"238008","KEA-2539","2018/05/21 15:19:21","新北市樹林區西圳街一段165巷20弄11號","121.395636666667","24.9601566666667","6500700","樹林區"
"238012","303-VK","2018/05/21 15:19:24","新北市樹林區中山路一段241號","121.420705","24.9867383333333","6500700","樹林區"
"238001","283-BY","2018/05/21 15:19:35","新北市樹林區保安二街二段6號","121.416111666667","25.000735","6500700","樹林區"
"238007","268-VK","2018/05/21 15:19:30","新北市樹林區俊英街80-2號","121.428145","25.0040716666667","6500700","樹林區"
"238013","172-UY","2018/05/21 15:19:25","新北市樹林區味王街46巷32號","121.40296","24.9737266666667","6500700","樹林區"
"238003","169-UY","2018/05/21 15:19:26","新北市樹林區中山路一段414號","121.417891666667","24.9852516666667","6500700","樹林區"
"220050","245-BX","2018/05/21 15:19:38","新北市板橋區雙十路二段47巷8弄4號","121.474713333333","25.0256833333333","6500100","板橋區"
"220038","280-UM","2018/05/21 15:19:40","新北市板橋區互助街10號","121.463013333333","25.0276516666667","6500100","板橋區"
"220031","286-VK","2018/05/21 15:19:27","新北市板橋區僑中二街108巷17號","121.445045","25.0073916666667","6500100","板橋區"
"220009","293-UM","2018/05/21 15:19:19","新北市板橋區四川路一段286巷4號","121.458493333333","25.0008783333333","6500100","板橋區"
"220041","307-R5","2018/05/21 15:19:37","新北市板橋區民權路101巷2號","121.459415","25.0132433333333","6500100","板橋區"
"220012","486-VK","2018/05/21 15:19:36","新北市板橋區館前東路120號","121.463735","25.0078666666667","6500100","板橋區"
"220037","491-VK","2018/05/21 15:19:30","新北市板橋區民治街59號","121.479566666667","25.0331916666667","6500100","板橋區"
"220052","561-BX","2018/05/21 15:19:29","新北市板橋區漢生西路56號","121.462975","25.018815","6500100","板橋區"
"220027","568-UM","2018/05/21 15:19:29","新北市板橋區華東街1-8號","121.44763","24.9949083333333","6500100","板橋區"
"220011","609-BX","2018/05/21 15:19:34","新北市板橋區三民路一段89號","121.479506666667","25.0215266666667","6500100","板橋區"
"220025","687-BX","2018/05/21 15:19:37","新北市新莊區新泰路502巷2號","121.442348333333","25.0468166666667","6500100","板橋區"
"220042","689-BX","2018/05/21 15:19:39","新北市板橋區長江路二段57號","121.464503333333","25.03142","6500100","板橋區"
"220051","KEA-2699","2018/05/21 15:19:36","新北市板橋區漢生東路31號","121.465333333333","25.016975","6500100","板橋區"
"220046","AAC-210","2018/05/21 15:19:19","新北市板橋區民權路202巷18弄9號","121.461243333333","25.0166183333333","6500100","板橋區"
"220018","AAC-253","2018/05/21 15:19:19","新北市板橋區德興街16號","121.4534","24.9944066666667","6500100","板橋區"
