"lineid","car","time","location","longitude","latitude","cityid","cityname"
"249005","172-UM","2018/05/21 16:38:59","新北市八里區龍米路二段158號","121.435291666667","25.1577216666667","6502300","八里區"
"231046","188-VK","2018/05/21 16:39:09","新北市新店區灣潭路48-1號","121.543008333333","24.9448","6500600","新店區"
"241011","013-R5","2018/05/21 16:39:01","新北市三重區秀江街219號","121.49727","25.071795","6500200","三重區"
"241028","022-UY","2018/05/21 16:39:02","新北市三重區中正南路58號","121.494008333333","25.0596833333333","6500200","三重區"
"241008","059-VK","2018/05/21 16:39:10","新北市三重區永福街177巷11弄4號","121.478091666667","25.075425","6500200","三重區"
"241031","061-VK","2018/05/21 16:39:09","新北市三重區重新路四段41巷12號","121.487681666667","25.057855","6500200","三重區"
"241015","062-VK","2018/05/21 16:39:08","新北市三重區信義街1號","121.499141666667","25.0647516666667","6500200","三重區"
"241017","063-VK","2018/05/21 16:38:55","新北市三重區中正北路25巷9號","121.49267","25.0621966666667","6500200","三重區"
"241026","066-VK","2018/05/21 16:38:48","新北市三重區和平街46號","121.502443333333","25.0627116666667","6500200","三重區"
"241002","090-VK","2018/05/21 16:39:07","新北市三重區仁義街214號","121.496223333333","25.0824716666667","6500200","三重區"
"241003","091-VK","2018/05/21 16:39:01","新北市三重區五華街71巷47號","121.493505","25.083335","6500200","三重區"
"241022","156-TC","2018/05/21 16:38:58","新北市三重區新北大道一段100巷29號","121.485408333333","25.0625133333333","6500200","三重區"
"241005","262-UM","2018/05/21 16:38:56","新北市三重區仁華街118巷16號","121.485908333333","25.0835183333333","6500200","三重區"
"241009","265-UM","2018/05/21 16:39:05","新北市三重區三和路四段203巷77號","121.483786666667","25.0799066666667","6500200","三重區"
"241016","266-UM","2018/05/21 16:38:50","新北市三重區大智街5號","121.494751666667","25.0649266666667","6500200","三重區"
"241018","268-UM","2018/05/21 16:39:09","新北市三重區正義北路338巷46號","121.493268333333","25.0703433333333","6500200","三重區"
"241032","269-UM","2018/05/21 16:38:54","新北市三重區新北大道一段57巷1號","121.485503333333","25.061225","6500200","三重區"
"241013","270-UM","2018/05/21 16:38:55","新北市三重區三和路三段103號","121.494463333333","25.0725483333333","6500200","三重區"
"241007","398-BY","2018/05/21 16:38:50","新北市三重區三和路四段167巷43號","121.485043333333","25.079365","6500200","三重區"
"241025","413-TH","2018/05/21 16:38:51","新北市三重區中正北路428巷7弄28號","121.474246666667","25.0692483333333","6500200","三重區"
"241004","475-VK","2018/05/21 16:39:08","新北市三重區仁愛街377巷134號","121.493715","25.08161","6500200","三重區"
"241020","478-VK","2018/05/21 16:38:53","新北市三重區車路頭街64號","121.484305","25.0726816666667","6500200","三重區"
"241014","543-UM","2018/05/21 16:39:01","新北市三重區長安街120號","121.502948333333","25.0679466666667","6500200","三重區"
"241023","545-UM","2018/05/21 16:39:01","新北市三重區洛陽街45巷34號","121.4828","25.06429","6500200","三重區"
"241001","547-UM","2018/05/21 16:38:52","新北市三重區仁愛街206號","121.493798333333","25.077535","6500200","三重區"
"241019","KEA-2593","2018/05/21 16:39:11","新北市三重區安慶街295號","121.48872","25.0673933333333","6500200","三重區"
"241006","AAD-863","2018/05/21 16:39:00","新北市三重區車路頭街134號","121.483963333333","25.0755083333333","6500200","三重區"
"241030","743-BX","2018/05/21 16:38:30","新北市三重區成功路50巷50號","121.488228333333","25.0494933333333","6500200","三重區"
"241024","887-TS","2018/05/21 16:39:11","新北市三重區中正北路315巷18號","121.475071666667","25.0715916666667","6500200","三重區"
"241012","941-UM","2018/05/21 16:38:51","新北市三重區仁興街3巷1號","121.500031666667","25.07383","6500200","三重區"
"241029","942-UM","2018/05/21 16:39:07","新北市三重區集美街122號","121.488885","25.0535816666667","6500200","三重區"
"241033","AAC-255","2018/05/21 16:39:03","新北市三重區光復路一段61巷30號","121.47416","25.04932","6500200","三重區"
"235064","005-UY","2018/05/21 16:14:00","新北市中和區員山路36巷16-3號","121.485081666667","24.9913066666667","6500300","中和區"
"235062","800-TS","2018/05/21 16:36:57","新北市中和區員山路36巷16-2號","121.48504","24.9917466666667","6500300","中和區"
"247008","056-VK","2018/05/21 16:39:01","新北市五股區中興路三段173號","121.444346666667","25.0809883333333","6501400","蘆洲區"
"247020","001-UY","2018/05/21 16:38:57","新北市五股區凌雲路一段22巷11號","121.452928333333","25.1010016666667","6501400","蘆洲區"
"224008","285-BY","2018/05/21 16:38:52","新北市瑞芳區大寮路356-1號","121.784955","25.1034283333333","6501200","瑞芳區"
"224007","275-VK","2018/05/21 16:38:54","新北市瑞芳區中央路35號","121.761996666667","25.1031683333333","6501200","瑞芳區"
"224009","273-VK","2018/05/21 16:39:11","新北市瑞芳區大寮路356-1號","121.784595","25.1032466666667","6501200","瑞芳區"
"224005","271-BY","2018/05/21 16:39:02","新北市瑞芳區洞頂路27號","121.861663333333","25.1200983333333","6501200","瑞芳區"
"227008","642-TC","2018/05/21 16:38:56","新北市雙溪區牡丹里中正路61巷16號","121.865986666667","25.0428516666667","6502500","雙溪區"
"227001","400-TW","2018/05/21 16:39:06","新北市雙溪區外柑里外柑腳35-1號","121.809795","25.01972","6502500","雙溪區"
"251013","KEA-2871","2018/05/21 16:38:26","新北市淡水區楓樹湖4號","121.497731666667","25.1868433333333","6501000","淡水區"
"251016","179-VK","2018/05/21 16:39:00","新北市淡水區北新路74號","121.446453333333","25.1783366666667","6501000","淡水區"
"251014","180-VK","2018/05/21 16:39:05","新北市淡水區淡金路二段599號","121.446413333333","25.191905","6501000","淡水區"
"251008","181-VK","2018/05/21 16:38:54","新北市淡水區民生路169號","121.469818333333","25.1421733333333","6501000","淡水區"
"252002","178-VK","2018/05/21 16:39:05","新北市三芝區芝柏路95號","121.51087","25.2573733333333","6502100","三芝區"
"238025","303-VK","2018/05/21 16:10:25","新北市樹林區中正路22-1號","121.42784","24.9994316666667","6500700","樹林區"
"238001","283-BY","2018/05/21 16:38:55","新北市樹林區中正路433-2號","121.414888333333","25.0081883333333","6500700","樹林區"
