"lineid","car","time","location","longitude","latitude","cityid","cityname"
"234026","9371-KE","2018/05/21 17:39:34","新北市永和區中正路637號","121.515378333333","25.009985","6500400","永和區"
"249005","172-UM","2018/05/21 17:39:39","新北市八里區荖阡坑路34-1號","121.402738333333","25.1297733333333","6502300","八里區"
"249001","173-UM","2018/05/21 17:39:29","新北市八里區龍米路二段185號","121.434338333333","25.1581966666667","6502300","八里區"
"249004","303-UY","2018/05/21 17:39:33","新北市八里區埤頭一街152號","121.41423","25.1580666666667","6502300","八里區"
"249003","593-UM","2018/05/21 17:39:48","新北市八里區中山路二段175號","121.404868333333","25.15043","6502300","八里區"
"248010","682-TV","2018/05/21 17:39:41","新北市五股區中興路二段37巷26號","121.460265","25.07515","6501500","五股區"
"232011","375-UM","2018/05/21 17:39:47","新北市坪林區北宜路八段381號","121.708645","24.9323333333333","6502000","坪林區"
"244013","069-UM","2018/05/21 17:39:31","新北市林口區粉寮路15-3號","121.398211666667","25.0805583333333","6501700","林口區"
"244007","080-UY","2018/05/21 17:39:45","新北市林口區林口路270號","121.386351666667","25.084655","6501700","林口區"
"244019","403-UM","2018/05/21 17:39:42","新北市林口區公園路120-1號","121.37047","25.0712233333333","6501700","林口區"
"244009","410-SL","2018/05/21 17:39:43","新北市林口區文化北路二段552號","121.378105","25.092505","6501700","林口區"
"244023","483-VK","2018/05/21 17:39:42","新北市林口區東明一街40號","121.392506666667","25.0723883333333","6501700","林口區"
"244017","485-VK","2018/05/21 17:39:30","新北市林口區文化一路一段129號","121.373581666667","25.071485","6501700","林口區"
"244011","657-BX","2018/05/21 17:39:37","新北市林口區佳林路154號","121.384113333333","25.0770416666667","6501700","林口區"
"244025","837-TS","2018/05/21 17:39:28","新北市林口區粉寮路一段77-1號","121.397006666667","25.0791733333333","6501700","林口區"
"244021","838-TS","2018/05/21 17:39:38","新北市林口區粉寮路一段137號","121.398993333333","25.081205","6501700","林口區"
"222003","436-BY","2018/05/21 17:39:39","新北市深坑區深南路48號","121.62031","25.0087283333333","6501800","深坑區"
"231046","188-VK","2018/05/21 17:39:29","新北市新店區直潭路92-1號","121.530823333333","24.9371666666667","6500600","新店區"
"241015","062-VK","2018/05/21 17:39:48","新北市三重區龍濱路287號","121.501035","25.0737516666667","6500200","三重區"
"241017","063-VK","2018/05/21 17:39:35","新北市三重區重新路三段1號","121.495521666667","25.0618466666667","6500200","三重區"
"241005","262-UM","2018/05/21 17:39:36","新北市三重區永安北路二段5巷29號","121.482551666667","25.0810516666667","6500200","三重區"
"241016","266-UM","2018/05/21 17:39:44","新北市三重區正義北路26號","121.497506666667","25.06318","6500200","三重區"
"241013","270-UM","2018/05/21 17:39:35","新北市三重區仁愛街125巷30號","121.497718333333","25.0760866666667","6500200","三重區"
"241007","398-BY","2018/05/21 17:39:30","新北市三重區車路頭街141號","121.483901666667","25.07648","6500200","三重區"
"241014","543-UM","2018/05/21 17:39:41","新北市三重區龍濱路54號","121.502715","25.0686633333333","6500200","三重區"
"241023","545-UM","2018/05/21 17:39:41","新北市三重區中華路95號","121.483535","25.063035","6500200","三重區"
"241019","KEA-2593","2018/05/21 17:39:31","新北市三重區自強路二段18-1號","121.48972","25.0688966666667","6500200","三重區"
"241030","743-BX","2018/05/21 17:39:30","新北市三重區中正南路262號","121.493211666667","25.0528283333333","6500200","三重區"
"241012","941-UM","2018/05/21 17:39:31","新北市三重區仁興街39巷95號","121.501085","25.0764833333333","6500200","三重區"
"241033","AAC-255","2018/05/21 17:39:42","新北市三重區光復路一段51號","121.472078333333","25.04893","6500200","三重區"
"235064","005-UY","2018/05/21 17:39:32","新北市中和區員山路36巷16-3號","121.485028333333","24.9913583333333","6500300","中和區"
"235065","098-UM","2018/05/21 17:39:41","新北市中和區員山路36巷16-3號","121.485065","24.991205","6500300","中和區"
"247024","893-R6","2018/05/21 17:39:33","新北市蘆洲區長樂路159號","121.46205","25.0881466666667","6501400","蘆洲區"
"247014","546-UM","2018/05/21 17:39:30","新北市蘆洲區中山二路118號","121.472058333333","25.0817316666667","6501400","蘆洲區"
"247022","500-BY","2018/05/21 17:39:36","新北市蘆洲區三民路285號","121.467318333333","25.0901916666667","6501400","蘆洲區"
"247010","341-TH","2018/05/21 17:39:35","新北市蘆洲區中山一路74巷55號","121.479971666667","25.0814966666667","6501400","蘆洲區"
"247012","339-TH","2018/05/21 17:39:30","新北市蘆洲區民權路3巷14弄9號","121.475505","25.0856883333333","6501400","蘆洲區"
"247004","337-TH","2018/05/21 17:39:26","新北市蘆洲區長安街249巷11-1號","121.458418333333","25.0828516666667","6501400","蘆洲區"
"247006","336-TH","2018/05/21 17:39:30","新北市蘆洲區長安街22巷39弄19號","121.46433","25.0808866666667","6501400","蘆洲區"
"247018","057-VK","2018/05/21 17:39:33","新北市蘆洲區民權路110號","121.473755","25.0883033333333","6501400","蘆洲區"
"247008","056-VK","2018/05/21 17:39:41","新北市蘆洲區民生街125號","121.472763333333","25.0789866666667","6501400","蘆洲區"
"247016","007-UY","2018/05/21 17:39:42","新北市蘆洲區中正路185巷31弄45號","121.467423333333","25.083285","6501400","蘆洲區"
"247002","002-UY","2018/05/21 17:39:31","新北市蘆洲區永樂街38巷67弄2號","121.458391666667","25.09075","6501400","蘆洲區"
"247020","001-UY","2018/05/21 17:39:37","新北市蘆洲區民族路464-1號","121.471793333333","25.0917583333333","6501400","蘆洲區"
"228003","097-TW","2018/05/21 17:39:29","新北市貢寮區仁理村仁和路37號","121.923946666667","25.053945","6502600","貢寮區"
"228002","585-TW","2018/05/21 17:39:25","新北市貢寮區福隆里龜壽谷街26號","121.952608333333","25.0087733333333","6502600","貢寮區"
"228001","670-TC","2018/05/21 17:39:41","新北市貢寮區仁理村仁愛路95-1號","121.92764","25.0554666666667","6502600","貢寮區"
"224008","285-BY","2018/05/21 17:39:32","新北市瑞芳區明燈路一段6號","121.823143333333","25.1074416666667","6501200","瑞芳區"
"224009","273-VK","2018/05/21 17:39:31","新北市瑞芳區崙頂路1-6號","121.84718","25.1045666666667","6501200","瑞芳區"
"224005","271-BY","2018/05/21 17:39:42","新北市瑞芳區海濱路68號","121.831548333333","25.124325","6501200","瑞芳區"
"227008","642-TC","2018/05/21 17:39:36","新北市雙溪區三貂里定福路1-2號","121.850665","25.063405","6502500","雙溪區"
"208003","665-BX","2018/05/21 17:39:33","新北市金山區磺清路135號","121.639451666667","25.2276883333333","6502700","金山區"
"251004","009-UM","2018/05/21 17:39:37","新北市淡水區中正東路二段88巷37-22號","121.459341666667","25.143775","6501000","淡水區"
"251005","010-UM","2018/05/21 17:39:33","新北市淡水區鄧公路35巷1號","121.451668333333","25.171375","6501000","淡水區"
"251001","011-UM","2018/05/21 17:39:34","新北市淡水區民權路92巷35-1號","121.462115","25.1265516666667","6501000","淡水區"
"251013","KEA-2871","2018/05/21 17:39:46","新北市淡水區演戲埔腳6號","121.471798333333","25.1938466666667","6501000","淡水區"
"251016","179-VK","2018/05/21 17:39:40","新北市淡水區埤島39-15號","121.452756666667","25.1958733333333","6501000","淡水區"
"251014","180-VK","2018/05/21 17:38:37","新北市淡水區公埔子15-1號","121.479376666667","25.2267133333333","6501000","淡水區"
"251008","181-VK","2018/05/21 17:39:34","新北市淡水區八勢路73巷12號","121.463751666667","25.15394","6501000","淡水區"
"251015","182-VK","2018/05/21 17:39:34","新北市淡水區興福寮3-1號","121.491761666667","25.1657166666667","6501000","淡水區"
"251010","413-VK","2018/05/21 17:39:36","新北市淡水區淡海路276號","121.420016666667","25.1884283333333","6501000","淡水區"
"251007","442-VK","2018/05/21 17:39:29","新北市淡水區民生路124巷24號","121.464098333333","25.1376766666667","6501000","淡水區"
"251012","443-VK","2018/05/21 17:39:38","新北市淡水區北新路200巷8號","121.451746666667","25.179685","6501000","淡水區"
"251006","561-UM","2018/05/21 17:39:40","新北市淡水區中山北路一段131號","121.442981666667","25.1771483333333","6501000","淡水區"
"251009","575-R6","2018/05/21 17:39:32","新北市淡水區中正路28號","121.4443","25.169065","6501000","淡水區"
"251011","650-BX","2018/05/21 17:39:42","新北市淡水區小坪頂23-6號","121.485821666667","25.155955","6501000","淡水區"
"251002","672-BX","2018/05/21 17:39:42","新北市淡水區清水街246號","121.440553333333","25.1721533333333","6501000","淡水區"
"251003","766-UM","2018/05/21 17:39:40","新北市淡水區中山北路一段59號","121.441815","25.175655","6501000","淡水區"
"207003","550-UM","2018/05/21 17:39:30","新北市萬里區龜吼里漁澳路5-1號","121.686556666667","25.1942533333333","6502800","萬里區"
"207004","225-TW","2018/05/21 17:39:39","新北市萬里區中幅里中福路20號","121.684721666667","25.1644433333333","6502800","萬里區"
"252002","178-VK","2018/05/21 17:39:45","新北市三芝區中正路二段15號","121.504433333333","25.2554133333333","6502100","三芝區"
"252001","292-VK","2018/05/21 17:39:38","新北市三芝區淡金路二段2號","121.5022","25.25912","6502100","三芝區"
"237004","KEA-2597","2018/05/21 17:39:36","新北市三峽區中山路459巷163-3號","121.349103333333","24.9332833333333","6500900","三峽區"
"237011","572-TV","2018/05/21 17:39:37","新北市三峽區中山路55號","121.367671666667","24.9346583333333","6500900","三峽區"
"237013","252-BX","2018/05/21 17:39:38","新北市三峽區介壽路一段21-1號","121.375363333333","24.933385","6500900","三峽區"
"237012","275-BY","2018/05/21 17:39:38","新北市三峽區中山路459巷163-3號","121.348868333333","24.933215","6500900","三峽區"
"237006","5529-G3","2018/05/21 17:39:43","新北市三峽區介壽路二段34-2號","121.391265","24.935115","6500900","三峽區"
"237015","649-BX","2018/05/21 17:39:46","新北市三峽區正義街140號","121.368421666667","24.9163583333333","6500900","三峽區"
"237010","706-TV","2018/05/21 17:39:41","新北市三峽區中山路153號","121.364808333333","24.936365","6500900","三峽區"
"236042","107-UM","2018/05/21 17:39:43","新北市土城區城林路6巷80號","121.438475","24.9797533333333","6501300","土城區"
"236078","166-UM","2018/05/21 17:39:44","新北市土城區城林路6巷80號","121.438506666667","24.97969","6501300","土城區"
"236030","253-BX","2018/05/21 17:39:39","新北市土城區城林路6巷80號","121.438493333333","24.9795533333333","6501300","土城區"
"236020","401-BY","2018/05/21 17:39:34","新北市土城區城林路6巷80號","121.438746666667","24.9797683333333","6501300","土城區"
"242034","AAC-296","2018/05/21 17:39:46","新北市新莊區新莊路506號","121.44606","25.0332683333333","6500500","新莊區"
"242058","986-R7","2018/05/21 17:39:40","新北市新莊區中正路696號","121.418881666667","25.0278683333333","6500500","新莊區"
"242053","751-BX","2018/05/21 17:39:45","新北市新莊區新樹路715號","121.43205","25.0019783333333","6500500","新莊區"
"242027","615-BX","2018/05/21 17:39:33","新北市新莊區福壽街140號","121.45764","25.0519133333333","6500500","新莊區"
"242025","613-BX","2018/05/21 17:37:18","新北市新莊區思源路122號","121.46047","25.0473433333333","6500500","新莊區"
"242029","612-BX","2018/05/21 17:39:39","新北市新莊區復興路一段147號","121.450416666667","25.0431583333333","6500500","新莊區"
"242042","566-BX","2018/05/21 17:39:49","新北市新莊區中正路514巷27號","121.432833333333","25.0331783333333","6500500","新莊區"
"242050","441-UM","2018/05/21 17:39:45","新北市新莊區西盛街224號","121.428093333333","25.01666","6500500","新莊區"
"242056","440-UM","2018/05/21 17:39:37","新北市新莊區新莊路543巷9弄28號","121.448355","25.031865","6500500","新莊區"
"242036","415-TV","2018/05/21 17:39:41","新北市新莊區建福路59巷47號","121.428658333333","25.0279","6500500","新莊區"
"242007","413-TV","2018/05/21 17:39:38","新北市新莊區福樂街118巷3號","121.457191666667","25.0479583333333","6500500","新莊區"
"242023","362-BY","2018/05/21 17:39:43","新北市新莊區公園路129-13號","121.457498333333","25.0410616666667","6500500","新莊區"
"242060","353-BY","2018/05/21 17:39:39","新北市新莊區瓊林南路118-40號","121.434186666667","25.0099466666667","6500500","新莊區"
"242009","132-UY","2018/05/21 17:39:44","新北市新莊區昌明街14巷7弄1號","121.457326666667","25.0534116666667","6500500","新莊區"
"242039","133-UY","2018/05/21 17:39:33","新北市新莊區民安路322號","121.42901","25.02196","6500500","新莊區"
"242031","135-UY","2018/05/21 17:39:35","新北市新莊區新泰路374號","121.4441","25.0431616666667","6500500","新莊區"
"242048","172-VK","2018/05/21 17:39:46","新北市新莊區萬安街120號","121.420343333333","25.0219383333333","6500500","新莊區"
"242011","173-VK","2018/05/21 17:39:46","新北市新莊區中港路603號","121.451336666667","25.0531","6500500","新莊區"
"242017","175-VK","2018/05/21 17:39:39","新北市新莊區復興路一段149巷21弄1號","121.450181666667","25.04406","6500500","新莊區"
"242004","176-VK","2018/05/21 17:39:38","新北市新莊區自立街186號","121.456208333333","25.0453983333333","6500500","新莊區"
"242015","346-TH","2018/05/21 17:39:32","新北市新莊區新泰路338號","121.444755","25.0422133333333","6500500","新莊區"
"242021","348-TH","2018/05/21 17:39:40","新北市新莊區中華路一段118號","121.452443333333","25.0406233333333","6500500","新莊區"
"242019","350-TH","2018/05/21 17:39:45","新北市新莊區中港路165號","121.45506","25.0411066666667","6500500","新莊區"
"242013","351-TH","2018/05/21 17:39:31","新北市新莊區中誠街99號","121.449906666667","25.0476783333333","6500500","新莊區"
"238015","755-BX","2018/05/21 17:39:41","新北市樹林區長壽街19巷2號","121.421881666667","24.9941","6500700","樹林區"
"238023","601-UM","2018/05/21 17:39:30","新北市樹林區三福街114號","121.406475","25.0162783333333","6500700","樹林區"
"238019","599-UM","2018/05/21 17:39:40","新北市樹林區太平路127巷6弄1號","121.419795","24.9805633333333","6500700","樹林區"
"238018","571-TV","2018/05/21 17:39:32","新北市樹林區鎮前街62號","121.425705","24.9923083333333","6500700","樹林區"
"238024","5061-A6","2018/05/21 17:39:40","新北市樹林區八德街262-1號","121.41739","24.9720533333333","6500700","樹林區"
"238022","KEA-2213","2018/05/21 17:39:43","新北市樹林區太順街62巷2號","121.417866666667","24.9793883333333","6500700","樹林區"
"238021","KEA-2539","2018/05/21 17:39:43","新北市樹林區柑園街一段253巷35號","121.396701666667","24.9538616666667","6500700","樹林區"
"238025","303-VK","2018/05/21 17:39:37","新北市樹林區保安街二段192號","121.41254","25.0104033333333","6500700","樹林區"
"238017","283-BY","2018/05/21 17:39:35","新北市樹林區俊德街51號","121.41551","25.0132616666667","6500700","樹林區"
"238014","282-BY","2018/05/21 17:39:41","新北市樹林區保安街一段360巷3號","121.417826666667","24.9988066666667","6500700","樹林區"
"238020","268-VK","2018/05/21 17:39:35","新北市樹林區俊英街168-3號","121.426425","25.0071716666667","6500700","樹林區"
"238026","172-UY","2018/05/21 17:38:20","新北市樹林區新興街19巷36弄7號","121.402573333333","24.9733633333333","6500700","樹林區"
"238016","169-UY","2018/05/21 17:39:46","新北市樹林區啟智街129-10號","121.417561666667","24.9888516666667","6500700","樹林區"
"239006","891-R6","2018/05/21 17:39:34","新北市鶯歌區永和街34巷25號","121.333796666667","24.9670716666667","6500800","鶯歌區"
"239008","527-UM","2018/05/21 17:39:29","新北市鶯歌區大湖路732巷15弄2號","121.332828333333","24.9778883333333","6500800","鶯歌區"
"239005","526-UM","2018/05/21 17:39:30","新北市鶯歌區福隆二街22號","121.325203333333","24.9718183333333","6500800","鶯歌區"
"239001","417-VK","2018/05/21 17:39:38","新北市鶯歌區中正三路186號","121.332996666667","24.9382266666667","6500800","鶯歌區"
"239003","360-BY","2018/05/21 17:39:31","新北市鶯歌區鶯桃路206巷14號","121.337585","24.9594416666667","6500800","鶯歌區"
"239002","359-BY","2018/05/21 17:39:41","新北市鶯歌區建國路278號","121.34698","24.9533916666667","6500800","鶯歌區"
"239004","193-VK","2018/05/21 17:39:30","新北市鶯歌區三鶯路22號","121.356218333333","24.9415716666667","6500800","鶯歌區"
"221008","489-VK","2018/05/21 17:39:36","新北市汐止區康寧街901號","121.651246666667","25.0749066666667","6501100","汐止區"
"221010","269-BY","2018/05/21 17:39:37","新北市汐止區康寧街885巷15號","121.650455","25.0762533333333","6501100","汐止區"
"221023","279-VK","2018/05/21 17:39:31","新北市汐止區汐萬路一段256巷1號","121.651686666667","25.074875","6501100","汐止區"
"221031","353-TW","2018/05/21 17:39:38","新北市汐止區汐萬路一段256巷1號","121.651743333333","25.074865","6501100","汐止區"
"221035","622-UM","2018/05/21 17:39:40","新北市汐止區汐萬路一段256巷1號","121.65193","25.07468","6501100","汐止區"
"221033","647-BX","2018/05/21 17:39:37","新北市汐止區林森街73巷15號","121.624175","25.04109","6501100","汐止區"
"221002","707-TV","2018/05/21 17:39:44","新北市汐止區康寧街901號","121.651435","25.0749883333333","6501100","汐止區"
"242002","KEA-2550","2018/05/21 17:39:36","新北市新莊區新莊路258號","121.451995","25.034005","6500500","新莊區"
"242044","281-VK","2018/05/21 17:39:42","新北市新莊區富國路19巷2號","121.418635","25.0265866666667","6500500","新莊區"
"242046","280-VK","2018/05/21 17:39:45","新北市新莊區建國一路19號","121.433921666667","25.03161","6500500","新莊區"
