"lineid","car","time","location","longitude","latitude","cityid","cityname"
"234007","207-UY","2018/05/21 18:09:25","新北市永和區環河西路二段45號","121.50715","25.0156116666667","6500400","永和區"
"234026","9371-KE","2018/05/21 18:09:34","新北市永和區秀朗路一段10巷19號","121.51344","25.006165","6500400","永和區"
"234011","9373-KE","2018/05/21 17:50:04","新北市永和區福和路1號","121.525606666667","25.0093816666667","6500400","永和區"
"249005","172-UM","2018/05/21 18:09:19","新北市八里區荖阡坑路15-40號","121.401765","25.13982","6502300","八里區"
"249001","173-UM","2018/05/21 18:09:29","新北市八里區龍米路二段36號","121.44856","25.1401383333333","6502300","八里區"
"249004","303-UY","2018/05/21 18:09:33","新北市八里區龍米路二段159巷2-10號","121.438838333333","25.153175","6502300","八里區"
"249003","593-UM","2018/05/21 18:09:37","新北市八里區松子腳3-2號","121.40303","25.1442966666667","6502300","八里區"
"248016","026-BX","2018/05/21 18:09:37","新北市五股區成泰路三段221巷18號","121.445688333333","25.0934416666667","6501500","五股區"
"248006","077-UY","2018/05/21 18:09:28","新北市五股區中興路二段77-1號","121.461038333333","25.077095","6501500","五股區"
"248008","095-VK","2018/05/21 18:09:31","新北市五股區更洲路32巷15弄9號","121.458285","25.080465","6501500","五股區"
"248018","225-UY","2018/05/21 18:09:39","新北市五股區成泰路三段55號","121.44323","25.0895433333333","6501500","五股區"
"248012","247-BX","2018/05/21 18:09:27","新北市五股區成泰路三段101-1號","121.44403","25.0903766666667","6501500","五股區"
"248014","261-SL","2018/05/21 18:09:34","新北市五股區成泰路一段189巷13弄2號","121.434075","25.0765416666667","6501500","五股區"
"248004","677-BX","2018/05/21 18:09:35","新北市五股區成泰路二段142號","121.438248333333","25.0837683333333","6501500","五股區"
"248002","678-BX","2018/05/21 18:09:34","新北市五股區成泰路三段101-1號","121.443963333333","25.0903116666667","6501500","五股區"
"248010","682-TV","2018/05/21 18:09:21","新北市五股區成泰路一段194-1號","121.435545","25.0779116666667","6501500","五股區"
"232011","375-UM","2018/05/21 18:09:27","新北市坪林區水柳腳6號","121.711303333333","24.9355966666667","6502000","坪林區"
"244013","069-UM","2018/05/21 18:09:31","新北市林口區中正路525巷26號","121.383101666667","25.0766933333333","6501700","林口區"
"244007","080-UY","2018/05/21 18:09:25","新北市林口區竹林路265-1號","121.389025","25.0805883333333","6501700","林口區"
"244019","403-UM","2018/05/21 18:09:22","新北市林口區文化一路一段24號","121.370233333333","25.0686816666667","6501700","林口區"
"244009","410-SL","2018/05/21 18:09:23","新北市林口區林口路297巷3號","121.385683333333","25.0846566666667","6501700","林口區"
"244023","483-VK","2018/05/21 18:09:22","新北市林口區東湖路93巷72號","121.385495","25.0705483333333","6501700","林口區"
"244017","485-VK","2018/05/21 18:09:30","新北市林口區八德路20巷1號","121.368035","25.06698","6501700","林口區"
"244011","657-BX","2018/05/21 18:09:37","新北市林口區中正路60號","121.395041666667","25.0774183333333","6501700","林口區"
"244025","837-TS","2018/05/21 18:09:28","新北市林口區文化三路一段394巷2號","121.365896666667","25.0731666666667","6501700","林口區"
"244021","838-TS","2018/05/21 18:09:38","新北市林口區仁愛路一段123巷11號","121.398181666667","25.071135","6501700","林口區"
"243013","AAD-798","2018/05/21 18:09:37","新北市泰山區南林路99巷19號","121.41723","25.0494983333333","6501600","泰山區"
"222003","436-BY","2018/05/21 18:09:33","新北市深坑區阿柔洋49號","121.611705","24.996965","6501800","深坑區"
"222002","659-BX","2018/05/21 18:09:32","新北市深坑區文化街52號","121.618975","25.0015366666667","6501800","深坑區"
"231059","046-UY","2018/05/21 18:09:28","新北市新店區安華路28-1號","121.519526666667","24.9607583333333","6500600","新店區"
"231040","047-UY","2018/05/21 18:09:33","新北市新店區安華路28-1號","121.519278333333","24.960855","6500600","新店區"
"231044","106-UY","2018/05/21 18:09:36","新北市新店區安華路28-1號","121.519698333333","24.96081","6500600","新店區"
"231052","108-UY","2018/05/21 18:09:26","新北市新店區安一路一段1-1號","121.519386666667","24.9611166666667","6500600","新店區"
"231047","187-VK","2018/05/21 18:09:40","新北市新店區安一路一段1-1號","121.519541666667","24.9611583333333","6500600","新店區"
"231046","188-VK","2018/05/21 18:09:29","新北市新店區直潭七街60號","121.532245","24.9397683333333","6500600","新店區"
"231054","KEA-2219","2018/05/21 18:09:41","新北市新店區安一路一段1-1號","121.519641666667","24.96127","6500600","新店區"
"231042","268-BY","2018/05/21 18:09:38","新北市新店區安華路1-1號","121.51942","24.9604983333333","6500600","新店區"
"231051","278-BY","2018/05/21 18:09:39","新北市新店區安一路一段1-1號","121.519626666667","24.9611266666667","6500600","新店區"
"231050","AAD-862","2018/05/21 18:09:28","新北市新店區安一路一段1-1號","121.519683333333","24.9611133333333","6500600","新店區"
"231058","3713-VJ","2018/05/21 18:09:38","新北市新店區安華路28-1號","121.519266666667","24.960655","6500600","新店區"
"231066","4716-K9","2018/05/21 18:09:21","新北市新店區安一路一段1-1號","121.51935","24.9611783333333","6500600","新店區"
"231056","4715-K9","2018/05/21 18:09:32","新北市新店區安華路28-1號","121.519606666667","24.9607816666667","6500600","新店區"
"231067","4772-VM","2018/05/21 18:09:37","新北市新店區安華路1-1號","121.519331666667","24.960525","6500600","新店區"
"231049","513-UM","2018/05/21 18:09:36","新北市新店區安一路一段1-1號","121.519531666667","24.9611066666667","6500600","新店區"
"231063","616-UM","2018/05/21 18:09:34","新北市新店區安華路1-1號","121.519465","24.9604833333333","6500600","新店區"
"231061","619-UM","2018/05/21 18:09:34","新北市新店區安華路28-1號","121.51951","24.9607516666667","6500600","新店區"
"231054","719-UY","2018/05/21 18:09:24","新北市新店區安一路一段1-1號","121.519891666667","24.9611","6500600","新店區"
"231062","720-UM","2018/05/21 18:09:39","新北市新店區安一路一段1-1號","121.519395","24.96106","6500600","新店區"
"231060","897-TW","2018/05/21 18:09:25","新北市新店區安華路28-1號","121.51948","24.9607483333333","6500600","新店區"
"231043","899-TW","2018/05/21 18:09:21","新北市新店區安華路28-1號","121.519196666667","24.9608533333333","6500600","新店區"
"231055","AKT-0513","2018/05/21 18:09:25","新北市新店區安華路28-1號","121.519475","24.9606116666667","6500600","新店區"
"241024","462-BY","2018/05/21 18:09:34","新北市三重區中正北路193巷35弄71號","121.478716666667","25.071395","6500200","三重區"
"241033","AAC-255","2018/05/21 18:09:22","新北市三重區中興北街52-10號","121.46925","25.0506616666667","6500200","三重區"
"235064","005-UY","2018/05/21 18:09:32","新北市中和區中正路275號","121.49544","24.9936833333333","6500300","中和區"
"235063","006-UY","2018/05/21 18:09:33","新北市中和區員山路36巷16-3號","121.485061666667","24.9912983333333","6500300","中和區"
"235047","031-BX","2018/05/21 18:09:31","新北市中和區中正路169號","121.498131666667","24.993675","6500300","中和區"
"235056","096-UM","2018/05/21 18:09:37","新北市中和區連城路469巷89號","121.484648333333","24.993665","6500300","中和區"
"235065","098-UM","2018/05/21 18:09:40","新北市中和區中山路二段2巷59號","121.501773333333","25.0073983333333","6500300","中和區"
"235058","151-BY","2018/05/21 18:09:32","新北市中和區圓通路367巷33弄15號","121.495243333333","24.9850866666667","6500300","中和區"
"235038","185-VK","2018/05/21 18:09:31","新北市中和區景平路116號","121.51954","24.9917933333333","6500300","中和區"
"235072","301-VK","2018/05/21 18:09:38","新北市中和區中正路589巷15號","121.485858333333","24.9935766666667","6500300","中和區"
"235061","378-QA","2018/05/21 18:09:31","新北市中和區連城路469巷7號","121.483621666667","24.9956316666667","6500300","中和區"
"235050","4979-A6","2018/05/21 18:09:21","新北市中和區錦和路350-1號","121.490441666667","24.9935733333333","6500300","中和區"
"235042","551-UM","2018/05/21 18:09:24","新北市中和區捷運路102號","121.505805","24.991455","6500300","中和區"
"235070","558-UM","2018/05/21 18:09:36","新北市中和區中正路305號","121.49232","24.9939016666667","6500300","中和區"
"235045","565-BX","2018/05/21 18:09:35","新北市中和區錦和路350-1號","121.490548333333","24.993595","6500300","中和區"
"235054","640-BX","2018/05/21 18:09:28","新北市中和區員山路72-1號","121.481051666667","24.9934966666667","6500300","中和區"
"235046","733-UM","2018/05/21 18:09:25","新北市中和區員山路36巷13號","121.484126666667","24.9907933333333","6500300","中和區"
"235071","783-BX","2018/05/21 18:09:26","新北市中和區員山路36巷16-3號","121.48517","24.9911983333333","6500300","中和區"
"235057","801-TS","2018/05/21 18:09:34","新北市中和區和城路一段271巷1號","121.485428333333","24.9921516666667","6500300","中和區"
"235048","896-TW","2018/05/21 18:09:23","新北市中和區員山路36巷16-3號","121.484928333333","24.9918783333333","6500300","中和區"
"235053","900-TW","2018/05/21 18:09:30","新北市中和區員山路36巷16-3號","121.484951666667","24.9917","6500300","中和區"
"235051","157-BY","2018/05/21 18:09:38","新北市中和區南山路152號","121.504281666667","24.9921083333333","6500300","中和區"
"235037","AAC-213","2018/05/21 18:09:24","新北市中和區景平路149號","121.513908333333","24.9922066666667","6500300","中和區"
"247002","002-UY","2018/05/21 18:09:31","新北市蘆洲區永平街32巷67號","121.459986666667","25.093205","6501400","蘆洲區"
"226004","312-R5","2018/05/21 18:09:28","新北市平溪區白石里白石腳43號","121.717815","25.021055","6502400","平溪區"
"228003","097-TW","2018/05/21 18:09:29","新北市貢寮區真理里美艷山街6-2號","121.928853333333","25.060715","6502600","貢寮區"
"228002","585-TW","2018/05/21 18:09:25","新北市貢寮區福連里福連街36號","121.989878333333","25.0101","6502600","貢寮區"
"228001","670-TC","2018/05/21 18:09:21","新北市貢寮區真理里新港街26巷55弄2-1號","121.927366666667","25.0528666666667","6502600","貢寮區"
"224010","AGQ-8101","2018/05/21 17:57:35","新北市瑞芳區山尖路209號","121.849238333333","25.1115883333333","6501200","瑞芳區"
"224002","639-TC","2018/05/21 18:09:35","新北市瑞芳區三爪子坑路64-26號","121.809186666667","25.105345","6501200","瑞芳區"
"224008","285-BY","2018/05/21 18:09:32","新北市瑞芳區員山子路3-9號","121.819746666667","25.1041983333333","6501200","瑞芳區"
"224007","275-VK","2018/05/21 18:09:29","新北市瑞芳區四腳亭坑路8號","121.777695","25.1096766666667","6501200","瑞芳區"
"224009","273-VK","2018/05/21 18:09:31","新北市瑞芳區金光路117號","121.853505","25.106225","6501200","瑞芳區"
"224005","271-BY","2018/05/21 18:09:22","新北市瑞芳區建基路一段62巷24-1號","121.816538333333","25.1285616666667","6501200","瑞芳區"
"227008","642-TC","2018/05/21 18:09:36","新北市雙溪區三貂里定福路1-2號","121.850683333333","25.06338","6502500","雙溪區"
"253005","032-BX","2018/05/21 18:09:25","新北市石門區福安街1號","121.568376666667","25.292905","6502200","石門區"
"253006","295-VK","2018/05/21 18:09:36","新北市石門區老梅路52巷25弄1號","121.546465","25.2880666666667","6502200","石門區"
"253001","4710-YM","2018/05/21 18:09:36","新北市石門區中央路1-13號","121.56155","25.2910916666667","6502200","石門區"
"222001","KEA-2212","2018/05/21 18:09:25","新北市深坑區北深路二段186號","121.614031666667","25.002285","6501800","深坑區"
"208002","KEA-2872","2018/05/21 18:09:38","新北市金山區三界壇路56號","121.622566666667","25.2292916666667","6502700","金山區"
"208003","665-BX","2018/05/21 18:09:33","新北市金山區磺港里磺港路169號","121.643558333333","25.2245133333333","6502700","金山區"
"208001","761-BX","2018/05/21 18:09:41","新北市金山區磺港里磺港路73號","121.647575","25.22713","6502700","金山區"
"251004","009-UM","2018/05/21 18:09:37","新北市淡水區民族路110巷36弄2號","121.461545","25.135315","6501000","淡水區"
"251005","010-UM","2018/05/21 18:09:32","新北市淡水區水源街一段139號","121.44716","25.171865","6501000","淡水區"
"251001","011-UM","2018/05/21 18:09:34","新北市淡水區自立路10號","121.463043333333","25.1298016666667","6501000","淡水區"
"251013","KEA-2871","2018/05/21 18:09:26","新北市淡水區竹圍子9-1號","121.47688","25.1922133333333","6501000","淡水區"
"251016","179-VK","2018/05/21 18:09:20","新北市淡水區下圭柔山15號","121.453223333333","25.202265","6501000","淡水區"
"251014","180-VK","2018/05/21 18:09:37","新北市淡水區南平15號","121.488198333333","25.2193116666667","6501000","淡水區"
"251008","181-VK","2018/05/21 18:09:34","新北市淡水區紅樹林路71號","121.459545","25.1608966666667","6501000","淡水區"
"251015","182-VK","2018/05/21 18:09:34","新北市淡水區興福寮66巷539號","121.484556666667","25.1651016666667","6501000","淡水區"
"251010","413-VK","2018/05/21 18:09:36","新北市淡水區淡海路168-1號","121.420568333333","25.1834016666667","6501000","淡水區"
"251012","443-VK","2018/05/21 18:09:18","新北市淡水區北新路三段171-1號","121.491635","25.1913683333333","6501000","淡水區"
"251006","561-UM","2018/05/21 18:09:20","新北市淡水區真理街3巷20號","121.437488333333","25.1760283333333","6501000","淡水區"
"251009","575-R6","2018/05/21 18:09:32","新北市淡水區大忠街34巷7號","121.443673333333","25.1754466666667","6501000","淡水區"
"251011","650-BX","2018/05/21 18:09:22","新北市淡水區三空泉9-2號","121.474076666667","25.1635283333333","6501000","淡水區"
"251002","672-BX","2018/05/21 18:09:22","新北市淡水區中正東路一段127巷2號","121.45552","25.1594033333333","6501000","淡水區"
"251003","766-UM","2018/05/21 18:09:40","新北市淡水區大忠街113巷24號","121.447403333333","25.1774533333333","6501000","淡水區"
"207003","550-UM","2018/05/21 18:09:30","新北市萬里區野柳里港西路75號","121.685738333333","25.2051033333333","6502800","萬里區"
"207004","225-TW","2018/05/21 18:09:39","新北市萬里區中幅里中福路93號","121.675446666667","25.169765","6502800","萬里區"
"252002","178-VK","2018/05/21 18:09:25","新北市三芝區中山路二段35號","121.50288","25.2551683333333","6502100","三芝區"
"252003","249-BX","2018/05/21 18:09:37","新北市三芝區埔頭里埔頭37號","121.498413333333","25.26026","6502100","三芝區"
"252001","292-VK","2018/05/21 18:09:38","新北市三芝區中興街二段2號","121.498368333333","25.2567016666667","6502100","三芝區"
"237004","KEA-2597","2018/05/21 18:09:36","新北市三峽區大埔路150-2號","121.364775","24.8983266666667","6500900","三峽區"
"237007","153-BY","2018/05/21 18:09:24","新北市三峽區中正路二段252號","121.365886666667","24.9127416666667","6500900","三峽區"
"237011","572-TV","2018/05/21 18:09:37","新北市三峽區溪東路93號","121.401456666667","24.93467","6500900","三峽區"
"237009","210-TH","2018/05/21 18:09:27","新北市三峽區復興路303巷1弄8號","121.365898333333","24.93821","6500900","三峽區"
"237013","252-BX","2018/05/21 18:09:18","新北市三峽區長泰街38號","121.378433333333","24.9321833333333","6500900","三峽區"
"237012","275-BY","2018/05/21 18:09:38","新北市三峽區民生街1巷6-12號","121.377203333333","24.935875","6500900","三峽區"
"237008","302-VK","2018/05/21 18:09:32","新北市三峽區白雞44-39號","121.377375","24.9101783333333","6500900","三峽區"
"237014","433-BY","2018/05/21 18:09:34","新北市三峽區復興路168號","121.37092","24.9383883333333","6500900","三峽區"
"237006","5529-G3","2018/05/21 18:09:38","新北市三峽區溪東路235號","121.406485","24.9326333333333","6500900","三峽區"
"237015","649-BX","2018/05/21 18:09:25","新北市三峽區紫新路36巷1號","121.422035","24.922425","6500900","三峽區"
"237010","706-TV","2018/05/21 18:09:21","新北市三峽區民權街200號","121.367666666667","24.9291716666667","6500900","三峽區"
"237005","AKY-6261","2018/05/21 18:09:21","新北市三峽區和平街79巷7號","121.369853333333","24.93726","6500900","三峽區"
"236069","105-UM","2018/05/21 18:09:26","新北市土城區明德路一段130號","121.463708333333","24.9790966666667","6501300","土城區"
"236042","107-UM","2018/05/21 18:09:22","新北市土城區城林路6巷80號","121.438196666667","24.9797633333333","6501300","土城區"
"236078","166-UM","2018/05/21 18:09:24","新北市土城區永安街82-1號","121.431783333333","24.963715","6501300","土城區"
"236030","253-BX","2018/05/21 18:09:18","新北市土城區城林路6巷80號","121.438543333333","24.9796883333333","6501300","土城區"
"236026","269-VK","2018/05/21 18:09:23","新北市土城區承天路18號","121.439436666667","24.96348","6501300","土城區"
"236014","270-VK","2018/05/21 18:09:38","新北市土城區學府路一段239號","121.450676666667","24.98368","6501300","土城區"
"236039","271-VK","2018/05/21 18:09:33","新北市土城區青雲路453號","121.458735","24.97465","6501300","土城區"
"236020","401-BY","2018/05/21 18:09:34","新北市土城區城林路6巷80號","121.438415","24.979635","6501300","土城區"
"236059","912-UM","2018/05/21 18:09:28","新北市土城區中央路四段218號","121.415663333333","24.9572916666667","6501300","土城區"
"236048","913-UM","2018/05/21 18:09:33","新北市土城區金城路二段26號","121.450051666667","24.9778733333333","6501300","土城區"
"236063","915-UM","2018/05/21 18:09:35","新北市土城區金城路二段188號","121.454086666667","24.9812433333333","6501300","土城區"
"236055","AAC-216","2018/05/21 18:09:26","新北市土城區城林路6巷80號","121.438631666667","24.9796933333333","6501300","土城區"
"242034","AAC-296","2018/05/21 18:09:25","新北市新莊區中正路421巷22號","121.444528333333","25.0335433333333","6500500","新莊區"
"242058","986-R7","2018/05/21 18:09:30","新北市新莊區壽山路49-2號","121.414383333333","25.0309","6500500","新莊區"
"242053","751-BX","2018/05/21 18:09:25","新北市新莊區民安西路350號","121.427156666667","25.0112383333333","6500500","新莊區"
"242027","615-BX","2018/05/21 18:09:33","新北市新莊區幸福路591號","121.453568333333","25.049225","6500500","新莊區"
"242025","613-BX","2018/05/21 18:09:38","新北市新莊區五工二路94巷1號","121.459323333333","25.06675","6500500","新莊區"
"242029","612-BX","2018/05/21 18:09:39","新北市新莊區中平路196號","121.44476","25.048345","6500500","新莊區"
"242042","566-BX","2018/05/21 18:09:31","新北市新莊區天祥街123號","121.414391666667","25.029735","6500500","新莊區"
"242050","441-UM","2018/05/21 18:09:26","新北市新莊區民本街11巷31號","121.428933333333","25.0202933333333","6500500","新莊區"
"242056","440-UM","2018/05/21 18:09:37","新北市新莊區豐年街豐2巷37號","121.447805","25.0309966666667","6500500","新莊區"
"242036","415-TV","2018/05/21 18:09:21","新北市新莊區建福路48巷13號","121.425613333333","25.02738","6500500","新莊區"
"242007","413-TV","2018/05/21 18:09:38","新北市新莊區自立街79巷16號","121.454485","25.0459966666667","6500500","新莊區"
"242023","362-BY","2018/05/21 18:09:23","新北市泰山區泰林路一段2號","121.441988333333","25.04785","6500500","新莊區"
"242060","353-BY","2018/05/21 18:09:39","新北市新莊區新樹路79號","121.43774","25.0275366666667","6500500","新莊區"
"242009","132-UY","2018/05/21 18:09:24","新北市新莊區昌平街71巷17號","121.453636666667","25.0535516666667","6500500","新莊區"
"242039","133-UY","2018/05/21 18:09:33","新北市新莊區民安西路88巷2號","121.4264","25.0199933333333","6500500","新莊區"
"242031","135-UY","2018/05/21 18:09:35","新北市新莊區新泰路255巷8號","121.445651666667","25.0398083333333","6500500","新莊區"
"242048","172-VK","2018/05/21 18:09:26","新北市新莊區民安路49號","121.423943333333","25.0261333333333","6500500","新莊區"
"242011","173-VK","2018/05/21 18:09:21","新北市新莊區中港路299巷19號","121.4521","25.04419","6500500","新莊區"
"242017","175-VK","2018/05/21 18:09:39","新北市新莊區復興路一段45號","121.44702","25.0421183333333","6500500","新莊區"
"242015","346-TH","2018/05/21 18:09:32","新北市新莊區中平路152巷45號","121.446685","25.04743","6500500","新莊區"
"242021","348-TH","2018/05/21 18:09:40","新北市新莊區新興街39號","121.450641666667","25.0385333333333","6500500","新莊區"
"242019","350-TH","2018/05/21 18:09:29","新北市新莊區公園路129-5號","121.457498333333","25.04085","6500500","新莊區"
"242013","351-TH","2018/05/21 18:09:31","新北市新莊區瓊泰路63巷19號","121.442178333333","25.0286316666667","6500500","新莊區"
"238015","755-BX","2018/05/21 18:09:41","新北市樹林區大安路322巷2號","121.41705","24.9916666666667","6500700","樹林區"
"238023","601-UM","2018/05/21 18:09:30","新北市樹林區龍興街13巷19號","121.40368","25.0165766666667","6500700","樹林區"
"238019","599-UM","2018/05/21 18:09:20","新北市樹林區水源街50號","121.425588333333","24.9811633333333","6500700","樹林區"
"238018","571-TV","2018/05/21 18:09:32","新北市樹林區鎮前街61號","121.425053333333","24.9911416666667","6500700","樹林區"
"238022","KEA-2213","2018/05/21 18:09:34","新北市樹林區太順街105號","121.414816666667","24.9770933333333","6500700","樹林區"
"238021","KEA-2539","2018/05/21 18:09:23","新北市樹林區柑園街二段172號","121.381873333333","24.9542016666667","6500700","樹林區"
"238025","303-VK","2018/05/21 18:09:37","新北市樹林區保安街二段65號","121.416108333333","25.0005633333333","6500700","樹林區"
"238017","283-BY","2018/05/21 18:09:35","新北市樹林區保安街二段337巷47號","121.411025","25.007925","6500700","樹林區"
"238014","282-BY","2018/05/21 18:09:21","新北市樹林區潭興街107巷3弄14號","121.424243333333","24.99906","6500700","樹林區"
"238020","268-VK","2018/05/21 18:09:32","新北市樹林區三龍街115號","121.417496666667","25.0182666666667","6500700","樹林區"
"238026","172-UY","2018/05/21 18:09:20","新北市樹林區佳園路一段86-1號","121.39324","24.9694166666667","6500700","樹林區"
"238016","169-UY","2018/05/21 18:09:25","新北市樹林區文化街33號","121.418573333333","24.98797","6500700","樹林區"
"239006","891-R6","2018/05/21 18:09:34","新北市鶯歌區鶯桃路365巷30號","121.332513333333","24.9626466666667","6500800","鶯歌區"
"239008","527-UM","2018/05/21 18:09:29","新北市鶯歌區國際一路179號","121.336176666667","24.97649","6500800","鶯歌區"
"239005","526-UM","2018/05/21 18:09:30","新北市鶯歌區鶯桃路668巷73號","121.329835","24.9717633333333","6500800","鶯歌區"
"239001","417-VK","2018/05/21 18:09:38","新北市鶯歌區國中街11號","121.342135","24.943045","6500800","鶯歌區"
"239003","360-BY","2018/05/21 18:09:30","新北市鶯歌區福安街32巷34號","121.335318333333","24.9635116666667","6500800","鶯歌區"
"239002","359-BY","2018/05/21 18:09:20","新北市鶯歌區永明街135號","121.34286","24.9557133333333","6500800","鶯歌區"
"221008","489-VK","2018/05/21 18:09:36","新北市汐止區康寧街315號","121.627018333333","25.06795","6501100","汐止區"
"221036","130-UY","2018/05/21 18:09:19","新北市汐止區大同路三段123號","121.669005","25.0777016666667","6501100","汐止區"
"221015","131-UY","2018/05/21 18:09:29","新北市汐止區鄉長路二段25-1號","121.668256666667","25.08264","6501100","汐止區"
"221010","269-BY","2018/05/21 18:09:37","新北市汐止區汐萬路二段245巷37號","121.643763333333","25.0878233333333","6501100","汐止區"
"221012","278-VK","2018/05/21 18:09:32","新北市汐止區保一街39號","121.67429","25.0799916666667","6501100","汐止區"
"221023","279-VK","2018/05/21 18:09:31","新北市汐止區明峰街180號","121.628505","25.0701166666667","6501100","汐止區"
"221032","280-BY","2018/05/21 18:09:38","新北市汐止區橫科路8號","121.617715","25.05125","6501100","汐止區"
"221027","281-BY","2018/05/21 18:09:22","新北市汐止區大同路二段501號","121.661105","25.0685016666667","6501100","汐止區"
"221029","298-VK","2018/05/21 18:09:33","新北市汐止區樟樹二路134號","121.64","25.065675","6501100","汐止區"
"221021","299-VK","2018/05/21 18:09:29","新北市汐止區龍安路173號","121.653783333333","25.063025","6501100","汐止區"
"221031","353-TW","2018/05/21 18:09:38","新北市汐止區中興路163號","121.631023333333","25.0661983333333","6501100","汐止區"
"221035","622-UM","2018/05/21 18:09:40","新北市汐止區大同路二段207號","121.652756666667","25.0645483333333","6501100","汐止區"
"221025","623-UM","2018/05/21 18:09:26","新北市汐止區秀峰路145號","121.66043","25.062185","6501100","汐止區"
"221038","646-BX","2018/05/21 18:09:32","新北市汐止區莊敬街141巷3號","121.654386666667","25.0604783333333","6501100","汐止區"
"221033","647-BX","2018/05/21 18:09:37","新北市汐止區林森街21號","121.621785","25.0405716666667","6501100","汐止區"
"221002","707-TV","2018/05/21 18:09:24","新北市汐止區福德一路213巷1號","121.634973333333","25.0651933333333","6501100","汐止區"
"221018","753-BX","2018/05/21 18:09:39","新北市汐止區忠孝東路397號","121.665785","25.0708216666667","6501100","汐止區"
"242002","KEA-2550","2018/05/21 18:09:36","新北市新莊區新莊路2號","121.45939","25.0379366666667","6500500","新莊區"
"242044","281-VK","2018/05/21 18:09:22","新北市新莊區天泉二街11號","121.414995","25.0249533333333","6500500","新莊區"
"242046","280-VK","2018/05/21 18:09:25","新北市新莊區民安路46號","121.422691666667","25.0275133333333","6500500","新莊區"
