"lineid","car","time","location","longitude","latitude","cityid","cityname"
"234007","207-UY","2018/05/21 18:19:45","新北市永和區保生路22巷21號","121.50729","25.008255","6500400","永和區"
"234017","745-BX","2018/05/21 18:19:43","新北市永和區福和路1號","121.526423333333","25.009575","6500400","永和區"
"234042","862-TW","2018/05/21 18:19:29","新北市永和區福和路1號","121.526476666667","25.009685","6500400","永和區"
"234026","9371-KE","2018/05/21 18:19:34","新北市永和區豫溪街28巷7號","121.515253333333","25.009505","6500400","永和區"
"234011","9373-KE","2018/05/21 18:19:49","新北市永和區豫溪街217巷27號","121.524593333333","25.0104266666667","6500400","永和區"
"249005","172-UM","2018/05/21 18:19:38","新北市八里區荖阡坑路15-1號","121.40066","25.14015","6502300","八里區"
"249001","173-UM","2018/05/21 18:19:29","新北市八里區龍米路一段129號","121.452171666667","25.1267016666667","6502300","八里區"
"249004","303-UY","2018/05/21 18:19:33","新北市八里區龍米路二段228-1號","121.43269","25.1583983333333","6502300","八里區"
"248016","026-BX","2018/05/21 18:19:37","新北市五股區凌雲路一段109巷34號","121.44935","25.1005416666667","6501500","五股區"
"248006","077-UY","2018/05/21 18:19:48","新北市五股區中興路一段161號","121.46478","25.07372","6501500","五股區"
"248008","095-VK","2018/05/21 18:19:31","新北市五股區更洲路32巷8弄14號","121.45925","25.079635","6501500","五股區"
"248018","225-UY","2018/05/21 18:19:39","新北市五股區御史路160號","121.430001666667","25.10284","6501500","五股區"
"248012","247-BX","2018/05/21 18:19:28","新北市五股區御成路2號","121.44199","25.090735","6501500","五股區"
"248014","261-SL","2018/05/21 18:19:34","新北市五股區自強路45號","121.433406666667","25.07375","6501500","五股區"
"248004","677-BX","2018/05/21 18:19:35","新北市五股區成泰路二段222-3號","121.43921","25.08548","6501500","五股區"
"248002","678-BX","2018/05/21 18:19:34","新北市五股區西雲路86號","121.443815","25.09231","6501500","五股區"
"248010","682-TV","2018/05/21 18:19:41","新北市五股區成泰路一段126號","121.43525","25.0743516666667","6501500","五股區"
"232011","375-UM","2018/05/21 18:19:27","新北市坪林區坪雙路一段41號","121.711676666667","24.9424416666667","6502000","坪林區"
"244013","069-UM","2018/05/21 18:19:31","新北市林口區中山路125號","121.388855","25.0789333333333","6501700","林口區"
"244007","080-UY","2018/05/21 18:19:44","新北市林口區湖子18-3號","121.385725","25.0924316666667","6501700","林口區"
"244019","403-UM","2018/05/21 18:19:42","新北市林口區麗園路54號","121.373633333333","25.0697683333333","6501700","林口區"
"244009","410-SL","2018/05/21 18:19:43","新北市林口區佳林路56巷39號","121.385175","25.08085","6501700","林口區"
"244023","483-VK","2018/05/21 18:19:42","新北市林口區仁愛路二段163號","121.382161666667","25.0737416666667","6501700","林口區"
"244017","485-VK","2018/05/21 18:19:30","新北市林口區公園路39號","121.36721","25.0681333333333","6501700","林口區"
"244011","657-BX","2018/05/21 18:19:37","新北市林口區中正路74巷5弄4號","121.39449","25.0780083333333","6501700","林口區"
"244025","837-TS","2018/05/21 18:19:28","新北市林口區文化三路一段125號","121.361405","25.06903","6501700","林口區"
"244021","838-TS","2018/05/21 18:17:38","新北市林口區新寮45號","121.404303333333","25.064445","6501700","林口區"
"243013","AAD-798","2018/05/21 18:17:37","新北市泰山區致遠新村55-1號","121.41648","25.0429733333333","6501600","泰山區"
"222003","436-BY","2018/05/21 18:19:39","新北市深坑區旺耽路67號","121.62626","25.00301","6501800","深坑區"
"222002","659-BX","2018/05/21 18:19:32","新北市深坑區雲鄉路13號","121.621686666667","24.99981","6501800","深坑區"
"231041","002-UM","2018/05/21 18:19:33","新北市新店區安華路28-1號","121.519576666667","24.9608216666667","6500600","新店區"
"231059","046-UY","2018/05/21 18:19:28","新北市新店區安華路28-1號","121.519518333333","24.96076","6500600","新店區"
"231040","047-UY","2018/05/21 18:19:33","新北市新店區安華路28-1號","121.519278333333","24.9608983333333","6500600","新店區"
"231044","106-UY","2018/05/21 18:19:16","新北市新店區安華路28-1號","121.519545","24.9608533333333","6500600","新店區"
"231052","108-UY","2018/05/21 18:19:46","新北市新店區環河路29巷1-1號","121.535981666667","24.9610916666667","6500600","新店區"
"231047","187-VK","2018/05/21 18:19:40","新北市新店區安一路一段1-1號","121.519601666667","24.9611266666667","6500600","新店區"
"231046","188-VK","2018/05/21 18:19:29","新北市新店區直潭七街60號","121.53224","24.9397633333333","6500600","新店區"
"231054","KEA-2219","2018/05/21 18:19:41","新北市新店區安一路一段1-1號","121.519661666667","24.961305","6500600","新店區"
"231057","256-BX","2018/05/21 18:19:41","新北市新店區安一路一段1-1號","121.519793333333","24.9611133333333","6500600","新店區"
"231042","268-BY","2018/05/21 18:19:38","新北市新店區安華路1-1號","121.519401666667","24.96053","6500600","新店區"
"231051","278-BY","2018/05/21 18:19:39","新北市新店區安一路一段1-1號","121.519538333333","24.9611266666667","6500600","新店區"
"231050","AAD-862","2018/05/21 18:19:28","新北市新店區安華路28-1號","121.519823333333","24.9610216666667","6500600","新店區"
"231058","3713-VJ","2018/05/21 18:19:38","新北市新店區安康路一段3-1號","121.53445","24.9607016666667","6500600","新店區"
"231066","4716-K9","2018/05/21 18:19:40","新北市新店區安一路一段1-1號","121.519341666667","24.961125","6500600","新店區"
"231056","4715-K9","2018/05/21 18:19:32","新北市新店區中央路57號","121.532725","24.97737","6500600","新店區"
"231067","4772-VM","2018/05/21 18:19:37","新北市新店區安華路1-1號","121.519296666667","24.96049","6500600","新店區"
"231065","512-UM","2018/05/21 18:19:39","新北市新店區安華路28-1號","121.519308333333","24.96094","6500600","新店區"
"231049","513-UM","2018/05/21 18:19:36","新北市新店區安一路一段1-1號","121.519586666667","24.9610983333333","6500600","新店區"
"231063","616-UM","2018/05/21 18:19:34","新北市新店區安華路1-1號","121.519445","24.960475","6500600","新店區"
"231061","619-UM","2018/05/21 18:19:34","新北市新店區安華路28-1號","121.519565","24.9607833333333","6500600","新店區"
"231054","719-UY","2018/05/21 18:19:44","新北市新店區安一路一段1-1號","121.519555","24.9610833333333","6500600","新店區"
"231062","720-UM","2018/05/21 18:19:39","新北市新店區安一路一段1-1號","121.51927","24.9612266666667","6500600","新店區"
"231060","897-TW","2018/05/21 18:19:45","新北市新店區安華路28-1號","121.519558333333","24.9607816666667","6500600","新店區"
"231045","898-TW","2018/05/21 18:19:34","新北市新店區安華路28-1號","121.519371666667","24.96079","6500600","新店區"
"231043","899-TW","2018/05/21 18:19:41","新北市新店區安華路28-1號","121.519215","24.9607683333333","6500600","新店區"
"231055","AKT-0513","2018/05/21 18:19:45","新北市新店區環河路1-5號","121.538305","24.9615833333333","6500600","新店區"
"235064","005-UY","2018/05/21 18:19:32","新北市中和區中正路140號","121.499165","24.9938683333333","6500300","中和區"
"235063","006-UY","2018/05/21 18:19:33","新北市中和區中正路561號","121.487035","24.9943083333333","6500300","中和區"
"235047","031-BX","2018/05/21 18:19:31","新北市中和區南山路300號","121.50783","24.9871916666667","6500300","中和區"
"235056","096-UM","2018/05/21 18:19:37","新北市中和區中山路二段594號","121.48229","25.005455","6500300","中和區"
"235039","097-UM","2018/05/21 18:19:37","新北市中和區景安路117號","121.505785","24.996405","6500300","中和區"
"235065","098-UM","2018/05/21 18:19:40","新北市中和區莊敬路49巷18號","121.50161","25.006165","6500300","中和區"
"235040","150-BY","2018/05/21 18:19:27","新北市中和區中正路190-1號","121.497875","24.993795","6500300","中和區"
"235058","151-BY","2018/05/21 18:19:32","新北市中和區圓通路367巷29號","121.492238333333","24.9856583333333","6500300","中和區"
"235055","183-VK","2018/05/21 18:19:34","新北市中和區中正路637巷52弄1號","121.485406666667","24.9935466666667","6500300","中和區"
"235038","185-VK","2018/05/21 18:19:31","新北市中和區秀朗路三段128巷7弄7號","121.524225","24.9926133333333","6500300","中和區"
"235049","186-VK","2018/05/21 18:19:44","新北市中和區錦和路350-1號","121.490156666667","24.993555","6500300","中和區"
"235072","301-VK","2018/05/21 18:19:38","新北市中和區連城路249號","121.492911666667","24.99674","6500300","中和區"
"235043","352-BY","2018/05/21 18:19:28","新北市中和區南山路229巷2號","121.503875","24.9932283333333","6500300","中和區"
"235061","378-QA","2018/05/21 18:18:51","新北市中和區國光街215巷24弄12號","121.466755","24.9998483333333","6500300","中和區"
"235050","4979-A6","2018/05/21 18:19:41","新北市中和區捷運路61巷24號","121.508966666667","24.9892266666667","6500300","中和區"
"235069","4980-A6","2018/05/21 18:19:43","新北市中和區連城路301號","121.489855","24.99627","6500300","中和區"
"235042","551-UM","2018/05/21 18:19:44","新北市中和區大仁街20巷25弄6號","121.518653333333","24.9935516666667","6500300","中和區"
"235070","558-UM","2018/05/21 18:19:36","新北市中和區圓通路160-1號","121.497653333333","24.9955366666667","6500300","中和區"
"235045","565-BX","2018/05/21 18:19:35","新北市中和區景安路200巷5號","121.503456666667","24.991575","6500300","中和區"
"235054","640-BX","2018/05/21 18:19:48","新北市中和區莒光路207號","121.46978","24.9955866666667","6500300","中和區"
"235060","647-TV","2018/05/21 18:19:38","新北市中和區連城路328號","121.483243333333","24.9959866666667","6500300","中和區"
"235046","733-UM","2018/05/21 18:19:25","新北市中和區中正路637巷52弄1號","121.485526666667","24.9933333333333","6500300","中和區"
"235071","783-BX","2018/05/21 18:19:26","新北市中和區員山路36巷16-3號","121.485235","24.9911833333333","6500300","中和區"
"235057","801-TS","2018/05/21 18:19:35","新北市中和區員山路155號","121.481105","24.9964933333333","6500300","中和區"
"235041","802-TS","2018/05/21 18:19:26","新北市中和區中正路395號","121.489325","24.9935916666667","6500300","中和區"
"235052","805-TS","2018/05/21 18:19:42","新北市中和區捷運路157號","121.506353333333","24.99115","6500300","中和區"
"235048","896-TW","2018/05/21 18:19:43","新北市中和區錦和路350-1號","121.490066666667","24.9935583333333","6500300","中和區"
"235053","900-TW","2018/05/21 18:19:30","新北市中和區員山路36巷16-3號","121.484988333333","24.99164","6500300","中和區"
"235066","911-UM","2018/05/21 18:03:00","新北市中和區員山路36巷16-2號","121.485341666667","24.9917416666667","6500300","中和區"
"235051","157-BY","2018/05/21 18:19:38","新北市中和區忠孝街102號","121.51211","24.9846133333333","6500300","中和區"
"235037","AAC-213","2018/05/21 18:19:45","新北市中和區景德街59號","121.517425","24.9914733333333","6500300","中和區"
"226004","312-R5","2018/05/21 18:19:48","新北市平溪區靜安路二段52號","121.714948333333","25.02066","6502400","平溪區"
"228003","097-TW","2018/05/21 18:19:29","新北市貢寮區真理里美艷山街64-2號","121.919845","25.0723683333333","6502600","貢寮區"
"228002","585-TW","2018/05/21 18:19:45","新北市貢寮區福連里馬崗街10號","122.001903333333","25.0137616666667","6502600","貢寮區"
"228001","670-TC","2018/05/21 18:19:42","新北市貢寮區真理里新港街26巷55弄2-1號","121.927366666667","25.0528733333333","6502600","貢寮區"
"224010","AGQ-8101","2018/05/21 17:57:35","新北市瑞芳區山尖路209號","121.849238333333","25.1115883333333","6501200","瑞芳區"
"224002","639-TC","2018/05/21 18:19:47","新北市瑞芳區三爪子坑路149巷12號","121.811098333333","25.1064216666667","6501200","瑞芳區"
"224008","285-BY","2018/05/21 18:19:36","新北市瑞芳區逢甲路84號","121.809553333333","25.1087566666667","6501200","瑞芳區"
"224007","275-VK","2018/05/21 18:19:29","新北市瑞芳區大埔路67巷5-1號","121.764253333333","25.1015933333333","6501200","瑞芳區"
"224009","273-VK","2018/05/21 18:19:47","新北市瑞芳區五號路96號","121.854728333333","25.11042","6501200","瑞芳區"
"224005","271-BY","2018/05/21 18:19:42","新北市瑞芳區建基新村11號","121.811425","25.1314633333333","6501200","瑞芳區"
"227008","642-TC","2018/05/21 18:19:36","新北市雙溪區牡丹里牡丹73號","121.851713333333","25.0593483333333","6502500","雙溪區"
"253005","032-BX","2018/05/21 18:19:25","新北市石門區中央路1-1號","121.565608333333","25.29141","6502200","石門區"
"253006","295-VK","2018/05/21 18:19:42","新北市石門區老梅路75號","121.546108333333","25.2892416666667","6502200","石門區"
"253001","4710-YM","2018/05/21 18:19:36","新北市石門區中央路1-13號","121.561556666667","25.2910866666667","6502200","石門區"
"222001","KEA-2212","2018/05/21 18:19:45","新北市深坑區北深路二段51號","121.619026666667","25.0040333333333","6501800","深坑區"
"208002","KEA-2872","2018/05/21 18:19:38","新北市金山區清泉里清水路60巷18號","121.63439","25.2319","6502700","金山區"
"208003","665-BX","2018/05/21 18:19:42","新北市金山區民生路196號","121.645871666667","25.22183","6502700","金山區"
"208001","761-BX","2018/05/21 18:19:41","新北市金山區自強路22號","121.64035","25.2167183333333","6502700","金山區"
"251004","009-UM","2018/05/21 18:19:37","新北市淡水區民權路215巷104號","121.462763333333","25.133615","6501000","淡水區"
"251005","010-UM","2018/05/21 18:19:32","新北市淡水區學府路73巷10號","121.447358333333","25.1702833333333","6501000","淡水區"
"251001","011-UM","2018/05/21 18:19:34","新北市淡水區自強路108-19號","121.461608333333","25.1313366666667","6501000","淡水區"
"251013","KEA-2871","2018/05/21 18:19:46","新北市淡水區行忠路590號","121.468028333333","25.1991583333333","6501000","淡水區"
"251016","179-VK","2018/05/21 18:19:40","新北市淡水區淡金路三段228巷24號","121.449725","25.20497","6501000","淡水區"
"251014","180-VK","2018/05/21 18:19:37","新北市淡水區崙頂14號","121.491171666667","25.2217833333333","6501000","淡水區"
"251008","181-VK","2018/05/21 18:19:34","新北市淡水區水源街二段194號","121.45713","25.17552","6501000","淡水區"
"251015","182-VK","2018/05/21 18:19:34","新北市淡水區興福寮66巷539號","121.484548333333","25.16511","6501000","淡水區"
"251010","413-VK","2018/05/21 18:19:37","新北市淡水區淡海路198號","121.420305","25.1853983333333","6501000","淡水區"
"251012","443-VK","2018/05/21 18:19:38","新北市淡水區北新路二段77-5號","121.480513333333","25.1855733333333","6501000","淡水區"
"251006","561-UM","2018/05/21 18:19:40","新北市淡水區新民街76巷36弄1號","121.439443333333","25.1780233333333","6501000","淡水區"
"251011","650-BX","2018/05/21 18:19:42","新北市淡水區坪頂路51巷2號","121.458445","25.16261","6501000","淡水區"
"251002","672-BX","2018/05/21 18:19:42","新北市淡水區中正東路一段75號","121.452773333333","25.162195","6501000","淡水區"
"251003","766-UM","2018/05/21 18:19:40","新北市淡水區北新路135號","121.449356666667","25.1788316666667","6501000","淡水區"
"207003","550-UM","2018/05/21 18:19:30","新北市萬里區野柳里港東路61號","121.687605","25.203795","6502800","萬里區"
"207004","225-TW","2018/05/21 18:19:44","新北市萬里區中幅里中福路197號","121.672746666667","25.1651116666667","6502800","萬里區"
"252002","178-VK","2018/05/21 18:19:45","新北市三芝區中山路二段37號","121.502883333333","25.2551483333333","6502100","三芝區"
"252003","249-BX","2018/05/21 18:19:37","新北市三芝區錫板里海尾14-33號","121.478051666667","25.2601216666667","6502100","三芝區"
"252001","292-VK","2018/05/21 18:19:38","新北市三芝區中興街二段2號","121.498341666667","25.2566583333333","6502100","三芝區"
"237004","KEA-2597","2018/05/21 18:19:36","新北市三峽區大埔路417號","121.373211666667","24.8927066666667","6500900","三峽區"
"237007","153-BY","2018/05/21 18:19:44","新北市三峽區中正路二段474號","121.363475","24.9071783333333","6500900","三峽區"
"237011","572-TV","2018/05/21 18:19:37","新北市三峽區溪東路303號","121.409458333333","24.9309766666667","6500900","三峽區"
"237009","210-TH","2018/05/21 18:19:46","新北市三峽區大仁路38號","121.365845","24.937565","6500900","三峽區"
"237013","252-BX","2018/05/21 18:19:38","新北市三峽區中正路一段19巷9號","121.376443333333","24.930495","6500900","三峽區"
"237012","275-BY","2018/05/21 18:19:38","新北市三峽區民生街19巷7弄16號","121.376981666667","24.93567","6500900","三峽區"
"237008","302-VK","2018/05/21 18:19:32","新北市三峽區白雞68-303號","121.391438333333","24.9098633333333","6500900","三峽區"
"237014","433-BY","2018/05/21 18:19:34","新北市三峽區復興路110巷2弄2號","121.372791666667","24.9380566666667","6500900","三峽區"
"237006","5529-G3","2018/05/21 18:19:38","新北市三峽區溪東路240號","121.408393333333","24.9316533333333","6500900","三峽區"
"237015","649-BX","2018/05/21 18:19:45","新北市三峽區紫微路42-1號","121.422273333333","24.9198933333333","6500900","三峽區"
"237010","706-TV","2018/05/21 18:19:41","新北市三峽區民族街77號","121.369533333333","24.9294266666667","6500900","三峽區"
"237005","AKY-6261","2018/05/21 18:19:41","新北市三峽區秀川街26巷3號","121.371506666667","24.93438","6500900","三峽區"
"236069","105-UM","2018/05/21 18:19:46","新北市土城區永豐路202巷14號","121.466391666667","24.9833816666667","6501300","土城區"
"236042","107-UM","2018/05/21 18:19:43","新北市土城區樂利街3巷32號","121.448548333333","24.9864666666667","6501300","土城區"
"236078","166-UM","2018/05/21 18:19:44","新北市土城區永平街2巷1號","121.427413333333","24.9634866666667","6501300","土城區"
"236030","253-BX","2018/05/21 18:19:39","新北市土城區順風路24號","121.440698333333","24.97673","6501300","土城區"
"236026","269-VK","2018/05/21 18:19:43","新北市土城區承天路67號","121.43953","24.9634833333333","6501300","土城區"
"236014","270-VK","2018/05/21 18:19:38","新北市土城區青雲路39巷7號","121.460275","24.9873716666667","6501300","土城區"
"236039","271-VK","2018/05/21 18:19:33","新北市土城區青雲路451巷8弄6號","121.459473333333","24.9743516666667","6501300","土城區"
"236020","401-BY","2018/05/21 18:19:34","新北市土城區明德路二段65號","121.452011666667","24.9805366666667","6501300","土城區"
"236059","912-UM","2018/05/21 18:19:28","新北市土城區中央路四段466號","121.409983333333","24.9505833333333","6501300","土城區"
"236048","913-UM","2018/05/21 18:19:47","新北市土城區明德路一段369號","121.455641666667","24.9779533333333","6501300","土城區"
"236063","915-UM","2018/05/21 18:19:35","新北市土城區金城路三段202-3號","121.469433333333","24.98856","6501300","土城區"
"236055","AAC-216","2018/05/21 18:19:46","新北市土城區中華路二段96號","121.43813","24.9744966666667","6501300","土城區"
"242034","AAC-296","2018/05/21 18:09:45","新北市新莊區中正路421巷22號","121.444528333333","25.0335433333333","6500500","新莊區"
"242058","986-R7","2018/05/21 18:19:30","新北市新莊區新北大道七段842號","121.41371","25.0236783333333","6500500","新莊區"
"242053","751-BX","2018/05/21 18:19:45","新北市新莊區民安西路412-3號","121.428861666667","25.009815","6500500","新莊區"
"242042","566-BX","2018/05/21 18:19:31","新北市新莊區天祥街87號","121.415328333333","25.02943","6500500","新莊區"
"242050","441-UM","2018/05/21 18:19:26","新北市新莊區民安西路44號","121.427431666667","25.0208916666667","6500500","新莊區"
"242056","440-UM","2018/05/21 18:19:37","新北市新莊區瓊林路48號","121.446461666667","25.0289383333333","6500500","新莊區"
"242007","413-TV","2018/05/21 18:19:38","新北市新莊區中華路二段36-1號","121.453868333333","25.0454233333333","6500500","新莊區"
"242060","353-BY","2018/05/21 18:19:39","新北市新莊區後港一路82號","121.427238333333","25.026615","6500500","新莊區"
"242009","132-UY","2018/05/21 18:19:44","新北市新莊區中華路二段126號","121.452985","25.0492083333333","6500500","新莊區"
"242039","133-UY","2018/05/21 18:19:33","新北市新莊區新樹路206巷3號","121.433465","25.0203783333333","6500500","新莊區"
"242031","135-UY","2018/05/21 18:19:40","新北市新莊區新泰路277巷38號","121.443988333333","25.0402016666667","6500500","新莊區"
"242048","172-VK","2018/05/21 18:19:26","新北市樹林區中正路106-8號","121.424591666667","25.0017183333333","6500500","新莊區"
"242011","173-VK","2018/05/21 18:18:32","新北市新莊區中港路591巷18號","121.450373333333","25.0525466666667","6500500","新莊區"
"242021","348-TH","2018/05/21 18:19:40","新北市新莊區中正路190號","121.449743333333","25.035545","6500500","新莊區"
"242013","351-TH","2018/05/21 18:19:31","新北市板橋區金門街215巷81弄8號","121.434806666667","24.9888733333333","6500500","新莊區"
"238015","755-BX","2018/05/21 18:19:43","新北市樹林區啟智街86巷1號","121.418563333333","24.9905733333333","6500700","樹林區"
"238023","601-UM","2018/05/21 18:19:30","新北市樹林區忠愛街15號","121.408045","25.0156516666667","6500700","樹林區"
"238019","599-UM","2018/05/21 18:19:39","新北市樹林區國凱街136巷30弄12號","121.423513333333","24.9793","6500700","樹林區"
"238018","571-TV","2018/05/21 18:19:32","新北市樹林區博愛街8號","121.427775","24.99315","6500700","樹林區"
"238024","5061-A6","2018/05/21 18:19:42","新北市樹林區中山路一段135-6號","121.422768333333","24.9895966666667","6500700","樹林區"
"238025","303-VK","2018/05/21 18:19:36","新北市樹林區保安二街59號","121.424513333333","24.9945116666667","6500700","樹林區"
"238017","283-BY","2018/05/21 18:19:35","新北市樹林區光榮街79號","121.412081666667","25.00292","6500700","樹林區"
"238020","268-VK","2018/05/21 18:19:29","新北市樹林區三俊街63號","121.413563333333","25.0157633333333","6500700","樹林區"
"238026","172-UY","2018/05/21 18:19:40","新北市樹林區八德街598巷1號","121.397061666667","24.97074","6500700","樹林區"
"238016","169-UY","2018/05/21 18:19:46","新北市樹林區文化街26號","121.419435","24.9876633333333","6500700","樹林區"
"239008","527-UM","2018/05/21 18:19:49","新北市鶯歌區國際一路179號","121.336201666667","24.9764533333333","6500800","鶯歌區"
"239005","526-UM","2018/05/21 18:19:30","新北市鶯歌區鶯桃路668巷69弄2號","121.329818333333","24.971775","6500800","鶯歌區"
"239001","417-VK","2018/05/21 18:19:38","新北市鶯歌區中正三路福德巷12號","121.340261666667","24.9402233333333","6500800","鶯歌區"
"239003","360-BY","2018/05/21 18:19:30","新北市鶯歌區福安街58號","121.335585","24.96519","6500800","鶯歌區"
"239002","359-BY","2018/05/21 18:19:41","新北市鶯歌區育才街27巷1號","121.349126666667","24.9549616666667","6500800","鶯歌區"
"221008","489-VK","2018/05/21 18:19:36","新北市汐止區康寧街649號","121.637608333333","25.072355","6501100","汐止區"
"221036","130-UY","2018/05/21 18:19:39","新北市汐止區長興街一段12號","121.669591666667","25.078745","6501100","汐止區"
"221015","131-UY","2018/05/21 18:19:40","新北市汐止區鄉長路二段25-1號","121.668255","25.0826316666667","6501100","汐止區"
"221010","269-BY","2018/05/21 18:19:37","新北市汐止區汐萬路二段275巷3弄1號","121.64524","25.0887433333333","6501100","汐止區"
"221012","278-VK","2018/05/21 18:19:32","新北市汐止區保長路35巷23號","121.673696666667","25.08047","6501100","汐止區"
"221023","279-VK","2018/05/21 18:19:31","新北市汐止區中興路201號","121.629326666667","25.068345","6501100","汐止區"
"221032","280-BY","2018/05/21 18:19:38","新北市汐止區橫科路2巷11號","121.616388333333","25.0508466666667","6501100","汐止區"
"221027","281-BY","2018/05/21 18:19:42","新北市汐止區和平街6巷5弄2號","121.663713333333","25.07178","6501100","汐止區"
"221029","298-VK","2018/05/21 18:19:33","新北市汐止區汐萬路一段312號","121.65046","25.075425","6501100","汐止區"
"221021","299-VK","2018/05/21 18:19:44","新北市汐止區連興街120號","121.65371","25.062535","6501100","汐止區"
"221031","353-TW","2018/05/21 18:19:38","新北市汐止區大同路一段160-7號","121.635616666667","25.05528","6501100","汐止區"
"221035","622-UM","2018/05/21 18:19:40","新北市汐止區大同路二段179號","121.651976666667","25.0642266666667","6501100","汐止區"
"221025","623-UM","2018/05/21 18:19:26","新北市汐止區勤進路12巷29號","121.659235","25.06245","6501100","汐止區"
"221038","646-BX","2018/05/21 18:19:32","新北市汐止區仁愛路313號","121.664578333333","25.0674366666667","6501100","汐止區"
"221033","647-BX","2018/05/21 18:19:37","新北市汐止區宜興街40巷2號","121.62199","25.0417916666667","6501100","汐止區"
"221002","707-TV","2018/05/21 18:19:44","新北市汐止區福德一路213巷35號","121.635708333333","25.0647983333333","6501100","汐止區"
"221018","753-BX","2018/05/21 18:19:39","新北市汐止區茄苳路118號","121.667978333333","25.0703216666667","6501100","汐止區"
"242002","KEA-2550","2018/05/21 18:19:36","新北市新莊區新莊路142號","121.455415","25.0356083333333","6500500","新莊區"
"242044","281-VK","2018/05/21 18:19:42","新北市新莊區新北大道七段788號","121.413183333333","25.0246716666667","6500500","新莊區"
"242046","280-VK","2018/05/21 18:19:45","新北市新莊區中正路831-15號","121.420876666667","25.0276216666667","6500500","新莊區"
"235068","KEA-2873","2018/05/21 18:19:44","新北市中和區員山路36巷16-3號","121.485066666667","24.99134","6500300","中和區"
