"lineid","car","time","location","longitude","latitude","cityid","cityname"
"234046","148-BY","2018/05/21 18:59:21","新北市永和區秀朗路二段148巷7弄16號","121.52586","25.0003516666667","6500400","永和區"
"234007","207-UY","2018/05/21 18:59:25","新北市永和區永和路二段70號","121.514855","25.0111816666667","6500400","永和區"
"234081","298-R6","2018/05/21 18:59:18","新北市永和區國中路200號","121.522298333333","25.0061516666667","6500400","永和區"
"234038","336-UY","2018/05/21 18:59:30","新北市永和區成功路二段207號","121.52656","24.9959416666667","6500400","永和區"
"234064","337-UY","2018/05/21 18:59:29","新北市永和區秀朗路一段146號","121.518193333333","25.0033483333333","6500400","永和區"
"234086","338-UY","2018/05/21 18:59:17","新北市永和區永寧街129巷2號","121.517985","25.005315","6500400","永和區"
"234070","552-UM","2018/05/21 18:59:25","新北市永和區中興街68巷5弄4號","121.518461666667","25.0115616666667","6500400","永和區"
"234017","745-BX","2018/05/21 18:59:23","新北市永和區永和路二段299號","121.516021666667","25.0160916666667","6500400","永和區"
"234030","746-BX","2018/05/21 18:59:06","新北市永和區秀朗路二段276號","121.525966666667","24.9978883333333","6500400","永和區"
"234054","KEA-2590","2018/05/21 18:59:16","新北市永和區竹林路66巷2號","121.518193333333","25.01341","6500400","永和區"
"234013","KEA-2591","2018/05/21 18:59:24","新北市永和區信義路17巷20號","121.5133","25.0112533333333","6500400","永和區"
"234061","AAD-866","2018/05/21 18:59:28","新北市永和區福和路311號","121.516096666667","25.00707","6500400","永和區"
"234042","862-TW","2018/05/21 18:59:29","新北市永和區永貞路328號","121.511348333333","25.0053633333333","6500400","永和區"
"234050","863-TW","2018/05/21 18:59:34","新北市永和區文化路194號","121.510831666667","25.016305","6500400","永和區"
"234026","9371-KE","2018/05/21 18:59:32","新北市永和區安樂路453號","121.51433","25.00501","6500400","永和區"
"234011","9373-KE","2018/05/21 18:59:29","新北市永和區忠孝街34巷18號","121.514493333333","25.0168133333333","6500400","永和區"
"249005","172-UM","2018/05/21 18:59:19","新北市八里區長道坑6號","121.397823333333","25.1235333333333","6502300","八里區"
"249001","173-UM","2018/05/21 18:59:28","新北市八里區龍米路二段222號","121.433068333333","25.1584383333333","6502300","八里區"
"249004","303-UY","2018/05/21 18:59:33","新北市八里區挖子尾街6號","121.415433333333","25.1641566666667","6502300","八里區"
"248016","026-BX","2018/05/21 18:59:18","新北市五股區成泰路三段543巷54號","121.449676666667","25.1030616666667","6501500","五股區"
"248006","077-UY","2018/05/21 18:59:28","新北市五股區中興路一段32號","121.468635","25.0724716666667","6501500","五股區"
"248008","095-VK","2018/05/21 18:59:31","新北市五股區中興路一段128巷11號","121.465603333333","25.0740216666667","6501500","五股區"
"248018","225-UY","2018/05/21 18:59:19","新北市五股區民義路二段22巷21號","121.421291666667","25.0977583333333","6501500","五股區"
"248012","247-BX","2018/05/21 18:59:27","新北市五股區中興路四段48巷16號","121.438688333333","25.0834216666667","6501500","五股區"
"248004","677-BX","2018/05/21 18:59:15","新北市五股區民義路一段236-5號","121.427245","25.0914533333333","6501500","五股區"
"248002","678-BX","2018/05/21 18:59:14","新北市五股區凌雲路一段158巷6號","121.447946666667","25.1027383333333","6501500","五股區"
"248010","682-TV","2018/05/21 18:59:21","新北市五股區水碓七路18號","121.428626666667","25.0714783333333","6501500","五股區"
"234023","9380-KE","2018/05/21 18:59:24","新北市永和區竹林路75巷33弄45號","121.521095","25.0146466666667","6500400","永和區"
"234077","969-R7","2018/05/21 18:59:34","新北市永和區智光街22號","121.518018333333","24.9992833333333","6500400","永和區"
"234074","AAC-211","2018/05/21 18:59:17","新北市永和區環河東路二段98號","121.524108333333","25.01034","6500400","永和區"
"234067","AAC-212","2018/05/21 18:59:18","新北市永和區自由街49號","121.513913333333","25.0057416666667","6500400","永和區"
"234003","AAC-295","2018/05/21 18:59:24","新北市永和區和平街27號","121.513241666667","25.0099266666667","6500400","永和區"
"232011","375-UM","2018/05/21 18:59:21","新北市坪林區坪林街10-2號","121.712235","24.9358916666667","6502000","坪林區"
"244013","069-UM","2018/05/21 18:59:31","新北市林口區中山路262-1號","121.384643333333","25.0798733333333","6501700","林口區"
"244019","403-UM","2018/05/21 18:59:22","新北市林口區麗園二街51號","121.381126666667","25.0686566666667","6501700","林口區"
"244009","410-SL","2018/05/21 18:59:33","新北市林口區竹林路320巷6號","121.390833333333","25.08211","6501700","林口區"
"244023","483-VK","2018/05/21 18:59:22","新北市林口區民權路110號","121.373736666667","25.0828716666667","6501700","林口區"
"244017","485-VK","2018/05/21 18:59:30","新北市林口區忠孝路132-1號","121.36718","25.0734216666667","6501700","林口區"
"244011","657-BX","2018/05/21 18:59:16","新北市林口區仁愛路一段266號","121.393911666667","25.0760166666667","6501700","林口區"
"244025","837-TS","2018/05/21 18:59:28","新北市林口區南勢街280號","121.35753","25.07634","6501700","林口區"
"244021","838-TS","2018/05/21 18:59:30","新北市林口區工六路15號","121.39984","25.0777933333333","6501700","林口區"
"243013","AAD-798","2018/05/21 18:59:24","新北市泰山區明志路三段206巷1號","121.423325","25.0376816666667","6501600","泰山區"
"243009","297-R6","2018/05/21 18:59:33","新北市泰山區泰林路二段353號","121.428303333333","25.0636766666667","6501600","泰山區"
"243016","380-SR","2018/05/21 18:59:18","新北市泰山區明志路二段152-3號","121.427311666667","25.0506333333333","6501600","泰山區"
"243015","421-VK","2018/05/21 18:59:19","新北市泰山區泰林路二段216號","121.432815","25.061825","6501600","泰山區"
"243011","KEA-2215","2018/05/21 18:59:16","新北市泰山區明志路二段246-1號","121.427091666667","25.0481116666667","6501600","泰山區"
"243010","KEA-2216","2018/05/21 18:59:32","新北市泰山區辭修路30號","121.428978333333","25.0581533333333","6501600","泰山區"
"243012","646-TV","2018/05/21 18:59:32","新北市泰山區福興一街91號","121.43184","25.0576","6501600","泰山區"
"243014","680-BX","2018/05/21 18:59:19","新北市泰山區泰林路二段603號","121.421336666667","25.06344","6501600","泰山區"
"222003","436-BY","2018/05/21 18:59:18","新北市深坑區深南路51-1號","121.621335","25.0101766666667","6501800","深坑區"
"222002","659-BX","2018/05/21 18:59:32","新北市深坑區文山路一段31巷2號","121.629885","25.0033566666667","6501800","深坑區"
"231041","002-UM","2018/05/21 18:59:33","新北市新店區環河路78號","121.537058333333","24.9632466666667","6500600","新店區"
"231059","046-UY","2018/05/21 18:59:28","新北市新店區安華路28-1號","121.519553333333","24.9606666666667","6500600","新店區"
"231040","047-UY","2018/05/21 18:59:13","新北市新店區中正路408號","121.534483333333","24.9776783333333","6500600","新店區"
"231044","106-UY","2018/05/21 18:59:16","新北市新店區寶中路72號","121.547863333333","24.9806033333333","6500600","新店區"
"231052","108-UY","2018/05/21 18:59:26","新北市新店區屈尺路12號","121.548913333333","24.9225733333333","6500600","新店區"
"231047","187-VK","2018/05/21 18:59:19","新北市新店區德正街23巷12-1號","121.544588333333","24.97214","6500600","新店區"
"231046","188-VK","2018/05/21 18:59:29","新北市新店區直潭二街39號","121.535258333333","24.9412733333333","6500600","新店區"
"231054","KEA-2219","2018/05/21 18:59:21","新北市新店區北宜路一段168號","121.540353333333","24.9529833333333","6500600","新店區"
"231042","268-BY","2018/05/21 18:59:18","新北市新店區中正路7號","121.545825","24.9692166666667","6500600","新店區"
"231051","278-BY","2018/05/21 18:59:18","新北市新店區百忍街17巷3號","121.534361666667","24.97557","6500600","新店區"
"231050","AAD-862","2018/05/21 18:59:28","新北市新店區新烏路一段11巷21號","121.547981666667","24.95086","6500600","新店區"
"231058","3713-VJ","2018/05/21 18:59:18","新北市新店區中興路一段138號","121.542253333333","24.9634883333333","6500600","新店區"
"231066","4716-K9","2018/05/21 18:59:21","新北市新店區安祥路50號","121.489301666667","24.9586716666667","6500600","新店區"
"231056","4715-K9","2018/05/21 18:59:32","新北市新店區大同街8巷23號","121.53892","24.9808433333333","6500600","新店區"
"231067","4772-VM","2018/05/21 18:59:17","新北市新店區安康路一段247巷14號","121.524966666667","24.9624633333333","6500600","新店區"
"231065","512-UM","2018/05/21 18:59:19","新北市新店區安祥路199號","121.475773333333","24.954695","6500600","新店區"
"231049","513-UM","2018/05/21 18:59:33","新北市新店區中正路450號","121.53441","24.97901","6500600","新店區"
"231063","616-UM","2018/05/21 18:59:34","新北市新店區安華路16號","121.515578333333","24.9579583333333","6500600","新店區"
"231061","619-UM","2018/05/21 18:59:33","新北市新店區安華路30巷1號","121.519445","24.9596066666667","6500600","新店區"
"231064","719-UY","2018/05/21 18:59:23","新北市新店區安一路一段1-1號","121.519791666667","24.961705","6500600","新店區"
"231062","720-UM","2018/05/21 18:59:19","新北市新店區安豐路60-1號","121.497873333333","24.9536683333333","6500600","新店區"
"231060","897-TW","2018/05/21 18:59:25","新北市新店區安忠路57巷15號","121.51265","24.95717","6500600","新店區"
"231045","898-TW","2018/05/21 18:59:14","新北市新店區光明街1-1號","121.538055","24.9590233333333","6500600","新店區"
"231043","899-TW","2018/05/21 18:59:21","新北市新店區北新路二段1號","121.542655","24.9712116666667","6500600","新店區"
"231055","AKT-0513","2018/05/21 18:59:25","新北市新店區力行路68號","121.539023333333","24.96602","6500600","新店區"
"235064","005-UY","2018/05/21 18:59:31","新北市中和區連城路75巷2-24號","121.497941666667","24.9990733333333","6500300","中和區"
"235063","006-UY","2018/05/21 18:59:33","新北市中和區中正路517號","121.488001666667","24.99434","6500300","中和區"
"235047","031-BX","2018/05/21 18:59:31","新北市中和區興南路二段54巷11弄1號","121.505758333333","24.9856216666667","6500300","中和區"
"235056","096-UM","2018/05/21 18:59:17","新北市中和區中山路二段568巷22號","121.482475","25.0063816666667","6500300","中和區"
"235039","097-UM","2018/05/21 18:59:17","新北市中和區安樂路217巷24號","121.513703333333","24.99837","6500300","中和區"
"235065","098-UM","2018/05/21 18:59:20","新北市中和區勝利路35巷1弄36號","121.500438333333","25.0079183333333","6500300","中和區"
"235040","150-BY","2018/05/21 18:59:27","新北市中和區宜安路7號","121.513511666667","24.9952933333333","6500300","中和區"
"235058","151-BY","2018/05/21 18:59:32","新北市中和區連城路534巷2號","121.475308333333","24.9913316666667","6500300","中和區"
"235055","183-VK","2018/05/21 18:59:34","新北市中和區民德路10號","121.468726666667","25.0027783333333","6500300","中和區"
"235038","185-VK","2018/05/21 18:59:31","新北市中和區大勇街31巷13弄13號","121.517458333333","24.9940633333333","6500300","中和區"
"235049","186-VK","2018/05/21 18:59:24","新北市中和區景安路167巷32號","121.506825","24.994925","6500300","中和區"
"235067","255-BX","2018/05/21 18:59:15","新北市中和區民樂路81號","121.48477","25.0012666666667","6500300","中和區"
"235044","293-VK","2018/05/21 18:59:33","新北市中和區中興街161巷6弄2號","121.500655","24.9908633333333","6500300","中和區"
"235072","301-VK","2018/05/21 18:59:18","新北市中和區中山路二段258號","121.497655","25.0024683333333","6500300","中和區"
"235043","352-BY","2018/05/21 18:59:30","新北市中和區成功路44號","121.525966666667","24.9928966666667","6500300","中和區"
"235061","378-QA","2018/05/21 18:59:31","新北市中和區民治街130巷9號","121.4748","25.0024433333333","6500300","中和區"
"235050","4979-A6","2018/05/21 18:59:21","新北市中和區華新街50巷10號","121.507583333333","24.9839816666667","6500300","中和區"
"235069","4980-A6","2018/05/21 18:59:23","新北市中和區景平路459巷2弄3號","121.500255","24.9964383333333","6500300","中和區"
"235042","551-UM","2018/05/21 18:59:24","新北市中和區秀朗路三段50巷2弄8號","121.526126666667","24.99588","6500300","中和區"
"235070","558-UM","2018/05/21 18:59:35","新北市中和區安和路165號","121.50609","24.99763","6500300","中和區"
"235045","565-BX","2018/05/21 18:59:35","新北市中和區景新街467巷32弄10號","121.5143","24.9881383333333","6500300","中和區"
"235054","640-BX","2018/05/21 18:59:28","新北市中和區民享街84號","121.474331666667","25.001165","6500300","中和區"
"235060","647-TV","2018/05/21 18:59:18","新北市中和區民治街8巷1號","121.474876666667","25.0050583333333","6500300","中和區"
"235046","733-UM","2018/05/21 18:59:25","新北市中和區興南路一段135巷17號","121.509408333333","24.9870816666667","6500300","中和區"
"235071","783-BX","2018/05/21 18:59:26","新北市中和區員山路36巷16-3號","121.485256666667","24.9911366666667","6500300","中和區"
"235062","800-TS","2018/05/21 18:44:40","新北市中和區中山路二段312巷31號","121.495186666667","25.00383","6500300","中和區"
"235057","801-TS","2018/05/21 18:59:34","新北市中和區民安街65巷2號","121.478643333333","24.999565","6500300","中和區"
"235041","802-TS","2018/05/21 18:59:26","新北市中和區宜安路102號","121.51055","24.9978883333333","6500300","中和區"
"235052","805-TS","2018/05/21 18:59:10","新北市中和區興南路二段116號","121.504641666667","24.9839966666667","6500300","中和區"
"235048","896-TW","2018/05/21 18:59:23","新北市中和區華新街109巷16號","121.50858","24.9809933333333","6500300","中和區"
"235053","900-TW","2018/05/21 18:59:30","新北市中和區民德路292號","121.467515","24.9956216666667","6500300","中和區"
"235066","911-UM","2018/05/21 18:59:32","新北市中和區中山路二段131巷12號","121.502973333333","25.0021","6500300","中和區"
"235051","157-BY","2018/05/21 18:59:18","新北市中和區忠孝街16號","121.510251666667","24.9828183333333","6500300","中和區"
"235037","AAC-213","2018/05/21 18:59:24","新北市中和區秀朗路三段10巷37弄4號","121.524088333333","24.9960216666667","6500300","中和區"
"235059","AAC-215","2018/05/21 18:59:21","新北市中和區圓通路296巷3-1號","121.487883333333","24.9892283333333","6500300","中和區"
"220068","013-TV","2018/05/21 18:59:24","新北市板橋區中山路二段443巷82號","121.48107","25.0224866666667","6500100","板橋區"
"220071","015-TV","2018/05/21 18:59:23","新北市板橋區忠孝路154巷49號","121.464525","25.0008733333333","6500100","板橋區"
"220065","072-UY","2018/05/21 18:59:36","新北市板橋區民族路287巷10號","121.471191666667","25.0071516666667","6500100","板橋區"
"220086","073-UY","2018/05/21 18:59:28","新北市板橋區大智街10號","121.456048333333","25.0148283333333","6500100","板橋區"
"220106","075-UY","2018/05/21 18:59:16","新北市板橋區文化路二段124巷26號","121.471178333333","25.0255733333333","6500100","板橋區"
"220069","AAD-861","2018/05/21 18:59:33","新北市板橋區華興街71號","121.457075","25.0048916666667","6500100","板橋區"
"226004","312-R5","2018/05/21 18:59:28","新北市平溪區靜安路二段548號","121.746505","25.0256483333333","6502400","平溪區"
"228003","097-TW","2018/05/21 18:59:29","新北市貢寮區和美里龍洞街60-1號","121.914456666667","25.11646","6502600","貢寮區"
"228002","585-TW","2018/05/21 18:59:25","新北市貢寮區福隆里東興街92-3號","121.94654","25.0169533333333","6502600","貢寮區"
"228001","670-TC","2018/05/21 18:59:21","新北市貢寮區仁理村研海街12-1號","121.923778333333","25.0517266666667","6502600","貢寮區"
"224010","AGQ-8101","2018/05/21 18:59:35","新北市瑞芳區輕便路218號","121.845013333333","25.109365","6501200","瑞芳區"
"224002","639-TC","2018/05/21 18:59:35","新北市平溪區新寮里五分寮10-3號","121.797253333333","25.0766116666667","6501200","瑞芳區"
"224008","285-BY","2018/05/21 18:59:31","新北市瑞芳區逢甲路333號","121.80107","25.1122016666667","6501200","瑞芳區"
"224007","275-VK","2018/05/21 18:59:33","新北市瑞芳區大埔路慶安新村19號","121.762705","25.1003483333333","6501200","瑞芳區"
"224009","273-VK","2018/05/21 18:59:31","新北市瑞芳區長仁路32號","121.866098333333","25.1179733333333","6501200","瑞芳區"
"224005","271-BY","2018/05/21 18:59:22","新北市瑞芳區瑞濱路67號","121.822175","25.1209966666667","6501200","瑞芳區"
"227008","642-TC","2018/05/21 18:59:16","新北市雙溪區牡丹里中正路58巷18號","121.866396666667","25.041495","6502500","雙溪區"
"253005","032-BX","2018/05/21 18:59:25","新北市石門區中央路6號","121.56657","25.2914066666667","6502200","石門區"
"253006","295-VK","2018/05/21 18:59:23","新北市石門區八甲11-1號","121.522093333333","25.2813833333333","6502200","石門區"
"253001","4710-YM","2018/05/21 18:59:16","新北市石門區中山路70號","121.56775","25.2916366666667","6502200","石門區"
"222001","KEA-2212","2018/05/21 18:59:25","新北市深坑區北深路一段166號","121.634065","25.0107983333333","6501800","深坑區"
"208002","KEA-2872","2018/05/21 18:59:18","新北市金山區信義路32號","121.635231666667","25.2196466666667","6502700","金山區"
"208003","665-BX","2018/05/21 18:59:33","新北市金山區中正路20號","121.635975","25.2222866666667","6502700","金山區"
"208001","761-BX","2018/05/21 18:59:31","新北市金山區中山路87號","121.640211666667","25.2187733333333","6502700","金山區"
"251001","011-UM","2018/05/21 18:59:14","新北市淡水區自強路60號","121.463113333333","25.1276283333333","6501000","淡水區"
"251013","KEA-2871","2018/05/21 18:59:25","新北市淡水區安子內12-2號","121.483768333333","25.21737","6501000","淡水區"
"251016","179-VK","2018/05/21 18:59:20","新北市淡水區淡金路三段331巷3號","121.44853","25.206095","6501000","淡水區"
"251014","180-VK","2018/05/21 18:59:17","新北市淡水區小中寮32-1號","121.491858333333","25.2260166666667","6501000","淡水區"
"251015","182-VK","2018/05/21 18:59:34","新北市淡水區糞箕湖60號","121.485225","25.1723233333333","6501000","淡水區"
"251010","413-VK","2018/05/21 18:59:36","新北市淡水區淡海路88-2號","121.42294","25.181705","6501000","淡水區"
"251007","442-VK","2018/05/21 18:59:29","新北市淡水區民生路113巷1弄31號","121.463301666667","25.138645","6501000","淡水區"
"251009","575-R6","2018/05/21 18:59:32","新北市淡水區重建街59號","121.439846666667","25.1716966666667","6501000","淡水區"
"251002","672-BX","2018/05/21 18:59:02","新北市淡水區中正東路71號","121.447191666667","25.1675383333333","6501000","淡水區"
"251003","766-UM","2018/05/21 18:59:20","新北市淡水區中山北路一段149巷33號","121.443101666667","25.17794","6501000","淡水區"
"207003","550-UM","2018/05/21 18:59:30","新北市萬里區大鵬里頂社24-1號","121.657401666667","25.210375","6502800","萬里區"
"207004","225-TW","2018/05/21 18:59:19","新北市萬里區萬里里獅頭路23號","121.693256666667","25.1783483333333","6502800","萬里區"
"252002","178-VK","2018/05/21 18:59:25","新北市三芝區中正路一段58號","121.503683333333","25.2578933333333","6502100","三芝區"
"252003","249-BX","2018/05/21 18:59:17","新北市三芝區後厝里北勢子42-11號","121.471581666667","25.252075","6502100","三芝區"
"252001","292-VK","2018/05/21 18:59:18","新北市三芝區中興街二段260號","121.50173","25.2530416666667","6502100","三芝區"
"237004","KEA-2597","2018/05/21 18:59:16","新北市三峽區有木111-1號","121.434971666667","24.859105","6500900","三峽區"
"237007","153-BY","2018/05/21 18:59:24","新北市三峽區大埔路24號","121.365941666667","24.9093316666667","6500900","三峽區"
"237011","572-TV","2018/05/21 18:59:17","新北市三峽區介壽路三段87號","121.395513333333","24.9386416666667","6500900","三峽區"
"237013","252-BX","2018/05/21 18:59:18","新北市樹林區柑園街二段247巷17號","121.376005","24.9497966666667","6500900","三峽區"
"237012","275-BY","2018/05/21 18:59:18","新北市三峽區三樹路222巷150-1號","121.38601","24.942825","6500900","三峽區"
"237008","302-VK","2018/05/21 18:59:31","新北市三峽區中正路一段213號","121.37219","24.92743","6500900","三峽區"
"237014","433-BY","2018/05/21 18:59:34","新北市三峽區隆恩街158巷68號","121.365125","24.945395","6500900","三峽區"
"237006","5529-G3","2018/05/21 18:59:18","新北市三峽區溪東路233巷47弄2號","121.4106","24.9346333333333","6500900","三峽區"
"237015","649-BX","2018/05/21 18:59:25","新北市三峽區建安112-1號","121.4586","24.9220766666667","6500900","三峽區"
"237010","706-TV","2018/05/21 18:59:21","新北市三峽區國光街352-1號","121.371401666667","24.9395833333333","6500900","三峽區"
"237005","AKY-6261","2018/05/21 18:59:21","新北市三峽區中山路459巷163-3號","121.349023333333","24.9333316666667","6500900","三峽區"
"236069","105-UM","2018/05/21 18:59:25","新北市土城區金城路二段217號","121.454863333333","24.981935","6501300","土城區"
"236042","107-UM","2018/05/21 18:59:28","新北市土城區學府路一段229巷3號","121.451436666667","24.98392","6501300","土城區"
"236078","166-UM","2018/05/21 18:59:24","新北市土城區中央路四段466號","121.409965","24.9506233333333","6501300","土城區"
"236030","253-BX","2018/05/21 18:59:18","新北市土城區中央路二段308號","121.44051","24.9732016666667","6501300","土城區"
"236026","269-VK","2018/05/21 18:59:00","新北市土城區光明街4號","121.441981666667","24.974475","6501300","土城區"
"236014","270-VK","2018/05/21 18:59:22","新北市土城區延和路13巷1號","121.463541666667","24.98845","6501300","土城區"
"236039","271-VK","2018/05/21 18:59:33","新北市土城區仁愛路20-3號","121.461076666667","24.9800533333333","6501300","土城區"
"236020","401-BY","2018/05/21 18:59:14","新北市土城區德峰街41巷15號","121.467518333333","24.98639","6501300","土城區"
"236059","912-UM","2018/05/21 18:59:28","新北市土城區明德路一段385-1號","121.452876666667","24.9802516666667","6501300","土城區"
"236048","913-UM","2018/05/21 18:59:33","新北市土城區青雲路318號","121.458676666667","24.9770983333333","6501300","土城區"
"236063","915-UM","2018/05/21 18:59:15","新北市土城區延和路41巷6弄18號","121.466776666667","24.9903566666667","6501300","土城區"
"236055","AAC-216","2018/05/21 18:59:26","新北市土城區學成路148號","121.448601666667","24.9895666666667","6501300","土城區"
"238023","601-UM","2018/05/21 18:59:30","新北市樹林區工興街35巷1號","121.40136","25.0132383333333","6500700","樹林區"
"238019","599-UM","2018/05/21 18:59:20","新北市樹林區東榮街121號","121.415113333333","24.98188","6500700","樹林區"
"238018","571-TV","2018/05/21 18:59:32","新北市樹林區太平路48號","121.419","24.982555","6500700","樹林區"
"238024","5061-A6","2018/05/21 18:58:40","新北市樹林區中山路三段210-2號","121.380813333333","24.966975","6500700","樹林區"
"238022","KEA-2213","2018/05/21 18:59:23","新北市樹林區中山路二段151巷45號","121.408636666667","24.978025","6500700","樹林區"
"238021","KEA-2539","2018/05/21 18:59:32","新北市樹林區柑園街二段276巷8-2號","121.373006666667","24.9529733333333","6500700","樹林區"
"238025","303-VK","2018/05/21 18:59:16","新北市樹林區民和街77號","121.380465","24.9718883333333","6500700","樹林區"
"238017","283-BY","2018/05/21 18:59:35","新北市樹林區大安路255號","121.41929","24.99414","6500700","樹林區"
"238014","282-BY","2018/05/21 18:59:21","新北市樹林區千歲街92巷7弄37號","121.427518333333","24.9984","6500700","樹林區"
"238020","268-VK","2018/05/21 18:59:29","新北市樹林區俊英街181號","121.4239","25.0123033333333","6500700","樹林區"
"238026","172-UY","2018/05/21 18:59:21","新北市樹林區佳園路一段66號","121.393085","24.9701933333333","6500700","樹林區"
"238016","169-UY","2018/05/21 18:59:25","新北市樹林區復興路373巷7弄10號","121.417745","24.9867266666667","6500700","樹林區"
"239006","891-R6","2018/05/21 18:59:33","新北市鶯歌區鶯桃路296巷84弄15號","121.337128333333","24.9616133333333","6500800","鶯歌區"
"239008","527-UM","2018/05/21 18:59:29","新北市鶯歌區國際二路12巷27號","121.33843","24.9748666666667","6500800","鶯歌區"
"239005","526-UM","2018/05/21 18:59:30","新北市鶯歌區鳳吉一街170號","121.329028333333","24.9756533333333","6500800","鶯歌區"
"239001","417-VK","2018/05/21 18:59:18","新北市鶯歌區陽明街6號","121.340886666667","24.95675","6500800","鶯歌區"
"239003","360-BY","2018/05/21 18:59:30","新北市鶯歌區鶯桃路658巷49-2號","121.33103","24.970435","6500800","鶯歌區"
"239002","359-BY","2018/05/21 18:59:20","新北市鶯歌區中正一路462號","121.364775","24.9564883333333","6500800","鶯歌區"
"239004","193-VK","2018/05/21 18:59:30","新北市鶯歌區中正三路156巷59-13號","121.332423333333","24.9409116666667","6500800","鶯歌區"
"221008","489-VK","2018/05/21 18:59:16","新北市汐止區伯爵街2巷21號","121.642708333333","25.0756116666667","6501100","汐止區"
"221036","130-UY","2018/05/21 18:59:19","新北市汐止區忠孝東路314巷1號","121.664623333333","25.0689816666667","6501100","汐止區"
"221015","131-UY","2018/05/21 18:59:20","新北市汐止區鄉長路一段55巷13號","121.665188333333","25.07613","6501100","汐止區"
"221010","269-BY","2018/05/21 18:59:17","新北市汐止區汐萬路一段329號","121.649821666667","25.075705","6501100","汐止區"
"221012","278-VK","2018/05/21 18:59:32","新北市汐止區康寧街901號","121.650938333333","25.075455","6501100","汐止區"
"221023","279-VK","2018/05/21 18:59:31","新北市汐止區康寧街901號","121.651008333333","25.0752133333333","6501100","汐止區"
"221032","280-BY","2018/05/21 18:59:18","新北市汐止區橫科路407巷21號","121.6259","25.0471683333333","6501100","汐止區"
"221027","281-BY","2018/05/21 18:59:22","新北市汐止區康寧街901號","121.65145","25.0750483333333","6501100","汐止區"
"221029","298-VK","2018/05/21 18:59:33","新北市汐止區樟樹一路254號","121.6424","25.0671933333333","6501100","汐止區"
"221031","353-TW","2018/05/21 18:59:18","新北市汐止區福德二路156巷60號","121.62993","25.0659733333333","6501100","汐止區"
"221035","622-UM","2018/05/21 18:59:20","新北市汐止區汐萬路一段273號","121.650405","25.0745333333333","6501100","汐止區"
"221025","623-UM","2018/05/21 18:59:26","新北市汐止區汐萬路一段37號","121.655586666667","25.0681916666667","6501100","汐止區"
"221038","646-BX","2018/05/21 18:59:32","新北市汐止區康寧街901號","121.650748333333","25.0752766666667","6501100","汐止區"
"221033","647-BX","2018/05/21 18:59:17","新北市汐止區南勢街1巷2號","121.627023333333","25.03753","6501100","汐止區"
"221002","707-TV","2018/05/21 18:59:24","新北市汐止區大同路一段2號","121.620958333333","25.055025","6501100","汐止區"
"220080","200-UY","2018/05/21 18:59:19","新北市板橋區大觀路二段文和巷67號","121.44368","24.998755","6500100","板橋區"
"242002","KEA-2550","2018/05/21 18:59:36","新北市新莊區瓊林南路77-41號","121.437696666667","25.0125166666667","6500500","新莊區"
"220082","610-BX","2018/05/21 18:59:19","新北市板橋區滿平街64號","121.427211666667","24.989385","6500100","板橋區"
"220101","245-BX","2018/05/21 18:59:31","新北市板橋區文化路二段182巷25號","121.472446666667","25.0266683333333","6500100","板橋區"
"220079","256-TC","2018/05/21 18:59:12","新北市板橋區民權路260巷1弄30號","121.458678333333","25.015805","6500100","板橋區"
"220094","267-BY","2018/05/21 18:59:18","新北市板橋區文化路二段28號","121.469371666667","25.0248033333333","6500100","板橋區"
"220056","276-BY","2018/05/21 18:59:19","新北市板橋區信義路187號","121.459076666667","24.99183","6500100","板橋區"
"220072","277-BY","2018/05/21 18:59:23","新北市板橋區溪北路160號","121.430565","24.9880483333333","6500100","板橋區"
"220089","280-UM","2018/05/21 18:59:21","新北市板橋區文化路二段402號","121.473785","25.031405","6500100","板橋區"
"220053","285-VK","2018/05/21 18:59:18","新北市板橋區中山路二段89巷33號","121.473653333333","25.0169033333333","6500100","板橋區"
"220083","286-VK","2018/05/21 18:59:33","新北市板橋區大觀路一段38巷156弄9號","121.442436666667","25.0050766666667","6500100","板橋區"
"220081","287-VK","2018/05/21 18:59:13","新北市板橋區光華街19巷80號","121.452528333333","25.0118583333333","6500100","板橋區"
"220090","288-VK","2018/05/21 18:59:26","新北市板橋區四維路171號","121.464556666667","25.0260783333333","6500100","板橋區"
"220061","293-UM","2018/05/21 18:59:28","新北市板橋區富山街109巷87號","121.47491","25.020965","6500100","板橋區"
"220084","296-UM","2018/05/21 18:59:27","新北市板橋區龍興街41號","121.443006666667","25.0005516666667","6500100","板橋區"
"220075","303-R5","2018/05/21 18:59:19","新北市板橋區館前西路161號","121.455951666667","25.00799","6500100","板橋區"
"220062","305-R5","2018/05/21 18:59:27","新北市板橋區民享街115號","121.477923333333","25.0163233333333","6500100","板橋區"
"220092","307-R5","2018/05/21 18:59:24","新北市板橋區漢生東路83巷1號","121.466228333333","25.0158833333333","6500100","板橋區"
"220098","317-R6","2018/05/21 18:59:12","新北市板橋區民有街18號","121.466198333333","25.02498","6500100","板橋區"
"220064","486-VK","2018/05/21 18:59:15","新北市板橋區縣民大道二段106號","121.467016666667","25.0152583333333","6500100","板橋區"
"220088","491-VK","2018/05/21 18:59:32","新北市板橋區民生路二段206號","121.469713333333","25.021085","6500100","板橋區"
"220035","560-BX","2018/05/21 18:59:35","新北市板橋區中正路339號","121.454665","25.0203483333333","6500100","板橋區"
"220103","561-BX","2018/05/21 18:59:28","新北市板橋區民生路二段121號","121.470646666667","25.0184566666667","6500100","板橋區"
"220063","609-BX","2018/05/21 18:59:25","新北市板橋區中山路二段110號","121.475918333333","25.0166916666667","6500100","板橋區"
"220074","630-UY","2018/05/21 18:59:30","新北市板橋區林園街7-1號","121.45403","25.0093166666667","6500100","板橋區"
"220091","637-BX","2018/05/21 18:59:23","新北市板橋區莒光路165巷22號","121.474093333333","25.0245466666667","6500100","板橋區"
"220057","686-BX","2018/05/21 18:59:35","新北市板橋區重慶路97號","121.462061666667","25.0056166666667","6500100","板橋區"
"220077","687-BX","2018/05/21 18:59:27","新北市板橋區龍興街22號","121.442958333333","25.00013","6500100","板橋區"
"220093","689-BX","2018/05/21 18:59:35","新北市板橋區民生路三段106號","121.466663333333","25.0262383333333","6500100","板橋區"
"220054","741-BX","2018/05/21 18:59:32","新北市板橋區重慶路139巷12號","121.462976666667","25.0045966666667","6500100","板橋區"
"220102","KEA-2699","2018/05/21 18:59:26","新北市板橋區田單街2巷38號","121.481781666667","25.0274666666667","6500100","板橋區"
"220055","827-TW","2018/05/21 18:59:29","新北市板橋區中山路一段158巷20號","121.46625","25.01109","6500100","板橋區"
"220067","829-TW","2018/05/21 18:59:22","新北市板橋區三民路186巷13-1號","121.478621666667","25.0149283333333","6500100","板橋區"
"220096","831-TW","2018/05/21 18:59:25","新北市板橋區莒光路103號","121.472621666667","25.0240083333333","6500100","板橋區"
"220073","985-R7","2018/05/21 18:59:20","新北市板橋區民權路217號","121.457708333333","25.0152016666667","6500100","板橋區"
"220097","AAC-210","2018/05/21 18:59:21","新北市板橋區漢生東路83巷2號","121.466811666667","25.0157733333333","6500100","板橋區"
"220070","AAC-253","2018/05/21 18:59:27","新北市板橋區四川路一段256號","121.459063333333","25.0013233333333","6500100","板橋區"
"235068","KEA-2873","2018/05/21 18:59:32","新北市中和區圓通路232巷1號","121.494835","24.9928216666667","6500300","中和區"
