"lineid","car","time","location","longitude","latitude","cityid","cityname"
"232002","290-BY","2018/05/22 06:39:09","新北市坪林區鶯子瀨1-2號","121.709106666667","24.918175","6502000","坪林區"
"232013","291-BY","2018/05/22 06:39:10","新北市坪林區北宜路八段558號","121.718061666667","24.9093483333333","6502000","坪林區"
"232006","758-BX","2018/05/22 06:39:20","新北市坪林區北宜路八段558號","121.717876666667","24.909295","6502000","坪林區"
"235042","551-UM","2018/05/22 06:39:16","新北市中和區信義街13號","121.51103","24.9896083333333","6500300","中和區"
"223006","022-BY","2018/05/22 06:39:21","新北市石碇區碇坪路一段18號","121.651575","25.0039","6501900","石碇區"
"223002","KEA-2673","2018/05/22 06:39:21","新北市石碇區碇坪路一段125號","121.665963333333","24.9866433333333","6501900","石碇區"
"223003","205-TH","2018/05/22 06:39:15","新北市石碇區石碇東街12號","121.66166","24.9908066666667","6501900","石碇區"
"223008","406-TH","2018/05/22 06:39:21","新北市石碇區碇坪路一段226號","121.674556666667","24.9811783333333","6501900","石碇區"
"223001","592-UM","2018/05/22 06:39:22","新北市石碇區湳窟26號","121.661968333333","24.9918983333333","6501900","石碇區"
"223007","661-BX","2018/05/22 06:39:20","新北市石碇區石崁10號","121.654593333333","24.9964166666667","6501900","石碇區"
"227006","282-VK","2018/05/22 06:39:08","新北市雙溪區牡丹里中正路103號","121.86152","25.0476366666667","6502500","雙溪區"
"236008","165-UM","2018/05/22 06:39:19","新北市土城區永平街51號","121.42798","24.9591666666667","6501300","土城區"
