"lineid","car","time","location","longitude","latitude","cityid","cityname"
"248005","653-BX","2018/05/22 07:09:10","新北市五股區新五路二段89號","121.436765","25.0745616666667","6501500","五股區"
"232002","290-BY","2018/05/22 07:09:09","新北市坪林區大粗坑27號","121.708795","24.9624116666667","6502000","坪林區"
"232013","291-BY","2018/05/22 07:09:10","新北市坪林區灣潭7-6號","121.678023333333","24.9336633333333","6502000","坪林區"
"232006","758-BX","2018/05/22 07:09:20","新北市坪林區石45-1號","121.722528333333","24.9001783333333","6502000","坪林區"
"244002","248-BX","2018/05/22 07:09:14","新北市林口區民族路86-99號","121.365893333333","25.0754483333333","6501700","林口區"
"222004","289-BY","2018/05/22 06:59:11","新北市深坑區深坑街75號","121.614763333333","25.00132","6501800","深坑區"
"235042","551-UM","2018/05/22 07:09:16","新北市中和區和平街29-1號","121.507408333333","24.9909733333333","6500300","中和區"
"235001","611-BX","2018/05/22 07:09:22","新北市中和區圓通路367巷4號","121.491411666667","24.98929","6500300","中和區"
"226005","5620-A6","2018/05/22 07:09:12","新北市平溪區菁桐里菁桐街30號","121.725765","25.02382","6502400","平溪區"
"226002","7418-A5","2018/05/22 07:09:05","新北市平溪區靜安路二段393號","121.738698333333","25.0245683333333","6502400","平溪區"
"226006","AGD-0702","2018/05/22 07:09:18","新北市平溪區靜安路二段462巷17號","121.741361666667","25.02496","6502400","平溪區"
"223006","022-BY","2018/05/22 07:09:15","新北市石碇區崩山12-1號","121.674346666667","24.9728733333333","6501900","石碇區"
"223002","KEA-2673","2018/05/22 07:09:21","新北市石碇區碇格路二段7-1號","121.64555","24.9573916666667","6501900","石碇區"
"223003","205-TH","2018/05/22 07:09:15","新北市石碇區烏塗窟21號","121.65677","24.975095","6501900","石碇區"
"223008","406-TH","2018/05/22 07:09:14","新北市石碇區十八重溪18號","121.676138333333","25.0116133333333","6501900","石碇區"
"223001","592-UM","2018/05/22 07:09:22","新北市石碇區烏塗窟14號","121.656118333333","24.9749783333333","6501900","石碇區"
"223004","660-BX","2018/05/22 07:09:20","新北市石碇區碇坪路一段16號","121.651696666667","25.0059416666667","6501900","石碇區"
"223005","677-TV","2018/05/22 07:09:23","新北市石碇區碇坪路一段18號","121.651773333333","25.0058566666667","6501900","石碇區"
"227006","282-VK","2018/05/22 07:09:08","新北市雙溪區新基里自強路5號","121.866321666667","25.039055","6502500","雙溪區"
"252004","249-BX","2018/05/22 07:09:18","新北市三芝區錫板里小坑子11-1號","121.502833333333","25.2368533333333","6502100","三芝區"
"252007","AAC-283","2018/05/22 07:09:19","新北市三芝區錫板里小坑子5-2號","121.495328333333","25.2454666666667","6502100","三芝區"
"236008","165-UM","2018/05/22 07:09:19","新北市土城區中華路二段171號","121.438661666667","24.975205","6501300","土城區"
"236002","339-SR","2018/05/22 07:09:17","新北市土城區承天路81-8號","121.440701666667","24.9626383333333","6501300","土城區"
