"lineid","car","time","location","longitude","latitude","cityid","cityname"
"248005","653-BX","2018/05/22 07:38:23","新北市五股區明德路12巷6號","121.433375","25.0718316666667","6501500","五股區"
"244002","248-BX","2018/05/22 07:38:54","新北市林口區南勢里71-131號","121.34347","25.0844916666667","6501700","林口區"
"222004","289-BY","2018/05/22 07:22:30","新北市深坑區文化街39巷13號","121.61898","25.0010366666667","6501800","深坑區"
"231007","189-VK","2018/05/22 07:39:19","新北市新店區安一路一段1-1號","121.519795","24.9615066666667","6500600","新店區"
"235042","551-UM","2018/05/22 07:38:56","新北市中和區景新街137號","121.506241666667","24.9971833333333","6500300","中和區"
"235001","611-BX","2018/05/22 07:39:22","新北市中和區圓通路367巷6號","121.491505","24.9893216666667","6500300","中和區"
"226005","5620-A6","2018/05/22 07:39:12","新北市平溪區靜安路二段312號","121.736253333333","25.02411","6502400","平溪區"
"226002","7418-A5","2018/05/22 07:39:25","新北市平溪區平湖里大厝37-3號","121.779751666667","25.0296716666667","6502400","平溪區"
"226006","AGD-0702","2018/05/22 07:31:18","新北市平溪區嶺腳里嶺腳寮83-2號","121.749993333333","25.03526","6502400","平溪區"
"223006","022-BY","2018/05/22 07:39:14","新北市坪林區北宜路八段387號","121.708246666667","24.9324183333333","6501900","石碇區"
"223002","KEA-2673","2018/05/22 07:39:21","新北市石碇區北宜路六段塗潭巷9號","121.648173333333","24.9296583333333","6501900","石碇區"
"223003","205-TH","2018/05/22 07:38:43","新北市石碇區蛇舌子3號","121.665021666667","24.9677666666667","6501900","石碇區"
"223008","406-TH","2018/05/22 07:33:46","新北市石碇區靜安路一段337號","121.69876","25.0146666666667","6501900","石碇區"
"223001","592-UM","2018/05/22 07:38:42","新北市石碇區蛇舌子3號","121.665108333333","24.96765","6501900","石碇區"
"223004","660-BX","2018/05/22 07:39:20","新北市石碇區八分寮47號","121.642151666667","25.013825","6501900","石碇區"
"223005","677-TV","2018/05/22 07:39:24","新北市石碇區八分寮47號","121.6422","25.013865","6501900","石碇區"
"227006","282-VK","2018/05/22 07:39:08","新北市雙溪區雙溪里太平路54號","121.864801666667","25.0355216666667","6502500","雙溪區"
"252004","249-BX","2018/05/22 07:39:18","新北市三芝區興華里車埕11號","121.503055","25.198935","6502100","三芝區"
"252007","AAC-283","2018/05/22 07:39:10","新北市三芝區古庄里四棧橋58-1號","121.483603333333","25.26455","6502100","三芝區"
"237001","159-UY","2018/05/22 07:39:22","新北市三峽區國慶路136號","121.375873333333","24.939655","6500900","三峽區"
"236008","165-UM","2018/05/22 07:39:19","新北市土城區永豐路137號","121.46686","24.983245","6501300","土城區"
"236002","339-SR","2018/05/22 07:39:17","新北市土城區龍泉路89-3號","121.445253333333","24.9434683333333","6501300","土城區"
