"lineid","car","time","location","longitude","latitude","cityid","cityname"
"248005","653-BX","2018/09/13 07:59:36","新北市五股區明德路10號","121.433353333333","25.0717566666667","6501500","五股區"
"232001","290-BY","2018/09/13 07:59:35","新北市坪林區下坑子口12號","121.721321666667","24.9411833333333","6502000","坪林區"
"232014","291-BY","2018/09/13 07:59:47","新北市坪林區金瓜寮24-3號","121.679003333333","24.90934","6502000","坪林區"
"232010","375-UM","2018/09/13 07:59:41","新北市坪林區磨壁潭5號","121.722641666667","24.9382366666667","6502000","坪林區"
"232007","758-BX","2018/09/13 07:59:39","新北市坪林區九芎林24-2號","121.70405","24.9250316666667","6502000","坪林區"
"244022","069-UM","2018/09/13 07:59:39","新北市林口區粉寮路二段88巷100-12號","121.409696666667","25.090205","6501700","林口區"
"244006","080-UY","2018/09/13 07:59:41","新北市林口區粉寮路二段88巷100-12號","121.409516666667","25.0902316666667","6501700","林口區"
"244003","248-BX","2018/09/13 07:59:49","新北市林口區頂福里24-1號","121.35204","25.0961616666667","6501700","林口區"
"244012","KEA-2802","2018/09/13 07:59:48","新北市林口區粉寮路二段88巷100-12號","121.409585","25.0901833333333","6501700","林口區"
"244016","485-VK","2018/09/13 07:59:34","新北市林口區粉寮路二段88巷100-12號","121.409758333333","25.090225","6501700","林口區"
"244024","837-TS","2018/09/13 07:59:46","新北市林口區粉寮路二段88巷100-12號","121.409391666667","25.0900483333333","6501700","林口區"
"222006","289-BY","2018/09/13 07:59:43","新北市深坑區文化街45號","121.616956666667","25.0017466666667","6501800","深坑區"
"231008","192-VK","2018/09/13 07:59:45","新北市新店區安康路一段94-3號","121.527645","24.9622016666667","6500600","新店區"
"235001","611-BX","2018/09/13 07:59:39","新北市中和區圓通路367巷6號","121.491541666667","24.98926","6500300","中和區"
"226005","5620-A6","2018/09/13 07:59:36","新北市平溪區石底里公園街18-3號","121.73348","25.0256366666667","6502400","平溪區"
"226007","7418-A5","2018/09/13 07:59:48","新北市平溪區南山里乾坑11號","121.782731666667","25.0471833333333","6502400","平溪區"
"226003","AGD-0702","2018/09/13 07:59:47","新北市平溪區新寮里頂寮子62-1號","121.774968333333","25.050905","6502400","平溪區"
"223006","022-BY","2018/09/13 07:59:44","新北市石碇區靜安路一段292巷10號","121.691895","25.0058766666667","6501900","石碇區"
"223002","KEA-2673","2018/09/13 07:59:42","新北市石碇區北宜路五段46號","121.632068333333","24.9516766666667","6501900","石碇區"
"223003","205-TH","2018/09/13 07:55:09","新北市石碇區樟空子10-2號","121.666881666667","24.9615666666667","6501900","石碇區"
"223001","592-UM","2018/09/13 07:55:00","新北市石碇區樟空子10-2號","121.666921666667","24.961905","6501900","石碇區"
"223004","660-BX","2018/09/13 07:59:45","新北市石碇區碇坪路一段10號","121.651633333333","25.006085","6501900","石碇區"
"223007","661-BX","2018/09/13 07:59:37","新北市石碇區靜安路一段337號","121.69897","25.0137466666667","6501900","石碇區"
"223005","677-TV","2018/09/13 07:59:47","新北市石碇區外按9-2號","121.65068","24.9973933333333","6501900","石碇區"
"227007","282-VK","2018/09/13 07:59:34","新北市雙溪區平林里梅竹蹊16號","121.862016666667","25.0359716666667","6502500","雙溪區"
"252004","249-BX","2018/09/13 07:59:41","新北市三芝區店子里菜公坑81號","121.512958333333","25.2019783333333","6502100","三芝區"
"252007","AAC-283","2018/09/13 07:59:48","新北市三芝區海景一街3號","121.47188","25.2469616666667","6502100","三芝區"
"237001","159-UY","2018/09/13 07:59:31","新北市三峽區三樹路100號","121.378228333333","24.9389333333333","6500900","三峽區"
"236009","165-UM","2018/09/13 07:59:40","新北市土城區永豐路252號","121.468953333333","24.9798466666667","6501300","土城區"
"236003","339-SR","2018/09/13 07:59:47","新北市土城區龍泉路89-1號","121.446343333333","24.9421983333333","6501300","土城區"
"242035","AAC-296","2018/09/13 07:59:50","新北市新莊區建國一路167號","121.435055","25.0246133333333","6500500","新莊區"
"242057","986-R7","2018/09/13 07:59:37","新北市新莊區中正路723-1號","121.42351","25.029265","6500500","新莊區"
"242055","751-BX","2018/09/13 07:59:41","新北市新莊區新泰路16號","121.449668333333","25.0331016666667","6500500","新莊區"
"242026","615-BX","2018/09/13 07:59:39","新北市新莊區思源路131號","121.459931666667","25.043475","6500500","新莊區"
"242024","613-BX","2018/09/13 07:59:34","新北市新莊區復興路二段31號","121.454361666667","25.04404","6500500","新莊區"
"242043","566-BX","2018/09/13 07:59:44","新北市新莊區富國路92號","121.420805","25.0256783333333","6500500","新莊區"
"242047","497-BY","2018/09/13 07:59:45","新北市新莊區四維路212巷20號","121.420928333333","25.0203783333333","6500500","新莊區"
"242052","441-UM","2018/09/13 07:59:37","新北市新莊區新樹路697號","121.43219","25.002455","6500500","新莊區"
"242038","415-TV","2018/09/13 07:59:35","新北市新莊區民安西路42號","121.42733","25.0210533333333","6500500","新莊區"
"242008","413-TV","2018/09/13 07:59:48","新北市新莊區中原路149號","121.454056666667","25.0543433333333","6500500","新莊區"
"242045","400-BY","2018/09/13 07:59:50","新北市新莊區福營路25巷2號","121.437933333333","25.0325466666667","6500500","新莊區"
"242022","362-BY","2018/09/13 07:59:44","新北市新莊區公園路49號","121.453453333333","25.040185","6500500","新莊區"
"242059","353-BY","2018/09/13 07:59:41","新北市新莊區瓊林南路12-3號","121.436248333333","25.018875","6500500","新莊區"
"242010","132-UY","2018/09/13 07:59:51","新北市新莊區中港路485號","121.452135","25.04981","6500500","新莊區"
"242040","133-UY","2018/09/13 07:59:31","新北市新莊區新樹路115號","121.437375","25.0266366666667","6500500","新莊區"
"242033","135-UY","2018/09/13 07:59:29","新北市新莊區新莊路467號","121.44924","25.0334133333333","6500500","新莊區"
"242049","172-VK","2018/09/13 07:59:43","新北市新莊區新樹路449巷8弄2號","121.433113333333","25.013565","6500500","新莊區"
"242012","173-VK","2018/09/13 07:59:34","新北市新莊區中和街108巷2號","121.447796666667","25.0470866666667","6500500","新莊區"
"242018","175-VK","2018/09/13 07:59:39","新北市新莊區中港路84號","121.45546","25.0391983333333","6500500","新莊區"
"242006","176-VK","2018/09/13 07:59:49","新北市新莊區福樂街118巷6號","121.457323333333","25.0480333333333","6500500","新莊區"
"242001","347-TH","2018/09/13 07:59:46","新北市新莊區大觀街15號","121.453931666667","25.034705","6500500","新莊區"
"242030","348-TH","2018/09/13 07:59:47","新北市新莊區新泰路401巷29-1號","121.442421666667","25.043875","6500500","新莊區"
"242003","349-TH","2018/09/13 07:59:40","新北市新莊區中港路293號","121.452843333333","25.0442483333333","6500500","新莊區"
"242020","350-TH","2018/09/13 07:59:31","新北市新莊區中正路136號","121.452523333333","25.0360583333333","6500500","新莊區"
"242014","351-TH","2018/09/13 07:59:44","新北市新莊區新泰路203號","121.447065","25.038225","6500500","新莊區"
"242016","280-VK","2018/09/13 07:59:38","新北市新莊區中華路一段101號","121.45266","25.043705","6500500","新莊區"
