"lineid","car","time","location","longitude","latitude","cityid","cityname"
"248005","653-BX","2018/09/13 08:19:16","新北市五股區明德路10號","121.43338","25.0717166666667","6501500","五股區"
"232001","290-BY","2018/09/13 08:05:35","新北市坪林區大粗坑8-1號","121.724626666667","24.9470566666667","6502000","坪林區"
"232014","291-BY","2018/09/13 08:19:07","新北市坪林區北宜路七段236號","121.689181666667","24.9356233333333","6502000","坪林區"
"232007","758-BX","2018/09/13 08:11:50","新北市坪林區九芎林32號","121.70261","24.921495","6502000","坪林區"
"244022","069-UM","2018/09/13 08:19:19","新北市林口區興林路20-7號","121.389081666667","25.0762716666667","6501700","林口區"
"244006","080-UY","2018/09/13 08:19:22","新北市林口區中湖60-5號","121.375963333333","25.0928783333333","6501700","林口區"
"244003","248-BX","2018/09/13 08:19:09","新北市林口區嘉寶里67-5號","121.33738","25.108965","6501700","林口區"
"244012","KEA-2802","2018/09/13 08:19:09","新北市林口區中正路525巷17號","121.383283333333","25.0768383333333","6501700","林口區"
"244016","485-VK","2018/09/13 08:19:14","新北市林口區忠孝路468號","121.369873333333","25.0710166666667","6501700","林口區"
"244008","656-BX","2018/09/13 08:19:20","新北市林口區寶林路93號","121.384186666667","25.08471","6501700","林口區"
"244010","657-BX","2018/09/13 08:19:04","新北市林口區佳林路221號","121.384105","25.0769533333333","6501700","林口區"
"244024","837-TS","2018/09/13 08:19:06","新北市林口區文化三路一段415號","121.367296666667","25.0740483333333","6501700","林口區"
"244020","838-TS","2018/09/13 08:19:15","新北市林口區粉寮路67-3號","121.40342","25.0907666666667","6501700","林口區"
"222006","289-BY","2018/09/13 08:19:03","新北市深坑區萬福路75巷8號","121.601261666667","25.009615","6501800","深坑區"
"231069","189-VK","2018/09/13 08:19:08","新北市新店區新潭路一段32號","121.523331666667","24.94234","6500600","新店區"
"231008","192-VK","2018/09/13 08:19:05","新北市新店區北宜路一段123-2號","121.540611666667","24.95338","6500600","新店區"
"235001","611-BX","2018/09/13 08:19:19","新北市中和區中正路458號","121.490633333333","24.9938466666667","6500300","中和區"
"226005","5620-A6","2018/09/13 08:17:56","新北市平溪區南山里南山坪126號","121.785696666667","25.0463783333333","6502400","平溪區"
"226007","7418-A5","2018/09/13 08:19:08","新北市平溪區靜安路二段551號","121.748978333333","25.0258883333333","6502400","平溪區"
"226003","AGD-0702","2018/09/13 08:19:07","新北市平溪區十分里十分街51號","121.774756666667","25.0410316666667","6502400","平溪區"
"223006","022-BY","2018/09/13 08:19:05","新北市石碇區雙溪33-5號","121.649718333333","25.0089","6501900","石碇區"
"223002","KEA-2673","2018/09/13 08:17:16","新北市石碇區北宜路五段66號","121.638355","24.9537033333333","6501900","石碇區"
"223003","205-TH","2018/09/13 08:18:49","新北市石碇區北宜路六段獅子頭坑巷1號","121.6448","24.940445","6501900","石碇區"
"223008","406-TH","2018/09/13 08:19:05","新北市石碇區靜安路一段186號","121.671371666667","25.0055266666667","6501900","石碇區"
"223001","592-UM","2018/09/13 08:15:55","新北市石碇區北宜路六段塗潭巷2號","121.644788333333","24.9372533333333","6501900","石碇區"
"223004","660-BX","2018/09/13 08:19:04","新北市石碇區碇坪路一段39號","121.658275","24.991405","6501900","石碇區"
"223005","677-TV","2018/09/13 08:19:07","新北市石碇區碇坪路一段92號","121.658056666667","24.991305","6501900","石碇區"
"252004","249-BX","2018/09/13 08:19:01","新北市三芝區興華里車埕62號","121.498663333333","25.1967916666667","6502100","三芝區"
"252007","AAC-283","2018/09/13 08:19:08","新北市淡水區石頭厝6-1號","121.462716666667","25.2401066666667","6502100","三芝區"
"237001","159-UY","2018/09/13 08:19:11","新北市三峽區大義路1號","121.379026666667","24.943405","6500900","三峽區"
"236009","165-UM","2018/09/13 08:19:20","新北市土城區石門路35號","121.459265","24.9657166666667","6501300","土城區"
"236003","339-SR","2018/09/13 08:19:07","新北市土城區龍泉路64號","121.415445","24.943285","6501300","土城區"
"236005","498-BY","2018/09/13 08:19:06","新北市土城區永平街9號","121.427895","24.9630116666667","6501300","土城區"
"242035","AAC-296","2018/09/13 08:19:11","新北市新莊區建福路47-1號","121.427151666667","25.0278966666667","6500500","新莊區"
"242057","986-R7","2018/09/13 08:19:17","新北市新莊區雙鳳路134巷8號","121.412796666667","25.0282133333333","6500500","新莊區"
"242055","751-BX","2018/09/13 08:19:22","新北市新莊區瓊林路38巷39號","121.446536666667","25.0303966666667","6500500","新莊區"
"242026","615-BX","2018/09/13 08:19:19","新北市新莊區福壽街155號","121.458013333333","25.053255","6500500","新莊區"
"242024","613-BX","2018/09/13 08:19:14","新北市新莊區化成路447號","121.464273333333","25.061015","6500500","新莊區"
"242043","566-BX","2018/09/13 08:19:04","新北市新莊區雙鳳路21號","121.416815","25.02692","6500500","新莊區"
"242047","497-BY","2018/09/13 08:19:05","新北市新莊區萬安街60巷15號","121.420598333333","25.0231583333333","6500500","新莊區"
"242052","441-UM","2018/09/13 08:13:33","新北市樹林區中正路7-10號","121.43088","24.9978983333333","6500500","新莊區"
"242038","415-TV","2018/09/13 08:19:15","新北市新莊區民安路146號","121.424553333333","25.02502","6500500","新莊區"
"242008","413-TV","2018/09/13 08:19:21","新北市新莊區昌平街43號","121.454745","25.0526216666667","6500500","新莊區"
"242045","400-BY","2018/09/13 08:19:10","新北市新莊區福營路127號","121.432935","25.031705","6500500","新莊區"
"242022","362-BY","2018/09/13 08:19:20","新北市新莊區福壽街6號","121.457861666667","25.0477183333333","6500500","新莊區"
"242059","353-BY","2018/09/13 08:19:24","新北市新莊區新樹路419號","121.432746666667","25.0141483333333","6500500","新莊區"
"242010","132-UY","2018/09/13 08:19:07","新北市新莊區中港路679號","121.45053","25.0562516666667","6500500","新莊區"
"242040","133-UY","2018/09/13 08:19:11","新北市泰山區貴鳳街1號","121.421421666667","25.031435","6500500","新莊區"
"242033","135-UY","2018/09/13 08:19:20","新北市新莊區景德路642號","121.441113333333","25.0328266666667","6500500","新莊區"
"242049","172-VK","2018/09/13 08:19:03","新北市新莊區民安西路155巷7弄2號","121.42684","25.016585","6500500","新莊區"
"242012","173-VK","2018/09/13 08:19:14","新北市新莊區中誠街168號","121.448085","25.0473883333333","6500500","新莊區"
"242018","175-VK","2018/09/13 08:19:19","新北市新莊區新央街52號","121.456691666667","25.040065","6500500","新莊區"
"242006","176-VK","2018/09/13 08:19:14","新北市新莊區自治街2號","121.453241666667","25.04783","6500500","新莊區"
"242001","347-TH","2018/09/13 08:19:18","新北市新莊區中正路147號","121.45805","25.0373666666667","6500500","新莊區"
"242030","348-TH","2018/09/13 08:19:00","新北市新莊區新泰路349號","121.44466","25.0423533333333","6500500","新莊區"
"242003","349-TH","2018/09/13 08:19:20","新北市新莊區福樂街54號","121.457998333333","25.0459883333333","6500500","新莊區"
"242020","350-TH","2018/09/13 08:19:11","新北市新莊區永寧街32巷1號","121.452931666667","25.0394533333333","6500500","新莊區"
"242014","351-TH","2018/09/13 08:19:18","新北市新莊區中平路87巷4號","121.444518333333","25.0458883333333","6500500","新莊區"
"242016","280-VK","2018/09/13 08:19:18","新北市新莊區永樂街2號","121.452175","25.0452866666667","6500500","新莊區"
