"lineid","car","time","location","longitude","latitude","cityid","cityname"
"248005","653-BX","2018/09/13 09:28:13","新北市五股區明德路32號","121.432428333333","25.07157","6501500","五股區"
"244022","069-UM","2018/09/13 09:28:19","新北市林口區仁愛路二段8號","121.385855","25.07632","6501700","林口區"
"244003","248-BX","2018/09/13 09:28:09","新北市林口區文化一路二段303號","121.385623333333","25.08557","6501700","林口區"
"244018","403-UM","2018/09/13 09:28:11","新北市林口區忠孝路622巷5號","121.377945","25.0670866666667","6501700","林口區"
"244012","KEA-2802","2018/09/13 09:28:09","新北市林口區麗園一街11巷3號","121.377348333333","25.0704183333333","6501700","林口區"
"244016","485-VK","2018/09/13 09:28:14","新北市林口區文化二路一段106號","121.36714","25.0704233333333","6501700","林口區"
"244008","656-BX","2018/09/13 09:28:20","新北市林口區竹林路362巷2號","121.391733333333","25.084575","6501700","林口區"
"244010","657-BX","2018/09/13 09:28:04","新北市林口區仁愛路一段386巷2號","121.387896666667","25.077255","6501700","林口區"
"222006","289-BY","2018/09/13 09:28:03","新北市深坑區文山路一段79號","121.626758333333","25.00192","6501800","深坑區"
"231069","189-VK","2018/09/13 09:28:05","新北市新店區新潭路三段215巷25號","121.508145","24.9040816666667","6500600","新店區"
"231008","192-VK","2018/09/13 09:28:22","新北市新店區平廣路一段93號","121.529611666667","24.89815","6500600","新店區"
"235001","611-BX","2018/09/13 09:28:19","新北市中和區中山路三段136巷2號","121.473926666667","25.006515","6500300","中和區"
"226003","AGD-0702","2018/09/13 09:28:07","新北市平溪區嶺腳里中華街24號","121.739781666667","25.0261833333333","6502400","平溪區"
"223006","022-BY","2018/09/13 09:28:10","新北市石碇區烏塗窟29-1號","121.655913333333","24.9749783333333","6501900","石碇區"
"223003","205-TH","2018/09/13 09:28:09","新北市石碇區北宜路五段32號","121.630343333333","24.9533416666667","6501900","石碇區"
"223008","406-TH","2018/09/13 09:28:08","新北市石碇區藤寮坑6號","121.702811666667","25.0081966666667","6501900","石碇區"
"223001","592-UM","2018/09/13 09:28:15","新北市新店區北宜路三段327-1號","121.607773333333","24.9580416666667","6501900","石碇區"
"223004","660-BX","2018/09/13 09:28:18","新北市石碇區磨石坑16-3號","121.687151666667","24.9709983333333","6501900","石碇區"
"223005","677-TV","2018/09/13 09:28:19","新北市石碇區大崙8號","121.6838","24.9795383333333","6501900","石碇區"
"252004","249-BX","2018/09/13 09:28:21","新北市三芝區圓山里石曹子坑36-1號","121.510943333333","25.2118366666667","6502100","三芝區"
"252007","AAC-283","2018/09/13 09:28:08","新北市三芝區埔坪里埔頭坑51號","121.507726666667","25.2656816666667","6502100","三芝區"
"236009","165-UM","2018/09/13 09:28:19","新北市土城區中央路三段206號","121.430053333333","24.964795","6501300","土城區"
"236003","339-SR","2018/09/13 09:28:15","新北市土城區學府路一段207號","121.45173","24.984565","6501300","土城區"
"236005","498-BY","2018/09/13 09:28:06","新北市土城區承天路31號","121.43681","24.9653283333333","6501300","土城區"
"242035","AAC-296","2018/09/13 09:28:10","新北市新莊區建安街15號","121.428821666667","25.0262866666667","6500500","新莊區"
"242057","986-R7","2018/09/13 09:28:17","新北市新莊區龍安路266巷30號","121.421628333333","25.0185133333333","6500500","新莊區"
"242055","751-BX","2018/09/13 09:28:21","新北市新莊區新莊路649巷28號","121.444821666667","25.0319266666667","6500500","新莊區"
"242024","613-BX","2018/09/13 09:28:25","新北市新莊區化成路579巷1號","121.464391666667","25.065955","6500500","新莊區"
"242043","566-BX","2018/09/13 09:28:24","新北市新莊區中正路新建巷28弄57號","121.413626666667","25.0212866666667","6500500","新莊區"
"242047","497-BY","2018/09/13 09:28:05","新北市新莊區中正路879-1號","121.418","25.0263666666667","6500500","新莊區"
"242038","415-TV","2018/09/13 09:28:15","新北市新莊區新樹路168號","121.434715","25.02241","6500500","新莊區"
"242045","400-BY","2018/09/13 09:28:10","新北市新莊區中正路新雅巷5號","121.41791","25.025405","6500500","新莊區"
"242059","353-BY","2018/09/13 09:28:21","新北市新莊區瓊泰路77巷16號","121.442568333333","25.0290966666667","6500500","新莊區"
"242010","132-UY","2018/09/13 09:28:16","新北市新莊區中榮街104巷13號","121.447173333333","25.0535466666667","6500500","新莊區"
"242040","133-UY","2018/09/13 09:28:11","新北市新莊區中正路694巷3弄2號","121.418351666667","25.0283383333333","6500500","新莊區"
"242033","135-UY","2018/09/13 09:28:09","新北市新莊區中正路419-1號","121.444615","25.0344566666667","6500500","新莊區"
"242001","347-TH","2018/09/13 09:28:15","新北市新莊區中港路五守新村37巷1號","121.454585","25.0388183333333","6500500","新莊區"
"242030","348-TH","2018/09/13 09:28:20","新北市新莊區中正路428號","121.440705","25.033875","6500500","新莊區"
"242003","349-TH","2018/09/13 09:28:20","新北市新莊區頭前路70-1號","121.46648","25.05257","6500500","新莊區"
"242020","350-TH","2018/09/13 09:28:11","新北市新莊區中華路一段108號","121.452373333333","25.0399566666667","6500500","新莊區"
"242052","281-VK","2018/09/13 09:28:14","新北市新莊區光華街60巷1號","121.428328333333","25.0118066666667","6500500","新莊區"
