"lineid","car","time","location","longitude","latitude","cityid","cityname"
"248005","653-BX","2018/09/13 10:39:53","新北市五股區中興路二段83巷26-3號","121.46012","25.0753466666667","6501500","五股區"
"244022","069-UM","2018/09/13 10:39:39","新北市林口區文林五街9-1號","121.372843333333","25.0844583333333","6501700","林口區"
"244016","485-VK","2018/09/13 10:39:34","新北市林口區粉寮路二段88巷100-12號","121.40963","25.0902216666667","6501700","林口區"
"222006","289-BY","2018/09/13 10:39:23","新北市深坑區阿柔洋63號","121.607588333333","24.9973366666667","6501800","深坑區"
"231069","189-VK","2018/09/13 10:39:45","新北市新店區新潭路三段80巷36-1號","121.500466666667","24.9099716666667","6500600","新店區"
"231008","192-VK","2018/09/13 10:39:50","新北市新店區成功路50巷1號","121.540446666667","24.9001966666667","6500600","新店區"
"242052","281-VK","2018/09/13 10:39:54","新北市樹林區八德街278號","121.410921666667","24.9700833333333","6500500","新莊區"
