"lineid","car","time","location","longitude","latitude","cityid","cityname"
"234044","148-BY","2018/09/13 12:59:11","新北市永和區得和路373巷16弄1號","121.525165","25.0003066666667","6500400","永和區"
"234001","149-BY","2018/09/13 12:59:20","新北市永和區民生路47巷16號","121.523846666667","24.99768","6500400","永和區"
"234005","207-UY","2018/09/13 12:59:19","新北市永和區永和路二段30號","121.514798333333","25.0105433333333","6500400","永和區"
"234078","298-R6","2018/09/13 12:59:24","新北市永和區福和路57巷14弄1號","121.522751666667","25.0068916666667","6500400","永和區"
"234036","336-UY","2018/09/13 12:59:26","新北市永和區成功路二段207號","121.526538333333","24.99596","6500400","永和區"
"234062","337-UY","2018/09/13 12:59:20","新北市永和區秀朗路一段199號","121.517916666667","25.0034833333333","6500400","永和區"
"234084","338-UY","2018/09/13 12:59:13","新北市永和區中正路338號","121.517653333333","25.0000383333333","6500400","永和區"
"234068","552-UM","2018/09/13 12:59:16","新北市永和區中興街84巷8號","121.518495","25.01162","6500400","永和區"
"234015","745-BX","2018/09/13 12:59:19","新北市永和區永和路二段299號","121.516036666667","25.01611","6500400","永和區"
"234028","746-BX","2018/09/13 12:59:25","新北市永和區得和路420號","121.526201666667","24.9988683333333","6500400","永和區"
"234052","KEA-2590","2018/09/13 12:59:21","新北市永和區竹林路66巷15-8號","121.518465","25.0131583333333","6500400","永和區"
"234012","KEA-2591","2018/09/13 12:59:10","新北市永和區信義路19號","121.514145","25.0119216666667","6500400","永和區"
"234060","AAD-866","2018/09/13 12:59:22","新北市永和區福和路307號","121.516256666667","25.0071166666667","6500400","永和區"
"234040","862-TW","2018/09/13 12:59:09","新北市永和區永貞路267號","121.511801666667","25.0047066666667","6500400","永和區"
"234048","863-TW","2018/09/13 12:59:20","新北市永和區環河西路一段95巷4弄1號","121.511626666667","25.017845","6500400","永和區"
"234025","9371-KE","2018/09/13 12:59:15","新北市永和區水源街2巷14號","121.512346666667","25.0056833333333","6500400","永和區"
"234010","9373-KE","2018/09/13 12:59:07","新北市永和區文化路113巷21弄26號","121.513638333333","25.0139816666667","6500400","永和區"
"248013","025-BX","2018/09/13 12:59:20","新北市五股區中興路三段163號","121.449526666667","25.080575","6501500","五股區"
"248007","095-VK","2018/09/13 12:59:23","新北市五股區更洲路18號","121.458251666667","25.078865","6501500","五股區"
"248017","225-UY","2018/09/13 12:59:26","新北市五股區中興路二段83巷26-1號","121.459286666667","25.0755383333333","6501500","五股區"
"248012","247-BX","2018/09/13 12:59:14","新北市五股區中興路二段37巷28號","121.460135","25.074745","6501500","五股區"
"248015","261-SL","2018/09/13 12:59:16","新北市五股區中興路二段83巷26-3號","121.460121666667","25.07533","6501500","五股區"
"248003","677-BX","2018/09/13 12:59:22","新北市五股區中興路二段182巷3號","121.456655","25.0781033333333","6501500","五股區"
"248001","678-BX","2018/09/13 12:59:06","新北市五股區中興路二段37巷28號","121.460106666667","25.074835","6501500","五股區"
"234022","9380-KE","2018/09/13 12:59:23","新北市永和區竹林路91巷55弄1號","121.521943333333","25.0137983333333","6500400","永和區"
"234076","969-R7","2018/09/13 12:59:26","新北市永和區民享街2巷1號","121.514895","24.995705","6500400","永和區"
"234072","AAC-211","2018/09/13 12:59:20","新北市永和區環河東路二段92號","121.524223333333","25.0105983333333","6500400","永和區"
"234066","AAC-212","2018/09/13 12:59:18","新北市永和區中和路625號","121.512966666667","25.0049283333333","6500400","永和區"
"234001","AAC-295","2018/09/13 12:59:17","新北市永和區永平路29號","121.513268333333","25.0087166666667","6500400","永和區"
"244003","248-BX","2018/09/13 12:59:16","新北市林口區中山路156號","121.390863333333","25.0787466666667","6501700","林口區"
"231027","0291-UT","2018/09/13 12:59:14","新北市新店區安華路1-1號","121.519511666667","24.96047","6500600","新店區"
"231028","046-UY","2018/09/13 12:59:13","新北市新店區安華路28-1號","121.519498333333","24.9608616666667","6500600","新店區"
"231001","047-UY","2018/09/13 12:59:28","新北市新店區安一路一段1-1號","121.519001666667","24.9610266666667","6500600","新店區"
"231010","107-UY","2018/09/13 12:59:11","新北市新店區安一路一段1-1號","121.519233333333","24.9614033333333","6500600","新店區"
"231011","187-VK","2018/09/13 12:59:16","新北市新店區安華路28-1號","121.519546666667","24.9609983333333","6500600","新店區"
"231023","KEA-2219","2018/09/13 12:59:26","新北市新店區安一路一段1-1號","121.519826666667","24.9613066666667","6500600","新店區"
"231003","268-BY","2018/09/13 12:59:17","新北市新店區安華路28-1號","121.519353333333","24.9605916666667","6500600","新店區"
"231018","278-BY","2018/09/13 12:57:07","新北市新店區安一路一段1-1號","121.51949","24.9611733333333","6500600","新店區"
"231017","AAD-862","2018/09/13 12:59:25","新北市新店區安一路一段1-1號","121.519578333333","24.9610633333333","6500600","新店區"
"231037","4716-K9","2018/09/13 12:59:07","新北市新店區安華路28-1號","121.519585","24.9608933333333","6500600","新店區"
"231036","512-UM","2018/09/13 12:59:14","新北市新店區安一路一段1-1號","121.519163333333","24.9612716666667","6500600","新店區"
"231013","513-UM","2018/09/13 12:59:18","新北市新店區安一路一段1-1號","121.519655","24.9610583333333","6500600","新店區"
"231006","617-UM","2018/09/13 12:59:19","新北市新店區安一路一段1-1號","121.519468333333","24.9610233333333","6500600","新店區"
"231030","619-UM","2018/09/13 12:59:26","新北市新店區安華路28-1號","121.519453333333","24.960875","6500600","新店區"
"231034","641-BX","2018/09/13 12:59:11","新北市新店區安華路1-1號","121.519555","24.9604816666667","6500600","新店區"
"231035","719-UM","2018/09/13 12:59:19","新北市新店區安一路一段1-1號","121.519478333333","24.9612333333333","6500600","新店區"
"231031","720-UM","2018/09/13 12:59:21","新北市新店區安一路一段1-1號","121.519036666667","24.9613033333333","6500600","新店區"
"231029","897-TW","2018/09/13 12:59:18","新北市新店區安華路28-1號","121.51934","24.9605666666667","6500600","新店區"
"231004","899-TW","2018/09/13 12:59:08","新北市新店區安華路28-1號","121.519558333333","24.9607083333333","6500600","新店區"
"231024","AKT-0513","2018/09/13 12:59:16","新北市新店區安華路1-1號","121.519253333333","24.9604283333333","6500600","新店區"
"235028","005-UY","2018/09/13 12:59:17","新北市中和區員山路36巷16-3號","121.485088333333","24.9913083333333","6500300","中和區"
"235027","006-UY","2018/09/13 12:59:12","新北市中和區員山路36巷16-3號","121.484828333333","24.9914033333333","6500300","中和區"
"235029","098-UM","2018/09/13 12:59:24","新北市中和區中山路二段332巷37號","121.494078333333","25.003995","6500300","中和區"
"235004","150-BY","2018/09/13 12:59:26","新北市中和區和城路一段271巷1號","121.48542","24.9918216666667","6500300","中和區"
"235022","151-BY","2018/09/13 12:59:22","新北市中和區圓通路367巷14號","121.491633333333","24.9889433333333","6500300","中和區"
"235002","185-VK","2018/09/13 12:59:08","新北市中和區秀朗路三段10巷14弄26-6號","121.524991666667","24.997125","6500300","中和區"
"235031","255-BX","2018/09/13 12:59:20","新北市中和區中正路897號","121.484213333333","25.0047483333333","6500300","中和區"
"235034","558-UM","2018/09/13 12:59:15","新北市中和區員山路36巷16-3號","121.484911666667","24.991725","6500300","中和區"
"235018","640-BX","2018/09/13 12:59:11","新北市中和區員山路36巷16-5號","121.484863333333","24.9920616666667","6500300","中和區"
"235035","783-BX","2018/09/13 12:59:24","新北市中和區員山路36巷16-3號","121.485103333333","24.9913616666667","6500300","中和區"
"235026","800-TS","2018/09/13 12:59:24","新北市中和區和城路一段271巷1號","121.485466666667","24.99192","6500300","中和區"
"235021","801-TS","2018/09/13 12:59:10","新北市中和區員山路36巷16-3號","121.484846666667","24.9915383333333","6500300","中和區"
"235016","805-TS","2018/09/13 12:59:18","新北市中和區員山路36巷13號","121.484335","24.9915066666667","6500300","中和區"
"235017","900-TW","2018/09/13 12:59:25","新北市中和區員山路36巷16-3號","121.484951666667","24.9917933333333","6500300","中和區"
"235015","157-BY","2018/09/13 12:59:22","新北市中和區員山路36巷16號","121.484446666667","24.9914283333333","6500300","中和區"
"235023","AAC-215","2018/09/13 12:59:10","新北市中和區員山路36巷16-3號","121.484971666667","24.9913116666667","6500300","中和區"
"228005","097-TW","2018/09/13 12:59:10","新北市貢寮區福隆里桂安街18號","121.9582","25.0198083333333","6502600","貢寮區"
"228004","212-TW","2018/09/13 12:59:25","新北市貢寮區吉林里內寮街12號","121.887551666667","24.989645","6502600","貢寮區"
"253003","6232-TK","2018/09/13 12:59:28","新北市石門區中山路32-3號","121.565968333333","25.2899316666667","6502200","石門區"
"253001","6251-TK","2018/09/13 12:59:13","新北市石門區海園路37號","121.557105","25.29127","6502200","石門區"
"253004","8270-PC","2018/09/13 12:59:23","新北市石門區中山路49號","121.567441666667","25.2911533333333","6502200","石門區"
"207002","749-BX","2018/09/13 12:59:13","新北市萬里區雙興里大坪路39號","121.625353333333","25.1714783333333","6502800","萬里區"
"207001","662-BX","2018/09/13 12:59:20","新北市萬里區萬里里獅頭路23號","121.69355","25.178155","6502800","萬里區"
"252005","AAC-283","2018/09/13 12:59:26","新北市三芝區忠孝街85號","121.50588","25.2567383333333","6502100","三芝區"
"236005","498-BY","2018/09/13 12:59:20","新北市土城區亞洲路28號","121.436205","24.974315","6501300","土城區"
"221010","269-BY","2018/09/13 12:59:21","新北市汐止區忠三街8號","121.624756666667","25.0784366666667","6501100","汐止區"
"221032","280-BY","2018/09/13 12:59:19","新北市汐止區建成路57巷1號","121.662326666667","25.0725833333333","6501100","汐止區"
"221002","707-TV","2018/09/13 12:59:21","新北市汐止區康寧街61巷22弄5號","121.619558333333","25.067","6501100","汐止區"
"235025","KEA-2875","2018/09/13 12:59:22","新北市中和區建八路1號","121.485576666667","24.998665","6500300","中和區"
