"lineid","car","time","location","longitude","latitude","cityid","cityname"
"234044","148-BY","2018/09/13 13:09:24","新北市永和區永元路18巷17號","121.523363333333","25.0002683333333","6500400","永和區"
"234001","149-BY","2018/09/13 13:09:20","新北市永和區厚德街60號","121.524393333333","24.9988633333333","6500400","永和區"
"234005","207-UY","2018/09/13 13:09:20","新北市永和區中山路一段143號","121.510258333333","25.0097483333333","6500400","永和區"
"234078","298-R6","2018/09/13 13:09:21","新北市永和區福和路57巷4弄1號","121.522963333333","25.007375","6500400","永和區"
"234036","336-UY","2018/09/13 13:09:06","新北市永和區民樂街69巷1號","121.527401666667","24.9977733333333","6500400","永和區"
"234062","337-UY","2018/09/13 13:09:20","新北市永和區秀朗路二段31號","121.521235","25.002465","6500400","永和區"
"234084","338-UY","2018/09/13 13:09:13","新北市永和區中正路500號","121.517473333333","25.00427","6500400","永和區"
"234068","552-UM","2018/09/13 13:09:16","新北市永和區豫溪街57巷10弄11號","121.517841666667","25.0108666666667","6500400","永和區"
"234015","745-BX","2018/09/13 13:09:21","新北市永和區文化路90巷24號","121.513786666667","25.0161733333333","6500400","永和區"
"234028","746-BX","2018/09/13 13:09:25","新北市永和區四維街91號","121.524476666667","24.9981416666667","6500400","永和區"
"234052","KEA-2590","2018/09/13 13:09:21","新北市永和區中興街133巷22號","121.518073333333","25.01251","6500400","永和區"
"234012","KEA-2591","2018/09/13 13:09:10","新北市永和區保福路二段50號","121.510988333333","25.0122133333333","6500400","永和區"
"234060","AAD-866","2018/09/13 13:09:22","新北市永和區安樂路304巷7號","121.514546666667","25.0050933333333","6500400","永和區"
"234040","862-TW","2018/09/13 13:09:09","新北市永和區保平路93巷2弄1號","121.511708333333","25.00669","6500400","永和區"
"234048","863-TW","2018/09/13 13:09:21","新北市永和區文化路139號","121.511093333333","25.015775","6500400","永和區"
"234025","9371-KE","2018/09/13 13:09:15","新北市永和區秀朗路一段10巷19號","121.513495","25.0061733333333","6500400","永和區"
"234010","9373-KE","2018/09/13 13:09:06","新北市永和區文化路113巷34號","121.51299","25.01396","6500400","永和區"
"248013","025-BX","2018/09/13 13:09:20","新北市五股區成泰路一段187號","121.435013333333","25.0765233333333","6501500","五股區"
"248005","077-UY","2018/09/13 13:09:16","新北市五股區中興路二段82號","121.460805","25.0772966666667","6501500","五股區"
"248007","095-VK","2018/09/13 13:09:02","新北市五股區更洲路32巷15弄1號","121.458731666667","25.08028","6501500","五股區"
"248017","225-UY","2018/09/13 13:09:06","新北市五股區成泰路三段64號","121.442905","25.0893933333333","6501500","五股區"
"248012","247-BX","2018/09/13 13:09:14","新北市五股區新五路二段367號","121.444351666667","25.08805","6501500","五股區"
"248015","261-SL","2018/09/13 13:09:22","新北市五股區成泰路三段221巷8號","121.445928333333","25.0933366666667","6501500","五股區"
"248009","272-BY","2018/09/13 13:09:09","新北市五股區成泰路一段189巷24-3號","121.433316666667","25.07742","6501500","五股區"
"248003","677-BX","2018/09/13 13:09:22","新北市五股區中興路四段49號","121.438115","25.0829466666667","6501500","五股區"
"248001","678-BX","2018/09/13 13:09:06","新北市五股區中興路三段165號","121.446336666667","25.0806766666667","6501500","五股區"
"234022","9380-KE","2018/09/13 13:09:23","新北市永和區勵行街72巷21號","121.51638","25.012545","6500400","永和區"
"234076","969-R7","2018/09/13 13:09:26","新北市永和區民光街14號","121.51559","24.9960516666667","6500400","永和區"
"234072","AAC-211","2018/09/13 13:09:12","新北市永和區竹林路217號","121.52069","25.0086683333333","6500400","永和區"
"234066","AAC-212","2018/09/13 13:09:18","新北市永和區保平路33號","121.512106666667","25.00725","6500400","永和區"
"234001","AAC-295","2018/09/13 13:09:17","新北市永和區永和路二段35號","121.514541666667","25.010445","6500400","永和區"
"244003","248-BX","2018/09/13 13:09:16","新北市林口區嘉溪雅坑5-4號","121.35049","25.099795","6501700","林口區"
"243005","AAD-798","2018/09/13 13:09:13","新北市泰山區南林路99巷8-1號","121.415638333333","25.0494216666667","6501600","泰山區"
"231002","002-UM","2018/09/13 13:09:25","新北市新店區安華路28-1號","121.519505","24.96068","6500600","新店區"
"231027","0291-UT","2018/09/13 13:09:14","新北市新店區安華路1-1號","121.519525","24.960475","6500600","新店區"
"231028","046-UY","2018/09/13 13:09:13","新北市新店區安華路28-1號","121.519513333333","24.9609183333333","6500600","新店區"
"231001","047-UY","2018/09/13 13:09:08","新北市新店區安華路28-1號","121.519146666667","24.9609183333333","6500600","新店區"
"231010","107-UY","2018/09/13 13:09:11","新北市新店區安一路一段1-1號","121.519226666667","24.961395","6500600","新店區"
"231021","108-UY","2018/09/13 13:09:20","新北市新店區安一路一段1-1號","121.519358333333","24.9611216666667","6500600","新店區"
"231011","187-VK","2018/09/13 13:09:16","新北市新店區安華路28-1號","121.519598333333","24.960985","6500600","新店區"
"231023","KEA-2219","2018/09/13 13:09:06","新北市新店區安一路一段1-1號","121.519785","24.9612966666667","6500600","新店區"
"231026","256-BX","2018/09/13 13:09:14","新北市新店區安一路一段1-1號","121.519576666667","24.9611583333333","6500600","新店區"
"231003","268-BY","2018/09/13 13:09:17","新北市新店區安華路28-1號","121.519341666667","24.9605766666667","6500600","新店區"
"231018","278-BY","2018/09/13 13:08:27","新北市新店區安一路一段1-1號","121.519703333333","24.9610833333333","6500600","新店區"
"231017","AAD-862","2018/09/13 13:09:04","新北市新店區安一路一段1-1號","121.51982","24.9612933333333","6500600","新店區"
"231005","355-BY","2018/09/13 13:09:09","新北市新店區安華路28-1號","121.519106666667","24.9609083333333","6500600","新店區"
"231038","3712-VJ","2018/09/13 13:09:07","新北市新店區安華路1-1號","121.51919","24.9605683333333","6500600","新店區"
"231037","4716-K9","2018/09/13 13:09:07","新北市新店區安華路28-1號","121.519743333333","24.9609583333333","6500600","新店區"
"231025","4715-K9","2018/09/13 13:09:26","新北市新店區安康路一段222號","121.523793333333","24.9635383333333","6500600","新店區"
"231036","512-UM","2018/09/13 13:09:14","新北市新店區安一路一段1-1號","121.51923","24.96112","6500600","新店區"
"231013","513-UM","2018/09/13 13:09:18","新北市新店區安一路一段1-1號","121.51972","24.9610933333333","6500600","新店區"
"231006","617-UM","2018/09/13 13:09:18","新北市新店區安一路一段1-1號","121.519281666667","24.961295","6500600","新店區"
"231030","619-UM","2018/09/13 13:09:06","新北市新店區安華路28-1號","121.519506666667","24.9608783333333","6500600","新店區"
"231034","641-BX","2018/09/13 13:09:11","新北市新店區安華路1-1號","121.519551666667","24.96049","6500600","新店區"
"231035","719-UM","2018/09/13 13:09:19","新北市新店區安一路一段1-1號","121.5194","24.961215","6500600","新店區"
"231031","720-UM","2018/09/13 13:09:21","新北市新店區安一路一段1-1號","121.519023333333","24.961485","6500600","新店區"
"231029","897-TW","2018/09/13 13:09:18","新北市新店區安華路28-1號","121.519588333333","24.9606033333333","6500600","新店區"
"231004","899-TW","2018/09/13 13:09:08","新北市新店區安華路28-1號","121.519233333333","24.9608633333333","6500600","新店區"
"231024","AKT-0513","2018/09/13 13:09:16","新北市新店區安華路1-1號","121.519283333333","24.9605166666667","6500600","新店區"
"235030","003-UY","2018/09/13 13:09:14","新北市中和區中和路143號","121.502093333333","24.99973","6500300","中和區"
"235028","005-UY","2018/09/13 13:09:17","新北市中和區員山路36巷16-3號","121.485071666667","24.9912666666667","6500300","中和區"
"235027","006-UY","2018/09/13 13:09:12","新北市中和區員山路36巷16-3號","121.484776666667","24.9914166666667","6500300","中和區"
"235003","097-UM","2018/09/13 13:09:24","新北市中和區中正路501號","121.488906666667","24.9935866666667","6500300","中和區"
"235029","098-UM","2018/09/13 13:09:24","新北市中和區中正路752號","121.485338333333","24.9987266666667","6500300","中和區"
"235004","150-BY","2018/09/13 13:09:06","新北市中和區錦和路350-1號","121.490526666667","24.9936366666667","6500300","中和區"
"235022","151-BY","2018/09/13 13:09:22","新北市中和區圓通路367巷61弄2號","121.491708333333","24.9834683333333","6500300","中和區"
"235002","185-VK","2018/09/13 13:09:08","新北市中和區大智街3號","121.519476666667","24.9918766666667","6500300","中和區"
"235031","255-BX","2018/09/13 13:09:20","新北市中和區中正路845號","121.484603333333","25.0026533333333","6500300","中和區"
"235007","352-BY","2018/09/13 13:09:14","新北市中和區和城路一段271巷1號","121.485371666667","24.9920683333333","6500300","中和區"
"235006","KEA-2878","2018/09/13 13:09:07","新北市中和區景平路159巷17弄3號","121.512738333333","24.99181","6500300","中和區"
"235034","558-UM","2018/09/13 13:09:15","新北市中和區圓通路229號","121.496256666667","24.9942983333333","6500300","中和區"
"235018","640-BX","2018/09/13 13:09:11","新北市土城區金城路三段257號","121.471875","24.9900766666667","6500300","中和區"
"235011","732-UM","2018/09/13 13:09:18","新北市中和區中正路637巷52弄1號","121.485436666667","24.99342","6500300","中和區"
"235035","783-BX","2018/09/13 13:09:04","新北市中和區板南路496-7號","121.485571666667","25.0076283333333","6500300","中和區"
"235026","800-TS","2018/09/13 13:09:24","新北市中和區錦和路47號","121.488305","24.999855","6500300","中和區"
"235021","801-TS","2018/09/13 13:09:10","新北市中和區員山路36巷16-3號","121.484955","24.991465","6500300","中和區"
"235005","802-TS","2018/09/13 13:09:15","新北市中和區中正路545巷1號","121.487455","24.99358","6500300","中和區"
"235016","805-TS","2018/09/13 13:09:18","新北市中和區中正路273-2號","121.495663333333","24.9935583333333","6500300","中和區"
"235017","900-TW","2018/09/13 13:09:25","新北市中和區員山路36巷16-3號","121.484885","24.9916583333333","6500300","中和區"
"235015","157-BY","2018/09/13 13:09:22","新北市中和區捷運路8-19號","121.509921666667","24.98972","6500300","中和區"
"235001","AAC-213","2018/09/13 13:09:08","新北市中和區景平路151號","121.513738333333","24.9918666666667","6500300","中和區"
"235023","AAC-215","2018/09/13 13:09:10","新北市中和區員山路36巷16-3號","121.484968333333","24.9913333333333","6500300","中和區"
"228005","097-TW","2018/09/13 13:09:10","新北市貢寮區仁理村研海街45號","121.926046666667","25.0417433333333","6502600","貢寮區"
"228004","212-TW","2018/09/13 13:09:05","新北市貢寮區吉林里內寮街75號","121.891253333333","24.972375","6502600","貢寮區"
"253003","6232-TK","2018/09/13 13:09:06","新北市石門區石崩山23號","121.566685","25.2780366666667","6502200","石門區"
"253001","6251-TK","2018/09/13 13:09:14","新北市石門區老梅路43號","121.545343333333","25.2895366666667","6502200","石門區"
"253002","637-UY","2018/09/13 13:09:23","新北市石門區老崩山36-5號","121.556873333333","25.2737333333333","6502200","石門區"
"253004","8270-PC","2018/09/13 13:09:23","新北市石門區阿里荖1號","121.616515","25.2777216666667","6502200","石門區"
"207002","749-BX","2018/09/13 13:09:13","新北市萬里區溪底里香員林路7號","121.632631666667","25.1646683333333","6502800","萬里區"
"207001","662-BX","2018/09/13 13:09:19","新北市萬里區萬里里瑪鋉下街2號","121.691121666667","25.178145","6502800","萬里區"
"252005","AAC-283","2018/09/13 13:09:06","新北市三芝區八賢里八連溪24號","121.511321666667","25.240165","6502100","三芝區"
"236005","498-BY","2018/09/13 13:09:20","新北市土城區亞洲路60號","121.43527","24.9735533333333","6501300","土城區"
"242001","233-RS","2018/09/13 13:09:11","新北市新莊區環河路636-7號","121.43741","25.01163","6500500","新莊區"
"221010","269-BY","2018/09/13 13:09:21","新北市汐止區忠三街8號","121.62473","25.0784466666667","6501100","汐止區"
"221032","280-BY","2018/09/13 13:09:19","新北市汐止區大同路二段196號","121.652906666667","25.0643833333333","6501100","汐止區"
"221002","707-TV","2018/09/13 13:09:21","新北市汐止區康寧街63號","121.619521666667","25.0668866666667","6501100","汐止區"
"235032","KEA-2873","2018/09/13 13:09:19","新北市中和區員山路36巷16-3號","121.48512","24.9913316666667","6500300","中和區"
"235025","KEA-2875","2018/09/13 13:09:22","新北市中和區民安街38號","121.48013","25.0004683333333","6500300","中和區"
