"lineid","car","time","location","longitude","latitude","cityid","cityname"
"234044","148-BY","2018/09/13 13:39:10","新北市永和區永元路94號","121.522623333333","25.0016916666667","6500400","永和區"
"234001","149-BY","2018/09/13 13:39:20","新北市中和區永貞路262巷8號","121.513828333333","25.0041516666667","6500400","永和區"
"234005","207-UY","2018/09/13 13:39:19","新北市永和區中山路一段72號","121.512468333333","25.0108766666667","6500400","永和區"
"234078","298-R6","2018/09/13 13:39:24","新北市永和區國中路104巷8弄14號","121.525173333333","25.0065183333333","6500400","永和區"
"234036","336-UY","2018/09/13 13:39:16","新北市永和區環河東路四段20號","121.52867","24.9997083333333","6500400","永和區"
"234062","337-UY","2018/09/13 13:39:20","新北市永和區秀朗路一段192巷6弄14號","121.519016666667","25.0022733333333","6500400","永和區"
"234084","338-UY","2018/09/13 13:39:18","新北市永和區林森路29巷2號","121.52599","25.0050933333333","6500400","永和區"
"234068","552-UM","2018/09/13 13:39:16","新北市永和區永和路二段237-1號","121.51564","25.0144866666667","6500400","永和區"
"234015","745-BX","2018/09/13 13:39:19","新北市永和區永和路二段425巷12號","121.515016666667","25.0177716666667","6500400","永和區"
"234028","746-BX","2018/09/13 13:39:25","新北市永和區民權路29巷9號","121.520658333333","24.9979666666667","6500400","永和區"
"234052","KEA-2590","2018/09/13 13:39:21","新北市永和區竹林路39巷26號","121.519066666667","25.01471","6500400","永和區"
"234012","KEA-2591","2018/09/13 13:39:10","新北市永和區永平路238巷12號","121.509485","25.0115983333333","6500400","永和區"
"234060","AAD-866","2018/09/13 13:39:22","新北市永和區中正路456號","121.51743","25.002905","6500400","永和區"
"234040","862-TW","2018/09/13 13:39:09","新北市永和區永貞路267號","121.51178","25.0048233333333","6500400","永和區"
"234048","863-TW","2018/09/13 13:39:20","新北市永和區保安路69號","121.509058333333","25.015335","6500400","永和區"
"234025","9371-KE","2018/09/13 13:39:15","新北市永和區和平街93巷2號","121.51138","25.009725","6500400","永和區"
"234010","9373-KE","2018/09/13 13:39:07","新北市永和區保福路二段15巷9號","121.510595","25.0109783333333","6500400","永和區"
"248013","025-BX","2018/09/13 13:39:20","新北市五股區民義路一段107巷21號","121.433006666667","25.084825","6501500","五股區"
"248005","077-UY","2018/09/13 13:39:16","新北市五股區中興路一段24號","121.46871","25.07243","6501500","五股區"
"248007","095-VK","2018/09/13 13:39:23","新北市五股區中興路一段150巷5號","121.4646","25.0741766666667","6501500","五股區"
"248017","225-UY","2018/09/13 13:39:06","新北市五股區民義路二段48巷2-7號","121.414816666667","25.10247","6501500","五股區"
"248011","247-BX","2018/09/13 13:39:14","新北市五股區成泰路三段2巷1-20號","121.441181666667","25.0866783333333","6501500","五股區"
"248015","261-SL","2018/09/13 13:39:15","新北市五股區凌雲路一段149巷13-1號","121.448613333333","25.10087","6501500","五股區"
"248009","272-BY","2018/09/13 13:39:09","新北市五股區水碓七路168號","121.430806666667","25.0739933333333","6501500","五股區"
"248003","677-BX","2018/09/13 13:39:22","新北市五股區民義路一段312-10號","121.422931666667","25.0951566666667","6501500","五股區"
"248001","678-BX","2018/09/13 13:39:06","新北市五股區西雲路274號","121.44926","25.0977766666667","6501500","五股區"
"234022","9380-KE","2018/09/13 13:39:23","新北市永和區竹林路155號","121.520486666667","25.01037","6500400","永和區"
"234076","969-R7","2018/09/13 13:39:17","新北市永和區得和路229號","121.51986","25.000185","6500400","永和區"
"234072","AAC-211","2018/09/13 13:39:12","新北市永和區竹林路213巷31號","121.522715","25.0090716666667","6500400","永和區"
"234001","AAC-295","2018/09/13 13:39:17","新北市永和區自由街26號","121.514301666667","25.00646","6500400","永和區"
"244003","248-BX","2018/09/13 13:39:16","新北市林口區瑞平里66號","121.345606666667","25.1272033333333","6501700","林口區"
"243005","AAD-798","2018/09/13 13:26:29","新北市泰山區明志路三段206巷3號","121.42333","25.0379416666667","6501600","泰山區"
"243008","KEA-2801","2018/09/13 13:39:25","新北市泰山區泰林路二段568號","121.42273","25.06367","6501600","泰山區"
"243004","646-TV","2018/09/13 13:39:21","新北市泰山區犁頭窠3-1號","121.421916666667","25.0604933333333","6501600","泰山區"
"231002","002-UM","2018/09/13 13:39:25","新北市新店區中央三街127號","121.524035","24.9768333333333","6500600","新店區"
"231027","0291-UT","2018/09/13 13:39:14","新北市新店區北宜路一段123-2號","121.54067","24.95344","6500600","新店區"
"231028","046-UY","2018/09/13 13:39:18","新北市新店區安和路一段6-2號","121.51709","24.9648283333333","6500600","新店區"
"231001","047-UY","2018/09/13 13:39:08","新北市新店區中央路45號","121.532943333333","24.97751","6500600","新店區"
"231010","107-UY","2018/09/13 13:39:11","新北市新店區中正路307巷17號","121.53592","24.9736333333333","6500600","新店區"
"231021","108-UY","2018/09/13 13:39:20","新北市新店區新烏路一段159號","121.544871666667","24.93519","6500600","新店區"
"231011","187-VK","2018/09/13 13:39:16","新北市新店區德正街23巷12-1號","121.544555","24.97217","6500600","新店區"
"231023","KEA-2219","2018/09/13 13:39:26","新北市新店區新店路148號","121.537103333333","24.9554383333333","6500600","新店區"
"231026","256-BX","2018/09/13 13:39:14","新北市新店區中正路235號","121.539395","24.9731883333333","6500600","新店區"
"231003","268-BY","2018/09/13 13:39:17","新北市新店區中正路70號","121.544063333333","24.9702133333333","6500600","新店區"
"231018","278-BY","2018/09/13 13:39:07","新北市新店區百忍街13號","121.53461","24.9756","6500600","新店區"
"231017","AAD-862","2018/09/13 13:39:24","新北市新店區竹林路25巷10號","121.552263333333","24.951365","6500600","新店區"
"231005","355-BY","2018/09/13 13:39:09","新北市新店區寶中路72號","121.54784","24.9806016666667","6500600","新店區"
"231038","3712-VJ","2018/09/13 13:39:07","新北市新店區安華路1-1號","121.51924","24.960555","6500600","新店區"
"231037","4716-K9","2018/09/13 13:39:06","新北市新店區薏仁坑路57號","121.490803333333","24.9640066666667","6500600","新店區"
"231025","4715-K9","2018/09/13 13:39:06","新北市新店區中央六街56號","121.528026666667","24.97577","6500600","新店區"
"231036","512-UM","2018/09/13 13:39:14","新北市新店區安祥路190巷21號","121.478073333333","24.95548","6500600","新店區"
"231013","513-UM","2018/09/13 13:39:22","新北市新店區中正路454-5號","121.534455","24.9790716666667","6500600","新店區"
"231006","617-UM","2018/09/13 13:39:19","新北市新店區北宜路一段66號","121.538633333333","24.9559316666667","6500600","新店區"
"231030","619-UM","2018/09/13 13:39:06","新北市新店區安康路一段238號","121.52212","24.9637883333333","6500600","新店區"
"231034","641-BX","2018/09/13 13:39:11","新北市新店區車子路117號","121.505415","24.95169","6500600","新店區"
"231035","719-UM","2018/09/13 13:39:20","新北市新店區安忠路57巷1-2號","121.513478333333","24.9599633333333","6500600","新店區"
"231031","720-UM","2018/09/13 13:39:21","新北市新店區安華路28-1號","121.519571666667","24.960615","6500600","新店區"
"231029","897-TW","2018/09/13 13:39:18","新北市新店區安康路二段356號","121.502195","24.957445","6500600","新店區"
"231004","899-TW","2018/09/13 13:39:08","新北市新店區北新路二段1號","121.542691666667","24.9712683333333","6500600","新店區"
"231024","AKT-0513","2018/09/13 13:39:16","新北市新店區華興街40號","121.537065","24.9691266666667","6500600","新店區"
"235030","003-UY","2018/09/13 13:39:14","新北市中和區光華街42號","121.504925","25.0036633333333","6500300","中和區"
"235028","005-UY","2018/09/13 13:39:17","新北市中和區連城路139巷32號","121.496416666667","24.997915","6500300","中和區"
"235027","006-UY","2018/09/13 13:39:12","新北市中和區連城路347巷16弄2-3號","121.48814","24.9950733333333","6500300","中和區"
"235020","096-UM","2018/09/13 13:39:18","新北市中和區新民街12-3號","121.482165","25.00698","6500300","中和區"
"235003","097-UM","2018/09/13 13:39:24","新北市中和區大勇街25巷39弄1號","121.514893333333","24.9943516666667","6500300","中和區"
"235029","098-UM","2018/09/13 13:39:24","新北市中和區莊敬路33巷36弄2號","121.500075","25.0063866666667","6500300","中和區"
"235004","150-BY","2018/09/13 13:37:26","新北市中和區安平路59號","121.509445","24.9951666666667","6500300","中和區"
"235022","151-BY","2018/09/13 13:39:22","新北市中和區員山路47號","121.481433333333","24.9925316666667","6500300","中和區"
"235019","183-VK","2018/09/13 13:39:21","新北市中和區莒光路120巷15弄2號","121.471666666667","25.001185","6500300","中和區"
"235002","185-VK","2018/09/13 13:39:08","新北市中和區大勇街45巷12號","121.517813333333","24.99495","6500300","中和區"
"235013","186-VK","2018/09/13 13:39:20","新北市中和區景平路480號","121.50507","24.9937666666667","6500300","中和區"
"235031","255-BX","2018/09/13 13:39:20","新北市中和區新生街220巷4號","121.482906666667","24.9986533333333","6500300","中和區"
"235008","293-VK","2018/09/13 13:39:21","新北市中和區復興路265號","121.502778333333","24.9903766666667","6500300","中和區"
"235036","301-VK","2018/09/13 13:39:21","新北市中和區連城路171巷28號","121.495805","24.9971366666667","6500300","中和區"
"235007","352-BY","2018/09/13 13:39:14","新北市中和區景平路316號","121.512305","24.9926183333333","6500300","中和區"
"235006","KEA-2878","2018/09/13 13:39:27","新北市中和區成功路97巷5弄27號","121.526545","24.9927833333333","6500300","中和區"
"235014","4979-A6","2018/09/13 13:39:13","新北市中和區四維街40號","121.512336666667","24.9869566666667","6500300","中和區"
"235033","4980-A6","2018/09/13 13:39:20","新北市中和區連城路87-1號","121.496745","25.0001466666667","6500300","中和區"
"235034","558-UM","2018/09/13 13:39:15","新北市中和區景平路590號","121.50113","24.995995","6500300","中和區"
"235009","565-BX","2018/09/13 13:39:16","新北市中和區南山路236巷63弄1號","121.503796666667","24.98765","6500300","中和區"
"235018","640-BX","2018/09/13 13:39:18","新北市中和區民享街86巷4號","121.474193333333","25.0009916666667","6500300","中和區"
"235011","732-UM","2018/09/13 13:39:18","新北市中和區南山路320巷10弄11號","121.506863333333","24.9865816666667","6500300","中和區"
"235035","783-BX","2018/09/13 13:39:15","新北市中和區光環路二段72號","121.484583333333","25.0145616666667","6500300","中和區"
"235026","800-TS","2018/09/13 13:39:24","新北市中和區中山路二段308號","121.49575","25.00245","6500300","中和區"
"235021","801-TS","2018/09/13 13:39:09","新北市中和區員山路327巷66號","121.479878333333","25.0020433333333","6500300","中和區"
"235005","802-TS","2018/09/13 13:39:15","新北市永和區中和路575號","121.51181","25.0037333333333","6500300","中和區"
"235016","805-TS","2018/09/13 13:39:23","新北市中和區興南路三段52巷1-3號","121.49409","24.975985","6500300","中和區"
"235012","896-TW","2018/09/13 13:39:23","新北市中和區中正路76號","121.500693333333","24.9936066666667","6500300","中和區"
"235017","900-TW","2018/09/13 13:39:05","新北市土城區延壽路77巷4弄11號","121.46916","24.9929133333333","6500300","中和區"
"235024","911-UM","2018/09/13 13:39:26","新北市中和區中山路二段614號","121.481606666667","25.005435","6500300","中和區"
"235015","157-BY","2018/09/13 13:39:22","新北市中和區華新街143巷106弄17號","121.506438333333","24.9785516666667","6500300","中和區"
"235001","AAC-213","2018/09/13 13:39:08","新北市中和區景平路87號","121.517768333333","24.9915783333333","6500300","中和區"
"235023","AAC-215","2018/09/13 13:39:10","新北市中和區中正路525號","121.487925","24.9935733333333","6500300","中和區"
"220013","072-UY","2018/09/13 13:39:14","新北市板橋區漢生東路280號","121.470378333333","25.0098933333333","6500100","板橋區"
"220034","073-UY","2018/09/13 13:39:05","新北市板橋區南雅西路二段177號","121.451791666667","25.0125683333333","6500100","板橋區"
"220017","AAD-861","2018/09/13 13:39:07","新北市板橋區華東街1-10號","121.448661666667","24.9949783333333","6500100","板橋區"
"220039","120-SR","2018/09/13 13:39:20","新北市板橋區民生路二段120號","121.470328333333","25.0197733333333","6500100","板橋區"
"247009","056-VK","2018/09/13 13:39:09","新北市五股區中興路三段163號","121.449091666667","25.0806066666667","6501400","蘆洲區"
"228005","097-TW","2018/09/13 13:39:10","新北市貢寮區美豐里文秀坑8號","121.902576666667","25.05045","6502600","貢寮區"
"228004","212-TW","2018/09/13 13:39:05","新北市貢寮區龍崗里嵩陽街17號","121.907331666667","25.0082166666667","6502600","貢寮區"
"253003","6232-TK","2018/09/13 13:39:06","新北市石門區內石門14-2號","121.57335","25.27662","6502200","石門區"
"253001","6251-TK","2018/09/13 13:39:13","新北市石門區下員坑20-8號","121.5108","25.2786","6502200","石門區"
"253002","637-UY","2018/09/13 13:39:23","新北市石門區內石門78-1號","121.569228333333","25.2567866666667","6502200","石門區"
"253004","8270-PC","2018/09/13 13:39:23","新北市石門區阿里荖62-1號","121.607636666667","25.2692583333333","6502200","石門區"
"207002","749-BX","2018/09/13 13:39:13","新北市萬里區崁腳里崁腳路166號","121.645143333333","25.1560583333333","6502800","萬里區"
"207001","662-BX","2018/09/13 13:39:19","新北市萬里區大鵬里萬里加投32-1號","121.646666666667","25.2095","6502800","萬里區"
"252005","AAC-283","2018/09/13 13:39:06","新北市三芝區圓山里內柑宅22-2號","121.537001666667","25.218345","6502100","三芝區"
"236074","166-UM","2018/09/13 13:39:07","新北市土城區城林路6巷80號","121.43878","24.9797183333333","6501300","土城區"
"236029","253-BX","2018/09/13 13:39:16","新北市土城區城林路6巷80號","121.438621666667","24.979735","6501300","土城區"
"236032","271-VK","2018/09/13 13:39:18","新北市土城區城林路6巷80號","121.438473333333","24.97977","6501300","土城區"
"236017","401-BY","2018/09/13 13:39:17","新北市土城區城林路6巷80號","121.438543333333","24.9798366666667","6501300","土城區"
"236005","498-BY","2018/09/13 13:39:20","新北市土城區慶祥街59巷1號","121.435921666667","24.9731333333333","6501300","土城區"
"236057","912-UM","2018/09/13 13:39:20","新北市土城區城林路6巷80號","121.438581666667","24.9797516666667","6501300","土城區"
"236045","913-UM","2018/09/13 13:39:15","新北市土城區城林路6巷80號","121.438466666667","24.9797483333333","6501300","土城區"
"242001","233-RS","2018/09/13 13:39:11","新北市新莊區自治街36號","121.454103333333","25.0477933333333","6500500","新莊區"
"221010","269-BY","2018/09/13 13:39:21","新北市汐止區康寧街815巷9號","121.640826666667","25.075005","6501100","汐止區"
"220027","145-BY","2018/09/13 13:39:27","新北市板橋區大智街71巷28弄22號","121.452356666667","25.015015","6500100","板橋區"
"220028","200-UY","2018/09/13 13:39:17","新北市板橋區大觀路二段431-1號","121.441236666667","24.9951283333333","6500100","板橋區"
"220030","610-BX","2018/09/13 13:39:25","新北市板橋區篤行路一段18號","121.432051666667","24.9950566666667","6500100","板橋區"
"220004","276-BY","2018/09/13 13:39:15","新北市土城區廣興街38號","121.453473333333","24.9916033333333","6500100","板橋區"
"220020","277-BY","2018/09/13 13:39:19","新北市板橋區大觀路三段54號","121.433148333333","24.9955983333333","6500100","板橋區"
"220019","283-VK","2018/09/13 13:39:20","新北市板橋區四川路二段14號","121.455911666667","24.996215","6500100","板橋區"
"220043","285-UM","2018/09/13 13:39:26","新北市板橋區民生路二段161巷1號","121.470128333333","25.0199066666667","6500100","板橋區"
"220031","286-VK","2018/09/13 13:39:04","新北市板橋區大觀路二段111號","121.446131666667","25.00169","6500100","板橋區"
"220029","287-VK","2018/09/13 13:39:16","新北市板橋區大觀路二段169巷23號","121.446638333333","24.9997816666667","6500100","板橋區"
"220009","293-UM","2018/09/13 13:39:11","新北市板橋區民生路二段161巷3號","121.470221666667","25.019775","6500100","板橋區"
"220023","303-R5","2018/09/13 13:39:23","新北市板橋區華東街298號","121.452666666667","25.0026566666667","6500100","板橋區"
"220010","305-R5","2018/09/13 13:39:09","新北市板橋區民生路二段120號","121.470325","25.0197933333333","6500100","板橋區"
"220012","486-VK","2018/09/13 13:39:12","新北市板橋區民生路二段36-1號","121.47201","25.01687","6500100","板橋區"
"220104","560-BX","2018/09/13 13:39:27","新北市板橋區南雅西路二段145巷6號","121.451613333333","25.0117266666667","6500100","板橋區"
"220032","568-UM","2018/09/13 13:39:09","新北市板橋區板城路421號","121.448068333333","24.9963883333333","6500100","板橋區"
"220011","609-BX","2018/09/13 13:39:16","新北市板橋區民生路二段177號","121.469816666667","25.0203033333333","6500100","板橋區"
"220005","686-BX","2018/09/13 13:39:22","新北市板橋區華東街1-9號","121.448175","24.99487","6500100","板橋區"
"220025","687-BX","2018/09/13 13:39:07","新北市板橋區沙崙街37號","121.430475","24.9946016666667","6500100","板橋區"
"220042","689-BX","2018/09/13 13:39:12","新北市板橋區民生路二段161巷1號","121.470078333333","25.020065","6500100","板橋區"
"220002","741-BX","2018/09/13 13:39:09","新北市板橋區大觀路二段266號","121.448903333333","24.9963183333333","6500100","板橋區"
"220003","827-TW","2018/09/13 13:39:15","新北市板橋區華東街1-8號","121.447583333333","24.9950016666667","6500100","板橋區"
"220014","829-TW","2018/09/13 13:39:06","新北市板橋區民生路二段161巷7號","121.470186666667","25.0196616666667","6500100","板橋區"
"220022","895-R6","2018/09/13 13:39:19","新北市板橋區南雅南路一段8號","121.45595","25.00631","6500100","板橋區"
"220021","985-R7","2018/09/13 13:39:14","新北市板橋區華東街260號","121.45265","25.00158","6500100","板橋區"
"220018","AAC-253","2018/09/13 13:39:16","新北市板橋區華東街1-8號","121.447706666667","24.9949066666667","6500100","板橋區"
"235032","KEA-2873","2018/09/13 13:39:19","新北市中和區圓通路273號","121.495711666667","24.9931566666667","6500300","中和區"
"235025","KEA-2875","2018/09/13 13:39:22","新北市中和區民享街93-2號","121.474743333333","25.0004016666667","6500300","中和區"
