"lineid","car","time","location","longitude","latitude","cityid","cityname"
"234044","148-BY","2018/09/13 13:59:11","新北市永和區林森路67號","121.524058333333","25.00402","6500400","永和區"
"234001","149-BY","2018/09/13 13:59:20","新北市永和區民族街67巷12號","121.519148333333","24.997175","6500400","永和區"
"234005","207-UY","2018/09/13 13:59:19","新北市中和區中和路382號","121.51068","25.002205","6500400","永和區"
"234078","298-R6","2018/09/13 13:59:24","新北市永和區永利路77號","121.521158333333","25.0036516666667","6500400","永和區"
"234036","336-UY","2018/09/13 13:59:12","新北市永和區成功路二段177-1號","121.526613333333","24.996745","6500400","永和區"
"234062","337-UY","2018/09/13 13:59:20","新北市永和區中正路412巷20弄22號","121.518926666667","25.0014066666667","6500400","永和區"
"234084","338-UY","2018/09/13 13:59:13","新北市永和區福和路248號","121.51869","25.007625","6500400","永和區"
"234068","552-UM","2018/09/13 13:59:16","新北市永和區國光路14號","121.519181666667","25.0083816666667","6500400","永和區"
"234015","745-BX","2018/09/13 13:59:19","新北市永和區文化路112號","121.513378333333","25.015305","6500400","永和區"
"234028","746-BX","2018/09/13 13:59:24","新北市永和區民生路47巷33號","121.525116666667","24.9978366666667","6500400","永和區"
"234052","KEA-2590","2018/09/13 13:59:21","新北市永和區竹林路39巷42弄1號","121.520075","25.0152166666667","6500400","永和區"
"234012","KEA-2591","2018/09/13 13:59:10","新北市永和區保生路55號","121.504708333333","25.0106216666667","6500400","永和區"
"234060","AAD-866","2018/09/13 13:59:26","新北市永和區中正路283巷53弄2號","121.515915","24.9992816666667","6500400","永和區"
"234040","862-TW","2018/09/13 13:59:09","新北市永和區中和路335巷14號","121.507613333333","25.0002816666667","6500400","永和區"
"234048","863-TW","2018/09/13 13:55:39","新北市永和區保安路117號","121.507678333333","25.0139016666667","6500400","永和區"
"234010","9373-KE","2018/09/13 13:59:26","新北市永和區仁愛路352巷112弄6號","121.500941666667","25.0085083333333","6500400","永和區"
"248007","095-VK","2018/09/13 13:59:23","新北市五股區中興路一段128巷19號","121.465668333333","25.07455","6501500","五股區"
"248017","225-UY","2018/09/13 13:59:26","新北市五股區民義路一段218號","121.429388333333","25.0903866666667","6501500","五股區"
"248015","261-SL","2018/09/13 13:59:21","新北市五股區成泰路三段543巷12弄1號","121.451111666667","25.1021583333333","6501500","五股區"
"248009","272-BY","2018/09/13 13:59:09","新北市五股區水碓一路23號","121.43065","25.0712733333333","6501500","五股區"
"248003","677-BX","2018/09/13 13:59:22","新北市五股區民義路一段214號","121.430143333333","25.0893566666667","6501500","五股區"
"248001","678-BX","2018/09/13 13:59:06","新北市五股區凌雲路一段161號","121.448976666667","25.10259","6501500","五股區"
"234022","9380-KE","2018/09/13 13:59:23","新北市永和區復興街2巷2號","121.515631666667","25.0126333333333","6500400","永和區"
"234076","969-R7","2018/09/13 13:59:26","新北市永和區民權路23號","121.519976666667","24.9978116666667","6500400","永和區"
"234072","AAC-211","2018/09/13 13:59:12","新北市永和區豫溪街169巷2-1號","121.521973333333","25.0104716666667","6500400","永和區"
"234066","AAC-212","2018/09/13 13:59:18","新北市永和區中山路一段191巷7弄3號","121.509466666667","25.0084633333333","6500400","永和區"
"234001","AAC-295","2018/09/13 13:59:17","新北市永和區福和路310-1號","121.516173333333","25.0073416666667","6500400","永和區"
"243005","AAD-798","2018/09/13 13:59:14","新北市泰山區明志路三段206巷3號","121.423265","25.0378533333333","6501600","泰山區"
"243008","KEA-2801","2018/09/13 13:59:25","新北市泰山區明志路二段152-1號","121.42754","25.0506066666667","6501600","泰山區"
"243007","421-VK","2018/09/13 13:59:22","新北市泰山區泰林路二段330號","121.429953333333","25.0632333333333","6501600","泰山區"
"243003","KEA-2215","2018/09/13 13:59:09","新北市泰山區明志路二段239號","121.42719","25.04816","6501600","泰山區"
"243002","KEA-2216","2018/09/13 13:59:11","新北市泰山區辭修路30號","121.42894","25.058115","6501600","泰山區"
"243004","646-TV","2018/09/13 13:59:21","新北市泰山區福興三街166號","121.43268","25.0570533333333","6501600","泰山區"
"243006","680-BX","2018/09/13 13:59:05","新北市泰山區黎明路15號","121.420906666667","25.0630933333333","6501600","泰山區"
"231002","002-UM","2018/09/13 13:59:05","新北市新店區中正路707號","121.533888333333","24.9911366666667","6500600","新店區"
"231027","0291-UT","2018/09/13 13:59:14","新北市新店區北宜路一段39巷20號","121.538896666667","24.95826","6500600","新店區"
"231028","046-UY","2018/09/13 13:59:13","新北市新店區安和路三段7號","121.518116666667","24.980585","6500600","新店區"
"231001","047-UY","2018/09/13 13:59:07","新北市新店區三民路43號","121.537198333333","24.9709466666667","6500600","新店區"
"231010","107-UY","2018/09/13 13:59:11","新北市新店區環河路90號","121.536796666667","24.9637266666667","6500600","新店區"
"231021","108-UY","2018/09/13 13:59:20","新北市新店區新烏路二段40-2號","121.544916666667","24.9282866666667","6500600","新店區"
"231011","187-VK","2018/09/13 13:59:16","新北市新店區中興路二段57巷20號","121.545726666667","24.9709016666667","6500600","新店區"
"231023","KEA-2219","2018/09/13 13:59:06","新北市新店區文中路45號","121.5396","24.9565966666667","6500600","新店區"
"231026","256-BX","2018/09/13 13:59:14","新北市新店區安康路一段156號","121.526286666667","24.9630483333333","6500600","新店區"
"231003","268-BY","2018/09/13 13:59:17","新北市新店區中興路一段112-1號","121.54066","24.9613916666667","6500600","新店區"
"231018","278-BY","2018/09/13 13:59:07","新北市新店區中央路192號","121.530908333333","24.9747483333333","6500600","新店區"
"231017","AAD-862","2018/09/13 13:59:04","新北市新店區郵政路4巷8號","121.556808333333","24.9516983333333","6500600","新店區"
"231005","355-BY","2018/09/13 13:59:09","新北市新店區中興路三段160號","121.54446","24.980705","6500600","新店區"
"231038","3712-VJ","2018/09/13 13:59:07","新北市新店區安華路30巷1號","121.519546666667","24.959285","6500600","新店區"
"231037","4716-K9","2018/09/13 13:59:27","新北市新店區安康路三段355巷45號","121.485006666667","24.9493916666667","6500600","新店區"
"231025","4715-K9","2018/09/13 13:59:25","新北市新店區中正路328巷15號","121.537346666667","24.9755466666667","6500600","新店區"
"231036","512-UM","2018/09/13 13:59:14","新北市新店區安祥路110巷30弄1號","121.473811666667","24.9563566666667","6500600","新店區"
"231013","513-UM","2018/09/13 13:59:22","新北市新店區明德路66號","121.541556666667","24.9794833333333","6500600","新店區"
"231006","617-UM","2018/09/13 13:59:19","新北市新店區北宜路二段213號","121.553253333333","24.953325","6500600","新店區"
"231030","619-UM","2018/09/13 13:59:26","新北市新店區安康路一段240-1號","121.521738333333","24.9638666666667","6500600","新店區"
"231034","641-BX","2018/09/13 13:59:11","新北市新店區達觀路32號","121.502191666667","24.9402116666667","6500600","新店區"
"231035","719-UM","2018/09/13 13:59:19","新北市新店區安康路二段85巷17號","121.514341666667","24.9617583333333","6500600","新店區"
"231031","720-UM","2018/09/13 13:59:21","新北市新店區華城路36巷35號","121.526775","24.9537183333333","6500600","新店區"
"231029","897-TW","2018/09/13 13:59:18","新北市新店區安康路二段71號","121.513766666667","24.9631033333333","6500600","新店區"
"231004","899-TW","2018/09/13 13:59:08","新北市新店區寶橋路3號","121.543431666667","24.9736566666667","6500600","新店區"
"231024","AKT-0513","2018/09/13 13:59:15","新北市新店區環河路2號","121.538458333333","24.9617316666667","6500600","新店區"
"235030","003-UY","2018/09/13 13:59:14","新北市中和區中山路二段131巷5弄9號","121.503003333333","25.0029716666667","6500300","中和區"
"235028","005-UY","2018/09/13 13:59:17","新北市中和區泰和街46巷2號","121.49865","25.0001483333333","6500300","中和區"
"235027","006-UY","2018/09/13 13:59:12","新北市中和區錦和路166號","121.489776666667","24.9957866666667","6500300","中和區"
"235020","096-UM","2018/09/13 13:59:18","新北市板橋區三民路二段228號","121.478751666667","25.0113583333333","6500300","中和區"
"235003","097-UM","2018/09/13 13:59:24","新北市中和區秀朗路三段179號","121.524453333333","24.9906166666667","6500300","中和區"
"235029","098-UM","2018/09/13 13:59:24","新北市中和區勝利路35巷3弄1號","121.499058333333","25.0072483333333","6500300","中和區"
"235004","150-BY","2018/09/13 13:59:06","新北市中和區保健路48巷68號","121.508925","24.9956216666667","6500300","中和區"
"235022","151-BY","2018/09/13 13:59:22","新北市中和區員山路75號","121.480646666667","24.994125","6500300","中和區"
"235019","183-VK","2018/09/13 13:59:21","新北市中和區中山路三段208號","121.47154","25.0065366666667","6500300","中和區"
"235002","185-VK","2018/09/13 13:59:08","新北市中和區立人街24-5號","121.518883333333","24.9942","6500300","中和區"
"235013","186-VK","2018/09/13 13:59:20","新北市中和區景新街212號","121.506856666667","24.99529","6500300","中和區"
"235031","255-BX","2018/09/13 13:59:20","新北市中和區新生街264號","121.483623333333","24.9972266666667","6500300","中和區"
"235008","293-VK","2018/09/13 13:59:21","新北市中和區中興街161巷7弄2號","121.50111","24.9909233333333","6500300","中和區"
"235036","301-VK","2018/09/13 13:59:08","新北市中和區中山路二段41號","121.504666666667","25.0051233333333","6500300","中和區"
"235007","352-BY","2018/09/13 13:59:14","新北市中和區秀朗路三段72號","121.526318333333","24.9944116666667","6500300","中和區"
"235006","KEA-2878","2018/09/13 13:59:07","新北市中和區秀朗路三段128巷1弄6號","121.524231666667","24.9920816666667","6500300","中和區"
"247011","KEA-2869","2018/09/13 13:59:12","新北市蘆洲區中興街21號","121.480755","25.0870766666667","6501400","蘆洲區"
"235014","4979-A6","2018/09/13 13:59:13","新北市中和區華新街98號","121.508565","24.98308","6500300","中和區"
"235033","4980-A6","2018/09/13 13:59:20","新北市中和區圓通路109巷3號","121.500016666667","24.99637","6500300","中和區"
"235034","558-UM","2018/09/13 13:59:15","新北市中和區安和路163號","121.506231666667","24.99746","6500300","中和區"
"235009","565-BX","2018/09/13 13:59:16","新北市中和區景新街467巷20弄21號","121.515006666667","24.987315","6500300","中和區"
"235018","640-BX","2018/09/13 13:59:18","新北市中和區中山路三段147號","121.473718333333","25.0060733333333","6500300","中和區"
"235011","732-UM","2018/09/13 13:59:18","新北市中和區興南路二段54巷11弄2號","121.505621666667","24.9856133333333","6500300","中和區"
"235010","733-UM","2018/09/13 13:59:21","新北市中和區興南路一段135巷22弄12號","121.509065","24.9867933333333","6500300","中和區"
"235035","783-BX","2018/09/13 13:59:24","新北市中和區中山路二段482巷26號","121.490391666667","25.0063716666667","6500300","中和區"
"235026","800-TS","2018/09/13 13:59:04","新北市中和區中山路二段340巷59號","121.492996666667","25.0046316666667","6500300","中和區"
"235021","801-TS","2018/09/13 13:59:09","新北市中和區民利街40巷3弄11號","121.478886666667","24.9991083333333","6500300","中和區"
"235005","802-TS","2018/09/13 13:59:15","新北市中和區中安街40巷8號","121.512695","25.0029733333333","6500300","中和區"
"235016","805-TS","2018/09/13 13:59:18","新北市中和區興南路二段261巷6-2號","121.503721666667","24.980085","6500300","中和區"
"235012","896-TW","2018/09/13 13:59:23","新北市中和區華新街57號","121.507985","24.9842866666667","6500300","中和區"
"235017","900-TW","2018/09/13 13:59:25","新北市中和區民德路390號","121.465795","24.9941033333333","6500300","中和區"
"235024","911-UM","2018/09/13 13:59:26","新北市中和區民治街3巷2號","121.475001666667","25.0052916666667","6500300","中和區"
"235015","157-BY","2018/09/13 13:59:22","新北市中和區忠孝街31巷35號","121.509901666667","24.9846183333333","6500300","中和區"
"235001","AAC-213","2018/09/13 13:59:08","新北市中和區秀朗路三段10巷37弄4號","121.52413","24.9960433333333","6500300","中和區"
"235023","AAC-215","2018/09/13 13:59:10","新北市中和區圓通路367巷20弄21號","121.49152","24.9883633333333","6500300","中和區"
"220013","072-UY","2018/09/13 13:59:14","新北市板橋區漢生東路311號","121.471803333333","25.00805","6500100","板橋區"
"220034","073-UY","2018/09/13 13:59:05","新北市板橋區中正路236巷27號","121.457073333333","25.0192666666667","6500100","板橋區"
"220105","075-UY","2018/09/13 13:59:14","新北市板橋區文化路二段124巷24號","121.471173333333","25.02573","6500100","板橋區"
"220017","AAD-861","2018/09/13 13:59:07","新北市板橋區華興街67號","121.45722","25.0049816666667","6500100","板橋區"
"220039","120-SR","2018/09/13 13:59:20","新北市板橋區民生路三段10號","121.467706666667","25.02397","6500100","板橋區"
"247015","546-UM","2018/09/13 13:59:25","新北市蘆洲區光華路28號","121.469401666667","25.083285","6501400","蘆洲區"
"247005","337-TH","2018/09/13 13:59:10","新北市蘆洲區永安南路二段72-1號","121.464768333333","25.0783283333333","6501400","蘆洲區"
"247007","336-TH","2018/09/13 13:59:12","新北市三重區永安北路二段42-6號","121.481875","25.0816","6501400","蘆洲區"
"247019","057-VK","2018/09/13 13:59:19","新北市蘆洲區民族路422巷38號","121.47402","25.0927183333333","6501400","蘆洲區"
"247009","056-VK","2018/09/13 13:59:09","新北市蘆洲區中興街48號","121.481578333333","25.08721","6501400","蘆洲區"
"247013","053-VK","2018/09/13 13:59:16","新北市蘆洲區中正路107號","121.469806666667","25.08428","6501400","蘆洲區"
"247017","007-UY","2018/09/13 13:59:14","新北市蘆洲區民族路255巷8號","121.476268333333","25.0899383333333","6501400","蘆洲區"
"247003","002-UY","2018/09/13 13:59:25","新北市蘆洲區中華街2號","121.463665","25.0817816666667","6501400","蘆洲區"
"247021","001-UY","2018/09/13 13:59:13","新北市蘆洲區中正路263巷2號","121.467335","25.0874","6501400","蘆洲區"
"228005","097-TW","2018/09/13 13:53:30","新北市貢寮區美豐里雞母嶺街52號","121.891031666667","25.0660183333333","6502600","貢寮區"
"228004","212-TW","2018/09/13 13:59:05","新北市貢寮區龍崗里嵩陽街40號","121.905461666667","25.0149983333333","6502600","貢寮區"
"253003","6232-TK","2018/09/13 13:59:06","新北市石門區尖子鹿53-2號","121.579683333333","25.2711633333333","6502200","石門區"
"253001","6251-TK","2018/09/13 13:59:13","新北市石門區下員坑49號","121.517771666667","25.2733366666667","6502200","石門區"
"253002","637-UY","2018/09/13 13:59:03","新北市石門區尖山湖17號","121.560685","25.2457533333333","6502200","石門區"
"253004","8270-PC","2018/09/13 13:59:10","新北市石門區小坑43-2號","121.600286666667","25.2644516666667","6502200","石門區"
"207002","749-BX","2018/09/13 13:58:13","新北市萬里區溪底里烏塗炭9號","121.637405","25.1517033333333","6502800","萬里區"
"207001","662-BX","2018/09/13 13:59:19","新北市萬里區磺潭里清水1號","121.638961666667","25.2021866666667","6502800","萬里區"
"252005","AAC-283","2018/09/13 13:59:26","新北市三芝區橫山里橫山56-6號","121.535536666667","25.2507466666667","6502100","三芝區"
"236068","105-UM","2018/09/13 13:59:22","新北市土城區金城路一段88巷24號","121.445801666667","24.9730483333333","6501300","土城區"
"236040","107-UM","2018/09/13 13:59:22","新北市土城區城林路6巷80號","121.438271666667","24.9798433333333","6501300","土城區"
"236074","166-UM","2018/09/13 13:59:07","新北市土城區永寧路35號","121.430273333333","24.9622516666667","6501300","土城區"
"236029","253-BX","2018/09/13 13:59:16","新北市土城區城林路6巷80號","121.438588333333","24.9797566666667","6501300","土城區"
"236024","269-VK","2018/09/13 13:59:12","新北市土城區千歲路11號","121.440848333333","24.96978","6501300","土城區"
"236012","270-VK","2018/09/13 13:59:26","新北市土城區城林路6巷80號","121.438628333333","24.97974","6501300","土城區"
"236032","271-VK","2018/09/13 13:59:18","新北市土城區城林路6巷80號","121.438523333333","24.9797516666667","6501300","土城區"
"236017","401-BY","2018/09/13 13:59:17","新北市土城區城林路6巷80號","121.438526666667","24.97979","6501300","土城區"
"236005","498-BY","2018/09/13 13:59:20","新北市土城區中央路一段365巷11-6號","121.445248333333","24.9803733333333","6501300","土城區"
"236057","912-UM","2018/09/13 13:59:20","新北市土城區中央路四段6號","121.42573","24.9630766666667","6501300","土城區"
"236045","913-UM","2018/09/13 13:59:15","新北市土城區城林路6巷80號","121.438478333333","24.979745","6501300","土城區"
"236060","915-UM","2018/09/13 13:59:27","新北市土城區城林路6巷80號","121.438436666667","24.9797816666667","6501300","土城區"
"236054","AAC-216","2018/09/13 13:59:13","新北市土城區光明街4號","121.44182","24.9745","6501300","土城區"
"242001","233-RS","2018/09/13 13:59:11","新北市新莊區自強街37巷14弄11號","121.454091666667","25.04684","6500500","新莊區"
"221010","269-BY","2018/09/13 13:59:21","新北市汐止區八連路二段160號","121.633883333333","25.095365","6501100","汐止區"
"221032","280-BY","2018/09/13 13:59:19","新北市汐止區龍安路42號","121.654356666667","25.06357","6501100","汐止區"
"220027","145-BY","2018/09/13 13:59:27","新北市板橋區民權路202巷1弄2-3號","121.459455","25.0141566666667","6500100","板橋區"
"220028","200-UY","2018/09/13 13:59:17","新北市板橋區大觀路二段265巷1弄26號","121.444038333333","24.9982533333333","6500100","板橋區"
"220030","610-BX","2018/09/13 13:59:09","新北市板橋區篤行路三段20-1號","121.428825","24.9872233333333","6500100","板橋區"
"220040","267-BY","2018/09/13 13:59:10","新北市板橋區莒光路165巷14-1號","121.47403","25.0243133333333","6500100","板橋區"
"220004","276-BY","2018/09/13 13:59:28","新北市板橋區信義路161號","121.458541666667","24.9925183333333","6500100","板橋區"
"220020","277-BY","2018/09/13 13:59:19","新北市樹林區樹新路205-3號","121.429626666667","24.9979516666667","6500100","板橋區"
"220019","283-VK","2018/09/13 13:59:20","新北市板橋區重慶路245巷26號","121.464398333333","25.0007716666667","6500100","板橋區"
"220043","285-UM","2018/09/13 13:59:26","新北市板橋區文化路二段76號","121.469353333333","25.024975","6500100","板橋區"
"220001","285-VK","2018/09/13 13:59:17","新北市板橋區中山路二段89巷58號","121.473775","25.0173516666667","6500100","板橋區"
"220031","286-VK","2018/09/13 13:59:05","新北市板橋區龍興街97巷2號","121.444061666667","25.0026633333333","6500100","板橋區"
"220029","287-VK","2018/09/13 13:59:16","新北市板橋區南雅西路二段102號","121.452431666667","25.0118","6500100","板橋區"
"220009","293-UM","2018/09/13 13:59:11","新北市板橋區富山街71巷10號","121.476666666667","25.02147","6500100","板橋區"
"220046","299-UM","2018/09/13 13:59:20","新北市板橋區國光路215號","121.462281666667","25.0186283333333","6500100","板橋區"
"220023","303-R5","2018/09/13 13:59:23","新北市板橋區南雅西路二段184號","121.451591666667","25.0142166666667","6500100","板橋區"
"220010","305-R5","2018/09/13 13:59:09","新北市板橋區三民路二段245巷55號","121.480711666667","25.0127216666667","6500100","板橋區"
"220041","307-R5","2018/09/13 13:59:22","新北市板橋區文化路一段104巷15號","121.465205","25.0181116666667","6500100","板橋區"
"220047","317-R6","2018/09/13 13:59:06","新北市板橋區民生路三段11號","121.467778333333","25.023715","6500100","板橋區"
"220012","486-VK","2018/09/13 13:59:12","新北市板橋區板新路178號","121.469813333333","25.015785","6500100","板橋區"
"220037","491-VK","2018/09/13 13:58:51","新北市板橋區民生路二段210號","121.469531666667","25.0212733333333","6500100","板橋區"
"220104","560-BX","2018/09/13 13:59:07","新北市板橋區中正路341巷8號","121.454491666667","25.02035","6500100","板橋區"
"220052","561-BX","2018/09/13 13:59:07","新北市板橋區文化路一段188巷11弄50號","121.469176666667","25.01867","6500100","板橋區"
"220032","568-UM","2018/09/13 13:59:09","新北市板橋區龍興街52號","121.44327","25.0011033333333","6500100","板橋區"
"220011","609-BX","2018/09/13 13:59:16","新北市板橋區中山路二段243號","121.477213333333","25.017425","6500100","板橋區"
"220005","686-BX","2018/09/13 13:59:22","新北市板橋區重慶路201號","121.46293","25.0016666666667","6500100","板橋區"
"220025","687-BX","2018/09/13 13:59:07","新北市板橋區龍興街71巷53號","121.441536666667","25.002655","6500100","板橋區"
"220042","689-BX","2018/09/13 13:59:11","新北市板橋區文化路一段479巷42號","121.468011666667","25.0234083333333","6500100","板橋區"
"220002","741-BX","2018/09/13 13:59:12","新北市板橋區成都街60號","121.463083333333","25.0050733333333","6500100","板橋區"
"220051","KEA-2699","2018/09/13 13:59:12","新北市板橋區八德路二段62號","121.482046666667","25.0273133333333","6500100","板橋區"
"220003","827-TW","2018/09/13 13:59:15","新北市板橋區民安街32號","121.46698","25.0111816666667","6500100","板橋區"
"220014","829-TW","2018/09/13 13:59:21","新北市板橋區三民路二段正隆巷12弄6號","121.478143333333","25.013055","6500100","板橋區"
"220016","830-TW","2018/09/13 13:59:07","新北市板橋區中山路二段443巷76號","121.481075","25.0222766666667","6500100","板橋區"
"220045","831-TW","2018/09/13 13:59:19","新北市板橋區莒光路103號","121.47266","25.02398","6500100","板橋區"
"220038","833-TW","2018/09/13 13:59:13","新北市板橋區文化路二段294號","121.471788333333","25.02943","6500100","板橋區"
"220022","895-R6","2018/09/13 13:59:19","新北市板橋區南雅南路一段2-2號","121.456286666667","25.006785","6500100","板橋區"
"220021","985-R7","2018/09/13 13:59:13","新北市板橋區館前西路195號","121.455116666667","25.008345","6500100","板橋區"
"220018","AAC-253","2018/09/13 13:59:16","新北市板橋區四川路一段387號","121.457971666667","24.99904","6500100","板橋區"
"235032","KEA-2873","2018/09/13 13:59:18","新北市中和區圓通路162巷8號","121.496845","24.9954183333333","6500300","中和區"
"235025","KEA-2875","2018/09/13 13:59:22","新北市中和區民享街79巷2號","121.474481666667","25.00182","6500300","中和區"
