"lineid","car","time","location","longitude","latitude","cityid","cityname"
"234001","149-BY","2018/09/13 15:29:00","新北市板橋區文化路二段656號","121.480611666667","25.03982","6500400","永和區"
"231002","002-UM","2018/09/13 15:29:25","新北市新店區環河路116號","121.53685","24.967145","6500600","新店區"
"231028","046-UY","2018/09/13 15:29:13","新北市新店區僑信路92號","121.499856666667","24.9477616666667","6500600","新店區"
"231021","108-UY","2018/09/13 15:29:20","新北市新店區湖興路89號","121.55948","24.9358966666667","6500600","新店區"
"231011","187-VK","2018/09/13 15:29:16","新北市新店區寶元路一段102號","121.54517","24.9833466666667","6500600","新店區"
"231023","KEA-2219","2018/09/13 15:29:26","新北市新店區北新路一段339號","121.541838333333","24.9687316666667","6500600","新店區"
"231026","256-BX","2018/09/13 15:29:12","新北市新店區三民路117巷6弄1號","121.53411","24.9711466666667","6500600","新店區"
"231003","268-BY","2018/09/13 15:29:17","新北市新店區寶高路120巷1號","121.55463","24.97612","6500600","新店區"
"231018","278-BY","2018/09/13 15:29:27","新北市新店區民生路145巷32號","121.529841666667","24.9804233333333","6500600","新店區"
"231017","AAD-862","2018/09/13 15:29:24","新北市新店區明山路45號","121.563721666667","24.95578","6500600","新店區"
"231005","355-BY","2018/09/13 15:29:29","新北市新店區建國路257號","121.537433333333","24.98337","6500600","新店區"
"231038","3712-VJ","2018/09/13 15:29:07","新北市新店區安華路28-1號","121.519886666667","24.9608033333333","6500600","新店區"
"231037","4716-K9","2018/09/13 15:29:06","新北市新店區安興路91巷28-1號","121.512008333333","24.974705","6500600","新店區"
"231025","4715-K9","2018/09/13 15:29:25","新北市新店區安光路8號","121.513985","24.9636916666667","6500600","新店區"
"231036","512-UM","2018/09/13 15:29:14","新北市新店區安祥路67巷50弄15號","121.484236666667","24.9588783333333","6500600","新店區"
"231006","617-UM","2018/09/13 15:29:19","新北市新店區安華路30巷1號","121.519555","24.9597983333333","6500600","新店區"
"231030","619-UM","2018/09/13 15:29:26","新北市新店區安和路三段85號","121.517856666667","24.9839333333333","6500600","新店區"
"231034","641-BX","2018/09/13 15:29:11","新北市新店區富貴街6巷1號","121.494523333333","24.9500116666667","6500600","新店區"
"231039","718-UY","2018/09/13 15:29:15","新北市新店區寶元路一段85巷10號","121.543085","24.9859266666667","6500600","新店區"
"231035","719-UM","2018/09/13 15:29:19","新北市新店區安興路81號","121.51548","24.9753383333333","6500600","新店區"
"231031","720-UM","2018/09/13 15:29:21","新北市新店區裕合街94號","121.490418333333","24.94871","6500600","新店區"
"231029","897-TW","2018/09/13 15:29:18","新北市新店區安康路三段525巷50號","121.482278333333","24.9459833333333","6500600","新店區"
"231004","899-TW","2018/09/13 15:29:26","新北市新店區民族路105號","121.538098333333","24.9773316666667","6500600","新店區"
"231024","AKT-0513","2018/09/13 15:29:15","新北市新店區安興路65巷16號","121.515935","24.9730783333333","6500600","新店區"
"241011","013-R5","2018/09/13 15:29:10","新北市三重區河邊北街174巷1號","121.503231666667","25.07363","6500200","三重區"
"241028","022-UY","2018/09/13 15:29:09","新北市三重區成功路106-1號","121.487506666667","25.05167","6500200","三重區"
"241015","062-VK","2018/09/13 15:29:28","新北市三重區重新路四段121號","121.484751666667","25.0525733333333","6500200","三重區"
"241017","063-VK","2018/09/13 15:29:11","新北市三重區重新路四段101-30號","121.483768333333","25.0533716666667","6500200","三重區"
"241029","265-UM","2018/09/13 15:29:20","新北市三重區重新路四段121號","121.485166666667","25.0518016666667","6500200","三重區"
"241018","268-UM","2018/09/13 15:29:10","新北市三重區重新路四段121號","121.484823333333","25.052755","6500200","三重區"
"241013","270-UM","2018/09/13 15:29:18","新北市三重區忠孝路三段84巷5號","121.480196666667","25.064465","6500200","三重區"
"241007","398-BY","2018/09/13 15:29:20","新北市三重區重新路四段121號","121.485095","25.0527216666667","6500200","三重區"
"241020","478-VK","2018/09/13 15:29:17","新北市三重區忠孝路二段52號","121.48507","25.0703666666667","6500200","三重區"
"241005","887-TS","2018/09/13 15:29:18","新北市三重區重新路四段121號","121.485208333333","25.052465","6500200","三重區"
"241012","941-UM","2018/09/13 15:29:14","新北市三重區成功路112-4號","121.485635","25.0519866666667","6500200","三重區"
"241033","AAC-255","2018/09/13 15:29:13","新北市三重區重新路四段121號","121.484451666667","25.05207","6500200","三重區"
"235030","003-UY","2018/09/13 15:29:14","新北市中和區水源路102號","121.506115","25.0033983333333","6500300","中和區"
"235014","4979-A6","2018/09/13 15:29:22","新北市中和區景新街160巷19號","121.50495","24.99662","6500300","中和區"
"235033","4980-A6","2018/09/13 15:29:20","新北市中和區中正路516號","121.48826","24.99457","6500300","中和區"
"235035","783-BX","2018/09/13 15:29:24","新北市中和區中正路988巷11號","121.481955","25.01","6500300","中和區"
"235023","AAC-215","2018/09/13 15:29:09","新北市中和區員山路30-11號","121.484115","24.9877833333333","6500300","中和區"
"253003","6232-TK","2018/09/13 15:29:26","新北市石門區小坑9號","121.594595","25.2882283333333","6502200","石門區"
"253001","6251-TK","2018/09/13 15:29:13","新北市石門區小坑9號","121.59433","25.28858","6502200","石門區"
"253004","8270-PC","2018/09/13 15:29:15","新北市石門區小坑9號","121.594336666667","25.28865","6502200","石門區"
"207001","662-BX","2018/09/13 15:28:39","新北市萬里區龜吼里新墾丁路122號","121.678156666667","25.2002766666667","6502800","萬里區"
"236068","105-UM","2018/09/13 15:29:22","新北市土城區光明街1號","121.44218","24.974935","6501300","土城區"
"236040","107-UM","2018/09/13 15:29:22","新北市土城區學府路一段164巷1號","121.454013333333","24.9868133333333","6501300","土城區"
"236074","166-UM","2018/09/13 15:29:27","新北市土城區溪頭路20巷2弄2號","121.41286","24.95549","6501300","土城區"
"236029","253-BX","2018/09/13 15:29:17","新北市土城區中央路一段242巷8弄2號","121.443838333333","24.9853116666667","6501300","土城區"
"236024","269-VK","2018/09/13 15:29:12","新北市土城區中央路二段8-3號","121.442976666667","24.9807816666667","6501300","土城區"
"236012","270-VK","2018/09/13 15:29:26","新北市土城區廣明街26號","121.455721666667","24.9925566666667","6501300","土城區"
"236032","271-VK","2018/09/13 15:29:23","新北市土城區明德路一段48巷12號","121.464688333333","24.9837516666667","6501300","土城區"
"236017","401-BY","2018/09/13 15:29:17","新北市土城區延吉街165巷5號","121.470346666667","24.9853516666667","6501300","土城區"
"236057","912-UM","2018/09/13 15:29:20","新北市土城區城林路6巷80號","121.43869","24.9798083333333","6501300","土城區"
"236045","913-UM","2018/09/13 15:29:15","新北市土城區青雲路165號","121.4591","24.9833266666667","6501300","土城區"
"236060","915-UM","2018/09/13 15:29:06","新北市土城區延和路110號","121.467093333333","24.989805","6501300","土城區"
"236054","AAC-216","2018/09/13 15:29:13","新北市土城區延和路221號","121.470016666667","24.98955","6501300","土城區"
"242001","233-RS","2018/09/13 15:29:11","新北市新莊區環河路636-7號","121.437023333333","25.010725","6500500","新莊區"
"238002","755-BX","2018/09/13 15:29:18","新北市樹林區復興路188號","121.420101666667","24.9911566666667","6500700","樹林區"
"238010","601-UM","2018/09/13 15:29:15","新北市樹林區三福街2號","121.40915","25.016965","6500700","樹林區"
"238006","599-UM","2018/09/13 15:29:17","新北市樹林區太順街36號","121.418996666667","24.9799416666667","6500700","樹林區"
"238005","571-TV","2018/09/13 15:29:18","新北市樹林區鎮前街144號","121.424608333333","24.990405","6500700","樹林區"
"238011","5061-A6","2018/09/13 15:29:10","新北市樹林區八德街212巷20號","121.415353333333","24.9733366666667","6500700","樹林區"
"238009","KEA-2213","2018/09/13 15:29:21","新北市樹林區仁愛街65號","121.422933333333","24.9824133333333","6500700","樹林區"
"238008","KEA-2539","2018/09/13 15:29:17","新北市樹林區柑園街一段29號","121.404081666667","24.9602283333333","6500700","樹林區"
"238012","303-VK","2018/09/13 15:29:17","新北市樹林區中山路一段376-3號","121.418631666667","24.9855366666667","6500700","樹林區"
"238004","283-BY","2018/09/13 15:29:22","新北市樹林區保安街二段333巷2號","121.412263333333","25.007595","6500700","樹林區"
"238001","282-BY","2018/09/13 15:29:27","新北市樹林區潭興街55號","121.42406","24.9983016666667","6500700","樹林區"
"238007","268-VK","2018/09/13 15:29:22","新北市樹林區俊英街116巷41弄14號","121.428858333333","25.0067216666667","6500700","樹林區"
"238013","172-UY","2018/09/13 15:29:13","新北市樹林區新興街19巷6號","121.400538333333","24.9727316666667","6500700","樹林區"
"238003","169-UY","2018/09/13 15:29:22","新北市樹林區日新街12號","121.423308333333","24.9930116666667","6500700","樹林區"
"220050","245-BX","2018/09/13 15:29:07","新北市板橋區漢生東路45號","121.465746666667","25.0166216666667","6500100","板橋區"
"220029","287-VK","2018/09/13 15:29:16","新北市板橋區僑中二街86號","121.446525","25.0095733333333","6500100","板橋區"
"220052","561-BX","2018/09/13 15:29:07","新北市板橋區漢生東路73巷7-1號","121.46649","25.0164733333333","6500100","板橋區"
"220042","689-BX","2018/09/13 15:29:12","新北市板橋區長江路二段189巷3號","121.466276666667","25.0344433333333","6500100","板橋區"
"220051","KEA-2699","2018/09/13 15:29:11","新北市板橋區民生路二段201號","121.469235","25.0207","6500100","板橋區"
"220038","833-TW","2018/09/13 15:29:13","新北市板橋區四維路174-1號","121.464621666667","25.0264216666667","6500100","板橋區"
"220021","985-R7","2018/09/13 15:29:13","新北市八里區中山路三段380號","121.369966666667","25.13689","6500100","板橋區"
"220018","AAC-253","2018/09/13 15:29:16","新北市板橋區四川路二段245巷44號","121.451801666667","24.9925633333333","6500100","板橋區"
