"lineid","car","time","location","longitude","latitude","cityid","cityname"
"249005","172-UM","2018/09/13 17:09:09","新北市八里區華富山3-1號","121.417436666667","25.1462683333333","6502300","八里區"
"249001","173-UM","2018/09/13 17:09:22","新北市八里區中華路二段249-1號","121.403953333333","25.1483616666667","6502300","八里區"
"249004","303-UY","2018/09/13 17:09:27","新北市八里區忠孝路276號","121.420006666667","25.1611766666667","6502300","八里區"
"249003","759-BX","2018/09/13 17:09:20","新北市八里區中山路二段407號","121.397665","25.1465383333333","6502300","八里區"
"244023","069-UM","2018/09/13 17:09:15","新北市林口區粉寮路一段1號","121.396218333333","25.075875","6501700","林口區"
"244007","080-UY","2018/09/13 17:09:16","新北市林口區菁埔26-51號","121.37632","25.09483","6501700","林口區"
"244019","403-UM","2018/09/13 17:09:00","新北市林口區文化一路一段190巷7弄2-2號","121.38004","25.074745","6501700","林口區"
"244013","KEA-2802","2018/09/13 17:09:26","新北市林口區粉寮路二段88巷100-12號","121.409581666667","25.0902283333333","6501700","林口區"
"244017","485-VK","2018/09/13 17:09:20","新北市林口區粉寮路二段88巷100-12號","121.409646666667","25.0902483333333","6501700","林口區"
"244025","837-TS","2018/09/13 17:09:10","新北市林口區中山路6號","121.396731666667","25.0783316666667","6501700","林口區"
"243012","646-TV","2018/09/13 17:09:27","新北市泰山區黎明路25號","121.422043333333","25.0607333333333","6501600","泰山區"
"231046","107-UY","2018/09/13 17:09:15","新北市新店區直潭路99-1號","121.531855","24.93976","6500600","新店區"
"241011","013-R5","2018/09/13 17:09:09","新北市三重區龍門路148號","121.498488333333","25.0730466666667","6500200","三重區"
"241028","022-UY","2018/09/13 17:09:29","新北市三重區重新路三段110號","121.492315","25.0602533333333","6500200","三重區"
"241008","059-VK","2018/09/13 17:09:10","新北市三重區力行路二段136巷2號","121.481888333333","25.075615","6500200","三重區"
"241022","060-VK","2018/09/13 17:09:16","新北市三重區重陽路二段26號","121.486641666667","25.0627583333333","6500200","三重區"
"241015","062-VK","2018/09/13 17:09:28","新北市三重區長生街22號","121.499426666667","25.0663816666667","6500200","三重區"
"241017","063-VK","2018/09/13 17:09:31","新北市三重區中正北路25巷2號","121.493171666667","25.0626383333333","6500200","三重區"
"241024","065-VK","2018/09/13 17:09:23","新北市三重區大勇街82巷26弄15號","121.478953333333","25.0721716666667","6500200","三重區"
"241026","066-VK","2018/09/13 17:09:27","新北市三重區重新路一段102號","121.50104","25.06334","6500200","三重區"
"241002","090-VK","2018/09/13 17:09:21","新北市三重區五華街35巷36號","121.495351666667","25.0813983333333","6500200","三重區"
"241003","091-VK","2018/09/13 17:09:16","新北市三重區富福街108號","121.493413333333","25.0855733333333","6500200","三重區"
"241029","265-UM","2018/09/13 17:09:20","新北市三重區重安街99-2號","121.493653333333","25.0554616666667","6500200","三重區"
"241016","266-UM","2018/09/13 17:09:25","新北市三重區大仁街68號","121.492388333333","25.0651083333333","6500200","三重區"
"241009","267-UM","2018/09/13 17:09:22","新北市三重區三和路四段211-32號","121.482756666667","25.0800383333333","6500200","三重區"
"241018","268-UM","2018/09/13 17:09:10","新北市三重區重陽路四段1號","121.491003333333","25.068725","6500200","三重區"
"241032","269-UM","2018/09/13 17:09:20","新北市三重區重陽路一段111號","121.486753333333","25.0598316666667","6500200","三重區"
"241013","270-UM","2018/09/13 17:09:18","新北市三重區仁昌街40號","121.497156666667","25.0743466666667","6500200","三重區"
"241025","271-UM","2018/09/13 17:09:09","新北市三重區中正北路560巷61號","121.470928333333","25.06969","6500200","三重區"
"241007","398-BY","2018/09/13 17:09:20","新北市三重區三和路四段163巷69號","121.485576666667","25.079275","6500200","三重區"
"241024","KEA-2210","2018/09/13 17:09:21","新北市三重區忠孝路三段84巷5號","121.48015","25.06446","6500200","三重區"
"241004","475-VK","2018/09/13 17:09:20","新北市三重區五華街98巷6號","121.492193333333","25.0820666666667","6500200","三重區"
"241020","478-VK","2018/09/13 17:09:17","新北市三重區自強路三段34巷21號","121.486163333333","25.0723416666667","6500200","三重區"
"241030","480-VK","2018/09/13 17:09:18","新北市三重區集成路36號","121.488881666667","25.0524833333333","6500200","三重區"
"241014","543-UM","2018/09/13 17:09:27","新北市三重區龍濱路197號","121.501845","25.0713816666667","6500200","三重區"
"241023","545-UM","2018/09/13 17:09:21","新北市三重區忠孝路三段99巷4號","121.48003","25.0640866666667","6500200","三重區"
"241001","547-UM","2018/09/13 17:09:23","新北市三重區仁愛街255巷42-1號","121.494095","25.07887","6500200","三重區"
"241019","KEA-2593","2018/09/13 17:09:08","新北市三重區三張街112號","121.487383333333","25.069865","6500200","三重區"
"241006","AAD-863","2018/09/13 17:09:24","新北市三重區三和路四段274巷18號","121.48483","25.0768783333333","6500200","三重區"
"241031","743-BX","2018/09/13 17:08:43","新北市三重區過圳街8號","121.488576666667","25.05851","6500200","三重區"
"241005","887-TS","2018/09/13 17:09:18","新北市三重區碧華街54號","121.483798333333","25.0813833333333","6500200","三重區"
"241012","941-UM","2018/09/13 17:09:14","新北市三重區仁壽街198號","121.50092","25.07476","6500200","三重區"
"241033","AAC-255","2018/09/13 17:09:13","新北市三重區中興北街271號","121.469138333333","25.0605866666667","6500200","三重區"
"247012","KEA-2869","2018/09/13 17:09:24","新北市蘆洲區信義路302巷8號","121.477818333333","25.0878583333333","6501400","蘆洲區"
"247002","893-R6","2018/09/13 17:09:21","新北市蘆洲區永樂街45號","121.457071666667","25.0884933333333","6501400","蘆洲區"
"247016","546-UM","2018/09/13 17:09:18","新北市蘆洲區光華路73巷3號","121.468205","25.0824916666667","6501400","蘆洲區"
"247024","500-BY","2018/09/13 17:09:16","新北市蘆洲區長興路37號","121.463336666667","25.0836533333333","6501400","蘆洲區"
"247006","337-TH","2018/09/13 17:09:07","新北市蘆洲區中華街6巷5號","121.46235","25.08246","6501400","蘆洲區"
"247008","336-TH","2018/09/13 17:09:26","新北市蘆洲區信義路30巷52號","121.474541666667","25.0780966666667","6501400","蘆洲區"
"247020","057-VK","2018/09/13 17:09:19","新北市蘆洲區仁愛街62巷22號","121.472265","25.0943066666667","6501400","蘆洲區"
"247010","056-VK","2018/09/13 17:09:25","新北市蘆洲區民族路16號","121.47593","25.0840966666667","6501400","蘆洲區"
"247014","053-VK","2018/09/13 17:09:21","新北市蘆洲區中央路24號","121.47361","25.0828083333333","6501400","蘆洲區"
"247018","007-UY","2018/09/13 17:09:14","新北市蘆洲區復興路132號","121.476638333333","25.0875516666667","6501400","蘆洲區"
"247004","002-UY","2018/09/13 17:09:30","新北市蘆洲區長安街211號","121.45975","25.0821466666667","6501400","蘆洲區"
"247022","001-UY","2018/09/13 17:09:22","新北市蘆洲區三民路206號","121.469061666667","25.0890116666667","6501400","蘆洲區"
"228003","097-TW","2018/09/13 17:09:28","新北市貢寮區福隆里東興街31-1號","121.95228","25.0206366666667","6502600","貢寮區"
"228001","212-TW","2018/09/13 17:09:09","新北市貢寮區仁理村研海街20號","121.92767","25.0377016666667","6502600","貢寮區"
"228002","663-BX","2018/09/13 17:09:09","新北市貢寮區龍崗里泮宮路51-1號","121.908396666667","25.0165483333333","6502600","貢寮區"
"224006","676-BX","2018/09/13 17:09:22","新北市瑞芳區大寮路69號","121.781251666667","25.0976516666667","6501200","瑞芳區"
"224008","285-BY","2018/09/13 17:09:20","新北市瑞芳區侯硐路121-1號","121.831283333333","25.08994","6501200","瑞芳區"
"224007","275-VK","2018/09/13 17:09:18","新北市瑞芳區粗坑口路41-1號","121.760058333333","25.09928","6501200","瑞芳區"
"224009","273-VK","2018/09/13 17:09:26","新北市瑞芳區輕便路32-1號","121.844105","25.1108416666667","6501200","瑞芳區"
"224005","271-BY","2018/09/13 17:09:13","新北市瑞芳區鼻頭路247號","121.904138333333","25.12229","6501200","瑞芳區"
"227010","642-TC","2018/09/13 17:09:21","新北市雙溪區牡丹里下坑33號","121.850065","25.05725","6502500","雙溪區"
"227004","400-TW","2018/09/13 17:09:24","新北市雙溪區外柑里外柑腳65號","121.807713333333","25.01776","6502500","雙溪區"
"251015","008-UM","2018/09/13 17:09:24","新北市淡水區樹林口42-3號","121.470423333333","25.1687016666667","6501000","淡水區"
"251004","009-UM","2018/09/13 17:09:13","新北市淡水區中正路272號","121.438245","25.1716016666667","6501000","淡水區"
"251005","010-UM","2018/09/13 17:09:18","新北市淡水區水源街一段127號","121.446748333333","25.172035","6501000","淡水區"
"251013","KEA-2871","2018/09/13 17:09:28","新北市淡水區大埤頭3號","121.486588333333","25.19502","6501000","淡水區"
"251016","179-VK","2018/09/13 17:09:20","新北市淡水區社厝坑3-11號","121.475211666667","25.1888633333333","6501000","淡水區"
"251014","180-VK","2018/09/13 17:09:18","新北市淡水區八里堆6-6號","121.45977","25.2252533333333","6501000","淡水區"
"251010","413-VK","2018/09/13 17:09:24","新北市淡水區中正路二段31號","121.41968","25.18148","6501000","淡水區"
"251012","441-VK","2018/09/13 17:09:27","新北市淡水區中山北路一段156號","121.444203333333","25.1779266666667","6501000","淡水區"
"251007","442-VK","2018/09/13 17:09:25","新北市淡水區民權路99-5號","121.459966666667","25.1378533333333","6501000","淡水區"
"251008","443-VK","2018/09/13 17:09:24","新北市淡水區民生路169號","121.469635","25.142065","6501000","淡水區"
"251006","561-UM","2018/09/13 17:09:24","新北市淡水區真理街6號","121.438391666667","25.1745466666667","6501000","淡水區"
"251009","575-R6","2018/09/13 17:09:27","新北市淡水區三民街19號","121.438963333333","25.1718566666667","6501000","淡水區"
"251011","650-BX","2018/09/13 17:09:27","新北市淡水區坪頂路52巷10號","121.457835","25.1624633333333","6501000","淡水區"
"251002","672-BX","2018/09/13 17:09:19","新北市淡水區中正路二段31號","121.419406666667","25.1816966666667","6501000","淡水區"
"252002","178-VK","2018/09/13 17:09:15","新北市三芝區忠孝街1-18號","121.505648333333","25.2537466666667","6502100","三芝區"
"252001","292-VK","2018/09/13 17:09:18","新北市三芝區埔頭里埔頭37號","121.498423333333","25.2602633333333","6502100","三芝區"
"242056","751-BX","2018/09/13 17:09:15","新北市新莊區公園一路67號","121.442375","25.03688","6500500","新莊區"
"242027","615-BX","2018/09/13 17:09:19","新北市新莊區新泰路255巷83號","121.44219","25.03887","6500500","新莊區"
"242044","566-BX","2018/09/13 17:09:16","新北市新莊區三和路12-17號","121.441733333333","25.0375266666667","6500500","新莊區"
"242048","497-BY","2018/09/13 17:09:29","新北市新莊區中正路418號","121.440905","25.0337033333333","6500500","新莊區"
"242053","441-UM","2018/09/13 17:09:16","新北市新莊區瓊林南路2-1號","121.43969","25.019485","6500500","新莊區"
"242039","415-TV","2018/09/13 17:09:29","新北市新莊區中正路481號","121.441271666667","25.0337716666667","6500500","新莊區"
"242046","400-BY","2018/09/13 17:09:10","新北市新莊區新泰路357巷1弄49號","121.44257","25.03982","6500500","新莊區"
"242061","353-BY","2018/09/13 17:09:28","新北市新莊區瓊林南路61-18號","121.439521666667","25.01906","6500500","新莊區"
"242042","133-UY","2018/09/13 17:09:22","新北市新莊區新泰路357巷3弄57號","121.442413333333","25.0397733333333","6500500","新莊區"
"242034","135-UY","2018/09/13 17:09:16","新北市新莊區三和路18-23號","121.441796666667","25.03889","6500500","新莊區"
"242051","172-VK","2018/09/13 17:09:14","新北市新莊區中正路483號","121.441178333333","25.0337266666667","6500500","新莊區"
"242019","175-VK","2018/09/13 17:09:30","新北市新莊區三和路12-21號","121.442041666667","25.038655","6500500","新莊區"
"242007","176-VK","2018/09/13 17:09:14","新北市新莊區新泰路255巷83號","121.442125","25.0388466666667","6500500","新莊區"
"242002","347-TH","2018/09/13 17:09:23","新北市新莊區三和路12-15號","121.44201","25.0373383333333","6500500","新莊區"
"242031","348-TH","2018/09/13 17:09:18","新北市新莊區新泰路357巷3弄57號","121.442068333333","25.0395333333333","6500500","新莊區"
"242021","350-TH","2018/09/13 17:09:15","新北市新莊區三和路12-21號","121.442308333333","25.0384133333333","6500500","新莊區"
"242015","351-TH","2018/09/13 17:09:15","新北市新莊區新泰路357巷3弄57號","121.441808333333","25.0395683333333","6500500","新莊區"
"238019","599-UM","2018/09/13 17:09:17","新北市樹林區八德街828-7號","121.392901666667","24.968555","6500700","樹林區"
"238005","571-TV","2018/09/13 17:09:10","新北市樹林區博愛街215號","121.424036666667","24.9867783333333","6500700","樹林區"
"238022","KEA-2213","2018/09/13 17:09:21","新北市樹林區國凱街128號","121.423088333333","24.9802866666667","6500700","樹林區"
"238021","KEA-2539","2018/09/13 17:09:19","新北市樹林區西圳街一段165巷20弄12號","121.39525","24.9607066666667","6500700","樹林區"
"238025","303-VK","2018/09/13 17:09:14","新北市樹林區中正路22-1號","121.427806666667","24.9993883333333","6500700","樹林區"
"238017","283-BY","2018/09/13 17:09:22","新北市樹林區光武街28號","121.415848333333","25.0054266666667","6500700","樹林區"
"238014","282-BY","2018/09/13 17:09:27","新北市樹林區大慶街99-1號","121.42766","24.9997533333333","6500700","樹林區"
"238020","268-VK","2018/09/13 17:09:12","新北市樹林區大安路493號","121.414316666667","24.9866083333333","6500700","樹林區"
"238026","172-UY","2018/09/13 17:09:13","新北市樹林區育德街121巷5號","121.388858333333","24.9682066666667","6500700","樹林區"
"238016","169-UY","2018/09/13 17:09:22","新北市樹林區八德街1號","121.417563333333","24.9849783333333","6500700","樹林區"
"239007","AAC-297","2018/09/13 17:09:25","新北市鶯歌區建國路106號","121.353476666667","24.9543333333333","6500800","鶯歌區"
"239006","891-R6","2018/09/13 17:09:15","新北市鶯歌區八德路2巷18弄2號","121.336815","24.9470533333333","6500800","鶯歌區"
"239008","527-UM","2018/09/13 17:09:22","新北市鶯歌區尖山路68號","121.349028333333","24.9494533333333","6500800","鶯歌區"
"239001","417-VK","2018/09/13 17:09:17","新北市鶯歌區尖山路140巷6弄1號","121.346503333333","24.94895","6500800","鶯歌區"
"239002","359-BY","2018/09/13 17:09:16","新北市鶯歌區建國路170號","121.350138333333","24.9534516666667","6500800","鶯歌區"
"239004","193-VK","2018/09/13 17:09:28","新北市鶯歌區文化路324巷6號","121.350438333333","24.9451533333333","6500800","鶯歌區"
"242017","280-VK","2018/09/13 17:09:15","新北市新莊區三和路12-18號","121.442113333333","25.0376016666667","6500500","新莊區"
