"lineid","car","time","location","longitude","latitude","cityid","cityname"
"249005","172-UM","2018/09/13 17:19:30","新北市八里區荖阡坑路50號","121.41378","25.122945","6502300","八里區"
"249001","173-UM","2018/09/13 17:19:22","新北市八里區中華路二段165巷3號","121.407678333333","25.1508733333333","6502300","八里區"
"249004","303-UY","2018/09/13 17:19:27","新北市八里區中山路一段39號","121.419686666667","25.1597416666667","6502300","八里區"
"249003","759-BX","2018/09/13 17:19:20","新北市八里區中山路二段453號","121.396461666667","25.1456033333333","6502300","八里區"
"232011","375-UM","2018/09/13 17:19:24","新北市坪林區北宜路八段558號","121.71804","24.9092666666667","6502000","坪林區"
"244023","069-UM","2018/09/13 17:19:15","新北市林口區仁愛路一段647號","121.388396666667","25.0766316666667","6501700","林口區"
"244007","080-UY","2018/09/13 17:19:16","新北市林口區中湖48-25號","121.38066","25.0933883333333","6501700","林口區"
"244019","403-UM","2018/09/13 17:19:20","新北市林口區公園路193號","121.371993333333","25.0723","6501700","林口區"
"244013","KEA-2802","2018/09/13 17:19:26","新北市林口區粉寮路二段88巷100-12號","121.409576666667","25.0902216666667","6501700","林口區"
"244017","485-VK","2018/09/13 17:19:20","新北市林口區粉寮路一段105號","121.39786","25.0803216666667","6501700","林口區"
"244009","656-BX","2018/09/13 17:19:21","新北市林口區文化北路二段550巷3號","121.37864","25.0922733333333","6501700","林口區"
"244011","657-BX","2018/09/13 17:19:29","新北市林口區粉寮路一段77-1號","121.396993333333","25.0790766666667","6501700","林口區"
"244025","837-TS","2018/09/13 17:19:30","新北市林口區文化三路二段6號","121.372996666667","25.0784466666667","6501700","林口區"
"244021","838-TS","2018/09/13 17:19:15","新北市林口區粉寮路二段160巷31號","121.405801666667","25.091225","6501700","林口區"
"243010","KEA-2216","2018/09/13 17:19:16","新北市泰山區黎明路25號","121.421908333333","25.0607116666667","6501600","泰山區"
"243012","646-TV","2018/09/13 17:10:10","新北市泰山區黎明路25號","121.42205","25.0607483333333","6501600","泰山區"
"231046","107-UY","2018/09/13 17:19:15","新北市新店區直潭路92號","121.53093","24.9376016666667","6500600","新店區"
"241011","013-R5","2018/09/13 17:19:29","新北市三重區河邊北街100巷18號","121.50318","25.0702633333333","6500200","三重區"
"241028","022-UY","2018/09/13 17:19:29","新北市三重區仁化街63-2號","121.493868333333","25.0589183333333","6500200","三重區"
"241008","059-VK","2018/09/13 17:19:30","新北市三重區永福街72巷37號","121.480233333333","25.0763516666667","6500200","三重區"
"241022","060-VK","2018/09/13 17:19:16","新北市三重區重陽路二段34巷44號","121.485631666667","25.0638116666667","6500200","三重區"
"241015","062-VK","2018/09/13 17:19:28","新北市三重區長元街82-1號","121.501836666667","25.06631","6500200","三重區"
"241017","063-VK","2018/09/13 17:19:24","新北市三重區大同北路57號","121.495196666667","25.06328","6500200","三重區"
"241024","065-VK","2018/09/13 17:19:23","新北市三重區中正北路193巷11弄12號","121.47724","25.0703116666667","6500200","三重區"
"241026","066-VK","2018/09/13 17:19:27","新北市三重區福裕街39號","121.499008333333","25.0615833333333","6500200","三重區"
"241002","090-VK","2018/09/13 17:19:21","新北市三重區自強路五段8號","121.4922","25.0804066666667","6500200","三重區"
"241003","091-VK","2018/09/13 17:19:16","新北市三重區富福街48號","121.491558333333","25.08427","6500200","三重區"
"241029","265-UM","2018/09/13 17:19:20","新北市三重區重新路四段120號","121.486938333333","25.0567533333333","6500200","三重區"
"241016","266-UM","2018/09/13 17:19:25","新北市三重區大同北路97-3號","121.494435","25.063645","6500200","三重區"
"241009","267-UM","2018/09/13 17:19:22","新北市三重區仁愛街618號","121.483593333333","25.080655","6500200","三重區"
"241018","268-UM","2018/09/13 17:19:30","新北市三重區安慶街122號","121.49494","25.0689433333333","6500200","三重區"
"241032","269-UM","2018/09/13 17:19:20","新北市三重區興華街106號","121.483943333333","25.0597733333333","6500200","三重區"
"241013","270-UM","2018/09/13 17:19:18","新北市三重區仁福街33-2號","121.496611666667","25.0744883333333","6500200","三重區"
"241025","271-UM","2018/09/13 17:18:48","新北市三重區中正北路448號","121.473791666667","25.07146","6500200","三重區"
"241007","398-BY","2018/09/13 17:19:20","新北市三重區慈愛街9-1號","121.485188333333","25.0785916666667","6500200","三重區"
"241024","KEA-2210","2018/09/13 17:19:21","新北市三重區國道路一段58巷15號","121.481441666667","25.07212","6500200","三重區"
"241004","475-VK","2018/09/13 17:19:20","新北市三重區五華街110巷4號","121.491883333333","25.08271","6500200","三重區"
"241020","478-VK","2018/09/13 17:19:16","新北市三重區自強路三段72號","121.486768333333","25.073605","6500200","三重區"
"241030","480-VK","2018/09/13 17:19:18","新北市三重區成功路73巷19號","121.48968","25.0521633333333","6500200","三重區"
"241014","543-UM","2018/09/13 17:19:27","新北市三重區三和路二段83號","121.500108333333","25.068445","6500200","三重區"
"241023","545-UM","2018/09/13 17:19:21","新北市三重區三民街197號","121.482075","25.0657566666667","6500200","三重區"
"241001","547-UM","2018/09/13 17:19:23","新北市三重區仁愛街403號","121.49103","25.0809366666667","6500200","三重區"
"241019","KEA-2593","2018/09/13 17:19:28","新北市三重區自強路二段50巷25號","121.488101666667","25.0694666666667","6500200","三重區"
"241005","887-TS","2018/09/13 17:19:18","新北市三重區永安北路二段23號","121.48237","25.0815316666667","6500200","三重區"
"241012","941-UM","2018/09/13 17:19:14","新北市三重區龍門路274巷49號","121.50104","25.0756816666667","6500200","三重區"
"241033","AAC-255","2018/09/13 17:19:13","新北市三重區中興北街205號","121.46906","25.05768","6500200","三重區"
"247012","KEA-2869","2018/09/13 17:19:24","新北市蘆洲區信義路319巷12號","121.477723333333","25.0862616666667","6501400","蘆洲區"
"247002","893-R6","2018/09/13 17:19:21","新北市蘆洲區永樂街38巷33弄7號","121.45786","25.0894933333333","6501400","蘆洲區"
"247016","546-UM","2018/09/13 17:19:18","新北市蘆洲區正和街98號","121.467721666667","25.0809966666667","6501400","蘆洲區"
"247024","500-BY","2018/09/13 17:19:16","新北市蘆洲區長榮路235號","121.460336666667","25.08575","6501400","蘆洲區"
"247006","337-TH","2018/09/13 17:19:27","新北市蘆洲區長安街49巷13號","121.462846666667","25.07888","6501400","蘆洲區"
"247008","336-TH","2018/09/13 17:19:26","新北市蘆洲區永安北路一段72巷25號","121.47633","25.07696","6501400","蘆洲區"
"247020","057-VK","2018/09/13 17:19:19","新北市蘆洲區民族路446-5號","121.47266","25.0922483333333","6501400","蘆洲區"
"247010","056-VK","2018/09/13 17:19:25","新北市蘆洲區中山一路120巷7弄2號","121.47746","25.0820016666667","6501400","蘆洲區"
"247014","053-VK","2018/09/13 17:19:21","新北市蘆洲區中正路75號","121.470245","25.0831616666667","6501400","蘆洲區"
"247018","007-UY","2018/09/13 17:19:14","新北市蘆洲區民權路96巷1弄1號","121.474336666667","25.0882333333333","6501400","蘆洲區"
"247004","002-UY","2018/09/13 17:19:30","新北市蘆洲區中原路58號","121.458955","25.0822666666667","6501400","蘆洲區"
"247022","001-UY","2018/09/13 17:19:13","新北市蘆洲區三民路128巷66號","121.470256666667","25.0891033333333","6501400","蘆洲區"
"228003","097-TW","2018/09/13 17:19:28","新北市貢寮區福隆里興隆街24-1號","121.94439","25.0166666666667","6502600","貢寮區"
"228001","212-TW","2018/09/13 17:19:29","新北市貢寮區仁理村仁和路80號","121.922856666667","25.0502666666667","6502600","貢寮區"
"228002","663-BX","2018/09/13 17:19:29","新北市貢寮區雙玉里下雙溪街28號","121.924863333333","25.0116533333333","6502600","貢寮區"
"224006","676-BX","2018/09/13 17:19:22","新北市瑞芳區傑魚坑路280號","121.787416666667","25.1064366666667","6501200","瑞芳區"
"224008","285-BY","2018/09/13 17:19:23","新北市瑞芳區侯硐路94號","121.82588","25.083255","6501200","瑞芳區"
"224009","273-VK","2018/09/13 17:19:22","新北市瑞芳區石碑巷101-1號","121.842091666667","25.1083183333333","6501200","瑞芳區"
"224005","271-BY","2018/09/13 17:19:13","新北市瑞芳區鼻頭路171號","121.915843333333","25.122805","6501200","瑞芳區"
"227010","642-TC","2018/09/13 17:19:16","新北市雙溪區牡丹里牡丹92號","121.850725","25.0607783333333","6502500","雙溪區"
"227004","400-TW","2018/09/13 17:19:24","新北市雙溪區上林里內平林90號","121.82756","25.0274766666667","6502500","雙溪區"
"251015","008-UM","2018/09/13 17:19:24","新北市淡水區三空泉17-2號","121.473733333333","25.1655433333333","6501000","淡水區"
"251004","009-UM","2018/09/13 17:19:13","新北市淡水區中正東路二段88巷11號","121.45906","25.151055","6501000","淡水區"
"251005","010-UM","2018/09/13 17:19:18","新北市淡水區鄧公路29巷2號","121.451703333333","25.1699016666667","6501000","淡水區"
"251013","KEA-2871","2018/09/13 17:19:28","新北市淡水區大埤頭9-1號","121.482066666667","25.1943983333333","6501000","淡水區"
"251016","179-VK","2018/09/13 17:19:20","新北市淡水區鄒厝崙14號","121.461641666667","25.1904766666667","6501000","淡水區"
"251014","180-VK","2018/09/13 17:19:18","新北市淡水區番子田132號","121.46476","25.2276666666667","6501000","淡水區"
"251010","413-VK","2018/09/13 17:19:24","新北市淡水區中正路二段215號","121.426228333333","25.1891933333333","6501000","淡水區"
"251012","441-VK","2018/09/13 17:19:27","新北市淡水區中山北路一段156號","121.4442","25.1779383333333","6501000","淡水區"
"251007","442-VK","2018/09/13 17:19:25","新北市淡水區民生路47-4號","121.462083333333","25.1380066666667","6501000","淡水區"
"251008","443-VK","2018/09/13 17:19:25","新北市淡水區大同路233號","121.465605","25.1421366666667","6501000","淡水區"
"251006","561-UM","2018/09/13 17:19:24","新北市淡水區新生街29號","121.439521666667","25.1749583333333","6501000","淡水區"
"251009","575-R6","2018/09/13 17:19:27","新北市淡水區三民街19號","121.438978333333","25.1718283333333","6501000","淡水區"
"251011","650-BX","2018/09/13 17:19:27","新北市淡水區坪頂路128號","121.465081666667","25.1611683333333","6501000","淡水區"
"251002","672-BX","2018/09/13 17:19:19","新北市淡水區中正路二段31號","121.41936","25.1818933333333","6501000","淡水區"
"251003","766-UM","2018/09/13 17:19:09","新北市淡水區中正路二段31號","121.419668333333","25.1814866666667","6501000","淡水區"
"207003","550-UM","2018/09/13 17:19:29","新北市萬里區萬里里獅頭路23號","121.693356666667","25.1782683333333","6502800","萬里區"
"252002","178-VK","2018/09/13 17:19:15","新北市三芝區忠孝街1-15號","121.50564","25.2539733333333","6502100","三芝區"
"252001","292-VK","2018/09/13 17:19:18","新北市三芝區長安街119號","121.498073333333","25.2596883333333","6502100","三芝區"
"237012","275-BY","2018/09/13 17:19:13","新北市三峽區中山路459巷137號","121.350001666667","24.9338883333333","6500900","三峽區"
"242058","986-R7","2018/09/13 17:19:11","新北市新莊區新泰路357巷3弄57號","121.44183","25.0392566666667","6500500","新莊區"
"242056","751-BX","2018/09/13 17:19:15","新北市新莊區新莊路769號","121.442336666667","25.0325333333333","6500500","新莊區"
"242027","615-BX","2018/09/13 17:19:19","新北市新莊區中港路336號","121.45219","25.04573","6500500","新莊區"
"242025","613-BX","2018/09/13 17:19:25","新北市新莊區中平路82巷36-2號","121.446406666667","25.0449566666667","6500500","新莊區"
"242044","566-BX","2018/09/13 17:19:16","新北市新莊區中正路522號","121.4314","25.0317183333333","6500500","新莊區"
"242048","497-BY","2018/09/13 17:19:09","新北市新莊區龍安路249巷1號","121.419116666667","25.0209266666667","6500500","新莊區"
"242053","441-UM","2018/09/13 17:19:16","新北市新莊區環河路636-7號","121.436708333333","25.01086","6500500","新莊區"
"242039","415-TV","2018/09/13 17:19:09","新北市新莊區民安路361號","121.431326666667","25.0229416666667","6500500","新莊區"
"242046","400-BY","2018/09/13 17:19:30","新北市新莊區中環路一段287號","121.442036666667","25.0319383333333","6500500","新莊區"
"242023","362-BY","2018/09/13 17:19:19","新北市新莊區中平路82巷27號","121.446286666667","25.045045","6500500","新莊區"
"242061","353-BY","2018/09/13 17:19:28","新北市新莊區瓊林南路31-2號","121.436331666667","25.0188283333333","6500500","新莊區"
"242042","133-UY","2018/09/13 17:19:22","新北市新莊區新樹路69號","121.438956666667","25.0300866666667","6500500","新莊區"
"242034","135-UY","2018/09/13 17:19:16","新北市新莊區中正路473-1號","121.442003333333","25.033155","6500500","新莊區"
"242051","172-VK","2018/09/13 17:19:14","新北市新莊區新樹路335號","121.433071666667","25.01883","6500500","新莊區"
"242019","175-VK","2018/09/13 17:19:10","新北市新莊區中平路82巷29號","121.445905","25.04493","6500500","新莊區"
"242007","176-VK","2018/09/13 17:19:14","新北市新莊區中平路111號","121.44457","25.04642","6500500","新莊區"
"242002","347-TH","2018/09/13 17:19:23","新北市新莊區瓊林路50-10號","121.445898333333","25.0287733333333","6500500","新莊區"
"242031","348-TH","2018/09/13 17:19:18","新北市新莊區新泰路462號","121.443426666667","25.044915","6500500","新莊區"
"242004","349-TH","2018/09/13 17:19:19","新北市新莊區復興路一段9號","121.445703333333","25.041625","6500500","新莊區"
"242021","350-TH","2018/09/13 17:19:15","新北市新莊區中港路54號","121.455426666667","25.0385333333333","6500500","新莊區"
"242015","351-TH","2018/09/13 17:19:15","新北市新莊區新泰路488號","121.442385","25.0458416666667","6500500","新莊區"
"238019","599-UM","2018/09/13 17:19:17","新北市樹林區太平路273巷23號","121.421133333333","24.976205","6500700","樹林區"
"238018","571-TV","2018/09/13 17:19:10","新北市樹林區鎮前街269巷35號","121.419271666667","24.9849566666667","6500700","樹林區"
"238024","5061-A6","2018/09/13 17:19:24","新北市樹林區保安街一段48巷31號","121.426641666667","24.9954633333333","6500700","樹林區"
"238022","KEA-2213","2018/09/13 17:19:21","新北市樹林區仁愛街77號","121.423758333333","24.9828933333333","6500700","樹林區"
"238021","KEA-2539","2018/09/13 17:19:19","新北市樹林區西圳街一段114號","121.399776666667","24.96411","6500700","樹林區"
"238025","303-VK","2018/09/13 17:19:14","新北市樹林區保安二街55號","121.42466","24.9946616666667","6500700","樹林區"
"238017","283-BY","2018/09/13 17:19:22","新北市樹林區中正路250號","121.417728333333","25.007275","6500700","樹林區"
"238014","282-BY","2018/09/13 17:19:27","新北市樹林區長壽街70巷19-1號","121.421918333333","24.9948016666667","6500700","樹林區"
"238020","268-VK","2018/09/13 17:19:31","新北市樹林區中正路22-1號","121.427906666667","24.9993016666667","6500700","樹林區"
"238026","172-UY","2018/09/13 17:19:13","新北市樹林區東順街86-1號","121.408563333333","24.975735","6500700","樹林區"
"238016","169-UY","2018/09/13 17:19:22","新北市樹林區中山路一段85號","121.423461666667","24.99143","6500700","樹林區"
"239007","AAC-297","2018/09/13 17:19:25","新北市鶯歌區行政路3-1號","121.350911666667","24.955275","6500800","鶯歌區"
"239006","891-R6","2018/09/13 17:19:15","新北市鶯歌區德昌二街99號","121.333251666667","24.95733","6500800","鶯歌區"
"239008","527-UM","2018/09/13 17:19:22","新北市鶯歌區國光街66-2號","121.340806666667","24.9577916666667","6500800","鶯歌區"
"239001","417-VK","2018/09/13 17:19:16","新北市鶯歌區尖山路173巷1-2號","121.345138333333","24.94732","6500800","鶯歌區"
"239003","360-BY","2018/09/13 17:19:17","新北市鶯歌區德昌二街72號","121.332881666667","24.9581133333333","6500800","鶯歌區"
"239002","359-BY","2018/09/13 17:19:16","新北市鶯歌區南昌街1號","121.349726666667","24.953655","6500800","鶯歌區"
"239004","193-VK","2018/09/13 17:19:28","新北市鶯歌區文化路214號","121.352608333333","24.9490016666667","6500800","鶯歌區"
"242009","281-VK","2018/09/13 17:19:17","新北市新莊區中原路656號","121.443873333333","25.054325","6500500","新莊區"
"242017","280-VK","2018/09/13 17:19:15","新北市新莊區幸福路914號","121.442448333333","25.0487633333333","6500500","新莊區"
