"lineid","car","time","location","longitude","latitude","cityid","cityname"
"234026","9371-KE","2018/09/13 17:48:45","新北市永和區中山路一段66號","121.512621666667","25.0106666666667","6500400","永和區"
"249005","172-UM","2018/09/13 17:48:49","新北市八里區荖阡坑路34-2號","121.402536666667","25.1304983333333","6502300","八里區"
"249001","173-UM","2018/09/13 17:48:42","新北市八里區龍米路二段143號","121.444228333333","25.1490066666667","6502300","八里區"
"249004","303-UY","2018/09/13 17:48:54","新北市八里區中華路一段309巷51號","121.417563333333","25.1532283333333","6502300","八里區"
"249002","305-UY","2018/09/13 17:48:47","新北市八里區龍形五街37巷3號","121.44876","25.13244","6502300","八里區"
"249003","759-BX","2018/09/13 17:49:00","新北市八里區中山路二段125號","121.405408333333","25.1518283333333","6502300","八里區"
"248014","025-BX","2018/09/13 17:48:54","新北市五股區中興路二段83巷26-6號","121.459895","25.075255","6501500","五股區"
"248006","077-UY","2018/09/13 17:48:50","新北市五股區中興路二段83巷26-6號","121.459936666667","25.0753516666667","6501500","五股區"
"248008","095-VK","2018/09/13 17:48:47","新北市五股區中興路二段37巷26號","121.460571666667","25.0750783333333","6501500","五股區"
"248020","225-UY","2018/09/13 17:48:53","新北市五股區中興路二段57-6號","121.460371666667","25.075465","6501500","五股區"
"248016","261-SL","2018/09/13 17:48:43","新北市五股區中興路二段83巷26-3號","121.460066666667","25.0753716666667","6501500","五股區"
"248002","678-BX","2018/09/13 17:48:55","新北市五股區中興路二段83巷26-6號","121.45989","25.075115","6501500","五股區"
"232011","375-UM","2018/09/13 17:48:44","新北市坪林區北宜路八段222號","121.708718333333","24.93484","6502000","坪林區"
"244023","069-UM","2018/09/13 17:49:00","新北市林口區東湖路10號","121.38898","25.0741516666667","6501700","林口區"
"244007","080-UY","2018/09/13 17:48:56","新北市林口區佳林路23號","121.386788333333","25.0821416666667","6501700","林口區"
"244019","403-UM","2018/09/13 17:48:39","新北市林口區麗園路96號","121.372001666667","25.068115","6501700","林口區"
"244013","KEA-2802","2018/09/13 17:48:46","新北市林口區中正路525巷7號","121.382938333333","25.0768383333333","6501700","林口區"
"244017","485-VK","2018/09/13 17:49:00","新北市林口區文化二路一段260巷7號","121.372045","25.073525","6501700","林口區"
"244009","656-BX","2018/09/13 17:48:41","新北市林口區竹林路578號","121.386281666667","25.0832266666667","6501700","林口區"
"244011","657-BX","2018/09/13 17:48:49","新北市林口區仁愛路一段669號","121.387671666667","25.07662","6501700","林口區"
"244025","837-TS","2018/09/13 17:48:50","新北市林口區三民路122號","121.360688333333","25.070845","6501700","林口區"
"244021","838-TS","2018/09/13 17:48:55","新北市林口區粉寮路一段3號","121.396486666667","25.0757483333333","6501700","林口區"
"222003","436-BY","2018/09/13 17:48:46","新北市深坑區阿柔洋60-1號","121.608616666667","24.9985166666667","6501800","深坑區"
"222002","659-BX","2018/09/13 17:48:47","新北市深坑區平埔街22巷8號","121.614918333333","25.0009133333333","6501800","深坑區"
"231046","107-UY","2018/09/13 17:48:55","新北市新店區康雅崙路24號","121.535328333333","24.926725","6500600","新店區"
"221015","KEA-2785","2018/09/13 17:48:40","新北市汐止區汐萬路一段244-1號","121.651426666667","25.0732966666667","6501100","汐止區"
"241016","266-UM","2018/09/13 17:48:45","新北市三重區重新路三段45-1號","121.493153333333","25.061335","6500200","三重區"
"241024","KEA-2210","2018/09/13 17:49:01","新北市三重區車路頭街62巷22號","121.483291666667","25.07224","6500200","三重區"
"241005","887-TS","2018/09/13 17:48:58","新北市三重區碧華街322號","121.490061666667","25.083675","6500200","三重區"
"241033","AAC-255","2018/09/13 17:48:52","新北市三重區光復路一段13號","121.47206","25.0472033333333","6500200","三重區"
"235063","006-UY","2018/09/13 17:48:51","新北市中和區員山路36巷16-3號","121.485068333333","24.991325","6500300","中和區"
"235065","098-UM","2018/09/13 17:48:44","新北市中和區連城路469巷79弄8號","121.483641666667","24.9936766666667","6500300","中和區"
"235058","151-BY","2018/09/13 17:48:55","新北市中和區員山路36巷16-2號","121.485188333333","24.9916783333333","6500300","中和區"
"247012","KEA-2869","2018/09/13 17:48:44","新北市蘆洲區復興路75號","121.476223333333","25.0873316666667","6501400","蘆洲區"
"247002","893-R6","2018/09/13 17:48:41","新北市蘆洲區永平街32巷33弄16號","121.458766666667","25.0923633333333","6501400","蘆洲區"
"247016","546-UM","2018/09/13 17:48:58","新北市蘆洲區中正路185巷29號","121.46658","25.0843716666667","6501400","蘆洲區"
"247024","500-BY","2018/09/13 17:48:56","新北市蘆洲區長樂路118號","121.462136666667","25.0897633333333","6501400","蘆洲區"
"247006","337-TH","2018/09/13 17:48:47","新北市蘆洲區長安街22巷43號","121.465205","25.08058","6501400","蘆洲區"
"247008","336-TH","2018/09/13 17:48:46","新北市蘆洲區中山一路234號","121.47274","25.0803233333333","6501400","蘆洲區"
"247020","057-VK","2018/09/13 17:48:58","新北市蘆洲區民義街71巷19號","121.472531666667","25.09063","6501400","蘆洲區"
"247010","056-VK","2018/09/13 17:48:45","新北市蘆洲區民族路31-8號","121.477618333333","25.0851283333333","6501400","蘆洲區"
"247014","053-VK","2018/09/13 17:48:41","新北市蘆洲區保和街69巷18號","121.469695","25.08524","6501400","蘆洲區"
"247018","007-UY","2018/09/13 17:48:54","新北市蘆洲區復興路227巷2弄18號","121.481025","25.0903733333333","6501400","蘆洲區"
"247004","002-UY","2018/09/13 17:48:50","新北市蘆洲區長安街194巷27號","121.459908333333","25.08457","6501400","蘆洲區"
"247022","001-UY","2018/09/13 17:48:53","新北市蘆洲區中正路377號","121.464561666667","25.0907816666667","6501400","蘆洲區"
"228003","097-TW","2018/09/13 17:48:48","新北市貢寮區真理里延平街54-2號","121.924791666667","25.0572216666667","6502600","貢寮區"
"228001","212-TW","2018/09/13 17:48:49","新北市貢寮區仁理村仁愛路95-1號","121.92764","25.0554533333333","6502600","貢寮區"
"228002","663-BX","2018/09/13 17:48:49","新北市貢寮區福隆里龜壽谷街26號","121.953008333333","25.0078133333333","6502600","貢寮區"
"224010","AGQ-8101","2018/09/13 17:48:57","新北市瑞芳區逢甲路84號","121.809635","25.1089716666667","6501200","瑞芳區"
"224006","676-BX","2018/09/13 17:48:41","新北市瑞芳區傑魚坑路183號","121.788445","25.1083116666667","6501200","瑞芳區"
"224008","285-BY","2018/09/13 17:48:40","新北市瑞芳區明燈路一段18巷11號","121.822621666667","25.108745","6501200","瑞芳區"
"224009","273-VK","2018/09/13 17:48:53","新北市瑞芳區山尖路111號","121.853558333333","25.1134133333333","6501200","瑞芳區"
"224005","271-BY","2018/09/13 17:48:53","新北市瑞芳區瑞濱路20-1號","121.82596","25.12128","6501200","瑞芳區"
"227010","642-TC","2018/09/13 17:48:56","新北市雙溪區三貂里定福路1-2號","121.850785","25.063415","6502500","雙溪區"
"253006","032-BX","2018/09/13 17:48:41","新北市石門區中山路64-1號","121.567516666667","25.2904916666667","6502200","石門區"
"222001","KEA-2212","2018/09/13 17:48:58","新北市深坑區北深路三段25巷15-2號","121.608731666667","24.9996033333333","6501800","深坑區"
"208002","KEA-2872","2018/09/13 17:48:49","新北市金山區磺清路135號","121.639435","25.2278","6502700","金山區"
"208001","761-BX","2018/09/13 17:48:49","新北市金山區磺清路135號","121.639411666667","25.2278433333333","6502700","金山區"
"251015","008-UM","2018/09/13 17:48:49","新北市淡水區興福寮25號","121.493366666667","25.164145","6501000","淡水區"
"251004","009-UM","2018/09/13 17:48:46","新北市淡水區民權一街17巷2號","121.458693333333","25.1364966666667","6501000","淡水區"
"251005","010-UM","2018/09/13 17:48:58","新北市淡水區學府路102巷8號","121.450603333333","25.1718416666667","6501000","淡水區"
"251001","011-UM","2018/09/13 17:48:40","新北市淡水區自強路201巷35號","121.462373333333","25.1267116666667","6501000","淡水區"
"251013","KEA-2871","2018/09/13 17:48:48","新北市淡水區社厝坑3-7號","121.475201666667","25.1893983333333","6501000","淡水區"
"251016","179-VK","2018/09/13 17:48:59","新北市淡水區埤島39-15號","121.452768333333","25.1958566666667","6501000","淡水區"
"251014","180-VK","2018/09/13 17:48:37","新北市淡水區公埔子16-6號","121.480973333333","25.22487","6501000","淡水區"
"251010","413-VK","2018/09/13 17:48:44","新北市淡水區淡海路280巷33弄34-2號","121.418765","25.1886383333333","6501000","淡水區"
"251012","441-VK","2018/09/13 17:48:47","新北市淡水區北新路一段129-1號","121.457376666667","25.181975","6501000","淡水區"
"251007","442-VK","2018/09/13 17:48:45","新北市淡水區民生路52巷28-1號","121.462748333333","25.1376833333333","6501000","淡水區"
"251008","443-VK","2018/09/13 17:48:44","新北市淡水區八勢路一段139號","121.4672","25.157825","6501000","淡水區"
"251006","561-UM","2018/09/13 17:48:44","新北市淡水區大信街1號","121.441391666667","25.17634","6501000","淡水區"
"251009","575-R6","2018/09/13 17:48:47","新北市淡水區長興街55號","121.444256666667","25.17182","6501000","淡水區"
"251011","650-BX","2018/09/13 17:46:27","新北市淡水區吳(仔)厝9號","121.47908","25.14704","6501000","淡水區"
"251002","672-BX","2018/09/13 17:48:39","新北市淡水區中山路70-1號","121.443143333333","25.1705433333333","6501000","淡水區"
"251003","766-UM","2018/09/13 17:48:49","新北市淡水區大忠街5巷1號","121.443125","25.1763916666667","6501000","淡水區"
"207003","550-UM","2018/09/13 17:48:49","新北市萬里區野柳里東澳路66號","121.6928","25.2009616666667","6502800","萬里區"
"207004","225-TW","2018/09/13 17:49:01","新北市萬里區萬里里瑪鋉路252號","121.688663333333","25.180475","6502800","萬里區"
"252002","178-VK","2018/09/13 17:48:55","新北市三芝區智成街41號","121.504076666667","25.25638","6502100","三芝區"
"252001","292-VK","2018/09/13 17:48:58","新北市三芝區中興街一段31號","121.497368333333","25.25843","6502100","三芝區"
"237004","KEA-2597","2018/09/13 17:48:50","新北市三峽區仁愛街1號","121.368501666667","24.93424","6500900","三峽區"
"237009","210-TH","2018/09/13 17:48:50","新北市三峽區大勇路15號","121.367261666667","24.9367616666667","6500900","三峽區"
"237013","252-BX","2018/09/13 17:48:44","新北市三峽區愛國路33-9號","121.374613333333","24.93289","6500900","三峽區"
"237012","275-BY","2018/09/13 17:48:53","新北市三峽區文化路61號","121.372088333333","24.936105","6500900","三峽區"
"237008","302-VK","2018/09/13 17:48:54","新北市三峽區正義街2號","121.36981","24.92014","6500900","三峽區"
"237014","433-BY","2018/09/13 17:49:00","新北市三峽區文化路120巷21弄2號","121.37104","24.936835","6500900","三峽區"
"237006","5529-G3","2018/09/13 17:48:59","新北市三峽區介壽路二段42號","121.391341666667","24.93513","6500900","三峽區"
"237011","KEA-2596","2018/09/13 17:48:45","新北市三峽區大同路186號","121.371703333333","24.9271133333333","6500900","三峽區"
"237016","649-BX","2018/09/13 17:48:50","新北市三峽區白雞149-2號","121.40009","24.9054916666667","6500900","三峽區"
"237010","706-TV","2018/09/13 17:48:50","新北市三峽區和平街57號","121.370183333333","24.9363033333333","6500900","三峽區"
"237005","AKY-6261","2018/09/13 17:48:39","新北市三峽區中山路323號","121.360466666667","24.9380983333333","6500900","三峽區"
"236070","105-UM","2018/09/13 17:48:39","新北市土城區青雲路322巷12號","121.4577","24.97693","6501300","土城區"
"236042","107-UM","2018/09/13 17:48:46","新北市土城區城林路6巷80號","121.438575","24.9797533333333","6501300","土城區"
"236078","166-UM","2018/09/13 17:48:59","新北市土城區中央路三段130-1號","121.434725","24.9658833333333","6501300","土城區"
"236030","253-BX","2018/09/13 17:49:02","新北市土城區城林路6巷80號","121.438686666667","24.9796466666667","6501300","土城區"
"236026","269-VK","2018/09/13 17:48:49","新北市土城區城林路6巷80號","121.438476666667","24.9796583333333","6501300","土城區"
"236014","270-VK","2018/09/13 17:48:42","新北市土城區城林路6巷80號","121.438506666667","24.9796416666667","6501300","土城區"
"236038","271-VK","2018/09/13 17:48:57","新北市土城區城林路6巷80號","121.438623333333","24.9797633333333","6501300","土城區"
"236021","401-BY","2018/09/13 17:48:45","新北市土城區中華路二段2號","121.438833333333","24.979685","6501300","土城區"
"236059","912-UM","2018/09/13 17:48:54","新北市土城區中華路二段167號","121.438643333333","24.975435","6501300","土城區"
"236049","913-UM","2018/09/13 17:48:46","新北市土城區城林路6巷80號","121.438675","24.9796816666667","6501300","土城區"
"236063","915-UM","2018/09/13 17:48:46","新北市土城區城林路6巷80號","121.438493333333","24.9796366666667","6501300","土城區"
"236055","AAC-216","2018/09/13 17:48:44","新北市土城區城林路6巷80號","121.438481666667","24.9796333333333","6501300","土城區"
"242036","AAC-296","2018/09/13 17:48:55","新北市新莊區建福路66號","121.426748333333","25.0270166666667","6500500","新莊區"
"242058","986-R7","2018/09/13 17:48:51","新北市新莊區中正路730號","121.414868333333","25.0236083333333","6500500","新莊區"
"242056","751-BX","2018/09/13 17:48:55","新北市新莊區瓊林路38巷39號","121.446513333333","25.03039","6500500","新莊區"
"242027","615-BX","2018/09/13 17:48:39","新北市新莊區福壽街167號","121.458051666667","25.05358","6500500","新莊區"
"242025","613-BX","2018/09/13 17:48:45","新北市三重區新北大道二段89號","121.467725","25.0615366666667","6500500","新莊區"
"242044","566-BX","2018/09/13 17:48:56","新北市新莊區中正路855巷21號","121.420243333333","25.0269933333333","6500500","新莊區"
"242048","497-BY","2018/09/13 17:48:49","新北市新莊區萬安街146巷1號","121.419758333333","25.02126","6500500","新莊區"
"242053","441-UM","2018/09/13 17:48:56","新北市新莊區民安西路470-1號","121.431695","25.00784","6500500","新莊區"
"242039","415-TV","2018/09/13 17:48:49","新北市新莊區富國路204號","121.424796666667","25.0240666666667","6500500","新莊區"
"242046","400-BY","2018/09/13 17:49:00","新北市新莊區建國一路52號","121.434063333333","25.0309416666667","6500500","新莊區"
"242023","362-BY","2018/09/13 17:48:59","新北市新莊區福樂街82號","121.457721666667","25.0468783333333","6500500","新莊區"
"242061","353-BY","2018/09/13 17:48:50","新北市新莊區瓊林南路211號","121.434475","25.0091133333333","6500500","新莊區"
"242011","132-UY","2018/09/13 17:48:55","新北市新莊區中港路666號","121.450783333333","25.0561616666667","6500500","新莊區"
"242042","133-UY","2018/09/13 17:48:42","新北市泰山區新北大道六段458號","121.422871666667","25.0335333333333","6500500","新莊區"
"242034","135-UY","2018/09/13 17:48:58","新北市新莊區新莊路664-2號","121.442156666667","25.0327283333333","6500500","新莊區"
"242051","172-VK","2018/09/13 17:48:54","新北市新莊區西盛街311巷19號","121.428648333333","25.0152816666667","6500500","新莊區"
"242019","175-VK","2018/09/13 17:48:50","新北市新莊區復興路二段147號","121.457768333333","25.0444566666667","6500500","新莊區"
"242007","176-VK","2018/09/13 17:48:54","新北市新莊區福樂街136號","121.45653","25.047925","6500500","新莊區"
"242002","347-TH","2018/09/13 17:48:47","新北市新莊區景德路103號","121.451748333333","25.0346166666667","6500500","新莊區"
"242031","348-TH","2018/09/13 17:48:58","新北市新莊區新泰路357巷3弄1號","121.44256","25.041275","6500500","新莊區"
"242004","349-TH","2018/09/13 17:48:39","新北市新莊區自立街249號","121.458756666667","25.0455616666667","6500500","新莊區"
"242021","350-TH","2018/09/13 17:48:55","新北市新莊區中港路170號","121.455003333333","25.0417366666667","6500500","新莊區"
"242015","351-TH","2018/09/13 17:48:55","新北市新莊區新泰路442號","121.443363333333","25.0447666666667","6500500","新莊區"
"238015","755-BX","2018/09/13 17:48:41","新北市樹林區復興路50號","121.422075","24.9938183333333","6500700","樹林區"
"238019","599-UM","2018/09/13 17:48:57","新北市樹林區太平路127巷6弄7號","121.419858333333","24.9802633333333","6500700","樹林區"
"238018","571-TV","2018/09/13 17:48:58","新北市樹林區樹新路52-9號","121.428856666667","24.9969","6500700","樹林區"
"238022","KEA-2213","2018/09/13 17:48:41","新北市樹林區太順街62巷3弄18號","121.41698","24.97947","6500700","樹林區"
"238021","KEA-2539","2018/09/13 17:48:39","新北市樹林區柑園街一段73號","121.401803333333","24.9602183333333","6500700","樹林區"
"238025","303-VK","2018/09/13 17:48:54","新北市樹林區俊興街226號","121.417781666667","25.0151066666667","6500700","樹林區"
"238017","283-BY","2018/09/13 17:48:42","新北市樹林區三德街58號","121.416186666667","25.0138816666667","6500700","樹林區"
"238014","282-BY","2018/09/13 17:48:46","新北市樹林區保安街一段289巷48號","121.417141666667","24.9964116666667","6500700","樹林區"
"238020","268-VK","2018/09/13 17:48:52","新北市樹林區俊英街184號","121.42613","25.0076883333333","6500700","樹林區"
"238026","172-UY","2018/09/13 17:48:53","新北市樹林區新興街59號","121.399853333333","24.9710883333333","6500700","樹林區"
"238016","169-UY","2018/09/13 17:48:42","新北市樹林區復興路364號","121.415816666667","24.9857766666667","6500700","樹林區"
"239007","AAC-297","2018/09/13 17:48:45","新北市鶯歌區永安街8號","121.337991666667","24.9555383333333","6500800","鶯歌區"
"239006","891-R6","2018/09/13 17:48:55","新北市鶯歌區鳳鳴路103號","121.33433","24.9662366666667","6500800","鶯歌區"
"239008","527-UM","2018/09/13 17:48:42","新北市鶯歌區大湖路700巷22弄12號","121.333963333333","24.9772416666667","6500800","鶯歌區"
"239005","526-UM","2018/09/13 17:48:52","新北市鶯歌區鳳吉四街24號","121.327035","24.972685","6500800","鶯歌區"
"239001","417-VK","2018/09/13 17:48:56","新北市鶯歌區中正三路328號","121.32784","24.93505","6500800","鶯歌區"
"239003","360-BY","2018/09/13 17:48:57","新北市鶯歌區鶯桃路295巷10號","121.334458333333","24.95968","6500800","鶯歌區"
"239002","359-BY","2018/09/13 17:48:57","新北市鶯歌區光明街97號","121.344738333333","24.9557683333333","6500800","鶯歌區"
"239004","193-VK","2018/09/13 17:48:47","新北市鶯歌區文化路513號","121.352856666667","24.9484166666667","6500800","鶯歌區"
"221008","489-VK","2018/09/13 17:48:46","新北市汐止區康寧街901號","121.651368333333","25.0750833333333","6501100","汐止區"
"221036","130-UY","2018/09/13 17:48:39","新北市汐止區汐萬路一段244-1號","121.651498333333","25.0731783333333","6501100","汐止區"
"221010","269-BY","2018/09/13 17:48:56","新北市汐止區汐萬路二段119號","121.648318333333","25.0838733333333","6501100","汐止區"
"221012","278-VK","2018/09/13 17:48:52","新北市汐止區長江街5號","121.654508333333","25.0712133333333","6501100","汐止區"
"221023","279-VK","2018/09/13 17:48:46","新北市汐止區民族一街16號","121.635045","25.071075","6501100","汐止區"
"221032","280-BY","2018/09/13 17:48:39","新北市汐止區大同路一段138號","121.630941666667","25.0550966666667","6501100","汐止區"
"221027","281-BY","2018/09/13 17:48:54","新北市汐止區汐萬路一段312號","121.650576666667","25.0754366666667","6501100","汐止區"
"221029","298-VK","2018/09/13 17:48:45","新北市汐止區汐萬路一段256巷1號","121.651708333333","25.0747983333333","6501100","汐止區"
"221021","299-VK","2018/09/13 17:49:02","新北市汐止區水源路一段18號","121.657151666667","25.0666133333333","6501100","汐止區"
"221031","353-TW","2018/09/13 17:48:53","新北市汐止區中興路39號","121.634571666667","25.0622566666667","6501100","汐止區"
"221035","622-UM","2018/09/13 17:48:54","新北市汐止區汐萬路一段211巷13號","121.651765","25.0719583333333","6501100","汐止區"
"221025","623-UM","2018/09/13 17:48:59","新北市汐止區大同路二段269號","121.65223","25.0669383333333","6501100","汐止區"
"221038","646-BX","2018/09/13 17:49:00","新北市汐止區大同路二段273號","121.652285","25.0672983333333","6501100","汐止區"
"221002","707-TV","2018/09/13 17:48:43","新北市汐止區康寧街901號","121.651515","25.074965","6501100","汐止區"
"221018","753-BX","2018/09/13 17:48:41","新北市汐止區大同路二段553號","121.662498333333","25.069525","6501100","汐止區"
"242009","281-VK","2018/09/13 17:48:57","新北市新莊區昌平街59巷7號","121.45418","25.0530283333333","6500500","新莊區"
"242017","280-VK","2018/09/13 17:48:55","新北市新莊區永安街90號","121.450586666667","25.04462","6500500","新莊區"
