"lineid","car","time","location","longitude","latitude","cityid","cityname"
"234026","9371-KE","2018/09/13 17:58:45","新北市永和區永和路一段45-1號","121.512766666667","25.0062433333333","6500400","永和區"
"249005","172-UM","2018/09/13 17:58:50","新北市八里區荖阡坑路22-1號","121.398896666667","25.1368116666667","6502300","八里區"
"249001","173-UM","2018/09/13 17:58:42","新北市八里區龍米路二段37號","121.448323333333","25.1399916666667","6502300","八里區"
"249004","303-UY","2018/09/13 17:58:57","新北市八里區龍米路三段46號","121.427913333333","25.1591666666667","6502300","八里區"
"249002","305-UY","2018/09/13 17:58:48","新北市八里區龍米路一段259號","121.450656666667","25.1336616666667","6502300","八里區"
"249003","759-BX","2018/09/13 17:59:00","新北市八里區中山路二段306號","121.404705","25.1501783333333","6502300","八里區"
"248014","025-BX","2018/09/13 17:58:54","新北市五股區中興路三段198號","121.441208333333","25.0820933333333","6501500","五股區"
"248006","077-UY","2018/09/13 17:58:50","新北市五股區中興路二段83巷26-3號","121.459975","25.075365","6501500","五股區"
"248008","095-VK","2018/09/13 17:58:47","新北市五股區中興路二段150號","121.458606666667","25.0785633333333","6501500","五股區"
"248020","225-UY","2018/09/13 17:58:53","新北市五股區中興路二段83巷26-3號","121.460158333333","25.0753783333333","6501500","五股區"
"248016","261-SL","2018/09/13 17:58:43","新北市五股區中興路二段83巷26-3號","121.460101666667","25.075385","6501500","五股區"
"248002","678-BX","2018/09/13 17:58:55","新北市五股區中興路二段83巷26-6號","121.46006","25.07499","6501500","五股區"
"232011","375-UM","2018/09/13 17:58:44","新北市坪林區水柳腳132號","121.708843333333","24.9348783333333","6502000","坪林區"
"244023","069-UM","2018/09/13 17:58:41","新北市林口區東湖一街59號","121.386026666667","25.0726816666667","6501700","林口區"
"244007","080-UY","2018/09/13 17:58:56","新北市林口區林口路147號","121.388383333333","25.0815166666667","6501700","林口區"
"244019","403-UM","2018/09/13 17:59:00","新北市林口區文化一路一段126號","121.375545","25.0725083333333","6501700","林口區"
"244013","KEA-2802","2018/09/13 17:58:46","新北市林口區中山路158號","121.390625","25.0788116666667","6501700","林口區"
"244017","485-VK","2018/09/13 17:59:00","新北市林口區文化二路一段232號","121.36954","25.0726866666667","6501700","林口區"
"244009","656-BX","2018/09/13 17:59:01","新北市林口區竹林路606巷32號","121.38526","25.08304","6501700","林口區"
"244011","657-BX","2018/09/13 17:58:49","新北市林口區中正路150號","121.392585","25.0773333333333","6501700","林口區"
"244025","837-TS","2018/09/13 17:58:50","新北市林口區八德路500巷52號","121.356496666667","25.0675133333333","6501700","林口區"
"244021","838-TS","2018/09/13 17:58:55","新北市林口區仁愛路一段83巷38號","121.397843333333","25.0706416666667","6501700","林口區"
"222003","436-BY","2018/09/13 17:58:46","新北市深坑區炮子崙24號","121.605255","24.9877766666667","6501800","深坑區"
"222002","659-BX","2018/09/13 17:58:47","新北市深坑區深坑街31號","121.616061666667","25.0018683333333","6501800","深坑區"
"231046","107-UY","2018/09/13 17:58:55","新北市新店區下石厝路31號","121.533465","24.9320083333333","6500600","新店區"
"221015","KEA-2785","2018/09/13 17:59:00","新北市汐止區長江街255巷6號","121.663645","25.0798","6501100","汐止區"
"231058","3713-VJ","2018/09/13 17:58:47","新北市新店區安華路28-1號","121.519148333333","24.960615","6500600","新店區"
"231055","AKT-0513","2018/09/13 17:58:46","新北市新店區安華路1-1號","121.519676666667","24.96031","6500600","新店區"
"241016","266-UM","2018/09/13 17:58:45","新北市三重區光復路二段206號","121.469448333333","25.0637533333333","6500200","三重區"
"241024","KEA-2210","2018/09/13 17:58:41","新北市三重區國道路一段50號","121.482378333333","25.0728683333333","6500200","三重區"
"241033","AAC-255","2018/09/13 17:58:52","新北市三重區重新路五段559號","121.470448333333","25.0460366666667","6500200","三重區"
"235063","006-UY","2018/09/13 17:58:51","新北市中和區員山路36巷16-3號","121.485123333333","24.99151","6500300","中和區"
"235065","098-UM","2018/09/13 17:58:44","新北市中和區中山路二段478號","121.487876666667","25.0047716666667","6500300","中和區"
"235058","151-BY","2018/09/13 17:58:55","新北市中和區錦和路350-1號","121.490523333333","24.993565","6500300","中和區"
"235038","185-VK","2018/09/13 17:58:54","新北市中和區錦和路350-1號","121.49057","24.9935966666667","6500300","中和區"
"247012","KEA-2869","2018/09/13 17:58:44","新北市蘆洲區信義路302巷21號","121.47813","25.08837","6501400","蘆洲區"
"235052","805-TS","2018/09/13 17:58:55","新北市中和區員山路36巷16號","121.48427","24.9917","6500300","中和區"
"235051","157-BY","2018/09/13 17:58:54","新北市中和區和城路一段271巷1號","121.48547","24.9921616666667","6500300","中和區"
"235037","AAC-213","2018/09/13 17:58:42","新北市中和區中正路637巷60弄61號","121.485471666667","24.9926533333333","6500300","中和區"
"247002","893-R6","2018/09/13 17:58:41","新北市蘆洲區永平街32巷57弄10號","121.459481666667","25.09304","6501400","蘆洲區"
"247016","546-UM","2018/09/13 17:58:38","新北市蘆洲區中正路185巷78弄15號","121.465843333333","25.084615","6501400","蘆洲區"
"247024","500-BY","2018/09/13 17:58:56","新北市蘆洲區光復路41巷19號","121.462666666667","25.0854083333333","6501400","蘆洲區"
"247008","336-TH","2018/09/13 17:58:46","新北市蘆洲區成功路54號","121.472965","25.0798733333333","6501400","蘆洲區"
"247004","002-UY","2018/09/13 17:58:50","新北市五股區中興路三段2巷10號","121.44877","25.0819216666667","6501400","蘆洲區"
"247022","001-UY","2018/09/13 17:55:53","新北市蘆洲區中正路516巷21號","121.462956666667","25.0982483333333","6501400","蘆洲區"
"226004","312-R5","2018/09/13 17:59:01","新北市平溪區石底里公園街18-3號","121.733378333333","25.025805","6502400","平溪區"
"228003","097-TW","2018/09/13 17:58:48","新北市貢寮區真理里美艷山街6-2號","121.92901","25.06109","6502600","貢寮區"
"228001","212-TW","2018/09/13 17:58:49","新北市貢寮區仁理村仁愛路106巷36號","121.929571666667","25.0544683333333","6502600","貢寮區"
"228002","663-BX","2018/09/13 17:58:49","新北市貢寮區福連里香蘭街3-3號","121.971841666667","25.0245933333333","6502600","貢寮區"
"224006","676-BX","2018/09/13 17:58:41","新北市瑞芳區大寮路356-1號","121.78499","25.1031466666667","6501200","瑞芳區"
"224002","639-TC","2018/09/13 17:58:55","新北市瑞芳區三爪子坑路32巷76號","121.810048333333","25.1059783333333","6501200","瑞芳區"
"224008","285-BY","2018/09/13 17:58:40","新北市瑞芳區明燈路一段163號","121.819473333333","25.107425","6501200","瑞芳區"
"224009","273-VK","2018/09/13 17:58:53","新北市瑞芳區金光路211號","121.852458333333","25.1067083333333","6501200","瑞芳區"
"224005","271-BY","2018/09/13 17:58:53","新北市瑞芳區深澳路16-6號","121.819371666667","25.1309083333333","6501200","瑞芳區"
"227010","642-TC","2018/09/13 17:58:56","新北市雙溪區三貂里定福路1-2號","121.850746666667","25.0634033333333","6502500","雙溪區"
"253006","032-BX","2018/09/13 17:59:01","新北市石門區大丘田45-2號","121.54979","25.2748433333333","6502200","石門區"
"253005","295-VK","2018/09/13 17:59:01","新北市石門區中山路62-12號","121.567478333333","25.2897216666667","6502200","石門區"
"222001","KEA-2212","2018/09/13 17:58:58","新北市深坑區北深路三段25巷15號","121.608916666667","25.00042","6501800","深坑區"
"208002","KEA-2872","2018/09/13 17:58:49","新北市金山區三界壇路36號","121.625196666667","25.22854","6502700","金山區"
"208003","665-BX","2018/09/13 17:58:47","新北市金山區磺港里磺港路305號","121.643813333333","25.2270333333333","6502700","金山區"
"208001","761-BX","2018/09/13 17:58:49","新北市金山區磺港里社寮16-1號","121.638225","25.2265933333333","6502700","金山區"
"251015","008-UM","2018/09/13 17:58:44","新北市淡水區興福寮66巷529號","121.484961666667","25.164785","6501000","淡水區"
"251004","009-UM","2018/09/13 17:58:46","新北市淡水區民權路82號","121.459235","25.133625","6501000","淡水區"
"251005","010-UM","2018/09/13 17:58:58","新北市淡水區英專路118號","121.44586","25.1723416666667","6501000","淡水區"
"251001","011-UM","2018/09/13 17:58:40","新北市淡水區民權路94巷1號","121.463026666667","25.1247733333333","6501000","淡水區"
"251013","KEA-2871","2018/09/13 17:58:48","新北市淡水區泉洲厝31號","121.479475","25.1910316666667","6501000","淡水區"
"251016","179-VK","2018/09/13 17:58:59","新北市淡水區埤島30-13號","121.44795","25.1982166666667","6501000","淡水區"
"251014","180-VK","2018/09/13 17:58:58","新北市淡水區南平6-1號","121.481638333333","25.22313","6501000","淡水區"
"251010","413-VK","2018/09/13 17:58:44","新北市淡水區中正路一段87巷13弄1號","121.420888333333","25.178615","6501000","淡水區"
"251012","441-VK","2018/09/13 17:58:56","新北市淡水區北新路二段148號","121.482266666667","25.1852066666667","6501000","淡水區"
"251007","442-VK","2018/09/13 17:58:45","新北市淡水區民生路77號","121.463311666667","25.1382766666667","6501000","淡水區"
"251008","443-VK","2018/09/13 17:59:02","新北市淡水區八勢一街33號","121.461785","25.1564616666667","6501000","淡水區"
"251006","561-UM","2018/09/13 17:58:44","新北市淡水區新生街30巷1號","121.438926666667","25.1732333333333","6501000","淡水區"
"251009","575-R6","2018/09/13 17:58:47","新北市淡水區大智街27號","121.442373333333","25.1746033333333","6501000","淡水區"
"251011","650-BX","2018/09/13 17:58:56","新北市淡水區三空泉6-3號","121.476966666667","25.16241","6501000","淡水區"
"251002","672-BX","2018/09/13 17:58:53","新北市淡水區中正東路6號","121.447065","25.1672","6501000","淡水區"
"251003","766-UM","2018/09/13 17:58:49","新北市淡水區大忠街90號","121.445013333333","25.1765133333333","6501000","淡水區"
"207003","550-UM","2018/09/13 17:58:49","新北市萬里區港東路野柳風景區攤販153號","121.690796666667","25.20546","6502800","萬里區"
"207004","225-TW","2018/09/13 17:58:44","新北市萬里區中幅里中福路48號","121.683308333333","25.1741816666667","6502800","萬里區"
"252002","178-VK","2018/09/13 17:58:55","新北市三芝區中山路二段45號","121.503023333333","25.254815","6502100","三芝區"
"252001","292-VK","2018/09/13 17:58:58","新北市三芝區中興街二段2號","121.498393333333","25.2566383333333","6502100","三芝區"
"237004","KEA-2597","2018/09/13 17:58:50","新北市三峽區中正路二段295號","121.365966666667","24.9109233333333","6500900","三峽區"
"237007","153-BY","2018/09/13 17:58:55","新北市三峽區中園街161號","121.367171666667","24.9220866666667","6500900","三峽區"
"237009","210-TH","2018/09/13 17:58:50","新北市三峽區文化路195號","121.366678333333","24.9356583333333","6500900","三峽區"
"237013","252-BX","2018/09/13 17:58:44","新北市三峽區介壽路一段109號","121.375876666667","24.9321516666667","6500900","三峽區"
"237012","275-BY","2018/09/13 17:58:53","新北市三峽區民生街27巷2號","121.375991666667","24.9361433333333","6500900","三峽區"
"237008","302-VK","2018/09/13 17:58:54","新北市三峽區白雞38-19號","121.373395","24.9120233333333","6500900","三峽區"
"237014","433-BY","2018/09/13 17:58:40","新北市三峽區和平街36巷7弄9號","121.370923333333","24.9377133333333","6500900","三峽區"
"237006","5529-G3","2018/09/13 17:58:47","新北市三峽區介壽路二段138巷1號","121.395903333333","24.93413","6500900","三峽區"
"237011","KEA-2596","2018/09/13 17:58:45","新北市三峽區中正路一段64號","121.374793333333","24.9300533333333","6500900","三峽區"
"237016","649-BX","2018/09/13 17:58:50","新北市三峽區詩朗139號","121.404866666667","24.9107366666667","6500900","三峽區"
"237010","706-TV","2018/09/13 17:58:50","新北市三峽區中山路61號","121.367551666667","24.93472","6500900","三峽區"
"237005","AKY-6261","2018/09/13 17:58:58","新北市三峽區復興路235號","121.368201666667","24.938795","6500900","三峽區"
"236070","105-UM","2018/09/13 17:58:39","新北市土城區青雲路665-1號","121.466031666667","24.9649383333333","6501300","土城區"
"236042","107-UM","2018/09/13 17:58:46","新北市土城區城林路6巷80號","121.438548333333","24.9797633333333","6501300","土城區"
"236078","166-UM","2018/09/13 17:58:39","新北市土城區永寧路32巷10弄23號","121.428845","24.9610516666667","6501300","土城區"
"236030","253-BX","2018/09/13 17:58:42","新北市土城區城林路6巷80號","121.438666666667","24.9796816666667","6501300","土城區"
"236026","269-VK","2018/09/13 17:58:49","新北市土城區承天路1號","121.435778333333","24.966535","6501300","土城區"
"236014","270-VK","2018/09/13 17:58:42","新北市土城區城林路6巷80號","121.438468333333","24.9796216666667","6501300","土城區"
"236038","271-VK","2018/09/13 17:58:57","新北市土城區城林路6巷80號","121.438593333333","24.9797816666667","6501300","土城區"
"236021","401-BY","2018/09/13 17:58:45","新北市土城區城林路6巷80號","121.43881","24.9796866666667","6501300","土城區"
"236059","912-UM","2018/09/13 17:58:54","新北市土城區中央路三段231-9號","121.428445","24.9642816666667","6501300","土城區"
"236049","913-UM","2018/09/13 17:58:46","新北市土城區城林路6巷80號","121.438663333333","24.979675","6501300","土城區"
"236063","915-UM","2018/09/13 17:58:46","新北市土城區城林路6巷80號","121.438455","24.9796133333333","6501300","土城區"
"236055","AAC-216","2018/09/13 17:58:44","新北市土城區城林路6巷80號","121.438496666667","24.9796466666667","6501300","土城區"
"242036","AAC-296","2018/09/13 17:58:53","新北市新莊區中正路695號","121.425918333333","25.02985","6500500","新莊區"
"242058","986-R7","2018/09/13 17:58:51","新北市新莊區新北大道七段239號","121.413013333333","25.0297033333333","6500500","新莊區"
"242056","751-BX","2018/09/13 17:58:55","新北市新莊區豐年街124巷18號","121.44552","25.0299166666667","6500500","新莊區"
"242027","615-BX","2018/09/13 17:59:00","新北市新莊區思源路459號","121.459688333333","25.0536233333333","6500500","新莊區"
"242025","613-BX","2018/09/13 17:58:45","新北市新莊區五工路58號","121.458851666667","25.062845","6500500","新莊區"
"242044","566-BX","2018/09/13 17:58:56","新北市新莊區雙鳳路101號","121.41451","25.0278466666667","6500500","新莊區"
"242048","497-BY","2018/09/13 17:58:49","新北市新莊區萬安街67巷12號","121.421836666667","25.0238366666667","6500500","新莊區"
"242053","441-UM","2018/09/13 17:58:59","新北市新莊區光華街58號","121.42841","25.0119616666667","6500500","新莊區"
"242039","415-TV","2018/09/13 17:58:52","新北市新莊區民安西路24巷1號","121.426508333333","25.02111","6500500","新莊區"
"242046","400-BY","2018/09/13 17:58:54","新北市新莊區福營路165巷21號","121.43254","25.0305983333333","6500500","新莊區"
"242023","362-BY","2018/09/13 17:58:59","新北市新莊區福壽街74號","121.458283333333","25.049345","6500500","新莊區"
"242061","353-BY","2018/09/13 17:59:01","新北市新莊區新樹路545號","121.432888333333","25.0077166666667","6500500","新莊區"
"242011","132-UY","2018/09/13 17:58:55","新北市新莊區中港路646號","121.450861666667","25.055685","6500500","新莊區"
"242042","133-UY","2018/09/13 17:59:02","新北市新莊區丹鳳街40號","121.421626666667","25.0296","6500500","新莊區"
"242034","135-UY","2018/09/13 17:58:56","新北市新莊區中正路421巷19號","121.444711666667","25.0334533333333","6500500","新莊區"
"242051","172-VK","2018/09/13 17:58:54","新北市新莊區龍安路510號","121.426788333333","25.017255","6500500","新莊區"
"242019","175-VK","2018/09/13 17:58:50","新北市新莊區明中街47巷15號","121.457011666667","25.0386866666667","6500500","新莊區"
"242007","176-VK","2018/09/13 17:58:54","新北市新莊區自信街47號","121.454623333333","25.0483033333333","6500500","新莊區"
"242002","347-TH","2018/09/13 17:58:43","新北市新莊區中正路147-15號","121.45734","25.0369866666667","6500500","新莊區"
"242031","348-TH","2018/09/13 17:58:58","新北市新莊區新泰路306號","121.445478333333","25.0410816666667","6500500","新莊區"
"242004","349-TH","2018/09/13 17:58:44","新北市新莊區福樂街71巷25-1號","121.456961666667","25.04707","6500500","新莊區"
"242021","350-TH","2018/09/13 17:58:55","新北市新莊區中華路一段6號","121.451995","25.0365383333333","6500500","新莊區"
"242015","351-TH","2018/09/13 17:58:55","新北市新莊區中平路119巷3號","121.444433333333","25.0466183333333","6500500","新莊區"
"238015","755-BX","2018/09/13 17:58:45","新北市樹林區啟智街80巷19號","121.418625","24.9924916666667","6500700","樹林區"
"238019","599-UM","2018/09/13 17:58:57","新北市樹林區八德街170號","121.421608333333","24.9777583333333","6500700","樹林區"
"238018","571-TV","2018/09/13 17:58:50","新北市樹林區樹新路106巷1號","121.429998333333","24.99779","6500700","樹林區"
"238022","KEA-2213","2018/09/13 17:59:01","新北市樹林區太元街62號","121.41861","24.979285","6500700","樹林區"
"238021","KEA-2539","2018/09/13 17:58:59","新北市樹林區柑園街一段33巷26號","121.405928333333","24.955735","6500700","樹林區"
"238025","303-VK","2018/09/13 17:58:54","新北市樹林區三俊街75號","121.415248333333","25.0155233333333","6500700","樹林區"
"238017","283-BY","2018/09/13 17:58:42","新北市樹林區中正路741號","121.411236666667","25.0145","6500700","樹林區"
"238014","282-BY","2018/09/13 17:58:52","新北市樹林區大安路79號","121.423236666667","24.9986183333333","6500700","樹林區"
"238020","268-VK","2018/09/13 17:58:52","新北市樹林區三俊街219號","121.42133","25.015005","6500700","樹林區"
"238026","172-UY","2018/09/13 17:58:53","新北市樹林區中山路三段125-10號","121.397346666667","24.9734683333333","6500700","樹林區"
"238016","169-UY","2018/09/13 17:58:51","新北市樹林區日新街172巷6號","121.419771666667","24.9882883333333","6500700","樹林區"
"239007","AAC-297","2018/09/13 17:58:45","新北市鶯歌區鶯桃路94巷59弄16號","121.341585","24.9552533333333","6500800","鶯歌區"
"239006","891-R6","2018/09/13 17:58:55","新北市鶯歌區鶯桃路413巷34弄34號","121.330768333333","24.9641166666667","6500800","鶯歌區"
"239008","527-UM","2018/09/13 17:59:02","新北市鶯歌區香賓街9巷18號","121.336071666667","24.9794716666667","6500800","鶯歌區"
"239005","526-UM","2018/09/13 17:58:52","新北市鶯歌區鶯桃路668巷73號","121.329916666667","24.9717933333333","6500800","鶯歌區"
"239001","417-VK","2018/09/13 17:58:56","新北市鶯歌區中正三路252號","121.32972","24.9365183333333","6500800","鶯歌區"
"239003","360-BY","2018/09/13 17:58:57","新北市鶯歌區永吉街15號","121.33606","24.9578283333333","6500800","鶯歌區"
"239002","359-BY","2018/09/13 17:58:57","新北市鶯歌區光明街45號","121.347848333333","24.9552266666667","6500800","鶯歌區"
"221008","489-VK","2018/09/13 17:58:46","新北市汐止區明峰街21號","121.634536666667","25.07137","6501100","汐止區"
"221036","130-UY","2018/09/13 17:58:59","新北市汐止區大同路三段62巷1號","121.667608333333","25.0770233333333","6501100","汐止區"
"221012","278-VK","2018/09/13 17:58:52","新北市汐止區長興街二段36號","121.673406666667","25.081545","6501100","汐止區"
"221023","279-VK","2018/09/13 17:58:26","新北市汐止區明峰街129-4號","121.630125","25.0708283333333","6501100","汐止區"
"221032","280-BY","2018/09/13 17:58:59","新北市汐止區橫科路73巷31號","121.619335","25.0513","6501100","汐止區"
"221027","281-BY","2018/09/13 17:58:54","新北市汐止區大同路二段374號","121.657856666667","25.0672216666667","6501100","汐止區"
"221029","298-VK","2018/09/13 17:58:45","新北市汐止區樟樹二路338號","121.641461666667","25.070495","6501100","汐止區"
"221021","299-VK","2018/09/13 17:58:41","新北市汐止區新興路12號","121.656241666667","25.06473","6501100","汐止區"
"221031","353-TW","2018/09/13 17:58:53","新北市汐止區中興路145號","121.631368333333","25.0657383333333","6501100","汐止區"
"221035","622-UM","2018/09/13 17:58:54","新北市汐止區汐萬路一段115巷44號","121.653295","25.0702583333333","6501100","汐止區"
"221025","623-UM","2018/09/13 17:58:39","新北市汐止區仁愛路17號","121.65918","25.0639533333333","6501100","汐止區"
"221038","646-BX","2018/09/13 17:58:40","新北市汐止區連興街128巷7弄2號","121.65337","25.0616183333333","6501100","汐止區"
"221002","707-TV","2018/09/13 17:58:43","新北市汐止區中興路29號","121.634843333333","25.061715","6501100","汐止區"
"221018","753-BX","2018/09/13 17:58:41","新北市汐止區招商街4巷1號","121.666421666667","25.0688483333333","6501100","汐止區"
"242009","281-VK","2018/09/13 17:58:57","新北市新莊區中華路二段210巷22號","121.45361","25.0524616666667","6500500","新莊區"
"242017","280-VK","2018/09/13 17:58:55","新北市新莊區永樂街112號","121.449948333333","25.0449833333333","6500500","新莊區"
"235061","KEA-2875","2018/09/13 17:58:39","新北市中和區和城路一段271巷1號","121.485336666667","24.9919366666667","6500300","中和區"
