"lineid","car","time","location","longitude","latitude","cityid","cityname"
"234046","148-BY","2018/09/13 18:59:56","新北市永和區秀朗路二段126巷30號","121.524571666667","25.0007733333333","6500400","永和區"
"234007","207-UY","2018/09/13 18:59:59","新北市永和區中山路一段62號","121.512831666667","25.0106433333333","6500400","永和區"
"234081","298-R6","2018/09/13 18:59:47","新北市永和區國中路150號","121.522651666667","25.0068916666667","6500400","永和區"
"234038","336-UY","2018/09/13 18:59:54","新北市永和區成功路二段203號","121.526613333333","24.9960183333333","6500400","永和區"
"234064","337-UY","2018/09/13 18:59:52","新北市永和區秀朗路一段170號","121.518581666667","25.0033633333333","6500400","永和區"
"234086","338-UY","2018/09/13 18:59:52","新北市永和區永利路16號","121.517838333333","25.0058733333333","6500400","永和區"
"234070","552-UM","2018/09/13 18:59:48","新北市永和區竹林路124巷30號","121.518275","25.0114816666667","6500400","永和區"
"234017","745-BX","2018/09/13 18:59:57","新北市永和區忠孝街2號","121.51574","25.0158283333333","6500400","永和區"
"234030","746-BX","2018/09/13 19:00:00","新北市永和區四維街67號","121.52577","24.9979383333333","6500400","永和區"
"234054","KEA-2590","2018/09/13 18:59:45","新北市永和區竹林路64號","121.518273333333","25.0135216666667","6500400","永和區"
"234013","KEA-2591","2018/09/13 18:59:50","新北市永和區信義路17巷19號","121.513501666667","25.0112316666667","6500400","永和區"
"234061","AAD-866","2018/09/13 18:59:56","新北市永和區中正路507-1號","121.516546666667","25.0069433333333","6500400","永和區"
"234042","862-TW","2018/09/13 18:59:57","新北市永和區永貞路267號","121.511863333333","25.00479","6500400","永和區"
"234050","863-TW","2018/09/13 18:59:52","新北市永和區文化路194號","121.510718333333","25.0162516666667","6500400","永和區"
"234026","9371-KE","2018/09/13 18:59:45","新北市永和區安樂路304巷2號","121.514415","25.0049583333333","6500400","永和區"
"234011","9373-KE","2018/09/13 18:59:38","新北市永和區文化路146號","121.512516666667","25.0153133333333","6500400","永和區"
"249005","172-UM","2018/09/13 18:59:49","新北市八里區長道坑11號","121.396026666667","25.1230916666667","6502300","八里區"
"249001","173-UM","2018/09/13 19:00:02","新北市八里區龍米路二段228-1號","121.432751666667","25.1584983333333","6502300","八里區"
"248006","077-UY","2018/09/13 18:59:48","新北市五股區中興路一段40號","121.46833","25.0724816666667","6501500","五股區"
"248008","095-VK","2018/09/13 18:59:47","新北市五股區中興路一段116號","121.465931666667","25.0736666666667","6501500","五股區"
"248020","225-UY","2018/09/13 18:58:09","新北市五股區凌雲路三段57號","121.425328333333","25.125025","6501500","五股區"
"248012","247-BX","2018/09/13 18:59:45","新北市五股區工商路18巷23弄8號","121.440276666667","25.084245","6501500","五股區"
"248016","261-SL","2018/09/13 18:59:43","新北市五股區成泰路三段543巷16號","121.450966666667","25.1022633333333","6501500","五股區"
"248010","272-BY","2018/09/13 18:59:47","新北市五股區自強路90巷72號","121.43067","25.0712583333333","6501500","五股區"
"248004","677-BX","2018/09/13 18:59:46","新北市五股區民義路一段226號","121.428713333333","25.09061","6501500","五股區"
"248002","678-BX","2018/09/13 18:59:55","新北市五股區成泰路三段527號","121.451471666667","25.1009033333333","6501500","五股區"
"234023","9380-KE","2018/09/13 18:59:57","新北市永和區竹林路91巷55弄1號","121.521918333333","25.01375","6500400","永和區"
"234077","969-R7","2018/09/13 18:59:55","新北市永和區智光街22號","121.518075","24.9992433333333","6500400","永和區"
"234074","AAC-211","2018/09/13 18:59:57","新北市永和區環河東路二段90號","121.524398333333","25.010675","6500400","永和區"
"234067","AAC-212","2018/09/13 18:59:43","新北市永和區自由街58號","121.513835","25.00597","6500400","永和區"
"234003","AAC-295","2018/09/13 18:59:49","新北市永和區和平街44號","121.512861666667","25.0099016666667","6500400","永和區"
"232011","375-UM","2018/09/13 18:59:44","新北市坪林區北宜路八段438號","121.707661666667","24.9244683333333","6502000","坪林區"
"244023","069-UM","2018/09/13 18:59:55","新北市林口區仁愛路二段636號","121.370941666667","25.0798116666667","6501700","林口區"
"244019","403-UM","2018/09/13 18:59:39","新北市林口區麗園二街1巷8-3號","121.378698333333","25.0701466666667","6501700","林口區"
"244013","KEA-2802","2018/09/13 18:59:46","新北市林口區麗園一街11巷7號","121.378031666667","25.0704633333333","6501700","林口區"
"244017","485-VK","2018/09/13 19:00:00","新北市林口區文化二路一段120巷3號","121.367988333333","25.0700983333333","6501700","林口區"
"244011","657-BX","2018/09/13 18:59:49","新北市林口區仁愛路一段285巷116號","121.395075","25.0757683333333","6501700","林口區"
"244025","837-TS","2018/09/13 18:59:50","新北市林口區文化北路一段370號","121.361995","25.0749066666667","6501700","林口區"
"243013","AAD-798","2018/09/13 18:59:45","新北市泰山區明志路三段206巷15號","121.42298","25.03773","6501600","泰山區"
"243009","297-R6","2018/09/13 18:59:53","新北市泰山區泰林路二段319號","121.429641666667","25.0633066666667","6501600","泰山區"
"243016","KEA-2801","2018/09/13 18:59:55","新北市泰山區明志路二段152-1號","121.427446666667","25.050735","6501600","泰山區"
"243015","421-VK","2018/09/13 18:59:47","新北市泰山區泰林路二段318號","121.43038","25.06293","6501600","泰山區"
"243011","KEA-2215","2018/09/13 19:00:01","新北市泰山區明志路二段300號","121.4265","25.046605","6501600","泰山區"
"243010","KEA-2216","2018/09/13 18:59:54","新北市泰山區辭修路26巷8號","121.429181666667","25.058455","6501600","泰山區"
"243012","646-TV","2018/09/13 18:59:50","新北市泰山區福興三街162號","121.432808333333","25.057225","6501600","泰山區"
"243014","680-BX","2018/09/13 18:59:50","新北市泰山區泰林路二段574號","121.422558333333","25.0636633333333","6501600","泰山區"
"222003","436-BY","2018/09/13 18:59:46","新北市深坑區深南路51-1號","121.621406666667","25.0101833333333","6501800","深坑區"
"222002","659-BX","2018/09/13 18:59:47","新北市深坑區文山路一段33號","121.629475","25.0038983333333","6501800","深坑區"
"231041","002-UM","2018/09/13 18:59:57","新北市新店區環河路78號","121.537078333333","24.963285","6500600","新店區"
"231059","046-UY","2018/09/13 19:00:01","新北市新店區安華路28-1號","121.519615","24.9608783333333","6500600","新店區"
"231040","047-UY","2018/09/13 18:59:44","新北市新店區中央路9號","121.533411666667","24.9785216666667","6500600","新店區"
"231046","107-UY","2018/09/13 18:59:55","新北市新店區直潭五街28號","121.534206666667","24.9414016666667","6500600","新店區"
"231052","108-UY","2018/09/13 18:59:44","新北市新店區新烏路二段50巷18弄2號","121.547321666667","24.9272333333333","6500600","新店區"
"231047","187-VK","2018/09/13 18:59:45","新北市新店區德正街23巷12號","121.544545","24.9721583333333","6500600","新店區"
"231054","KEA-2219","2018/09/13 18:59:59","新北市新店區新店路13號","121.540315","24.9529283333333","6500600","新店區"
"221015","KEA-2785","2018/09/13 19:00:00","新北市汐止區鄉長路一段55巷22號","121.664801666667","25.07634","6501100","汐止區"
"231042","268-BY","2018/09/13 18:59:54","新北市新店區中正路8號","121.545638333333","24.969455","6500600","新店區"
"231051","278-BY","2018/09/13 18:59:54","新北市新店區三民路187號","121.53508","24.975485","6500600","新店區"
"231050","AAD-862","2018/09/13 18:59:48","新北市新店區北宜路二段30巷5弄7號","121.5485","24.9508","6500600","新店區"
"231044","355-BY","2018/09/13 18:59:52","新北市新店區寶中路99號","121.548898333333","24.98024","6500600","新店區"
"231058","3713-VJ","2018/09/13 18:59:47","新北市新店區檳榔路29巷10號","121.542183333333","24.9637883333333","6500600","新店區"
"231066","4716-K9","2018/09/13 19:00:01","新北市新店區安豐路22巷4號","121.501386666667","24.9561316666667","6500600","新店區"
"231056","4715-K9","2018/09/13 18:59:57","新北市新店區二十張路46巷37弄21-5號","121.53541","24.9813416666667","6500600","新店區"
"231067","4772-VM","2018/09/13 18:59:54","新北市新店區安康路一段76巷4號","121.528421666667","24.9621766666667","6500600","新店區"
"231065","512-UM","2018/09/13 18:59:48","新北市新店區安康路二段458號","121.494223333333","24.9540066666667","6500600","新店區"
"231049","513-UM","2018/09/13 18:59:46","新北市新店區中正路454-5號","121.534536666667","24.9790916666667","6500600","新店區"
"231045","617-UM","2018/09/13 18:59:57","新北市新店區北新路一段75號","121.538431666667","24.960425","6500600","新店區"
"231061","619-UM","2018/09/13 18:59:46","新北市新店區安華路16號","121.517245","24.9581","6500600","新店區"
"231063","641-BX","2018/09/13 18:59:46","新北市新店區安忠路102-1號","121.510201666667","24.9555933333333","6500600","新店區"
"231064","719-UM","2018/09/13 18:59:59","新北市新店區安一路一段1-1號","121.519451666667","24.9610916666667","6500600","新店區"
"231062","720-UM","2018/09/13 18:59:54","新北市新店區安豐路60-2號","121.497936666667","24.9537916666667","6500600","新店區"
"231060","897-TW","2018/09/13 18:59:52","新北市新店區安忠路102-1號","121.510308333333","24.95562","6500600","新店區"
"231043","899-TW","2018/09/13 18:59:41","新北市新店區北新路二段2號","121.542598333333","24.970615","6500600","新店區"
"231055","AKT-0513","2018/09/13 18:59:46","新北市新店區力行路12號","121.539401666667","24.9647166666667","6500600","新店區"
"241026","066-VK","2018/09/13 18:59:47","新北市三重區泉州街106號","121.494961666667","25.053715","6500200","三重區"
"241029","265-UM","2018/09/13 19:00:00","新北市三重區重安街14號","121.490278333333","25.058285","6500200","三重區"
"241035","462-BY","2018/09/13 18:59:43","新北市三重區重新路四段121號","121.484651666667","25.052075","6500200","三重區"
"235066","003-UY","2018/09/13 18:59:49","新北市中和區中山路二段131巷5弄5號","121.502875","25.0029716666667","6500300","中和區"
"235064","005-UY","2018/09/13 18:59:45","新北市中和區景平路634-3號","121.499421666667","24.99906","6500300","中和區"
"235063","006-UY","2018/09/13 18:59:51","新北市中和區錦和路196巷6號","121.489721666667","24.9950033333333","6500300","中和區"
"235056","096-UM","2018/09/13 18:59:48","新北市中和區新民街94巷18號","121.481385","25.0092083333333","6500300","中和區"
"235039","097-UM","2018/09/13 18:59:51","新北市永和區中正路127號","121.515886666667","24.9978","6500300","中和區"
"235065","098-UM","2018/09/13 18:59:44","新北市中和區福祥路131號","121.498511666667","25.0071966666667","6500300","中和區"
"235040","150-BY","2018/09/13 18:59:50","新北市中和區安樂路83號","121.512698333333","24.99443","6500300","中和區"
"235058","151-BY","2018/09/13 18:59:55","新北市中和區連城路569巷9弄9號","121.479621666667","24.9942616666667","6500300","中和區"
"235055","183-VK","2018/09/13 18:59:59","新北市中和區民德路1號","121.468826666667","25.0033566666667","6500300","中和區"
"235038","185-VK","2018/09/13 18:59:54","新北市中和區立人街24-5號","121.518845","24.994195","6500300","中和區"
"235049","186-VK","2018/09/13 19:00:01","新北市中和區景安路177巷35號","121.506945","24.9946383333333","6500300","中和區"
"235067","255-BX","2018/09/13 18:59:50","新北市中和區民樂路77號","121.484361666667","25.0013266666667","6500300","中和區"
"235044","293-VK","2018/09/13 18:59:47","新北市中和區中興街161巷8弄2號","121.500985","24.9908566666667","6500300","中和區"
"235072","301-VK","2018/09/13 19:00:01","新北市中和區中山路二段259號","121.497133333333","25.0022666666667","6500300","中和區"
"235043","352-BY","2018/09/13 18:59:52","新北市中和區秀朗路三段72號","121.526276666667","24.9944066666667","6500300","中和區"
"235042","KEA-2878","2018/09/13 18:59:54","新北市中和區秀朗路三段82號","121.525858333333","24.993995","6500300","中和區"
"235050","4979-A6","2018/09/13 18:59:53","新北市中和區忠孝街58巷16弄2號","121.51213","24.9832583333333","6500300","中和區"
"235069","4980-A6","2018/09/13 18:59:56","新北市中和區景平路471號","121.500468333333","24.996955","6500300","中和區"
"235070","558-UM","2018/09/13 18:59:56","新北市中和區安和路216-1號","121.50596","24.9991716666667","6500300","中和區"
"235045","565-BX","2018/09/13 18:59:57","新北市中和區景新街467巷20弄166號","121.514461666667","24.987675","6500300","中和區"
"235054","640-BX","2018/09/13 18:59:54","新北市中和區民享街37號","121.47405","25.0037966666667","6500300","中和區"
"235047","732-UM","2018/09/13 18:59:49","新北市中和區興南路二段54巷2-8號","121.506015","24.9855716666667","6500300","中和區"
"235010","733-UM","2018/09/13 18:59:43","新北市中和區興南路二段3巷7號","121.508201666667","24.9863483333333","6500300","中和區"
"235062","800-TS","2018/09/13 18:59:58","新北市中和區中山路二段332巷1號","121.49444","25.0022633333333","6500300","中和區"
"235057","801-TS","2018/09/13 18:59:45","新北市中和區民利街40巷3弄11號","121.47888","24.9991933333333","6500300","中和區"
"235041","802-TS","2018/09/13 18:59:46","新北市中和區宜安路123號","121.509985","24.9980433333333","6500300","中和區"
"235052","805-TS","2018/09/13 18:59:55","新北市中和區興南路二段138號","121.504155","24.9832233333333","6500300","中和區"
"235048","896-TW","2018/09/13 18:59:51","新北市中和區華新街109巷16號","121.50875","24.9811083333333","6500300","中和區"
"235053","900-TW","2018/09/13 18:59:44","新北市中和區民德路360號","121.466086666667","24.9939766666667","6500300","中和區"
"235060","911-UM","2018/09/13 18:59:51","新北市中和區民治街24號","121.4751","25.0040833333333","6500300","中和區"
"235051","157-BY","2018/09/13 18:59:54","新北市中和區忠孝街11巷3號","121.509836666667","24.9831733333333","6500300","中和區"
"235037","AAC-213","2018/09/13 19:00:02","新北市中和區秀朗路三段10巷37弄1號","121.524256666667","24.9961366666667","6500300","中和區"
"235059","AAC-215","2018/09/13 18:59:47","新北市中和區圓通路367巷20弄23號","121.491475","24.9883316666667","6500300","中和區"
"220065","072-UY","2018/09/13 18:59:46","新北市板橋區漢生東路340巷10號","121.471431666667","25.0073716666667","6500100","板橋區"
"220086","073-UY","2018/09/13 18:59:47","新北市板橋區中正路250巷13號","121.456173333333","25.0194733333333","6500100","板橋區"
"220106","075-UY","2018/09/13 18:59:43","新北市板橋區文化路二段124巷28-2號","121.471218333333","25.0256883333333","6500100","板橋區"
"220069","AAD-861","2018/09/13 18:59:58","新北市板橋區東興街8號","121.45854","25.005405","6500100","板橋區"
"220090","120-SR","2018/09/13 18:59:57","新北市板橋區四維路177巷1弄2號","121.464083333333","25.0261983333333","6500100","板橋區"
"226004","312-R5","2018/09/13 19:00:01","新北市平溪區靜安路二段362號","121.737826666667","25.0245066666667","6502400","平溪區"
"228003","097-TW","2018/09/13 18:59:48","新北市貢寮區和美里龍洞街56-2號","121.912175","25.1139633333333","6502600","貢寮區"
"228001","212-TW","2018/09/13 18:59:49","新北市貢寮區仁理村研海街12-1號","121.923755","25.05168","6502600","貢寮區"
"228002","663-BX","2018/09/13 18:59:49","新北市貢寮區福隆里東興街106巷21弄2號","121.946083333333","25.0179766666667","6502600","貢寮區"
"224010","AGQ-8101","2018/09/13 18:55:19","新北市瑞芳區汽車路9-7號","121.84508","25.10994","6501200","瑞芳區"
"224006","676-BX","2018/09/13 18:59:42","新北市瑞芳區中正路2號","121.808915","25.1070866666667","6501200","瑞芳區"
"224002","639-TC","2018/09/13 18:59:55","新北市瑞芳區靜安路四段6號","121.795745","25.0831633333333","6501200","瑞芳區"
"224008","285-BY","2018/09/13 19:00:00","新北市瑞芳區逢甲路271-1號","121.801785","25.112155","6501200","瑞芳區"
"224007","275-VK","2018/09/13 18:59:57","新北市瑞芳區中央路48巷122號","121.75858","25.10388","6501200","瑞芳區"
"224009","273-VK","2018/09/13 18:59:53","新北市瑞芳區洞頂路176號","121.860873333333","25.11948","6501200","瑞芳區"
"224005","271-BY","2018/09/13 18:59:53","新北市瑞芳區瑞芳街32-10號","121.822241666667","25.12102","6501200","瑞芳區"
"227010","642-TC","2018/09/13 18:59:56","新北市雙溪區牡丹里中正路58巷23號","121.866491666667","25.0416133333333","6502500","雙溪區"
"227004","400-TW","2018/09/13 18:59:44","新北市雙溪區平林里康福家園10號","121.85881","25.0373766666667","6502500","雙溪區"
"253006","032-BX","2018/09/13 18:59:41","新北市石門區八甲5號","121.521465","25.2822683333333","6502200","石門區"
"253005","295-VK","2018/09/13 19:00:01","新北市石門區中山路63-1號","121.567516666667","25.29177","6502200","石門區"
"222001","KEA-2212","2018/09/13 18:59:58","新北市深坑區北深路一段266號","121.629285","25.0087116666667","6501800","深坑區"
"208002","KEA-2872","2018/09/13 18:59:49","新北市金山區仁愛路37-14號","121.635686666667","25.2203933333333","6502700","金山區"
"208003","665-BX","2018/09/13 18:59:47","新北市金山區中正路20號","121.63595","25.22226","6502700","金山區"
"208001","761-BX","2018/09/13 18:59:49","新北市金山區中山路102號","121.640026666667","25.2190616666667","6502700","金山區"
"251015","008-UM","2018/09/13 18:59:44","新北市淡水區糞箕湖57號","121.485213333333","25.1720133333333","6501000","淡水區"
"251001","011-UM","2018/09/13 18:59:59","新北市淡水區自強路60號","121.463138333333","25.1276433333333","6501000","淡水區"
"251013","KEA-2871","2018/09/13 18:59:58","新北市淡水區安子內12-1號","121.481775","25.2190983333333","6501000","淡水區"
"251016","179-VK","2018/09/13 18:59:59","新北市淡水區淡金路三段337號","121.448701666667","25.2064283333333","6501000","淡水區"
"251014","180-VK","2018/09/13 18:59:58","新北市淡水區小中寮30號","121.489675","25.2282933333333","6501000","淡水區"
"251010","413-VK","2018/09/13 18:59:43","新北市淡水區淡海路69巷8弄3號","121.42249","25.1814516666667","6501000","淡水區"
"251012","441-VK","2018/09/13 18:59:47","新北市淡水區新興街116號","121.439316666667","25.180945","6501000","淡水區"
"251007","442-VK","2018/09/13 18:59:45","新北市淡水區民生路113巷1弄52號","121.462561666667","25.1386366666667","6501000","淡水區"
"251009","575-R6","2018/09/13 19:00:03","新北市淡水區重建街58號","121.439948333333","25.171715","6501000","淡水區"
"251002","672-BX","2018/09/13 18:59:59","新北市淡水區中正東路43號","121.446465","25.1680066666667","6501000","淡水區"
"251003","766-UM","2018/09/13 18:59:49","新北市淡水區中山北路一段149巷28號","121.443058333333","25.178025","6501000","淡水區"
"207003","550-UM","2018/09/13 18:59:49","新北市萬里區大鵬里頂社24-2號","121.657498333333","25.21036","6502800","萬里區"
"207004","225-TW","2018/09/13 18:59:44","新北市萬里區萬里里獅頭路23號","121.693235","25.1783166666667","6502800","萬里區"
"252002","178-VK","2018/09/13 18:59:55","新北市三芝區中正路一段54號","121.503545","25.2580666666667","6502100","三芝區"
"252003","249-BX","2018/09/13 19:00:00","新北市三芝區後厝里北勢子42-3號","121.472215","25.2526033333333","6502100","三芝區"
"252001","292-VK","2018/09/13 18:59:58","新北市三芝區中興街二段260號","121.501718333333","25.2530383333333","6502100","三芝區"
"237004","KEA-2597","2018/09/13 18:59:50","新北市三峽區有木194-1號","121.44742","24.8453283333333","6500900","三峽區"
"237007","153-BY","2018/09/13 18:59:55","新北市三峽區中正路二段269號","121.36601","24.9115466666667","6500900","三峽區"
"237013","252-BX","2018/09/13 18:59:44","新北市三峽區光明路69巷25號","121.376581666667","24.9291366666667","6500900","三峽區"
"237012","275-BY","2018/09/13 18:59:53","新北市三峽區三樹路222巷178弄2號","121.387543333333","24.94278","6500900","三峽區"
"237008","302-VK","2018/09/13 18:59:53","新北市三峽區中正路一段288號","121.371611666667","24.9260766666667","6500900","三峽區"
"237014","433-BY","2018/09/13 18:59:39","新北市三峽區隆恩街170號","121.363225","24.9429516666667","6500900","三峽區"
"237006","5529-G3","2018/09/13 18:59:47","新北市三峽區溪東路233巷47弄2號","121.41115","24.93497","6500900","三峽區"
"237011","KEA-2596","2018/09/13 18:59:44","新北市三峽區介壽路三段231-9號","121.406143333333","24.9472116666667","6500900","三峽區"
"237016","649-BX","2018/09/13 18:59:50","新北市三峽區建安80-3號","121.451826666667","24.9229083333333","6500900","三峽區"
"237010","706-TV","2018/09/13 18:59:49","新北市三峽區復興路176-8號","121.370416666667","24.93848","6500900","三峽區"
"237005","AKY-6261","2018/09/13 18:59:59","新北市三峽區中山路459巷163-3號","121.348718333333","24.93297","6500900","三峽區"
"236070","105-UM","2018/09/13 18:59:59","新北市土城區明德路一段385-1號","121.45277","24.9803716666667","6501300","土城區"
"236042","107-UM","2018/09/13 18:59:46","新北市土城區裕民路214巷18弄10號","121.452386666667","24.9842266666667","6501300","土城區"
"236078","166-UM","2018/09/13 18:59:59","新北市土城區中央路四段208號","121.41583","24.9574","6501300","土城區"
"236030","253-BX","2018/09/13 18:59:42","新北市土城區興城路75號","121.440065","24.97081","6501300","土城區"
"236026","269-VK","2018/09/13 18:59:53","新北市土城區慶安街9號","121.442003333333","24.9733283333333","6501300","土城區"
"236014","270-VK","2018/09/13 18:59:42","新北市土城區永豐路31巷2號","121.462916666667","24.988115","6501300","土城區"
"236038","271-VK","2018/09/13 18:59:57","新北市土城區仁愛路20-1號","121.460988333333","24.9801716666667","6501300","土城區"
"236021","401-BY","2018/09/13 18:59:54","新北市土城區德峰街12號","121.468193333333","24.9858216666667","6501300","土城區"
"236059","912-UM","2018/09/13 18:59:54","新北市土城區金城路二段188號","121.454108333333","24.9813333333333","6501300","土城區"
"236049","913-UM","2018/09/13 18:59:46","新北市土城區明德路一段288號","121.456666666667","24.977665","6501300","土城區"
"236063","915-UM","2018/09/13 18:59:46","新北市土城區延和路39巷2號","121.465948333333","24.9897283333333","6501300","土城區"
"236055","AAC-216","2018/09/13 18:59:44","新北市土城區學成路162號","121.448093333333","24.9891716666667","6501300","土城區"
"238023","601-UM","2018/09/13 18:59:54","新北市樹林區大慶街120號","121.395976666667","25.013515","6500700","樹林區"
"238019","599-UM","2018/09/13 18:59:57","新北市樹林區東榮街180號","121.414303333333","24.98197","6500700","樹林區"
"238022","KEA-2213","2018/09/13 19:00:01","新北市樹林區東興街2-1號","121.409198333333","24.9796966666667","6500700","樹林區"
"238021","KEA-2539","2018/09/13 18:59:44","新北市樹林區柑園街二段328巷6弄29號","121.37328","24.9527283333333","6500700","樹林區"
"238025","303-VK","2018/09/13 18:59:54","新北市樹林區中山路三段22號","121.395625","24.973135","6500700","樹林區"
"238017","283-BY","2018/09/13 18:59:41","新北市樹林區中山路三段214號","121.380211666667","24.9680466666667","6500700","樹林區"
"238014","282-BY","2018/09/13 18:59:46","新北市樹林區潭興街141巷6號","121.425478333333","24.9996433333333","6500700","樹林區"
"238020","268-VK","2018/09/13 18:59:51","新北市樹林區俊英街176號","121.426305","25.0075316666667","6500700","樹林區"
"238026","172-UY","2018/09/13 18:59:53","新北市樹林區中和街11號","121.391998333333","24.9729566666667","6500700","樹林區"
"238016","169-UY","2018/09/13 19:00:02","新北市樹林區復興路373巷7弄18號","121.418035","24.986915","6500700","樹林區"
"239007","AAC-297","2018/09/13 18:59:45","新北市鶯歌區成功街2號","121.35856","24.95737","6500800","鶯歌區"
"239006","891-R6","2018/09/13 18:59:55","新北市鶯歌區鶯桃路296巷55弄18號","121.336225","24.961725","6500800","鶯歌區"
"239008","527-UM","2018/09/13 18:59:42","新北市鶯歌區國際二路70巷4號","121.335051666667","24.9764683333333","6500800","鶯歌區"
"239005","526-UM","2018/09/13 18:59:52","新北市鶯歌區鳳吉一街114號","121.327588333333","24.9747233333333","6500800","鶯歌區"
"239001","417-VK","2018/09/13 18:59:56","新北市鶯歌區永明街60巷15號","121.340958333333","24.9552","6500800","鶯歌區"
"239003","360-BY","2018/09/13 18:59:57","新北市鶯歌區鶯桃路427號","121.332628333333","24.964995","6500800","鶯歌區"
"239004","193-VK","2018/09/13 18:59:47","新北市鶯歌區中正三路247巷67弄1號","121.333861666667","24.936355","6500800","鶯歌區"
"221008","489-VK","2018/09/13 18:59:46","新北市汐止區伯爵街2巷5號","121.642241666667","25.0755633333333","6501100","汐止區"
"221036","130-UY","2018/09/13 18:59:58","新北市汐止區汐萬路一段292號","121.650683333333","25.074415","6501100","汐止區"
"221010","269-BY","2018/09/13 18:59:48","新北市汐止區汐萬路三段247-1號","121.64232","25.107675","6501100","汐止區"
"221012","278-VK","2018/09/13 18:59:52","新北市汐止區康寧街901號","121.650713333333","25.0753166666667","6501100","汐止區"
"221023","279-VK","2018/09/13 18:59:46","新北市汐止區康寧街901號","121.651003333333","25.0751883333333","6501100","汐止區"
"221032","280-BY","2018/09/13 18:59:59","新北市汐止區橫科路407巷81弄5號","121.628961666667","25.0479933333333","6501100","汐止區"
"221027","281-BY","2018/09/13 18:59:53","新北市汐止區康寧街901號","121.650896666667","25.075325","6501100","汐止區"
"221029","298-VK","2018/09/13 18:59:49","新北市汐止區樟樹一路242號","121.642411666667","25.0669383333333","6501100","汐止區"
"221021","299-VK","2018/09/13 18:59:41","新北市汐止區康寧街901號","121.651406666667","25.0750616666667","6501100","汐止區"
"221031","353-TW","2018/09/13 18:59:53","新北市汐止區福德二路156巷60號","121.629906666667","25.0659666666667","6501100","汐止區"
"221035","622-UM","2018/09/13 18:59:55","新北市汐止區汐萬路一段129號","121.653808333333","25.0711316666667","6501100","汐止區"
"221038","646-BX","2018/09/13 18:59:40","新北市汐止區汐萬路一段312號","121.650621666667","25.0753083333333","6501100","汐止區"
"221002","707-TV","2018/09/13 18:59:43","台北市南港區南港路一段2號","121.620406666667","25.0549183333333","6501100","汐止區"
"220079","145-BY","2018/09/13 19:00:00","新北市板橋區民權路202巷11弄1號","121.460505","25.0156716666667","6500100","板橋區"
"220080","200-UY","2018/09/13 18:59:49","新北市板橋區大觀路二段265巷20弄12號","121.442403333333","24.9982883333333","6500100","板橋區"
"220082","610-BX","2018/09/13 18:59:46","新北市板橋區滿平街86號","121.427601666667","24.98914","6500100","板橋區"
"220101","245-BX","2018/09/13 18:59:45","新北市板橋區莊敬路101號","121.472488333333","25.0261433333333","6500100","板橋區"
"220091","267-BY","2018/09/13 19:00:01","新北市板橋區雙十路二段47巷9號","121.475965","25.0259233333333","6500100","板橋區"
"220056","276-BY","2018/09/13 18:59:52","新北市板橋區信義路150巷36號","121.457406666667","24.9917383333333","6500100","板橋區"
"220072","277-BY","2018/09/13 18:59:41","新北市板橋區篤行路二段136號","121.429991666667","24.9886883333333","6500100","板橋區"
"220071","283-VK","2018/09/13 18:59:53","新北市板橋區重慶路223巷5號","121.463253333333","25.0013733333333","6500100","板橋區"
"220094","285-UM","2018/09/13 18:59:43","新北市板橋區莒光路1-1號","121.46965","25.0249083333333","6500100","板橋區"
"220053","285-VK","2018/09/13 18:59:56","新北市板橋區中山路二段151號","121.47552","25.0169","6500100","板橋區"
"220083","286-VK","2018/09/13 18:59:54","新北市板橋區大觀路一段38巷176號","121.441658333333","25.004675","6500100","板橋區"
"220081","287-VK","2018/09/13 18:59:49","新北市板橋區光華街19巷8號","121.453658333333","25.0121716666667","6500100","板橋區"
"220061","293-UM","2018/09/13 18:59:55","新北市板橋區富山街109巷60弄19號","121.475451666667","25.0215066666667","6500100","板橋區"
"220097","299-UM","2018/09/13 18:59:53","新北市板橋區文化路一段88號","121.464488333333","25.0175616666667","6500100","板橋區"
"220075","303-R5","2018/09/13 18:59:56","新北市板橋區館前西路135號","121.456475","25.0077216666667","6500100","板橋區"
"220062","305-R5","2018/09/13 18:59:46","新北市板橋區民享街56號","121.476073333333","25.01508","6500100","板橋區"
"220092","307-R5","2018/09/13 18:59:42","新北市板橋區文化路一段235號","121.464161666667","25.017465","6500100","板橋區"
"220098","317-R6","2018/09/13 18:59:59","新北市板橋區民有街27號","121.466053333333","25.0252633333333","6500100","板橋區"
"220064","486-VK","2018/09/13 18:59:53","新北市板橋區縣民大道二段106號","121.466903333333","25.0154283333333","6500100","板橋區"
"220088","491-VK","2018/09/13 19:00:01","新北市板橋區民生路二段216號","121.469311666667","25.02151","6500100","板橋區"
"220035","560-BX","2018/09/13 18:59:47","新北市板橋區中正路343號","121.454781666667","25.0204816666667","6500100","板橋區"
"220103","561-BX","2018/09/13 18:59:56","新北市板橋區介壽街70號","121.469675","25.019","6500100","板橋區"
"220084","568-UM","2018/09/13 19:00:03","新北市板橋區龍興街65巷3號","121.443285","25.0013516666667","6500100","板橋區"
"220063","609-BX","2018/09/13 18:59:55","新北市板橋區中山路二段165號","121.475876666667","25.01679","6500100","板橋區"
"220057","686-BX","2018/09/13 19:00:00","新北市板橋區光明街102號","121.462783333333","25.0029483333333","6500100","板橋區"
"220077","687-BX","2018/09/13 18:59:47","新北市板橋區大觀路二段281號","121.442545","24.9988916666667","6500100","板橋區"
"220093","689-BX","2018/09/13 18:59:44","新北市板橋區民生路三段68-1號","121.466935","25.0259933333333","6500100","板橋區"
"220054","741-BX","2018/09/13 18:59:58","新北市板橋區實踐路66號","121.463883333333","25.00579","6500100","板橋區"
"220102","KEA-2699","2018/09/13 18:59:44","新北市板橋區懷德街235巷2-1號","121.481383333333","25.0280166666667","6500100","板橋區"
"220055","827-TW","2018/09/13 18:59:59","新北市板橋區中山路一段158巷11號","121.466286666667","25.0115633333333","6500100","板橋區"
"220067","829-TW","2018/09/13 18:59:59","新北市板橋區三民路二段138巷1弄3號","121.478813333333","25.015365","6500100","板橋區"
"220068","830-TW","2018/09/13 19:00:01","新北市板橋區中山路二段465巷74弄4號","121.481336666667","25.02208","6500100","板橋區"
"220096","831-TW","2018/09/13 18:59:55","新北市板橋區莒光路129號","121.472866666667","25.0240133333333","6500100","板橋區"
"220089","833-TW","2018/09/13 18:59:59","新北市板橋區文聖街70號","121.477215","25.03036","6500100","板橋區"
"220074","895-R6","2018/09/13 18:59:43","新北市板橋區林園街4號","121.454098333333","25.009325","6500100","板橋區"
"220073","985-R7","2018/09/13 18:59:46","新北市板橋區民權路215號","121.457795","25.01523","6500100","板橋區"
"220070","AAC-253","2018/09/13 18:59:59","新北市板橋區四川路一段333號","121.458546666667","25.0002483333333","6500100","板橋區"
"235068","KEA-2873","2018/09/13 18:59:43","新北市中和區圓通路265巷29號","121.496135","24.9925083333333","6500300","中和區"
"235061","KEA-2875","2018/09/13 18:59:39","新北市中和區民享街59巷4號","121.474475","25.0023516666667","6500300","中和區"
