"lineid","car","time","location","longitude","latitude","cityid","cityname"
"234046","148-BY","2018/09/13 19:36:55","新北市永和區秀朗路二段68號","121.522663333333","25.0015766666667","6500400","永和區"
"234007","207-UY","2018/09/13 19:36:59","新北市永和區中和路603號","121.512371666667","25.0041133333333","6500400","永和區"
"234081","298-R6","2018/09/13 19:36:47","新北市永和區環河東路三段38號","121.526595","25.00672","6500400","永和區"
"234038","336-UY","2018/09/13 19:36:54","新北市永和區成功路一段125巷13號","121.527436666667","25.00202","6500400","永和區"
"234064","337-UY","2018/09/13 19:36:52","新北市永和區秀朗路二段24巷41號","121.520098333333","25.0018983333333","6500400","永和區"
"234086","338-UY","2018/09/13 19:36:52","新北市永和區林森路31-1號","121.526041666667","25.005005","6500400","永和區"
"234070","552-UM","2018/09/13 19:36:45","新北市永和區永和路二段234號","121.515725","25.0143133333333","6500400","永和區"
"234017","745-BX","2018/09/13 19:36:54","新北市永和區永和路二段425巷37弄2-1號","121.51423","25.0175","6500400","永和區"
"234030","746-BX","2018/09/13 19:37:00","新北市永和區四維街117號","121.523261666667","24.9981516666667","6500400","永和區"
"234054","KEA-2590","2018/09/13 19:36:45","新北市永和區竹林路39巷7號","121.518266666667","25.01452","6500400","永和區"
"234013","KEA-2591","2018/09/13 19:36:53","新北市永和區中山路一段184巷7號","121.5086","25.0093816666667","6500400","永和區"
"234061","AAD-866","2018/09/13 19:36:58","新北市永和區中正路395號","121.517333333333","25.0041366666667","6500400","永和區"
"234042","862-TW","2018/09/13 19:36:57","新北市永和區永貞路302號","121.512095","25.0047033333333","6500400","永和區"
"234050","863-TW","2018/09/13 19:36:52","新北市永和區保安路69號","121.509043333333","25.0153083333333","6500400","永和區"
"234026","9371-KE","2018/09/13 19:36:45","新北市永和區中和路501巷5號","121.510398333333","25.002645","6500400","永和區"
"234011","9373-KE","2018/09/13 19:36:58","新北市永和區保生路55號","121.504685","25.0107016666667","6500400","永和區"
"249001","173-UM","2018/09/13 19:23:17","新北市八里區挖子尾街10號","121.415373333333","25.1642216666667","6502300","八里區"
"249004","303-UY","2018/09/13 19:36:54","新北市八里區中山路一段268巷5弄11號","121.414343333333","25.1603633333333","6502300","八里區"
"249003","759-BX","2018/09/13 19:36:43","新北市八里區華峰三街29號","121.399378333333","25.14589","6502300","八里區"
"248014","025-BX","2018/09/13 19:36:48","新北市五股區五福路23巷8號","121.433573333333","25.0888483333333","6501500","五股區"
"248008","095-VK","2018/09/13 19:36:47","新北市五股區四維路155巷2號","121.467698333333","25.0746766666667","6501500","五股區"
"248012","247-BX","2018/09/13 19:36:45","新北市五股區成泰路二段91巷9號","121.437556666667","25.0841766666667","6501500","五股區"
"248016","261-SL","2018/09/13 19:37:03","新北市五股區成泰路四段88號","121.457235","25.1112483333333","6501500","五股區"
"248010","272-BY","2018/09/13 19:36:48","新北市五股區水碓二路1號","121.430583333333","25.0713083333333","6501500","五股區"
"248004","677-BX","2018/09/13 19:36:46","新北市五股區成泰路二段38號","121.437278333333","25.0813583333333","6501500","五股區"
"248002","678-BX","2018/09/13 19:36:55","新北市五股區成泰路三段577巷112號","121.44887","25.104155","6501500","五股區"
"234077","969-R7","2018/09/13 19:36:55","新北市永和區民族街67巷7號","121.518808333333","24.9972566666667","6500400","永和區"
"234074","AAC-211","2018/09/13 19:36:58","新北市永和區福和路47-1號","121.523278333333","25.0080033333333","6500400","永和區"
"234067","AAC-212","2018/09/13 19:36:43","新北市永和區永貞路422號","121.508671666667","25.0082566666667","6500400","永和區"
"234003","AAC-295","2018/09/13 19:36:49","新北市永和區永和路一段122號","121.513915","25.007695","6500400","永和區"
"243013","AAD-798","2018/09/13 19:36:48","新北市泰山區應化街14號","121.424211666667","25.043855","6501600","泰山區"
"243009","297-R6","2018/09/13 19:36:53","新北市泰山區美寧街60號","121.430983333333","25.0646666666667","6501600","泰山區"
"243016","KEA-2801","2018/09/13 19:36:55","新北市泰山區明志路三段308號","121.420878333333","25.0351283333333","6501600","泰山區"
"243015","421-VK","2018/09/13 19:36:47","新北市泰山區民權街72號","121.428433333333","25.0496983333333","6501600","泰山區"
"243011","KEA-2215","2018/09/13 19:37:01","新北市泰山區貴子路67巷4弄2號","121.430946666667","25.0403333333333","6501600","泰山區"
"243010","KEA-2216","2018/09/13 19:36:54","新北市泰山區明志路二段7巷1號","121.430413333333","25.0535533333333","6501600","泰山區"
"243012","646-TV","2018/09/13 19:36:50","新北市泰山區全興路241號","121.435586666667","25.05365","6501600","泰山區"
"243014","680-BX","2018/09/13 19:36:50","新北市泰山區泰林路二段33-7號","121.435186666667","25.0564616666667","6501600","泰山區"
"222003","436-BY","2018/09/13 19:36:46","新北市深坑區深南路51-1號","121.62123","25.0098383333333","6501800","深坑區"
"222002","659-BX","2018/09/13 19:36:47","新北市深坑區北深路一段177號","121.632558333333","25.01091","6501800","深坑區"
"231041","002-UM","2018/09/13 19:36:57","新北市新店區中正路487號","121.533728333333","24.9821333333333","6500600","新店區"
"231059","046-UY","2018/09/13 19:37:01","新北市新店區安和路三段128號","121.51658","24.98572","6500600","新店區"
"231040","047-UY","2018/09/13 19:36:44","新北市新店區中正路75巷71號","121.543105","24.9689316666667","6500600","新店區"
"231046","107-UY","2018/09/13 19:36:55","新北市新店區自由街9號","121.535565","24.974995","6500600","新店區"
"231052","108-UY","2018/09/13 19:36:44","新北市新店區新烏路二段482號","121.553005","24.90797","6500600","新店區"
"231047","187-VK","2018/09/13 19:36:46","新北市新店區五峰路63巷8弄72號","121.54798","24.96853","6500600","新店區"
"231054","KEA-2219","2018/09/13 19:36:59","新北市新店區文中路45號","121.539621666667","24.956645","6500600","新店區"
"221015","KEA-2785","2018/09/13 19:36:56","新北市汐止區康寧街901號","121.651705","25.074905","6501100","汐止區"
"231057","256-BX","2018/09/13 19:36:45","新北市新店區橘園一路11號","121.547961666667","24.9340266666667","6500600","新店區"
"231042","268-BY","2018/09/13 19:36:54","新北市新店區中興路一段148號","121.54241","24.9638283333333","6500600","新店區"
"231051","278-BY","2018/09/13 19:36:54","新北市新店區中央四街79號","121.526478333333","24.97586","6500600","新店區"
"231050","AAD-862","2018/09/13 19:36:48","新北市新店區秀水路28號","121.554923333333","24.9550533333333","6500600","新店區"
"231044","355-BY","2018/09/13 19:36:52","新北市新店區北新路三段66號","121.542065","24.9804033333333","6500600","新店區"
"231066","4716-K9","2018/09/13 19:37:01","新北市新店區安康路三段165巷5號","121.489691666667","24.9513616666667","6500600","新店區"
"231056","4715-K9","2018/09/13 19:36:57","新北市新店區安和路三段4巷1-3號","121.518501666667","24.9806183333333","6500600","新店區"
"231067","4772-VM","2018/09/13 19:36:51","新北市新店區薏仁坑路6-3號","121.499776666667","24.95863","6500600","新店區"
"231065","512-UM","2018/09/13 19:36:48","新北市新店區安祥路109巷3弄2號","121.475491666667","24.95926","6500600","新店區"
"231049","513-UM","2018/09/13 19:36:46","新北市新店區大豐路43號","121.540223333333","24.97984","6500600","新店區"
"231045","617-UM","2018/09/13 19:36:57","新北市新店區北宜路二段118號","121.556606666667","24.9538866666667","6500600","新店區"
"231061","619-UM","2018/09/13 19:36:46","新北市新店區安民街37號","121.515815","24.9654066666667","6500600","新店區"
"231063","641-BX","2018/09/13 19:36:46","新北市新店區達觀路43號","121.503251666667","24.9378983333333","6500600","新店區"
"231064","719-UM","2018/09/13 19:36:39","新北市新店區安康路一段302-2號","121.517291666667","24.964045","6500600","新店區"
"231062","720-UM","2018/09/13 19:36:54","新北市新店區精忠路10-1號","121.532506666667","24.9592066666667","6500600","新店區"
"231060","897-TW","2018/09/13 19:36:59","新北市新店區安康路二段160號","121.512165","24.9608383333333","6500600","新店區"
"231043","899-TW","2018/09/13 19:37:01","新北市新店區北新路二段96號","121.542963333333","24.9731533333333","6500600","新店區"
"231055","AKT-0513","2018/09/13 19:36:46","新北市新店區力行路46號","121.538813333333","24.9653983333333","6500600","新店區"
"241011","013-R5","2018/09/13 19:36:46","新北市三重區秀江街110號","121.499253333333","25.072035","6500200","三重區"
"241028","022-UY","2018/09/13 19:36:49","新北市三重區中正南路210號","121.493808333333","25.0556933333333","6500200","三重區"
"241008","059-VK","2018/09/13 19:36:50","新北市三重區永福街135巷15號","121.478173333333","25.0770616666667","6500200","三重區"
"241022","060-VK","2018/09/13 19:36:48","新北市三重區重陽路二段52巷83弄1號","121.48423","25.0655366666667","6500200","三重區"
"241015","062-VK","2018/09/13 19:36:53","新北市三重區福德北路15號","121.502468333333","25.0643","6500200","三重區"
"241017","063-VK","2018/09/13 19:36:51","新北市三重區大仁街23號","121.491893333333","25.064565","6500200","三重區"
"241026","066-VK","2018/09/13 19:36:47","新北市三重區光興街37號","121.499463333333","25.0602816666667","6500200","三重區"
"241003","091-VK","2018/09/13 19:36:54","新北市三重區仁義街399號","121.494355","25.0856266666667","6500200","三重區"
"241029","265-UM","2018/09/13 19:36:59","新北市三重區泉州街26號","121.494813333333","25.05592","6500200","三重區"
"241009","267-UM","2018/09/13 19:36:42","新北市三重區三和路四段400巷17號","121.480423333333","25.079335","6500200","三重區"
"241018","268-UM","2018/09/13 19:36:46","新北市三重區大智街65號","121.492528333333","25.0681383333333","6500200","三重區"
"241032","269-UM","2018/09/13 19:36:56","新北市三重區三陽路116巷4號","121.483101666667","25.0581633333333","6500200","三重區"
"241013","270-UM","2018/09/13 19:37:03","新北市三重區仁愛街141巷22號","121.496811666667","25.0759083333333","6500200","三重區"
"241007","398-BY","2018/09/13 19:37:00","新北市三重區溪尾街126巷72號","121.48799","25.0787883333333","6500200","三重區"
"241035","462-BY","2018/09/13 19:36:44","新北市三重區長元西街62號","121.497528333333","25.0655133333333","6500200","三重區"
"241004","475-VK","2018/09/13 19:36:50","新北市三重區五華街74號","121.493441666667","25.0820633333333","6500200","三重區"
"241020","478-VK","2018/09/13 19:36:56","新北市三重區三和路四段20巷32號","121.48964","25.073595","6500200","三重區"
"241030","480-VK","2018/09/13 19:36:58","新北市三重區環河南路221巷17號","121.491573333333","25.0526716666667","6500200","三重區"
"241014","543-UM","2018/09/13 19:36:46","新北市三重區長榮路110號","121.503288333333","25.069425","6500200","三重區"
"241023","545-UM","2018/09/13 19:37:01","新北市三重區忠孝路三段93巷10-1號","121.478758333333","25.0650733333333","6500200","三重區"
"241001","547-UM","2018/09/13 19:36:48","新北市三重區福隆路34號","121.492075","25.0782366666667","6500200","三重區"
"241019","KEA-2593","2018/09/13 19:36:47","新北市三重區六張街194巷1弄5號","121.488331666667","25.0682833333333","6500200","三重區"
"241006","AAD-863","2018/09/13 19:36:59","新北市三重區永福街256號","121.484331666667","25.07489","6500200","三重區"
"241031","743-BX","2018/09/13 19:37:03","新北市三重區重新路四段244巷31號","121.48711","25.0535383333333","6500200","三重區"
"241005","887-TS","2018/09/13 19:36:49","新北市三重區仁華街146-1號","121.487475","25.0831383333333","6500200","三重區"
"241012","941-UM","2018/09/13 19:36:53","新北市三重區仁興街33巷43號","121.501071666667","25.0760783333333","6500200","三重區"
"241033","AAC-255","2018/09/13 19:36:47","新北市三重區五谷王南街46巷13號","121.47496","25.0449866666667","6500200","三重區"
"235066","003-UY","2018/09/13 19:36:49","新北市中和區景新街162號","121.50574","24.997185","6500300","中和區"
"235064","005-UY","2018/09/13 19:36:45","新北市中和區南山路68號","121.502281666667","24.9961166666667","6500300","中和區"
"235063","006-UY","2018/09/13 19:36:51","新北市中和區連勝街181號","121.494003333333","24.99714","6500300","中和區"
"235056","096-UM","2018/09/13 19:36:48","新北市中和區員山路581巷31弄1號","121.477241666667","25.0102216666667","6500300","中和區"
"235039","097-UM","2018/09/13 19:36:51","新北市中和區景平路148號","121.518376666667","24.9919683333333","6500300","中和區"
"235065","098-UM","2018/09/13 19:36:44","新北市中和區永和路9巷1號","121.499218333333","25.0040333333333","6500300","中和區"
"235040","150-BY","2018/09/13 19:36:50","新北市中和區保健路44巷2號","121.509325","24.9970866666667","6500300","中和區"
"235058","151-BY","2018/09/13 19:36:55","新北市中和區員山路127-3號","121.480973333333","24.9957816666667","6500300","中和區"
"235055","183-VK","2018/09/13 19:36:59","新北市中和區民享街3號","121.473885","25.0057566666667","6500300","中和區"
"235038","185-VK","2018/09/13 19:36:54","新北市中和區自立路117巷4弄5號","121.52275","24.99425","6500300","中和區"
"235049","186-VK","2018/09/13 19:37:01","新北市中和區安平路22號","121.509261666667","24.99428","6500300","中和區"
"235067","255-BX","2018/09/13 19:36:50","新北市中和區新生街186巷5弄7號","121.48292","24.9994133333333","6500300","中和區"
"235044","293-VK","2018/09/13 19:36:48","新北市中和區興南路一段88號","121.5099","24.9892616666667","6500300","中和區"
"235043","352-BY","2018/09/13 19:36:52","新北市中和區安樂路1號","121.511721666667","24.99193","6500300","中和區"
"235042","KEA-2878","2018/09/13 19:37:03","新北市中和區中和路350巷8弄26號","121.510115","25.0000816666667","6500300","中和區"
"235050","4979-A6","2018/09/13 19:36:53","新北市中和區中正路571巷2弄11號","121.486188333333","24.9937716666667","6500300","中和區"
"235069","4980-A6","2018/09/13 19:36:56","新北市中和區連城路188巷2號","121.492848333333","24.9972833333333","6500300","中和區"
"235070","558-UM","2018/09/13 19:36:56","新北市中和區泰和街46巷3號","121.498525","24.9998083333333","6500300","中和區"
"235054","640-BX","2018/09/13 19:36:54","新北市中和區國光街85巷4號","121.470458333333","24.999975","6500300","中和區"
"235047","732-UM","2018/09/13 19:36:49","新北市中和區景平路329巷2弄6號","121.50557","24.992985","6500300","中和區"
"235010","733-UM","2018/09/13 19:37:03","新北市中和區忠孝街57號","121.511618333333","24.9845516666667","6500300","中和區"
"235057","801-TS","2018/09/13 19:36:45","新北市中和區員山路270號","121.481416666667","25.0018216666667","6500300","中和區"
"235041","802-TS","2018/09/13 19:37:02","新北市中和區永貞路249巷20號","121.512351666667","25.0035716666667","6500300","中和區"
"235052","805-TS","2018/09/13 19:36:55","新北市中和區華新街206巷21弄2號","121.505911666667","24.982825","6500300","中和區"
"235048","896-TW","2018/09/13 19:36:51","新北市中和區忠孝街56號","121.51151","24.9836583333333","6500300","中和區"
"235053","900-TW","2018/09/13 19:36:44","新北市中和區國光街184巷26號","121.467565","25.0021016666667","6500300","中和區"
"235060","911-UM","2018/09/13 19:36:51","新北市中和區中山路二段523巷14號","121.481586666667","25.0044483333333","6500300","中和區"
"235051","157-BY","2018/09/13 19:36:54","新北市中和區景平路520號","121.50333","24.9939333333333","6500300","中和區"
"235037","AAC-213","2018/09/13 19:36:42","新北市中和區秀朗路三段10巷29弄8號","121.524863333333","24.995945","6500300","中和區"
"235059","AAC-215","2018/09/13 19:36:47","新北市中和區圓通路282號","121.491623333333","24.9905983333333","6500300","中和區"
"220065","072-UY","2018/09/13 19:36:44","新北市板橋區民族路222巷15號","121.468846666667","25.0067716666667","6500100","板橋區"
"220086","073-UY","2018/09/13 19:36:47","新北市板橋區國光路4號","121.456721666667","25.017345","6500100","板橋區"
"220106","075-UY","2018/09/13 19:36:43","新北市板橋區文化路二段417巷8號","121.474413333333","25.0331316666667","6500100","板橋區"
"220069","AAD-861","2018/09/13 19:36:58","新北市板橋區貴興路106巷7號","121.455196666667","25.002825","6500100","板橋區"
"220090","120-SR","2018/09/13 19:36:57","新北市板橋區裕民街149號","121.458633333333","25.0271466666667","6500100","板橋區"
"247002","893-R6","2018/09/13 19:36:48","新北市蘆洲區三民路595號","121.460921666667","25.0936916666667","6501400","蘆洲區"
"247008","336-TH","2018/09/13 19:36:52","新北市蘆洲區中山一路176號","121.47423","25.0811466666667","6501400","蘆洲區"
"247014","053-VK","2018/09/13 19:36:55","新北市蘆洲區三民路378號","121.464188333333","25.091615","6501400","蘆洲區"
"247004","002-UY","2018/09/13 19:36:50","新北市蘆洲區長安街98巷10號","121.462596666667","25.0815333333333","6501400","蘆洲區"
"226004","312-R5","2018/09/13 19:37:01","新北市平溪區靜安路三段392巷3號","121.7844","25.049585","6502400","平溪區"
"228003","097-TW","2018/09/13 19:36:48","新北市貢寮區真理里美艷山街63號","121.921428333333","25.071675","6502600","貢寮區"
"228001","212-TW","2018/09/13 19:36:49","新北市貢寮區真理里延平街105號","121.923203333333","25.0560966666667","6502600","貢寮區"
"224002","639-TC","2018/09/13 19:36:55","新北市瑞芳區三爪子坑路13巷67號","121.814358333333","25.1064233333333","6501200","瑞芳區"
"227010","642-TC","2018/09/13 19:36:56","新北市雙溪區新基里新基北街22號","121.867256666667","25.0389666666667","6502500","雙溪區"
"227004","400-TW","2018/09/13 19:36:44","新北市雙溪區雙溪里內挖路1號","121.863795","25.0353066666667","6502500","雙溪區"
"222001","KEA-2212","2018/09/13 19:36:58","新北市深坑區北深路二段147號","121.614341666667","25.002305","6501800","深坑區"
"208002","KEA-2872","2018/09/13 19:36:49","新北市金山區四維路25號","121.635078333333","25.222815","6502700","金山區"
"208003","665-BX","2018/09/13 19:36:47","新北市金山區仁愛路37-4號","121.63617","25.2197516666667","6502700","金山區"
"208001","761-BX","2018/09/13 19:36:50","新北市金山區六股里下六股49號","121.617823333333","25.2219116666667","6502700","金山區"
"251015","008-UM","2018/09/13 19:36:43","新北市三芝區興華里田心子26號","121.492653333333","25.1954266666667","6501000","淡水區"
"251005","010-UM","2018/09/13 19:37:02","新北市淡水區原德路116巷1號","121.443708333333","25.1741933333333","6501000","淡水區"
"251001","011-UM","2018/09/13 19:36:59","新北市淡水區民權路89號","121.45991","25.1383083333333","6501000","淡水區"
"251013","KEA-2871","2018/09/13 19:36:47","新北市淡水區頂田寮路145號","121.462056666667","25.2161283333333","6501000","淡水區"
"251016","179-VK","2018/09/13 19:36:59","新北市淡水區下圭柔山119-51號","121.450743333333","25.208525","6501000","淡水區"
"251014","180-VK","2018/09/13 19:36:57","新北市淡水區桂竹圍4-3號","121.475426666667","25.2322466666667","6501000","淡水區"
"251010","413-VK","2018/09/13 19:36:43","新北市淡水區新市二路二段200號","121.430776666667","25.1944416666667","6501000","淡水區"
"251012","441-VK","2018/09/13 19:36:54","新北市淡水區崁頂57-7號","121.442543333333","25.197275","6501000","淡水區"
"251007","442-VK","2018/09/13 19:36:45","新北市淡水區淡金路39號","121.456165","25.1607016666667","6501000","淡水區"
"251008","443-VK","2018/09/13 19:36:56","新北市淡水區中正路32巷9號","121.430391666667","25.1759316666667","6501000","淡水區"
"251006","561-UM","2018/09/13 19:36:44","新北市淡水區中山北路一段207巷66號","121.441758333333","25.1792383333333","6501000","淡水區"
"251009","575-R6","2018/09/13 19:36:47","新北市淡水區中山北路一段186巷13弄6號","121.44547","25.1790183333333","6501000","淡水區"
"251011","650-BX","2018/09/13 19:37:02","新北市淡水區八勢路20號","121.46081","25.1535083333333","6501000","淡水區"
"251003","766-UM","2018/09/13 19:36:49","新北市淡水區下圭柔山90-8號","121.431188333333","25.2102966666667","6501000","淡水區"
"207003","550-UM","2018/09/13 19:36:49","新北市萬里區大鵬里萬里加投301-2號","121.645375","25.2203333333333","6502800","萬里區"
"207004","225-TW","2018/09/13 19:37:04","新北市萬里區萬里里瑪鋉路71號","121.68825","25.1764216666667","6502800","萬里區"
"252002","178-VK","2018/09/13 19:36:55","新北市三芝區中正路一段18巷34-1號","121.503883333333","25.2592283333333","6502100","三芝區"
"252001","292-VK","2018/09/13 19:36:58","新北市三芝區公正街9號","121.499758333333","25.257545","6502100","三芝區"
"237004","KEA-2597","2018/09/13 19:36:50","新北市三峽區有木17號","121.423885","24.8626266666667","6500900","三峽區"
"237007","153-BY","2018/09/13 19:36:55","新北市三峽區二鬮路136巷129號","121.35629","24.9106583333333","6500900","三峽區"
"237009","210-TH","2018/09/13 19:36:50","新北市三峽區中園街20-1號","121.368215","24.9268","6500900","三峽區"
"237013","252-BX","2018/09/13 19:36:44","新北市三峽區介壽路一段309號","121.381306666667","24.9303983333333","6500900","三峽區"
"237012","275-BY","2018/09/13 19:36:53","新北市三峽區民生街3號","121.374611666667","24.9353933333333","6500900","三峽區"
"237008","302-VK","2018/09/13 19:36:53","新北市三峽區永安街143號","121.373571666667","24.9281566666667","6500900","三峽區"
"237014","433-BY","2018/09/13 19:37:00","新北市三峽區中正路二段122號","121.366308333333","24.9170883333333","6500900","三峽區"
"237006","5529-G3","2018/09/13 19:36:47","新北市三峽區中正路一段336巷15弄2號","121.36997","24.9249733333333","6500900","三峽區"
"237011","KEA-2596","2018/09/13 19:36:44","新北市三峽區介壽路三段107號","121.395465","24.93931","6500900","三峽區"
"237016","649-BX","2018/09/13 19:36:50","新北市三峽區成福路337號","121.432878333333","24.924105","6500900","三峽區"
"237005","AKY-6261","2018/09/13 19:36:58","新北市三峽區中山路219巷6號","121.363151666667","24.9364","6500900","三峽區"
"236070","105-UM","2018/09/13 19:36:59","新北市土城區明德路二段69號","121.451746666667","24.9812066666667","6501300","土城區"
"236042","107-UM","2018/09/13 19:36:45","新北市土城區裕民路214巷18弄2號","121.452628333333","24.9838366666667","6501300","土城區"
"236078","166-UM","2018/09/13 19:36:59","新北市土城區中州路27巷78號","121.412538333333","24.95633","6501300","土城區"
"236030","253-BX","2018/09/13 19:37:02","新北市土城區中央路二段50巷16弄5號","121.441821666667","24.9801466666667","6501300","土城區"
"236026","269-VK","2018/09/13 19:36:49","新北市土城區中央路二段61巷26號","121.443313333333","24.9788016666667","6501300","土城區"
"236038","271-VK","2018/09/13 19:36:57","新北市土城區清水路98巷3弄29號","121.458231666667","24.9808983333333","6501300","土城區"
"236021","401-BY","2018/09/13 19:36:45","新北市土城區峰廷街3號","121.469016666667","24.9873533333333","6501300","土城區"
"236059","912-UM","2018/09/13 19:36:54","新北市土城區中央路二段63號","121.442701666667","24.9789066666667","6501300","土城區"
"236049","913-UM","2018/09/13 19:36:46","新北市土城區金城路二段396號","121.464015","24.9856966666667","6501300","土城區"
"236063","915-UM","2018/09/13 19:37:03","新北市土城區延平街61號","121.467748333333","24.9926283333333","6501300","土城區"
"236055","AAC-216","2018/09/13 19:36:45","新北市土城區學府路一段131號","121.453933333333","24.9864466666667","6501300","土城區"
"242036","AAC-296","2018/09/13 19:36:48","新北市新莊區民安西路1號","121.426715","25.0220383333333","6500500","新莊區"
"242056","751-BX","2018/09/13 19:36:55","新北市新莊區瓊林南路61-71號","121.439983333333","25.0182483333333","6500500","新莊區"
"242048","497-BY","2018/09/13 19:36:48","新北市新莊區民安路37巷4號","121.423885","25.0268016666667","6500500","新莊區"
"242039","415-TV","2018/09/13 19:36:49","新北市新莊區建國二路108號","121.430853333333","25.0273316666667","6500500","新莊區"
"242023","362-BY","2018/09/13 19:36:53","新北市新莊區復興路二段123號","121.456826666667","25.0444516666667","6500500","新莊區"
"242061","353-BY","2018/09/13 19:36:48","新北市新莊區新泰路255巷83號","121.442173333333","25.0387433333333","6500500","新莊區"
"242034","135-UY","2018/09/13 19:36:56","新北市新莊區中正路344號","121.44427","25.03453","6500500","新莊區"
"242013","173-VK","2018/09/13 19:36:54","新北市新莊區中泰街104巷2號","121.448935","25.0467466666667","6500500","新莊區"
"242007","176-VK","2018/09/13 19:36:54","新北市新莊區思源路593巷6弄23號","121.457655","25.0598","6500500","新莊區"
"242002","347-TH","2018/09/13 19:36:43","新北市新莊區三和路12-16號","121.442286666667","25.037415","6500500","新莊區"
"242031","348-TH","2018/09/13 19:36:58","新北市新莊區新泰路215號","121.446703333333","25.0388516666667","6500500","新莊區"
"242004","349-TH","2018/09/13 19:36:59","新北市新莊區化成路17號","121.464826666667","25.0434883333333","6500500","新莊區"
"242021","350-TH","2018/09/13 19:37:01","新北市新莊區中正路459號","121.442363333333","25.0336633333333","6500500","新莊區"
"238015","755-BX","2018/09/13 19:36:51","新北市樹林區日新街117號","121.421288333333","24.9896883333333","6500700","樹林區"
"238023","601-UM","2018/09/13 19:36:54","新北市樹林區三福街123巷1號","121.40565","25.0159616666667","6500700","樹林區"
"238019","599-UM","2018/09/13 19:36:57","新北市樹林區東榮街8號","121.418176666667","24.983815","6500700","樹林區"
"238024","5061-A6","2018/09/13 19:37:04","新北市樹林區中山路三段116號","121.39266","24.97214","6500700","樹林區"
"238021","KEA-2539","2018/09/13 19:37:04","新北市樹林區佳園路三段219巷41號","121.38836","24.9461866666667","6500700","樹林區"
"238025","303-VK","2018/09/13 19:36:53","新北市樹林區中山路一段4號","121.424358333333","24.9930566666667","6500700","樹林區"
"238017","283-BY","2018/09/13 19:37:01","新北市樹林區光興街153-6號","121.40802","25.0030916666667","6500700","樹林區"
"238026","172-UY","2018/09/13 19:36:53","新北市樹林區佳園路三段97號","121.387431666667","24.9521983333333","6500700","樹林區"
"239006","891-R6","2018/09/13 19:36:55","新北市鶯歌區建國路401號","121.338016666667","24.9507116666667","6500800","鶯歌區"
"239004","193-VK","2018/09/13 19:36:47","新北市鶯歌區中正三路147巷6號","121.337145","24.9397733333333","6500800","鶯歌區"
"221008","489-VK","2018/09/13 19:36:46","新北市汐止區康寧街145號","121.621918333333","25.06655","6501100","汐止區"
"221036","130-UY","2018/09/13 19:36:58","新北市汐止區康寧街901號","121.651488333333","25.075045","6501100","汐止區"
"221010","269-BY","2018/09/13 19:36:48","新北市汐止區汐萬路二段48號","121.649525","25.08173","6501100","汐止區"
"221012","278-VK","2018/09/13 19:36:52","新北市汐止區茄安路242-1號","121.679286666667","25.0707566666667","6501100","汐止區"
"221023","279-VK","2018/09/13 19:37:04","新北市汐止區明峰街190號","121.628141666667","25.0696916666667","6501100","汐止區"
"221032","280-BY","2018/09/13 19:36:59","新北市汐止區南興路9號","121.652105","25.0623616666667","6501100","汐止區"
"221027","281-BY","2018/09/13 19:36:52","新北市汐止區忠孝東路9號","121.658243333333","25.06599","6501100","汐止區"
"221029","298-VK","2018/09/13 19:36:45","新北市汐止區康寧街901號","121.651578333333","25.0748983333333","6501100","汐止區"
"221021","299-VK","2018/09/13 19:37:01","新北市汐止區汐萬路一段186號","121.652291666667","25.0719616666667","6501100","汐止區"
"221031","353-TW","2018/09/13 19:36:53","新北市汐止區康寧街901號","121.650775","25.0752583333333","6501100","汐止區"
"221035","622-UM","2018/09/13 19:36:54","新北市汐止區康寧街901號","121.651173333333","25.07517","6501100","汐止區"
"221025","623-UM","2018/09/13 19:36:58","新北市汐止區福安街7號","121.6624","25.0654316666667","6501100","汐止區"
"221038","646-BX","2018/09/13 19:37:00","新北市汐止區忠孝東路225號","121.662335","25.0669783333333","6501100","汐止區"
"221002","707-TV","2018/09/13 19:37:03","新北市汐止區大同路一段219巷26號","121.633285","25.05845","6501100","汐止區"
"221018","753-BX","2018/09/13 19:37:01","新北市汐止區康寧街901號","121.650876666667","25.0753","6501100","汐止區"
"220079","145-BY","2018/09/13 19:36:53","新北市板橋區復興街122號","121.46064","25.01791","6500100","板橋區"
"220080","200-UY","2018/09/13 19:36:49","新北市板橋區大觀路二段37巷192號","121.44951","25.0017433333333","6500100","板橋區"
"220082","610-BX","2018/09/13 19:36:57","新北市板橋區大觀路三段261號","121.42926","24.99217","6500100","板橋區"
"220101","245-BX","2018/09/13 19:36:45","新北市板橋區縣民大道三段33巷6弄1號","121.473928333333","25.021285","6500100","板橋區"
"220091","267-BY","2018/09/13 19:37:01","新北市板橋區懷德街181巷22號","121.480328333333","25.0302483333333","6500100","板橋區"
"220056","276-BY","2018/09/13 19:36:45","新北市板橋區四川路二段47巷1弄2號","121.454126666667","24.9949783333333","6500100","板橋區"
"220072","277-BY","2018/09/13 19:37:01","新北市板橋區金門街251號","121.431925","24.9890066666667","6500100","板橋區"
"220071","283-VK","2018/09/13 19:36:44","新北市板橋區信義路28-6號","121.457016666667","24.9950616666667","6500100","板橋區"
"220094","285-UM","2018/09/13 19:37:03","新北市板橋區銘傳街58號","121.46864","25.030925","6500100","板橋區"
"220053","285-VK","2018/09/13 19:36:56","新北市板橋區懷仁街77巷20號","121.477586666667","25.0189133333333","6500100","板橋區"
"220083","286-VK","2018/09/13 19:36:58","新北市板橋區龍興街65巷18號","121.44319","25.0015583333333","6500100","板橋區"
"220081","287-VK","2018/09/13 19:37:00","新北市板橋區大觀路一段75巷21號","121.448185","25.0043716666667","6500100","板橋區"
"220061","293-UM","2018/09/13 19:36:35","新北市板橋區成功路2-1號","121.475636666667","25.0169016666667","6500100","板橋區"
"220097","299-UM","2018/09/13 19:36:53","新北市板橋區幸福路32巷8號","121.461543333333","25.02065","6500100","板橋區"
"220075","303-R5","2018/09/13 19:36:56","新北市板橋區大勇街1巷2號","121.455161666667","25.0175066666667","6500100","板橋區"
"220062","305-R5","2018/09/13 19:37:00","新北市板橋區三民路二段81巷41號","121.48054","25.016935","6500100","板橋區"
"220092","307-R5","2018/09/13 19:37:02","新北市板橋區文化路一段310號","121.467531666667","25.0220266666667","6500100","板橋區"
"220098","317-R6","2018/09/13 19:36:46","新北市板橋區四維路257號","121.463413333333","25.0281966666667","6500100","板橋區"
"220064","486-VK","2018/09/13 19:36:53","新北市板橋區中山路一段118號","121.462901666667","25.0105083333333","6500100","板橋區"
"242017","280-VK","2018/09/13 19:36:59","新北市新莊區三和路12-16號","121.442251666667","25.0373966666667","6500500","新莊區"
"220088","491-VK","2018/09/13 19:36:44","新北市板橋區仁化街182號","121.47851","25.03397","6500100","板橋區"
"220035","560-BX","2018/09/13 19:36:47","新北市板橋區金華街85巷42號","121.45918","25.0213716666667","6500100","板橋區"
"220103","561-BX","2018/09/13 19:36:55","新北市板橋區文化路一段288號","121.46744","25.0214483333333","6500100","板橋區"
"220084","568-UM","2018/09/13 19:36:43","新北市板橋區滿平二街32-3號","121.425206666667","24.9874816666667","6500100","板橋區"
"220063","609-BX","2018/09/13 19:36:45","新北市板橋區萬安街53巷38號","121.482945","25.0236183333333","6500100","板橋區"
"220057","686-BX","2018/09/13 19:37:00","新北市板橋區國慶路147號","121.461368333333","24.9961783333333","6500100","板橋區"
"220077","687-BX","2018/09/13 19:36:47","新北市板橋區僑中三街9號","121.44653","25.0046","6500100","板橋區"
"220093","689-BX","2018/09/13 19:37:04","新北市板橋區新海路423號","121.458216666667","25.0274133333333","6500100","板橋區"
"220054","741-BX","2018/09/13 19:36:58","新北市板橋區忠孝路239巷22號","121.466941666667","25.0034333333333","6500100","板橋區"
"220102","KEA-2699","2018/09/13 19:37:04","新北市板橋區文化路二段410巷1弄1號","121.474235","25.0311883333333","6500100","板橋區"
"220055","827-TW","2018/09/13 19:36:59","新北市板橋區國慶路151號","121.461416666667","24.99617","6500100","板橋區"
"220067","829-TW","2018/09/13 19:36:58","新北市板橋區漢生東路279巷8號","121.471875","25.0091716666667","6500100","板橋區"
"220068","830-TW","2018/09/13 19:36:56","新北市板橋區萬安街25號","121.484451666667","25.0230366666667","6500100","板橋區"
"220096","831-TW","2018/09/13 19:37:00","新北市板橋區民生路二段226巷11號","121.470348333333","25.021835","6500100","板橋區"
"220089","833-TW","2018/09/13 19:36:58","新北市板橋區公館街252號","121.460045","25.02107","6500100","板橋區"
"220074","895-R6","2018/09/13 19:37:03","新北市板橋區大東街24號","121.456561666667","25.0089333333333","6500100","板橋區"
"220073","985-R7","2018/09/13 19:36:46","新北市板橋區國光路33號","121.457281666667","25.017735","6500100","板橋區"
"220070","AAC-253","2018/09/13 19:36:59","新北市板橋區民族路165號","121.46835","25.0076","6500100","板橋區"
"235068","KEA-2873","2018/09/13 19:36:43","新北市中和區景平路493巷12弄21-4號","121.49881","24.9972883333333","6500300","中和區"
"235061","KEA-2875","2018/09/13 19:36:39","新北市中和區員山路143巷4-4號","121.48074","24.9961833333333","6500300","中和區"
