"lineid","car","time","location","longitude","latitude","cityid","cityname"
"234081","298-R6","2018/09/13 20:19:47","新北市永和區國中路104巷5號","121.524398333333","25.00681","6500400","永和區"
"234038","336-UY","2018/09/13 20:19:54","新北市永和區成功路一段91號","121.527181666667","25.0027533333333","6500400","永和區"
"234064","337-UY","2018/09/13 20:19:52","新北市永和區得和路106號","121.518135","25.0001166666667","6500400","永和區"
"234086","338-UY","2018/09/13 20:19:52","新北市永和區永和路二段59號","121.514685","25.011025","6500400","永和區"
"234070","552-UM","2018/09/13 20:19:45","新北市永和區永寧街113號","121.518225","25.0061516666667","6500400","永和區"
"234017","745-BX","2018/09/13 20:19:54","新北市永和區仁愛路38號","121.514238333333","25.01346","6500400","永和區"
"234030","746-BX","2018/09/13 20:20:00","新北市永和區民有街75巷10弄33號","121.519358333333","24.99606","6500400","永和區"
"234054","KEA-2590","2018/09/13 20:19:45","新北市永和區光復街2巷16弄15號","121.51762","25.0163816666667","6500400","永和區"
"234013","KEA-2591","2018/09/13 20:19:50","新北市永和區保生路3號","121.506278333333","25.0073433333333","6500400","永和區"
"234061","AAD-866","2018/09/13 20:19:56","新北市永和區得和路48號","121.515906666667","25.0002266666667","6500400","永和區"
"234042","862-TW","2018/09/13 20:19:57","新北市中和區中安街166號","121.510811666667","25.00009","6500400","永和區"
"234050","863-TW","2018/09/13 20:20:00","新北市永和區新生路2-6號","121.50939","25.0168783333333","6500400","永和區"
"249005","172-UM","2018/09/13 20:19:49","新北市八里區下罟子1-3號","121.388473333333","25.1418816666667","6502300","八里區"
"249001","173-UM","2018/09/13 20:19:56","新北市八里區中華路二段341-10號","121.39916","25.1450366666667","6502300","八里區"
"249004","303-UY","2018/09/13 20:19:54","新北市八里區中山路一段129巷27號","121.413996666667","25.1586016666667","6502300","八里區"
"249002","305-UY","2018/09/13 20:19:47","新北市八里區龍米路一段100巷15號","121.453605","25.1251933333333","6502300","八里區"
"249003","759-BX","2018/09/13 20:19:43","新北市八里區中山路二段447巷23號","121.397491666667","25.145295","6502300","八里區"
"248014","025-BX","2018/09/13 20:19:48","新北市八里區商港路120號","121.392828333333","25.15015","6501500","五股區"
"248012","247-BX","2018/09/13 20:19:46","新北市五股區五福路51號","121.432806666667","25.0894466666667","6501500","五股區"
"248010","272-BY","2018/09/13 20:19:07","新北市五股區新五路二段2巷2-1號","121.438351666667","25.0657183333333","6501500","五股區"
"248002","678-BX","2018/09/13 20:19:55","新北市五股區成泰路三段195號","121.445678333333","25.0924216666667","6501500","五股區"
"234023","9380-KE","2018/09/13 20:19:57","新北市永和區勵行街42號","121.5166","25.0136066666667","6500400","永和區"
"234077","969-R7","2018/09/13 20:19:55","新北市永和區中正路132號","121.51452","24.9959816666667","6500400","永和區"
"234074","AAC-211","2018/09/13 20:19:57","新北市永和區豫溪街156號","121.522956666667","25.0097833333333","6500400","永和區"
"234067","AAC-212","2018/09/13 20:19:47","新北市永和區保平路268巷4號","121.508278333333","25.005615","6500400","永和區"
"234003","AAC-295","2018/09/13 20:19:50","新北市永和區永和路一段168號","121.514286666667","25.008675","6500400","永和區"
"243013","AAD-798","2018/09/13 20:19:52","新北市泰山區新民路30號","121.426878333333","25.0445566666667","6501600","泰山區"
"243009","297-R6","2018/09/13 20:19:53","新北市泰山區明志路一段208號","121.432698333333","25.061615","6501600","泰山區"
"243016","KEA-2801","2018/09/13 20:19:55","新北市泰山區明志路三段136號","121.424815","25.0401283333333","6501600","泰山區"
"243015","421-VK","2018/09/13 20:19:47","新北市泰山區仁德路82號","121.433071666667","25.0564083333333","6501600","泰山區"
"243011","KEA-2215","2018/09/13 20:20:01","新北市泰山區壽山路134巷18號","121.418245","25.0310833333333","6501600","泰山區"
"243010","KEA-2216","2018/09/13 20:19:34","新北市泰山區明志路二段254巷6號","121.426623333333","25.04768","6501600","泰山區"
"243012","646-TV","2018/09/13 20:19:50","新北市泰山區楓江路47號","121.435436666667","25.0625816666667","6501600","泰山區"
"243014","680-BX","2018/09/13 20:19:50","新北市泰山區泰林路二段389號","121.42738","25.0641066666667","6501600","泰山區"
"222003","436-BY","2018/09/13 20:19:46","新北市深坑區文化街86號","121.617663333333","25.0019233333333","6501800","深坑區"
"222002","659-BX","2018/09/13 20:19:47","新北市深坑區萬福路75巷48號","121.598285","25.0099","6501800","深坑區"
"231041","002-UM","2018/09/13 20:19:57","新北市新店區民權路42巷2號","121.540518333333","24.983065","6500600","新店區"
"231059","046-UY","2018/09/13 20:20:01","新北市新店區安德街81號","121.509666666667","24.9610516666667","6500600","新店區"
"231040","047-UY","2018/09/13 20:19:48","新北市新店區中正路211號","121.539826666667","24.9726566666667","6500600","新店區"
"231052","108-UY","2018/09/13 20:19:44","新北市新店區廣興路松碧巷1號","121.546778333333","24.91201","6500600","新店區"
"231047","187-VK","2018/09/13 20:19:45","新北市新店區寶橋路98號","121.546903333333","24.9759333333333","6500600","新店區"
"231054","KEA-2219","2018/09/13 20:19:59","新北市新店區檳榔路69號","121.543923333333","24.9620816666667","6500600","新店區"
"221015","KEA-2785","2018/09/13 20:19:56","新北市汐止區建成路142巷19弄12號","121.662001666667","25.0740633333333","6501100","汐止區"
"231057","256-BX","2018/09/13 20:19:45","新北市新店區花園七路一段16巷1號","121.553796666667","24.9348833333333","6500600","新店區"
"231042","268-BY","2018/09/13 20:19:53","新北市新店區中興路二段100巷1號","121.547573333333","24.9716133333333","6500600","新店區"
"231051","278-BY","2018/09/13 20:19:54","新北市新店區中央六街90號","121.526351666667","24.9767983333333","6500600","新店區"
"231050","AAD-862","2018/09/13 20:19:48","新北市新店區博愛街21號","121.54134","24.97364","6500600","新店區"
"231044","355-BY","2018/09/13 20:19:52","新北市新店區北新路三段89號","121.541526666667","24.98177","6500600","新店區"
"231058","3713-VJ","2018/09/13 20:19:47","新北市新店區中央路7號","121.533456666667","24.9786516666667","6500600","新店區"
"231066","4716-K9","2018/09/13 20:19:41","新北市新店區安民街121巷12號","121.515241666667","24.9693016666667","6500600","新店區"
"231056","4715-K9","2018/09/13 20:19:57","新北市新店區中正路328巷42弄10號","121.538436666667","24.976005","6500600","新店區"
"231067","4772-VM","2018/09/13 20:19:52","新北市新店區安一路一段1-1號","121.519693333333","24.96128","6500600","新店區"
"231065","512-UM","2018/09/13 20:19:48","新北市新店區安祥路106巷30號","121.477576666667","24.9621066666667","6500600","新店區"
"231049","513-UM","2018/09/13 20:19:46","新北市新店區北新路一段321號","121.54165","24.968235","6500600","新店區"
"231045","617-UM","2018/09/13 20:19:57","新北市新店區新坡一街72號","121.548931666667","24.9645616666667","6500600","新店區"
"231061","619-UM","2018/09/13 20:19:46","新北市新店區安興路33-1號","121.515831666667","24.9704433333333","6500600","新店區"
"231063","641-BX","2018/09/13 20:19:46","新北市新店區車子路1-1號","121.50477","24.957905","6500600","新店區"
"231068","718-UY","2018/09/13 20:20:02","新北市新店區寶安街30號","121.542048333333","24.98237","6500600","新店區"
"231064","719-UM","2018/09/13 20:19:59","新北市新店區安利街30號","121.51909","24.9747883333333","6500600","新店區"
"231062","720-UM","2018/09/13 20:19:54","新北市新店區安康路三段318號","121.486891666667","24.9518433333333","6500600","新店區"
"231060","897-TW","2018/09/13 20:19:51","新北市新店區錦秀路11巷96弄2號","121.480113333333","24.9421283333333","6500600","新店區"
"231043","899-TW","2018/09/13 20:20:01","新北市新店區建國路133號","121.539365","24.9782433333333","6500600","新店區"
"231055","AKT-0513","2018/09/13 20:19:51","新北市新店區新明街26巷27號","121.541533333333","24.9690966666667","6500600","新店區"
"241011","013-R5","2018/09/13 20:19:46","新北市三重區龍濱路283巷8號","121.501156666667","25.0736966666667","6500200","三重區"
"241028","022-UY","2018/09/13 20:19:49","新北市三重區大同南路136號","121.496453333333","25.0580516666667","6500200","三重區"
"241008","059-VK","2018/09/13 20:19:50","新北市三重區永福街213號","121.480021666667","25.0744","6500200","三重區"
"241022","060-VK","2018/09/13 20:19:48","新北市三重區中正北路18-1號","121.488606666667","25.0633783333333","6500200","三重區"
"241015","062-VK","2018/09/13 20:19:43","新北市三重區重新路一段128號","121.500243333333","25.0629866666667","6500200","三重區"
"241017","063-VK","2018/09/13 20:19:51","新北市三重區自強路一段163號","121.493218333333","25.0673333333333","6500200","三重區"
"241024","065-VK","2018/09/13 20:20:00","新北市三重區中正北路238號","121.481821666667","25.06787","6500200","三重區"
"241026","066-VK","2018/09/13 20:19:57","新北市三重區重新路一段52號","121.502655","25.0637266666667","6500200","三重區"
"241002","090-VK","2018/09/13 20:20:00","新北市三重區仁義街168號","121.496946666667","25.081075","6500200","三重區"
"241003","091-VK","2018/09/13 20:19:54","新北市三重區富華街78號","121.490708333333","25.08326","6500200","三重區"
"241016","262-UM","2018/09/13 20:19:50","新北市三重區正義北路48巷36號","121.496383333333","25.0635983333333","6500200","三重區"
"241029","265-UM","2018/09/13 20:19:59","新北市三重區光明路114號","121.492705","25.0561016666667","6500200","三重區"
"241009","267-UM","2018/09/13 20:20:02","新北市三重區三和路四段382巷83號","121.480555","25.078355","6500200","三重區"
"241018","268-UM","2018/09/13 20:19:46","新北市三重區自強路一段157號","121.49341","25.0671483333333","6500200","三重區"
"241032","269-UM","2018/09/13 20:19:56","新北市三重區捷運路19巷8弄11號","121.48443","25.0573166666667","6500200","三重區"
"241013","270-UM","2018/09/13 20:19:44","新北市三重區三和路三段167巷6號","121.492136666667","25.074165","6500200","三重區"
"241007","398-BY","2018/09/13 20:20:00","新北市三重區溪尾街108巷61號","121.48744","25.0782583333333","6500200","三重區"
"241035","462-BY","2018/09/13 20:20:03","新北市三重區文化北路20號","121.49923","25.0640183333333","6500200","三重區"
"241004","475-VK","2018/09/13 20:19:50","新北市三重區仁愛街368號","121.491253333333","25.08064","6500200","三重區"
"241020","478-VK","2018/09/13 20:19:56","新北市三重區三和路三段127號","121.49276","25.0733866666667","6500200","三重區"
"241030","480-VK","2018/09/13 20:19:58","新北市三重區集美街89巷31號","121.488145","25.0525166666667","6500200","三重區"
"241014","543-UM","2018/09/13 20:19:46","新北市三重區介壽路39巷168號","121.502096666667","25.07079","6500200","三重區"
"241023","545-UM","2018/09/13 20:20:01","新北市三重區忠孝路三段89號","121.479431666667","25.064815","6500200","三重區"
"241001","547-UM","2018/09/13 20:19:48","新北市三重區溪尾街42-1號","121.491048333333","25.0769766666667","6500200","三重區"
"241019","KEA-2593","2018/09/13 20:19:47","新北市三重區忠孝路一段2號","121.492571666667","25.071785","6500200","三重區"
"241006","AAD-863","2018/09/13 20:19:43","新北市三重區車路頭街135-1號","121.484255","25.0761833333333","6500200","三重區"
"241031","743-BX","2018/09/13 20:20:02","新北市三重區三寧街25號","121.489591666667","25.0598766666667","6500200","三重區"
"241005","887-TS","2018/09/13 20:19:49","新北市三重區碧華街215號","121.488771666667","25.0826883333333","6500200","三重區"
"241012","941-UM","2018/09/13 20:19:53","新北市三重區河邊北街379-1號","121.50172","25.0765583333333","6500200","三重區"
"241033","AAC-255","2018/09/13 20:19:47","新北市三重區五谷王北街42巷2號","121.475801666667","25.0493166666667","6500200","三重區"
"235066","003-UY","2018/09/13 20:19:49","新北市中和區保平路326巷20號","121.506393333333","25.0047883333333","6500300","中和區"
"235039","097-UM","2018/09/13 20:19:51","新北市中和區大勇街29巷2-5號","121.516133333333","24.9943066666667","6500300","中和區"
"235065","098-UM","2018/09/13 20:19:44","新北市中和區永和路128巷47號","121.497655","25.0068666666667","6500300","中和區"
"247012","KEA-2869","2018/09/13 20:20:02","新北市蘆洲區中興街23號","121.480781666667","25.0869683333333","6501400","蘆洲區"
"235050","4979-A6","2018/09/13 20:19:53","新北市中和區景新街252號","121.509283333333","24.9932733333333","6500300","中和區"
"235069","4980-A6","2018/09/13 20:19:56","新北市中和區圓通路120-2號","121.499096666667","24.9960133333333","6500300","中和區"
"235037","AAC-213","2018/09/13 20:20:02","新北市中和區成功路139號","121.52585","24.99043","6500300","中和區"
"235059","AAC-215","2018/09/13 20:19:47","新北市中和區圓通路332號","121.484661666667","24.986375","6500300","中和區"
"220086","073-UY","2018/09/13 20:19:47","新北市林口區太平里180號","121.368185","25.1343866666667","6500100","板橋區"
"247002","893-R6","2018/09/13 20:19:48","新北市蘆洲區長安街313巷6弄12號","121.456961666667","25.0866283333333","6501400","蘆洲區"
"247016","546-UM","2018/09/13 20:19:59","新北市蘆洲區中正路185巷86弄2號","121.46559","25.0839716666667","6501400","蘆洲區"
"247024","500-BY","2018/09/13 20:19:57","新北市蘆洲區光明路106巷17號","121.463846666667","25.087515","6501400","蘆洲區"
"247006","337-TH","2018/09/13 20:20:04","新北市蘆洲區九芎街167巷3號","121.464988333333","25.078585","6501400","蘆洲區"
"247008","336-TH","2018/09/13 20:19:52","新北市蘆洲區集賢路228號","121.48242","25.086295","6501400","蘆洲區"
"247020","057-VK","2018/09/13 20:20:01","新北市蘆洲區仁愛街57號","121.471786666667","25.0932283333333","6501400","蘆洲區"
"247010","056-VK","2018/09/13 20:19:44","新北市蘆洲區信義路257號","121.478966666667","25.084675","6501400","蘆洲區"
"247014","053-VK","2018/09/13 20:19:55","新北市蘆洲區中山一路273號","121.47226","25.0797883333333","6501400","蘆洲區"
"247018","007-UY","2018/09/13 20:19:53","新北市蘆洲區民族路344號","121.476651666667","25.0905516666667","6501400","蘆洲區"
"247004","002-UY","2018/09/13 20:19:49","新北市蘆洲區長榮路269巷32號","121.459496666667","25.085875","6501400","蘆洲區"
"247022","001-UY","2018/09/13 20:19:50","新北市蘆洲區民族路542號","121.467938333333","25.0892066666667","6501400","蘆洲區"
"222001","KEA-2212","2018/09/13 20:19:58","新北市深坑區北深路三段262號","121.599375","25.004565","6501800","深坑區"
"251015","008-UM","2018/09/13 20:20:04","新北市淡水區淡金路四段508號","121.452055","25.2256383333333","6501000","淡水區"
"251001","011-UM","2018/09/13 20:19:59","新北市淡水區新市二路四段265號","121.445741666667","25.1924883333333","6501000","淡水區"
"251013","KEA-2871","2018/09/13 20:19:47","新北市淡水區奎柔山路752巷9號","121.47354","25.2054","6501000","淡水區"
"251016","179-VK","2018/09/13 20:19:48","新北市淡水區淡金路五段20號","121.45329","25.2325","6501000","淡水區"
"251014","180-VK","2018/09/13 20:19:57","新北市淡水區石頭厝3號","121.458716666667","25.2355816666667","6501000","淡水區"
"251010","413-VK","2018/09/13 20:19:43","新北市淡水區新民街一段132號","121.427956666667","25.18866","6501000","淡水區"
"251012","441-VK","2018/09/13 20:19:54","新北市淡水區下圭柔山431-1號","121.449836666667","25.2102433333333","6501000","淡水區"
"251008","443-VK","2018/09/13 20:19:56","新北市淡水區淡海路180巷13號","121.42114","25.18469","6501000","淡水區"
"251006","561-UM","2018/09/13 20:19:44","新北市淡水區北新路171號","121.450496666667","25.1794066666667","6501000","淡水區"
"251002","672-BX","2018/09/13 20:19:59","新北市淡水區中正路218號","121.439435","25.1703916666667","6501000","淡水區"
"251003","766-UM","2018/09/13 20:19:49","新北市淡水區中山北路一段196號","121.444561666667","25.179385","6501000","淡水區"
"207004","225-TW","2018/09/13 20:19:44","新北市萬里區北基里仁三街2號","121.682296666667","25.1754583333333","6502800","萬里區"
"252002","178-VK","2018/09/13 20:19:54","新北市三芝區中正路一段59號","121.503453333333","25.25793","6502100","三芝區"
"252001","292-VK","2018/09/13 20:19:58","新北市三芝區中山路一段35號","121.500693333333","25.2579566666667","6502100","三芝區"
"237006","5529-G3","2018/09/13 20:19:47","新北市三峽區中正路二段81號","121.366565","24.9181416666667","6500900","三峽區"
"237016","649-BX","2018/09/13 20:19:49","新北市三峽區介壽路二段138巷16號","121.395921666667","24.934725","6500900","三峽區"
"236070","105-UM","2018/09/13 20:19:59","新北市土城區福安街38號","121.419123333333","24.9648166666667","6501300","土城區"
"236030","253-BX","2018/09/13 20:20:02","新北市土城區學成路128巷11號","121.449501666667","24.9899966666667","6501300","土城區"
"236026","269-VK","2018/09/13 20:19:49","新北市土城區裕生路100巷8號","121.446518333333","24.9850533333333","6501300","土城區"
"242036","AAC-296","2018/09/13 20:19:48","新北市新莊區後港一路56巷22號","121.42675","25.02539","6500500","新莊區"
"242058","986-R7","2018/09/13 20:20:01","新北市新莊區龍安路325號","121.42189","25.0194016666667","6500500","新莊區"
"242056","751-BX","2018/09/13 20:19:55","新北市新莊區豐年街20巷9號","121.445915","25.0324933333333","6500500","新莊區"
"242027","615-BX","2018/09/13 20:19:57","新北市新莊區幸福路534號","121.455686666667","25.04941","6500500","新莊區"
"242025","613-BX","2018/09/13 20:14:44","新北市三重區新北大道二段69號","121.468926666667","25.0611966666667","6500500","新莊區"
"242044","566-BX","2018/09/13 20:19:58","新北市新莊區中正路893巷1-17號","121.41304","25.0211933333333","6500500","新莊區"
"242048","497-BY","2018/09/13 20:19:58","新北市新莊區龍安路218號","121.420248333333","25.0198866666667","6500500","新莊區"
"242053","441-UM","2018/09/13 20:19:56","新北市新莊區西盛街380號","121.427861666667","25.0131166666667","6500500","新莊區"
"242039","415-TV","2018/09/13 20:19:49","新北市新莊區成功街78-1號","121.424145","25.0189383333333","6500500","新莊區"
"242046","400-BY","2018/09/13 20:19:49","新北市新莊區中正路新生巷43號","121.417465","25.0233416666667","6500500","新莊區"
"242023","362-BY","2018/09/13 20:19:53","新北市新莊區化成路812號","121.464988333333","25.059585","6500500","新莊區"
"242061","353-BY","2018/09/13 20:19:47","新北市新莊區瓊泰路77巷16號","121.442545","25.029035","6500500","新莊區"
"242011","132-UY","2018/09/13 20:19:55","新北市新莊區中信街14號","121.451105","25.0508333333333","6500500","新莊區"
"242042","133-UY","2018/09/13 20:20:01","新北市新莊區壽山路47號","121.414501666667","25.03115","6500500","新莊區"
"242034","135-UY","2018/09/13 20:19:56","新北市新莊區建中街90巷8號","121.446876666667","25.0373233333333","6500500","新莊區"
"242051","172-VK","2018/09/13 20:19:54","新北市新莊區民安西路242號","121.425931666667","25.0140583333333","6500500","新莊區"
"242013","173-VK","2018/09/13 20:19:54","新北市新莊區中和街186巷37號","121.448658333333","25.04997","6500500","新莊區"
"242019","175-VK","2018/09/13 20:19:51","新北市新莊區復興路二段196巷2弄1號","121.45933","25.04402","6500500","新莊區"
"242007","176-VK","2018/09/13 20:19:54","新北市新莊區福壽街124巷34弄11號","121.459311666667","25.0507633333333","6500500","新莊區"
"242002","347-TH","2018/09/13 20:19:59","新北市新莊區化成路31號","121.465101666667","25.0439583333333","6500500","新莊區"
"242031","348-TH","2018/09/13 20:19:38","新北市新莊區三和路60-3號","121.437255","25.0386366666667","6500500","新莊區"
"242004","349-TH","2018/09/13 20:20:03","新北市新莊區化成路524巷1號","121.46658","25.0526816666667","6500500","新莊區"
"242021","350-TH","2018/09/13 20:20:01","新北市新莊區和興街39號","121.446873333333","25.0401266666667","6500500","新莊區"
"242015","351-TH","2018/09/13 20:19:43","新北市新莊區永樂街190號","121.447755","25.0445283333333","6500500","新莊區"
"221008","489-VK","2018/09/13 20:19:46","台北市內湖區康樂街12號","121.617781666667","25.06798","6501100","汐止區"
"221036","130-UY","2018/09/13 20:19:58","新北市汐止區仁愛路136號","121.663461666667","25.064115","6501100","汐止區"
"221010","269-BY","2018/09/13 20:19:48","新北市汐止區八連路二段494號","121.628966666667","25.1061783333333","6501100","汐止區"
"221012","278-VK","2018/09/13 20:19:52","新北市汐止區保新街154號","121.688663333333","25.0683816666667","6501100","汐止區"
"221023","279-VK","2018/09/13 20:20:02","新北市汐止區湖東街33巷17號","121.633355","25.072335","6501100","汐止區"
"221032","280-BY","2018/09/13 20:19:59","新北市汐止區民權街二段28號","121.619421666667","25.0498616666667","6501100","汐止區"
"221027","281-BY","2018/09/13 20:19:53","新北市汐止區水源路一段3號","121.657205","25.0672533333333","6501100","汐止區"
"221029","298-VK","2018/09/13 20:19:45","新北市汐止區樟樹一路99巷7弄1號","121.641201666667","25.0635816666667","6501100","汐止區"
"221021","299-VK","2018/09/13 20:20:01","新北市汐止區水源路一段291巷1號","121.654283333333","25.0583833333333","6501100","汐止區"
"221031","353-TW","2018/09/13 20:19:52","新北市汐止區中興路150巷13號","121.632915","25.0649266666667","6501100","汐止區"
"221035","622-UM","2018/09/13 20:19:34","新北市汐止區長江街101-5號","121.658735","25.07323","6501100","汐止區"
"221025","623-UM","2018/09/13 20:19:38","新北市汐止區水源路二段74號","121.65595","25.0564216666667","6501100","汐止區"
"221038","646-BX","2018/09/13 20:20:00","新北市汐止區忠孝東路479號","121.666106666667","25.073225","6501100","汐止區"
"221002","707-TV","2018/09/13 20:19:43","新北市汐止區福德三路75號","121.636381666667","25.06916","6501100","汐止區"
"221018","753-BX","2018/09/13 20:20:01","新北市汐止區大同路三段264號","121.675128333333","25.0689","6501100","汐止區"
"220101","245-BX","2018/09/13 20:20:05","新北市板橋區萬板路572號","121.481295","25.026885","6500100","板橋區"
"220083","286-VK","2018/09/13 20:19:51","新北市板橋區僑中二街102巷42號","121.444526666667","25.0085266666667","6500100","板橋區"
"220081","287-VK","2018/09/13 20:19:48","新北市板橋區僑中一街80巷5弄4號","121.447665","25.0125866666667","6500100","板橋區"
"220061","293-UM","2018/09/13 20:19:55","新北市板橋區四川路一段84號","121.459638333333","25.0051316666667","6500100","板橋區"
"242009","281-VK","2018/09/13 20:19:58","新北市新莊區昌盛街65巷2弄1號","121.454921666667","25.0502216666667","6500500","新莊區"
"242017","280-VK","2018/09/13 20:19:59","新北市新莊區中港二街138號","121.448173333333","25.045625","6500500","新莊區"
"220088","491-VK","2018/09/13 20:19:44","新北市五股區新五路三段260號","121.448165","25.090545","6500100","板橋區"
"220103","561-BX","2018/09/13 20:19:55","新北市板橋區漢生西路40號","121.46329","25.018395","6500100","板橋區"
"220102","KEA-2699","2018/09/13 20:19:50","新北市板橋區文化路一段247號","121.464398333333","25.0179633333333","6500100","板橋區"
"220055","827-TW","2018/09/13 20:19:59","新北市板橋區仁愛路25號","121.45897","24.9995083333333","6500100","板橋區"
"220089","833-TW","2018/09/13 20:19:58","新北市板橋區四維路137巷5號","121.464408333333","25.024965","6500100","板橋區"
"220070","AAC-253","2018/09/13 20:19:59","新北市板橋區南雅南路二段152號","121.451693333333","24.99578","6500100","板橋區"
"235068","KEA-2873","2018/09/13 20:19:42","新北市中和區勝利路35巷1弄21號","121.499751666667","25.0077166666667","6500300","中和區"
