"lineid","car","time","location","longitude","latitude","cityid","cityname"
"249004","303-UY","2018/09/13 20:49:54","新北市八里區中山路一段63號","121.41833","25.15939","6502300","八里區"
"234023","9380-KE","2018/09/13 20:50:06","新北市永和區仁愛路301號","121.503906666667","25.00807","6500400","永和區"
"234077","969-R7","2018/09/13 20:49:55","新北市八里區商港路120號","121.392853333333","25.1500966666667","6500400","永和區"
"234074","AAC-211","2018/09/13 20:49:57","新北市永和區環河東路二段36號","121.522671666667","25.0125066666667","6500400","永和區"
"222003","436-BY","2018/09/13 20:49:46","新北市深坑區文山路三段48-1號","121.609925","24.9985283333333","6501800","深坑區"
"222002","659-BX","2018/09/13 20:49:47","新北市深坑區北深路三段93巷40號","121.604625","25.000425","6501800","深坑區"
"231059","046-UY","2018/09/13 20:50:01","新北市新店區僑信路126巷15號","121.499738333333","24.9455266666667","6500600","新店區"
"231040","047-UY","2018/09/13 20:49:44","新北市新店區中正路270號","121.538946666667","24.9735583333333","6500600","新店區"
"231052","108-UY","2018/09/13 20:49:44","新北市新店區新烏路一段140-1號","121.546566666667","24.93234","6500600","新店區"
"231047","187-VK","2018/09/13 20:49:45","新北市新店區寶元路二段1巷2號","121.550748333333","24.9840716666667","6500600","新店區"
"231054","KEA-2219","2018/09/13 20:49:59","新北市新店區中正路75巷71號","121.543125","24.96876","6500600","新店區"
"231057","256-BX","2018/09/13 20:49:45","新北市新店區新烏路一段3號","121.547415","24.9518316666667","6500600","新店區"
"231042","268-BY","2018/09/13 20:49:53","新北市新店區寶高路120巷1號","121.554578333333","24.976085","6500600","新店區"
"231051","278-BY","2018/09/13 20:49:54","新北市新店區民生路156巷97號","121.527151666667","24.9821666666667","6500600","新店區"
"231050","AAD-862","2018/09/13 20:49:59","新北市新店區三民路119號","121.534808333333","24.972145","6500600","新店區"
"231044","355-BY","2018/09/13 20:49:52","新北市新店區中正路435號","121.53405","24.97846","6500600","新店區"
"231058","3713-VJ","2018/09/13 20:49:47","新北市新店區中央路95巷8號","121.531663333333","24.97486","6500600","新店區"
"231066","4716-K9","2018/09/13 20:50:01","新北市新店區安興路112號","121.51471","24.9775833333333","6500600","新店區"
"231056","4715-K9","2018/09/13 20:49:57","新北市新店區柴埕路116號","121.50476","24.9599483333333","6500600","新店區"
"231067","4772-VM","2018/09/13 20:49:52","新北市新店區安華路28-1號","121.519788333333","24.960875","6500600","新店區"
"231065","512-UM","2018/09/13 20:49:48","新北市新店區安祥路69巷1號","121.482141666667","24.9618683333333","6500600","新店區"
"231049","513-UM","2018/09/13 20:49:46","新北市新店區華潭街52號","121.528791666667","24.95496","6500600","新店區"
"231045","617-UM","2018/09/13 20:49:57","新北市新店區長春路21巷1號","121.549316666667","24.95815","6500600","新店區"
"231061","619-UM","2018/09/13 20:49:46","新北市新店區新和街97號","121.521185","24.9866033333333","6500600","新店區"
"231063","641-BX","2018/09/13 20:49:46","新北市新店區如意街8號","121.494761666667","24.9481833333333","6500600","新店區"
"231068","718-UY","2018/09/13 20:50:02","新北市新店區寶元路二段8號","121.545728333333","24.9827333333333","6500600","新店區"
"231064","719-UM","2018/09/13 20:49:59","新北市新店區安民街379巷5號","121.51602","24.9761733333333","6500600","新店區"
"231062","720-UM","2018/09/13 20:49:54","新北市新店區和成街19巷25號","121.487815","24.94608","6500600","新店區"
"231060","897-TW","2018/09/13 20:49:51","新北市新店區安康路三段567-1號","121.475543333333","24.943305","6500600","新店區"
"231043","899-TW","2018/09/13 20:50:01","新北市新店區建國路101號","121.54031","24.9772166666667","6500600","新店區"
"241011","013-R5","2018/09/13 20:49:46","新北市三重區龍濱路219巷41號","121.502936666667","25.0723883333333","6500200","三重區"
"241028","022-UY","2018/09/13 20:49:49","新北市三重區中正南路40號","121.493828333333","25.060135","6500200","三重區"
"241008","059-VK","2018/09/13 20:49:50","新北市三重區永福街72巷11號","121.479466666667","25.07683","6500200","三重區"
"241022","060-VK","2018/09/13 20:49:48","新北市三重區重陽路二段19巷12號","121.488093333333","25.0625166666667","6500200","三重區"
"241015","062-VK","2018/09/13 20:49:43","新北市三重區自強路一段8號","121.498783333333","25.06824","6500200","三重區"
"241017","063-VK","2018/09/13 20:49:51","新北市三重區自強路一段179號","121.492466666667","25.0677183333333","6500200","三重區"
"241024","065-VK","2018/09/13 20:50:00","新北市三重區大勇街82巷33號","121.479636666667","25.0722766666667","6500200","三重區"
"241026","066-VK","2018/09/13 20:49:47","新北市三重區文化南路8號","121.500115","25.062415","6500200","三重區"
"241002","090-VK","2018/09/13 20:50:00","新北市三重區仁義街167巷55號","121.498945","25.0824266666667","6500200","三重區"
"241016","262-UM","2018/09/13 20:49:50","新北市三重區長壽西街143-3號","121.494378333333","25.06676","6500200","三重區"
"241029","265-UM","2018/09/13 20:49:59","新北市三重區重安街14號","121.490141666667","25.05809","6500200","三重區"
"241009","267-UM","2018/09/13 20:50:02","新北市三重區三和路四段388-2號","121.48189","25.0790383333333","6500200","三重區"
"241018","268-UM","2018/09/13 20:49:45","新北市三重區正義北路279號","121.495085","25.0702316666667","6500200","三重區"
"241032","269-UM","2018/09/13 20:49:56","新北市三重區重陽路一段120巷35號","121.485083333333","25.0602483333333","6500200","三重區"
"241013","270-UM","2018/09/13 20:50:03","新北市三重區三和路三段68號","121.494906666667","25.0716316666667","6500200","三重區"
"241007","398-BY","2018/09/13 20:50:00","新北市三重區慈愛街10號","121.48455","25.0784733333333","6500200","三重區"
"241035","462-BY","2018/09/13 20:50:03","新北市三重區文化北路89號","121.498171666667","25.067805","6500200","三重區"
"241004","475-VK","2018/09/13 20:49:50","新北市三重區分子尾街21號","121.48958","25.0810716666667","6500200","三重區"
"241020","478-VK","2018/09/13 20:49:56","新北市三重區忠孝路一段101號","121.489398333333","25.072135","6500200","三重區"
"241030","480-VK","2018/09/13 20:49:58","新北市三重區昌隆街26號","121.491966666667","25.0522866666667","6500200","三重區"
"241014","543-UM","2018/09/13 20:49:46","新北市三重區萬全街61號","121.501195","25.0702216666667","6500200","三重區"
"241023","545-UM","2018/09/13 20:50:01","新北市三重區忠孝路三段84巷1號","121.480218333333","25.064545","6500200","三重區"
"241001","547-UM","2018/09/13 20:49:48","新北市三重區自強路三段79號","121.487288333333","25.07461","6500200","三重區"
"241019","KEA-2593","2018/09/13 20:49:47","新北市三重區三張街101號","121.489251666667","25.0703983333333","6500200","三重區"
"241006","AAD-863","2018/09/13 20:50:03","新北市三重區車路頭街139巷14號","121.484276666667","25.0762283333333","6500200","三重區"
"241031","743-BX","2018/09/13 20:50:02","新北市三重區重陽路一段113巷2弄1號","121.487583333333","25.059965","6500200","三重區"
"241005","887-TS","2018/09/13 20:47:29","新北市三重區五華街141巷60號","121.493475","25.0867483333333","6500200","三重區"
"241012","941-UM","2018/09/13 20:49:53","新北市三重區仁信街27號","121.501283333333","25.0755783333333","6500200","三重區"
"241033","AAC-255","2018/09/13 20:49:47","新北市三重區光復路二段1號","121.472208333333","25.0533316666667","6500200","三重區"
"235064","005-UY","2018/09/13 20:37:16","新北市中和區員山路36巷16-3號","121.484803333333","24.9918566666667","6500300","中和區"
"247012","KEA-2869","2018/09/13 20:50:02","新北市蘆洲區集賢路209號","121.483226666667","25.087245","6501400","蘆洲區"
"235069","4980-A6","2018/09/13 20:49:56","新北市中和區連城路469巷27號","121.483566666667","24.9949083333333","6500300","中和區"
"235046","733-UM","2018/09/13 20:50:03","新北市中和區建八路1號","121.485475","24.9987166666667","6500300","中和區"
"247002","893-R6","2018/09/13 20:49:48","新北市蘆洲區長安街248號","121.457613333333","25.0861766666667","6501400","蘆洲區"
"247016","546-UM","2018/09/13 20:49:59","新北市蘆洲區中正路71號","121.47042","25.082845","6501400","蘆洲區"
"247024","500-BY","2018/09/13 20:49:57","新北市蘆洲區長樂路136號","121.462116666667","25.0901083333333","6501400","蘆洲區"
"247006","337-TH","2018/09/13 20:49:58","新北市蘆洲區永安南路二段14號","121.467595","25.07683","6501400","蘆洲區"
"247008","336-TH","2018/09/13 20:49:52","新北市蘆洲區集賢路269巷17號","121.482036666667","25.0833683333333","6501400","蘆洲區"
"247020","057-VK","2018/09/13 20:50:01","新北市蘆洲區仁愛街75號","121.471466666667","25.093815","6501400","蘆洲區"
"247010","056-VK","2018/09/13 20:49:44","新北市蘆洲區鷺江街93號","121.47683","25.0839116666667","6501400","蘆洲區"
"247014","053-VK","2018/09/13 20:49:55","新北市蘆洲區三民路89號","121.474533333333","25.0844666666667","6501400","蘆洲區"
"247004","002-UY","2018/09/13 20:49:49","新北市蘆洲區長安街103號","121.461541666667","25.080845","6501400","蘆洲區"
"247022","001-UY","2018/09/13 20:49:50","新北市蘆洲區水湳街36-18號","121.470883333333","25.0892083333333","6501400","蘆洲區"
"222001","KEA-2212","2018/09/13 20:49:58","新北市深坑區北深路三段129號","121.604096666667","25.002585","6501800","深坑區"
"251015","008-UM","2018/09/13 20:50:04","新北市淡水區淡金路四段542巷17號","121.452728333333","25.2271116666667","6501000","淡水區"
"251001","011-UM","2018/09/13 20:49:59","新北市淡水區淡金路一段69號","121.458811666667","25.1731016666667","6501000","淡水區"
"251013","KEA-2871","2018/09/13 20:49:54","新北市淡水區行忠路167號","121.456621666667","25.2013383333333","6501000","淡水區"
"251016","179-VK","2018/09/13 20:49:48","新北市淡水區淡金路四段180號","121.451535","25.2212366666667","6501000","淡水區"
"251014","180-VK","2018/09/13 20:49:57","新北市淡水區公埔子32-8號","121.461661666667","25.232375","6501000","淡水區"
"251010","413-VK","2018/09/13 20:49:43","新北市淡水區沙崙路145號","121.423371666667","25.183025","6501000","淡水區"
"251012","441-VK","2018/09/13 20:49:54","新北市淡水區興仁路165號","121.451526666667","25.2200066666667","6501000","淡水區"
"251007","442-VK","2018/09/13 20:49:45","新北市淡水區學府路102巷66號","121.453543333333","25.1709983333333","6501000","淡水區"
"251011","650-BX","2018/09/13 20:50:02","新北市淡水區新民街一段13-1號","121.433028333333","25.1845583333333","6501000","淡水區"
"251002","672-BX","2018/09/13 20:49:59","新北市淡水區中正東路6號","121.447033333333","25.1671066666667","6501000","淡水區"
"251003","766-UM","2018/09/13 20:49:49","新北市淡水區中山北路一段247巷76號","121.442728333333","25.1794433333333","6501000","淡水區"
"242036","AAC-296","2018/09/13 20:49:55","新北市新莊區中正路449號","121.44308","25.0340683333333","6500500","新莊區"
"242056","751-BX","2018/09/13 20:49:55","新北市新莊區瓊泰路85號","121.443078333333","25.0294883333333","6500500","新莊區"
"242027","615-BX","2018/09/13 20:49:57","新北市板橋區金門街215巷81弄8號","121.434861666667","24.9889233333333","6500500","新莊區"
"242044","566-BX","2018/09/13 20:49:58","新北市新莊區龍安路108號","121.418368333333","25.0205033333333","6500500","新莊區"
"242053","441-UM","2018/09/13 20:49:56","新北市新莊區民安西路490號","121.432568333333","25.0072866666667","6500500","新莊區"
"242039","415-TV","2018/09/13 20:49:49","新北市新莊區環河路462號","121.440211666667","25.01962","6500500","新莊區"
"242046","400-BY","2018/09/13 20:49:50","新北市樹林區中正路286-2號","121.415581666667","25.0092433333333","6500500","新莊區"
"242061","353-BY","2018/09/13 20:49:47","新北市新莊區新樹路262號","121.43264","25.0148316666667","6500500","新莊區"
"242011","132-UY","2018/09/13 20:49:55","新北市新莊區中環路二段392-1號","121.442145","25.0457766666667","6500500","新莊區"
"242042","133-UY","2018/09/13 20:50:01","新北市新莊區富國路68號","121.419803333333","25.0258666666667","6500500","新莊區"
"242051","172-VK","2018/09/13 20:49:54","新北市新莊區民安東路141號","121.431548333333","25.0206283333333","6500500","新莊區"
"242002","347-TH","2018/09/13 20:49:43","新北市新莊區中港路五守新村1巷5號","121.455366666667","25.0381683333333","6500500","新莊區"
"242031","348-TH","2018/09/13 20:49:58","新北市新莊區中正路519號","121.439566666667","25.0333633333333","6500500","新莊區"
"242004","349-TH","2018/09/13 20:49:59","新北市新莊區環河路636-7號","121.437225","25.01201","6500500","新莊區"
"221036","130-UY","2018/09/13 20:49:58","新北市汐止區新台五路一段159號","121.65399","25.0624916666667","6501100","汐止區"
"221027","281-BY","2018/09/13 20:49:51","新北市汐止區汐萬路一段117號","121.654188333333","25.0709933333333","6501100","汐止區"
"221029","298-VK","2018/09/13 20:49:45","新北市汐止區樟樹二路339巷18號","121.641818333333","25.0713583333333","6501100","汐止區"
"221035","622-UM","2018/09/13 20:49:54","新北市汐止區汐萬路一段256巷3號","121.652233333333","25.07468","6501100","汐止區"
"221038","646-BX","2018/09/13 20:50:00","新北市汐止區汐萬路一段256巷1號","121.65204","25.0747316666667","6501100","汐止區"
"221002","707-TV","2018/09/13 20:49:43","新北市汐止區福德二路二段170號","121.62928","25.0649166666667","6501100","汐止區"
"221018","753-BX","2018/09/13 20:50:01","新北市汐止區大同路二段605號","121.664061666667","25.0706183333333","6501100","汐止區"
"242009","281-VK","2018/09/13 20:49:58","新北市新莊區思源路63號","121.459965","25.04041","6500500","新莊區"
"220070","AAC-253","2018/09/13 20:49:59","新北市八里區中山路三段409號","121.368751666667","25.1345766666667","6500100","板橋區"
