"lineid","car","time","location","longitude","latitude","cityid","cityname"
"248005","653-BX","2018/09/14 07:09:41","新北市五股區新五路二段85號","121.436696666667","25.0740533333333","6501500","五股區"
"232003","290-BY","2018/09/14 07:09:45","新北市坪林區大粗坑31號","121.711731666667","24.96673","6502000","坪林區"
"232015","291-BY","2018/09/14 07:09:41","新北市坪林區粗窟1號","121.682878333333","24.9380716666667","6502000","坪林區"
"232019","705-BZ","2018/09/14 07:09:44","新北市坪林區九芎坑5號","121.73307","24.9607183333333","6502000","坪林區"
"232008","758-BX","2018/09/14 07:09:29","新北市坪林區鶯子瀨3-7號","121.706","24.914205","6502000","坪林區"
"244004","248-BX","2018/09/14 07:09:43","新北市林口區寶林路98號","121.3747","25.090425","6501700","林口區"
"235001","611-BX","2018/09/14 07:09:42","新北市中和區圓通路367巷4號","121.491428333333","24.98929","6500300","中和區"
"226001","7418-A5","2018/09/14 07:09:33","新北市平溪區石底里公園街18-3號","121.734008333333","25.0252066666667","6502400","平溪區"
"226006","AGD-0702","2018/09/14 07:09:41","新北市平溪區嶺腳里嶺腳寮11號","121.747381666667","25.02987","6502400","平溪區"
"223006","022-BY","2018/09/14 07:06:41","新北市石碇區石碇西街20號","121.658843333333","24.9905666666667","6501900","石碇區"
"223002","KEA-2673","2018/09/14 07:09:31","新北市石碇區碇格路二段40號","121.636825","24.9556183333333","6501900","石碇區"
"223003","205-TH","2018/09/14 07:09:27","新北市石碇區烏塗窟14號","121.655986666667","24.9749916666667","6501900","石碇區"
"223004","437-BY","2018/09/14 07:09:32","新北市石碇區碇坪路一段16號","121.651748333333","25.0059466666667","6501900","石碇區"
"223001","592-UM","2018/09/14 07:09:27","新北市石碇區烏塗窟25號","121.656158333333","24.9750216666667","6501900","石碇區"
"223007","661-BX","2018/09/14 07:09:27","新北市石碇區番子坑14號","121.680046666667","25.000305","6501900","石碇區"
"223005","677-TV","2018/09/14 07:09:38","新北市石碇區碇坪路一段18號","121.651741666667","25.0058216666667","6501900","石碇區"
"227005","282-VK","2018/09/14 07:09:32","新北市雙溪區新基里自強路5號","121.866326666667","25.0390816666667","6502500","雙溪區"
"237004","756-BX","2018/09/14 07:09:28","新北市三峽區中山路459巷163-3號","121.348878333333","24.933085","6500900","三峽區"
"236004","165-UM","2018/09/14 07:09:29","新北市土城區中央路三段87號","121.437773333333","24.9679883333333","6501300","土城區"
"236004","339-SR","2018/09/14 07:09:47","新北市土城區承天路87巷2號","121.442","24.9619716666667","6501300","土城區"
