"lineid","car","time","location","longitude","latitude","cityid","cityname"
"232001","290-BY","2018/11/22 06:48:05","新北市坪林區鶯子瀨9-8號","121.71006","24.916945","6502000","坪林區"
"232014","291-BY","2018/11/22 06:48:09","新北市坪林區北宜路八段375號","121.70907","24.9321916666667","6502000","坪林區"
"232010","375-UM","2018/11/22 06:48:05","新北市坪林區北宜路八段347號","121.710801666667","24.9336983333333","6502000","坪林區"
"232018","705-BZ","2018/11/22 06:48:04","新北市坪林區北宜路八段453號","121.705423333333","24.9228333333333","6502000","坪林區"
"232007","758-BX","2018/11/22 06:48:10","新北市坪林區北宜路八段501號","121.706833333333","24.91982","6502000","坪林區"
"244003","410-SL","2018/11/22 06:47:58","新北市林口區粉寮路37-1號","121.401055","25.0848366666667","6501700","林口區"
"223006","022-BY","2018/11/22 06:48:02","新北市石碇區碇坪路一段18號","121.65175","25.00514","6501900","石碇區"
"223002","KEA-2673","2018/11/22 06:47:59","新北市石碇區烏塗窟36號","121.65512","24.9738333333333","6501900","石碇區"
"223003","205-TH","2018/11/22 06:48:19","新北市石碇區湳窟34-2號","121.66544","24.9942","6501900","石碇區"
"223008","406-TH","2018/11/22 06:47:58","新北市石碇區雙溪84-1號","121.661318333333","25.0089866666667","6501900","石碇區"
"223004","437-BY","2018/11/22 06:48:05","新北市石碇區碇坪路一段111號","121.664255","24.9883883333333","6501900","石碇區"
"223001","592-UM","2018/11/22 06:48:16","新北市石碇區湳窟37-1號","121.662676666667","24.994675","6501900","石碇區"
"223007","661-BX","2018/11/22 06:47:59","新北市石碇區雙溪33-6號","121.649841666667","25.0084616666667","6501900","石碇區"
"223005","677-TV","2018/11/22 06:48:19","新北市石碇區碇坪路一段111號","121.664066666667","24.98844","6501900","石碇區"
"227007","282-VK","2018/11/22 06:48:03","新北市雙溪區新基里自強路5-1號","121.866351666667","25.0391033333333","6502500","雙溪區"
"252007","AAC-283","2018/11/22 06:48:10","新北市三芝區埔坪里埔頭坑41號","121.504563333333","25.2645816666667","6502100","三芝區"
