"lineid","car","time","location","longitude","latitude","cityid","cityname"
"232001","290-BY","2018/11/22 07:48:05","新北市坪林區下坑子口18-2號","121.709325","24.94654","6502000","坪林區"
"232014","291-BY","2018/11/22 07:48:10","新北市坪林區九芎根4-1號","121.666153333333","24.8850616666667","6502000","坪林區"
"232010","375-UM","2018/11/22 07:48:05","新北市坪林區厚德岡坑3號","121.73221","24.9408366666667","6502000","坪林區"
"232007","758-BX","2018/11/22 07:48:10","新北市坪林區魚堀49號","121.700746666667","24.93008","6502000","坪林區"
"244022","069-UM","2018/11/22 07:48:17","新北市林口區粉寮69號","121.405061666667","25.0907433333333","6501700","林口區"
"244012","KEA-2802","2018/11/22 07:48:02","新北市林口區粉寮69號","121.404795","25.0907933333333","6501700","林口區"
"244003","410-SL","2018/11/22 07:48:18","新北市林口區頂福里77-3號","121.336841666667","25.096035","6501700","林口區"
"222006","289-BY","2018/11/22 07:48:04","新北市深坑區文化街45號","121.616898333333","25.00172","6501800","深坑區"
"231008","192-VK","2018/11/22 07:48:02","新北市新店區安一路一段1-1號","121.519111666667","24.961305","6500600","新店區"
"226005","5620-A6","2018/11/22 07:48:17","新北市平溪區靜安路二段440號","121.740095","25.0249416666667","6502400","平溪區"
"226007","7418-A5","2018/11/22 07:48:09","新北市平溪區平湖里大湖9號","121.780623333333","25.0263933333333","6502400","平溪區"
"226003","AGD-0702","2018/11/22 07:36:50","新北市平溪區嶺腳里嶺腳寮85號","121.74888","25.03535","6502400","平溪區"
"223006","022-BY","2018/11/22 07:48:17","新北市石碇區番子坑56號","121.676381666667","25.01054","6501900","石碇區"
"223002","KEA-2673","2018/11/22 07:47:38","新北市石碇區北宜路五段土巷10號","121.62726","24.9441016666667","6501900","石碇區"
"223003","205-TH","2018/11/22 07:48:19","新北市石碇區蛇舌子12號","121.664031666667","24.969915","6501900","石碇區"
"223004","437-BY","2018/11/22 07:48:02","新北市石碇區楓子林36-3號","121.64234","25.0095183333333","6501900","石碇區"
"223001","592-UM","2018/11/22 07:48:16","新北市石碇區蛇舌子12號","121.664058333333","24.969855","6501900","石碇區"
"223007","661-BX","2018/11/22 07:45:23","新北市石碇區靜安路一段337號","121.698891666667","25.0143883333333","6501900","石碇區"
"223005","677-TV","2018/11/22 07:48:19","新北市石碇區楓子林30號","121.64229","25.0095983333333","6501900","石碇區"
"227007","282-VK","2018/11/22 07:48:08","新北市雙溪區雙溪里太平路54號","121.864763333333","25.0354666666667","6502500","雙溪區"
"252004","249-BX","2018/11/22 07:48:14","新北市三芝區店子里菜公坑102號","121.517443333333","25.2071066666667","6502100","三芝區"
"252007","AAC-283","2018/11/22 07:48:09","新北市三芝區錫板里海尾14-35號","121.477541666667","25.2591866666667","6502100","三芝區"
"237001","159-UY","2018/11/22 07:48:12","新北市三峽區國慶路138號","121.375893333333","24.939635","6500900","三峽區"
"242057","986-R7","2018/11/22 07:48:09","新北市泰山區磚雅厝3號","121.44212","25.041615","6500500","新莊區"
"242055","751-BX","2018/11/22 07:48:07","新北市新莊區中正路386號","121.441803333333","25.034775","6500500","新莊區"
"242028","705-TV","2018/11/22 07:48:06","新北市新莊區幸福路672號","121.450978333333","25.0492416666667","6500500","新莊區"
"242026","615-BX","2018/11/22 07:48:09","新北市新莊區中港路351號","121.452018333333","25.0457733333333","6500500","新莊區"
"242024","613-BX","2018/11/22 07:48:07","新北市新莊區中平路107號","121.444763333333","25.046345","6500500","新莊區"
"242043","566-BX","2018/11/22 07:48:02","新北市新莊區中正路386號","121.44185","25.03489","6500500","新莊區"
"242047","497-BY","2018/11/22 07:47:59","新北市新莊區中正路480號","121.438335","25.0333166666667","6500500","新莊區"
"242045","442-UM","2018/11/22 07:48:02","新北市新莊區中正路400號","121.441861666667","25.034585","6500500","新莊區"
"242052","441-UM","2018/11/22 07:48:19","新北市新莊區環河路506號","121.438756666667","25.016535","6500500","新莊區"
"242001","440-UM","2018/11/22 07:48:07","新北市新莊區中正路400號","121.441853333333","25.034365","6500500","新莊區"
"242038","415-TV","2018/11/22 07:48:06","新北市新莊區新樹路209號","121.435666666667","25.0235633333333","6500500","新莊區"
"242008","413-TV","2018/11/22 07:48:04","新北市新莊區新泰路413巷25號","121.44246","25.0442883333333","6500500","新莊區"
"242022","362-BY","2018/11/22 07:48:00","新北市新莊區中平路116號","121.4448","25.0463216666667","6500500","新莊區"
"242059","353-BY","2018/11/22 07:48:17","新北市新莊區三和路10號","121.44197","25.0357983333333","6500500","新莊區"
"242010","132-UY","2018/11/22 07:48:07","新北市新莊區新泰路357巷2號","121.442493333333","25.0416666666667","6500500","新莊區"
"242033","135-UY","2018/11/22 07:48:15","新北市新莊區中正路384-1號","121.442121666667","25.0351733333333","6500500","新莊區"
"242012","173-VK","2018/11/22 07:47:59","新北市新莊區三和路12-21號","121.442063333333","25.0385683333333","6500500","新莊區"
"242018","175-VK","2018/11/22 07:48:05","新北市新莊區中港路303號","121.45285","25.0445616666667","6500500","新莊區"
"242006","176-VK","2018/11/22 07:48:18","新北市新莊區新泰路381巷38號","121.442405","25.0435783333333","6500500","新莊區"
"242016","346-TH","2018/11/22 07:48:00","新北市新莊區新泰路502巷41弄2號","121.443825","25.046415","6500500","新莊區"
"242030","348-TH","2018/11/22 07:48:10","新北市新莊區新泰路462號","121.443341666667","25.0447966666667","6500500","新莊區"
"242003","349-TH","2018/11/22 07:48:04","新北市新莊區復興路一段85號","121.448403333333","25.0426933333333","6500500","新莊區"
"242020","350-TH","2018/11/22 07:48:14","新北市新莊區中港路304號","121.452688333333","25.045005","6500500","新莊區"
"242014","351-TH","2018/11/22 07:48:10","新北市新莊區新泰路349號","121.444683333333","25.042235","6500500","新莊區"
"242040","281-VK","2018/11/22 07:48:15","新北市新莊區中正路386號","121.441778333333","25.0350716666667","6500500","新莊區"
"242049","280-VK","2018/11/22 07:48:11","新北市新莊區瓊林南路75-2號","121.434925","25.0142816666667","6500500","新莊區"
