"lineid","car","time","location","longitude","latitude","cityid","cityname"
"234044","148-BY","2018/12/29 12:59:20","新北市永和區得和路373巷29號","121.525066666667","25.0003","6500400","永和區"
"234078","298-R6","2018/12/29 12:59:28","新北市永和區國中路156號","121.522568333333","25.00674","6500400","永和區"
"234036","336-UY","2018/12/29 12:59:27","新北市永和區成功路二段207號","121.52655","24.9959383333333","6500400","永和區"
"234062","337-UY","2018/12/29 12:59:11","新北市永和區秀朗路一段154號","121.518321666667","25.0034316666667","6500400","永和區"
"234084","338-UY","2018/12/29 12:59:19","新北市永和區永利路20號","121.518118333333","25.0058666666667","6500400","永和區"
"234068","552-UM","2018/12/29 12:59:28","新北市永和區中興街52巷1弄19號","121.5175","25.0114533333333","6500400","永和區"
"234015","745-BX","2018/12/29 12:59:28","新北市永和區永和路二段299號","121.516081666667","25.0161883333333","6500400","永和區"
"234028","746-BX","2018/12/29 12:59:31","新北市永和區四維街36號","121.525531666667","24.9981016666667","6500400","永和區"
"234052","KEA-2590","2018/12/29 12:59:21","新北市永和區竹林路66巷2號","121.51823","25.0133583333333","6500400","永和區"
"234005","839-RS","2018/12/29 12:59:20","新北市永和區中山路一段30號","121.513665","25.0105283333333","6500400","永和區"
"234012","KEA-2591","2018/12/29 12:59:20","新北市永和區信義路15號","121.514278333333","25.0119866666667","6500400","永和區"
"234060","AAD-866","2018/12/29 12:59:27","新北市永和區福和路309巷1號","121.516343333333","25.0070883333333","6500400","永和區"
"234040","862-TW","2018/12/29 12:59:24","新北市永和區永貞路308號","121.511873333333","25.0049133333333","6500400","永和區"
"234048","863-TW","2018/12/29 12:59:29","新北市永和區保安路2號","121.510815","25.0174166666667","6500400","永和區"
"234025","9371-KE","2018/12/29 12:59:30","新北市永和區水源街2巷5-1號","121.512326666667","25.00552","6500400","永和區"
"234010","9373-KE","2018/12/29 12:59:25","新北市永和區文化路113巷15號","121.513046666667","25.0141566666667","6500400","永和區"
"234022","9380-KE","2018/12/29 12:59:13","新北市永和區竹林路72巷2號","121.518916666667","25.013135","6500400","永和區"
"234076","969-R7","2018/12/29 12:59:24","新北市永和區民享街3號","121.515083333333","24.99564","6500400","永和區"
"234066","AAC-212","2018/12/29 12:59:14","新北市永和區自由街70-8號","121.513471666667","25.005475","6500400","永和區"
"234001","AAC-295","2018/12/29 12:59:21","新北市永和區永平路28號","121.513201666667","25.008835","6500400","永和區"
"244005","248-BX","2018/12/29 12:59:16","新北市林口區中山路150號","121.3912","25.07881","6501700","林口區"
"231002","002-UM","2018/12/29 12:59:14","新北市新店區安華路28-1號","121.519721666667","24.9608033333333","6500600","新店區"
"231028","046-UY","2018/12/29 12:59:32","新北市新店區安華路28-1號","121.519541666667","24.96082","6500600","新店區"
"231001","047-UY","2018/12/29 12:59:19","新北市新店區安華路28-1號","121.519246666667","24.9609433333333","6500600","新店區"
"231005","106-UY","2018/12/29 12:59:28","新北市新店區安華路28-1號","121.519616666667","24.9608016666667","6500600","新店區"
"231010","107-UY","2018/12/29 12:59:23","新北市新店區安一路一段1-1號","121.519365","24.9615866666667","6500600","新店區"
"231020","108-UY","2018/12/29 12:59:25","新北市新店區安一路一段1-1號","121.519605","24.961095","6500600","新店區"
"231012","187-VK","2018/12/29 12:59:19","新北市新店區安一路一段1-1號","121.519598333333","24.9611816666667","6500600","新店區"
"231023","188-VK","2018/12/29 12:59:25","新北市新店區安一路一段1-1號","121.519153333333","24.9612483333333","6500600","新店區"
"231036","260-TV","2018/12/29 12:59:12","新北市新店區安一路一段1-1號","121.519251666667","24.9612866666667","6500600","新店區"
"231003","268-BY","2018/12/29 12:59:17","新北市新店區安一路一段1-1號","121.519655","24.9611533333333","6500600","新店區"
"231018","278-BY","2018/12/29 12:59:24","新北市新店區安一路一段1-1號","121.519811666667","24.96117","6500600","新店區"
"231017","AAD-862","2018/12/29 12:59:13","新北市新店區安華路28-1號","121.519675","24.961025","6500600","新店區"
"231004","355-BY","2018/12/29 12:59:14","新北市新店區安華路28-1號","121.519286666667","24.9609383333333","6500600","新店區"
"231037","4716-K9","2018/12/29 12:59:29","新北市新店區安一路一段1-1號","121.519256666667","24.96121","6500600","新店區"
"231013","513-UM","2018/12/29 12:59:13","新北市新店區安一路一段1-1號","121.519636666667","24.96114","6500600","新店區"
"231030","619-UM","2018/12/29 12:59:18","新北市新店區安華路28-1號","121.519471666667","24.960885","6500600","新店區"
"231035","719-UM","2018/12/29 12:59:28","新北市新店區安一路一段1-1號","121.519561666667","24.9614733333333","6500600","新店區"
"231033","720-UM","2018/12/29 12:59:31","新北市新店區安一路一段1-1號","121.519351666667","24.9611433333333","6500600","新店區"
"231029","897-TW","2018/12/29 12:59:19","新北市新店區安華路28-1號","121.519551666667","24.9606566666667","6500600","新店區"
"231024","AKT-0513","2018/12/29 12:59:15","新北市新店區安一路一段1-1號","121.519313333333","24.961165","6500600","新店區"
"235027","006-UY","2018/12/29 12:59:19","新北市中和區員山路36巷16-3號","121.484956666667","24.99156","6500300","中和區"
"235022","151-BY","2018/12/29 12:59:28","新北市中和區圓通路367巷12號","121.491601666667","24.988995","6500300","中和區"
"235002","185-VK","2018/12/29 12:59:10","新北市中和區成功路6號","121.52619","24.99396","6500300","中和區"
"235031","255-BX","2018/12/29 12:59:25","新北市中和區中正路893號","121.48421","25.0045816666667","6500300","中和區"
"235018","640-BX","2018/12/29 12:59:27","新北市中和區員山路36巷16-6號","121.485223333333","24.9921266666667","6500300","中和區"
"235035","783-BX","2018/12/29 12:59:22","新北市中和區新生街154號","121.483611666667","25.000515","6500300","中和區"
"235026","800-TS","2018/12/29 12:59:25","新北市中和區和城路一段271巷1號","121.485435","24.9920533333333","6500300","中和區"
"235021","801-TS","2018/12/29 12:59:18","新北市中和區員山路36巷16-3號","121.484826666667","24.9916433333333","6500300","中和區"
"235041","802-TS","2018/12/29 12:59:22","新北市中和區和城路一段271巷1號","121.48546","24.99169","6500300","中和區"
"235017","900-TW","2018/12/29 12:59:16","新北市中和區員山路36巷16-3號","121.484946666667","24.9917233333333","6500300","中和區"
"235029","911-UM","2018/12/29 12:59:15","新北市中和區中山路二段315巷1號","121.494666666667","25.0014766666667","6500300","中和區"
"235015","157-BY","2018/12/29 12:58:36","新北市中和區員山路36巷13號","121.484358333333","24.9908283333333","6500300","中和區"
"235001","AAC-213","2018/12/29 12:59:27","新北市中和區員山路36巷13號","121.484238333333","24.99148","6500300","中和區"
"228005","097-TW","2018/12/29 12:59:27","新北市貢寮區福隆里興隆街36號","121.942498333333","25.0166716666667","6502600","貢寮區"
"228004","212-TW","2018/12/29 12:59:17","新北市貢寮區吉林里內寮街10號","121.888401666667","24.99029","6502600","貢寮區"
"253003","6232-TK","2018/12/29 12:59:30","新北市石門區中山路34-1號","121.566246666667","25.290125","6502200","石門區"
"253004","6251-TK","2018/12/29 12:59:16","新北市石門區中山路64-1號","121.567323333333","25.290455","6502200","石門區"
"253001","KEC-0718","2018/12/29 12:59:11","新北市石門區中央路6號","121.56657","25.2913783333333","6502200","石門區"
"207002","749-BX","2018/12/29 12:59:13","新北市萬里區雙興里大坪路39號","121.625543333333","25.1714633333333","6502800","萬里區"
"252005","073-UM","2018/12/29 12:59:13","新北市三芝區忠孝街85號","121.50589","25.2567983333333","6502100","三芝區"
"207001","662-BX","2018/12/29 12:59:15","新北市萬里區萬里里獅頭路22-1號","121.69298","25.178135","6502800","萬里區"
"221032","280-BY","2018/12/29 12:59:09","新北市汐止區水源路一段3號","121.657286666667","25.0671866666667","6501100","汐止區"
"221029","298-VK","2018/12/29 12:59:19","新北市汐止區康寧街463號","121.63165","25.0684916666667","6501100","汐止區"
"221033","647-BX","2018/12/29 12:59:27","新北市汐止區新江北路30巷15號","121.652753333333","25.0687516666667","6501100","汐止區"
"235032","KEA-2873","2018/12/29 12:59:07","新北市中和區員山路36巷16-3號","121.485025","24.9912916666667","6500300","中和區"
