"lineid","car","time","location","longitude","latitude","cityid","cityname"
"234044","148-BY","2018/12/29 14:19:20","新北市永和區永元路126號","121.522786666667","25.0028966666667","6500400","永和區"
"234078","298-R6","2018/12/29 14:19:28","新北市永和區國中路132巷16號","121.524035","25.00765","6500400","永和區"
"234036","336-UY","2018/12/29 14:19:27","新北市永和區成功路一段1號","121.527353333333","25.0054116666667","6500400","永和區"
"234062","337-UY","2018/12/29 14:19:33","新北市永和區得和路124號","121.518736666667","25.00017","6500400","永和區"
"234084","338-UY","2018/12/29 14:19:23","新北市永和區永和路二段37號","121.514588333333","25.0106783333333","6500400","永和區"
"234068","552-UM","2018/12/29 14:19:28","新北市永和區福和路239號","121.518426666667","25.007395","6500400","永和區"
"234028","746-BX","2018/12/29 14:19:31","新北市永和區民權路49巷5弄29號","121.521393333333","24.99781","6500400","永和區"
"234052","KEA-2590","2018/12/29 14:19:20","新北市永和區光復街2巷26弄1號","121.517616666667","25.0165733333333","6500400","永和區"
"234005","839-RS","2018/12/29 14:19:19","新北市永和區中正路579號","121.516703333333","25.0089583333333","6500400","永和區"
"234012","KEA-2591","2018/12/29 14:19:20","新北市永和區保生路24號","121.506625","25.0075333333333","6500400","永和區"
"234060","AAD-866","2018/12/29 14:19:27","新北市永和區安樂路194巷1號","121.515233333333","25.0013416666667","6500400","永和區"
"234040","862-TW","2018/12/29 14:19:24","新北市中和區安平路182號","121.512925","24.9989033333333","6500400","永和區"
"234048","863-TW","2018/12/29 14:19:29","新北市永和區新生路87號","121.508355","25.0158583333333","6500400","永和區"
"234025","9371-KE","2018/12/29 14:19:29","新北市永和區安樂路144巷19號","121.514716666667","25.0001316666667","6500400","永和區"
"248018","225-UY","2018/12/29 14:19:30","新北市五股區壟路7-2號","121.41631","25.0896566666667","6501500","五股區"
"234076","969-R7","2018/12/29 14:19:23","新北市永和區民族街81巷48號","121.519796666667","24.996495","6500400","永和區"
"234072","AAC-211","2018/12/29 14:19:18","新北市永和區竹林路119巷30弄9號","121.522525","25.01161","6500400","永和區"
"234066","AAC-212","2018/12/29 14:19:14","新北市永和區保平路268巷51弄20號","121.506818333333","25.0061016666667","6500400","永和區"
"234001","AAC-295","2018/12/29 14:19:21","新北市永和區中正路523號","121.516908333333","25.0075216666667","6500400","永和區"
"231002","002-UM","2018/12/29 14:19:14","新北市新店區中央路137號","121.530185","24.973625","6500600","新店區"
"231027","0293-UT","2018/12/29 14:19:31","新北市新店區檳榔路22巷15號","121.540855","24.963755","6500600","新店區"
"231028","046-UY","2018/12/29 14:19:31","新北市新店區安和路二段138號","121.519471666667","24.9725183333333","6500600","新店區"
"231001","047-UY","2018/12/29 14:19:19","新北市新店區北新路一段96巷23號","121.543043333333","24.9688316666667","6500600","新店區"
"231005","106-UY","2018/12/29 14:19:28","新北市新店區中興路三段195號","121.54386","24.981415","6500600","新店區"
"231020","108-UY","2018/12/29 14:19:25","新北市新店區桂山路2-1號","121.55704","24.9041666666667","6500600","新店區"
"231012","187-VK","2018/12/29 14:19:19","新北市新店區五峰路63巷10號","121.546595","24.968535","6500600","新店區"
"231023","188-VK","2018/12/29 14:19:24","新北市新店區光明街138巷13弄1號","121.54032","24.9611233333333","6500600","新店區"
"231036","260-TV","2018/12/29 14:19:11","新北市新店區安祥路109巷6弄47號","121.475516666667","24.9573733333333","6500600","新店區"
"231003","268-BY","2018/12/29 14:19:16","新北市新店區中興路一段191號","121.543276666667","24.96498","6500600","新店區"
"231018","278-BY","2018/12/29 14:19:24","新北市新店區中央五街23號","121.529331666667","24.97461","6500600","新店區"
"231017","AAD-862","2018/12/29 14:19:12","新北市新店區北宜路三段106號","121.579723333333","24.9503783333333","6500600","新店區"
"231004","355-BY","2018/12/29 14:19:34","新北市新店區中正路252號","121.539373333333","24.9732816666667","6500600","新店區"
"231038","3712-VJ","2018/12/29 14:19:15","新北市新店區溪洲路6巷40-1號","121.53366","24.9629583333333","6500600","新店區"
"231037","4716-K9","2018/12/29 14:19:29","新北市新店區安康路二段341巷28號","121.497106666667","24.954515","6500600","新店區"
"231013","513-UM","2018/12/29 14:19:16","新北市新店區大豐路67號","121.539426666667","24.979565","6500600","新店區"
"231030","619-UM","2018/12/29 14:19:18","新北市新店區安民街65巷17-1號","121.515361666667","24.9669166666667","6500600","新店區"
"231034","641-BX","2018/12/29 14:19:13","新北市新店區車子路11號","121.503065","24.95211","6500600","新店區"
"231035","719-UM","2018/12/29 14:19:28","新北市新店區安和路二段113巷1弄6號","121.518173333333","24.969925","6500600","新店區"
"231033","720-UM","2018/12/29 14:19:31","新北市新店區溪洲路163-2號","121.530938333333","24.9644416666667","6500600","新店區"
"231029","897-TW","2018/12/29 14:19:19","新北市新店區安康路二段159巷2號","121.51025","24.9592633333333","6500600","新店區"
"231006","898-TW","2018/12/29 14:19:19","新北市新店區北宜路二段458號","121.570411666667","24.9566416666667","6500600","新店區"
"235030","003-UY","2018/12/29 14:19:27","新北市中和區中和路104號","121.502803333333","24.99973","6500300","中和區"
"235028","005-UY","2018/12/29 14:19:13","新北市中和區中和路115號","121.501503333333","25.00026","6500300","中和區"
"235027","006-UY","2018/12/29 14:19:19","新北市中和區連勝街135號","121.494841666667","24.9957033333333","6500300","中和區"
"235020","096-UM","2018/12/29 14:19:16","新北市中和區民富街34號","121.476751666667","25.0065433333333","6500300","中和區"
"235003","097-UM","2018/12/29 14:19:16","新北市中和區秀峰街86號","121.519691666667","24.990985","6500300","中和區"
"235004","150-BY","2018/12/29 14:19:15","新北市中和區保健路106巷71號","121.51143","24.9946033333333","6500300","中和區"
"235022","151-BY","2018/12/29 14:19:28","新北市中和區員山路36巷16-2號","121.485225","24.9916683333333","6500300","中和區"
"235019","183-VK","2018/12/29 14:19:21","新北市中和區中山路三段179巷21號","121.473483333333","25.0058683333333","6500300","中和區"
"235002","185-VK","2018/12/29 14:19:29","新北市中和區大仁街10巷53號","121.520065","24.992505","6500300","中和區"
"235013","186-VK","2018/12/29 14:19:23","新北市中和區景新街295巷25號","121.511068333333","24.9934566666667","6500300","中和區"
"235031","255-BX","2018/12/29 14:19:25","新北市中和區連城路284號","121.484333333333","24.99624","6500300","中和區"
"235044","293-VK","2018/12/29 14:19:19","新北市中和區中興街250號","121.499538333333","24.9881016666667","6500300","中和區"
"235006","KEA-2878","2018/12/29 14:19:16","新北市中和區安樂路217巷35弄12號","121.514081666667","24.9977266666667","6500300","中和區"
"247011","KEA-2869","2018/12/29 14:19:18","新北市蘆洲區民權路3巷18號","121.475688333333","25.08527","6501400","蘆洲區"
"247005","KED-0682","2018/12/29 14:19:30","新北市蘆洲區長安街26號","121.464183333333","25.0793483333333","6501400","蘆洲區"
"235014","4979-A6","2018/12/29 14:19:25","新北市中和區景安路208巷28號","121.502848333333","24.9916833333333","6500300","中和區"
"235033","4980-A6","2018/12/29 14:19:27","新北市中和區福美路301巷23號","121.497665","25.00396","6500300","中和區"
"235034","558-UM","2018/12/29 14:19:32","新北市中和區中山路二段211-1號","121.498836666667","25.0025416666667","6500300","中和區"
"235009","565-BX","2018/12/29 14:19:16","新北市中和區景新街423巷33弄4號","121.513838333333","24.9899133333333","6500300","中和區"
"235018","640-BX","2018/12/29 14:19:26","新北市中和區國光街110號","121.469993333333","25.0006533333333","6500300","中和區"
"235024","647-TV","2018/12/29 14:19:20","新北市中和區中山路三段61號","121.476685","25.0057233333333","6500300","中和區"
"235011","732-UM","2018/12/29 14:19:15","新北市中和區和平街38巷8號","121.509328333333","24.9907616666667","6500300","中和區"
"235010","733-UM","2018/12/29 14:19:26","新北市中和區忠孝街2巷13弄2號","121.510463333333","24.9819166666667","6500300","中和區"
"235035","783-BX","2018/12/29 14:19:22","新北市中和區中正路719號","121.485105","24.9987583333333","6500300","中和區"
"235026","800-TS","2018/12/29 14:19:25","新北市中和區中山路二段526巷19號","121.485815","25.00561","6500300","中和區"
"235021","801-TS","2018/12/29 14:19:17","新北市中和區員山路423巷9號","121.480536666667","25.0031483333333","6500300","中和區"
"235005","802-TS","2018/12/29 14:19:22","新北市中和區安平路120號","121.511935","24.9976066666667","6500300","中和區"
"235016","805-TS","2018/12/29 14:19:30","新北市中和區興南路二段149號","121.505066666667","24.9836133333333","6500300","中和區"
"235012","896-TW","2018/12/29 14:19:27","新北市中和區華新街109巷1號","121.508906666667","24.9825366666667","6500300","中和區"
"235017","900-TW","2018/12/29 14:19:16","新北市中和區華安街17巷6-1號","121.466921666667","24.9982183333333","6500300","中和區"
"235029","911-UM","2018/12/29 14:19:14","新北市中和區中山路二段64巷14弄26號","121.503926666667","25.00621","6500300","中和區"
"235015","157-BY","2018/12/29 14:19:21","新北市中和區景平路239巷33弄16號","121.509401666667","24.9921166666667","6500300","中和區"
"235001","AAC-213","2018/12/29 14:19:26","新北市中和區自立路15巷27號","121.523333333333","24.99596","6500300","中和區"
"235023","AAC-215","2018/12/29 14:19:30","新北市中和區圓通路252巷5弄38號","121.492168333333","24.9914966666667","6500300","中和區"
"220013","072-UY","2018/12/29 14:19:19","新北市板橋區國泰街78號","121.467331666667","25.0065983333333","6500100","板橋區"
"220034","073-UY","2018/12/29 14:19:23","新北市板橋區中正路214號","121.456026666667","25.0183933333333","6500100","板橋區"
"220105","075-UY","2018/12/29 14:19:27","新北市板橋區江寧路三段83-2號","121.472506666667","25.032525","6500100","板橋區"
"220017","AAD-861","2018/12/29 14:19:28","新北市板橋區貴興路59號","121.457315","25.003105","6500100","板橋區"
"247001","893-R6","2018/12/29 14:19:23","新北市蘆洲區永樂街108號","121.4557","25.0888933333333","6501400","蘆洲區"
"247015","546-UM","2018/12/29 14:19:23","新北市蘆洲區中正路185巷31弄16號","121.4666","25.0838266666667","6501400","蘆洲區"
"247023","500-BY","2018/12/29 14:19:14","新北市蘆洲區長榮路661號","121.460171666667","25.091335","6501400","蘆洲區"
"247009","336-TH","2018/12/29 14:19:12","新北市蘆洲區三民路26巷24號","121.477485","25.0829866666667","6501400","蘆洲區"
"247019","057-VK","2018/12/29 14:19:31","新北市蘆洲區仁愛街35巷12號","121.47151","25.092685","6501400","蘆洲區"
"247013","053-VK","2018/12/29 14:19:27","新北市蘆洲區成功路77-1號","121.473165","25.0808666666667","6501400","蘆洲區"
"247017","007-UY","2018/12/29 14:19:06","新北市蘆洲區民權路132-2號","121.47316","25.0887933333333","6501400","蘆洲區"
"247003","002-UY","2018/12/29 14:19:13","新北市蘆洲區長安街172巷35弄15號","121.460158333333","25.0846983333333","6501400","蘆洲區"
"247021","001-UY","2018/12/29 14:19:11","新北市蘆洲區中正路482號","121.463021666667","25.095785","6501400","蘆洲區"
"235036","251-BX","2018/12/29 14:19:24","新北市中和區福美路316號","121.496685","25.0047683333333","6500300","中和區"
"228005","097-TW","2018/12/29 14:19:27","新北市貢寮區美豐里雞母嶺街67號","121.896756666667","25.064125","6502600","貢寮區"
"228004","212-TW","2018/12/29 14:19:17","新北市貢寮區雙玉里田寮洋街43號","121.926121666667","25.0129216666667","6502600","貢寮區"
"253003","6232-TK","2018/12/29 14:19:30","新北市石門區尖子鹿31-1號","121.579461666667","25.2669366666667","6502200","石門區"
"253004","6251-TK","2018/12/29 14:19:16","新北市石門區內阿里磅2-1號","121.590555","25.254015","6502200","石門區"
"253002","637-UY","2018/12/29 14:17:17","新北市三芝區橫山里橫山39-7號","121.545803333333","25.2538566666667","6502200","石門區"
"253001","KEC-0718","2018/12/29 14:19:31","新北市石門區八甲13-1號","121.523146666667","25.28071","6502200","石門區"
"207002","749-BX","2018/12/29 14:19:33","新北市萬里區溪底里溪底路21號","121.612946666667","25.1492133333333","6502800","萬里區"
"252005","073-UM","2018/12/29 14:19:13","新北市三芝區橫山里橫山21號","121.540233333333","25.2627316666667","6502100","三芝區"
"207001","662-BX","2018/12/29 14:19:15","新北市萬里區磺潭里清水18號","121.638023333333","25.1975966666667","6502800","萬里區"
"236068","105-UM","2018/12/29 14:19:16","新北市土城區明德路一段101號","121.4656","24.98281","6501300","土城區"
"236040","KED-0685","2018/12/29 14:19:10","新北市土城區裕民路3巷32號","121.448598333333","24.98654","6501300","土城區"
"236074","166-UM","2018/12/29 14:19:26","新北市土城區中央路三段281巷23弄11號","121.426168333333","24.96181","6501300","土城區"
"236029","253-BX","2018/12/29 14:19:31","新北市土城區順風路44號","121.440351666667","24.9769833333333","6501300","土城區"
"236024","269-VK","2018/12/29 14:19:15","新北市土城區承天路65號","121.439415","24.9637983333333","6501300","土城區"
"236013","270-VK","2018/12/29 14:19:27","新北市土城區青雲路39巷7號","121.46034","24.9875616666667","6501300","土城區"
"236032","271-VK","2018/12/29 14:19:17","新北市土城區青雲路483巷9號","121.459403333333","24.9736133333333","6501300","土城區"
"247007","KED-0683","2018/12/29 14:19:19","新北市蘆洲區民生街30號","121.474701666667","25.0789216666667","6501400","蘆洲區"
"236017","401-BY","2018/12/29 14:19:26","新北市土城區明德路一段369號","121.455648333333","24.9779333333333","6501300","土城區"
"236057","912-UM","2018/12/29 14:19:29","新北市土城區中央路四段406號","121.412355","24.9537933333333","6501300","土城區"
"236045","913-UM","2018/12/29 14:19:28","新北市土城區明德路一段369號","121.45576","24.9778683333333","6501300","土城區"
"236060","915-UM","2018/12/29 14:19:24","新北市土城區金城路三段202-3號","121.469501666667","24.9885783333333","6501300","土城區"
"236054","AAC-216","2018/12/29 14:19:17","新北市土城區中華路二段174號","121.43741","24.9719433333333","6501300","土城區"
"242017","346-TH","2018/12/29 14:19:12","新北市新莊區新莊路194號","121.45398","25.0349016666667","6500500","新莊區"
"221029","298-VK","2018/12/29 14:19:19","新北市新店區安忠路205巷8號","121.508606666667","24.9546766666667","6501100","汐止區"
"221033","647-BX","2018/12/29 14:19:27","台北市文山區老泉街45巷18-1號","121.576765","24.976305","6501100","汐止區"
"220027","145-BY","2018/12/29 14:19:28","新北市板橋區光正街23巷48號","121.461546666667","25.0155433333333","6500100","板橋區"
"220028","200-UY","2018/12/29 14:19:30","新北市板橋區大觀路二段19巷28號","121.447678333333","25.0031566666667","6500100","板橋區"
"220030","610-BX","2018/12/29 14:19:31","新北市板橋區篤行路三段95號","121.426406666667","24.98483","6500100","板橋區"
"220040","267-BY","2018/12/29 14:19:25","新北市板橋區縣民大道三段231號","121.480991666667","25.0257083333333","6500100","板橋區"
"220004","276-BY","2018/12/29 14:19:24","新北市板橋區信義路279巷21號","121.464325","24.99023","6500100","板橋區"
"220020","277-BY","2018/12/29 14:19:24","新北市板橋區篤行路二段141巷25號","121.4307","24.9877466666667","6500100","板橋區"
"220050","280-UM","2018/12/29 14:19:29","新北市板橋區莊敬路208巷4弄2號","121.471633333333","25.0209916666667","6500100","板橋區"
"220019","283-VK","2018/12/29 14:19:33","新北市板橋區大豐街18號","121.462221666667","25.0014716666667","6500100","板橋區"
"220043","285-UM","2018/12/29 14:19:13","新北市板橋區吳鳳路50巷42弄2號","121.470298333333","25.0303933333333","6500100","板橋區"
"220001","285-VK","2018/12/29 14:19:28","新北市板橋區縣民大道三段270巷17號","121.478683333333","25.022945","6500100","板橋區"
"220031","286-VK","2018/12/29 14:19:21","新北市板橋區龍興街73巷2號","121.44401","25.0021833333333","6500100","板橋區"
"220029","287-VK","2018/12/29 14:19:28","新北市板橋區南雅西路一段88號","121.453275","25.0058666666667","6500100","板橋區"
"220039","288-VK","2018/12/29 14:19:30","新北市板橋區裕民街49號","121.46132","25.028575","6500100","板橋區"
"220009","293-UM","2018/12/29 14:19:21","新北市板橋區中山路二段21號","121.47236","25.0150833333333","6500100","板橋區"
"220032","296-UM","2018/12/29 14:19:11","新北市板橋區滿平街136巷10弄2號","121.427686666667","24.9870783333333","6500100","板橋區"
"220023","303-R5","2018/12/29 14:19:25","新北市板橋區南雅南路一段1巷38號","121.457243333333","25.00651","6500100","板橋區"
"220010","305-R5","2018/12/29 14:19:26","新北市板橋區三民路二段153巷4弄1號","121.47964","25.0148016666667","6500100","板橋區"
"220041","307-R5","2018/12/29 14:17:47","新北市板橋區文化路二段75號","121.469038333333","25.02598","6500100","板橋區"
"220047","317-R6","2018/12/29 14:19:22","新北市板橋區自由路51巷14弄4號","121.464771666667","25.0236483333333","6500100","板橋區"
"220038","487-VK","2018/12/29 14:19:15","新北市板橋區英士路49號","121.461115","25.024635","6500100","板橋區"
"220037","491-VK","2018/12/29 14:19:18","新北市板橋區雙十路二段37-1號","121.476876666667","25.0258983333333","6500100","板橋區"
"220104","560-BX","2018/12/29 14:19:31","新北市板橋區中正路433巷1號","121.454136666667","25.0232266666667","6500100","板橋區"
"220052","561-BX","2018/12/29 14:19:31","新北市板橋區陽明街23巷8弄21號","121.465338333333","25.0207766666667","6500100","板橋區"
"220011","609-BX","2018/12/29 14:19:26","新北市板橋區三民路二段204號","121.478946666667","25.0122733333333","6500100","板橋區"
"220003","630-UY","2018/12/29 14:19:28","新北市板橋區新民街11號","121.464013333333","25.0098066666667","6500100","板橋區"
"220005","686-BX","2018/12/29 14:19:28","新北市板橋區五權街1-8號","121.46368","24.9950966666667","6500100","板橋區"
"220025","687-BX","2018/12/29 14:19:33","新北市板橋區大觀路二段142-6號","121.442251666667","24.9988533333333","6500100","板橋區"
"220042","689-BX","2018/12/29 14:19:20","新北市板橋區雨農路30號","121.461373333333","25.0244","6500100","板橋區"
"220002","741-BX","2018/12/29 14:19:29","新北市板橋區重慶路155巷23號","121.463113333333","25.0040916666667","6500100","板橋區"
"220051","KEA-2699","2018/12/29 14:19:29","新北市板橋區松柏街22巷7號","121.474721666667","25.029585","6500100","板橋區"
"220014","829-TW","2018/12/29 14:19:30","新北市板橋區長安街138巷7弄66號","121.474293333333","25.0094133333333","6500100","板橋區"
"220016","830-TW","2018/12/29 14:19:30","新北市板橋區林森街1巷5號","121.482228333333","25.0241716666667","6500100","板橋區"
"220021","985-R7","2018/12/29 14:19:22","新北市板橋區中正路231號","121.455998333333","25.017945","6500100","板橋區"
"220046","AAC-210","2018/12/29 14:19:18","新北市板橋區幸福路34號","121.461631666667","25.020325","6500100","板橋區"
"220012","AAC-253","2018/12/29 14:19:34","新北市板橋區館前西路4-1號","121.459151666667","25.0070516666667","6500100","板橋區"
"235032","KEA-2873","2018/12/29 14:19:07","新北市中和區景平路485號","121.500273333333","24.997575","6500300","中和區"
"235025","KEA-2875","2018/12/29 14:19:29","新北市中和區民利街61巷9號","121.479168333333","24.998525","6500300","中和區"
