"lineid","car","time","location","longitude","latitude","cityid","cityname"
"234005","839-RS","2018/12/29 14:49:19","新北市新莊區化成路565號","121.465143333333","25.0659166666667","6500400","永和區"
"234025","9371-KE","2018/12/29 14:49:29","新北市永和區雙和街25巷5號","121.508985","25.0018916666667","6500400","永和區"
"248018","225-UY","2018/12/29 14:32:38","新北市五股區外寮路13-1號","121.424863333333","25.081235","6501500","五股區"
"231002","002-UM","2018/12/29 14:49:14","新北市新店區民權路85號","121.53815","24.982885","6500600","新店區"
"231027","0293-UT","2018/12/29 14:49:31","新北市新店區中正路282-10號","121.538095","24.9741433333333","6500600","新店區"
"231028","046-UY","2018/12/29 14:49:31","新北市新店區安德街71巷2號","121.510293333333","24.961495","6500600","新店區"
"231001","047-UY","2018/12/29 14:49:19","新北市新店區三民路34-1號","121.536448333333","24.971315","6500600","新店區"
"231005","106-UY","2018/12/29 14:49:28","新北市新店區復興路2號","121.532411666667","24.9882633333333","6500600","新店區"
"231020","108-UY","2018/12/29 14:49:25","新北市新店區新烏路二段393號","121.551015","24.90983","6500600","新店區"
"231012","187-VK","2018/12/29 14:49:19","新北市新店區寶橋路61號","121.545126666667","24.97509","6500600","新店區"
"231023","188-VK","2018/12/29 14:49:25","新北市新店區檳榔路109號","121.54452","24.9616433333333","6500600","新店區"
"231026","256-BX","2018/12/29 14:49:26","新北市新店區安一路一段1-1號","121.51979","24.9610766666667","6500600","新店區"
"231036","260-TV","2018/12/29 14:49:31","新北市新店區安祥路106巷327號","121.472508333333","24.9586533333333","6500600","新店區"
"231003","268-BY","2018/12/29 14:49:16","新北市新店區中興路二段121巷1號","121.547556666667","24.9720783333333","6500600","新店區"
"231018","278-BY","2018/12/29 14:49:24","新北市新店區中央六街5號","121.53038","24.9745633333333","6500600","新店區"
"231017","AAD-862","2018/12/29 14:49:32","新北市新店區銀河路66-4號","121.579595","24.9587033333333","6500600","新店區"
"231004","355-BY","2018/12/29 14:49:14","新北市新店區民族路75-2號","121.539233333333","24.9779916666667","6500600","新店區"
"231038","3712-VJ","2018/12/29 14:49:34","新北市新店區安華路28-1號","121.519936666667","24.960895","6500600","新店區"
"231037","4716-K9","2018/12/29 14:49:29","新北市新店區柴埕路57號","121.513668333333","24.96514","6500600","新店區"
"231025","4715-K9","2018/12/29 14:49:27","新北市新店區建國路133號","121.539435","24.97826","6500600","新店區"
"231013","513-UM","2018/12/29 14:49:16","新北市新店區北新路二段37號","121.542543333333","24.9727416666667","6500600","新店區"
"231030","619-UM","2018/12/29 14:49:18","新北市新店區安民街315號","121.51754","24.974195","6500600","新店區"
"231034","641-BX","2018/12/29 14:49:13","新北市新店區安康路二段400號","121.497596666667","24.9556216666667","6500600","新店區"
"231035","719-UM","2018/12/29 14:49:28","新北市新店區安業街67巷22號","121.519018333333","24.9760516666667","6500600","新店區"
"231033","720-UM","2018/12/29 14:49:31","新北市新店區安康路三段148號","121.49063","24.9517916666667","6500600","新店區"
"231029","897-TW","2018/12/29 14:49:19","新北市新店區錦秀路11巷35號","121.48026","24.944675","6500600","新店區"
"231006","898-TW","2018/12/29 14:49:19","新北市新店區北宜路二段8號","121.547766666667","24.9518233333333","6500600","新店區"
"231024","AKT-0513","2018/12/29 14:49:15","新北市新店區中華路83巷67號","121.538343333333","24.9672766666667","6500600","新店區"
"235030","003-UY","2018/12/29 14:49:27","新北市中和區南工路60號","121.506176666667","25.0017583333333","6500300","中和區"
"235020","096-UM","2018/12/29 14:49:15","新北市中和區民富街28號","121.476895","25.0064283333333","6500300","中和區"
"235003","097-UM","2018/12/29 14:49:16","新北市永和區中正路3號","121.513795","24.9955416666667","6500300","中和區"
"235004","150-BY","2018/12/29 14:49:15","新北市中和區景新街149號","121.50652","24.9966066666667","6500300","中和區"
"235022","151-BY","2018/12/29 14:49:28","新北市中和區員山路148巷5號","121.481671666667","24.9971833333333","6500300","中和區"
"235019","183-VK","2018/12/29 14:49:21","新北市中和區民德路12號","121.468763333333","25.0027233333333","6500300","中和區"
"235002","185-VK","2018/12/29 14:49:29","新北市永和區民族街81巷62號","121.520446666667","24.9963916666667","6500300","中和區"
"235013","186-VK","2018/12/29 14:49:29","新北市中和區南華路5號","121.502063333333","24.995485","6500300","中和區"
"235031","255-BX","2018/12/29 14:49:25","新北市中和區中正路751巷3弄1號","121.48444","24.9996166666667","6500300","中和區"
"235044","293-VK","2018/12/29 14:49:19","新北市中和區南山路255號","121.503753333333","24.992745","6500300","中和區"
"235006","KEA-2878","2018/12/29 14:49:16","新北市中和區景平路132號","121.518826666667","24.99188","6500300","中和區"
"235014","4979-A6","2018/12/29 14:49:25","新北市中和區中正路2-1號","121.503215","24.993535","6500300","中和區"
"235034","558-UM","2018/12/29 14:49:32","新北市中和區連勝街3號","121.499078333333","24.9985166666667","6500300","中和區"
"235018","640-BX","2018/12/29 14:49:26","新北市中和區莒光路200號","121.472213333333","24.9984916666667","6500300","中和區"
"235024","647-TV","2018/12/29 14:49:20","新北市中和區新生街16巷21弄2號","121.482278333333","25.0043733333333","6500300","中和區"
"235011","732-UM","2018/12/29 14:49:33","新北市中和區和平街74號","121.50785","24.9911866666667","6500300","中和區"
"235010","733-UM","2018/12/29 14:49:26","新北市中和區仁愛街52號","121.511173333333","24.988075","6500300","中和區"
"235026","800-TS","2018/12/29 14:49:25","新北市中和區永和路103巷2號","121.495085","25.006605","6500300","中和區"
"235021","801-TS","2018/12/29 14:49:17","新北市中和區員山路102號","121.481106666667","24.995425","6500300","中和區"
"235005","802-TS","2018/12/29 14:49:22","新北市中和區安平路16號","121.509283333333","24.9941533333333","6500300","中和區"
"235016","805-TS","2018/12/29 14:49:30","新北市中和區華新街112號","121.508451666667","24.9827766666667","6500300","中和區"
"235012","896-TW","2018/12/29 14:49:27","新北市中和區忠孝街99-3號","121.512101666667","24.9861716666667","6500300","中和區"
"235017","900-TW","2018/12/29 14:49:16","新北市中和區國光街215巷10弄13-2號","121.466776666667","25.00048","6500300","中和區"
"235029","911-UM","2018/12/29 14:49:34","新北市中和區福美路232號","121.498976666667","25.005275","6500300","中和區"
"235015","157-BY","2018/12/29 14:49:15","新北市中和區復興路301巷16號","121.5014","24.9895616666667","6500300","中和區"
"235001","AAC-213","2018/12/29 14:49:26","新北市中和區自立路66號","121.523893333333","24.9912616666667","6500300","中和區"
"235023","AAC-215","2018/12/29 14:49:10","新北市中和區圓通路305巷5弄14號","121.494108333333","24.990235","6500300","中和區"
"220013","072-UY","2018/12/29 14:49:18","新北市板橋區國泰街39巷6弄2號","121.46854","25.0056683333333","6500100","板橋區"
"220034","073-UY","2018/12/29 14:49:23","新北市板橋區南雅西路二段7巷25號","121.451926666667","25.0094816666667","6500100","板橋區"
"220105","075-UY","2018/12/29 14:49:24","新北市板橋區文聖街11巷24號","121.476131666667","25.032985","6500100","板橋區"
"220017","AAD-861","2018/12/29 14:49:28","新北市板橋區大明街22號","121.458565","25.0025533333333","6500100","板橋區"
"247001","893-R6","2018/12/29 14:49:23","新北市蘆洲區永康街2巷8號","121.459416666667","25.086185","6501400","蘆洲區"
"247015","546-UM","2018/12/29 14:49:23","新北市蘆洲區和平路200號","121.465938333333","25.0818966666667","6501400","蘆洲區"
"247013","053-VK","2018/12/29 14:49:27","新北市蘆洲區得勝街82號","121.472243333333","25.0834283333333","6501400","蘆洲區"
"235036","251-BX","2018/12/29 14:49:24","新北市中和區中山路二段3巷22弄36號","121.505861666667","25.0041883333333","6500300","中和區"
"228005","097-TW","2018/12/29 14:49:27","新北市貢寮區美豐里丹裡街59-1號","121.909483333333","25.0589216666667","6502600","貢寮區"
"228004","212-TW","2018/12/29 14:49:17","新北市貢寮區福隆里福隆街2巷31號","121.946405","25.0157416666667","6502600","貢寮區"
"253003","6232-TK","2018/12/29 14:49:30","新北市石門區尖子鹿10-2號","121.577693333333","25.285405","6502200","石門區"
"253004","6251-TK","2018/12/29 14:49:16","新北市石門區茂林社區227-1號","121.59153","25.2703733333333","6502200","石門區"
"253002","637-UY","2018/12/29 14:49:17","新北市石門區楓林37-3號","121.540065","25.2877616666667","6502200","石門區"
"253001","KEC-0718","2018/12/29 14:49:31","新北市石門區崁子腳47-5號","121.534098333333","25.2838483333333","6502200","石門區"
"207002","749-BX","2018/12/29 14:49:33","新北市萬里區崁腳里崁腳路73號","121.647613333333","25.1595966666667","6502800","萬里區"
"252005","073-UM","2018/12/29 14:49:13","新北市三芝區埔坪里埔頭坑142-1號","121.513058333333","25.24765","6502100","三芝區"
"207001","662-BX","2018/12/29 14:49:15","新北市萬里區雙興里二坪路1-3號","121.650166666667","25.1770883333333","6502800","萬里區"
"236068","105-UM","2018/12/29 14:49:16","新北市土城區明德路二段99巷2弄2號","121.450305","24.9810533333333","6501300","土城區"
"236040","KED-0685","2018/12/29 14:49:29","新北市土城區裕民路116號","121.451038333333","24.9864533333333","6501300","土城區"
"236074","166-UM","2018/12/29 14:49:26","新北市土城區中央路四段67巷36號","121.417866666667","24.9571416666667","6501300","土城區"
"236029","253-BX","2018/12/29 14:49:31","新北市土城區忠義路26巷10號","121.439876666667","24.9699116666667","6501300","土城區"
"236024","269-VK","2018/12/29 14:49:21","新北市土城區中央路二段225號","121.440461666667","24.9727","6501300","土城區"
"236013","270-VK","2018/12/29 14:49:26","新北市土城區清水路261巷5弄1號","121.462686666667","24.9849133333333","6501300","土城區"
"236032","271-VK","2018/12/29 14:49:30","新北市土城區仁愛路54巷2-4號","121.462335","24.9787833333333","6501300","土城區"
"247007","KED-0683","2018/12/29 14:49:19","新北市蘆洲區三民路1號","121.475513333333","25.0816683333333","6501400","蘆洲區"
"236017","401-BY","2018/12/29 14:49:26","新北市土城區延安街42-5號","121.467556666667","24.98523","6501300","土城區"
"236057","912-UM","2018/12/29 14:49:29","新北市土城區金城路一段112號","121.446788333333","24.9754716666667","6501300","土城區"
"236045","913-UM","2018/12/29 14:49:28","新北市土城區廣福街68巷26-3號","121.45912","24.9905033333333","6501300","土城區"
"236060","915-UM","2018/12/29 14:49:33","新北市土城區金城路三段207巷6弄1號","121.470278333333","24.99","6501300","土城區"
"236054","AAC-216","2018/12/29 14:49:17","新北市土城區裕民路135號","121.45147","24.9863716666667","6501300","土城區"
"242017","346-TH","2018/12/29 14:49:12","新北市新莊區三和路12-21號","121.442011666667","25.0382866666667","6500500","新莊區"
"221029","298-VK","2018/12/29 14:49:19","台北市文山區新光路二段74巷1-1號","121.593871666667","24.9958766666667","6501100","汐止區"
"221033","647-BX","2018/12/29 14:49:27","新北市汐止區汐萬路一段256巷3號","121.653183333333","25.0744516666667","6501100","汐止區"
"220027","145-BY","2018/12/29 14:49:28","新北市板橋區復興街111號","121.460211666667","25.0179133333333","6500100","板橋區"
"220028","200-UY","2018/12/29 14:49:21","新北市板橋區大觀路二段79巷2弄16號","121.447433333333","25.0016333333333","6500100","板橋區"
"220030","610-BX","2018/12/29 14:49:31","新北市板橋區溪崑一街74號","121.429268333333","24.989785","6500100","板橋區"
"220040","267-BY","2018/12/29 14:49:25","新北市板橋區懷德街127巷17號","121.479313333333","25.03121","6500100","板橋區"
"220004","276-BY","2018/12/29 14:49:27","新北市板橋區信義路1巷24號","121.458023333333","24.9972166666667","6500100","板橋區"
"220020","277-BY","2018/12/29 14:49:24","新北市板橋區金門街111-3號","121.433098333333","24.9920516666667","6500100","板橋區"
"220050","280-UM","2018/12/29 14:49:29","新北市板橋區萬板路126號","121.475008333333","25.0233916666667","6500100","板橋區"
"220019","283-VK","2018/12/29 14:49:33","新北市板橋區五權街32巷34號","121.46369","24.992605","6500100","板橋區"
"220043","285-UM","2018/12/29 14:49:33","新北市板橋區文德路36號","121.462323333333","25.024295","6500100","板橋區"
"220001","285-VK","2018/12/29 14:49:28","新北市板橋區永豐街45-1號","121.474295","25.01759","6500100","板橋區"
"220031","286-VK","2018/12/29 14:49:30","新北市板橋區僑中二街10巷17號","121.44621","25.0110516666667","6500100","板橋區"
"220029","287-VK","2018/12/29 14:49:28","新北市板橋區大觀路一段28巷91-2號","121.450165","25.01157","6500100","板橋區"
"220039","288-VK","2018/12/29 14:49:30","新北市板橋區漢生西路165巷1號","121.462811666667","25.0233266666667","6500100","板橋區"
"220009","293-UM","2018/12/29 14:49:21","新北市板橋區民生路二段109巷1號","121.471028333333","25.01779","6500100","板橋區"
"220032","296-UM","2018/12/29 14:49:31","新北市樹林區水源街213號","121.424256666667","24.9870683333333","6500100","板橋區"
"220023","303-R5","2018/12/29 14:49:31","新北市板橋區大勇街8巷1號","121.45395","25.0170716666667","6500100","板橋區"
"220010","305-R5","2018/12/29 14:49:26","新北市板橋區中山路二段光榮巷30弄28號","121.484871666667","25.0207566666667","6500100","板橋區"
"220041","307-R5","2018/12/29 14:48:34","新北市板橋區裕民街126號","121.459038333333","25.02752","6500100","板橋區"
"220047","317-R6","2018/12/29 14:49:16","新北市板橋區四維路269巷64號","121.460675","25.0272916666667","6500100","板橋區"
"220038","487-VK","2018/12/29 14:49:15","新北市板橋區新海路403巷2號","121.458441666667","25.02671","6500100","板橋區"
"220037","491-VK","2018/12/29 14:49:18","新北市板橋區文聖街61號","121.476783333333","25.0310433333333","6500100","板橋區"
"220104","560-BX","2018/12/29 14:49:04","新北市板橋區新生街25號","121.456121666667","25.0212683333333","6500100","板橋區"
"220052","561-BX","2018/12/29 14:49:31","新北市板橋區陽明街279巷1弄1號","121.461838333333","25.0260783333333","6500100","板橋區"
"220011","609-BX","2018/12/29 14:49:22","新北市板橋區中山路二段364號","121.481728333333","25.0201483333333","6500100","板橋區"
"220003","630-UY","2018/12/29 14:49:29","新北市板橋區國慶路149巷31號","121.460945","24.9977733333333","6500100","板橋區"
"220005","686-BX","2018/12/29 14:49:28","新北市板橋區廣權路9號","121.460726666667","24.9913066666667","6500100","板橋區"
"220025","687-BX","2018/12/29 14:49:22","新北市板橋區僑中二街124巷2號","121.445415","25.0053783333333","6500100","板橋區"
"220042","689-BX","2018/12/29 14:49:20","新北市板橋區文化路二段503號","121.476108333333","25.03454","6500100","板橋區"
"220002","741-BX","2018/12/29 14:49:18","新北市板橋區國泰街75巷28弄76號","121.46717","25.0042883333333","6500100","板橋區"
"220051","KEA-2699","2018/12/29 14:49:29","新北市板橋區文化路二段182巷11號","121.472083333333","25.0268466666667","6500100","板橋區"
"220014","829-TW","2018/12/29 14:49:25","新北市板橋區長安街210號","121.474493333333","25.012035","6500100","板橋區"
"220016","830-TW","2018/12/29 14:49:30","新北市板橋區光復街192巷11號","121.485791666667","25.0201016666667","6500100","板橋區"
"220021","985-R7","2018/12/29 14:49:24","新北市板橋區大仁街41號","121.454868333333","25.0165916666667","6500100","板橋區"
"220046","AAC-210","2018/12/29 14:49:17","新北市板橋區光正街18巷9號","121.462616666667","25.0175916666667","6500100","板橋區"
"220012","AAC-253","2018/12/29 14:49:20","新北市板橋區實踐路149號","121.464261666667","25.0043016666667","6500100","板橋區"
"235032","KEA-2873","2018/12/29 14:49:18","新北市中和區福祥路87號","121.498993333333","25.0058416666667","6500300","中和區"
