"lineid","car","time","location","longitude","latitude","cityid","cityname"
"231046","107-UY","2018/12/29 16:19:22","新北市新店區灣潭路3-3號","121.538258333333","24.950805","6500600","新店區"
"231026","256-BX","2018/12/29 16:19:25","新北市新店區安一路一段1-1號","121.51969","24.9611233333333","6500600","新店區"
"231018","278-BY","2018/12/29 16:19:24","台北市文山區景文街146巷22號","121.533488333333","24.99296","6500600","新店區"
"241011","013-R5","2018/12/29 16:19:28","新北市三重區龍濱路269號","121.501281666667","25.0731216666667","6500200","三重區"
"241028","022-UY","2018/12/29 16:19:21","新北市三重區正義南路169號","121.498848333333","25.0574433333333","6500200","三重區"
"241008","059-VK","2018/12/29 16:19:28","新北市三重區力行路二段136巷45弄12號","121.4791","25.075345","6500200","三重區"
"241022","060-VK","2018/12/29 16:19:23","新北市三重區過圳街31巷2號","121.489163333333","25.0606083333333","6500200","三重區"
"241031","061-VK","2018/12/29 16:19:29","新北市三重區重新路四段146號","121.486311666667","25.0563283333333","6500200","三重區"
"241015","062-VK","2018/12/29 16:19:26","新北市三重區福德北路79號","121.501913333333","25.06584","6500200","三重區"
"241017","063-VK","2018/12/29 16:19:27","新北市三重區大同北路85號","121.494836666667","25.0636216666667","6500200","三重區"
"241024","065-VK","2018/12/29 16:19:31","新北市三重區中正北路145巷3弄2號","121.483495","25.0676266666667","6500200","三重區"
"241002","090-VK","2018/12/29 16:19:18","新北市三重區仁義街91號","121.49964","25.079805","6500200","三重區"
"241003","091-VK","2018/12/29 16:19:28","新北市三重區五華街57巷2號","121.492933333333","25.08272","6500200","三重區"
"241005","262-UM","2018/12/29 16:19:29","新北市三重區溪尾街305號","121.48755","25.08376","6500200","三重區"
"241016","266-UM","2018/12/29 16:19:34","新北市三重區大仁街37號","121.492911666667","25.0654216666667","6500200","三重區"
"241009","267-UM","2018/12/29 16:19:32","新北市三重區溪尾街196巷2號","121.487895","25.0807433333333","6500200","三重區"
"241018","268-UM","2018/12/29 16:19:31","新北市三重區重陽路三段142-1號","121.48935","25.06702","6500200","三重區"
"241032","269-UM","2018/12/29 16:19:24","新北市三重區三陽路100巷3弄13號","121.483003333333","25.058015","6500200","三重區"
"241013","270-UM","2018/12/29 16:19:20","新北市三重區仁愛街63號","121.496208333333","25.0725716666667","6500200","三重區"
"241025","271-UM","2018/12/29 16:19:25","新北市三重區中正北路560巷100弄2號","121.472643333333","25.0682216666667","6500200","三重區"
"241007","398-BY","2018/12/29 16:19:32","新北市三重區三和路四段163巷93號","121.486566666667","25.079495","6500200","三重區"
"241004","475-VK","2018/12/29 16:19:25","新北市三重區五華街74號","121.493485","25.0819516666667","6500200","三重區"
"241020","478-VK","2018/12/29 16:19:28","新北市三重區車路頭街17巷11號","121.48443","25.0704833333333","6500200","三重區"
"241014","543-UM","2018/12/29 16:19:30","新北市三重區河邊北街96-1號","121.50404","25.0699633333333","6500200","三重區"
"241001","547-UM","2018/12/29 16:19:24","新北市三重區自強路四段87號","121.49108","25.0793083333333","6500200","三重區"
"241019","KEA-2593","2018/12/29 16:19:24","新北市三重區自強路二段49號","121.489191666667","25.0696266666667","6500200","三重區"
"241006","AAD-863","2018/12/29 16:19:31","新北市三重區永福街46巷41弄13號","121.481798333333","25.0771633333333","6500200","三重區"
"241026","743-BX","2018/12/29 16:19:16","新北市三重區大同南路96巷37號","121.497413333333","25.0589616666667","6500200","三重區"
"241023","887-TS","2018/12/29 16:19:27","新北市三重區忠孝路三段38號","121.481115","25.0665283333333","6500200","三重區"
"241012","941-UM","2018/12/29 16:19:30","新北市三重區龍門路255號","121.502376666667","25.0742016666667","6500200","三重區"
"241029","942-UM","2018/12/29 16:19:24","新北市三重區環河南路220-8號","121.49336","25.0526783333333","6500200","三重區"
"224007","275-VK","2018/12/29 16:19:34","新北市瑞芳區大埔路110-1號","121.762273333333","25.1018133333333","6501200","瑞芳區"
"224005","271-BY","2018/12/29 16:19:21","新北市瑞芳區三爪子坑路32巷94號","121.809228333333","25.1066883333333","6501200","瑞芳區"
"227002","642-TC","2018/12/29 16:19:20","新北市雙溪區上林里內平林80號","121.828291666667","25.0279016666667","6502500","雙溪區"
"227010","400-TW","2018/12/29 16:19:16","新北市雙溪區三港里雙澳路80號","121.883813333333","25.05385","6502500","雙溪區"
"251013","KEA-2871","2018/12/29 16:19:17","新北市淡水區北新路三段162號","121.492366666667","25.191475","6501000","淡水區"
"251008","181-VK","2018/12/29 16:19:27","新北市淡水區中山路27號","121.444111666667","25.170165","6501000","淡水區"
