"lineid","car","time","location","longitude","latitude","cityid","cityname"
"249005","172-UM","2018/12/29 16:49:15","新北市八里區大堀湖1-5號","121.422823333333","25.1549883333333","6502300","八里區"
"249004","303-UY","2018/12/29 16:49:19","新北市八里區博物館路202巷48號","121.40711","25.1612383333333","6502300","八里區"
"249002","305-UY","2018/12/29 16:49:36","新北市八里區牛寮埔33號","121.429831666667","25.1456366666667","6502300","八里區"
"231046","107-UY","2018/12/29 16:49:22","新北市新店區灣潭路4-1號","121.535923333333","24.947065","6500600","新店區"
"241011","013-R5","2018/12/29 16:49:28","新北市三重區仁愛街53巷194號","121.500438333333","25.0729416666667","6500200","三重區"
"241028","022-UY","2018/12/29 16:49:21","新北市三重區光興街91號","121.49741","25.0599466666667","6500200","三重區"
"241008","059-VK","2018/12/29 16:49:28","新北市三重區永安北路一段11巷9號","121.476666666667","25.07479","6500200","三重區"
"241022","060-VK","2018/12/29 16:49:23","新北市三重區貴陽街47巷2弄15號","121.484901666667","25.063295","6500200","三重區"
"241031","061-VK","2018/12/29 16:49:29","新北市三重區過圳街5號","121.488981666667","25.0587066666667","6500200","三重區"
"241015","062-VK","2018/12/29 16:49:26","新北市三重區文化北路45號","121.498946666667","25.065445","6500200","三重區"
"241017","063-VK","2018/12/29 16:49:27","新北市三重區國隆路8巷13號","121.493068333333","25.0635283333333","6500200","三重區"
"241024","065-VK","2018/12/29 16:49:31","新北市三重區中正北路317巷9號","121.47492","25.07284","6500200","三重區"
"241002","090-VK","2018/12/29 16:49:18","新北市三重區仁義街161-4號","121.496936666667","25.0814066666667","6500200","三重區"
"241003","091-VK","2018/12/29 16:49:28","新北市三重區五華街75巷12號","121.493128333333","25.0835216666667","6500200","三重區"
"251014","742-BX","2018/12/29 16:49:22","新北市淡水區淡金路四段476號","121.452425","25.2238816666667","6501000","淡水區"
"241005","262-UM","2018/12/29 16:49:29","新北市三重區仁華街80巷25號","121.48446","25.0838366666667","6500200","三重區"
"241016","266-UM","2018/12/29 16:49:14","新北市三重區大同北路115巷3號","121.494148333333","25.0644383333333","6500200","三重區"
"241009","267-UM","2018/12/29 16:49:24","新北市三重區三和路四段203巷209號","121.486555","25.0806683333333","6500200","三重區"
"241018","268-UM","2018/12/29 16:49:31","新北市三重區安慶街149巷11號","121.494495","25.06926","6500200","三重區"
"241032","269-UM","2018/12/29 16:49:24","新北市三重區三光街30巷8號","121.484333333333","25.0603933333333","6500200","三重區"
"241013","270-UM","2018/12/29 16:49:20","新北市三重區仁壽街49號","121.497293333333","25.0735066666667","6500200","三重區"
"241025","271-UM","2018/12/29 16:49:25","新北市三重區中正北路361-1號","121.472576666667","25.07178","6500200","三重區"
"241007","398-BY","2018/12/29 16:49:16","新北市三重區三和路四段181巷54號","121.483805","25.0793783333333","6500200","三重區"
"241004","475-VK","2018/12/29 16:49:25","新北市三重區仁愛街423-1號","121.490373333333","25.0814433333333","6500200","三重區"
"241020","478-VK","2018/12/29 16:49:28","新北市三重區忠孝路二段34號","121.48575","25.0710133333333","6500200","三重區"
"241030","480-VK","2018/12/29 16:49:16","新北市三重區新興路6號","121.49273","25.0528883333333","6500200","三重區"
"241014","543-UM","2018/12/29 16:49:30","新北市三重區長壽街120巷19弄9號","121.502515","25.0691833333333","6500200","三重區"
"241001","547-UM","2018/12/29 16:49:20","新北市三重區仁政街54巷30號","121.492298333333","25.0767083333333","6500200","三重區"
"241019","KEA-2593","2018/12/29 16:49:25","新北市三重區三張街149巷10弄9號","121.486088333333","25.069805","6500200","三重區"
"241006","AAD-863","2018/12/29 16:49:31","新北市三重區車路頭街119號","121.484351666667","25.07534","6500200","三重區"
"241026","743-BX","2018/12/29 16:49:16","新北市三重區文化南路10巷30號","121.501033333333","25.0621983333333","6500200","三重區"
"241023","887-TS","2018/12/29 16:49:27","新北市三重區新北大道一段190號","121.482613333333","25.0619816666667","6500200","三重區"
"241012","941-UM","2018/12/29 16:49:30","新北市三重區龍門路274巷17號","121.501641666667","25.074685","6500200","三重區"
"241029","942-UM","2018/12/29 16:49:33","新北市三重區集美街205號","121.491775","25.0544616666667","6500200","三重區"
"235046","733-UM","2018/12/29 16:32:05","新北市中和區員山路36巷13號","121.484108333333","24.9909","6500300","中和區"
"235065","911-UM","2018/12/29 16:49:34","新北市中和區員山路36巷16-2號","121.48526","24.9917883333333","6500300","中和區"
"247010","336-TH","2018/12/29 16:49:19","新北市蘆洲區復興路355巷10-2號","121.482568333333","25.0950383333333","6501400","蘆洲區"
"247022","001-UY","2018/12/29 16:49:19","新北市蘆洲區中正路507號","121.461","25.0975816666667","6501400","蘆洲區"
"228003","097-TW","2018/12/29 16:49:31","新北市貢寮區貢寮里朝陽街1-2號","121.912383333333","25.0212716666667","6502600","貢寮區"
"228002","585-TW","2018/12/29 16:49:35","新北市貢寮區貢寮里朝陽街142號","121.906918333333","25.0226716666667","6502600","貢寮區"
"224006","676-BX","2018/12/29 16:49:23","新北市瑞芳區大寮路356-1號","121.784595","25.1031733333333","6501200","瑞芳區"
"224007","275-VK","2018/12/29 16:49:34","新北市瑞芳區中央路48巷吉祥園3號","121.760055","25.1036616666667","6501200","瑞芳區"
"224009","273-VK","2018/12/29 16:49:17","新北市瑞芳區三爪子坑路32巷124號","121.809195","25.1063866666667","6501200","瑞芳區"
"224005","271-BY","2018/12/29 16:49:21","新北市瑞芳區洞頂路97號","121.861651666667","25.1211383333333","6501200","瑞芳區"
"227002","642-TC","2018/12/29 16:49:20","新北市雙溪區外柑里外柑腳71號","121.80715","25.0175883333333","6502500","雙溪區"
"227010","400-TW","2018/12/29 16:49:16","新北市雙溪區牡丹里五分2號","121.866683333333","25.04712","6502500","雙溪區"
"251013","KEA-2871","2018/12/29 16:49:17","新北市淡水區泉洲厝32號","121.489265","25.192595","6501000","淡水區"
"251016","179-VK","2018/12/29 16:49:34","新北市淡水區水頭42號","121.4781","25.1850616666667","6501000","淡水區"
"251008","181-VK","2018/12/29 16:49:27","新北市淡水區樹梅坑42號","121.474573333333","25.1443016666667","6501000","淡水區"
"251015","182-VK","2018/12/29 16:49:28","新北市淡水區忠愛街4號","121.459488333333","25.171325","6501000","淡水區"
"251012","441-VK","2018/12/29 16:49:31","新北市淡水區中正路二段31號","121.419658333333","25.1815066666667","6501000","淡水區"
"251007","442-VK","2018/12/29 16:49:25","新北市淡水區中正路437號","121.431955","25.1747633333333","6501000","淡水區"
"251011","650-BX","2018/12/29 16:49:23","新北市淡水區中正路259號","121.432826666667","25.174555","6501000","淡水區"
"252002","178-VK","2018/12/29 16:49:19","新北市三芝區忠孝街37號","121.50613","25.2557216666667","6502100","三芝區"
"247008","KED-0683","2018/12/29 16:49:17","新北市蘆洲區長安街49巷8弄3號","121.462276666667","25.0786166666667","6501400","蘆洲區"
"252001","KED-0821","2018/12/29 16:49:17","新北市三芝區埔坪里埔頭坑44號","121.504716666667","25.261735","6502100","三芝區"
"242021","442-UM","2018/12/29 16:49:18","新北市新莊區三和路12-21號","121.442138333333","25.0387383333333","6500500","新莊區"
"242019","175-VK","2018/12/29 16:49:17","新北市新莊區三和路12-21號","121.441875","25.0386366666667","6500500","新莊區"
"242017","KED-0687","2018/12/29 16:49:19","新北市新莊區三和路12-21號","121.442283333333","25.037915","6500500","新莊區"
"242007","346-TH","2018/12/29 16:49:14","新北市新莊區三和路12-21號","121.44203","25.0381933333333","6500500","新莊區"
"242031","348-TH","2018/12/29 16:49:33","新北市新莊區新泰路357巷3弄57號","121.44218","25.0394183333333","6500500","新莊區"
"238022","KEA-2213","2018/12/29 16:49:28","新北市樹林區八德街1012號","121.39135","24.968505","6500700","樹林區"
"239007","AAC-297","2018/12/29 16:49:16","新北市鶯歌區二甲路13-16號","121.344988333333","24.9352016666667","6500800","鶯歌區"
"242042","281-VK","2018/12/29 16:49:17","新北市新莊區三和路12-21號","121.44226","25.03813","6500500","新莊區"
