"lineid","car","time","location","longitude","latitude","cityid","cityname"
"249005","172-UM","2018/12/29 17:29:35","新北市八里區荖阡坑路44號","121.411468333333","25.12481","6502300","八里區"
"249001","173-UM","2018/12/29 17:29:29","新北市八里區中華路一段1-5號","121.423166666667","25.1585366666667","6502300","八里區"
"249004","303-UY","2018/12/29 17:29:19","新北市八里區民治街32號","121.414613333333","25.1576016666667","6502300","八里區"
"249002","305-UY","2018/12/29 17:29:36","新北市八里區龍米路二段65巷15弄1號","121.447093333333","25.1408383333333","6502300","八里區"
"249003","593-UM","2018/12/29 17:29:23","新北市八里區中山路二段315號","121.400565","25.1477416666667","6502300","八里區"
"244007","080-UY","2018/12/29 17:29:33","新北市林口區湖子6號","121.390861666667","25.092385","6501700","林口區"
"244019","402-UM","2018/12/29 17:29:23","新北市林口區文化一路一段137號","121.373433333333","25.0721716666667","6501700","林口區"
"244023","483-VK","2018/12/29 17:29:22","新北市林口區東明三街368號","121.391898333333","25.07061","6501700","林口區"
"244017","485-VK","2018/12/29 17:29:30","新北市林口區文化一路二段40號","121.380576666667","25.07734","6501700","林口區"
"244009","656-BX","2018/12/29 17:29:25","新北市林口區中北三街124號","121.383946666667","25.0842416666667","6501700","林口區"
"244011","657-BX","2018/12/29 17:29:19","新北市林口區仁愛路一段669號","121.387538333333","25.0767116666667","6501700","林口區"
"244025","837-TS","2018/12/29 17:29:30","新北市林口區文化三路一段359-1號","121.364516666667","25.0730066666667","6501700","林口區"
"244021","838-TS","2018/12/29 17:29:31","新北市林口區宏昌街79號","121.402075","25.08566","6501700","林口區"
"231046","107-UY","2018/12/29 17:29:22","新北市新店區直潭路92號","121.530925","24.937605","6500600","新店區"
"241011","013-R5","2018/12/29 17:29:28","新北市三重區河邊北街110巷66號","121.502263333333","25.0704516666667","6500200","三重區"
"241028","022-UY","2018/12/29 17:29:21","新北市三重區新北大道一段7號","121.489596666667","25.0612883333333","6500200","三重區"
"241015","062-VK","2018/12/29 17:29:32","新北市三重區開元街30號","121.50362","25.0658233333333","6500200","三重區"
"241017","063-VK","2018/12/29 17:29:27","新北市三重區重新路三段47巷3弄46號","121.493726666667","25.0621866666667","6500200","三重區"
"241024","065-VK","2018/12/29 17:29:31","新北市三重區國道路一段58巷20號","121.481211666667","25.0720316666667","6500200","三重區"
"241003","091-VK","2018/12/29 17:29:28","新北市三重區碧華街378號","121.490986666667","25.08435","6500200","三重區"
"251014","742-BX","2018/12/29 17:29:21","新北市淡水區公埔子18號","121.473388333333","25.22703","6501000","淡水區"
"241005","262-UM","2018/12/29 17:29:29","新北市蘆洲區重陽一街1號","121.481866666667","25.0813266666667","6500200","三重區"
"241016","266-UM","2018/12/29 17:29:34","新北市三重區信義西街138號","121.495436666667","25.064175","6500200","三重區"
"241018","268-UM","2018/12/29 17:29:11","新北市三重區新北大道一段7號","121.489691666667","25.0613866666667","6500200","三重區"
"241032","269-UM","2018/12/29 17:29:24","新北市三重區名源街48號","121.482421666667","25.0593866666667","6500200","三重區"
"241013","270-UM","2018/12/29 17:29:20","新北市三重區仁愛街141巷11號","121.495788333333","25.07563","6500200","三重區"
"241007","398-BY","2018/12/29 17:29:15","新北市三重區三和路四段145巷154號","121.488106666667","25.079415","6500200","三重區"
"241020","478-VK","2018/12/29 17:29:28","新北市三重區忠孝路二段34號","121.485845","25.0710166666667","6500200","三重區"
"241030","480-VK","2018/12/29 17:29:16","新北市三重區中正南路252巷5號","121.493525","25.0526183333333","6500200","三重區"
"241014","543-UM","2018/12/29 17:29:30","新北市三重區安和路15號","121.501263333333","25.0684233333333","6500200","三重區"
"241019","KEA-2593","2018/12/29 17:29:24","新北市三重區自強路二段24號","121.4895","25.0692633333333","6500200","三重區"
"241023","887-TS","2018/12/29 17:29:27","新北市三重區忠孝路三段84巷30號","121.481523333333","25.064135","6500200","三重區"
"241012","941-UM","2018/12/29 17:29:30","新北市三重區仁興街41號","121.499128333333","25.07578","6500200","三重區"
"247012","KEA-2869","2018/12/29 17:29:34","新北市蘆洲區民族路31-12號","121.477965","25.085095","6501400","蘆洲區"
"247006","KED-0682","2018/12/29 17:29:21","新北市蘆洲區長安街22巷31弄25號","121.463938333333","25.0806816666667","6501400","蘆洲區"
"235065","911-UM","2018/12/29 17:29:30","新北市中和區員山路36巷16-2號","121.485263333333","24.9918166666667","6500300","中和區"
"247002","893-R6","2018/12/29 17:29:28","新北市蘆洲區永樂街38巷67弄23號","121.457821666667","25.090825","6501400","蘆洲區"
"247016","546-UM","2018/12/29 17:29:26","新北市蘆洲區光華路22巷24號","121.468788333333","25.0842583333333","6501400","蘆洲區"
"247024","500-BY","2018/12/29 17:29:35","新北市蘆洲區長興路389號","121.461065","25.0915233333333","6501400","蘆洲區"
"247010","336-TH","2018/12/29 17:29:19","新北市蘆洲區鷺江街35號","121.478526666667","25.08221","6501400","蘆洲區"
"247020","057-VK","2018/12/29 17:29:25","新北市蘆洲區水湳街102號","121.469533333333","25.0929583333333","6501400","蘆洲區"
"247014","053-VK","2018/12/29 17:29:18","新北市蘆洲區三民路38-2號","121.475518333333","25.0829816666667","6501400","蘆洲區"
"247018","007-UY","2018/12/29 17:29:28","新北市蘆洲區民權路146號","121.472755","25.0893616666667","6501400","蘆洲區"
"247004","002-UY","2018/12/29 17:29:22","新北市蘆洲區長安街229號","121.459415","25.0827483333333","6501400","蘆洲區"
"247022","001-UY","2018/12/29 17:29:19","新北市蘆洲區三民路339號","121.465188333333","25.090875","6501400","蘆洲區"
"228001","212-TW","2018/12/29 17:29:34","新北市貢寮區仁理村仁愛路54號","121.92541","25.0533166666667","6502600","貢寮區"
"228002","585-TW","2018/12/29 17:29:35","新北市貢寮區福隆里興隆街21-2號","121.933126666667","25.01888","6502600","貢寮區"
"224010","AGQ-8101","2018/12/29 17:29:34","新北市瑞芳區逢甲路43號","121.808315","25.1089483333333","6501200","瑞芳區"
"224006","676-BX","2018/12/29 17:29:25","新北市瑞芳區傑魚坑路73號","121.793093333333","25.110495","6501200","瑞芳區"
"224008","285-BY","2018/12/29 17:29:33","新北市瑞芳區九芎橋路17號","121.832801666667","25.0926833333333","6501200","瑞芳區"
"224009","273-VK","2018/12/29 17:29:26","新北市瑞芳區汽車路9-4號","121.845498333333","25.1097983333333","6501200","瑞芳區"
"224005","271-BY","2018/12/29 17:29:21","新北市瑞芳區南雅路91號","121.88422","25.1230816666667","6501200","瑞芳區"
"227002","642-TC","2018/12/29 17:29:20","新北市雙溪區平林里外平林32號","121.855133333333","25.0353633333333","6502500","雙溪區"
"251009","008-UM","2018/12/29 17:29:21","新北市淡水區新生街30巷64號","121.439691666667","25.1731383333333","6501000","淡水區"
"251004","009-UM","2018/12/29 17:19:59","新北市淡水區中正東路二段88巷15號","121.459106666667","25.1505166666667","6501000","淡水區"
"251002","012-UM","2018/12/29 17:29:31","新北市淡水區中正路255號","121.433318333333","25.174445","6501000","淡水區"
"251013","KEA-2871","2018/12/29 17:29:17","新北市淡水區水尾子2-2號","121.464578333333","25.1951683333333","6501000","淡水區"
"251016","179-VK","2018/12/29 17:29:34","新北市淡水區社厝坑9-1號","121.466746666667","25.19241","6501000","淡水區"
"251008","181-VK","2018/12/29 17:29:27","新北市淡水區大同路124巷6號","121.46349","25.1404266666667","6501000","淡水區"
"251015","182-VK","2018/12/29 17:29:28","新北市淡水區三空泉20號","121.469205","25.1666116666667","6501000","淡水區"
"251010","413-VK","2018/12/29 17:29:31","新北市淡水區中正路二段206號","121.426241666667","25.1891316666667","6501000","淡水區"
"251012","441-VK","2018/12/29 17:29:31","新北市淡水區北新路121號","121.448926666667","25.1786683333333","6501000","淡水區"
"251007","442-VK","2018/12/29 17:29:25","新北市淡水區民生路60號","121.462053333333","25.1379266666667","6501000","淡水區"
"251005","443-VK","2018/12/29 17:29:20","新北市淡水區鄧公路31巷6號","121.451535","25.17073","6501000","淡水區"
"251006","561-UM","2018/12/29 17:29:29","新北市淡水區大仁街5號","121.442115","25.1748566666667","6501000","淡水區"
"251011","650-BX","2018/12/29 17:29:23","新北市淡水區坪頂路712號","121.482491666667","25.1584666666667","6501000","淡水區"
"251003","766-UM","2018/12/29 17:29:30","新北市淡水區中山路157號","121.440761666667","25.17287","6501000","淡水區"
"207003","550-UM","2018/12/29 17:29:31","新北市萬里區龜吼里日光路6巷18號","121.68355","25.18631","6502800","萬里區"
"207004","225-TW","2018/12/29 17:29:35","新北市萬里區萬里里景美路11-2號","121.68548","25.172865","6502800","萬里區"
"252002","178-VK","2018/12/29 17:29:19","新北市三芝區忠孝街1-15號","121.505538333333","25.2539283333333","6502100","三芝區"
"237012","275-BY","2018/12/29 17:29:33","新北市三峽區中山路459巷137號","121.349943333333","24.933945","6500900","三峽區"
"237015","649-BX","2018/12/29 17:29:25","新北市三峽區中山路117號","121.365685","24.93581","6500900","三峽區"
"247008","KED-0683","2018/12/29 17:29:17","新北市蘆洲區信義路34巷68號","121.475313333333","25.07776","6501400","蘆洲區"
"252001","KED-0821","2018/12/29 17:29:17","新北市三芝區長安街119號","121.498041666667","25.259605","6502100","三芝區"
"242036","AAC-296","2018/12/29 17:29:25","新北市新莊區民安路429巷3號","121.433928333333","25.0233283333333","6500500","新莊區"
"242058","986-R7","2018/12/29 17:29:20","新北市新莊區中正路432號","121.440618333333","25.033635","6500500","新莊區"
"242056","751-BX","2018/12/29 17:29:26","新北市新莊區新泰路14號","121.44974","25.0330416666667","6500500","新莊區"
"242029","705-TV","2018/12/29 17:29:35","新北市新莊區思源路32號","121.460253333333","25.0404216666667","6500500","新莊區"
"242025","613-BX","2018/12/29 17:29:28","新北市新莊區中港路281號","121.453263333333","25.043805","6500500","新莊區"
"242029","612-BX","2018/12/29 17:29:27","新北市新莊區復興路二段180號","121.45887","25.0443983333333","6500500","新莊區"
"242044","566-BX","2018/12/29 17:29:23","新北市新莊區富國路101-1號","121.421336666667","25.025535","6500500","新莊區"
"242048","497-BY","2018/12/29 17:29:32","新北市新莊區龍安路259號","121.419891666667","25.0199716666667","6500500","新莊區"
"242021","442-UM","2018/12/29 17:29:37","新北市新莊區中華路一段31號","121.451996666667","25.037365","6500500","新莊區"
"242053","441-UM","2018/12/29 17:29:28","新北市新莊區瓊林南路307號","121.434018333333","25.00613","6500500","新莊區"
"242002","440-UM","2018/12/29 17:29:24","新北市新莊區碧江街11號","121.455875","25.03493","6500500","新莊區"
"242039","415-TV","2018/12/29 17:29:13","新北市新莊區民安路270號","121.42761","25.021335","6500500","新莊區"
"242009","413-TV","2018/12/29 17:29:36","新北市新莊區中原路107號","121.455866666667","25.054405","6500500","新莊區"
"242046","400-BY","2018/12/29 17:29:34","新北市新莊區新樹路12號","121.44005","25.0319183333333","6500500","新莊區"
"242023","362-BY","2018/12/29 17:29:22","新北市新莊區公園路148號","121.453068333333","25.0401","6500500","新莊區"
"242061","353-BY","2018/12/29 17:29:35","新北市新莊區瓊林南路50號","121.435785","25.0173733333333","6500500","新莊區"
"242034","135-UY","2018/12/29 17:29:22","新北市新莊區新莊路378號","121.44919","25.0334266666667","6500500","新莊區"
"242051","172-VK","2018/12/29 17:29:37","新北市新莊區瓊林南路75-2號","121.435036666667","25.0142816666667","6500500","新莊區"
"242013","173-VK","2018/12/29 17:29:22","新北市新莊區中誠街102號","121.449795","25.0478033333333","6500500","新莊區"
"242019","175-VK","2018/12/29 17:29:17","新北市新莊區中港路五守新村1巷3號","121.455253333333","25.03842","6500500","新莊區"
"242017","KED-0687","2018/12/29 17:29:19","新北市新莊區復興路一段212號","121.452766666667","25.0437716666667","6500500","新莊區"
"242007","346-TH","2018/12/29 17:29:16","新北市新莊區自強街38號","121.45477","25.04638","6500500","新莊區"
"242011","347-TH","2018/12/29 17:29:30","新北市新莊區中華路二段83號","121.452635","25.0481533333333","6500500","新莊區"
"242031","348-TH","2018/12/29 17:29:33","新北市新莊區新泰路438巷1號","121.443545","25.0447683333333","6500500","新莊區"
"242004","349-TH","2018/12/29 17:29:34","新北市新莊區中華路二段20-1號","121.453361666667","25.0445","6500500","新莊區"
"242015","351-TH","2018/12/29 17:29:23","新北市新莊區新泰路161號","121.447806666667","25.0370183333333","6500500","新莊區"
"238015","755-BX","2018/12/29 17:29:21","新北市樹林區長壽街19巷2號","121.421761666667","24.9941283333333","6500700","樹林區"
"238023","601-UM","2018/12/29 17:29:19","新北市樹林區三福街114號","121.406431666667","25.01633","6500700","樹林區"
"238019","599-UM","2018/12/29 17:29:21","新北市樹林區太平路25-1號","121.419151666667","24.98338","6500700","樹林區"
"238018","571-TV","2018/12/29 17:29:20","新北市樹林區鎮前街97巷6號","121.424581666667","24.9895216666667","6500700","樹林區"
"238024","5061-A6","2018/12/29 17:29:27","新北市樹林區鎮前街55號","121.425111666667","24.9914133333333","6500700","樹林區"
"238022","KEA-2213","2018/12/29 17:29:29","新北市樹林區仁愛街35號","121.421961666667","24.9818883333333","6500700","樹林區"
"238021","KEA-2539","2018/12/29 17:29:22","新北市樹林區佳園路二段41號","121.3919","24.962625","6500700","樹林區"
"238025","303-VK","2018/12/29 17:29:22","新北市樹林區保安街二段27號","121.416405","24.9998316666667","6500700","樹林區"
"238017","283-BY","2018/12/29 17:29:18","新北市樹林區中正路286-2號","121.415731666667","25.0089533333333","6500700","樹林區"
"238014","282-BY","2018/12/29 17:29:31","新北市樹林區保安街一段294巷3號","121.41925","24.9976083333333","6500700","樹林區"
"238020","268-VK","2018/12/29 17:29:31","新北市樹林區俊英街48號","121.428785","25.00268","6500700","樹林區"
"238026","172-UY","2018/12/29 17:29:27","新北市樹林區中山路二段219號","121.402816666667","24.976265","6500700","樹林區"
"239007","AAC-297","2018/12/29 17:29:36","新北市鶯歌區永明街99號","121.341485","24.9565033333333","6500800","鶯歌區"
"239006","891-R6","2018/12/29 17:29:25","新北市鶯歌區鶯桃路472巷26號","121.333366666667","24.9658866666667","6500800","鶯歌區"
"239008","527-UM","2018/12/29 17:29:26","新北市鶯歌區大湖路614號","121.334843333333","24.97468","6500800","鶯歌區"
"239005","526-UM","2018/12/29 17:28:24","新北市鶯歌區鶯桃路二段2號","121.326353333333","24.9717833333333","6500800","鶯歌區"
"239001","417-VK","2018/12/29 17:29:26","新北市鶯歌區高職西街1號","121.338293333333","24.9423083333333","6500800","鶯歌區"
"239003","360-BY","2018/12/29 17:29:28","新北市鶯歌區德昌街21號","121.33342","24.960005","6500800","鶯歌區"
"239002","359-BY","2018/12/29 17:29:18","新北市鶯歌區育才街31號","121.348725","24.9550083333333","6500800","鶯歌區"
"239004","193-VK","2018/12/29 17:29:22","新北市鶯歌區三鶯路29巷34號","121.353555","24.9391683333333","6500800","鶯歌區"
"221008","489-VK","2018/12/29 17:29:31","新北市汐止區康寧街901號","121.65137","25.075025","6501100","汐止區"
"242042","281-VK","2018/12/29 17:29:37","新北市新莊區新樹路113巷21號","121.439275","25.0263783333333","6500500","新莊區"
"235061","KEA-2875","2018/12/29 17:24:49","新北市中和區員山路36巷16-2號","121.485333333333","24.991685","6500300","中和區"
