"lineid","car","time","location","longitude","latitude","cityid","cityname"
"234026","9371-KE","2018/12/29 17:59:26","新北市永和區永和路一段41號","121.512841666667","25.0062366666667","6500400","永和區"
"249005","172-UM","2018/12/29 17:59:35","新北市八里區荖阡坑路18號","121.398065","25.1378116666667","6502300","八里區"
"249001","173-UM","2018/12/29 17:59:29","新北市八里區龍米路二段35號","121.448381666667","25.139995","6502300","八里區"
"249004","303-UY","2018/12/29 17:59:19","新北市八里區龍米路三段46號","121.427858333333","25.1591883333333","6502300","八里區"
"249002","305-UY","2018/12/29 17:59:36","新北市八里區龍米路一段430號","121.451001666667","25.133855","6502300","八里區"
"249003","593-UM","2018/12/29 17:59:35","新北市八里區中華路二段258巷8號","121.404916666667","25.149955","6502300","八里區"
"248006","077-UY","2018/12/29 17:59:39","新北市五股區中興路二段83巷26-3號","121.46002","25.075485","6501500","五股區"
"248008","095-VK","2018/12/29 17:59:35","新北市五股區更洲路10號","121.458336666667","25.0787933333333","6501500","五股區"
"248004","677-BX","2018/12/29 17:59:19","新北市五股區中興路二段37巷24號","121.460656666667","25.0752316666667","6501500","五股區"
"248010","682-TV","2018/12/29 17:59:34","新北市五股區中興路二段182巷3號","121.456051666667","25.0781233333333","6501500","五股區"
"232011","375-UM","2018/12/29 17:59:26","新北市坪林區北宜路八段167號","121.707665","24.9346366666667","6502000","坪林區"
"244007","080-UY","2018/12/29 17:59:33","新北市林口區林口路82號","121.38899","25.080775","6501700","林口區"
"244019","402-UM","2018/12/29 17:59:23","新北市林口區文化一路一段126號","121.375381666667","25.07247","6501700","林口區"
"244013","KEA-2802","2018/12/29 17:59:20","新北市林口區林口路31號","121.3906","25.0786866666667","6501700","林口區"
"244023","483-VK","2018/12/29 17:59:22","新北市林口區育林街30號","121.385783333333","25.0736833333333","6501700","林口區"
"244017","485-VK","2018/12/29 17:59:30","新北市林口區忠孝路372號","121.36923","25.071385","6501700","林口區"
"244009","656-BX","2018/12/29 17:59:25","新北市林口區竹林路606巷21弄1號","121.385161666667","25.0830533333333","6501700","林口區"
"244011","657-BX","2018/12/29 17:59:19","新北市林口區中正路188號","121.391588333333","25.0775516666667","6501700","林口區"
"244025","837-TS","2018/12/29 17:59:30","新北市林口區三民路18號","121.358715","25.066765","6501700","林口區"
"244021","838-TS","2018/12/29 17:59:31","新北市林口區新寮27-1號","121.397201666667","25.0679783333333","6501700","林口區"
"222003","436-BY","2018/12/29 17:59:25","新北市深坑區炮子崙23號","121.60718","24.9908966666667","6501800","深坑區"
"222002","659-BX","2018/12/29 17:59:21","新北市深坑區深坑街35號","121.615873333333","25.001825","6501800","深坑區"
"231046","107-UY","2018/12/29 17:59:22","新北市新店區康雅崙路45號","121.535656666667","24.9270333333333","6500600","新店區"
"221035","KEA-2785","2018/12/29 17:59:21","新北市汐止區新江北路30巷22弄7號","121.651361666667","25.0697966666667","6501100","汐止區"
"241024","065-VK","2018/12/29 17:59:31","新北市三重區中正北路193巷35弄63號","121.478441666667","25.0713666666667","6500200","三重區"
"251014","742-BX","2018/12/29 17:59:21","新北市淡水區公埔子16-6號","121.480598333333","25.2242","6501000","淡水區"
"241016","266-UM","2018/12/29 17:59:34","新北市五股區凌雲路三段17-2號","121.429868333333","25.1085216666667","6500200","三重區"
"235064","005-UY","2018/12/29 17:59:32","新北市中和區員山路36巷16-3號","121.48518","24.9913216666667","6500300","中和區"
"235063","006-UY","2018/12/29 17:59:39","新北市中和區員山路36巷16-3號","121.485021666667","24.991145","6500300","中和區"
"235058","151-BY","2018/12/29 17:59:27","新北市中和區圓通路367巷6號","121.491431666667","24.9892083333333","6500300","中和區"
"235038","185-VK","2018/12/29 17:59:22","新北市中和區中正路271號","121.49581","24.9938483333333","6500300","中和區"
"235049","186-VK","2018/12/29 17:59:33","新北市中和區員山路36巷16-2號","121.485233333333","24.99156","6500300","中和區"
"235067","255-BX","2018/12/29 17:59:33","新北市中和區和城路一段271巷1號","121.48574","24.991735","6500300","中和區"
"247012","KEA-2869","2018/12/29 17:59:34","新北市蘆洲區信義路302巷21號","121.478168333333","25.08844","6501400","蘆洲區"
"247006","KED-0682","2018/12/29 17:59:21","新北市蘆洲區中華街10號","121.46325","25.0815466666667","6501400","蘆洲區"
"235054","640-BX","2018/12/29 17:59:25","新北市中和區員山路36巷16-3號","121.48496","24.99178","6500300","中和區"
"235062","800-TS","2018/12/29 17:59:30","新北市中和區中正路637巷52弄3號","121.485331666667","24.9936333333333","6500300","中和區"
"235057","801-TS","2018/12/29 17:59:36","新北市中和區員山路36巷13號","121.484305","24.99074","6500300","中和區"
"235065","911-UM","2018/12/29 17:59:30","新北市中和區莊敬路49巷18號","121.501628333333","25.0061133333333","6500300","中和區"
"235051","157-BY","2018/12/29 17:59:29","新北市中和區員山路36巷13號","121.48415","24.9908383333333","6500300","中和區"
"235037","AAC-213","2018/12/29 17:59:27","新北市中和區錦和路350-1號","121.490468333333","24.9935683333333","6500300","中和區"
"247002","893-R6","2018/12/29 17:59:28","新北市蘆洲區永平街32巷57弄19號","121.459078333333","25.0930466666667","6501400","蘆洲區"
"247016","546-UM","2018/12/29 17:59:35","新北市蘆洲區中正路185巷78弄42號","121.465615","25.0849933333333","6501400","蘆洲區"
"247024","500-BY","2018/12/29 17:59:34","新北市蘆洲區光復路30巷20號","121.463823333333","25.0841116666667","6501400","蘆洲區"
"247010","336-TH","2018/12/29 17:59:19","新北市蘆洲區信義路271巷17號","121.478091666667","25.0846966666667","6501400","蘆洲區"
"247018","007-UY","2018/12/29 17:59:25","新北市蘆洲區復興路261號","121.480838333333","25.0899716666667","6501400","蘆洲區"
"228001","212-TW","2018/12/29 17:59:34","新北市貢寮區真理里新港街26巷53號","121.928488333333","25.0535833333333","6502600","貢寮區"
"228002","585-TW","2018/12/29 17:59:15","新北市貢寮區福隆里桂安街17號","121.9672","25.0231283333333","6502600","貢寮區"
"224006","676-BX","2018/12/29 17:59:23","新北市瑞芳區大寮路356-1號","121.784875","25.10321","6501200","瑞芳區"
"224011","420-VK","2018/12/29 17:59:34","新北市瑞芳區傑魚坑路75號","121.793021666667","25.1104733333333","6501200","瑞芳區"
"224008","285-BY","2018/12/29 17:59:28","新北市瑞芳區明燈路一段201巷97-1號","121.818743333333","25.1066266666667","6501200","瑞芳區"
"224009","273-VK","2018/12/29 17:59:37","新北市瑞芳區山尖路110號","121.852276666667","25.1135333333333","6501200","瑞芳區"
"224005","271-BY","2018/12/29 17:59:21","新北市瑞芳區深澳路18號","121.820185","25.13253","6501200","瑞芳區"
"227002","642-TC","2018/12/29 17:59:20","新北市雙溪區共和里東榮街52號","121.866318333333","25.033615","6502500","雙溪區"
"253006","032-BX","2018/12/29 17:59:21","新北市石門區大丘田45-2號","121.54983","25.2748433333333","6502200","石門區"
"253005","295-VK","2018/12/29 17:59:21","新北市石門區中山路62-12號","121.567441666667","25.2896333333333","6502200","石門區"
"222001","KEA-2212","2018/12/29 17:59:24","新北市深坑區北深路二段193號","121.612006666667","25.001195","6501800","深坑區"
"208002","KEA-2872","2018/12/29 17:59:23","新北市金山區三界壇路61-3號","121.62657","25.228155","6502700","金山區"
"208003","665-BX","2018/12/29 17:59:30","新北市金山區磺港里磺港路314號","121.644451666667","25.2279016666667","6502700","金山區"
"251009","008-UM","2018/12/29 17:59:21","新北市淡水區大仁街6巷1號","121.442418333333","25.1745966666667","6501000","淡水區"
"251004","009-UM","2018/12/29 17:59:22","新北市淡水區民權路187號","121.459613333333","25.1335266666667","6501000","淡水區"
"251002","012-UM","2018/12/29 17:59:31","新北市淡水區中正東路1號","121.447266666667","25.16736","6501000","淡水區"
"251013","KEA-2871","2018/12/29 17:59:37","新北市淡水區泉洲厝31號","121.4796","25.1910316666667","6501000","淡水區"
"251016","179-VK","2018/12/29 17:59:34","新北市淡水區淡金路三段46巷13弄1號","121.448371666667","25.1993266666667","6501000","淡水區"
"251008","181-VK","2018/12/29 17:59:27","新北市淡水區八勢一街37號","121.462068333333","25.1562783333333","6501000","淡水區"
"251015","182-VK","2018/12/29 17:59:27","新北市淡水區興福寮88巷1號","121.485315","25.16502","6501000","淡水區"
"251010","413-VK","2018/12/29 17:59:31","新北市淡水區淡海路46號","121.42314","25.1800083333333","6501000","淡水區"
"251012","441-VK","2018/12/29 17:59:31","新北市淡水區北新路三段38巷7號","121.484523333333","25.1869933333333","6501000","淡水區"
"251005","443-VK","2018/12/29 17:59:40","新北市淡水區英專路123號","121.445888333333","25.1725433333333","6501000","淡水區"
"251001","559-UM","2018/12/29 17:59:24","新北市淡水區民權路94巷1號","121.463173333333","25.1248683333333","6501000","淡水區"
"251006","561-UM","2018/12/29 17:59:29","新北市淡水區新生街78號","121.438971666667","25.1747483333333","6501000","淡水區"
"251011","650-BX","2018/12/29 17:59:23","新北市淡水區三空泉9-1號","121.474891666667","25.162795","6501000","淡水區"
"251003","766-UM","2018/12/29 17:59:30","新北市淡水區大忠街90號","121.444826666667","25.1762733333333","6501000","淡水區"
"207003","550-UM","2018/12/29 17:59:31","新北市萬里區港東路野柳風景區攤販68號","121.691293333333","25.2058233333333","6502800","萬里區"
"207004","225-TW","2018/12/29 17:59:35","新北市萬里區中幅里中福路48號","121.683186666667","25.1740183333333","6502800","萬里區"
"252002","178-VK","2018/12/29 17:59:19","新北市三芝區中山路二段49號","121.502948333333","25.2546433333333","6502100","三芝區"
"237004","KEA-2597","2018/12/29 17:59:19","新北市三峽區中正路二段125-5號","121.366208333333","24.9163316666667","6500900","三峽區"
"237009","210-TH","2018/12/29 17:59:33","新北市三峽區中山路106巷35號","121.36602","24.9366333333333","6500900","三峽區"
"237013","252-BX","2018/12/29 17:59:35","新北市三峽區介壽路一段222號","121.37817","24.930575","6500900","三峽區"
"237012","275-BY","2018/12/29 17:59:33","新北市三峽區民生街27巷30號","121.376106666667","24.9360883333333","6500900","三峽區"
"237008","302-VK","2018/12/29 17:59:29","新北市三峽區白雞5-1號","121.368376666667","24.9126616666667","6500900","三峽區"
"237014","433-BY","2018/12/29 17:59:35","新北市三峽區和平街36巷7弄1號","121.37081","24.93729","6500900","三峽區"
"237011","KEA-2596","2018/12/29 17:59:26","新北市三峽區大同路60號","121.376825","24.9284333333333","6500900","三峽區"
"237016","649-BX","2018/12/29 17:59:25","新北市三峽區紫微路139號","121.407228333333","24.9114516666667","6500900","三峽區"
"237010","706-TV","2018/12/29 17:59:33","新北市三峽區民權街200號","121.367728333333","24.9292216666667","6500900","三峽區"
"237005","AKY-6261","2018/12/29 17:59:35","新北市三峽區復興路235號","121.368466666667","24.9388633333333","6500900","三峽區"
"236070","105-UM","2018/12/29 17:59:21","新北市土城區石門路29號","121.459573333333","24.9659683333333","6501300","土城區"
"236042","KED-0685","2018/12/29 17:59:20","新北市土城區中華路二段2號","121.438851666667","24.9796316666667","6501300","土城區"
"236079","166-UM","2018/12/29 17:59:25","新北市土城區永寧路32巷10弄3號","121.428841666667","24.9610383333333","6501300","土城區"
"236030","253-BX","2018/12/29 17:59:33","新北市土城區城林路6巷80號","121.438661666667","24.9796283333333","6501300","土城區"
"236026","269-VK","2018/12/29 17:59:29","新北市土城區中央路三段42號","121.43756","24.9681033333333","6501300","土城區"
"236014","270-VK","2018/12/29 17:59:21","新北市土城區城林路6巷80號","121.438565","24.9795933333333","6501300","土城區"
"236038","271-VK","2018/12/29 17:59:26","新北市土城區城林路6巷80號","121.438218333333","24.9795133333333","6501300","土城區"
"252001","KED-0821","2018/12/29 17:59:37","新北市三芝區中興街二段2號","121.498358333333","25.2565983333333","6502100","三芝區"
"236021","401-BY","2018/12/29 17:59:19","新北市土城區城林路6巷80號","121.438751666667","24.97972","6501300","土城區"
"236059","912-UM","2018/12/29 17:59:19","新北市土城區中央路三段204號","121.430173333333","24.9648083333333","6501300","土城區"
"236049","913-UM","2018/12/29 17:59:33","新北市土城區城林路6巷80號","121.438763333333","24.9796366666667","6501300","土城區"
"236063","915-UM","2018/12/29 17:59:23","新北市土城區城林路6巷80號","121.438456666667","24.9797583333333","6501300","土城區"
"236055","AAC-216","2018/12/29 17:59:16","新北市土城區城林路6巷80號","121.43848","24.9795516666667","6501300","土城區"
"242036","AAC-296","2018/12/29 17:59:25","新北市新莊區建福路27號","121.426251666667","25.0290316666667","6500500","新莊區"
"242058","986-R7","2018/12/29 17:59:20","新北市新莊區中正路708號","121.416113333333","25.0247916666667","6500500","新莊區"
"242056","751-BX","2018/12/29 17:59:32","新北市新莊區豐年街126號","121.446461666667","25.0298116666667","6500500","新莊區"
"242027","705-TV","2018/12/29 17:59:35","新北市新莊區思源路379號","121.459798333333","25.0512883333333","6500500","新莊區"
"242025","613-BX","2018/12/29 17:59:28","新北市新莊區五工路58號","121.458823333333","25.0628383333333","6500500","新莊區"
"242029","612-BX","2018/12/29 17:59:33","新北市新莊區中平路79號","121.444743333333","25.0451883333333","6500500","新莊區"
"242044","566-BX","2018/12/29 17:59:35","新北市新莊區雙鳳路101號","121.414591666667","25.0278933333333","6500500","新莊區"
"242048","497-BY","2018/12/29 17:59:33","新北市新莊區萬安街146巷1號","121.419833333333","25.0212","6500500","新莊區"
"242021","442-UM","2018/12/29 17:59:37","新北市新莊區建興街32號","121.45005","25.0372833333333","6500500","新莊區"
"242053","441-UM","2018/12/29 17:59:28","新北市新莊區西盛街395巷25弄11號","121.428416666667","25.0120666666667","6500500","新莊區"
"242002","440-UM","2018/12/29 17:59:24","新北市新莊區中正路153-3號","121.455856666667","25.03682","6500500","新莊區"
"242039","415-TV","2018/12/29 17:59:33","新北市新莊區民安西路22號","121.426728333333","25.0213533333333","6500500","新莊區"
"242009","413-TV","2018/12/29 17:59:36","新北市新莊區中華路二段260號","121.452593333333","25.0531883333333","6500500","新莊區"
"242046","400-BY","2018/12/29 17:59:20","新北市新莊區福營路165巷33號","121.432461666667","25.0301783333333","6500500","新莊區"
"242023","362-BY","2018/12/29 17:59:22","新北市新莊區福壽街63號","121.458248333333","25.04924","6500500","新莊區"
"242061","353-BY","2018/12/29 17:59:37","新北市新莊區新樹路389號","121.432905","25.0171916666667","6500500","新莊區"
"242034","135-UY","2018/12/29 17:59:22","新北市新莊區福海街31巷2號","121.445171666667","25.0339433333333","6500500","新莊區"
"242051","172-VK","2018/12/29 17:59:37","新北市新莊區西盛街167號","121.428463333333","25.0176083333333","6500500","新莊區"
"242013","173-VK","2018/12/29 17:59:22","新北市新莊區中和街125巷7號","121.446941666667","25.0485866666667","6500500","新莊區"
"242019","175-VK","2018/12/29 17:59:16","新北市新莊區明中街45-2號","121.457435","25.0393116666667","6500500","新莊區"
"242017","KED-0687","2018/12/29 17:59:39","新北市新莊區中港路339巷38號","121.450538333333","25.0450983333333","6500500","新莊區"
"242007","346-TH","2018/12/29 17:59:34","新北市新莊區自信街67號","121.455451666667","25.0482866666667","6500500","新莊區"
"242011","347-TH","2018/12/29 17:59:30","新北市新莊區中原路90號","121.451163333333","25.0543933333333","6500500","新莊區"
"242031","348-TH","2018/12/29 17:59:33","新北市新莊區新泰路316號","121.445186666667","25.041535","6500500","新莊區"
"242004","349-TH","2018/12/29 17:59:34","新北市新莊區福樂街72巷6號","121.458115","25.0465033333333","6500500","新莊區"
"242015","351-TH","2018/12/29 17:59:23","新北市新莊區中平路87巷5號","121.44421","25.0457183333333","6500500","新莊區"
"238015","755-BX","2018/12/29 17:59:21","新北市樹林區大安路325號","121.417398333333","24.99175","6500700","樹林區"
"238023","601-UM","2018/12/29 17:59:19","新北市樹林區龍興街55號","121.403196666667","25.0153133333333","6500700","樹林區"
"238019","599-UM","2018/12/29 17:59:37","新北市樹林區太平路273巷23號","121.421253333333","24.97655","6500700","樹林區"
"238018","571-TV","2018/12/29 17:59:20","新北市樹林區樹新路122號","121.430196666667","24.9984766666667","6500700","樹林區"
"238022","KEA-2213","2018/12/29 17:59:29","新北市樹林區太順街52號","121.418151666667","24.9793766666667","6500700","樹林區"
"238021","KEA-2539","2018/12/29 17:59:39","新北市樹林區柑園街一段230號","121.392531666667","24.9562933333333","6500700","樹林區"
"238025","303-VK","2018/12/29 17:59:22","新北市樹林區保安街二段277-1號","121.412675","25.00573","6500700","樹林區"
"238017","283-BY","2018/12/29 17:59:38","新北市樹林區中正路791號","121.409915","25.0161483333333","6500700","樹林區"
"238014","282-BY","2018/12/29 17:59:25","新北市樹林區千歲街112號","121.426923333333","24.9984083333333","6500700","樹林區"
"238020","268-VK","2018/12/29 17:59:31","新北市樹林區三俊街199巷35-4號","121.42085","25.0183516666667","6500700","樹林區"
"238026","172-UY","2018/12/29 17:59:27","新北市樹林區中洲街30巷6弄2號","121.397363333333","24.9714666666667","6500700","樹林區"
"238016","169-UY","2018/12/29 17:41:29","新北市樹林區育英街127號","121.419856666667","24.9892616666667","6500700","樹林區"
"239007","AAC-297","2018/12/29 17:59:36","新北市鶯歌區尖山埔路102號","121.34724","24.95114","6500800","鶯歌區"
"239006","891-R6","2018/12/29 17:59:25","新北市鶯歌區鶯桃路455巷6弄3號","121.331665","24.964465","6500800","鶯歌區"
"239008","527-UM","2018/12/29 17:59:26","新北市鶯歌區欣欣街4號","121.335818333333","24.9775316666667","6500800","鶯歌區"
"239005","526-UM","2018/12/29 17:59:24","新北市鶯歌區鶯桃路668巷74-1號","121.32994","24.971745","6500800","鶯歌區"
"239001","417-VK","2018/12/29 17:59:26","新北市鶯歌區尖山路卓厝巷7號","121.341548333333","24.9452733333333","6500800","鶯歌區"
"239003","360-BY","2018/12/29 17:59:28","新北市鶯歌區鶯桃路342號","121.333885","24.9623733333333","6500800","鶯歌區"
"239002","359-BY","2018/12/29 17:59:38","新北市鶯歌區中山路249巷20號","121.347333333333","24.956545","6500800","鶯歌區"
"239004","193-VK","2018/12/29 17:59:22","新北市鶯歌區尖山路137巷5弄2衖24號","121.34772","24.9478416666667","6500800","鶯歌區"
"221008","489-VK","2018/12/29 17:59:31","新北市汐止區明峰街27號","121.63424","25.071285","6501100","汐止區"
"221036","130-UY","2018/12/29 17:59:25","新北市汐止區大同路三段243-1號","121.673235","25.076205","6501100","汐止區"
"221015","131-UY","2018/12/29 17:59:32","新北市汐止區吉祥街27巷16號","121.666748333333","25.0816816666667","6501100","汐止區"
"221010","269-BY","2018/12/29 17:59:25","新北市汐止區汐萬路二段245巷19號","121.644988333333","25.08744","6501100","汐止區"
"221012","278-VK","2018/12/29 17:59:28","新北市汐止區長興街二段50巷1號","121.674083333333","25.0817","6501100","汐止區"
"221023","279-VK","2018/12/29 17:59:30","新北市汐止區明峰街160號","121.629255","25.07061","6501100","汐止區"
"221032","280-BY","2018/12/29 17:59:34","新北市汐止區橫科路52巷9弄5號","121.619473333333","25.0504266666667","6501100","汐止區"
"221027","281-BY","2018/12/29 17:59:18","新北市汐止區大同路二段374號","121.657788333333","25.06715","6501100","汐止區"
"221029","298-VK","2018/12/29 17:59:36","新北市汐止區樟樹二路326號","121.641435","25.0701566666667","6501100","汐止區"
"221021","299-VK","2018/12/29 17:59:26","新北市汐止區新興路16號","121.656415","25.0646766666667","6501100","汐止區"
"221031","353-TW","2018/12/29 17:59:31","新北市汐止區中興路226-1號","121.630731666667","25.0666083333333","6501100","汐止區"
"221025","623-UM","2018/12/29 17:59:24","新北市汐止區仁愛路47號","121.659661666667","25.063225","6501100","汐止區"
"221038","646-BX","2018/12/29 17:59:30","新北市汐止區連興街128巷7弄18號","121.653521666667","25.0611016666667","6501100","汐止區"
"221033","647-BX","2018/12/29 17:59:29","台北市南港區合順街8巷5弄53號","121.619856666667","25.0425116666667","6501100","汐止區"
"221002","707-TV","2018/12/29 17:59:18","新北市汐止區工建路212號","121.636171666667","25.0620466666667","6501100","汐止區"
"221018","753-BX","2018/12/29 17:59:31","新北市汐止區忠孝東路348號","121.66551","25.0697816666667","6501100","汐止區"
"224002","257-TC","2018/12/29 17:59:34","新北市瑞芳區三爪子坑路64-36號","121.809288333333","25.105945","6501200","瑞芳區"
"242042","281-VK","2018/12/29 17:59:37","新北市新莊區中正路723-9號","121.422903333333","25.0290566666667","6500500","新莊區"
"235061","KEA-2875","2018/12/29 17:59:11","新北市中和區員山路36巷16-2號","121.485261666667","24.9917666666667","6500300","中和區"
