"lineid","car","time","location","longitude","latitude","cityid","cityname"
"234026","9371-KE","2018/12/29 18:09:35","新北市永和區秀朗路一段10巷19號","121.513486666667","25.006225","6500400","永和區"
"249005","172-UM","2018/12/29 18:09:35","新北市八里區荖阡坑路15-40號","121.401736666667","25.1396366666667","6502300","八里區"
"249001","173-UM","2018/12/29 18:09:29","新北市八里區龍米路二段26號","121.448808333333","25.13955","6502300","八里區"
"249004","303-UY","2018/12/29 18:09:19","新北市八里區龍米路二段200巷3號","121.43372","25.1588016666667","6502300","八里區"
"249002","305-UY","2018/12/29 18:09:36","新北市八里區龍米路一段356巷40號","121.452205","25.13051","6502300","八里區"
"249003","593-UM","2018/12/29 18:09:23","新北市八里區松子腳3-2號","121.403033333333","25.1443183333333","6502300","八里區"
"248016","026-BX","2018/12/29 18:09:30","新北市五股區成泰路三段221巷16號","121.445738333333","25.0934316666667","6501500","五股區"
"248006","077-UY","2018/12/29 18:09:39","新北市五股區中興路二段82號","121.460841666667","25.0772783333333","6501500","五股區"
"248008","095-VK","2018/12/29 18:09:35","新北市五股區中興路二段182巷15弄16號","121.458075","25.08053","6501500","五股區"
"248020","225-UY","2018/12/29 18:09:34","新北市五股區成泰路三段544-1號","121.454403333333","25.10243","6501500","五股區"
"248014","261-SL","2018/12/29 18:09:26","新北市五股區成泰路一段187號","121.435048333333","25.076535","6501500","五股區"
"248004","677-BX","2018/12/29 18:09:21","新北市五股區工商路48號","121.439178333333","25.0839766666667","6501500","五股區"
"248010","682-TV","2018/12/29 18:09:34","新北市五股區成泰路一段229-1號","121.434236666667","25.077675","6501500","五股區"
"232011","375-UM","2018/12/29 18:09:26","新北市坪林區國中路4號","121.713405","24.9389266666667","6502000","坪林區"
"244007","080-UY","2018/12/29 18:09:33","新北市林口區林口路124巷10弄22號","121.389253333333","25.081455","6501700","林口區"
"244019","402-UM","2018/12/29 18:09:23","新北市林口區麗園路89號","121.373126666667","25.0687266666667","6501700","林口區"
"244013","KEA-2802","2018/12/29 18:09:20","新北市林口區中山路36號","121.395585","25.078435","6501700","林口區"
"244023","483-VK","2018/12/29 18:09:22","新北市林口區東湖路93巷10號","121.38429","25.073135","6501700","林口區"
"244017","485-VK","2018/12/29 18:09:30","新北市林口區八德路48巷1號","121.366853333333","25.0661516666667","6501700","林口區"
"244009","656-BX","2018/12/29 18:09:25","新北市林口區福林路52巷32號","121.380171666667","25.0895983333333","6501700","林口區"
"244011","657-BX","2018/12/29 18:09:38","新北市林口區中正路32號","121.39565","25.0775533333333","6501700","林口區"
"244025","837-TS","2018/12/29 18:09:29","新北市林口區文化北路一段301-1號","121.36031","25.0727533333333","6501700","林口區"
"244021","838-TS","2018/12/29 18:09:39","新北市林口區自強八街23號","121.399886666667","25.0758916666667","6501700","林口區"
"243013","AAD-798","2018/12/29 18:09:19","新北市泰山區南林路93號","121.415531666667","25.05113","6501600","泰山區"
"222003","436-BY","2018/12/29 18:09:25","新北市深坑區阿柔洋45號","121.612238333333","24.997945","6501800","深坑區"
"222002","659-BX","2018/12/29 18:09:21","新北市深坑區文化街52號","121.618896666667","25.0015883333333","6501800","深坑區"
"231041","002-UM","2018/12/29 18:09:25","新北市新店區安華路28-1號","121.51959","24.9608133333333","6500600","新店區"
"231059","046-UY","2018/12/29 18:09:34","新北市新店區安華路28-1號","121.519498333333","24.9608066666667","6500600","新店區"
"231040","047-UY","2018/12/29 18:09:24","新北市新店區安華路28-1號","121.519188333333","24.960895","6500600","新店區"
"231044","106-UY","2018/12/29 18:09:19","新北市新店區安華路28-1號","121.519686666667","24.9607666666667","6500600","新店區"
"231046","107-UY","2018/12/29 18:09:22","新北市新店區直潭七街60號","121.532233333333","24.9398416666667","6500600","新店區"
"231052","108-UY","2018/12/29 18:09:36","新北市新店區安一路一段1-1號","121.519396666667","24.9610466666667","6500600","新店區"
"231054","188-VK","2018/12/29 18:09:21","新北市新店區安一路一段1-1號","121.519678333333","24.96131","6500600","新店區"
"221035","KEA-2785","2018/12/29 18:09:21","新北市汐止區大同路二段215號","121.652911666667","25.06478","6501100","汐止區"
"231057","256-BX","2018/12/29 18:09:10","新北市新店區安一路一段1-1號","121.519681666667","24.9610516666667","6500600","新店區"
"231065","260-TV","2018/12/29 18:09:19","新北市新店區安一路一段1-1號","121.519101666667","24.9613966666667","6500600","新店區"
"231042","268-BY","2018/12/29 18:09:32","新北市新店區安華路28-1號","121.519378333333","24.960565","6500600","新店區"
"231051","278-BY","2018/12/29 18:09:36","新北市新店區安一路一段1-1號","121.519398333333","24.96107","6500600","新店區"
"231050","AAD-862","2018/12/29 18:09:19","新北市新店區安華路28-1號","121.519576666667","24.96097","6500600","新店區"
"231043","355-BY","2018/12/29 18:09:31","新北市新店區安華路28-1號","121.519336666667","24.96098","6500600","新店區"
"231058","3713-VJ","2018/12/29 18:09:21","新北市新店區安華路28-1號","121.51931","24.9606616666667","6500600","新店區"
"231056","4715-K9","2018/12/29 18:09:16","新北市新店區安康路一段100號","121.527445","24.9623533333333","6500600","新店區"
"231049","513-UM","2018/12/29 18:09:25","新北市新店區安一路一段1-1號","121.519701666667","24.9611783333333","6500600","新店區"
"231061","619-UM","2018/12/29 18:09:17","新北市新店區安華路28-1號","121.519421666667","24.9607833333333","6500600","新店區"
"231063","641-BX","2018/12/29 18:09:34","新北市新店區安華路1-1號","121.519503333333","24.9604333333333","6500600","新店區"
"231064","719-UM","2018/12/29 18:09:30","新北市新店區安華路28-1號","121.520206666667","24.9609166666667","6500600","新店區"
"231062","720-UM","2018/12/29 18:09:34","新北市新店區安一路一段1-1號","121.519308333333","24.9611716666667","6500600","新店區"
"231060","897-TW","2018/12/29 18:09:26","新北市新店區安華路28-1號","121.519441666667","24.9605683333333","6500600","新店區"
"231055","AKT-0513","2018/12/29 18:09:33","新北市新店區安一路一段1-1號","121.519306666667","24.9612416666667","6500600","新店區"
"251014","742-BX","2018/12/29 18:09:21","新北市淡水區南平15號","121.487895","25.2197583333333","6501000","淡水區"
"235064","005-UY","2018/12/29 18:09:32","新北市中和區圓通路141巷48弄15號","121.498063333333","24.9938666666667","6500300","中和區"
"235063","006-UY","2018/12/29 18:09:19","新北市中和區員山路36巷16-3號","121.484991666667","24.9911833333333","6500300","中和區"
"235056","096-UM","2018/12/29 18:09:24","新北市中和區和城路一段271巷1號","121.485441666667","24.99209","6500300","中和區"
"235039","097-UM","2018/12/29 18:09:37","新北市中和區和城路一段271巷1號","121.48544","24.9918416666667","6500300","中和區"
"235058","151-BY","2018/12/29 18:09:27","新北市中和區圓通路367巷62-8號","121.492956666667","24.9831016666667","6500300","中和區"
"235055","183-VK","2018/12/29 18:09:37","新北市中和區員山路36巷16-3號","121.485065","24.99135","6500300","中和區"
"235038","185-VK","2018/12/29 18:09:22","新北市中和區景平路112號","121.519748333333","24.9918783333333","6500300","中和區"
"235049","186-VK","2018/12/29 18:09:33","新北市中和區員山路36巷16-2號","121.48523","24.9915733333333","6500300","中和區"
"235067","255-BX","2018/12/29 18:09:34","新北市中和區和城路一段271巷1號","121.485666666667","24.9917616666667","6500300","中和區"
"235042","KEA-2878","2018/12/29 18:09:37","新北市中和區景平路263-1號","121.508401666667","24.9930033333333","6500300","中和區"
"247012","KEA-2869","2018/12/29 18:09:34","新北市蘆洲區中山二路77號","121.473253333333","25.0819583333333","6501400","蘆洲區"
"235050","4979-A6","2018/12/29 18:09:36","新北市中和區錦和路350-1號","121.490193333333","24.9935416666667","6500300","中和區"
"235070","558-UM","2018/12/29 18:09:21","新北市中和區錦和路350-1號","121.490525","24.9935716666667","6500300","中和區"
"235045","565-BX","2018/12/29 18:09:20","新北市中和區中正路273號","121.495696666667","24.9938066666667","6500300","中和區"
"235054","640-BX","2018/12/29 18:09:25","新北市土城區延壽路111巷1號","121.469153333333","24.99367","6500300","中和區"
"235060","647-TV","2018/12/29 18:09:35","新北市中和區員山路78號","121.480923333333","24.9939083333333","6500300","中和區"
"235047","732-UM","2018/12/29 18:09:16","新北市中和區中正路637巷60弄61號","121.48547","24.992925","6500300","中和區"
"235062","800-TS","2018/12/29 18:09:30","新北市中和區中山路二段512號","121.486395","25.005035","6500300","中和區"
"235057","801-TS","2018/12/29 18:09:36","新北市中和區民享街97巷19號","121.47534","24.9995566666667","6500300","中和區"
"235052","805-TS","2018/12/29 18:09:38","新北市中和區中正路256號","121.495463333333","24.9940283333333","6500300","中和區"
"235048","896-TW","2018/12/29 18:09:27","新北市中和區員山路36巷16-3號","121.484901666667","24.9918516666667","6500300","中和區"
"235065","911-UM","2018/12/29 18:09:30","新北市中和區莊敬路49巷27號","121.50158","25.006105","6500300","中和區"
"235051","157-BY","2018/12/29 18:09:29","新北市中和區復興路275號","121.502555","24.9903733333333","6500300","中和區"
"235037","AAC-213","2018/12/29 18:09:27","新北市中和區景平路149號","121.513895","24.9921133333333","6500300","中和區"
"247016","546-UM","2018/12/29 18:09:26","新北市蘆洲區光華路15-1號","121.469705","25.083345","6501400","蘆洲區"
"226004","312-R5","2018/12/29 18:09:31","新北市平溪區靜安路二段176號","121.722885","25.0217766666667","6502400","平溪區"
"235072","251-BX","2018/12/29 18:09:27","新北市中和區中正路472號","121.489826666667","24.994165","6500300","中和區"
"228001","212-TW","2018/12/29 18:09:33","新北市貢寮區真理里新港街26巷55弄2-1號","121.927421666667","25.05287","6502600","貢寮區"
"228002","585-TW","2018/12/29 18:09:35","新北市貢寮區福連里馬崗街1號","121.995515","25.0155516666667","6502600","貢寮區"
"224006","676-BX","2018/12/29 18:09:36","新北市瑞芳區中山路30號","121.803888333333","25.1063083333333","6501200","瑞芳區"
"224011","420-VK","2018/12/29 18:09:34","新北市瑞芳區明燈路一段1號","121.830263333333","25.112","6501200","瑞芳區"
"224008","285-BY","2018/12/29 18:09:28","新北市瑞芳區員山子路3-1號","121.819091666667","25.1047566666667","6501200","瑞芳區"
"224007","275-VK","2018/12/29 18:09:24","新北市瑞芳區四腳亭坑路22號","121.777271666667","25.1095383333333","6501200","瑞芳區"
"224009","273-VK","2018/12/29 18:09:37","新北市瑞芳區金光路115號","121.853656666667","25.1062616666667","6501200","瑞芳區"
"224005","271-BY","2018/12/29 18:09:21","新北市瑞芳區深澳路1號","121.81644","25.1285666666667","6501200","瑞芳區"
"227002","642-TC","2018/12/29 18:09:20","新北市雙溪區共和里東榮街52號","121.866326666667","25.03361","6502500","雙溪區"
"253006","032-BX","2018/12/29 18:09:21","新北市石門區老梅路52巷21號","121.546335","25.28852","6502200","石門區"
"253005","295-VK","2018/12/29 18:09:21","新北市石門區福安街17號","121.568588333333","25.292595","6502200","石門區"
"222001","KEA-2212","2018/12/29 18:09:39","新北市深坑區北深路二段186號","121.614025","25.0022616666667","6501800","深坑區"
"208002","KEA-2872","2018/12/29 18:09:23","新北市金山區三界壇路99巷4號","121.622088333333","25.2288383333333","6502700","金山區"
"208003","665-BX","2018/12/29 18:07:30","新北市金山區磺港里磺港路313號","121.644401666667","25.2279116666667","6502700","金山區"
"208001","761-BX","2018/12/29 18:09:35","新北市金山區磺港里磺港路108號","121.646446666667","25.2268933333333","6502700","金山區"
"251004","009-UM","2018/12/29 18:09:22","新北市淡水區民族路110巷12弄1號","121.461958333333","25.13551","6501000","淡水區"
"251002","012-UM","2018/12/29 18:09:31","新北市淡水區中正東路一段129號","121.455595","25.1592916666667","6501000","淡水區"
"251013","KEA-2871","2018/12/29 18:09:37","新北市淡水區竹圍子9-6號","121.476628333333","25.1927516666667","6501000","淡水區"
"251016","179-VK","2018/12/29 18:09:34","新北市淡水區下圭柔山13號","121.451233333333","25.2008233333333","6501000","淡水區"
"251008","181-VK","2018/12/29 18:09:27","新北市淡水區坪頂路70巷26號","121.460603333333","25.1604333333333","6501000","淡水區"
"251015","182-VK","2018/12/29 18:09:27","新北市淡水區興福寮88巷1號","121.485275","25.16489","6501000","淡水區"
"251010","413-VK","2018/12/29 18:09:31","新北市淡水區中正路二段52號","121.419826666667","25.1833083333333","6501000","淡水區"
"251012","441-VK","2018/12/29 18:09:31","新北市淡水區北新路三段171-1號","121.492206666667","25.191725","6501000","淡水區"
"251005","443-VK","2018/12/29 18:09:20","新北市淡水區水源街一段139號","121.44717","25.1719233333333","6501000","淡水區"
"251001","559-UM","2018/12/29 18:09:24","新北市淡水區自立路15巷1號","121.462986666667","25.1298083333333","6501000","淡水區"
"251006","561-UM","2018/12/29 18:09:29","新北市淡水區真理街3巷20號","121.437546666667","25.1760133333333","6501000","淡水區"
"251011","650-BX","2018/12/29 18:09:23","新北市淡水區三空泉5號","121.476723333333","25.1613916666667","6501000","淡水區"
"251003","766-UM","2018/12/29 18:09:30","新北市淡水區大忠街113巷22號","121.447351666667","25.1775616666667","6501000","淡水區"
"207003","550-UM","2018/12/29 18:09:37","新北市萬里區野柳里港西路74號","121.685653333333","25.2049466666667","6502800","萬里區"
"207004","225-TW","2018/12/29 18:09:35","新北市萬里區中幅里中福路106號","121.676806666667","25.1692966666667","6502800","萬里區"
"252002","178-VK","2018/12/29 18:09:19","新北市三芝區中山路二段43號","121.502988333333","25.25503","6502100","三芝區"
"252003","249-BX","2018/12/29 18:09:31","新北市三芝區埔頭里埔頭37號","121.498485","25.2603133333333","6502100","三芝區"
"237004","KEA-2597","2018/12/29 18:09:19","新北市三峽區大埔路150號","121.367705","24.902175","6500900","三峽區"
"237009","210-TH","2018/12/29 18:09:33","新北市三峽區大仁路65號","121.365055","24.9373433333333","6500900","三峽區"
"237013","252-BX","2018/12/29 18:09:35","新北市三峽區長泰街78巷16-3號","121.37679","24.93356","6500900","三峽區"
"237012","275-BY","2018/12/29 18:09:33","新北市三峽區民生街1巷5-64號","121.378783333333","24.9349466666667","6500900","三峽區"
"237008","302-VK","2018/12/29 18:09:29","新北市三峽區白雞42-1號","121.379061666667","24.9110566666667","6500900","三峽區"
"237014","433-BY","2018/12/29 18:09:35","新北市三峽區復興路80巷26號","121.373776666667","24.937875","6500900","三峽區"
"237011","KEA-2596","2018/12/29 18:09:26","新北市三峽區橫溪路3號","121.396071666667","24.9361033333333","6500900","三峽區"
"237016","649-BX","2018/12/29 18:09:25","新北市三峽區紫新路36巷2號","121.422015","24.92217","6500900","三峽區"
"237010","706-TV","2018/12/29 18:09:33","新北市三峽區民族街51號","121.369665","24.9298783333333","6500900","三峽區"
"237005","AKY-6261","2018/12/29 18:09:32","新北市三峽區民生街249號","121.370703333333","24.9347033333333","6500900","三峽區"
"236070","105-UM","2018/12/29 18:09:22","新北市土城區明德路一段126號","121.46377","24.9790316666667","6501300","土城區"
"236042","KED-0685","2018/12/29 18:09:20","新北市土城區中華路二段2號","121.438858333333","24.9796266666667","6501300","土城區"
"236079","166-UM","2018/12/29 18:09:25","新北市土城區永寧路27巷2-1號","121.43104","24.9637983333333","6501300","土城區"
"236030","253-BX","2018/12/29 18:09:33","新北市土城區城林路6巷80號","121.438661666667","24.9796283333333","6501300","土城區"
"236026","269-VK","2018/12/29 18:09:29","新北市土城區承天路20號","121.439591666667","24.9634","6501300","土城區"
"236014","270-VK","2018/12/29 18:09:21","新北市土城區明德路二段135-1號","121.449178333333","24.982545","6501300","土城區"
"236038","271-VK","2018/12/29 18:09:26","新北市土城區青雲路449號","121.458811666667","24.9749616666667","6501300","土城區"
"252001","KED-0821","2018/12/29 18:09:37","新北市三芝區中興街二段2號","121.498351666667","25.2566183333333","6502100","三芝區"
"236021","401-BY","2018/12/29 18:09:19","新北市土城區城林路6巷80號","121.43875","24.97974","6501300","土城區"
"236059","912-UM","2018/12/29 18:09:34","新北市土城區中央路四段188號","121.4164","24.95779","6501300","土城區"
"236049","913-UM","2018/12/29 18:09:33","新北市土城區金城路二段26號","121.449968333333","24.9778416666667","6501300","土城區"
"236063","915-UM","2018/12/29 18:09:23","新北市土城區中正路75號","121.445191666667","24.9756866666667","6501300","土城區"
"236055","AAC-216","2018/12/29 18:09:36","新北市土城區中華路二段92號","121.43827","24.9747166666667","6501300","土城區"
"242036","AAC-296","2018/12/29 18:09:25","新北市新莊區後港一路49巷8號","121.425958333333","25.02678","6500500","新莊區"
"242058","986-R7","2018/12/29 18:09:20","新北市新莊區雙鳳路134巷6號","121.412773333333","25.0280933333333","6500500","新莊區"
"242056","751-BX","2018/12/29 18:09:26","新北市新莊區豐年街豐1巷15號","121.447148333333","25.031215","6500500","新莊區"
"242027","705-TV","2018/12/29 18:09:35","新北市新莊區幸福路515號","121.455596666667","25.0493183333333","6500500","新莊區"
"242025","613-BX","2018/12/29 18:09:28","新北市新莊區五權一路120號","121.46015","25.06837","6500500","新莊區"
"242029","612-BX","2018/12/29 18:09:31","新北市新莊區中平路188號","121.444825","25.0480816666667","6500500","新莊區"
"242044","566-BX","2018/12/29 18:09:23","新北市新莊區天祥街15巷39號","121.415481666667","25.0274566666667","6500500","新莊區"
"242048","497-BY","2018/12/29 18:09:32","新北市新莊區萬安街67巷14號","121.422035","25.02373","6500500","新莊區"
"242021","442-UM","2018/12/29 18:09:37","新北市新莊區新興街39號","121.450656666667","25.0384833333333","6500500","新莊區"
"242053","441-UM","2018/12/29 18:09:28","新北市新莊區光華街60巷1號","121.428295","25.01179","6500500","新莊區"
"242002","440-UM","2018/12/29 18:09:39","新北市新莊區新莊路84號","121.456915","25.0363933333333","6500500","新莊區"
"242039","415-TV","2018/12/29 18:09:33","新北市新莊區民安西路38巷13號","121.426878333333","25.0206933333333","6500500","新莊區"
"242009","413-TV","2018/12/29 18:09:36","新北市新莊區昌平街71巷13號","121.453766666667","25.0535133333333","6500500","新莊區"
"242046","400-BY","2018/12/29 18:09:40","新北市新莊區福營路227巷27號","121.43025","25.029155","6500500","新莊區"
"242023","362-BY","2018/12/29 18:09:22","新北市泰山區泰林路一段2號","121.442001666667","25.04777","6500500","新莊區"
"242061","353-BY","2018/12/29 18:09:35","新北市新莊區新樹路207-7號","121.43587","25.0238566666667","6500500","新莊區"
"242034","135-UY","2018/12/29 18:09:22","新北市新莊區景德路382號","121.446278333333","25.033525","6500500","新莊區"
"242051","172-VK","2018/12/29 18:03:57","新北市新莊區民本街43巷19號","121.428956666667","25.0183866666667","6500500","新莊區"
"242019","175-VK","2018/12/29 18:09:28","新北市新莊區民樂街23號","121.45766","25.04068","6500500","新莊區"
"242017","KED-0687","2018/12/29 18:09:31","新北市新莊區永樂街92號","121.450478333333","25.0449033333333","6500500","新莊區"
"242007","346-TH","2018/12/29 18:09:34","新北市新莊區中華路二段62號","121.454121666667","25.0462133333333","6500500","新莊區"
"242011","347-TH","2018/12/29 18:09:30","新北市新莊區中榮街56巷13弄2號","121.449151666667","25.0534383333333","6500500","新莊區"
"242031","348-TH","2018/12/29 18:09:34","新北市新莊區新泰路277巷40號","121.443873333333","25.0402366666667","6500500","新莊區"
"242004","349-TH","2018/12/29 18:09:34","新北市新莊區自立街98號","121.455028333333","25.0453433333333","6500500","新莊區"
"242015","351-TH","2018/12/29 18:09:23","新北市新莊區中和街59巷10弄9號","121.446803333333","25.0471716666667","6500500","新莊區"
"238015","755-BX","2018/12/29 18:09:21","新北市樹林區啟智街82-1號","121.419063333333","24.9906833333333","6500700","樹林區"
"238023","601-UM","2018/12/29 18:09:19","新北市樹林區三寶街12號","121.40648","25.015655","6500700","樹林區"
"238019","599-UM","2018/12/29 18:09:37","新北市樹林區忠孝街101巷1號","121.424656666667","24.9810033333333","6500700","樹林區"
"238018","571-TV","2018/12/29 18:09:20","新北市板橋區大觀路三段236-6號","121.429281666667","24.9923983333333","6500700","樹林區"
"238022","KEA-2213","2018/12/29 18:09:29","新北市樹林區太平路174巷29弄2號","121.417531666667","24.9765383333333","6500700","樹林區"
"238021","KEA-2539","2018/12/29 18:09:22","新北市樹林區柑園街二段149巷2-1號","121.382091666667","24.9539733333333","6500700","樹林區"
"238025","303-VK","2018/12/29 18:09:22","新北市樹林區保安街一段219號","121.420443333333","24.9962983333333","6500700","樹林區"
"238017","283-BY","2018/12/29 18:09:38","新北市樹林區中正路747號","121.410915","25.0147033333333","6500700","樹林區"
"238014","282-BY","2018/12/29 18:09:25","新北市樹林區潭興街103號","121.424756666667","24.99847","6500700","樹林區"
"238020","268-VK","2018/12/29 18:09:31","新北市樹林區俊興街298號","121.418608333333","25.0178966666667","6500700","樹林區"
"238026","172-UY","2018/12/29 18:09:27","新北市樹林區佳園路一段50號","121.392831666667","24.9706366666667","6500700","樹林區"
"238016","169-UY","2018/12/29 18:09:28","新北市樹林區育英街161號","121.419013333333","24.989495","6500700","樹林區"
"239007","AAC-297","2018/12/29 18:09:16","新北市鶯歌區尖山埔路2-2號","121.34985","24.9511883333333","6500800","鶯歌區"
"239006","891-R6","2018/12/29 18:09:36","新北市鶯歌區鶯桃路383號","121.333536666667","24.9636166666667","6500800","鶯歌區"
"239008","527-UM","2018/12/29 18:09:26","新北市鶯歌區朝陽街63巷3弄4號","121.338873333333","24.97814","6500800","鶯歌區"
"239005","526-UM","2018/12/29 18:09:24","新北市鶯歌區鶯桃路668巷73號","121.329965","24.9718166666667","6500800","鶯歌區"
"239001","417-VK","2018/12/29 18:09:26","新北市鶯歌區中正三路福德巷19號","121.339993333333","24.940935","6500800","鶯歌區"
"239003","360-BY","2018/12/29 18:09:28","新北市鶯歌區福安街13巷1號","121.335605","24.9652866666667","6500800","鶯歌區"
"239002","359-BY","2018/12/29 18:09:38","新北市鶯歌區中山路162號","121.349121666667","24.9570533333333","6500800","鶯歌區"
"239004","193-VK","2018/12/29 18:09:22","新北市鶯歌區尖山路168巷1號","121.345163333333","24.94805","6500800","鶯歌區"
"221008","489-VK","2018/12/29 18:09:31","新北市汐止區康寧街301號","121.627018333333","25.0673683333333","6501100","汐止區"
"221036","130-UY","2018/12/29 18:09:25","新北市汐止區長安路72號","121.669225","25.0783533333333","6501100","汐止區"
"221015","131-UY","2018/12/29 18:08:52","新北市汐止區鄉長路二段90-1號","121.665781666667","25.0857483333333","6501100","汐止區"
"221010","269-BY","2018/12/29 18:09:30","新北市汐止區祥雲街2號","121.645718333333","25.0896166666667","6501100","汐止區"
"221012","278-VK","2018/12/29 18:09:19","新北市汐止區保一街67號","121.6742","25.0798866666667","6501100","汐止區"
"221023","279-VK","2018/12/29 18:09:33","新北市汐止區中興路295號","121.627836666667","25.0701933333333","6501100","汐止區"
"221032","280-BY","2018/12/29 18:09:34","新北市汐止區力行街1號","121.617398333333","25.0513166666667","6501100","汐止區"
"221027","281-BY","2018/12/29 18:09:36","新北市汐止區中正路7號","121.663175","25.070015","6501100","汐止區"
"221029","298-VK","2018/12/29 18:09:24","新北市汐止區樟樹二路134號","121.639905","25.06573","6501100","汐止區"
"221021","299-VK","2018/12/29 18:09:33","新北市汐止區龍安路16號","121.655686666667","25.064155","6501100","汐止區"
"221031","353-TW","2018/12/29 18:09:35","新北市汐止區中興路168號","121.631938333333","25.0653383333333","6501100","汐止區"
"221025","623-UM","2018/12/29 18:09:24","新北市汐止區勤進路8號","121.659801666667","25.0615966666667","6501100","汐止區"
"221038","646-BX","2018/12/29 18:09:30","新北市汐止區復興路127號","121.658326666667","25.0604333333333","6501100","汐止區"
"221033","647-BX","2018/12/29 18:09:29","新北市汐止區宜興街40巷22弄2號","121.622528333333","25.0411366666667","6501100","汐止區"
"221002","707-TV","2018/12/29 18:09:26","新北市汐止區福德一路207號","121.635166666667","25.06561","6501100","汐止區"
"221018","753-BX","2018/12/29 18:09:30","新北市汐止區忠孝東路382巷3弄1號","121.665835","25.06959","6501100","汐止區"
"224002","257-TC","2018/12/29 18:09:34","新北市瑞芳區三爪子坑路149巷22-8號","121.81137","25.1060766666667","6501200","瑞芳區"
"242042","281-VK","2018/12/29 18:09:37","新北市新莊區天祥街43號","121.416843333333","25.0287833333333","6500500","新莊區"
"235068","KEA-2873","2018/12/29 18:09:23","新北市中和區員山路36巷16-3號","121.485195","24.9911816666667","6500300","中和區"
"235061","KEA-2875","2018/12/29 18:09:11","新北市土城區延壽路111巷2號","121.469088333333","24.9938016666667","6500300","中和區"
