"lineid","car","time","location","longitude","latitude","cityid","cityname"
"234046","148-BY","2018/12/29 18:29:33","新北市永和區環河東路二段92號","121.524465","25.010605","6500400","永和區"
"234086","338-UY","2018/12/29 18:29:20","新北市永和區中正路370號","121.517633333333","25.0008533333333","6500400","永和區"
"234007","839-RS","2018/12/29 18:29:27","新北市永和區環河西路二段229巷1號","121.501436666667","25.0100216666667","6500400","永和區"
"234026","9371-KE","2018/12/29 18:29:26","新北市永和區中山路一段10號","121.514111666667","25.01048","6500400","永和區"
"234011","9373-KE","2018/12/29 18:29:33","新北市永和區保福路二段156號","121.509176666667","25.015035","6500400","永和區"
"249005","172-UM","2018/12/29 18:29:35","新北市八里區中華路三段134號","121.391573333333","25.134005","6502300","八里區"
"249001","173-UM","2018/12/29 18:29:29","新北市八里區龍米路一段160號","121.452775","25.1259883333333","6502300","八里區"
"249004","303-UY","2018/12/29 18:29:39","新北市八里區文心街59號","121.428343333333","25.160575","6502300","八里區"
"249002","305-UY","2018/12/29 18:29:36","新北市八里區龍形一街12巷5弄22號","121.448608333333","25.1309733333333","6502300","八里區"
"248016","026-BX","2018/12/29 18:29:30","新北市五股區凌雲路一段83巷13弄2號","121.449251666667","25.1009816666667","6501500","五股區"
"248006","077-UY","2018/12/29 18:29:29","新北市五股區四維路25號","121.467125","25.0707766666667","6501500","五股區"
"248008","095-VK","2018/12/29 18:29:35","新北市五股區四維路185巷26號","121.46549","25.0774183333333","6501500","五股區"
"248020","225-UY","2018/12/29 18:29:34","新北市五股區孝義路59號","121.450621666667","25.1140933333333","6501500","五股區"
"248012","247-BX","2018/12/29 18:29:40","新北市五股區御成路145號","121.440946666667","25.09435","6501500","五股區"
"248014","261-SL","2018/12/29 18:29:32","新北市五股區明德路7巷18號","121.434643333333","25.07087","6501500","五股區"
"248004","677-BX","2018/12/29 18:29:29","新北市五股區工商路126號","121.436366666667","25.08587","6501500","五股區"
"248002","678-BX","2018/12/29 18:29:37","新北市五股區西雲路116-6號","121.444496666667","25.093885","6501500","五股區"
"248010","682-TV","2018/12/29 18:29:34","新北市五股區明德路8號","121.433325","25.0716733333333","6501500","五股區"
"234077","969-R7","2018/12/29 18:29:34","新北市永和區福和路1號","121.525828333333","25.0095433333333","6500400","永和區"
"234067","AAC-212","2018/12/29 18:29:21","新北市永和區福和路1號","121.52614","25.0098366666667","6500400","永和區"
"244007","080-UY","2018/12/29 18:29:33","新北市林口區後湖9號","121.388681666667","25.0981633333333","6501700","林口區"
"244019","402-UM","2018/12/29 18:29:22","新北市林口區忠孝路646巷14號","121.37906","25.0677583333333","6501700","林口區"
"244013","KEA-2802","2018/12/29 18:29:20","新北市林口區中山路260號","121.38509","25.0797533333333","6501700","林口區"
"244023","483-VK","2018/12/29 18:29:22","新北市林口區仁愛路2段1-2號","121.386333333333","25.076465","6501700","林口區"
"244017","485-VK","2018/12/29 18:29:30","新北市林口區八德路78號","121.365596666667","25.065695","6501700","林口區"
"244009","656-BX","2018/12/29 18:29:25","新北市林口區竹林路278巷18號","121.390823333333","25.08111","6501700","林口區"
"244011","657-BX","2018/12/29 18:29:38","新北市林口區中原街10號","121.392816666667","25.07766","6501700","林口區"
"244025","837-TS","2018/12/29 18:29:29","新北市林口區源泉街68號","121.356885","25.0729866666667","6501700","林口區"
"244021","838-TS","2018/12/29 18:29:31","新北市林口區自強四街20號","121.399405","25.0765283333333","6501700","林口區"
"243013","AAD-798","2018/12/29 18:23:54","新北市泰山區明志路三段206巷3號","121.423273333333","25.0379316666667","6501600","泰山區"
"222003","436-BY","2018/12/29 18:29:25","新北市深坑區北深路一段288號","121.628123333333","25.0076333333333","6501800","深坑區"
"222002","659-BX","2018/12/29 18:29:23","新北市深坑區雲鄉路176號","121.622426666667","24.9982233333333","6501800","深坑區"
"231041","002-UM","2018/12/29 18:29:25","新北市新店區安華路28-1號","121.51951","24.9607733333333","6500600","新店區"
"231059","046-UY","2018/12/29 18:29:34","新北市新店區安華路28-1號","121.51958","24.9608416666667","6500600","新店區"
"231040","047-UY","2018/12/29 18:29:24","新北市新店區安華路28-1號","121.51918","24.9608733333333","6500600","新店區"
"231044","106-UY","2018/12/29 18:29:19","新北市新店區安華路28-1號","121.519591666667","24.9607933333333","6500600","新店區"
"231046","107-UY","2018/12/29 18:29:22","新北市新店區直潭七街60號","121.532248333333","24.9398233333333","6500600","新店區"
"231052","108-UY","2018/12/29 18:29:36","新北市新店區新烏路一段28號","121.54638","24.951","6500600","新店區"
"231048","187-VK","2018/12/29 18:29:35","新北市新店區安一路一段1-1號","121.519583333333","24.9611966666667","6500600","新店區"
"231054","188-VK","2018/12/29 18:29:21","新北市新店區安一路一段1-1號","121.519693333333","24.9613533333333","6500600","新店區"
"221035","KEA-2785","2018/12/29 18:29:21","新北市汐止區大同路二段124-1號","121.651115","25.0639066666667","6501100","汐止區"
"231057","256-BX","2018/12/29 18:29:22","新北市新店區安康路一段52巷1號","121.529818333333","24.9612866666667","6500600","新店區"
"231065","260-TV","2018/12/29 18:29:18","新北市新店區安一路一段1-1號","121.51923","24.96122","6500600","新店區"
"231042","268-BY","2018/12/29 18:29:32","新北市新店區安華路28-1號","121.519331666667","24.9605883333333","6500600","新店區"
"231051","278-BY","2018/12/29 18:29:36","新北市新店區安華路28-1號","121.519666666667","24.9610366666667","6500600","新店區"
"231050","AAD-862","2018/12/29 18:29:19","新北市新店區安一路一段1-1號","121.519608333333","24.9610766666667","6500600","新店區"
"231043","355-BY","2018/12/29 18:29:32","新北市新店區安華路28-1號","121.5193","24.9609733333333","6500600","新店區"
"231058","3713-VJ","2018/12/29 18:29:41","新北市新店區北新路一段35號","121.53799","24.9591633333333","6500600","新店區"
"231066","4716-K9","2018/12/29 18:29:35","新北市新店區安一路一段1-1號","121.519348333333","24.96116","6500600","新店區"
"231056","4715-K9","2018/12/29 18:29:36","新北市新店區自立街45巷2-1號","121.537046666667","24.9799616666667","6500600","新店區"
"231067","4772-VM","2018/12/29 18:29:21","新北市新店區安華路1-1號","121.519198333333","24.9605366666667","6500600","新店區"
"231049","513-UM","2018/12/29 18:29:25","新北市新店區安一路一段1-1號","121.519596666667","24.9611233333333","6500600","新店區"
"231061","619-UM","2018/12/29 18:29:37","新北市新店區安華路28-1號","121.519508333333","24.960755","6500600","新店區"
"231063","641-BX","2018/12/29 18:29:34","新北市新店區安華路1-1號","121.519555","24.9604883333333","6500600","新店區"
"231064","719-UM","2018/12/29 18:29:30","新北市新店區安一路一段1-1號","121.519436666667","24.961305","6500600","新店區"
"231062","720-UM","2018/12/29 18:29:34","新北市新店區安一路一段1-1號","121.519306666667","24.96128","6500600","新店區"
"231060","897-TW","2018/12/29 18:29:26","新北市新店區安華路28-1號","121.51947","24.9607083333333","6500600","新店區"
"231045","898-TW","2018/12/29 18:29:37","新北市新店區安華路28-1號","121.519363333333","24.9609183333333","6500600","新店區"
"231055","AKT-0513","2018/12/29 18:29:33","新北市新店區華興街20號","121.537606666667","24.969395","6500600","新店區"
"251014","742-BX","2018/12/29 18:29:21","新北市淡水區南平26-2號","121.493018333333","25.21503","6501000","淡水區"
"235066","003-UY","2018/12/29 18:29:36","新北市中和區中山路二段119號","121.502875","25.0037483333333","6500300","中和區"
"235064","005-UY","2018/12/29 18:29:32","新北市中和區連城路139巷58號","121.496848333333","24.9971216666667","6500300","中和區"
"235063","006-UY","2018/12/29 18:29:39","新北市中和區連城路347巷6弄38號","121.48658","24.9954","6500300","中和區"
"235056","096-UM","2018/12/29 18:29:24","新北市中和區員山路611巷1號","121.477853333333","25.0112866666667","6500300","中和區"
"235039","097-UM","2018/12/29 18:29:37","新北市中和區安平路202號","121.513365","24.9995366666667","6500300","中和區"
"235040","150-BY","2018/12/29 18:29:39","新北市中和區安平路59號","121.509451666667","24.9951316666667","6500300","中和區"
"235058","151-BY","2018/12/29 18:29:27","新北市中和區圓通路369巷30弄12號","121.489133333333","24.9849416666667","6500300","中和區"
"235055","183-VK","2018/12/29 18:29:37","新北市中和區中山路三段200號","121.471856666667","25.0064683333333","6500300","中和區"
"235038","185-VK","2018/12/29 18:29:21","新北市中和區立人街33-3號","121.520975","24.9940766666667","6500300","中和區"
"235049","186-VK","2018/12/29 18:29:33","新北市中和區景安路163號","121.505273333333","24.9946416666667","6500300","中和區"
"235067","255-BX","2018/12/29 18:29:33","新北市中和區新生街44號","121.483278333333","25.003335","6500300","中和區"
"235044","293-VK","2018/12/29 18:29:20","新北市中和區復興路301巷15號","121.501545","24.9898683333333","6500300","中和區"
"235042","KEA-2878","2018/12/29 18:29:17","新北市中和區景平路64巷19號","121.52218","24.9915683333333","6500300","中和區"
"247012","KEA-2869","2018/12/29 18:29:34","新北市八里區下罟子8-10號","121.384733333333","25.1449633333333","6501400","蘆洲區"
"235050","4979-A6","2018/12/29 18:29:36","新北市中和區景新街362巷3號","121.512063333333","24.99014","6500300","中和區"
"235069","4980-A6","2018/12/29 18:29:32","新北市中和區連城路127巷48號","121.49729","24.9972483333333","6500300","中和區"
"235070","558-UM","2018/12/29 18:29:21","新北市中和區南華路44號","121.503836666667","24.9965233333333","6500300","中和區"
"235045","565-BX","2018/12/29 18:29:39","新北市中和區南山路236巷36弄5號","121.504045","24.988285","6500300","中和區"
"235054","640-BX","2018/12/29 18:29:36","新北市中和區民享街89巷1號","121.474563333333","25.0016366666667","6500300","中和區"
"235060","647-TV","2018/12/29 18:29:35","新北市中和區中山路二段505號","121.48228","25.0050533333333","6500300","中和區"
"235047","732-UM","2018/12/29 18:29:36","新北市中和區南山路292號","121.507871666667","24.98733","6500300","中和區"
"235046","733-UM","2018/12/29 18:29:20","新北市中和區南山路421巷1弄34號","121.507168333333","24.990595","6500300","中和區"
"235062","800-TS","2018/12/29 18:29:30","新北市中和區中山路二段284號","121.496248333333","25.0026016666667","6500300","中和區"
"235057","801-TS","2018/12/29 18:29:36","新北市中和區民安街43號","121.479881666667","25.000245","6500300","中和區"
"235041","802-TS","2018/12/29 18:29:22","新北市中和區景安路36號","121.50701","24.9983783333333","6500300","中和區"
"235052","805-TS","2018/12/29 18:29:39","新北市中和區興南路二段104號","121.50486","24.98396","6500300","中和區"
"235048","896-TW","2018/12/29 18:29:27","新北市中和區中正路79號","121.500815","24.9935516666667","6500300","中和區"
"235053","900-TW","2018/12/29 18:29:23","新北市中和區民享街494號","121.469698333333","24.9922333333333","6500300","中和區"
"235065","911-UM","2018/12/29 18:29:30","新北市中和區中山路二段64巷14弄2號","121.503498333333","25.0054366666667","6500300","中和區"
"235051","157-BY","2018/12/29 18:29:29","新北市中和區興南路二段114巷10弄38號","121.504055","24.98505","6500300","中和區"
"235037","AAC-213","2018/12/29 18:29:27","新北市中和區景德街95-8號","121.515276666667","24.99115","6500300","中和區"
"220086","073-UY","2018/12/29 18:29:21","新北市板橋區南雅南路二段122-17號","121.451706666667","24.99779","6500100","板橋區"
"220069","AAD-861","2018/12/29 18:29:34","新北市板橋區南雅南路二段120-16號","121.45201","24.9991883333333","6500100","板橋區"
"247016","546-UM","2018/12/29 18:29:26","新北市八里區下罟子17號","121.380186666667","25.14337","6501400","蘆洲區"
"226004","312-R5","2018/12/29 18:29:31","新北市平溪區靜安路二段295號","121.732251666667","25.0230816666667","6502400","平溪區"
"235072","251-BX","2018/12/29 18:29:27","新北市中和區連城路32號","121.498573333333","25.0020816666667","6500300","中和區"
"228001","212-TW","2018/12/29 18:29:33","新北市貢寮區仁理村仁和路94號","121.922838333333","25.0505133333333","6502600","貢寮區"
"228002","585-TW","2018/12/29 18:29:35","新北市貢寮區福連里福連街5號","121.988201666667","25.015255","6502600","貢寮區"
"224010","AGQ-8101","2018/12/29 18:29:34","新北市瑞芳區烏勢巷108號","121.846363333333","25.108735","6501200","瑞芳區"
"224006","676-BX","2018/12/29 18:29:36","新北市瑞芳區明燈路三段30號","121.80825","25.1076783333333","6501200","瑞芳區"
"224011","420-VK","2018/12/29 18:29:34","新北市瑞芳區金光路374號","121.849236666667","25.11126","6501200","瑞芳區"
"224008","285-BY","2018/12/29 18:29:28","新北市瑞芳區逢甲路206號","121.806781666667","25.110185","6501200","瑞芳區"
"224007","275-VK","2018/12/29 18:29:24","新北市瑞芳區大埔路有勝二村30號","121.763785","25.0996883333333","6501200","瑞芳區"
"224009","273-VK","2018/12/29 18:29:37","新北市瑞芳區五號路124號","121.854893333333","25.1108833333333","6501200","瑞芳區"
"224005","271-BY","2018/12/29 18:29:21","新北市瑞芳區台電新村1號","121.81901","25.124975","6501200","瑞芳區"
"227002","642-TC","2018/12/29 18:29:36","新北市雙溪區魚行里坤溪35號","121.870366666667","25.0308083333333","6502500","雙溪區"
"227010","400-TW","2018/12/29 18:29:36","新北市雙溪區牡丹里牡丹159-1號","121.850916666667","25.05908","6502500","雙溪區"
"253006","032-BX","2018/12/29 18:29:21","新北市石門區老梅路33號","121.544871666667","25.289515","6502200","石門區"
"253005","295-VK","2018/12/29 18:29:21","新北市石門區老崩山10-1號","121.552878333333","25.2911366666667","6502200","石門區"
"222001","KEA-2212","2018/12/29 18:29:39","新北市深坑區北深路一段175號","121.632961666667","25.0108516666667","6501800","深坑區"
"208002","KEA-2872","2018/12/29 18:29:22","新北市金山區民生路45號","121.642095","25.2210283333333","6502700","金山區"
"208003","665-BX","2018/12/29 18:29:30","新北市金山區中山路206號","121.637596666667","25.2217316666667","6502700","金山區"
"208001","761-BX","2018/12/29 18:29:35","新北市金山區溫泉路21巷1號","121.637776666667","25.222785","6502700","金山區"
"251004","009-UM","2018/12/29 18:29:22","新北市淡水區民族路31-31號","121.462106666667","25.136215","6501000","淡水區"
"251002","012-UM","2018/12/29 18:29:31","新北市淡水區竿蓁二街34巷2號","121.45377","25.1628483333333","6501000","淡水區"
"251013","KEA-2871","2018/12/29 18:29:17","新北市淡水區椿子林20-1號","121.481648333333","25.2041833333333","6501000","淡水區"
"251016","179-VK","2018/12/29 18:29:34","新北市淡水區下圭柔山106號","121.44371","25.209225","6501000","淡水區"
"251008","181-VK","2018/12/29 18:29:27","新北市淡水區北投子86-5號","121.469086666667","25.1824066666667","6501000","淡水區"
"251015","182-VK","2018/12/29 18:29:27","新北市淡水區興福寮88巷179號","121.486058333333","25.166665","6501000","淡水區"
"251010","413-VK","2018/12/29 18:29:31","新北市淡水區沙崙路181巷1號","121.424133333333","25.18419","6501000","淡水區"
"251012","441-VK","2018/12/29 18:29:31","新北市淡水區北投子55號","121.457936666667","25.1821533333333","6501000","淡水區"
"251005","443-VK","2018/12/29 18:29:20","新北市淡水區中正東路35巷22號","121.446635","25.1688166666667","6501000","淡水區"
"251001","559-UM","2018/12/29 18:29:24","新北市淡水區自強路122巷1號","121.464461666667","25.133075","6501000","淡水區"
"251006","561-UM","2018/12/29 18:29:28","新北市淡水區新生街51巷16號","121.440586666667","25.17533","6501000","淡水區"
"251011","650-BX","2018/12/29 18:29:22","新北市淡水區中正東路一段3巷14弄1號","121.450788333333","25.16428","6501000","淡水區"
"251003","766-UM","2018/12/29 18:29:30","新北市淡水區北新路169巷14號","121.44971","25.18009","6501000","淡水區"
"207003","550-UM","2018/12/29 18:29:37","新北市萬里區野柳里港東路73號","121.68835","25.2050966666667","6502800","萬里區"
"207004","225-TW","2018/12/29 18:29:35","新北市萬里區萬里里瑪鋉路21號","121.687446666667","25.1754216666667","6502800","萬里區"
"252002","178-VK","2018/12/29 18:29:19","新北市三芝區中山路二段43號","121.50298","25.2550383333333","6502100","三芝區"
"252003","249-BX","2018/12/29 18:29:31","新北市三芝區後厝里北勢子41-2號","121.47194","25.252635","6502100","三芝區"
"237004","KEA-2597","2018/12/29 18:29:19","新北市三峽區五寮144號","121.359545","24.8582116666667","6500900","三峽區"
"237009","210-TH","2018/12/29 18:29:33","新北市三峽區大同路270巷2號","121.365386666667","24.9255283333333","6500900","三峽區"
"237013","252-BX","2018/12/29 18:29:35","新北市三峽區永安街1號","121.378173333333","24.9297933333333","6500900","三峽區"
"237012","275-BY","2018/12/29 18:29:33","新北市三峽區三樹路258-1號","121.379568333333","24.9434366666667","6500900","三峽區"
"237008","302-VK","2018/12/29 18:29:29","新北市三峽區白雞68-261號","121.391751666667","24.9080066666667","6500900","三峽區"
"237014","433-BY","2018/12/29 18:29:35","新北市三峽區文化路152號","121.370418333333","24.93616","6500900","三峽區"
"237011","KEA-2596","2018/12/29 18:29:26","新北市三峽區溪東路390號","121.414033333333","24.9278283333333","6500900","三峽區"
"237016","649-BX","2018/12/29 18:29:25","新北市三峽區三層坪路13-2號","121.435546666667","24.9066016666667","6500900","三峽區"
"237010","706-TV","2018/12/29 18:29:33","新北市三峽區復興路485號","121.361338333333","24.938445","6500900","三峽區"
"237005","AKY-6261","2018/12/29 18:29:32","新北市三峽區秀川街75號","121.370195","24.9330883333333","6500900","三峽區"
"236070","105-UM","2018/12/29 18:29:21","新北市土城區永豐路282號","121.470521666667","24.9780016666667","6501300","土城區"
"236042","KED-0685","2018/12/29 18:29:20","新北市土城區裕民路67巷13號","121.4499","24.98843","6501300","土城區"
"236079","166-UM","2018/12/29 18:29:25","新北市土城區中央路四段27巷10弄2號","121.424733333333","24.9618283333333","6501300","土城區"
"236030","253-BX","2018/12/29 18:29:33","新北市土城區水源街81巷16號","121.439355","24.9759566666667","6501300","土城區"
"236026","269-VK","2018/12/29 18:29:29","新北市土城區南天母路135巷24號","121.449331666667","24.95463","6501300","土城區"
"236014","270-VK","2018/12/29 18:29:21","新北市土城區青雲路39巷7號","121.460306666667","24.9875583333333","6501300","土城區"
"236038","271-VK","2018/12/29 18:29:26","新北市土城區青雲路449號","121.458723333333","24.9750616666667","6501300","土城區"
"252001","KED-0821","2018/12/29 18:29:17","新北市三芝區中興街二段2號","121.498355","25.2566366666667","6502100","三芝區"
"236021","401-BY","2018/12/29 18:29:19","新北市土城區永豐路202巷14號","121.466245","24.9834366666667","6501300","土城區"
"236059","912-UM","2018/12/29 18:29:39","新北市土城區中央路四段254號","121.415031666667","24.956825","6501300","土城區"
"236049","913-UM","2018/12/29 18:29:35","新北市土城區青雲路461號","121.458696666667","24.97435","6501300","土城區"
"236063","915-UM","2018/12/29 18:29:23","新北市土城區延壽路77巷6弄4號","121.468518333333","24.9927566666667","6501300","土城區"
"236055","AAC-216","2018/12/29 18:29:36","新北市土城區福祥街101巷1號","121.440996666667","24.9817433333333","6501300","土城區"
"242058","986-R7","2018/12/29 18:29:20","新北市新莊區新北大道七段842號","121.413701666667","25.023655","6500500","新莊區"
"242056","751-BX","2018/12/29 18:29:33","新北市新莊區中環路一段20號","121.442658333333","25.02654","6500500","新莊區"
"242025","613-BX","2018/12/29 18:29:28","新北市新莊區中央路232號","121.454658333333","25.0589983333333","6500500","新莊區"
"242044","566-BX","2018/12/29 18:29:23","新北市新莊區中正路新旺巷43號","121.416471666667","25.0225283333333","6500500","新莊區"
"242053","441-UM","2018/12/29 18:29:28","新北市新莊區樹新路120巷40號","121.43007","24.9960033333333","6500500","新莊區"
"242009","413-TV","2018/12/29 18:29:36","新北市新莊區昌平街71巷25號","121.45323","25.0535983333333","6500500","新莊區"
"242046","400-BY","2018/12/29 18:29:28","新北市新莊區中正路831-15號","121.420785","25.0278433333333","6500500","新莊區"
"242061","353-BY","2018/12/29 18:29:35","新北市新莊區富國路176巷7號","121.424181666667","25.0240833333333","6500500","新莊區"
"242007","346-TH","2018/12/29 18:29:34","新北市新莊區昌平街71巷12號","121.453993333333","25.0536833333333","6500500","新莊區"
"242011","347-TH","2018/12/29 18:29:30","新北市新莊區中港路615巷5號","121.450903333333","25.0533483333333","6500500","新莊區"
"242031","348-TH","2018/12/29 18:29:33","新北市新莊區新泰路277巷18號","121.444831666667","25.0403166666667","6500500","新莊區"
"238015","755-BX","2018/12/29 18:29:21","新北市樹林區大安路588號","121.41169","24.98345","6500700","樹林區"
"238023","601-UM","2018/12/29 18:29:39","新北市樹林區三福街114號","121.406453333333","25.0162633333333","6500700","樹林區"
"238018","571-TV","2018/12/29 18:29:20","新北市樹林區樹新路52-9號","121.428845","24.9967133333333","6500700","樹林區"
"238024","5061-A6","2018/12/29 18:29:27","新北市樹林區中山路二段92號","121.414468333333","24.9835816666667","6500700","樹林區"
"238025","303-VK","2018/12/29 18:29:22","新北市樹林區中山路三段147-5號","121.396036666667","24.9730866666667","6500700","樹林區"
"238017","283-BY","2018/12/29 18:29:38","新北市樹林區光榮街79號","121.412066666667","25.00297","6500700","樹林區"
"238014","282-BY","2018/12/29 18:29:25","新北市樹林區大安路111巷25號","121.423233333333","24.9976333333333","6500700","樹林區"
"238020","268-VK","2018/12/29 18:29:31","新北市樹林區中正路642巷19號","121.41142","25.0174866666667","6500700","樹林區"
"238026","172-UY","2018/12/29 18:29:27","新北市樹林區佳園路一段75巷102號","121.396561666667","24.9704266666667","6500700","樹林區"
"238016","169-UY","2018/12/29 18:15:08","新北市樹林區育英街161號","121.419013333333","24.989495","6500700","樹林區"
"239007","AAC-297","2018/12/29 18:29:16","新北市鶯歌區中正一路461-2號","121.363268333333","24.9565983333333","6500800","鶯歌區"
"239006","891-R6","2018/12/29 18:29:25","新北市鶯歌區德昌二街73號","121.333618333333","24.95792","6500800","鶯歌區"
"239008","527-UM","2018/12/29 18:29:26","新北市鶯歌區國際一路179號","121.336183333333","24.9764583333333","6500800","鶯歌區"
"239005","526-UM","2018/12/29 18:29:24","新北市鶯歌區鶯桃路668巷15號","121.32895","24.9701633333333","6500800","鶯歌區"
"239001","417-VK","2018/12/29 18:29:26","新北市鶯歌區二橋街7號","121.336845","24.9394783333333","6500800","鶯歌區"
"239003","360-BY","2018/12/29 18:29:28","新北市鶯歌區永和街148號","121.335583333333","24.9700033333333","6500800","鶯歌區"
"239002","359-BY","2018/12/29 18:29:38","新北市鶯歌區中山路123號","121.349851666667","24.956985","6500800","鶯歌區"
"239004","193-VK","2018/12/29 18:29:22","新北市鶯歌區二橋街1號","121.3371","24.9396466666667","6500800","鶯歌區"
"221008","489-VK","2018/12/29 18:24:25","新北市汐止區康寧街901號","121.65143","25.0750983333333","6501100","汐止區"
"221036","130-UY","2018/12/29 18:29:25","新北市汐止區忠孝東路351-2號","121.66516","25.07031","6501100","汐止區"
"221015","131-UY","2018/12/29 18:29:32","新北市汐止區鄉友街72號","121.669751666667","25.0820516666667","6501100","汐止區"
"221010","269-BY","2018/12/29 18:29:25","新北市汐止區瑞松街18巷9號","121.645141666667","25.1047783333333","6501100","汐止區"
"221012","278-VK","2018/12/29 18:29:38","新北市汐止區保長路51巷16號","121.674038333333","25.07887","6501100","汐止區"
"221023","279-VK","2018/12/29 18:29:29","新北市汐止區康寧街541巷9號","121.633791666667","25.0693633333333","6501100","汐止區"
"221032","280-BY","2018/12/29 18:29:34","新北市汐止區福山街60巷1號","121.617771666667","25.046635","6501100","汐止區"
"221027","281-BY","2018/12/29 18:29:18","新北市汐止區和平街55號","121.661828333333","25.0707766666667","6501100","汐止區"
"221029","298-VK","2018/12/29 18:29:24","新北市汐止區樟樹二路330巷72-1號","121.64296","25.0699333333333","6501100","汐止區"
"221021","299-VK","2018/12/29 18:29:39","新北市汐止區新台五路一段183號","121.655408333333","25.06304","6501100","汐止區"
"221031","353-TW","2018/12/29 18:29:31","新北市汐止區新台五路一段35號","121.636456666667","25.05573","6501100","汐止區"
"221025","623-UM","2018/12/29 18:29:24","新北市汐止區仁愛路120號","121.662985","25.0637366666667","6501100","汐止區"
"221038","646-BX","2018/12/29 18:29:29","新北市汐止區汐萬路一段117號","121.654193333333","25.07102","6501100","汐止區"
"221033","647-BX","2018/12/29 18:29:29","新北市汐止區宜興街1號","121.620888333333","25.0412283333333","6501100","汐止區"
"221002","707-TV","2018/12/29 18:29:37","新北市汐止區福德一路188號","121.635378333333","25.065765","6501100","汐止區"
"221018","753-BX","2018/12/29 18:29:30","新北市汐止區茄苳路213號","121.670628333333","25.0688916666667","6501100","汐止區"
"220079","145-BY","2018/12/29 18:29:19","新北市板橋區大觀路二段266號","121.449446666667","24.996745","6500100","板橋區"
"220080","200-UY","2018/12/29 18:29:19","新北市板橋區華東街1-9號","121.44811","24.9949233333333","6500100","板橋區"
"220082","610-BX","2018/12/29 18:29:29","新北市板橋區華東街1-9號","121.44825","24.9949033333333","6500100","板橋區"
"224002","257-TC","2018/12/29 18:29:34","新北市瑞芳區三爪子坑路13巷8號","121.813861666667","25.1072766666667","6501200","瑞芳區"
"220056","276-BY","2018/12/29 18:29:19","新北市板橋區華東街1-9號","121.448145","24.9949266666667","6500100","板橋區"
"220071","283-VK","2018/12/29 18:29:21","新北市板橋區華東街1-9號","121.44817","24.9948566666667","6500100","板橋區"
"220094","285-UM","2018/12/29 18:29:20","新北市板橋區民生路二段161巷5號","121.47027","25.0197716666667","6500100","板橋區"
"220083","286-VK","2018/12/29 18:29:21","新北市板橋區華東街1-10號","121.44835","24.9950516666667","6500100","板橋區"
"220081","287-VK","2018/12/29 18:29:40","新北市板橋區華東街1-10號","121.448241666667","24.995005","6500100","板橋區"
"220084","296-UM","2018/12/29 18:29:35","新北市板橋區華東街1-9號","121.448191666667","24.9948983333333","6500100","板橋區"
"242042","281-VK","2018/12/29 18:29:37","新北市新莊區天祥街81巷28號","121.415095","25.0285116666667","6500500","新莊區"
"220075","303-R5","2018/12/29 18:29:36","新北市板橋區華東街1-10號","121.448303333333","24.9948566666667","6500100","板橋區"
"220062","305-R5","2018/12/29 18:29:34","新北市板橋區民生路二段120號","121.470406666667","25.01964","6500100","板橋區"
"220103","561-BX","2018/12/29 18:29:18","新北市板橋區民生路二段120號","121.470433333333","25.0194933333333","6500100","板橋區"
"220063","609-BX","2018/12/29 18:29:22","新北市板橋區民生路二段161巷1號","121.469826666667","25.0200366666667","6500100","板橋區"
"220055","630-UY","2018/12/29 18:29:36","新北市板橋區華東街1號","121.448388333333","24.9941316666667","6500100","板橋區"
"220057","686-BX","2018/12/29 18:29:37","新北市板橋區華東街1-9號","121.448201666667","24.9949116666667","6500100","板橋區"
"220074","895-R6","2018/12/29 18:29:21","新北市板橋區華東街1-9號","121.44824","24.994925","6500100","板橋區"
"220073","985-R7","2018/12/29 18:29:34","新北市土城區中央路一段2-1號","121.449723333333","24.9930716666667","6500100","板橋區"
"220064","AAC-253","2018/12/29 18:29:28","新北市板橋區縣民大道一段288號","121.461058333333","25.0103516666667","6500100","板橋區"
"235068","KEA-2873","2018/12/29 18:29:23","新北市中和區圓通路287號","121.495195","24.9928666666667","6500300","中和區"
"235061","KEA-2875","2018/12/29 18:29:11","新北市中和區民享街93巷8號","121.475511666667","25.0006966666667","6500300","中和區"
