"lineid","car","time","location","longitude","latitude","cityid","cityname"
"234046","148-BY","2018/12/29 18:39:36","新北市永和區秀朗路二段66巷9號","121.522671666667","25.0013666666667","6500400","永和區"
"234081","298-R6","2018/12/29 18:39:25","新北市永和區林森路74號","121.523806666667","25.00396","6500400","永和區"
"234064","337-UY","2018/12/29 18:39:36","新北市永和區福和路1號","121.52653","25.01008","6500400","永和區"
"234086","338-UY","2018/12/29 18:39:20","新北市中和區安樂路69-1號","121.512488333333","24.99392","6500400","永和區"
"234070","552-UM","2018/12/29 18:39:25","新北市永和區福和路1號","121.525688333333","25.0094366666667","6500400","永和區"
"234030","746-BX","2018/12/29 18:39:30","新北市永和區豫溪街217巷7號","121.525028333333","25.00998","6500400","永和區"
"234007","839-RS","2018/12/29 18:39:27","新北市永和區文化路170號","121.511825","25.0155166666667","6500400","永和區"
"234061","AAD-866","2018/12/29 18:39:34","新北市永和區福和路1號","121.526046666667","25.0095083333333","6500400","永和區"
"234042","862-TW","2018/12/29 18:39:31","新北市永和區永和路一段2號","121.512663333333","25.00451","6500400","永和區"
"234011","9373-KE","2018/12/29 18:39:33","新北市永和區文化路9巷22弄1號","121.515261666667","25.0145466666667","6500400","永和區"
"249005","172-UM","2018/12/29 18:39:35","新北市八里區中華路三段196號","121.388086666667","25.1255283333333","6502300","八里區"
"249001","173-UM","2018/12/29 18:39:29","新北市八里區龍米路一段398號","121.451396666667","25.1329116666667","6502300","八里區"
"249004","303-UY","2018/12/29 18:39:39","新北市八里區中山路一段172號","121.417076666667","25.15944","6502300","八里區"
"249002","305-UY","2018/12/29 18:39:36","新北市八里區龍形一街17號","121.450125","25.1304016666667","6502300","八里區"
"248016","026-BX","2018/12/29 18:39:30","新北市五股區凌雲路一段149巷13-1號","121.448581666667","25.1008716666667","6501500","五股區"
"248008","095-VK","2018/12/29 18:39:35","新北市五股區中興路一段169號","121.464641666667","25.0737616666667","6501500","五股區"
"248020","225-UY","2018/12/29 18:38:34","新北市五股區孝義路102號","121.445156666667","25.1197916666667","6501500","五股區"
"248012","247-BX","2018/12/29 18:39:20","新北市五股區御成路152號","121.441406666667","25.0945233333333","6501500","五股區"
"248014","261-SL","2018/12/29 18:39:26","新北市五股區蓬萊路24號","121.434141666667","25.079825","6501500","五股區"
"248004","677-BX","2018/12/29 18:39:19","新北市五股區民義路一段206號","121.430325","25.0890816666667","6501500","五股區"
"248002","678-BX","2018/12/29 18:39:37","新北市五股區西雲路200號","121.447753333333","25.0954733333333","6501500","五股區"
"248010","682-TV","2018/12/29 18:39:34","新北市五股區水碓三路120號","121.431803333333","25.07356","6501500","五股區"
"234023","9380-KE","2018/12/29 18:39:20","新北市永和區福和路76巷5弄12號","121.522391666667","25.00837","6500400","永和區"
"234077","969-R7","2018/12/29 18:39:34","新北市永和區中正路416號","121.517495","25.0021183333333","6500400","永和區"
"234067","AAC-212","2018/12/29 18:39:21","新北市永和區福和路170號","121.521088333333","25.007905","6500400","永和區"
"234003","AAC-295","2018/12/29 18:39:22","新北市永和區福和路1號","121.525808333333","25.009245","6500400","永和區"
"244007","080-UY","2018/12/29 18:39:33","新北市林口區中湖62號","121.384758333333","25.10079","6501700","林口區"
"244019","402-UM","2018/12/29 18:39:23","新北市林口區麗園二街47巷47號","121.382541666667","25.0695933333333","6501700","林口區"
"244013","KEA-2802","2018/12/29 18:39:20","新北市林口區佳林路169號","121.385135","25.078875","6501700","林口區"
"244023","483-VK","2018/12/29 18:39:22","新北市林口區四維路245巷53號","121.382806666667","25.0754733333333","6501700","林口區"
"244017","485-VK","2018/12/29 18:39:30","新北市林口區文化二路一段271號","121.367673333333","25.0709316666667","6501700","林口區"
"244009","656-BX","2018/12/29 18:39:25","新北市林口區竹林路358巷18號","121.392958333333","25.0839533333333","6501700","林口區"
"244011","657-BX","2018/12/29 18:39:38","新北市林口區興林路17巷6號","121.39018","25.0768933333333","6501700","林口區"
"244025","837-TS","2018/12/29 18:39:31","新北市林口區南勢六街242號","121.355781666667","25.0745383333333","6501700","林口區"
"244021","838-TS","2018/12/29 18:39:31","新北市林口區粉寮路一段64號","121.397146666667","25.0785866666667","6501700","林口區"
"243013","AAD-798","2018/12/29 18:23:54","新北市泰山區明志路三段206巷3號","121.423273333333","25.0379316666667","6501600","泰山區"
"243016","KEA-2801","2018/12/29 18:39:31","新北市泰山區黎明路25號","121.421825","25.060875","6501600","泰山區"
"243012","646-TV","2018/12/29 18:39:25","新北市泰山區福興三街11號","121.434585","25.0577916666667","6501600","泰山區"
"222003","436-BY","2018/12/29 18:39:25","新北市深坑區翠谷街37巷1號","121.626513333333","25.0093633333333","6501800","深坑區"
"222002","659-BX","2018/12/29 18:39:21","新北市深坑區雲鄉路3-1號","121.621075","25.0001133333333","6501800","深坑區"
"231041","002-UM","2018/12/29 18:39:25","新北市新店區安華路28-1號","121.519533333333","24.9608233333333","6500600","新店區"
"231059","046-UY","2018/12/29 18:39:34","新北市新店區安華路28-1號","121.519526666667","24.9607766666667","6500600","新店區"
"231040","047-UY","2018/12/29 18:39:24","新北市新店區安華路28-1號","121.519198333333","24.960865","6500600","新店區"
"231044","106-UY","2018/12/29 18:39:39","新北市新店區光明街129號","121.53919","24.9619316666667","6500600","新店區"
"231046","107-UY","2018/12/29 18:39:22","新北市新店區直潭二街1號","121.535401666667","24.9431516666667","6500600","新店區"
"231052","108-UY","2018/12/29 18:39:36","新北市新店區永興路34號","121.543626666667","24.9388383333333","6500600","新店區"
"231048","187-VK","2018/12/29 18:39:35","新北市新店區安一路一段1-1號","121.519571666667","24.9611966666667","6500600","新店區"
"231054","188-VK","2018/12/29 18:39:21","新北市新店區安一路一段1-1號","121.519676666667","24.9613583333333","6500600","新店區"
"221035","KEA-2785","2018/12/29 18:39:34","新北市汐止區中正路303號","121.656125","25.06786","6501100","汐止區"
"231057","256-BX","2018/12/29 18:39:22","新北市新店區新烏路161號","121.54525","24.9329833333333","6500600","新店區"
"231065","260-TV","2018/12/29 18:39:38","新北市新店區安一路一段1-1號","121.51925","24.9612416666667","6500600","新店區"
"231042","268-BY","2018/12/29 18:39:32","新北市新店區安華路28-1號","121.519338333333","24.960595","6500600","新店區"
"231051","278-BY","2018/12/29 18:39:36","新北市新店區安華路28-1號","121.519695","24.961025","6500600","新店區"
"231050","AAD-862","2018/12/29 18:39:39","新北市新店區安一路一段1-1號","121.519633333333","24.9611716666667","6500600","新店區"
"231043","355-BY","2018/12/29 18:39:31","新北市新店區安一路一段1-1號","121.519268333333","24.9609983333333","6500600","新店區"
"231058","3713-VJ","2018/12/29 18:39:21","新北市新店區國校路76-1號","121.538546666667","24.95308","6500600","新店區"
"231066","4716-K9","2018/12/29 18:39:35","新北市新店區安一路一段1-1號","121.519396666667","24.9614","6500600","新店區"
"231056","4715-K9","2018/12/29 18:39:36","新北市新店區大豐路68巷24號","121.538638333333","24.9802033333333","6500600","新店區"
"231067","4772-VM","2018/12/29 18:39:21","新北市新店區安華路28-1號","121.519223333333","24.9605433333333","6500600","新店區"
"231049","513-UM","2018/12/29 18:39:25","新北市新店區安一路一段1-1號","121.519623333333","24.96114","6500600","新店區"
"231061","619-UM","2018/12/29 18:39:37","新北市新店區安華路28-1號","121.519481666667","24.9608316666667","6500600","新店區"
"231063","641-BX","2018/12/29 18:39:34","新北市新店區安華路28-1號","121.519575","24.9605333333333","6500600","新店區"
"231064","719-UM","2018/12/29 18:39:30","新北市新店區安一路一段1-1號","121.519458333333","24.9613266666667","6500600","新店區"
"231062","720-UM","2018/12/29 18:39:34","新北市新店區安一路一段1-1號","121.519321666667","24.96137","6500600","新店區"
"231060","897-TW","2018/12/29 18:39:26","新北市新店區安華路28-1號","121.519501666667","24.960795","6500600","新店區"
"231045","898-TW","2018/12/29 18:39:37","新北市新店區安華路28-1號","121.519353333333","24.9609466666667","6500600","新店區"
"231055","AKT-0513","2018/12/29 18:39:33","新北市新店區中華路36號","121.540028333333","24.9680666666667","6500600","新店區"
"251014","742-BX","2018/12/29 18:39:21","新北市淡水區崙頂12-8號","121.495563333333","25.2172183333333","6501000","淡水區"
"235066","003-UY","2018/12/29 18:39:36","新北市中和區水源路34巷2號","121.5047","25.0035483333333","6500300","中和區"
"235064","005-UY","2018/12/29 18:39:32","新北市中和區連城路109巷17號","121.496716666667","24.9989216666667","6500300","中和區"
"235063","006-UY","2018/12/29 18:39:19","新北市中和區連城路347巷4弄8號","121.487851666667","24.9955933333333","6500300","中和區"
"235056","096-UM","2018/12/29 18:39:24","新北市中和區員山路611巷5弄1號","121.477963333333","25.0111716666667","6500300","中和區"
"235039","097-UM","2018/12/29 18:39:37","新北市中和區宜安路20號","121.513166666667","24.9957383333333","6500300","中和區"
"235040","150-BY","2018/12/29 18:39:39","新北市中和區安平路48號","121.510255","24.9954766666667","6500300","中和區"
"235058","151-BY","2018/12/29 18:39:27","新北市中和區員山路105號","121.480696666667","24.9945283333333","6500300","中和區"
"235055","183-VK","2018/12/29 18:39:37","新北市板橋區民族路276巷1弄20號","121.470341666667","25.00628","6500300","中和區"
"235038","185-VK","2018/12/29 18:39:21","新北市中和區大勇街60巷2號","121.518265","24.9947766666667","6500300","中和區"
"235049","186-VK","2018/12/29 18:39:33","新北市中和區景平路510號","121.503693333333","24.993845","6500300","中和區"
"235067","255-BX","2018/12/29 18:39:33","新北市中和區中山路二段475號","121.483135","25.0049233333333","6500300","中和區"
"235044","293-VK","2018/12/29 18:39:20","新北市中和區復興路280巷7號","121.502186666667","24.9910533333333","6500300","中和區"
"235042","KEA-2878","2018/12/29 18:39:37","新北市中和區成功路47號","121.526196666667","24.99302","6500300","中和區"
"247012","KEA-2869","2018/12/29 18:39:34","新北市林口區太平里180號","121.366573333333","25.13456","6501400","蘆洲區"
"235050","4979-A6","2018/12/29 18:39:36","新北市中和區忠孝街124巷6號","121.512636666667","24.9859866666667","6500300","中和區"
"235069","4980-A6","2018/12/29 18:39:32","新北市中和區景平路597號","121.496895","25.00049","6500300","中和區"
"235070","558-UM","2018/12/29 18:39:21","新北市中和區景平路618巷2號","121.50085","24.997035","6500300","中和區"
"235045","565-BX","2018/12/29 18:39:36","新北市中和區復興路12號","121.505916666667","24.9897683333333","6500300","中和區"
"235054","640-BX","2018/12/29 18:39:24","新北市中和區民享街32巷15號","121.472965","25.003105","6500300","中和區"
"235060","647-TV","2018/12/29 18:39:35","新北市中和區中山路三段6號","121.479616666667","25.006105","6500300","中和區"
"235047","732-UM","2018/12/29 18:39:36","新北市中和區南山路320巷10弄11號","121.506821666667","24.986605","6500300","中和區"
"235046","733-UM","2018/12/29 18:39:20","新北市中和區忠孝街101巷1號","121.511796666667","24.98605","6500300","中和區"
"235062","800-TS","2018/12/29 18:39:30","新北市中和區中山路二段312巷47號","121.495178333333","25.00424","6500300","中和區"
"235057","801-TS","2018/12/29 18:39:36","新北市中和區民安街4號","121.480923333333","25.001105","6500300","中和區"
"235041","802-TS","2018/12/29 18:39:22","新北市中和區宜安路118巷28號","121.511186666667","24.998905","6500300","中和區"
"235052","805-TS","2018/12/29 18:39:38","新北市中和區興南路三段46號","121.495773333333","24.9764933333333","6500300","中和區"
"235048","896-TW","2018/12/29 18:39:27","新北市中和區南山路363號","121.506061666667","24.99063","6500300","中和區"
"235053","900-TW","2018/12/29 18:39:23","新北市中和區民德路264號","121.467993333333","24.9966333333333","6500300","中和區"
"235065","911-UM","2018/12/29 18:39:30","新北市中和區莊敬路49巷18號","121.501703333333","25.00619","6500300","中和區"
"235051","157-BY","2018/12/29 18:39:28","新北市中和區華新街143巷8號","121.506538333333","24.9810016666667","6500300","中和區"
"235037","AAC-213","2018/12/29 18:39:27","新北市中和區景德街62號","121.517156666667","24.9915316666667","6500300","中和區"
"235059","AAC-215","2018/12/29 18:39:21","新北市中和區錦和路354巷15號","121.48977","24.991565","6500300","中和區"
"220086","073-UY","2018/12/29 18:39:21","新北市板橋區南雅西路一段96號","121.45256","25.0056083333333","6500100","板橋區"
"220106","075-UY","2018/12/29 18:39:28","新北市板橋區民生路二段161巷5號","121.47007","25.0196133333333","6500100","板橋區"
"220069","AAD-861","2018/12/29 18:39:34","新北市板橋區大華街11號","121.458946666667","25.0061266666667","6500100","板橋區"
"247016","546-UM","2018/12/29 18:39:26","新北市八里區中山路三段409號","121.36875","25.135445","6501400","蘆洲區"
"226004","312-R5","2018/12/29 18:39:31","新北市平溪區石底里公園街18-3號","121.73325","25.0258566666667","6502400","平溪區"
"235072","251-BX","2018/12/29 18:39:27","新北市中和區中山路二段47號","121.504385","25.0049666666667","6500300","中和區"
"228001","212-TW","2018/12/29 18:39:33","新北市貢寮區仁理村研海街12-1號","121.923801666667","25.05165","6502600","貢寮區"
"228002","585-TW","2018/12/29 18:39:35","新北市貢寮區福隆里東興街6-11號","121.950728333333","25.02105","6502600","貢寮區"
"224006","676-BX","2018/12/29 18:39:23","新北市瑞芳區明燈路三段105號","121.803805","25.1087283333333","6501200","瑞芳區"
"224011","420-VK","2018/12/29 18:39:34","新北市瑞芳區崙頂路3-1號","121.847016666667","25.1046666666667","6501200","瑞芳區"
"224008","285-BY","2018/12/29 18:39:28","新北市瑞芳區逢甲路272號","121.804836666667","25.1108633333333","6501200","瑞芳區"
"224007","275-VK","2018/12/29 18:39:34","新北市瑞芳區大埔路115巷24-4號","121.762785","25.10134","6501200","瑞芳區"
"224009","273-VK","2018/12/29 18:38:57","新北市瑞芳區五號路314號","121.857791666667","25.1113083333333","6501200","瑞芳區"
"224005","271-BY","2018/12/29 18:39:21","新北市瑞芳區建基路一段33號","121.819218333333","25.1214283333333","6501200","瑞芳區"
"227002","642-TC","2018/12/29 18:39:20","新北市雙溪區魚行里坤溪3-5號","121.876176666667","25.0208216666667","6502500","雙溪區"
"227010","400-TW","2018/12/29 18:39:36","新北市雙溪區牡丹里下坑11號","121.851","25.0561783333333","6502500","雙溪區"
"253006","032-BX","2018/12/29 18:39:21","新北市石門區崁子腳28-5號","121.538568333333","25.289565","6502200","石門區"
"253005","295-VK","2018/12/29 18:39:20","新北市石門區中山路33號","121.567113333333","25.2909283333333","6502200","石門區"
"222001","KEA-2212","2018/12/29 18:39:39","新北市深坑區北深路一段82號","121.636338333333","25.0106683333333","6501800","深坑區"
"208002","KEA-2872","2018/12/29 18:39:22","新北市金山區忠孝一路22號","121.638431666667","25.2195066666667","6502700","金山區"
"208003","665-BX","2018/12/29 18:39:30","新北市金山區中山路354號","121.633191666667","25.2254533333333","6502700","金山區"
"208001","761-BX","2018/12/29 18:39:35","新北市金山區文化三路11號","121.635025","25.2249033333333","6502700","金山區"
"251004","009-UM","2018/12/29 18:39:22","新北市淡水區民權路41號","121.460101666667","25.14028","6501000","淡水區"
"251002","012-UM","2018/12/29 18:39:31","新北市淡水區中正東路一段3巷14弄1號","121.450861666667","25.1641183333333","6501000","淡水區"
"251013","KEA-2871","2018/12/29 18:39:37","新北市淡水區小坑子頭6號","121.482173333333","25.2075533333333","6501000","淡水區"
"251016","179-VK","2018/12/29 18:39:34","新北市淡水區下圭柔山79號","121.440901666667","25.2049133333333","6501000","淡水區"
"251008","181-VK","2018/12/29 18:39:27","新北市淡水區北投子72-1號","121.453543333333","25.1823066666667","6501000","淡水區"
"251015","182-VK","2018/12/29 18:39:27","新北市淡水區興福寮66巷307號","121.48531","25.1617833333333","6501000","淡水區"
"251010","413-VK","2018/12/29 18:39:30","新北市淡水區沙崙路126號","121.423458333333","25.1828433333333","6501000","淡水區"
"251012","441-VK","2018/12/29 18:39:30","新北市淡水區北新路121號","121.44904","25.1785733333333","6501000","淡水區"
"251001","559-UM","2018/12/29 18:39:24","新北市淡水區自強路166號","121.465665","25.134025","6501000","淡水區"
"251006","561-UM","2018/12/29 18:39:28","新北市淡水區中山北路三段79號","121.444118333333","25.1924533333333","6501000","淡水區"
"251011","650-BX","2018/12/29 18:39:22","新北市淡水區學府路32巷35號","121.448231666667","25.1679566666667","6501000","淡水區"
"251003","766-UM","2018/12/29 18:39:30","新北市淡水區北新路69巷26號","121.446838333333","25.18006","6501000","淡水區"
"207003","550-UM","2018/12/29 18:39:31","新北市萬里區野柳里八斗60號","121.66549","25.205355","6502800","萬里區"
"207004","225-TW","2018/12/29 18:39:35","新北市萬里區萬里里獅頭路7號","121.691956666667","25.178235","6502800","萬里區"
"252002","178-VK","2018/12/29 18:39:39","新北市三芝區民生街64巷2號","121.503511666667","25.255365","6502100","三芝區"
"252003","249-BX","2018/12/29 18:39:31","新北市三芝區後厝里土地公坑55號","121.462475","25.248265","6502100","三芝區"
"237004","KEA-2597","2018/12/29 18:39:19","新北市三峽區插角5號","121.399111666667","24.8734433333333","6500900","三峽區"
"237009","210-TH","2018/12/29 18:39:33","新北市三峽區弘園街26號","121.3665","24.927375","6500900","三峽區"
"237013","252-BX","2018/12/29 18:39:35","新北市三峽區光明路69巷25號","121.3768","24.9291833333333","6500900","三峽區"
"237012","275-BY","2018/12/29 18:39:33","新北市三峽區三樹路340號","121.38396","24.943305","6500900","三峽區"
"237008","302-VK","2018/12/29 18:39:29","新北市三峽區白雞67-1號","121.398445","24.91148","6500900","三峽區"
"237014","433-BY","2018/12/29 18:39:35","新北市三峽區復興路485號","121.361383333333","24.93864","6500900","三峽區"
"237011","KEA-2596","2018/12/29 18:39:26","新北市三峽區溪東路215號","121.40615","24.9328516666667","6500900","三峽區"
"237016","649-BX","2018/12/29 18:39:25","新北市三峽區竹崙路21號","121.428876666667","24.9226366666667","6500900","三峽區"
"237010","706-TV","2018/12/29 18:39:33","新北市三峽區復興路449號","121.36259","24.9385066666667","6500900","三峽區"
"237005","AKY-6261","2018/12/29 18:39:32","新北市三峽區復興路28號","121.374373333333","24.93609","6500900","三峽區"
"236070","105-UM","2018/12/29 18:39:21","新北市土城區立德路54號","121.463911666667","24.9871","6501300","土城區"
"236042","KED-0685","2018/12/29 18:39:40","新北市土城區學成路139號","121.44906","24.98949","6501300","土城區"
"236079","166-UM","2018/12/29 18:39:36","新北市土城區中央路四段52巷42弄2號","121.418943333333","24.9604616666667","6501300","土城區"
"236030","253-BX","2018/12/29 18:39:33","新北市土城區福仁街62號","121.43947","24.9746033333333","6501300","土城區"
"236026","269-VK","2018/12/29 18:39:37","新北市土城區忠義路55巷9號","121.440998333333","24.9686283333333","6501300","土城區"
"236014","270-VK","2018/12/29 18:39:21","新北市土城區清水路207巷11號","121.459921666667","24.9823316666667","6501300","土城區"
"236038","271-VK","2018/12/29 18:39:31","新北市土城區明德路一段313巷9號","121.459818333333","24.9759033333333","6501300","土城區"
"252001","KED-0821","2018/12/29 18:39:37","新北市三芝區中興街二段260號","121.50186","25.2528733333333","6502100","三芝區"
"236021","401-BY","2018/12/29 18:39:19","新北市土城區延吉街268號","121.465876666667","24.9845133333333","6501300","土城區"
"236059","912-UM","2018/12/29 18:39:39","新北市土城區中央路三段283號","121.426493333333","24.963305","6501300","土城區"
"236049","913-UM","2018/12/29 18:39:33","新北市土城區明德路一段58號","121.465493333333","24.983585","6501300","土城區"
"236063","915-UM","2018/12/29 18:39:25","新北市土城區延壽路13巷19號","121.469931666667","24.9913816666667","6501300","土城區"
"236055","AAC-216","2018/12/29 18:39:36","新北市土城區裕民路41號","121.448476666667","24.98827","6501300","土城區"
"242058","986-R7","2018/12/29 18:39:38","新北市新莊區中正路915號","121.410916666667","25.021265","6500500","新莊區"
"242046","400-BY","2018/12/29 18:39:20","新北市新莊區民安路16-27號","121.42249","25.0281066666667","6500500","新莊區"
"238023","601-UM","2018/12/29 18:39:19","新北市樹林區三福街114號","121.406506666667","25.0163733333333","6500700","樹林區"
"238018","571-TV","2018/12/29 18:39:40","新北市樹林區鎮前街45號","121.425301666667","24.9916833333333","6500700","樹林區"
"238024","5061-A6","2018/12/29 18:39:27","新北市樹林區太順街49巷20弄20號","121.417688333333","24.9783933333333","6500700","樹林區"
"238025","303-VK","2018/12/29 18:39:22","新北市樹林區中山路三段22號","121.395625","24.9729183333333","6500700","樹林區"
"238017","283-BY","2018/12/29 18:39:18","新北市樹林區光興街50號","121.409853333333","25.00268","6500700","樹林區"
"238014","282-BY","2018/12/29 18:39:25","新北市樹林區大安路111巷41號","121.423275","24.9976133333333","6500700","樹林區"
"238020","268-VK","2018/12/29 18:39:31","新北市樹林區俊安街33號","121.420181666667","25.0132233333333","6500700","樹林區"
"238026","172-UY","2018/12/29 18:39:27","新北市樹林區育德街78號","121.387686666667","24.9683783333333","6500700","樹林區"
"238016","169-UY","2018/12/29 18:15:08","新北市樹林區育英街161號","121.419013333333","24.989495","6500700","樹林區"
"239007","AAC-297","2018/12/29 18:39:36","新北市鶯歌區中正一路432-1號","121.361623333333","24.9571033333333","6500800","鶯歌區"
"239006","891-R6","2018/12/29 18:39:25","新北市鶯歌區二甲路12-2號","121.345653333333","24.9348833333333","6500800","鶯歌區"
"239008","527-UM","2018/12/29 18:39:26","新北市鶯歌區國際一路179號","121.336196666667","24.9764733333333","6500800","鶯歌區"
"239005","526-UM","2018/12/29 18:32:43","新北市鶯歌區鶯桃路668巷46號","121.32913","24.9703683333333","6500800","鶯歌區"
"239001","417-VK","2018/12/29 18:39:26","新北市鶯歌區鶯桃路28號","121.341858333333","24.9523683333333","6500800","鶯歌區"
"239003","360-BY","2018/12/29 18:39:36","新北市鶯歌區鶯桃路586號","121.330478333333","24.968095","6500800","鶯歌區"
"239002","359-BY","2018/12/29 18:39:38","新北市鶯歌區中正一路99號","121.352178333333","24.9551583333333","6500800","鶯歌區"
"239004","193-VK","2018/12/29 18:39:22","新北市鶯歌區中正三路194巷2-3號","121.332653333333","24.938485","6500800","鶯歌區"
"221008","489-VK","2018/12/29 18:24:25","新北市汐止區康寧街901號","121.65143","25.0750983333333","6501100","汐止區"
"221036","130-UY","2018/12/29 18:39:25","新北市汐止區南昌街13號","121.663503333333","25.0695983333333","6501100","汐止區"
"221015","131-UY","2018/12/29 18:39:32","新北市汐止區鄉長路二段4號","121.66883","25.0807183333333","6501100","汐止區"
"221010","269-BY","2018/12/29 18:39:25","新北市汐止區汐萬路三段199巷1弄2號","121.641903333333","25.0979433333333","6501100","汐止區"
"221012","278-VK","2018/12/29 18:39:19","新北市汐止區鄉長路二段18巷2號","121.668511666667","25.0819483333333","6501100","汐止區"
"221023","279-VK","2018/12/29 18:39:29","新北市汐止區汐萬路一段312號","121.650198333333","25.075525","6501100","汐止區"
"221032","280-BY","2018/12/29 18:39:34","新北市汐止區民權街二段79號","121.619196666667","25.0481166666667","6501100","汐止區"
"221027","281-BY","2018/12/29 18:39:18","新北市汐止區汐萬路一段256巷3號","121.653293333333","25.0746266666667","6501100","汐止區"
"221029","298-VK","2018/12/29 18:39:35","新北市汐止區樟樹一路131號","121.642123333333","25.0649283333333","6501100","汐止區"
"221021","299-VK","2018/12/29 18:39:26","新北市汐止區新台五路一段236號","121.657013333333","25.063375","6501100","汐止區"
"221031","353-TW","2018/12/29 18:39:11","新北市汐止區福德一路274號","121.632115","25.06396","6501100","汐止區"
"221025","623-UM","2018/12/29 18:39:30","新北市汐止區仁愛路119巷7號","121.662431666667","25.0638966666667","6501100","汐止區"
"221038","646-BX","2018/12/29 18:39:29","新北市汐止區康寧街901號","121.65071","25.07528","6501100","汐止區"
"221033","647-BX","2018/12/29 18:39:29","新北市汐止區南勢街3號","121.627088333333","25.0374166666667","6501100","汐止區"
"221002","707-TV","2018/12/29 18:39:37","新北市汐止區大同路一段233-1號","121.634551666667","25.0577333333333","6501100","汐止區"
"221018","753-BX","2018/12/29 18:39:31","新北市汐止區茄苳路250巷19號","121.671766666667","25.0676783333333","6501100","汐止區"
"220079","145-BY","2018/12/29 18:39:39","新北市板橋區南雅西路二段171號","121.45185","25.0123916666667","6500100","板橋區"
"220080","200-UY","2018/12/29 18:39:39","新北市板橋區大觀路二段265巷76弄37號","121.441036666667","24.99673","6500100","板橋區"
"220082","610-BX","2018/12/29 18:39:29","新北市板橋區篤行路二段69號","121.431711666667","24.9921916666667","6500100","板橋區"
"224002","257-TC","2018/12/29 18:39:34","新北市瑞芳區明燈路二段66號","121.809403333333","25.107365","6501200","瑞芳區"
"220056","276-BY","2018/12/29 18:39:19","新北市板橋區貴興路73號","121.45697","25.0029683333333","6500100","板橋區"
"220072","277-BY","2018/12/29 18:39:26","新北市板橋區大觀路三段131號","121.432433333333","24.9941866666667","6500100","板橋區"
"220101","280-UM","2018/12/29 18:39:36","新北市板橋區民生路二段161巷9號","121.470271666667","25.019625","6500100","板橋區"
"220071","283-VK","2018/12/29 18:39:29","新北市板橋區信義路13號","121.457005","24.9968333333333","6500100","板橋區"
"220094","285-UM","2018/12/29 18:39:40","新北市板橋區民生路二段161巷5號","121.470115","25.0197416666667","6500100","板橋區"
"220083","286-VK","2018/12/29 18:39:21","新北市板橋區大觀路二段2號","121.446821666667","25.0038383333333","6500100","板橋區"
"220081","287-VK","2018/12/29 18:39:20","新北市板橋區大觀路一段35巷1號","121.449518333333","25.0084566666667","6500100","板橋區"
"220090","288-VK","2018/12/29 18:39:29","新北市板橋區民生路二段161巷9號","121.470311666667","25.0196016666667","6500100","板橋區"
"220061","293-UM","2018/12/29 18:39:24","新北市板橋區民生路二段120號","121.47043","25.0196583333333","6500100","板橋區"
"220084","296-UM","2018/12/29 18:39:35","新北市板橋區大觀路二段251號","121.443401666667","24.9992066666667","6500100","板橋區"
"220075","303-R5","2018/12/29 18:39:36","新北市板橋區南雅西路一段53巷10號","121.452606666667","25.00531","6500100","板橋區"
"220062","305-R5","2018/12/29 18:39:34","新北市板橋區民生路二段161巷9號","121.470315","25.0196683333333","6500100","板橋區"
"220092","307-R5","2018/12/29 18:31:27","新北市板橋區民生路二段120號","121.47047","25.01998","6500100","板橋區"
"220098","317-R6","2018/12/29 18:39:22","新北市板橋區民生路二段161巷9號","121.470166666667","25.019615","6500100","板橋區"
"220088","491-VK","2018/12/29 18:39:39","新北市板橋區民生路二段161巷1號","121.46978","25.0199116666667","6500100","板橋區"
"220103","561-BX","2018/12/29 18:39:37","新北市板橋區民生路二段120號","121.470698333333","25.0194683333333","6500100","板橋區"
"220063","609-BX","2018/12/29 18:39:21","新北市板橋區民生路二段120號","121.47033","25.0197383333333","6500100","板橋區"
"220055","630-UY","2018/12/29 18:39:36","新北市板橋區忠孝路33-1號","121.460845","25.0020183333333","6500100","板橋區"
"220057","686-BX","2018/12/29 18:39:37","新北市板橋區南雅南路二段4巷2號","121.454246666667","25.0037383333333","6500100","板橋區"
"220077","687-BX","2018/12/29 18:39:37","新北市板橋區華東街1-10號","121.448306666667","24.9949816666667","6500100","板橋區"
"220093","689-BX","2018/12/29 18:39:30","新北市板橋區民生路二段161巷1號","121.470151666667","25.0201316666667","6500100","板橋區"
"220054","741-BX","2018/12/29 18:39:28","新北市板橋區南雅南路二段120-16號","121.452145","24.9990666666667","6500100","板橋區"
"220102","KEA-2699","2018/12/29 18:39:35","新北市板橋區民生路二段161巷1號","121.47003","25.01995","6500100","板橋區"
"220067","829-TW","2018/12/29 18:39:33","新北市板橋區民生路二段120號","121.47065","25.019655","6500100","板橋區"
"220074","895-R6","2018/12/29 18:39:24","新北市板橋區南門街44號","121.456958333333","25.0082033333333","6500100","板橋區"
"220073","985-R7","2018/12/29 18:39:34","新北市土城區四川路35號","121.454913333333","24.9957533333333","6500100","板橋區"
"220064","AAC-253","2018/12/29 18:39:28","新北市板橋區民生路二段17號","121.47248","25.01632","6500100","板橋區"
"235068","KEA-2873","2018/12/29 18:39:23","新北市中和區中正路211巷22號","121.497021666667","24.9931366666667","6500300","中和區"
"235061","KEA-2875","2018/12/29 18:39:11","新北市中和區民享街92巷34號","121.473581666667","24.999635","6500300","中和區"
