"lineid","car","time","location","longitude","latitude","cityid","cityname"
"234046","148-BY","2018/12/29 18:49:33","新北市永和區秀朗路二段124-3號","121.524788333333","25.0015316666667","6500400","永和區"
"234081","298-R6","2018/12/29 18:49:24","新北市永和區永利路108號","121.521203333333","25.0033983333333","6500400","永和區"
"234038","336-UY","2018/12/29 18:49:35","新北市永和區成功路二段28號","121.526778333333","25.0005733333333","6500400","永和區"
"234064","337-UY","2018/12/29 18:49:36","新北市永和區福和路1號","121.525781666667","25.0094816666667","6500400","永和區"
"234086","338-UY","2018/12/29 18:49:20","新北市永和區中正路69號","121.514863333333","24.9966416666667","6500400","永和區"
"234070","552-UM","2018/12/29 18:49:25","新北市永和區中興街100號","121.51908","25.0121266666667","6500400","永和區"
"234017","745-BX","2018/12/29 18:49:33","新北市永和區忠孝街26巷27弄1號","121.515263333333","25.0169066666667","6500400","永和區"
"234030","746-BX","2018/12/29 18:49:30","新北市永和區得和路327號","121.523481666667","24.9996366666667","6500400","永和區"
"234054","KEA-2590","2018/12/29 18:49:26","新北市永和區豫溪街191巷2號","121.523685","25.010385","6500400","永和區"
"234007","839-RS","2018/12/29 18:49:27","新北市永和區文化路123號","121.512326666667","25.0152916666667","6500400","永和區"
"234013","KEA-2591","2018/12/29 18:49:33","新北市永和區仁愛路202巷24號","121.508983333333","25.0129316666667","6500400","永和區"
"234061","AAD-866","2018/12/29 18:49:34","新北市永和區福和路303號","121.516375","25.0071916666667","6500400","永和區"
"234042","862-TW","2018/12/29 18:49:31","新北市永和區永貞路310號","121.511763333333","25.004885","6500400","永和區"
"234011","9373-KE","2018/12/29 18:49:33","新北市永和區文化路126巷6號","121.51312","25.0157016666667","6500400","永和區"
"249005","172-UM","2018/12/29 18:49:35","新北市八里區中華路三段239號","121.391063333333","25.1246916666667","6502300","八里區"
"249001","173-UM","2018/12/29 18:49:29","新北市八里區龍米路二段56號","121.448181666667","25.140755","6502300","八里區"
"248016","026-BX","2018/12/29 18:49:30","新北市五股區凌雲路一段149巷42號","121.448608333333","25.1009116666667","6501500","五股區"
"248006","077-UY","2018/12/29 18:49:39","新北市五股區四維路40號","121.467258333333","25.071745","6501500","五股區"
"248008","095-VK","2018/12/29 18:49:35","新北市五股區中興路一段151巷50號","121.465165","25.0723433333333","6501500","五股區"
"248020","225-UY","2018/12/29 18:49:34","新北市五股區凌雲路三段田埔巷3-1號","121.433921666667","25.1196933333333","6501500","五股區"
"248012","247-BX","2018/12/29 18:49:20","新北市五股區成泰路二段147巷34-2號","121.436756666667","25.0887016666667","6501500","五股區"
"248014","261-SL","2018/12/29 18:49:26","新北市五股區民義路一段107巷32號","121.432318333333","25.08444","6501500","五股區"
"248004","677-BX","2018/12/29 18:49:38","新北市五股區民義路二段26-2號","121.419586666667","25.097245","6501500","五股區"
"248002","678-BX","2018/12/29 18:49:19","新北市五股區西雲路274號","121.44937","25.0977483333333","6501500","五股區"
"248010","682-TV","2018/12/29 18:49:34","新北市五股區水碓五路81號","121.430005","25.0718933333333","6501500","五股區"
"234023","9380-KE","2018/12/29 18:49:20","新北市永和區竹林路119巷47號","121.52202","25.0118283333333","6500400","永和區"
"234077","969-R7","2018/12/29 18:49:34","新北市永和區中正路2巷29弄13號","121.513623333333","24.994055","6500400","永和區"
"234067","AAC-212","2018/12/29 18:49:21","新北市永和區永和路一段36號","121.513003333333","25.0052533333333","6500400","永和區"
"234003","AAC-295","2018/12/29 18:49:22","新北市永和區中正路700號","121.51633","25.009885","6500400","永和區"
"232011","375-UM","2018/12/29 18:49:26","新北市坪林區坪林街55號","121.711401666667","24.937535","6502000","坪林區"
"244007","080-UY","2018/12/29 18:49:33","新北市林口區太平里23-8號","121.37589","25.11444","6501700","林口區"
"244019","402-UM","2018/12/29 18:49:22","新北市林口區麗園二街10-6號","121.378183333333","25.0695533333333","6501700","林口區"
"244013","KEA-2802","2018/12/29 18:49:20","新北市林口區文化一路一段137號","121.374008333333","25.0720233333333","6501700","林口區"
"244023","483-VK","2018/12/29 18:49:22","新北市林口區文化一路二段68號","121.381233333333","25.0779466666667","6501700","林口區"
"244017","485-VK","2018/12/29 18:49:30","新北市林口區文化二路一段68巷18-2號","121.366221666667","25.0678466666667","6501700","林口區"
"244009","656-BX","2018/12/29 18:49:25","新北市林口區台電新村86號","121.388421666667","25.0870083333333","6501700","林口區"
"244011","657-BX","2018/12/29 18:49:19","新北市林口區仁愛路一段272巷2號","121.393616666667","25.075965","6501700","林口區"
"244025","837-TS","2018/12/29 18:49:29","新北市林口區忠孝一路148號","121.3604","25.0742966666667","6501700","林口區"
"243013","AAD-798","2018/12/29 18:23:54","新北市泰山區明志路三段206巷3號","121.423273333333","25.0379316666667","6501600","泰山區"
"243016","KEA-2801","2018/12/29 18:49:31","新北市泰山區明志路二段135號","121.427628333333","25.0507266666667","6501600","泰山區"
"243015","421-VK","2018/12/29 18:49:26","新北市泰山區美寧街50號","121.430458333333","25.0644833333333","6501600","泰山區"
"243012","646-TV","2018/12/29 18:49:25","新北市泰山區泰林路二段73巷29號","121.434425","25.057875","6501600","泰山區"
"243014","680-BX","2018/12/29 18:49:32","新北市泰山區黎明路25號","121.422075","25.060695","6501600","泰山區"
"222003","436-BY","2018/12/29 18:49:25","新北市深坑區北深路一段300號","121.624915","25.00634","6501800","深坑區"
"222002","659-BX","2018/12/29 18:49:21","新北市深坑區文山路一段69號","121.626983333333","25.00185","6501800","深坑區"
"231041","002-UM","2018/12/29 18:49:25","新北市新店區安華路28-1號","121.51956","24.9608466666667","6500600","新店區"
"231059","046-UY","2018/12/29 18:49:34","新北市新店區安華路28-1號","121.519488333333","24.960795","6500600","新店區"
"231040","047-UY","2018/12/29 18:49:24","新北市新店區安康路一段9-2號","121.53365","24.9605483333333","6500600","新店區"
"231044","106-UY","2018/12/29 18:49:39","新北市新店區寶中路72號","121.54791","24.9805933333333","6500600","新店區"
"231046","107-UY","2018/12/29 18:49:22","新北市新店區直潭路65號","121.53282","24.94231","6500600","新店區"
"231052","108-UY","2018/12/29 18:49:36","新北市新店區湖子內路1號","121.542205","24.9300583333333","6500600","新店區"
"231048","187-VK","2018/12/29 18:49:35","新北市新店區環河路29巷1-1號","121.536325","24.9611533333333","6500600","新店區"
"231054","188-VK","2018/12/29 18:49:21","新北市新店區安康路一段3-1號","121.534265","24.9606516666667","6500600","新店區"
"221035","KEA-2785","2018/12/29 18:49:21","新北市汐止區汐萬路一段284號","121.650793333333","25.074205","6501100","汐止區"
"231065","260-TV","2018/12/29 18:48:58","新北市新店區安忠路57巷13號","121.513566666667","24.9574816666667","6500600","新店區"
"231042","268-BY","2018/12/29 18:49:32","新北市新店區安康路一段44號","121.530806666667","24.9610066666667","6500600","新店區"
"231051","278-BY","2018/12/29 18:49:36","新北市新店區中央路63號","121.532623333333","24.977155","6500600","新店區"
"231050","AAD-862","2018/12/29 18:49:19","新北市新店區光明街53號","121.538506666667","24.9602366666667","6500600","新店區"
"231043","355-BY","2018/12/29 18:49:31","新北市新店區安康路一段81號","121.529771666667","24.961265","6500600","新店區"
"231058","3713-VJ","2018/12/29 18:49:21","新北市新店區北宜路一段105巷4弄3-1號","121.539998333333","24.9556916666667","6500600","新店區"
"231066","4716-K9","2018/12/29 18:49:35","新北市新店區安一路一段1-1號","121.519396666667","24.9614533333333","6500600","新店區"
"231056","4715-K9","2018/12/29 18:49:36","新北市新店區大同街8巷1號","121.539635","24.98015","6500600","新店區"
"231067","4772-VM","2018/12/29 18:49:21","新北市新店區安華路28-1號","121.519223333333","24.9605733333333","6500600","新店區"
"231049","513-UM","2018/12/29 18:49:25","新北市新店區中央路177-1號","121.535021666667","24.96958","6500600","新店區"
"231061","619-UM","2018/12/29 18:49:37","新北市新店區安華路28-1號","121.519568333333","24.960765","6500600","新店區"
"231063","641-BX","2018/12/29 18:49:34","新北市新店區安華路28-1號","121.519571666667","24.9605416666667","6500600","新店區"
"231064","719-UM","2018/12/29 18:49:30","新北市新店區安一路一段1-1號","121.519481666667","24.961195","6500600","新店區"
"231062","720-UM","2018/12/29 18:49:34","新北市新店區安一路一段1-1號","121.5193","24.9613633333333","6500600","新店區"
"231060","897-TW","2018/12/29 18:49:26","新北市新店區安華路28-1號","121.519506666667","24.9608083333333","6500600","新店區"
"231045","898-TW","2018/12/29 18:49:37","新北市新店區安華路28-1號","121.519385","24.96085","6500600","新店區"
"231055","AKT-0513","2018/12/29 18:49:33","新北市新店區新生街17號","121.539936666667","24.9662066666667","6500600","新店區"
"251014","742-BX","2018/12/29 18:49:21","新北市淡水區崙頂2-3號","121.492118333333","25.2239566666667","6501000","淡水區"
"235066","003-UY","2018/12/29 18:49:36","新北市中和區水源路18巷9號","121.50399","25.0029466666667","6500300","中和區"
"235064","005-UY","2018/12/29 18:49:31","新北市中和區連勝街2號","121.499091666667","24.99862","6500300","中和區"
"235063","006-UY","2018/12/29 18:49:19","新北市中和區連城路319巷11弄12號","121.489636666667","24.99498","6500300","中和區"
"235056","096-UM","2018/12/29 18:49:24","新北市中和區員山路514號","121.479133333333","25.0089166666667","6500300","中和區"
"235039","097-UM","2018/12/29 18:49:37","新北市中和區安樂路217巷60號","121.51278","24.9975933333333","6500300","中和區"
"235040","150-BY","2018/12/29 18:49:19","新北市中和區安平路36巷3號","121.51025","24.9949","6500300","中和區"
"235058","151-BY","2018/12/29 18:49:27","新北市中和區連城路534巷2號","121.475311666667","24.9913383333333","6500300","中和區"
"235055","183-VK","2018/12/29 18:49:37","新北市中和區民生街85巷3弄1號","121.469103333333","25.0044716666667","6500300","中和區"
"235038","185-VK","2018/12/29 18:49:21","新北市中和區大勇街52號","121.517616666667","24.9943566666667","6500300","中和區"
"235049","186-VK","2018/12/29 18:49:33","新北市中和區景安路132巷36號","121.5041","24.9943183333333","6500300","中和區"
"235067","255-BX","2018/12/29 18:49:33","新北市中和區中正路869號","121.484591666667","25.00385","6500300","中和區"
"235044","293-VK","2018/12/29 18:49:25","新北市中和區中興街165號","121.500006666667","24.99067","6500300","中和區"
"235042","KEA-2878","2018/12/29 18:49:37","新北市中和區秀朗路三段70巷29號","121.525703333333","24.9943816666667","6500300","中和區"
"235050","4979-A6","2018/12/29 18:49:36","新北市中和區忠孝街62巷46號","121.51317","24.98394","6500300","中和區"
"235069","4980-A6","2018/12/29 18:49:32","新北市中和區南山路7號","121.502148333333","24.9993833333333","6500300","中和區"
"235070","558-UM","2018/12/29 18:49:32","新北市中和區中和路130號","121.503708333333","24.99972","6500300","中和區"
"235045","565-BX","2018/12/29 18:49:19","新北市中和區景新街347-1號","121.512158333333","24.9910483333333","6500300","中和區"
"235054","640-BX","2018/12/29 18:49:25","新北市中和區民治街24號","121.475153333333","25.004015","6500300","中和區"
"235060","647-TV","2018/12/29 18:49:35","新北市中和區中山路三段173號","121.473063333333","25.0062833333333","6500300","中和區"
"235047","732-UM","2018/12/29 18:49:36","新北市中和區興南路二段34巷69號","121.504961666667","24.9853583333333","6500300","中和區"
"235046","733-UM","2018/12/29 18:49:25","新北市中和區仁愛街36巷44號","121.51133","24.9863333333333","6500300","中和區"
"235062","800-TS","2018/12/29 18:49:30","新北市中和區中山路二段274號","121.496761666667","25.0024933333333","6500300","中和區"
"235057","801-TS","2018/12/29 18:49:36","新北市中和區民安街25巷21號","121.48058","24.9998683333333","6500300","中和區"
"235041","802-TS","2018/12/29 18:49:22","新北市中和區中安街196號","121.51153","24.99925","6500300","中和區"
"235052","805-TS","2018/12/29 18:49:38","新北市中和區興南路二段399巷66號","121.49975","24.978665","6500300","中和區"
"235048","896-TW","2018/12/29 18:49:27","新北市中和區華新街51號","121.507883333333","24.9844466666667","6500300","中和區"
"235053","900-TW","2018/12/29 18:49:23","新北市中和區民德路290巷26號","121.466878333333","24.9958916666667","6500300","中和區"
"235065","911-UM","2018/12/29 18:49:30","新北市中和區中山路二段2巷23號","121.503291666667","25.0068916666667","6500300","中和區"
"235051","157-BY","2018/12/29 18:49:28","新北市中和區忠孝街106巷9弄1號","121.512448333333","24.9845616666667","6500300","中和區"
"235037","AAC-213","2018/12/29 18:49:27","新北市中和區秀朗路三段171號","121.524556666667","24.9916483333333","6500300","中和區"
"235059","AAC-215","2018/12/29 18:49:21","新北市中和區圓通路393巷16號","121.489756666667","24.98863","6500300","中和區"
"220086","073-UY","2018/12/29 18:49:21","新北市板橋區大智街22號","121.455705","25.0148883333333","6500100","板橋區"
"220106","075-UY","2018/12/29 18:49:29","新北市板橋區文化路二段124巷28-2號","121.47121","25.025665","6500100","板橋區"
"220069","AAD-861","2018/12/29 18:49:34","新北市板橋區華興街86號","121.456921666667","25.005185","6500100","板橋區"
"226004","312-R5","2018/12/29 18:49:31","新北市平溪區平溪里三坑路49-1號","121.731481666667","25.0326683333333","6502400","平溪區"
"235072","251-BX","2018/12/29 18:49:27","新北市中和區中山路二段152號","121.50151","25.0028433333333","6500300","中和區"
"228001","212-TW","2018/12/29 18:49:33","新北市貢寮區仁理村研海街12-1號","121.923763333333","25.0516033333333","6502600","貢寮區"
"228002","585-TW","2018/12/29 18:49:35","新北市貢寮區福隆里東興街6-11號","121.950756666667","25.021035","6502600","貢寮區"
"224006","676-BX","2018/12/29 18:49:26","新北市瑞芳區中正路33號","121.807633333333","25.10709","6501200","瑞芳區"
"224011","420-VK","2018/12/29 18:49:34","新北市瑞芳區崙頂路3-1號","121.84706","25.1046516666667","6501200","瑞芳區"
"224008","285-BY","2018/12/29 18:49:28","新北市瑞芳區逢甲路412-2號","121.797918333333","25.1142566666667","6501200","瑞芳區"
"224007","275-VK","2018/12/29 18:49:24","新北市瑞芳區大埔路東泰新村2號","121.761376666667","25.1011716666667","6501200","瑞芳區"
"224009","273-VK","2018/12/29 18:49:37","新北市瑞芳區祈堂路2號","121.859735","25.1117333333333","6501200","瑞芳區"
"224005","271-BY","2018/12/29 18:49:00","新北市瑞芳區濱二路66-4號","121.831465","25.1189933333333","6501200","瑞芳區"
"227002","642-TC","2018/12/29 18:49:20","新北市雙溪區平林里梅竹蹊26號","121.861676666667","25.036035","6502500","雙溪區"
"227010","400-TW","2018/12/29 18:49:37","新北市雙溪區牡丹里聖南26號","121.85635","25.053425","6502500","雙溪區"
"253006","032-BX","2018/12/29 18:49:21","新北市石門區下員坑15-12號","121.512693333333","25.2840116666667","6502200","石門區"
"253005","295-VK","2018/12/29 18:49:41","新北市石門區中山路28-3號","121.565748333333","25.2898483333333","6502200","石門區"
"222001","KEA-2212","2018/12/29 18:49:39","新北市深坑區松柏街28巷1號","121.638681666667","25.0110466666667","6501800","深坑區"
"208002","KEA-2872","2018/12/29 18:49:22","新北市金山區信義路26號","121.635585","25.2198733333333","6502700","金山區"
"208003","665-BX","2018/12/29 18:49:33","新北市金山區中山路336號","121.633603333333","25.2252183333333","6502700","金山區"
"208001","761-BX","2018/12/29 18:49:35","新北市金山區文化三路62號","121.634253333333","25.2255833333333","6502700","金山區"
"251009","008-UM","2018/12/29 18:49:21","新北市淡水區重建街158號","121.440566666667","25.173685","6501000","淡水區"
"251002","012-UM","2018/12/29 18:49:31","新北市淡水區學府路71號","121.448401666667","25.1698316666667","6501000","淡水區"
"251013","KEA-2871","2018/12/29 18:49:17","新北市淡水區安子內5號","121.483298333333","25.2145416666667","6501000","淡水區"
"251016","179-VK","2018/12/29 18:49:34","新北市淡水區下圭柔山71-3號","121.44706","25.2061933333333","6501000","淡水區"
"251015","182-VK","2018/12/29 18:49:27","新北市淡水區糞箕湖20號","121.485646666667","25.1710183333333","6501000","淡水區"
"251010","413-VK","2018/12/29 18:49:30","新北市淡水區沙崙路18號","121.421155","25.181095","6501000","淡水區"
"251012","441-VK","2018/12/29 18:49:31","新北市淡水區新興街19號","121.44296","25.1804216666667","6501000","淡水區"
"251007","442-VK","2018/12/29 18:49:25","新北市淡水區民權路3巷36號","121.462681666667","25.143695","6501000","淡水區"
"251001","559-UM","2018/12/29 18:49:24","新北市淡水區自強路82號","121.462808333333","25.1281633333333","6501000","淡水區"
"251011","650-BX","2018/12/29 18:49:22","新北市淡水區鄧公路2號","121.448621666667","25.1695933333333","6501000","淡水區"
"251003","766-UM","2018/12/29 18:49:30","新北市淡水區北新路65號","121.44627","25.17851","6501000","淡水區"
"207003","550-UM","2018/12/29 18:49:31","新北市萬里區大鵬里頂社1號","121.656996666667","25.2096866666667","6502800","萬里區"
"207004","225-TW","2018/12/29 18:49:35","新北市萬里區萬里里獅頭路23號","121.6932","25.1782666666667","6502800","萬里區"
"252002","178-VK","2018/12/29 18:49:39","新北市三芝區中正路一段112號","121.504846666667","25.2563416666667","6502100","三芝區"
"252003","249-BX","2018/12/29 18:49:31","新北市三芝區後厝里大片頭83-4號","121.458953333333","25.2440233333333","6502100","三芝區"
"237004","KEA-2597","2018/12/29 18:49:19","新北市三峽區有木300號","121.422208333333","24.8624783333333","6500900","三峽區"
"237013","252-BX","2018/12/29 18:49:35","新北市三峽區光明路69巷27號","121.376833333333","24.92924","6500900","三峽區"
"237012","275-BY","2018/12/29 18:49:33","新北市三峽區三樹路275號","121.378981666667","24.9431","6500900","三峽區"
"237008","302-VK","2018/12/29 18:49:29","新北市三峽區白雞33-55號","121.370868333333","24.9131133333333","6500900","三峽區"
"237014","433-BY","2018/12/29 18:49:35","新北市三峽區隆恩街158巷42號","121.366543333333","24.9444233333333","6500900","三峽區"
"237011","KEA-2596","2018/12/29 18:49:26","新北市三峽區介壽路三段56號","121.395691666667","24.9373283333333","6500900","三峽區"
"237016","649-BX","2018/12/29 18:49:25","新北市三峽區安坑33-5號","121.451445","24.930065","6500900","三峽區"
"237010","706-TV","2018/12/29 18:49:33","新北市三峽區復興路174巷4號","121.370755","24.9388966666667","6500900","三峽區"
"237005","AKY-6261","2018/12/29 18:49:32","新北市三峽區中山路219巷19弄3號","121.362753333333","24.9358916666667","6500900","三峽區"
"236070","105-UM","2018/12/29 18:49:21","新北市土城區立清街1號","121.45991","24.9849083333333","6501300","土城區"
"236042","KED-0685","2018/12/29 18:49:20","新北市土城區裕民路92巷25弄10號","121.449891666667","24.985685","6501300","土城區"
"236079","166-UM","2018/12/29 18:49:25","新北市土城區中央路四段185巷53號","121.416335","24.95587","6501300","土城區"
"236030","253-BX","2018/12/29 18:49:33","新北市土城區中央路三段61巷2號","121.43952","24.9695016666667","6501300","土城區"
"236026","269-VK","2018/12/29 18:49:28","新北市土城區興城路48號","121.441368333333","24.9726283333333","6501300","土城區"
"236014","270-VK","2018/12/29 18:49:41","新北市土城區金城路二段354巷16號","121.460905","24.98435","6501300","土城區"
"236038","271-VK","2018/12/29 18:49:26","新北市土城區明德路一段225號","121.463106666667","24.9784866666667","6501300","土城區"
"252001","KED-0821","2018/12/29 18:49:37","新北市三芝區中正路三段9號","121.502863333333","25.2540116666667","6502100","三芝區"
"236021","401-BY","2018/12/29 18:49:39","新北市土城區延吉街251號","121.467633333333","24.9849383333333","6501300","土城區"
"236059","912-UM","2018/12/29 18:49:19","新北市土城區金城路一段56號","121.44252","24.9707066666667","6501300","土城區"
"236049","913-UM","2018/12/29 18:49:33","新北市土城區青雲路9號","121.460358333333","24.9896866666667","6501300","土城區"
"236063","915-UM","2018/12/29 18:49:23","新北市土城區金城路三段207巷8弄23號","121.470523333333","24.990775","6501300","土城區"
"236055","AAC-216","2018/12/29 18:49:36","新北市土城區裕民路178號","121.452728333333","24.9852716666667","6501300","土城區"
"242058","986-R7","2018/12/29 18:49:37","新北市新莊區中正路887-33號","121.415825","25.0239983333333","6500500","新莊區"
"238023","601-UM","2018/12/29 18:49:39","新北市樹林區工興街14巷1號","121.398893333333","25.01362","6500700","樹林區"
"238024","5061-A6","2018/12/29 18:49:37","新北市樹林區太平路247巷1號","121.419275","24.9750933333333","6500700","樹林區"
"238022","KEA-2213","2018/12/29 18:49:29","新北市樹林區中華路379巷76號","121.413843333333","24.9775083333333","6500700","樹林區"
"238021","KEA-2539","2018/12/29 18:49:37","新北市樹林區西圳街二段30號","121.3886","24.961795","6500700","樹林區"
"238025","303-VK","2018/12/29 18:49:22","新北市樹林區中山路三段22號","121.395608333333","24.9729266666667","6500700","樹林區"
"238017","283-BY","2018/12/29 18:49:38","新北市樹林區光興街50號","121.409858333333","25.0027066666667","6500700","樹林區"
"238014","282-BY","2018/12/29 18:49:25","新北市樹林區大安路111巷25號","121.423253333333","24.99762","6500700","樹林區"
"238020","268-VK","2018/12/29 18:49:31","新北市樹林區俊英街280號","121.423748333333","25.0132916666667","6500700","樹林區"
"238026","172-UY","2018/12/29 18:49:27","新北市樹林區信和街2巷1號","121.389736666667","24.9709183333333","6500700","樹林區"
"239007","AAC-297","2018/12/29 18:49:36","新北市鶯歌區中正一路303號","121.356171666667","24.9578133333333","6500800","鶯歌區"
"239006","891-R6","2018/12/29 18:49:25","新北市樹林區八德街1-1號","121.340991666667","24.9480466666667","6500800","鶯歌區"
"239008","527-UM","2018/12/29 18:49:26","新北市鶯歌區晨曦街3-2號","121.33685","24.9764366666667","6500800","鶯歌區"
"239005","526-UM","2018/12/29 18:32:43","新北市鶯歌區鶯桃路668巷46號","121.32913","24.9703683333333","6500800","鶯歌區"
"239001","417-VK","2018/12/29 18:49:26","新北市鶯歌區永明街64號","121.340668333333","24.956015","6500800","鶯歌區"
"239003","360-BY","2018/12/29 18:49:28","新北市鶯歌區鶯桃路485號","121.331716666667","24.966305","6500800","鶯歌區"
"239002","359-BY","2018/12/29 18:49:38","新北市鶯歌區中山路106號","121.35077","24.9570966666667","6500800","鶯歌區"
"239004","193-VK","2018/12/29 18:49:22","新北市鶯歌區中正三路318巷39號","121.327183333333","24.93654","6500800","鶯歌區"
"221008","489-VK","2018/12/29 18:49:35","新北市汐止區康寧街901號","121.651365","25.075015","6501100","汐止區"
"221036","130-UY","2018/12/29 18:49:25","新北市汐止區中正路311號","121.655878333333","25.0677766666667","6501100","汐止區"
"221015","131-UY","2018/12/29 18:49:32","新北市汐止區鄉長路一段55巷22號","121.664783333333","25.0763583333333","6501100","汐止區"
"221010","269-BY","2018/12/29 18:49:25","新北市汐止區汐萬路一段256巷3號","121.652908333333","25.0744116666667","6501100","汐止區"
"221012","278-VK","2018/12/29 18:49:38","新北市汐止區康寧街901號","121.650783333333","25.0752183333333","6501100","汐止區"
"221023","279-VK","2018/12/29 18:49:29","新北市汐止區康寧街901號","121.650758333333","25.0752966666667","6501100","汐止區"
"221032","280-BY","2018/12/29 18:49:34","新北市汐止區橫科路221巷19-1號","121.621093333333","25.04975","6501100","汐止區"
"221027","281-BY","2018/12/29 18:49:38","新北市汐止區康寧街901號","121.651485","25.07499","6501100","汐止區"
"221029","298-VK","2018/12/29 18:49:24","新北市汐止區工建路56-1號","121.640801666667","25.06306","6501100","汐止區"
"221021","299-VK","2018/12/29 18:49:26","新北市汐止區汐萬路一段256巷3號","121.652488333333","25.07455","6501100","汐止區"
"221031","353-TW","2018/12/29 18:49:31","新北市汐止區福德二路187巷10號","121.630193333333","25.06471","6501100","汐止區"
"221025","623-UM","2018/12/29 18:49:24","新北市汐止區仁愛路79號","121.661241666667","25.06287","6501100","汐止區"
"221038","646-BX","2018/12/29 18:49:29","新北市汐止區康寧街901號","121.650713333333","25.0753033333333","6501100","汐止區"
"221033","647-BX","2018/12/29 18:49:29","新北市汐止區南勢街3號","121.627083333333","25.0374116666667","6501100","汐止區"
"221002","707-TV","2018/12/29 18:49:18","新北市汐止區大同路一段2號","121.62106","25.055025","6501100","汐止區"
"221018","753-BX","2018/12/29 18:49:30","新北市汐止區茄苳路83號","121.667075","25.0706383333333","6501100","汐止區"
"220079","145-BY","2018/12/29 18:49:37","新北市板橋區南雅西路二段192巷24號","121.452673333333","25.0139083333333","6500100","板橋區"
"220080","200-UY","2018/12/29 18:49:40","新北市板橋區大觀路二段265巷72弄35號","121.441165","24.997085","6500100","板橋區"
"220082","610-BX","2018/12/29 18:49:29","新北市板橋區篤行路三段99號","121.426168333333","24.98462","6500100","板橋區"
"224002","257-TC","2018/12/29 18:49:34","新北市瑞芳區傑魚坑路4-1號","121.79501","25.11044","6501200","瑞芳區"
"220091","267-BY","2018/12/29 18:49:29","新北市板橋區雙十路二段47巷52號","121.47479","25.0253533333333","6500100","板橋區"
"220056","276-BY","2018/12/29 18:49:39","新北市板橋區四川路一段239號","121.45995","25.002855","6500100","板橋區"
"220072","277-BY","2018/12/29 18:49:26","新北市板橋區大觀路三段36巷4號","121.433865","24.9959333333333","6500100","板橋區"
"220101","280-UM","2018/12/29 18:49:36","新北市板橋區莊敬路86-3號","121.47157","25.024855","6500100","板橋區"
"220071","283-VK","2018/12/29 18:49:21","新北市板橋區館前東路80號","121.461621666667","25.0074233333333","6500100","板橋區"
"220094","285-UM","2018/12/29 18:49:20","新北市板橋區文化路二段76號","121.469335","25.0249966666667","6500100","板橋區"
"220053","285-VK","2018/12/29 18:49:37","新北市板橋區成功路39號","121.47501","25.0176433333333","6500100","板橋區"
"220083","286-VK","2018/12/29 18:49:41","新北市板橋區僑中一街125巷6弄1號","121.445343333333","25.0112433333333","6500100","板橋區"
"220081","287-VK","2018/12/29 18:49:40","新北市板橋區光華街15巷1-1號","121.453933333333","25.0117916666667","6500100","板橋區"
"220090","288-VK","2018/12/29 18:49:29","新北市板橋區四維路177巷2弄1號","121.464036666667","25.0262466666667","6500100","板橋區"
"220061","293-UM","2018/12/29 18:49:24","新北市板橋區富山街109巷63弄27號","121.47535","25.02058","6500100","板橋區"
"220084","296-UM","2018/12/29 18:49:38","新北市板橋區大觀路二段150巷26號","121.44168","24.9996816666667","6500100","板橋區"
"220075","303-R5","2018/12/29 18:49:36","新北市板橋區館前西路162號","121.452826666667","25.00859","6500100","板橋區"
"220062","305-R5","2018/12/29 18:49:34","新北市板橋區中山路二段23號","121.472365","25.0152933333333","6500100","板橋區"
"220092","307-R5","2018/12/29 18:49:39","新北市板橋區文化路一段104巷1弄24號","121.465481666667","25.0180566666667","6500100","板橋區"
"220098","317-R6","2018/12/29 18:49:39","新北市板橋區民生路二段234巷77號","121.470243333333","25.0225316666667","6500100","板橋區"
"220089","487-VK","2018/12/29 18:49:26","新北市板橋區文化路二段464號","121.475008333333","25.03272","6500100","板橋區"
"220088","491-VK","2018/12/29 18:49:39","新北市板橋區民生路二段216號","121.469335","25.021555","6500100","板橋區"
"220104","560-BX","2018/12/29 18:49:32","新北市板橋區中正路275巷66號","121.452938333333","25.0181016666667","6500100","板橋區"
"220103","561-BX","2018/12/29 18:49:37","新北市板橋區介壽街115號","121.470365","25.0184233333333","6500100","板橋區"
"220063","609-BX","2018/12/29 18:49:21","新北市板橋區民生路一段74號","121.47369","25.015245","6500100","板橋區"
"220055","630-UY","2018/12/29 18:49:36","新北市板橋區忠孝路108-1號","121.46226","25.002125","6500100","板橋區"
"220057","686-BX","2018/12/29 18:49:40","新北市板橋區重慶路91-1號","121.462148333333","25.005865","6500100","板橋區"
"220077","687-BX","2018/12/29 18:49:37","新北市板橋區大觀路二段174巷166弄2號","121.441786666667","25.0031883333333","6500100","板橋區"
"220093","689-BX","2018/12/29 18:49:38","新北市板橋區民生路三段120-2號","121.466171666667","25.0266966666667","6500100","板橋區"
"220054","741-BX","2018/12/29 18:49:28","新北市板橋區後埔街79號","121.460695","25.0054083333333","6500100","板橋區"
"220102","KEA-2699","2018/12/29 18:49:35","新北市板橋區田單街2巷24號","121.48143","25.0278666666667","6500100","板橋區"
"220067","829-TW","2018/12/29 18:49:33","新北市板橋區中山路二段90巷47弄2號","121.47654","25.0146316666667","6500100","板橋區"
"220068","830-TW","2018/12/29 18:49:36","新北市板橋區大同街35巷18號","121.477558333333","25.0279666666667","6500100","板橋區"
"220074","895-R6","2018/12/29 18:49:21","新北市板橋區林園街59號","121.453663333333","25.0103383333333","6500100","板橋區"
"220073","985-R7","2018/12/29 18:49:34","新北市板橋區館前西路209號","121.454893333333","25.0083133333333","6500100","板橋區"
"220097","AAC-210","2018/12/29 18:49:30","新北市板橋區漢生西路181號","121.46327","25.0237416666667","6500100","板橋區"
"220064","AAC-253","2018/12/29 18:49:28","新北市板橋區中山路一段279號","121.46964","25.0138366666667","6500100","板橋區"
"235068","KEA-2873","2018/12/29 18:49:23","新北市中和區中正路211巷36弄4號","121.497166666667","24.992775","6500300","中和區"
"235061","KEA-2875","2018/12/29 18:49:11","新北市中和區民享街40-3號","121.47397","25.0027333333333","6500300","中和區"
