"lineid","car","time","location","longitude","latitude","cityid","cityname"
"234046","148-BY","2018/12/29 19:29:38","新北市永和區秀朗路二段204號","121.526356666667","25.0002433333333","6500400","永和區"
"234081","298-R6","2018/12/29 19:29:24","新北市永和區林森路6號","121.52669","25.0057016666667","6500400","永和區"
"234038","336-UY","2018/12/29 19:29:35","新北市永和區民樂街35巷2號","121.527568333333","25.0008916666667","6500400","永和區"
"234064","337-UY","2018/12/29 19:29:36","新北市永和區得和路243巷29號","121.52066","25.0012866666667","6500400","永和區"
"234086","338-UY","2018/12/29 19:29:40","新北市永和區林森路77號","121.523961666667","25.0039683333333","6500400","永和區"
"234070","552-UM","2018/12/29 19:29:25","新北市永和區竹林路90號","121.519498333333","25.0123766666667","6500400","永和區"
"234017","745-BX","2018/12/29 19:29:33","新北市永和區環河西路一段73號","121.513286666667","25.0180983333333","6500400","永和區"
"234030","746-BX","2018/12/29 19:29:30","新北市永和區民生路2號","121.52271","24.9979783333333","6500400","永和區"
"234054","KEA-2590","2018/12/29 19:29:26","新北市永和區復興街21號","121.516098333333","25.0130366666667","6500400","永和區"
"234007","839-RS","2018/12/29 19:29:26","新北市永和區永和路184-1號","121.514266666667","25.009075","6500400","永和區"
"234013","KEA-2591","2018/12/29 19:29:33","新北市永和區信義路10號","121.514588333333","25.0121066666667","6500400","永和區"
"234061","AAD-866","2018/12/29 19:29:34","新北市永和區永貞路158號","121.517605","25.0045766666667","6500400","永和區"
"234042","862-TW","2018/12/29 19:29:31","新北市永和區水源街39巷28號","121.510745","25.0031233333333","6500400","永和區"
"234050","863-TW","2018/12/29 19:29:32","新北市永和區信義路120號","121.512351666667","25.014695","6500400","永和區"
"234026","9371-KE","2018/12/29 19:29:28","新北市中和區安樂路255號","121.514063333333","24.9998866666667","6500400","永和區"
"234011","9373-KE","2018/12/29 19:29:33","新北市永和區保福路二段163巷13弄5號","121.509266666667","25.0143516666667","6500400","永和區"
"249002","305-UY","2018/12/29 19:29:36","新北市八里區頂寮二街138號","121.449351666667","25.1294783333333","6502300","八里區"
"249003","593-UM","2018/12/29 19:29:23","新北市八里區中山路二段500巷58號","121.396046666667","25.149195","6502300","八里區"
"248008","095-VK","2018/12/29 19:29:35","新北市五股區中興路一段201號","121.463395","25.07419","6501500","五股區"
"248020","225-UY","2018/12/29 19:29:34","新北市五股區凌雲路三段100-18號","121.426196666667","25.1220483333333","6501500","五股區"
"248012","247-BX","2018/12/29 19:29:40","新北市五股區成泰路二段97號","121.43795","25.0843083333333","6501500","五股區"
"248014","261-SL","2018/12/29 19:29:35","新北市五股區民義路一段174號","121.432913333333","25.08779","6501500","五股區"
"248004","677-BX","2018/12/29 19:29:38","新北市五股區五福路149號","121.432068333333","25.091465","6501500","五股區"
"248002","678-BX","2018/12/29 19:28:37","新北市五股區凌雲路一段158巷6號","121.447853333333","25.10298","6501500","五股區"
"248010","682-TV","2018/12/29 19:29:34","新北市五股區水碓一路23號","121.430671666667","25.07135","6501500","五股區"
"234023","9380-KE","2018/12/29 19:29:20","新北市永和區竹林路91巷18號","121.520413333333","25.0122883333333","6500400","永和區"
"234077","969-R7","2018/12/29 19:29:34","新北市永和區民族街43巷13號","121.519126666667","24.9984","6500400","永和區"
"234074","AAC-211","2018/12/29 19:29:39","新北市永和區竹林路26號","121.516923333333","25.0147933333333","6500400","永和區"
"234067","AAC-212","2018/12/29 19:29:30","新北市永和區保平路174巷1號","121.51043","25.0071483333333","6500400","永和區"
"234003","AAC-295","2018/12/29 19:29:22","新北市永和區福和路385號","121.514293333333","25.0076433333333","6500400","永和區"
"244023","483-VK","2018/12/29 19:29:22","新北市林口區文化三路一段617巷88號","121.370503333333","25.07829","6501700","林口區"
"243013","AAD-798","2018/12/29 19:29:37","新北市泰山區明志路三段145巷7號","121.425423333333","25.0399983333333","6501600","泰山區"
"243009","297-R6","2018/12/29 19:29:29","新北市泰山區半山雅10號","121.431486666667","25.06744","6501600","泰山區"
"243016","KEA-2801","2018/12/29 19:29:31","新北市泰山區明志路三段166號","121.42438","25.039405","6501600","泰山區"
"243015","421-VK","2018/12/29 19:29:26","新北市泰山區明志路二段136巷1-1號","121.427215","25.0511583333333","6501600","泰山區"
"243011","KEA-2215","2018/12/29 19:29:27","新北市泰山區貴子路82號","121.427381666667","25.0411583333333","6501600","泰山區"
"243010","KEA-2216","2018/12/29 19:29:19","新北市泰山區民生路17巷6號","121.429891666667","25.0522783333333","6501600","泰山區"
"243012","646-TV","2018/12/29 19:29:25","新北市泰山區明志路一段501巷19號","121.431368333333","25.05459","6501600","泰山區"
"243014","680-BX","2018/12/29 19:29:32","新北市泰山區中港西路456號","121.432943333333","25.0529033333333","6501600","泰山區"
"222003","436-BY","2018/12/29 19:29:25","新北市深坑區深南路51-1號","121.621288333333","25.0097366666667","6501800","深坑區"
"222002","659-BX","2018/12/29 19:29:41","新北市深坑區北深路一段177號","121.632521666667","25.0108633333333","6501800","深坑區"
"231041","002-UM","2018/12/29 19:29:25","新北市新店區中正路543-4號","121.53366","24.98743","6500600","新店區"
"231059","046-UY","2018/12/29 19:29:34","新北市新店區安和路三段7號","121.518068333333","24.9805633333333","6500600","新店區"
"231040","047-UY","2018/12/29 19:29:24","新北市新店區中華路1號","121.541076666667","24.9673166666667","6500600","新店區"
"231044","106-UY","2018/12/29 19:29:39","新北市新店區中興路三段134號","121.544785","24.9797766666667","6500600","新店區"
"231046","107-UY","2018/12/29 19:29:22","新北市新店區中央路210-1號","121.530121666667","24.97357","6500600","新店區"
"231052","108-UY","2018/12/29 19:29:36","新北市新店區新烏路二段315號","121.54959","24.9112466666667","6500600","新店區"
"231048","187-VK","2018/12/29 19:29:35","新北市新店區五峰路93號","121.546133333333","24.9674416666667","6500600","新店區"
"231054","188-VK","2018/12/29 19:29:21","新北市新店區文中路40號","121.539726666667","24.95654","6500600","新店區"
"231057","256-BX","2018/12/29 19:29:25","新北市新店區花園一路二段27號","121.551348333333","24.9325083333333","6500600","新店區"
"231065","260-TV","2018/12/29 19:29:18","新北市新店區安祥路109巷3弄31號","121.47871","24.9609683333333","6500600","新店區"
"231042","268-BY","2018/12/29 19:29:32","新北市新店區中興路一段68號","121.539441666667","24.95982","6500600","新店區"
"231051","278-BY","2018/12/29 19:29:36","新北市新店區中央五街59號","121.527536666667","24.9756333333333","6500600","新店區"
"231050","AAD-862","2018/12/29 19:29:19","新北市新店區北宜路二段82-1號","121.553505","24.9532683333333","6500600","新店區"
"231043","355-BY","2018/12/29 19:29:31","新北市新店區北新路二段133號","121.542815","24.97548","6500600","新店區"
"231058","3713-VJ","2018/12/29 19:29:41","新北市新店區北新路二段228巷11號","121.543398333333","24.9771883333333","6500600","新店區"
"231066","4716-K9","2018/12/29 19:29:35","新北市新店區安康路三段466-2號","121.484031666667","24.95084","6500600","新店區"
"231056","4715-K9","2018/12/29 19:29:36","新北市新店區柴埕路116號","121.504258333333","24.959675","6500600","新店區"
"231049","513-UM","2018/12/29 19:29:25","新北市新店區二十張路1巷2弄2-1號","121.540278333333","24.9821316666667","6500600","新店區"
"231061","619-UM","2018/12/29 19:29:37","新北市新店區安康路一段228號","121.523263333333","24.9636433333333","6500600","新店區"
"231063","641-BX","2018/12/29 19:29:34","新北市新店區達觀路14巷3號","121.50323","24.941705","6500600","新店區"
"231064","719-UM","2018/12/29 19:29:30","新北市新店區安忠路36號","121.514398333333","24.9613433333333","6500600","新店區"
"231062","720-UM","2018/12/29 19:29:34","新北市新店區莒光路99號","121.522195","24.9535833333333","6500600","新店區"
"231060","897-TW","2018/12/29 19:29:26","新北市新店區安康路二段1-5號","121.516933333333","24.9638283333333","6500600","新店區"
"231045","898-TW","2018/12/29 19:29:37","新北市新店區北宜路二段213號","121.553221666667","24.9533183333333","6500600","新店區"
"231055","AKT-0513","2018/12/29 19:29:33","新北市新店區中華路83巷67號","121.538248333333","24.9672333333333","6500600","新店區"
"241028","022-UY","2018/12/29 19:29:21","新北市三重區中寮街90號","121.493208333333","25.0580383333333","6500200","三重區"
"241008","059-VK","2018/12/29 19:29:32","新北市三重區永福街135巷30號","121.477558333333","25.07711","6500200","三重區"
"241022","060-VK","2018/12/29 19:29:30","新北市三重區三民街165巷15號","121.4841","25.06536","6500200","三重區"
"241031","061-VK","2018/12/29 19:29:29","新北市三重區集美街100號","121.488486666667","25.054155","6500200","三重區"
"241017","063-VK","2018/12/29 19:29:27","新北市三重區中正北路25巷28號","121.493846666667","25.063415","6500200","三重區"
"251014","742-BX","2018/12/29 19:29:21","新北市淡水區小中寮15-2號","121.484751666667","25.2298216666667","6501000","淡水區"
"241009","267-UM","2018/12/29 19:29:24","新北市三重區溪尾街242巷43號","121.486605","25.081605","6500200","三重區"
"241032","269-UM","2018/12/29 19:29:25","新北市三重區三陽路25號","121.485585","25.05882","6500200","三重區"
"241013","270-UM","2018/12/29 19:29:21","新北市三重區仁賢街12-1號","121.495728333333","25.074915","6500200","三重區"
"241025","271-UM","2018/12/29 19:29:40","新北市三重區頂崁街206巷38號","121.475896666667","25.0667616666667","6500200","三重區"
"241007","398-BY","2018/12/29 19:29:35","新北市三重區慈愛街149號","121.48947","25.0794433333333","6500200","三重區"
"241035","KEA-2210","2018/12/29 19:29:21","新北市三重區信義西街1巷3號","121.498103333333","25.0649133333333","6500200","三重區"
"241020","478-VK","2018/12/29 19:29:28","新北市三重區三和路四段20巷3號","121.490686666667","25.0740433333333","6500200","三重區"
"241030","480-VK","2018/12/29 19:29:36","新北市三重區成功路41巷9號","121.490253333333","25.0514666666667","6500200","三重區"
"241006","AAD-863","2018/12/29 19:29:30","新北市三重區車路頭街77號","121.484373333333","25.073995","6500200","三重區"
"241026","743-BX","2018/12/29 19:29:35","新北市三重區文化南路47巷9號","121.499788333333","25.0612933333333","6500200","三重區"
"241023","887-TS","2018/12/29 19:29:27","新北市三重區頂崁街99號","121.478033333333","25.063805","6500200","三重區"
"241029","942-UM","2018/12/29 19:29:23","新北市三重區大同南路161巷68號","121.49508","25.0551166666667","6500200","三重區"
"235066","003-UY","2018/12/29 19:29:36","新北市中和區景新街69號","121.504835","24.9987733333333","6500300","中和區"
"235064","005-UY","2018/12/29 19:29:31","新北市中和區南山路81巷55號","121.504118333333","24.9981016666667","6500300","中和區"
"235063","006-UY","2018/12/29 19:29:39","新北市中和區連城路203巷10弄21號","121.495065","24.9967016666667","6500300","中和區"
"235056","096-UM","2018/12/29 19:29:24","新北市中和區民富街60-2號","121.476586666667","25.0073666666667","6500300","中和區"
"235039","097-UM","2018/12/29 19:29:37","新北市中和區秀峰街105號","121.520683333333","24.99031","6500300","中和區"
"235040","150-BY","2018/12/29 19:29:39","新北市中和區保健路46巷26弄22號","121.50801","24.995725","6500300","中和區"
"235058","151-BY","2018/12/29 19:29:28","新北市中和區連城路477巷6弄3號","121.482993333333","24.9950683333333","6500300","中和區"
"235055","183-VK","2018/12/29 19:29:37","新北市中和區莒光路120巷13弄2號","121.471618333333","25.0014266666667","6500300","中和區"
"235038","185-VK","2018/12/29 19:29:21","新北市中和區自立路111號","121.522","24.9945816666667","6500300","中和區"
"235049","186-VK","2018/12/29 19:29:33","新北市中和區景新街285巷24號","121.51083","24.993705","6500300","中和區"
"235067","255-BX","2018/12/29 19:29:33","新北市中和區員山路148巷44弄7號","121.482578333333","24.9965816666667","6500300","中和區"
"235044","293-VK","2018/12/29 19:29:20","新北市中和區捷運路102號","121.50575","24.991445","6500300","中和區"
"235042","KEA-2878","2018/12/29 19:29:37","新北市中和區中和路350巷8弄16號","121.51022","25.0001716666667","6500300","中和區"
"235050","4979-A6","2018/12/29 19:29:36","新北市中和區中正路446號","121.490971666667","24.994105","6500300","中和區"
"235070","558-UM","2018/12/29 19:29:41","新北市中和區景平路626巷1號","121.500453333333","24.9977283333333","6500300","中和區"
"235045","565-BX","2018/12/29 19:29:39","新北市中和區景新街383巷79號","121.51414","24.9909466666667","6500300","中和區"
"235054","640-BX","2018/12/29 19:29:24","新北市中和區國光街87號","121.470531666667","25.0002116666667","6500300","中和區"
"235060","647-TV","2018/12/29 19:29:35","新北市中和區員山路266巷31號","121.48245","25.0018983333333","6500300","中和區"
"235047","732-UM","2018/12/29 19:29:36","新北市中和區景平路259巷16號","121.50786","24.9927166666667","6500300","中和區"
"235046","733-UM","2018/12/29 19:29:40","新北市中和區興南路一段105巷20弄35號","121.51058","24.9848533333333","6500300","中和區"
"235071","783-BX","2018/12/29 19:29:22","新北市中和區連城路469巷21弄12號","121.48403","24.9950783333333","6500300","中和區"
"235057","801-TS","2018/12/29 19:29:36","新北市中和區中山路三段37巷39號","121.479803333333","25.0047716666667","6500300","中和區"
"235041","802-TS","2018/12/29 19:29:22","新北市中和區中安街80號","121.512228333333","25.0018416666667","6500300","中和區"
"235052","805-TS","2018/12/29 19:29:38","新北市中和區華新街143巷67弄2號","121.507001666667","24.9787933333333","6500300","中和區"
"235048","896-TW","2018/12/29 19:29:26","新北市中和區忠孝街113巷1號","121.51244","24.98733","6500300","中和區"
"235053","900-TW","2018/12/29 19:29:23","新北市中和區華順街6號","121.46757","24.9987633333333","6500300","中和區"
"235065","911-UM","2018/12/29 19:29:30","新北市中和區中山路二段2巷7弄12號","121.503831666667","25.0062316666667","6500300","中和區"
"235051","157-BY","2018/12/29 19:29:28","新北市中和區景新街136號","121.505335","24.9979083333333","6500300","中和區"
"235037","AAC-213","2018/12/29 19:29:27","新北市中和區秀朗路三段10巷14弄21號","121.524608333333","24.996415","6500300","中和區"
"235059","AAC-215","2018/12/29 19:29:21","新北市中和區圓通路252巷5弄56號","121.492305","24.9920933333333","6500300","中和區"
"220086","073-UY","2018/12/29 19:29:41","新北市板橋區中正路236巷81號","121.459241666667","25.019645","6500100","板橋區"
"220106","075-UY","2018/12/29 19:29:29","新北市板橋區雙十路三段19號","121.470735","25.0312683333333","6500100","板橋區"
"220069","AAD-861","2018/12/29 19:29:34","新北市板橋區南雅南路二段1-1號","121.4547","25.00366","6500100","板橋區"
"247004","002-UY","2018/12/29 19:29:22","新北市蘆洲區長安街201-1號","121.460143333333","25.0820333333333","6501400","蘆洲區"
"226004","312-R5","2018/12/29 19:29:31","新北市平溪區十分里十分街122號","121.777091666667","25.0431783333333","6502400","平溪區"
"235072","251-BX","2018/12/29 19:29:27","新北市中和區連城路265巷10弄1號","121.491668333333","24.9952683333333","6500300","中和區"
"228001","212-TW","2018/12/29 19:29:33","新北市貢寮區真理里大澳街60號","121.925163333333","25.05671","6502600","貢寮區"
"228002","585-TW","2018/12/29 19:29:35","新北市貢寮區龍門里龍門街62-5號","121.931833333333","25.027135","6502600","貢寮區"
"224010","AGQ-8101","2018/12/29 19:29:34","新北市瑞芳區基山街51號","121.84535","25.1087416666667","6501200","瑞芳區"
"224011","420-VK","2018/12/29 19:29:34","新北市瑞芳區崙頂路3-1號","121.84703","25.1046733333333","6501200","瑞芳區"
"227002","642-TC","2018/12/29 19:29:36","新北市雙溪區雙溪里光復街10號","121.864983333333","25.0352733333333","6502500","雙溪區"
"227010","400-TW","2018/12/29 19:29:36","新北市雙溪區新基里新基北街43號","121.868176666667","25.039685","6502500","雙溪區"
"253006","032-BX","2018/12/29 19:29:21","新北市石門區海園路37號","121.557515","25.2911233333333","6502200","石門區"
"253005","295-VK","2018/12/29 19:29:41","新北市石門區小坑9號","121.594146666667","25.2887633333333","6502200","石門區"
"222001","KEA-2212","2018/12/29 19:29:39","新北市深坑區深坑街10號","121.615926666667","25.0027816666667","6501800","深坑區"
"208002","KEA-2872","2018/12/29 19:29:22","新北市金山區仁愛路87巷1號","121.634631666667","25.2215283333333","6502700","金山區"
"208003","665-BX","2018/12/29 19:29:30","新北市金山區中山路263巷14號","121.6364","25.22156","6502700","金山區"
"208001","761-BX","2018/12/29 19:29:35","新北市金山區金包里街89號","121.63796","25.2221033333333","6502700","金山區"
"251009","008-UM","2018/12/29 19:29:41","新北市淡水區大忠街5巷8號","121.443346666667","25.17653","6501000","淡水區"
"251013","KEA-2871","2018/12/29 19:29:37","新北市淡水區大牛稠7號","121.469845","25.2189","6501000","淡水區"
"251016","179-VK","2018/12/29 19:29:34","新北市淡水區下圭柔山119-51號","121.450753333333","25.208485","6501000","淡水區"
"251012","180-VK","2018/12/29 19:29:25","新北市淡水區崁頂70-2號","121.437351666667","25.2029566666667","6501000","淡水區"
"251008","181-VK","2018/12/29 19:29:27","新北市淡水區中正路一段85號","121.422221666667","25.1789883333333","6501000","淡水區"
"251015","182-VK","2018/12/29 19:29:27","新北市淡水區北新路三段132號","121.488071666667","25.1897383333333","6501000","淡水區"
"251010","413-VK","2018/12/29 19:29:30","新北市淡水區中正路二段152巷28號","121.424321666667","25.1879866666667","6501000","淡水區"
"251007","442-VK","2018/12/29 19:29:25","新北市淡水區淡金路16巷73號","121.459488333333","25.161235","6501000","淡水區"
"251005","443-VK","2018/12/29 19:17:35","新北市淡水區原德路11號","121.442176666667","25.171275","6501000","淡水區"
"251001","559-UM","2018/12/29 19:29:24","新北市淡水區民權路141號","121.460136666667","25.136425","6501000","淡水區"
"251006","561-UM","2018/12/29 19:29:28","新北市淡水區大義街52號","121.441678333333","25.17834","6501000","淡水區"
"251011","650-BX","2018/12/29 19:29:21","新北市淡水區中正東路二段143巷2弄1號","121.460648333333","25.14738","6501000","淡水區"
"207003","550-UM","2018/12/29 19:29:31","新北市萬里區大鵬里萬里加投195號","121.64419","25.2148133333333","6502800","萬里區"
"207004","225-TW","2018/12/29 19:29:35","新北市萬里區萬里里瑪鋉路111號","121.688695","25.1773833333333","6502800","萬里區"
"252002","178-VK","2018/12/29 19:29:19","新北市三芝區淡金路二段21號","121.502725","25.2595066666667","6502100","三芝區"
"237004","KEA-2597","2018/12/29 19:29:19","新北市三峽區有木206號","121.439136666667","24.85146","6500900","三峽區"
"237009","210-TH","2018/12/29 19:29:33","新北市三峽區民權街67號","121.369506666667","24.9331266666667","6500900","三峽區"
"237013","252-BX","2018/12/29 19:29:35","新北市三峽區介壽路一段309號","121.381291666667","24.93032","6500900","三峽區"
"237012","275-BY","2018/12/29 19:29:35","新北市三峽區民生街3號","121.374626666667","24.9354333333333","6500900","三峽區"
"237008","302-VK","2018/12/29 19:29:29","新北市三峽區中正路一段111號","121.374128333333","24.9294183333333","6500900","三峽區"
"237014","433-BY","2018/12/29 19:29:34","新北市三峽區大同路202-2號","121.368023333333","24.9272783333333","6500900","三峽區"
"237011","KEA-2596","2018/12/29 19:29:26","新北市三峽區介壽路一段207號","121.378676666667","24.9304616666667","6500900","三峽區"
"237016","649-BX","2018/12/29 19:29:25","新北市三峽區成福路3號","121.416636666667","24.928105","6500900","三峽區"
"237005","AKY-6261","2018/12/29 19:29:32","新北市三峽區復興路367巷5號","121.363688333333","24.937935","6500900","三峽區"
"236070","105-UM","2018/12/29 19:29:21","新北市土城區裕民路185巷36弄8號","121.454483333333","24.9845083333333","6501300","土城區"
"236042","KED-0685","2018/12/29 19:29:20","新北市土城區學府路一段239號","121.45044","24.98338","6501300","土城區"
"236079","166-UM","2018/12/29 19:29:34","新北市土城區中州路12巷22號","121.415241666667","24.957545","6501300","土城區"
"236030","253-BX","2018/12/29 19:29:33","新北市土城區中央路一段306號","121.443243333333","24.98172","6501300","土城區"
"236026","269-VK","2018/12/29 19:29:28","新北市土城區中央路二段61巷26號","121.443253333333","24.978655","6501300","土城區"
"252001","KED-0821","2018/12/29 19:29:37","新北市三芝區長勤街50-1號","121.500221666667","25.2555083333333","6502100","三芝區"
"236021","401-BY","2018/12/29 19:29:39","新北市土城區峰廷街3號","121.469053333333","24.9873033333333","6501300","土城區"
"236059","912-UM","2018/12/29 19:29:39","新北市土城區中央路二段63號","121.442658333333","24.9789483333333","6501300","土城區"
"236049","913-UM","2018/12/29 19:29:33","新北市土城區清水路196號","121.460366666667","24.98187","6501300","土城區"
"236055","AAC-216","2018/12/29 19:29:36","新北市土城區學府路一段276號","121.450063333333","24.9832033333333","6501300","土城區"
"242013","173-VK","2018/12/29 19:29:22","新北市新莊區三和路12-21號","121.442056666667","25.038725","6500500","新莊區"
"238015","755-BX","2018/12/29 19:29:21","新北市樹林區中興街26號","121.420925","24.9906716666667","6500700","樹林區"
"238023","601-UM","2018/12/29 19:29:39","新北市樹林區三福街166號","121.40466","25.0159466666667","6500700","樹林區"
"238019","599-UM","2018/12/29 19:29:37","新北市樹林區東榮街86號","121.416033333333","24.9825866666667","6500700","樹林區"
"238018","571-TV","2018/12/29 19:29:36","新北市樹林區中華路247號","121.418453333333","24.9807466666667","6500700","樹林區"
"238024","5061-A6","2018/12/29 19:29:27","新北市樹林區中山路三段155巷5號","121.39578","24.9725516666667","6500700","樹林區"
"238022","KEA-2213","2018/12/29 19:29:28","新北市樹林區太平路163號","121.418668333333","24.9792783333333","6500700","樹林區"
"238021","KEA-2539","2018/12/29 19:29:37","新北市樹林區佳園路三段548號","121.380741666667","24.9441233333333","6500700","樹林區"
"238025","303-VK","2018/12/29 19:29:21","新北市樹林區中山路一段69號","121.423713333333","24.9917983333333","6500700","樹林區"
"238017","283-BY","2018/12/29 19:29:38","新北市樹林區光興街18號","121.412358333333","25.0029416666667","6500700","樹林區"
"238014","282-BY","2018/12/29 19:29:25","新北市樹林區保安二街64巷5弄1號","121.424428333333","24.9959666666667","6500700","樹林區"
"238020","268-VK","2018/12/29 19:29:31","新北市樹林區俊英街83巷1-1號","121.425795","25.0080116666667","6500700","樹林區"
"238026","172-UY","2018/12/29 19:29:27","新北市樹林區佳園路三段1號","121.38847","24.955625","6500700","樹林區"
"239006","891-R6","2018/12/29 19:29:25","新北市鶯歌區建國路512巷54號","121.339098333333","24.9514383333333","6500800","鶯歌區"
"239001","417-VK","2018/12/29 19:29:26","新北市鶯歌區文化路206號","121.35273","24.94964","6500800","鶯歌區"
"239002","359-BY","2018/12/29 19:29:38","新北市鶯歌區大湖路94號","121.342526666667","24.963095","6500800","鶯歌區"
"221008","489-VK","2018/12/29 19:29:35","新北市汐止區康寧街145號","121.621991666667","25.066615","6501100","汐止區"
"221036","130-UY","2018/12/29 19:29:25","新北市汐止區康寧街901號","121.65111","25.0751216666667","6501100","汐止區"
"221015","131-UY","2018/12/29 19:29:32","新北市汐止區康寧街901號","121.651575","25.07497","6501100","汐止區"
"221010","269-BY","2018/12/29 19:29:24","新北市汐止區連峰街5巷2號","121.646516666667","25.0769016666667","6501100","汐止區"
"221012","278-VK","2018/12/29 19:29:30","新北市汐止區大同路三段182號","121.674288333333","25.074665","6501100","汐止區"
"221023","279-VK","2018/12/29 19:29:29","新北市汐止區康寧街753巷2弄6號","121.639183333333","25.0738133333333","6501100","汐止區"
"221027","281-BY","2018/12/29 19:29:38","新北市汐止區忠孝東路9號","121.658333333333","25.0659116666667","6501100","汐止區"
"221029","298-VK","2018/12/29 19:29:24","新北市汐止區康寧街901號","121.651691666667","25.0748883333333","6501100","汐止區"
"221021","299-VK","2018/12/29 19:29:26","新北市汐止區康寧街901號","121.651505","25.0750116666667","6501100","汐止區"
"221031","353-TW","2018/12/29 19:29:31","新北市汐止區康寧街901號","121.650835","25.0752466666667","6501100","汐止區"
"221025","623-UM","2018/12/29 19:29:40","新北市汐止區秀峰路57號","121.6597","25.06506","6501100","汐止區"
"221038","646-BX","2018/12/29 19:29:29","新北市汐止區大同路二段340號","121.656575","25.0670033333333","6501100","汐止區"
"221033","647-BX","2018/12/29 19:29:29","新北市汐止區南勢街1巷1號","121.627065","25.0374366666667","6501100","汐止區"
"221002","707-TV","2018/12/29 19:29:37","新北市汐止區大同路一段333號","121.638371666667","25.0592733333333","6501100","汐止區"
"220079","145-BY","2018/12/29 19:29:37","新北市板橋區民權路202巷13弄29號","121.458551666667","25.0162233333333","6500100","板橋區"
"220080","200-UY","2018/12/29 19:29:19","新北市板橋區大觀路二段3巷34號","121.448288333333","25.0035966666667","6500100","板橋區"
"220082","610-BX","2018/12/29 19:29:29","新北市板橋區金門街106號","121.433031666667","24.99208","6500100","板橋區"
"220091","267-BY","2018/12/29 19:29:29","新北市板橋區文聖街135巷16號","121.479088333333","25.0288716666667","6500100","板橋區"
"220056","276-BY","2018/12/29 19:29:19","新北市板橋區五權街34-1號","121.464701666667","24.9915566666667","6500100","板橋區"
"220072","277-BY","2018/12/29 19:29:33","新北市板橋區金門街215巷2弄52號","121.433025","24.98845","6500100","板橋區"
"220101","280-UM","2018/12/29 19:29:35","新北市板橋區莒光路196巷27號","121.472966666667","25.0224616666667","6500100","板橋區"
"220071","283-VK","2018/12/29 19:29:41","新北市板橋區忠孝路24巷20號","121.460155","25.0012283333333","6500100","板橋區"
"220094","285-UM","2018/12/29 19:29:26","新北市板橋區銘傳街84號","121.469341666667","25.03144","6500100","板橋區"
"220053","285-VK","2018/12/29 19:29:37","新北市板橋區富山街53巷1弄52號","121.477623333333","25.019655","6500100","板橋區"
"220083","286-VK","2018/12/29 19:29:41","新北市板橋區龍興街71巷44號","121.441951666667","25.002655","6500100","板橋區"
"220081","287-VK","2018/12/29 19:29:20","新北市板橋區大觀路一段28巷1弄102號","121.45199","25.0063716666667","6500100","板橋區"
"220090","288-VK","2018/12/29 19:29:29","新北市板橋區長江路一段48巷1弄1號","121.458996666667","25.0288433333333","6500100","板橋區"
"220061","293-UM","2018/12/29 19:29:23","新北市板橋區中山路一段272巷18-1號","121.469288333333","25.0136533333333","6500100","板橋區"
"220084","296-UM","2018/12/29 19:29:35","新北市板橋區滿平街84巷120弄21號","121.426446666667","24.98563","6500100","板橋區"
"220075","303-R5","2018/12/29 19:29:36","新北市板橋區中正路253巷7號","121.455316666667","25.0181766666667","6500100","板橋區"
"220062","305-R5","2018/12/29 19:29:35","新北市板橋區三民路二段153巷4弄2號","121.47966","25.01466","6500100","板橋區"
"220092","307-R5","2018/12/29 19:29:39","新北市板橋區自由路51巷22號","121.464556666667","25.0233683333333","6500100","板橋區"
"220098","317-R6","2018/12/29 19:29:42","新北市板橋區四維路249號","121.463705","25.027685","6500100","板橋區"
"220089","487-VK","2018/12/29 19:29:26","新北市板橋區龍泉街81號","121.456675","25.025145","6500100","板橋區"
"220088","491-VK","2018/12/29 19:29:26","新北市板橋區文化路二段568號","121.4764","25.0344316666667","6500100","板橋區"
"220104","560-BX","2018/12/29 19:29:32","新北市板橋區中正路399巷34號","121.452918333333","25.0228966666667","6500100","板橋區"
"220103","561-BX","2018/12/29 19:29:37","新北市板橋區陽明街29巷1弄22號","121.464226666667","25.0220333333333","6500100","板橋區"
"220063","609-BX","2018/12/29 19:29:22","新北市板橋區林森街3巷1弄6號","121.482655","25.023605","6500100","板橋區"
"220055","630-UY","2018/12/29 19:29:36","新北市板橋區重慶路278-1號","121.463246666667","24.9996733333333","6500100","板橋區"
"220057","686-BX","2018/12/29 19:29:37","新北市板橋區和平路70號","121.461256666667","24.9945616666667","6500100","板橋區"
"220077","687-BX","2018/12/29 19:29:37","新北市板橋區僑中二街10巷1號","121.446935","25.0108633333333","6500100","板橋區"
"220093","689-BX","2018/12/29 19:29:30","新北市板橋區長江路一段143號","121.460743333333","25.0303783333333","6500100","板橋區"
"220054","741-BX","2018/12/29 19:29:27","新北市板橋區四川路一段281號","121.459471666667","25.0019733333333","6500100","板橋區"
"220102","KEA-2699","2018/12/29 19:29:35","新北市板橋區松柏街25-4號","121.474956666667","25.0300666666667","6500100","板橋區"
"220067","829-TW","2018/12/29 19:29:39","新北市板橋區長安街138巷1弄2號","121.472853333333","25.009595","6500100","板橋區"
"220068","830-TW","2018/12/29 19:29:36","新北市板橋區萬安街31號","121.484295","25.0232083333333","6500100","板橋區"
"220074","895-R6","2018/12/29 19:29:41","新北市板橋區文化路一段9號","121.457846666667","25.00986","6500100","板橋區"
"220073","985-R7","2018/12/29 19:29:34","新北市板橋區瑞安街58號","121.455433333333","25.0216433333333","6500100","板橋區"
"220097","AAC-210","2018/12/29 19:20:22","新北市板橋區新海路137號","121.460083333333","25.0232016666667","6500100","板橋區"
"220064","AAC-253","2018/12/29 19:29:28","新北市板橋區中山路一段111號","121.461921666667","25.0102183333333","6500100","板橋區"
"235068","KEA-2873","2018/12/29 19:29:23","新北市中和區景平路493巷14號","121.49915","24.9970533333333","6500300","中和區"
"235061","KEA-2875","2018/12/29 19:29:41","新北市中和區民利街44號","121.47949","24.9988633333333","6500300","中和區"
