"lineid","car","time","location","longitude","latitude","cityid","cityname"
"234046","148-BY","2018/12/29 19:49:33","新北市永和區永利路139號","121.524101666667","25.00359","6500400","永和區"
"234081","298-R6","2018/12/29 19:49:24","新北市永和區國中路2號","121.524355","25.00423","6500400","永和區"
"234038","336-UY","2018/12/29 19:49:37","新北市永和區成功路二段102巷2號","121.52636","24.9982366666667","6500400","永和區"
"234064","337-UY","2018/12/29 19:49:36","新北市永和區中正路362號","121.51769","25.00081","6500400","永和區"
"234086","338-UY","2018/12/29 19:49:40","新北市永和區永利路6號","121.517478333333","25.0059966666667","6500400","永和區"
"234070","552-UM","2018/12/29 19:49:25","新北市永和區竹林路239號","121.520885","25.008155","6500400","永和區"
"234017","745-BX","2018/12/29 19:49:33","新北市永和區永和路二段297號","121.51604","25.0160333333333","6500400","永和區"
"234030","746-BX","2018/12/29 19:49:38","新北市永和區民生路67巷42號","121.52487","24.997365","6500400","永和區"
"234054","KEA-2590","2018/12/29 19:49:26","新北市永和區竹林路75巷25弄3號","121.520205","25.01414","6500400","永和區"
"234007","839-RS","2018/12/29 19:49:27","新北市中和區南工路2巷2號","121.505346666667","25.0001216666667","6500400","永和區"
"234013","KEA-2591","2018/12/29 19:49:33","新北市永和區仁愛路186巷2號","121.509958333333","25.0126666666667","6500400","永和區"
"234061","AAD-866","2018/12/29 19:49:34","新北市永和區中正路106號","121.51446","24.9958933333333","6500400","永和區"
"234042","862-TW","2018/12/29 19:49:31","新北市永和區中和路389巷11弄1號","121.508066666667","25.00097","6500400","永和區"
"234050","863-TW","2018/12/29 19:49:37","新北市永和區文化路210號","121.510113333333","25.0166216666667","6500400","永和區"
"234026","9371-KE","2018/12/29 19:49:26","新北市永和區雙和街52巷1-1號","121.509103333333","25.003185","6500400","永和區"
"234011","9373-KE","2018/12/29 19:49:33","新北市永和區仁愛路352巷92弄16號","121.501353333333","25.0082466666667","6500400","永和區"
"249001","173-UM","2018/12/29 19:49:23","新北市八里區中華路二段252號","121.405371666667","25.1497016666667","6502300","八里區"
"249004","303-UY","2018/12/29 19:49:32","新北市八里區觀海大道271號","121.414463333333","25.1615016666667","6502300","八里區"
"249002","305-UY","2018/12/29 19:49:36","新北市八里區頂寮五街17號","121.451463333333","25.1260333333333","6502300","八里區"
"249003","593-UM","2018/12/29 19:49:23","新北市八里區中華路二段560巷17號","121.398445","25.1451416666667","6502300","八里區"
"248016","026-BX","2018/12/29 19:49:30","新北市五股區成泰路四段22巷27號","121.455235","25.10798","6501500","五股區"
"248008","095-VK","2018/12/29 19:49:35","新北市五股區四維路140號","121.468108333333","25.0753433333333","6501500","五股區"
"248020","225-UY","2018/12/29 19:49:13","新北市五股區中直路46-1號","121.418756666667","25.1178416666667","6501500","五股區"
"248012","247-BX","2018/12/29 19:49:20","新北市五股區蓬萊路24號","121.433895","25.0799166666667","6501500","五股區"
"248014","261-SL","2018/12/29 19:49:35","新北市五股區五福路32巷26號","121.435035","25.0896783333333","6501500","五股區"
"248004","677-BX","2018/12/29 19:49:38","新北市五股區成泰路一段237-9號","121.436565","25.080215","6501500","五股區"
"248002","678-BX","2018/12/29 19:48:17","新北市五股區成泰路三段544-18號","121.45262","25.103155","6501500","五股區"
"248010","682-TV","2018/12/29 19:49:34","新北市五股區登林路貿商巷1弄1號","121.430503333333","25.0696766666667","6501500","五股區"
"234077","969-R7","2018/12/29 19:49:34","新北市永和區中正路242巷2弄1號","121.516875","24.9979933333333","6500400","永和區"
"234074","AAC-211","2018/12/29 19:49:39","新北市永和區竹林路213巷11號","121.52154","25.0089233333333","6500400","永和區"
"234067","AAC-212","2018/12/29 19:49:36","新北市永和區永平路157巷2弄20號","121.510368333333","25.00869","6500400","永和區"
"234003","AAC-295","2018/12/29 19:49:22","新北市永和區福和路316號","121.516098333333","25.0073516666667","6500400","永和區"
"244023","483-VK","2018/12/29 19:49:42","新北市林口區文化北路二段70號","121.370536666667","25.08246","6501700","林口區"
"243013","AAD-798","2018/12/29 19:49:17","新北市泰山區應化街7號","121.423905","25.0437033333333","6501600","泰山區"
"243009","297-R6","2018/12/29 19:49:29","新北市泰山區美寧街60號","121.430978333333","25.0646683333333","6501600","泰山區"
"243016","KEA-2801","2018/12/29 19:49:31","新北市泰山區明志路三段498號","121.420975","25.03099","6501600","泰山區"
"243015","421-VK","2018/12/29 19:49:26","新北市泰山區明志路二段214巷9號","121.426728333333","25.0488566666667","6501600","泰山區"
"243011","KEA-2215","2018/12/29 19:49:27","新北市泰山區明志路三段204巷1號","121.42151","25.0383116666667","6501600","泰山區"
"243010","KEA-2216","2018/12/29 19:49:39","新北市泰山區民生路33號","121.43063","25.0521566666667","6501600","泰山區"
"243012","646-TV","2018/12/29 19:49:38","新北市泰山區福興一街91號","121.43185","25.0577483333333","6501600","泰山區"
"243014","680-BX","2018/12/29 19:49:32","新北市泰山區泰林路二段33-8號","121.435163333333","25.0564466666667","6501600","泰山區"
"222003","436-BY","2018/12/29 19:49:25","新北市深坑區深南路51-1號","121.621315","25.0097466666667","6501800","深坑區"
"222002","659-BX","2018/12/29 19:49:41","新北市深坑區北深路一段355-1號","121.622901666667","25.005175","6501800","深坑區"
"231041","002-UM","2018/12/29 19:49:25","新北市新店區中央路226號","121.529628333333","24.9727416666667","6500600","新店區"
"231059","046-UY","2018/12/29 19:49:34","新北市新店區安和路二段175號","121.518575","24.974645","6500600","新店區"
"231040","047-UY","2018/12/29 19:49:24","新北市新店區中正路75巷71號","121.543143333333","24.9688233333333","6500600","新店區"
"231044","106-UY","2018/12/29 19:49:39","新北市新店區復興路121號","121.53415","24.9879383333333","6500600","新店區"
"231046","107-UY","2018/12/29 19:49:22","新北市新店區三民路159巷19弄46號","121.532165","24.9732333333333","6500600","新店區"
"231052","108-UY","2018/12/29 19:49:36","新北市新店區新烏路三段191號","121.55035","24.9009516666667","6500600","新店區"
"231048","187-VK","2018/12/29 19:49:35","新北市新店區五峰路61巷6號","121.548063333333","24.96979","6500600","新店區"
"231054","188-VK","2018/12/29 19:49:21","新北市新店區光明街136號","121.539406666667","24.96128","6500600","新店區"
"221035","KEA-2785","2018/12/29 19:49:21","新北市汐止區長江街13巷6弄1號","121.65475","25.0716616666667","6501100","汐止區"
"231057","256-BX","2018/12/29 19:49:36","新北市新店區花園二路三段19號","121.556501666667","24.93156","6500600","新店區"
"231065","260-TV","2018/12/29 19:49:39","新北市新店區安祥路109巷90弄74號","121.4761","24.95859","6500600","新店區"
"231042","268-BY","2018/12/29 19:49:32","新北市新店區中興路一段268-2號","121.545138333333","24.9678766666667","6500600","新店區"
"231051","278-BY","2018/12/29 19:49:36","新北市新店區中央三街27號","121.528531666667","24.97404","6500600","新店區"
"231050","AAD-862","2018/12/29 19:49:39","新北市新店區北宜路二段579巷2號","121.565435","24.9539133333333","6500600","新店區"
"231043","355-BY","2018/12/29 19:49:31","新北市新店區中正路282-11號","121.538518333333","24.9739433333333","6500600","新店區"
"231058","3713-VJ","2018/12/29 19:49:21","新北市新店區安和路三段1號","121.517583333333","24.9798616666667","6500600","新店區"
"231066","4716-K9","2018/12/29 19:49:35","新北市新店區安康路三段165巷2-1號","121.489578333333","24.9516566666667","6500600","新店區"
"231056","4715-K9","2018/12/29 19:49:36","新北市新店區民權路78號","121.537963333333","24.98327","6500600","新店區"
"231067","4772-VM","2018/12/29 19:49:21","新北市新店區精忠路10-1號","121.532545","24.9591016666667","6500600","新店區"
"231049","513-UM","2018/12/29 19:49:25","新北市新店區民權路127巷1-1號","121.535275","24.9820766666667","6500600","新店區"
"231061","619-UM","2018/12/29 19:49:37","新北市新店區安民街172號","121.516805","24.9707516666667","6500600","新店區"
"231063","641-BX","2018/12/29 19:49:34","新北市新店區車子路11號","121.50301","24.9519816666667","6500600","新店區"
"231068","718-UY","2018/12/29 19:49:34","新北市新店區安一路一段1-1號","121.519121666667","24.960975","6500600","新店區"
"231064","719-UM","2018/12/29 19:48:50","新北市新店區安和路二段113巷3弄5號","121.517981666667","24.9699666666667","6500600","新店區"
"231062","720-UM","2018/12/29 19:49:34","新北市新店區永業路49巷2號","121.53211","24.9549633333333","6500600","新店區"
"231060","897-TW","2018/12/29 19:49:26","新北市新店區安康路二段161號","121.510235","24.9593016666667","6500600","新店區"
"231045","898-TW","2018/12/29 19:49:37","新北市新店區北宜路二段382號","121.564418333333","24.9530383333333","6500600","新店區"
"231055","AKT-0513","2018/12/29 19:49:33","新北市新店區中華路83巷67號","121.53836","24.9673783333333","6500600","新店區"
"241011","013-R5","2018/12/29 19:49:32","新北市三重區介壽路39巷6號","121.498911666667","25.0700833333333","6500200","三重區"
"241028","022-UY","2018/12/29 19:49:41","新北市三重區中正南路107號","121.494133333333","25.057785","6500200","三重區"
"241008","059-VK","2018/12/29 19:49:32","新北市三重區永福街96號","121.47889","25.0759566666667","6500200","三重區"
"241022","060-VK","2018/12/29 19:49:30","新北市三重區過圳街19號","121.488671666667","25.0605833333333","6500200","三重區"
"241031","061-VK","2018/12/29 19:49:29","新北市三重區重新路四段248號","121.486063333333","25.0534033333333","6500200","三重區"
"241015","062-VK","2018/12/29 19:49:26","新北市三重區重新路一段1號","121.503798333333","25.0642933333333","6500200","三重區"
"241017","063-VK","2018/12/29 19:49:27","新北市三重區重陽路三段27巷1號","121.489645","25.066515","6500200","三重區"
"241024","065-VK","2018/12/29 19:49:40","新北市三重區三民街345號","121.476591666667","25.06948","6500200","三重區"
"241003","091-VK","2018/12/29 19:49:36","新北市三重區五華街93巷1號","121.49205","25.0835633333333","6500200","三重區"
"251014","742-BX","2018/12/29 19:49:21","新北市淡水區番社前1-4號","121.468755","25.2367633333333","6501000","淡水區"
"241016","266-UM","2018/12/29 19:49:34","新北市三重區正義北路28巷38號","121.49646","25.0629883333333","6500200","三重區"
"241009","267-UM","2018/12/29 19:49:24","新北市三重區三和路四段398號","121.481428333333","25.0791983333333","6500200","三重區"
"241018","268-UM","2018/12/29 19:49:31","新北市三重區雙園街57巷32號","121.494518333333","25.0684233333333","6500200","三重區"
"241032","269-UM","2018/12/29 19:49:25","新北市三重區重陽路一段68號","121.486438333333","25.0587783333333","6500200","三重區"
"241013","270-UM","2018/12/29 19:49:41","新北市三重區三和路三段99號","121.493973333333","25.07242","6500200","三重區"
"241025","271-UM","2018/12/29 19:49:40","新北市三重區忠孝路三段52號","121.480695","25.06564","6500200","三重區"
"241007","398-BY","2018/12/29 19:49:35","新北市三重區三和路四段135巷8號","121.484948333333","25.0781466666667","6500200","三重區"
"241035","KEA-2210","2018/12/29 19:49:21","新北市三重區文化北路10號","121.499328333333","25.063615","6500200","三重區"
"241004","475-VK","2018/12/29 19:49:36","新北市三重區五華街74號","121.49337","25.0820366666667","6500200","三重區"
"241020","478-VK","2018/12/29 19:49:28","新北市三重區三和路四段20巷26號","121.490036666667","25.0732016666667","6500200","三重區"
"241030","480-VK","2018/12/29 19:49:36","新北市三重區環河南路254巷22號","121.490188333333","25.0510066666667","6500200","三重區"
"241014","543-UM","2018/12/29 19:49:29","新北市三重區長元街98巷18弄31號","121.501711666667","25.0674166666667","6500200","三重區"
"241001","547-UM","2018/12/29 19:49:20","新北市三重區仁愛街327巷23號","121.492945","25.0798233333333","6500200","三重區"
"241019","KEA-2593","2018/12/29 19:49:24","新北市三重區自強路二段67巷17號","121.489403333333","25.0702233333333","6500200","三重區"
"241006","AAD-863","2018/12/29 19:49:30","新北市三重區力行路二段76巷25號","121.480706666667","25.073625","6500200","三重區"
"241026","743-BX","2018/12/29 19:49:35","新北市三重區文化南路42號","121.500291666667","25.060215","6500200","三重區"
"241023","887-TS","2018/12/29 19:49:27","新北市三重區頂崁街172號","121.477551666667","25.065965","6500200","三重區"
"241012","941-UM","2018/12/29 19:49:29","新北市三重區仁興街50號","121.498971666667","25.0757816666667","6500200","三重區"
"241029","942-UM","2018/12/29 19:49:23","新北市三重區光明路31-1號","121.491268333333","25.0583733333333","6500200","三重區"
"235066","003-UY","2018/12/29 19:49:36","新北市中和區南工路60號","121.50624","25.00182","6500300","中和區"
"235056","096-UM","2018/12/29 19:49:24","新北市中和區中山路三段114巷11號","121.475703333333","25.0075316666667","6500300","中和區"
"235039","097-UM","2018/12/29 19:49:37","新北市中和區大勇街27巷25號","121.516355","24.9938016666667","6500300","中和區"
"235040","150-BY","2018/12/29 19:49:39","新北市中和區安平路59號","121.50962","24.9949283333333","6500300","中和區"
"235058","151-BY","2018/12/29 19:49:27","新北市中和區員山路173號","121.481193333333","24.9970066666667","6500300","中和區"
"235055","183-VK","2018/12/29 19:49:37","新北市中和區中山路三段181巷18弄9號","121.47282","25.00484","6500300","中和區"
"235038","185-VK","2018/12/29 19:49:21","新北市中和區自立路6號","121.522478333333","24.9965683333333","6500300","中和區"
"235049","186-VK","2018/12/29 19:49:38","新北市中和區中正路18號","121.50277","24.993665","6500300","中和區"
"235067","255-BX","2018/12/29 19:49:33","新北市中和區新生街188號","121.483661666667","24.999625","6500300","中和區"
"235044","293-VK","2018/12/29 19:49:40","新北市中和區南山路273號","121.503988333333","24.9924366666667","6500300","中和區"
"235042","KEA-2878","2018/12/29 19:49:37","新北市中和區宜安路96號","121.510691666667","24.9977316666667","6500300","中和區"
"235050","4979-A6","2018/12/29 19:49:36","新北市中和區景平路241巷84弄54號","121.506086666667","24.9923616666667","6500300","中和區"
"235069","4980-A6","2018/12/29 19:49:32","新北市中和區員山路36巷16-6號","121.485335","24.9920966666667","6500300","中和區"
"235070","558-UM","2018/12/29 19:49:41","新北市中和區圓通路111號","121.499436666667","24.99647","6500300","中和區"
"235054","640-BX","2018/12/29 19:49:36","新北市中和區莒光路118號","121.472443333333","25.0018966666667","6500300","中和區"
"235047","732-UM","2018/12/29 19:49:36","新北市中和區興南路一段67號","121.510295","24.9894033333333","6500300","中和區"
"235046","733-UM","2018/12/29 19:49:40","新北市中和區仁愛街69號","121.51149","24.987535","6500300","中和區"
"235026","800-TS","2018/12/29 19:49:30","新北市中和區員山路36巷13號","121.484351666667","24.9907133333333","6500300","中和區"
"235057","801-TS","2018/12/29 19:49:36","新北市中和區員山路130號","121.481168333333","24.9962183333333","6500300","中和區"
"235041","802-TS","2018/12/29 19:49:22","新北市中和區永貞路241號","121.513156666667","25.00377","6500300","中和區"
"235052","805-TS","2018/12/29 19:49:38","新北市中和區興南路二段80號","121.505856666667","24.98465","6500300","中和區"
"235048","896-TW","2018/12/29 19:49:26","新北市中和區興南路一段124號","121.509516666667","24.9885666666667","6500300","中和區"
"235053","900-TW","2018/12/29 19:49:23","新北市中和區國光街189巷12弄2號","121.4674","25.001535","6500300","中和區"
"235065","911-UM","2018/12/29 19:49:30","新北市中和區中山路二段187號","121.500428333333","25.00276","6500300","中和區"
"235051","157-BY","2018/12/29 19:49:28","新北市中和區中興街180巷52弄3號","121.498441666667","24.98828","6500300","中和區"
"235037","AAC-213","2018/12/29 19:49:34","新北市中和區秀朗路三段146號","121.524121666667","24.991265","6500300","中和區"
"235059","AAC-215","2018/12/29 19:49:41","新北市中和區圓通路305巷18號","121.494968333333","24.9890816666667","6500300","中和區"
"220086","073-UY","2018/12/29 19:49:21","新北市板橋區南雅西路二段7巷25號","121.45193","25.0095","6500100","板橋區"
"220106","075-UY","2018/12/29 19:49:29","新北市板橋區民治街71巷15號","121.480295","25.0328583333333","6500100","板橋區"
"220069","AAD-861","2018/12/29 19:49:34","新北市板橋區大明街47號","121.45779","25.002825","6500100","板橋區"
"247002","893-R6","2018/12/29 19:49:28","新北市蘆洲區永樂街38巷71號","121.458636666667","25.0906366666667","6501400","蘆洲區"
"247014","053-VK","2018/12/29 19:49:32","新北市蘆洲區中央路97號","121.472506666667","25.0841366666667","6501400","蘆洲區"
"247004","002-UY","2018/12/29 19:49:22","新北市蘆洲區中原路71號","121.458581666667","25.0817966666667","6501400","蘆洲區"
"226004","312-R5","2018/12/29 19:49:31","新北市平溪區靜安路三段392巷3號","121.784511666667","25.04958","6502400","平溪區"
"228001","212-TW","2018/12/29 19:49:33","新北市貢寮區真理里新港街95號","121.926673333333","25.05673","6502600","貢寮區"
"224011","420-VK","2018/12/29 19:49:34","新北市瑞芳區崙頂路3-1號","121.847005","25.1046833333333","6501200","瑞芳區"
"227002","642-TC","2018/12/29 19:49:40","新北市雙溪區雙溪里內挖路47號","121.863261666667","25.0367266666667","6502500","雙溪區"
"227010","400-TW","2018/12/29 19:49:36","新北市雙溪區新基里朝陽街18號","121.865895","25.0387316666667","6502500","雙溪區"
"222001","KEA-2212","2018/12/29 19:49:39","新北市深坑區北深路三段108號","121.606855","25.0016383333333","6501800","深坑區"
"208002","KEA-2872","2018/12/29 19:49:27","新北市金山區中華路362號","121.63329","25.224325","6502700","金山區"
"208003","665-BX","2018/12/29 19:49:30","新北市金山區清泉里清水路49號","121.629565","25.2345416666667","6502700","金山區"
"208001","761-BX","2018/12/29 19:49:35","新北市金山區重和里六股林口20號","121.603018333333","25.2190083333333","6502700","金山區"
"251009","008-UM","2018/12/29 19:49:21","新北市淡水區中正路32號","121.44385","25.1692233333333","6501000","淡水區"
"251013","KEA-2871","2018/12/29 19:49:37","新北市淡水區頂田寮2-1號","121.460931666667","25.2127883333333","6501000","淡水區"
"251016","179-VK","2018/12/29 19:49:34","新北市淡水區三塊厝2-1號","121.453766666667","25.2098116666667","6501000","淡水區"
"251012","180-VK","2018/12/29 19:49:25","新北市淡水區淡金路三段70巷1號","121.44831","25.200795","6501000","淡水區"
"251008","181-VK","2018/12/29 19:49:27","新北市淡水區中正路二段24巷2-1號","121.426696666667","25.1768716666667","6501000","淡水區"
"251015","182-VK","2018/12/29 19:49:27","新北市淡水區北新路三段73號","121.48524","25.1877866666667","6501000","淡水區"
"251010","413-VK","2018/12/29 19:49:30","新北市淡水區下圭柔山91-3號","121.430928333333","25.209655","6501000","淡水區"
"251007","442-VK","2018/12/29 19:49:25","新北市淡水區竿蓁一街102巷1號","121.454033333333","25.1661966666667","6501000","淡水區"
"251001","559-UM","2018/12/29 19:49:28","新北市淡水區淡金路132號","121.457966666667","25.1647833333333","6501000","淡水區"
"251006","561-UM","2018/12/29 19:49:28","新北市淡水區水碓街15號","121.443471666667","25.1769683333333","6501000","淡水區"
"251011","650-BX","2018/12/29 19:49:41","新北市淡水區埤島7-2號","121.444848333333","25.1923883333333","6501000","淡水區"
"251003","766-UM","2018/12/29 19:49:30","新北市淡水區崁頂61號","121.439836666667","25.2011216666667","6501000","淡水區"
"207003","550-UM","2018/12/29 19:49:31","新北市萬里區大鵬里萬里加投68號","121.642376666667","25.2147716666667","6502800","萬里區"
"207004","225-TW","2018/12/29 19:49:35","新北市萬里區萬里里瑪鋉路261號","121.68983","25.179805","6502800","萬里區"
"252002","178-VK","2018/12/29 19:49:19","新北市三芝區三民街33-1號","121.504656666667","25.2585233333333","6502100","三芝區"
"237004","KEA-2597","2018/12/29 19:49:19","新北市三峽區添福263號","121.37547","24.8936633333333","6500900","三峽區"
"237009","210-TH","2018/12/29 19:49:33","新北市三峽區清水街429號","121.368665","24.9257316666667","6500900","三峽區"
"237013","252-BX","2018/12/29 19:49:35","新北市三峽區介壽路二段165號","121.39412","24.9359633333333","6500900","三峽區"
"237012","275-BY","2018/12/29 19:49:33","新北市三峽區中華路74號","121.371556666667","24.9295033333333","6500900","三峽區"
"237008","302-VK","2018/12/29 19:49:29","新北市三峽區中正路一段292巷33號","121.370203333333","24.9260183333333","6500900","三峽區"
"237014","433-BY","2018/12/29 19:49:34","新北市三峽區添福29-2號","121.373051666667","24.9035116666667","6500900","三峽區"
"237016","649-BX","2018/12/29 19:49:25","新北市三峽區介壽路二段138巷1弄62號","121.396621666667","24.933425","6500900","三峽區"
"237005","AKY-6261","2018/12/29 19:49:35","新北市三峽區長泰街20號","121.378823333333","24.9317816666667","6500900","三峽區"
"236070","105-UM","2018/12/29 19:49:41","新北市土城區中央路二段356號","121.43979","24.9717616666667","6501300","土城區"
"236042","KED-0685","2018/12/29 19:49:40","新北市土城區金城路二段239號","121.455756666667","24.9824716666667","6501300","土城區"
"236079","166-UM","2018/12/29 19:49:25","新北市土城區中央路四段410巷3號","121.411096666667","24.953255","6501300","土城區"
"236030","253-BX","2018/12/29 19:49:33","新北市土城區中央路一段294號","121.443325","24.9823533333333","6501300","土城區"
"236026","269-VK","2018/12/29 19:49:28","新北市土城區中央路二段61巷26號","121.443295","24.9786433333333","6501300","土城區"
"247008","KED-0683","2018/12/29 19:49:29","新北市蘆洲區中山一路49號","121.478863333333","25.080955","6501400","蘆洲區"
"252001","KED-0821","2018/12/29 19:49:37","新北市三芝區公正街66號","121.499798333333","25.257465","6502100","三芝區"
"236021","401-BY","2018/12/29 19:49:39","新北市土城區延吉街137巷6號","121.470921666667","24.985785","6501300","土城區"
"236059","912-UM","2018/12/29 19:49:19","新北市土城區中央路一段186-1號","121.445533333333","24.9864016666667","6501300","土城區"
"236049","913-UM","2018/12/29 19:49:37","新北市土城區青雲路303號","121.459001666667","24.9794","6501300","土城區"
"236063","915-UM","2018/12/29 19:49:23","新北市土城區金城路三段163巷16號","121.468938333333","24.9891466666667","6501300","土城區"
"236055","AAC-216","2018/12/29 19:49:36","新北市土城區延和路201號","121.469453333333","24.9902016666667","6501300","土城區"
"242036","AAC-296","2018/12/29 19:49:25","新北市新莊區建安街60號","121.427176666667","25.0247533333333","6500500","新莊區"
"242058","986-R7","2018/12/29 19:49:31","新北市新莊區新樹路181-2號","121.436146666667","25.0244783333333","6500500","新莊區"
"242029","612-BX","2018/12/29 19:49:40","新北市新莊區幸福路914號","121.442541666667","25.0488266666667","6500500","新莊區"
"242048","497-BY","2018/12/29 19:49:32","新北市新莊區建安街76巷5弄15號","121.425576666667","25.024925","6500500","新莊區"
"242021","442-UM","2018/12/29 19:49:20","新北市新莊區中正路355號","121.446791666667","25.0349033333333","6500500","新莊區"
"242002","440-UM","2018/12/29 19:49:34","新北市新莊區武前街29號","121.45021","25.0325633333333","6500500","新莊區"
"242039","415-TV","2018/12/29 19:49:33","新北市新莊區民安路299巷49號","121.429611666667","25.023485","6500500","新莊區"
"242023","362-BY","2018/12/29 19:49:33","新北市新莊區化成路150號","121.465346666667","25.0449883333333","6500500","新莊區"
"242061","353-BY","2018/12/29 19:49:37","新北市新莊區中環路一段10號","121.442858333333","25.0258","6500500","新莊區"
"242034","135-UY","2018/12/29 19:49:22","新北市新莊區新泰路199巷19號","121.445513333333","25.03777","6500500","新莊區"
"242051","172-VK","2018/12/29 19:49:37","新北市新莊區民安路288號","121.427895","25.0217016666667","6500500","新莊區"
"242013","173-VK","2018/12/29 19:49:42","新北市新莊區中泰街58號","121.450226666667","25.0468966666667","6500500","新莊區"
"242007","346-TH","2018/12/29 19:49:21","新北市新莊區思源路593巷6弄23號","121.457496666667","25.0598533333333","6500500","新莊區"
"242031","348-TH","2018/12/29 19:49:33","新北市新莊區公園一路105號","121.444813333333","25.0380116666667","6500500","新莊區"
"242004","349-TH","2018/12/29 19:49:34","新北市新莊區化成路63巷24弄18號","121.462071666667","25.0460633333333","6500500","新莊區"
"238015","755-BX","2018/12/29 19:49:21","新北市樹林區八德街598巷4號","121.397445","24.9705366666667","6500700","樹林區"
"238019","599-UM","2018/12/29 19:49:37","新北市樹林區太平路247巷30號","121.4225","24.9749166666667","6500700","樹林區"
"238021","KEA-2539","2018/12/29 19:49:37","新北市樹林區佳園路三段101巷62弄20號","121.393978333333","24.9494733333333","6500700","樹林區"
"238017","283-BY","2018/12/29 19:49:38","新北市樹林區保安街二段45巷36號","121.414391666667","25.000195","6500700","樹林區"
"238014","282-BY","2018/12/29 19:49:25","新北市樹林區千歲街68號","121.426215","24.997455","6500700","樹林區"
"239006","891-R6","2018/12/29 19:49:25","新北市鶯歌區文化路145巷2號","121.356458333333","24.9542666666667","6500800","鶯歌區"
"239002","359-BY","2018/12/29 19:47:38","新北市鶯歌區二甲路171-1號","121.344266666667","24.93545","6500800","鶯歌區"
"221008","489-VK","2018/12/29 19:49:35","新北市汐止區康寧街143號","121.621473333333","25.06668","6501100","汐止區"
"221036","130-UY","2018/12/29 19:49:39","新北市汐止區忠孝東路282號","121.663775","25.0682383333333","6501100","汐止區"
"221015","131-UY","2018/12/29 19:49:32","新北市汐止區忠孝東路424-2號","121.665968333333","25.0717583333333","6501100","汐止區"
"221010","269-BY","2018/12/29 19:49:25","新北市汐止區連峰街128號","121.64608","25.0790783333333","6501100","汐止區"
"221012","278-VK","2018/12/29 19:49:38","新北市汐止區汐平路一段5號","121.680805","25.07119","6501100","汐止區"
"221023","279-VK","2018/12/29 19:49:29","新北市汐止區民族六街4巷1號","121.629518333333","25.0701066666667","6501100","汐止區"
"221027","281-BY","2018/12/29 19:49:38","新北市汐止區中正路12號","121.662981666667","25.07018","6501100","汐止區"
"221029","298-VK","2018/12/29 19:49:24","新北市汐止區康寧街777-1號","121.644853333333","25.0758683333333","6501100","汐止區"
"221021","299-VK","2018/12/29 19:49:38","新北市汐止區莊敬街8號","121.657368333333","25.061625","6501100","汐止區"
"221031","353-TW","2018/12/29 19:49:31","新北市汐止區福德三路127號","121.633703333333","25.06752","6501100","汐止區"
"221025","623-UM","2018/12/29 19:49:24","新北市汐止區秀峰路81巷11號","121.66072","25.0644383333333","6501100","汐止區"
"221038","646-BX","2018/12/29 19:49:29","新北市汐止區忠孝東路428號","121.666053333333","25.071975","6501100","汐止區"
"221033","647-BX","2018/12/29 19:49:29","新北市汐止區東勢街132號","121.633418333333","25.0403283333333","6501100","汐止區"
"221002","707-TV","2018/12/29 19:49:37","新北市汐止區大同路一段219巷27號","121.63326","25.0583516666667","6501100","汐止區"
"221018","753-BX","2018/12/29 19:49:30","新北市汐止區大同路二段540號","121.66148","25.06869","6501100","汐止區"
"220079","145-BY","2018/12/29 19:49:36","新北市板橋區復興街54號","121.458718333333","25.0175016666667","6500100","板橋區"
"220080","200-UY","2018/12/29 19:49:40","新北市板橋區大觀路二段37巷336號","121.45013","25.0023183333333","6500100","板橋區"
"220082","610-BX","2018/12/29 19:49:29","新北市板橋區存德街1號","121.42983","24.99201","6500100","板橋區"
"224002","257-TC","2018/12/29 19:49:34","新北市瑞芳區民享新村13號","121.816588333333","25.1057016666667","6501200","瑞芳區"
"220091","267-BY","2018/12/29 19:49:29","新北市板橋區懷德街127巷23弄29號","121.480105","25.0322516666667","6500100","板橋區"
"220056","276-BY","2018/12/29 19:49:37","新北市板橋區信義路1巷2號","121.457228333333","24.99696","6500100","板橋區"
"220072","277-BY","2018/12/29 19:49:30","新北市板橋區篤行路二段1巷12-3號","121.432211666667","24.9926516666667","6500100","板橋區"
"220101","280-UM","2018/12/29 19:49:35","新北市板橋區雙十路一段44巷36號","121.4773","25.0248783333333","6500100","板橋區"
"220071","283-VK","2018/12/29 19:49:41","新北市板橋區廣權路123號","121.465343333333","24.993205","6500100","板橋區"
"220094","285-UM","2018/12/29 19:49:40","新北市板橋區文德路11號","121.462641666667","25.0243966666667","6500100","板橋區"
"220053","285-VK","2018/12/29 19:49:37","新北市板橋區中山路二段90巷22號","121.475575","25.0157233333333","6500100","板橋區"
"220083","286-VK","2018/12/29 19:49:21","新北市板橋區僑中二街8巷19號","121.446196666667","25.0113216666667","6500100","板橋區"
"220081","287-VK","2018/12/29 19:49:20","新北市板橋區大觀路一段31號","121.450056666667","25.0083533333333","6500100","板橋區"
"220090","288-VK","2018/12/29 19:49:28","新北市板橋區英士路49-1號","121.461155","25.024515","6500100","板橋區"
"220061","293-UM","2018/12/29 19:49:37","新北市板橋區觀光街1巷2號","121.472008333333","25.0156633333333","6500100","板橋區"
"220084","296-UM","2018/12/29 19:49:35","新北市板橋區溪崑二街92巷5號","121.426185","24.989615","6500100","板橋區"
"220097","299-UM","2018/12/29 19:49:39","新北市板橋區漢生西路58巷4號","121.463328333333","25.018815","6500100","板橋區"
"220075","303-R5","2018/12/29 19:49:36","新北市板橋區金華街3號","121.455558333333","25.020085","6500100","板橋區"
"220062","305-R5","2018/12/29 19:49:33","新北市板橋區中山路二段416巷38弄36號","121.48177","25.019485","6500100","板橋區"
"220092","307-R5","2018/12/29 19:47:21","新北市板橋區新海路135巷1號","121.460768333333","25.0233766666667","6500100","板橋區"
"220098","317-R6","2018/12/29 19:49:22","新北市板橋區裕民街92號","121.46021","25.0280483333333","6500100","板橋區"
"220089","487-VK","2018/12/29 19:49:35","新北市板橋區互助街20號","121.462675","25.0274833333333","6500100","板橋區"
"220088","491-VK","2018/12/29 19:49:37","新北市板橋區民治街111號","121.478691666667","25.031085","6500100","板橋區"
"220104","560-BX","2018/12/29 19:49:32","新北市板橋區金華街83號","121.458016666667","25.0207516666667","6500100","板橋區"
"220103","561-BX","2018/12/29 19:49:37","新北市板橋區陽明街279巷1弄1號","121.461806666667","25.02602","6500100","板橋區"
"220063","609-BX","2018/12/29 19:49:34","新北市板橋區縣民大道三段310號","121.478636666667","25.023745","6500100","板橋區"
"220055","630-UY","2018/12/29 19:49:36","新北市板橋區信義路1巷26弄50號","121.459796666667","24.996625","6500100","板橋區"
"220057","686-BX","2018/12/29 19:49:37","新北市板橋區德興街13號","121.453423333333","24.9944183333333","6500100","板橋區"
"220077","687-BX","2018/12/29 19:49:37","新北市板橋區僑中二街98號","121.446201666667","25.0084816666667","6500100","板橋區"
"220093","689-BX","2018/12/29 19:49:30","新北市板橋區長江路三段122號","121.47537","25.034285","6500100","板橋區"
"220054","741-BX","2018/12/29 19:49:28","新北市板橋區忠孝路忠義巷16弄1號","121.46594","25.003735","6500100","板橋區"
"220102","KEA-2699","2018/12/29 19:49:35","新北市板橋區仁化街64巷28號","121.475633333333","25.0309733333333","6500100","板橋區"
"220067","829-TW","2018/12/29 19:49:33","新北市板橋區漢生東路193巷77號","121.472595","25.0117083333333","6500100","板橋區"
"220068","830-TW","2018/12/29 19:49:36","新北市板橋區光復街192巷16弄24號","121.486251666667","25.019355","6500100","板橋區"
"220074","895-R6","2018/12/29 19:49:41","新北市板橋區明德街12號","121.45995","25.0105133333333","6500100","板橋區"
"220073","985-R7","2018/12/29 19:49:34","新北市板橋區國光路49巷9號","121.458498333333","25.018495","6500100","板橋區"
"220097","AAC-210","2018/12/29 19:44:09","新北市板橋區民生路二段120號","121.470345","25.01957","6500100","板橋區"
"220064","AAC-253","2018/12/29 19:49:31","新北市板橋區實踐路90號","121.464038333333","25.0051","6500100","板橋區"
"235068","KEA-2873","2018/12/29 19:49:23","新北市中和區永和路74號","121.497875","25.0050883333333","6500300","中和區"
"235061","KEA-2875","2018/12/29 19:49:40","新北市中和區員山路160號","121.481468333333","24.9995316666667","6500300","中和區"
