"lineid","car","time","location","longitude","latitude","cityid","cityname"
"234046","148-BY","2018/12/29 19:59:37","新北市永和區成功路一段2號","121.526956666667","25.0056166666667","6500400","永和區"
"234081","298-R6","2018/12/29 19:59:42","新北市永和區永利路81巷30號","121.522506666667","25.0036466666667","6500400","永和區"
"234038","336-UY","2018/12/29 19:59:35","新北市永和區成功路二段98號","121.526626666667","24.998255","6500400","永和區"
"234064","337-UY","2018/12/29 19:59:36","新北市永和區中正路412巷20弄21號","121.518925","25.001505","6500400","永和區"
"234086","338-UY","2018/12/29 19:59:40","新北市永和區福和路152號","121.521583333333","25.0078683333333","6500400","永和區"
"234070","552-UM","2018/12/29 19:59:25","新北市永和區大新街96號","121.518093333333","25.0080666666667","6500400","永和區"
"234017","745-BX","2018/12/29 19:59:33","新北市永和區文化路69號","121.513931666667","25.0151433333333","6500400","永和區"
"234030","746-BX","2018/12/29 19:59:30","新北市永和區民生路22巷11號","121.521838333333","24.99716","6500400","永和區"
"234054","KEA-2590","2018/12/29 19:59:26","新北市永和區環河東路一段124號","121.520631666667","25.0154166666667","6500400","永和區"
"234007","839-RS","2018/12/29 19:59:27","新北市永和區中山路一段238號","121.507361666667","25.0077416666667","6500400","永和區"
"234013","KEA-2591","2018/12/29 19:59:33","新北市永和區保安路292號","121.505015","25.0117433333333","6500400","永和區"
"234061","AAD-866","2018/12/29 19:59:33","新北市永和區中正路283巷31號","121.516271666667","24.9997816666667","6500400","永和區"
"234042","862-TW","2018/12/29 19:59:31","新北市永和區中和路421巷5弄1號","121.508725","25.00107","6500400","永和區"
"234050","863-TW","2018/12/29 19:59:32","新北市永和區保安路230號","121.507155","25.0133416666667","6500400","永和區"
"234011","9373-KE","2018/12/29 19:59:33","新北市永和區仁愛路352巷122弄7號","121.500483333333","25.0087483333333","6500400","永和區"
"249005","172-UM","2018/12/29 19:59:35","新北市八里區楓林路3-1號","121.382396666667","25.1304966666667","6502300","八里區"
"249001","173-UM","2018/12/29 19:59:23","新北市八里區中華路二段312號","121.403771666667","25.14837","6502300","八里區"
"249004","303-UY","2018/12/29 19:59:32","新北市八里區中華路一段333-1號","121.413113333333","25.1540733333333","6502300","八里區"
"249002","305-UY","2018/12/29 19:59:36","新北市八里區頂寮一街40號","121.450738333333","25.1237333333333","6502300","八里區"
"249003","593-UM","2018/12/29 19:59:23","新北市八里區中華路二段562號","121.398873333333","25.1448166666667","6502300","八里區"
"248016","026-BX","2018/12/29 19:59:30","新北市五股區成泰路三段577巷84號","121.449596666667","25.1038333333333","6501500","五股區"
"248008","095-VK","2018/12/29 19:59:35","新北市五股區四維路30巷36弄1號","121.468895","25.0714616666667","6501500","五股區"
"248020","225-UY","2018/12/29 19:59:34","新北市五股區凌雲路三段46號","121.43072","25.1086866666667","6501500","五股區"
"248012","247-BX","2018/12/29 19:59:40","新北市五股區民義路一段109號","121.434058333333","25.0864533333333","6501500","五股區"
"248014","261-SL","2018/12/29 19:59:35","新北市五股區五福路6巷19號","121.43533","25.088565","6501500","五股區"
"248004","677-BX","2018/12/29 19:59:38","新北市五股區成泰路一段8巷4號","121.435083333333","25.066835","6501500","五股區"
"248002","678-BX","2018/12/29 19:59:37","新北市五股區成泰路三段514號","121.45219","25.1018816666667","6501500","五股區"
"248010","682-TV","2018/12/29 19:59:34","新北市五股區登林路46巷8號","121.432303333333","25.0686566666667","6501500","五股區"
"234023","9380-KE","2018/12/29 19:59:20","新北市永和區中山路一段155號","121.509866666667","25.0093916666667","6500400","永和區"
"234077","969-R7","2018/12/29 19:59:35","新北市永和區智光街101號","121.516235","24.9968783333333","6500400","永和區"
"234074","AAC-211","2018/12/29 19:59:39","新北市永和區豫溪街215巷5號","121.52403","25.0097316666667","6500400","永和區"
"234067","AAC-212","2018/12/29 19:59:21","新北市永和區保平路236巷48號","121.507616666667","25.00678","6500400","永和區"
"234003","AAC-295","2018/12/29 19:59:22","新北市永和區中正路637號","121.51542","25.0101033333333","6500400","永和區"
"244023","483-VK","2018/12/29 19:59:22","新北市林口區文化北路二段300號","121.37438","25.0875683333333","6501700","林口區"
"243013","AAD-798","2018/12/29 19:59:36","新北市泰山區應化街7號","121.423921666667","25.0436983333333","6501600","泰山區"
"243009","297-R6","2018/12/29 19:59:29","新北市泰山區楓江路16巷19號","121.433958333333","25.0616016666667","6501600","泰山區"
"243016","KEA-2801","2018/12/29 19:59:31","新北市泰山區貴陽街4號","121.421573333333","25.03324","6501600","泰山區"
"243015","421-VK","2018/12/29 19:59:30","新北市泰山區明志路二段70號","121.428816666667","25.0524033333333","6501600","泰山區"
"243011","KEA-2215","2018/12/29 19:59:27","新北市泰山區明志路三段182巷41號","121.423005","25.0394016666667","6501600","泰山區"
"243010","KEA-2216","2018/12/29 19:59:36","新北市泰山區中華街9號","121.42778","25.0523983333333","6501600","泰山區"
"243012","646-TV","2018/12/29 19:59:34","新北市泰山區全興路188號","121.433535","25.0569533333333","6501600","泰山區"
"243014","680-BX","2018/12/29 19:59:35","新北市泰山區泰林路二段203號","121.433098333333","25.06144","6501600","泰山區"
"222003","436-BY","2018/12/29 19:59:25","新北市深坑區埔新街14號","121.620748333333","25.0039483333333","6501800","深坑區"
"222002","659-BX","2018/12/29 19:59:41","新北市深坑區北深路二段81巷8弄1號","121.618386666667","25.0030016666667","6501800","深坑區"
"231041","002-UM","2018/12/29 19:59:25","新北市新店區中正路354號","121.535781666667","24.9756833333333","6500600","新店區"
"231059","046-UY","2018/12/29 19:59:34","新北市新店區安和路一段11號","121.51677","24.9640466666667","6500600","新店區"
"231040","047-UY","2018/12/29 19:59:24","新北市新店區中正路59號","121.544263333333","24.9699716666667","6500600","新店區"
"231044","106-UY","2018/12/29 19:59:39","新北市新店區復興路27號","121.539","24.9867416666667","6500600","新店區"
"231052","108-UY","2018/12/29 19:59:36","新北市新店區新烏路三段寶島巷2弄3號","121.551971666667","24.8985633333333","6500600","新店區"
"231048","187-VK","2018/12/29 19:59:35","新北市新店區中興路二段236巷2-1號","121.548031666667","24.9757916666667","6500600","新店區"
"231054","188-VK","2018/12/29 19:59:21","新北市新店區光明街246號","121.5402","24.96358","6500600","新店區"
"221035","KEA-2785","2018/12/29 19:59:36","新北市汐止區長江街57巷1號","121.65616","25.0714533333333","6501100","汐止區"
"231057","256-BX","2018/12/29 19:59:25","新北市新店區花園二路一段11號","121.555491666667","24.9325316666667","6500600","新店區"
"231065","260-TV","2018/12/29 19:59:38","新北市新店區安祥路109巷151弄5號","121.478268333333","24.9586416666667","6500600","新店區"
"231042","268-BY","2018/12/29 19:59:32","新北市新店區中興路一段280號","121.54551","24.9684166666667","6500600","新店區"
"231051","278-BY","2018/12/29 19:59:36","新北市新店區中央一街22號","121.528106666667","24.973245","6500600","新店區"
"231050","AAD-862","2018/12/29 19:59:39","新北市新店區北宜路二段4號","121.547651666667","24.951865","6500600","新店區"
"231043","355-BY","2018/12/29 19:59:31","新北市新店區中正路282-11號","121.5385","24.9738933333333","6500600","新店區"
"231066","4716-K9","2018/12/29 19:59:35","新北市新店區薏仁坑路6-1號","121.499943333333","24.9584116666667","6500600","新店區"
"231056","4715-K9","2018/12/29 19:59:36","新北市新店區明德路26巷3號","121.54213","24.9777266666667","6500600","新店區"
"231067","4772-VM","2018/12/29 19:59:21","新北市新店區秀山路11巷18弄1號","121.531631666667","24.9589766666667","6500600","新店區"
"231049","513-UM","2018/12/29 19:59:25","新北市新店區明德路42號","121.541383333333","24.978155","6500600","新店區"
"231061","619-UM","2018/12/29 19:59:37","新北市新店區安民街301號","121.517586666667","24.9737783333333","6500600","新店區"
"231063","641-BX","2018/12/29 19:59:33","新北市新店區車子路11號","121.503005","24.952005","6500600","新店區"
"231068","718-UY","2018/12/29 19:59:14","新北市新店區安華路28-1號","121.519333333333","24.9608216666667","6500600","新店區"
"231064","719-UM","2018/12/29 19:58:30","新北市新店區安民街27號","121.51567","24.965045","6500600","新店區"
"231062","720-UM","2018/12/29 19:59:34","新北市新店區華城路36巷1-3號","121.527416666667","24.9554666666667","6500600","新店區"
"231060","897-TW","2018/12/29 19:59:26","新北市新店區安康路二段436號","121.49584","24.95491","6500600","新店區"
"231045","898-TW","2018/12/29 19:59:37","新北市新店區北宜路二段363號","121.558928333333","24.954295","6500600","新店區"
"231055","AKT-0513","2018/12/29 19:59:33","新北市新店區中華路48巷12號","121.54027","24.96881","6500600","新店區"
"241011","013-R5","2018/12/29 19:59:32","新北市三重區三和路二段165號","121.497958333333","25.069685","6500200","三重區"
"241028","022-UY","2018/12/29 19:59:21","新北市三重區中正南路68號","121.494153333333","25.0594983333333","6500200","三重區"
"241008","059-VK","2018/12/29 19:59:32","新北市三重區永福街179巷28號","121.478006666667","25.0748566666667","6500200","三重區"
"241022","060-VK","2018/12/29 19:59:30","新北市三重區新北大道一段11號","121.488656666667","25.060605","6500200","三重區"
"241031","061-VK","2018/12/29 19:59:28","新北市三重區重新路四段184巷11-1號","121.487118333333","25.0548683333333","6500200","三重區"
"241015","062-VK","2018/12/29 19:59:27","新北市三重區三和路二段29號","121.500983333333","25.06704","6500200","三重區"
"241017","063-VK","2018/12/29 19:59:27","新北市三重區自強路一段306號","121.491285","25.0683966666667","6500200","三重區"
"241024","065-VK","2018/12/29 19:59:40","新北市三重區大勇街49號","121.4815","25.07186","6500200","三重區"
"241003","091-VK","2018/12/29 19:59:36","新北市三重區仁愛街445巷1號","121.490026666667","25.0822333333333","6500200","三重區"
"251014","742-BX","2018/12/29 19:59:21","新北市淡水區石頭厝1號","121.458725","25.23552","6501000","淡水區"
"241005","262-UM","2018/12/29 19:59:29","新北市三重區溪尾街325巷32號","121.488643333333","25.083385","6500200","三重區"
"241016","266-UM","2018/12/29 19:59:33","新北市三重區正義北路50號","121.497066666667","25.0636783333333","6500200","三重區"
"241009","267-UM","2018/12/29 19:59:24","新北市三重區三和路四段390巷30號","121.480836666667","25.07872","6500200","三重區"
"241018","268-UM","2018/12/29 19:59:31","新北市三重區雙園街57巷15號","121.494791666667","25.0679316666667","6500200","三重區"
"241032","269-UM","2018/12/29 19:59:25","新北市三重區朝陽街46號","121.48334","25.0570333333333","6500200","三重區"
"241013","270-UM","2018/12/29 19:59:41","新北市三重區三和路三段141號","121.49239","25.0734433333333","6500200","三重區"
"241025","271-UM","2018/12/29 19:59:20","新北市三重區頂崁街210巷9號","121.476528333333","25.0677716666667","6500200","三重區"
"241007","398-BY","2018/12/29 19:59:35","新北市三重區溪尾街154號","121.488908333333","25.08004","6500200","三重區"
"241035","KEA-2210","2018/12/29 19:59:21","新北市三重區大榮街13號","121.498276666667","25.0630983333333","6500200","三重區"
"241004","475-VK","2018/12/29 19:59:36","新北市三重區五華街110號","121.492418333333","25.0828266666667","6500200","三重區"
"241020","478-VK","2018/12/29 19:59:28","新北市三重區忠孝路一段101號","121.489415","25.0721083333333","6500200","三重區"
"241030","480-VK","2018/12/29 19:59:36","新北市三重區成功路165號","121.486403333333","25.052525","6500200","三重區"
"241014","543-UM","2018/12/29 19:59:29","新北市三重區三和路二段156號","121.499415","25.0685216666667","6500200","三重區"
"241001","547-UM","2018/12/29 19:59:39","新北市三重區福隆路101號","121.49243","25.078335","6500200","三重區"
"241019","KEA-2593","2018/12/29 19:59:24","新北市三重區重陽路四段20-1號","121.491071666667","25.06925","6500200","三重區"
"241006","AAD-863","2018/12/29 19:59:30","新北市三重區力行路二段91巷12號","121.483195","25.075965","6500200","三重區"
"241026","743-BX","2018/12/29 19:59:35","新北市三重區中央南路1-1號","121.501268333333","25.0630016666667","6500200","三重區"
"241023","887-TS","2018/12/29 19:59:27","新北市三重區頂崁街172號","121.477548333333","25.0659","6500200","三重區"
"241012","941-UM","2018/12/29 19:59:29","新北市三重區仁厚街7號","121.499235","25.0760866666667","6500200","三重區"
"241029","942-UM","2018/12/29 19:59:23","新北市三重區重新路三段204號","121.490051666667","25.05834","6500200","三重區"
"235066","003-UY","2018/12/29 19:59:36","新北市中和區中山路二段14號","121.504926666667","25.0055533333333","6500300","中和區"
"235056","096-UM","2018/12/29 19:59:39","新北市中和區中山路三段170巷4弄2號","121.472878333333","25.0068216666667","6500300","中和區"
"235039","097-UM","2018/12/29 19:59:37","新北市中和區景平路278巷16弄24號","121.514411666667","24.993775","6500300","中和區"
"235040","150-BY","2018/12/29 19:59:39","新北市中和區保健路10巷1弄1號","121.50796","24.997925","6500300","中和區"
"235058","151-BY","2018/12/29 19:59:40","新北市中和區員山路146-4號","121.48131","24.9971183333333","6500300","中和區"
"235049","186-VK","2018/12/29 19:59:33","新北市中和區景平路385巷81號","121.501005","24.9942233333333","6500300","中和區"
"235067","255-BX","2018/12/29 19:59:33","新北市中和區新生街241號","121.483851666667","24.9989083333333","6500300","中和區"
"235044","293-VK","2018/12/29 19:59:20","新北市中和區復興路56號","121.503915","24.99041","6500300","中和區"
"235042","KEA-2878","2018/12/29 19:59:37","新北市新店區安興路109-6號","121.51519","24.97857","6500300","中和區"
"247012","KEA-2869","2018/12/29 19:59:35","新北市蘆洲區民族路220號","121.479705","25.0879483333333","6501400","蘆洲區"
"247006","KED-0682","2018/12/29 19:59:23","新北市蘆洲區九芎街115號","121.465548333333","25.0795616666667","6501400","蘆洲區"
"235050","4979-A6","2018/12/29 19:59:36","新北市中和區景平路241巷64弄7號","121.507556666667","24.99244","6500300","中和區"
"235069","4980-A6","2018/12/29 19:59:32","新北市中和區景平路634-2號","121.501015","24.9987083333333","6500300","中和區"
"235070","558-UM","2018/12/29 19:59:41","新北市中和區中正路250號","121.495698333333","24.9939783333333","6500300","中和區"
"235054","640-BX","2018/12/29 19:59:24","新北市中和區中山路二段479號","121.482981666667","25.0049166666667","6500300","中和區"
"235047","732-UM","2018/12/29 19:59:36","新北市中和區和平街158號","121.506013333333","24.9919616666667","6500300","中和區"
"235046","733-UM","2018/12/29 19:59:20","新北市中和區興南路一段93巷73號","121.510401666667","24.9866816666667","6500300","中和區"
"235026","800-TS","2018/12/29 19:57:36","新北市中和區員山路36巷16-3號","121.484865","24.9917133333333","6500300","中和區"
"235041","802-TS","2018/12/29 19:59:22","新北市中和區安平路30號","121.509561666667","24.9947583333333","6500300","中和區"
"235052","805-TS","2018/12/29 19:59:38","新北市中和區華新街192巷22弄9號","121.506648333333","24.98321","6500300","中和區"
"235048","896-TW","2018/12/29 19:59:33","新北市中和區景新街447-1號","121.5131","24.98888","6500300","中和區"
"235065","911-UM","2018/12/29 19:59:40","新北市中和區福祥路102號","121.499085","25.00606","6500300","中和區"
"235051","157-BY","2018/12/29 19:59:28","新北市中和區景安路247巷12號","121.50426","24.9905783333333","6500300","中和區"
"235037","AAC-213","2018/12/29 19:59:07","新北市中和區自立路26號","121.522521666667","24.9930266666667","6500300","中和區"
"235059","AAC-215","2018/12/29 19:59:27","新北市中和區圓通路367巷13弄27號","121.49297","24.9885466666667","6500300","中和區"
"220106","075-UY","2018/12/29 19:59:29","新北市板橋區仁化街132號","121.47745","25.0328383333333","6500100","板橋區"
"220069","AAD-861","2018/12/29 19:59:34","新北市板橋區貴興路113號","121.455813333333","25.0024933333333","6500100","板橋區"
"247002","893-R6","2018/12/29 19:59:28","新北市蘆洲區長安街274巷1號","121.457643333333","25.087115","6501400","蘆洲區"
"247016","546-UM","2018/12/29 19:59:34","新北市蘆洲區光華路43號","121.468818333333","25.0830383333333","6501400","蘆洲區"
"247024","500-BY","2018/12/29 19:59:29","新北市蘆洲區光榮路120巷12號","121.465396666667","25.0884866666667","6501400","蘆洲區"
"247020","057-VK","2018/12/29 19:59:36","新北市蘆洲區民權路113號","121.472456666667","25.0894566666667","6501400","蘆洲區"
"247014","053-VK","2018/12/29 19:59:32","新北市蘆洲區成功路141號","121.472201666667","25.08245","6501400","蘆洲區"
"247004","002-UY","2018/12/29 19:59:22","新北市蘆洲區長安街267巷7弄3號","121.458385","25.0836016666667","6501400","蘆洲區"
"226004","312-R5","2018/12/29 19:59:31","新北市平溪區十分里十分街110號","121.776836666667","25.042965","6502400","平溪區"
"224011","420-VK","2018/12/29 19:59:34","新北市瑞芳區崙頂路3-1號","121.847031666667","25.104685","6501200","瑞芳區"
"227002","642-TC","2018/12/29 19:59:20","新北市雙溪區雙溪里長安街16號","121.865045","25.0347033333333","6502500","雙溪區"
"227010","400-TW","2018/12/29 19:59:36","新北市雙溪區新基里新基南街25號","121.866251666667","25.0381583333333","6502500","雙溪區"
"222001","KEA-2212","2018/12/29 19:59:19","新北市深坑區北深路三段137號","121.603751666667","25.0027233333333","6501800","深坑區"
"208002","KEA-2872","2018/12/29 19:59:42","新北市金山區中山路69號","121.641003333333","25.2177516666667","6502700","金山區"
"208003","665-BX","2018/12/29 19:59:31","新北市金山區永興里濆水路15號","121.626548333333","25.2687033333333","6502700","金山區"
"208001","761-BX","2018/12/29 19:59:37","新北市金山區重和里茅埔頭10-1號","121.603691666667","25.2160566666667","6502700","金山區"
"251009","008-UM","2018/12/29 19:59:21","新北市淡水區英專路28巷2弄2號","121.445693333333","25.1699316666667","6501000","淡水區"
"251004","009-UM","2018/12/29 19:59:38","新北市淡水區民族路50巷2弄2號","121.461485","25.13594","6501000","淡水區"
"251013","KEA-2871","2018/12/29 19:59:37","新北市淡水區奎柔山路63號","121.451693333333","25.20619","6501000","淡水區"
"251016","179-VK","2018/12/29 19:59:34","新北市淡水區番子田16-13號","121.453678333333","25.2317416666667","6501000","淡水區"
"251012","180-VK","2018/12/29 19:59:25","新北市淡水區下圭柔山91巷6號","121.437163333333","25.2100933333333","6501000","淡水區"
"251008","181-VK","2018/12/29 19:59:27","新北市淡水區淡海路63巷10-1號","121.422706666667","25.1807866666667","6501000","淡水區"
"251015","182-VK","2018/12/29 19:59:27","新北市淡水區埤島80-7號","121.44873","25.18841","6501000","淡水區"
"251010","413-VK","2018/12/29 19:59:30","新北市淡水區崁頂115號","121.432231666667","25.204305","6501000","淡水區"
"251005","443-VK","2018/12/29 19:56:20","新北市淡水區中正東路1號","121.447341666667","25.16731","6501000","淡水區"
"251001","559-UM","2018/12/29 19:59:23","新北市淡水區淡金路二段138號","121.446886666667","25.1876466666667","6501000","淡水區"
"251006","561-UM","2018/12/29 19:59:28","新北市淡水區北新路8號","121.444436666667","25.1773933333333","6501000","淡水區"
"251011","650-BX","2018/12/29 19:59:41","新北市淡水區崁頂55-3號","121.442255","25.1967016666667","6501000","淡水區"
"251003","766-UM","2018/12/29 19:59:30","新北市淡水區中山北路二段189巷15弄29號","121.443333333333","25.1843933333333","6501000","淡水區"
"207003","550-UM","2018/12/29 19:59:31","新北市萬里區大鵬里萬里加投61號","121.641216666667","25.2129216666667","6502800","萬里區"
"207004","225-TW","2018/12/29 19:59:35","新北市萬里區北基里忠二街35號","121.685645","25.1757433333333","6502800","萬里區"
"252002","178-VK","2018/12/29 19:59:39","新北市三芝區三民街39巷36號","121.505418333333","25.257525","6502100","三芝區"
"237004","KEA-2597","2018/12/29 19:59:38","新北市三峽區添福9號","121.371191666667","24.9077783333333","6500900","三峽區"
"237009","210-TH","2018/12/29 19:59:33","新北市三峽區民族街30號","121.36931","24.93093","6500900","三峽區"
"237012","275-BY","2018/12/29 19:59:33","新北市三峽區中華路74-5號","121.371541666667","24.9291883333333","6500900","三峽區"
"237008","302-VK","2018/12/29 19:59:33","新北市三峽區中華路75巷8號","121.372155","24.9298433333333","6500900","三峽區"
"237005","AKY-6261","2018/12/29 19:59:32","新北市三峽區民生街1巷7號","121.379741666667","24.9358716666667","6500900","三峽區"
"236070","105-UM","2018/12/29 19:59:41","新北市土城區承天路45號","121.43861","24.9639383333333","6501300","土城區"
"236042","KED-0685","2018/12/29 19:59:20","新北市土城區學府路一段126巷38號","121.454841666667","24.988635","6501300","土城區"
"236079","166-UM","2018/12/29 19:59:25","新北市土城區三民路23巷8弄6號","121.419698333333","24.9635033333333","6501300","土城區"
"236030","253-BX","2018/12/29 19:59:33","新北市土城區中央路一段252-1號","121.444295","24.9845583333333","6501300","土城區"
"236026","269-VK","2018/12/29 19:59:29","新北市土城區中央路二段89號","121.44229","24.9781266666667","6501300","土城區"
"236014","270-VK","2018/12/29 19:59:21","新北市土城區廣福街123號","121.45623","24.9928916666667","6501300","土城區"
"247008","KED-0683","2018/12/29 19:59:29","新北市蘆洲區信義路117號","121.478568333333","25.08025","6501400","蘆洲區"
"252001","KED-0821","2018/12/29 19:59:37","新北市三芝區公正街66號","121.499803333333","25.2574733333333","6502100","三芝區"
"236021","401-BY","2018/12/29 19:59:39","新北市土城區延吉街111巷12弄26號","121.471453333333","24.9853183333333","6501300","土城區"
"236059","912-UM","2018/12/29 19:59:19","新北市土城區中央路一段275號","121.444635","24.9847816666667","6501300","土城區"
"236049","913-UM","2018/12/29 19:59:33","新北市土城區金城路三段188號","121.468278333333","24.9879133333333","6501300","土城區"
"236063","915-UM","2018/12/29 19:59:23","新北市土城區金城路三段33巷10號","121.46539","24.987215","6501300","土城區"
"236055","AAC-216","2018/12/29 19:59:36","新北市土城區學府路一段66號","121.457013333333","24.98834","6501300","土城區"
"242036","AAC-296","2018/12/29 19:58:25","新北市新莊區建安街41巷3號","121.42906","25.02539","6500500","新莊區"
"242058","986-R7","2018/12/29 19:59:31","新北市新莊區八德街31號","121.424918333333","25.0222783333333","6500500","新莊區"
"242056","751-BX","2018/12/29 19:59:25","新北市新莊區中正路347巷15號","121.447175","25.03445","6500500","新莊區"
"242025","613-BX","2018/12/29 19:59:28","新北市新莊區五工一路86號","121.461488333333","25.0676366666667","6500500","新莊區"
"242029","612-BX","2018/12/29 19:59:40","新北市新莊區中榮街87號","121.445268333333","25.052785","6500500","新莊區"
"242044","566-BX","2018/12/29 19:59:33","新北市新莊區新北大道七段722號","121.412288333333","25.0259116666667","6500500","新莊區"
"242048","497-BY","2018/12/29 19:59:32","新北市新莊區富國路109巷2號","121.423823333333","25.0251383333333","6500500","新莊區"
"242021","442-UM","2018/12/29 19:59:40","新北市新莊區建中街16巷30號","121.449111666667","25.0387283333333","6500500","新莊區"
"242002","440-UM","2018/12/29 19:59:37","新北市新莊區中正路180號","121.44991","25.035555","6500500","新莊區"
"242039","415-TV","2018/12/29 19:59:33","新北市新莊區民安路292號","121.42798","25.021755","6500500","新莊區"
"242023","362-BY","2018/12/29 19:59:33","新北市新莊區化成路386號","121.465898333333","25.0502716666667","6500500","新莊區"
"242061","353-BY","2018/12/29 19:59:37","新北市新莊區瓊泰路28號","121.44432","25.02863","6500500","新莊區"
"242034","135-UY","2018/12/29 19:59:32","新北市新莊區建中街78號","121.447338333333","25.0367816666667","6500500","新莊區"
"242051","172-VK","2018/12/29 19:59:37","新北市新莊區西盛街174號","121.428178333333","25.0189566666667","6500500","新莊區"
"242013","173-VK","2018/12/29 19:59:29","新北市新莊區中港路417巷9號","121.451635","25.04752","6500500","新莊區"
"242019","175-VK","2018/12/29 19:59:36","新北市新莊區中港路194號","121.455216666667","25.0425883333333","6500500","新莊區"
"242017","KED-0687","2018/12/29 19:59:39","新北市新莊區中安街3號","121.452828333333","25.0453533333333","6500500","新莊區"
"242007","346-TH","2018/12/29 19:59:22","新北市新莊區思源路710號","121.459681666667","25.0582016666667","6500500","新莊區"
"242011","347-TH","2018/12/29 19:59:25","新北市新莊區中港路531巷90號","121.450026666667","25.0518033333333","6500500","新莊區"
"242031","348-TH","2018/12/29 19:59:39","新北市新莊區公園一路32號","121.443355","25.0353866666667","6500500","新莊區"
"242004","349-TH","2018/12/29 19:59:34","新北市新莊區頭前路92號","121.463933333333","25.052485","6500500","新莊區"
"238021","KEA-2539","2018/12/29 19:59:37","新北市樹林區佳園路三段63號","121.387708333333","24.9529883333333","6500700","樹林區"
"238017","283-BY","2018/12/29 19:59:38","新北市樹林區中山路三段125-9號","121.39781","24.9737716666667","6500700","樹林區"
"221008","489-VK","2018/12/29 19:59:35","台北市內湖區康樂街125巷4號","121.619723333333","25.073355","6501100","汐止區"
"221036","130-UY","2018/12/29 19:59:32","新北市汐止區忠孝東路244號","121.662836666667","25.0672016666667","6501100","汐止區"
"221015","131-UY","2018/12/29 19:59:31","新北市汐止區忠孝東路473巷20號","121.665266666667","25.0734833333333","6501100","汐止區"
"221010","269-BY","2018/12/29 19:59:24","新北市汐止區連峰街225巷18號","121.644273333333","25.0810033333333","6501100","汐止區"
"221012","278-VK","2018/12/29 19:59:38","新北市汐止區大同路三段284號","121.67802","25.0712316666667","6501100","汐止區"
"221023","279-VK","2018/12/29 19:59:29","新北市汐止區明峰街218號","121.626886666667","25.0687666666667","6501100","汐止區"
"221027","281-BY","2018/12/29 19:59:38","新北市汐止區中正路97號","121.660993333333","25.0694216666667","6501100","汐止區"
"221029","298-VK","2018/12/29 19:59:24","新北市汐止區樟樹一路139巷23號","121.64104","25.0660766666667","6501100","汐止區"
"221021","299-VK","2018/12/29 19:59:26","新北市汐止區水源路一段175號","121.655181666667","25.06184","6501100","汐止區"
"221031","353-TW","2018/12/29 19:59:31","新北市汐止區福德一路255號","121.633475","25.06452","6501100","汐止區"
"221025","623-UM","2018/12/29 19:59:24","新北市汐止區秀峰路109巷24號","121.660851666667","25.063465","6501100","汐止區"
"221038","646-BX","2018/12/29 19:59:31","新北市汐止區橋東街5巷2號","121.667013333333","25.0757966666667","6501100","汐止區"
"221033","647-BX","2018/12/29 19:59:29","新北市汐止區東勢街190巷3號","121.633865","25.0416283333333","6501100","汐止區"
"221002","707-TV","2018/12/29 19:59:37","新北市汐止區大同路一段219巷27號","121.63326","25.0583683333333","6501100","汐止區"
"221018","753-BX","2018/12/29 19:59:30","新北市汐止區茄苳路42號","121.665901666667","25.0708033333333","6501100","汐止區"
"220079","145-BY","2018/12/29 19:59:36","新北市板橋區建國街54巷40號","121.460023333333","25.016945","6500100","板橋區"
"220080","200-UY","2018/12/29 19:59:39","新北市板橋區大觀路二段79巷2弄16號","121.447398333333","25.0016416666667","6500100","板橋區"
"220082","610-BX","2018/12/29 19:59:29","新北市板橋區篤行路二段116-3號","121.431251666667","24.9909016666667","6500100","板橋區"
"224002","257-TC","2018/12/29 19:59:34","新北市瑞芳區員山子路3-1號","121.819083333333","25.1046583333333","6501200","瑞芳區"
"220091","267-BY","2018/12/29 19:59:29","新北市板橋區文聖街83號","121.477501666667","25.0300816666667","6500100","板橋區"
"220056","276-BY","2018/12/29 19:59:39","新北市板橋區四川路二段99巷5弄2號","121.452846666667","24.9942783333333","6500100","板橋區"
"220101","280-UM","2018/12/29 19:59:36","新北市板橋區雙十路二段47巷4弄17號","121.474956666667","25.0263816666667","6500100","板橋區"
"220071","283-VK","2018/12/29 19:59:41","新北市板橋區五權街30巷16號","121.46423","24.9932416666667","6500100","板橋區"
"220094","285-UM","2018/12/29 19:59:40","新北市板橋區文化路一段180號","121.465776666667","25.0194966666667","6500100","板橋區"
"220053","285-VK","2018/12/29 19:59:37","新北市板橋區永豐街163號","121.475581666667","25.0203583333333","6500100","板橋區"
"220083","286-VK","2018/12/29 19:59:21","新北市板橋區大觀路一段38巷156弄210號","121.445121666667","25.0104666666667","6500100","板橋區"
"220081","287-VK","2018/12/29 19:59:31","新北市板橋區僑中一街80巷10弄1號","121.447963333333","25.0128866666667","6500100","板橋區"
"220090","288-VK","2018/12/29 19:59:28","新北市板橋區新海路72巷7號","121.462213333333","25.0219866666667","6500100","板橋區"
"220061","293-UM","2018/12/29 19:59:24","新北市板橋區縣民大道二段200巷1號","121.469608333333","25.0172116666667","6500100","板橋區"
"220084","296-UM","2018/12/29 19:59:35","新北市板橋區溪崑二街112巷10號","121.42604","24.9888466666667","6500100","板橋區"
"220097","299-UM","2018/12/29 19:59:39","新北市板橋區光正街45巷25號","121.461648333333","25.016135","6500100","板橋區"
"220075","303-R5","2018/12/29 19:59:36","新北市板橋區金華街10巷48弄79-3號","121.459903333333","25.0203616666667","6500100","板橋區"
"220062","305-R5","2018/12/29 19:59:38","新北市板橋區中山路二段412巷19號","121.483548333333","25.0202083333333","6500100","板橋區"
"220092","307-R5","2018/12/29 19:59:33","新北市板橋區文化路一段141號","121.461993333333","25.01559","6500100","板橋區"
"220098","317-R6","2018/12/29 19:59:42","新北市板橋區新海路385巷24號","121.457965","25.0254883333333","6500100","板橋區"
"220089","487-VK","2018/12/29 19:59:26","新北市板橋區四維路282號","121.463033333333","25.028835","6500100","板橋區"
"220088","491-VK","2018/12/29 19:59:39","新北市板橋區民治街92號","121.479228333333","25.0317333333333","6500100","板橋區"
"220104","560-BX","2018/12/29 19:59:32","新北市板橋區新生街53巷3弄9號","121.456963333333","25.0216216666667","6500100","板橋區"
"220103","561-BX","2018/12/29 19:59:37","新北市板橋區漢生東路23巷49號","121.465951666667","25.018115","6500100","板橋區"
"220063","609-BX","2018/12/29 19:59:22","新北市板橋區中山路二段66號","121.474343333333","25.01589","6500100","板橋區"
"220055","630-UY","2018/12/29 19:59:36","新北市板橋區仁愛路62巷15弄1號","121.45999","24.9984816666667","6500100","板橋區"
"220057","686-BX","2018/12/29 19:59:37","新北市板橋區四川路二段245巷12號","121.450853333333","24.9931616666667","6500100","板橋區"
"220077","687-BX","2018/12/29 19:59:37","新北市板橋區僑中一街124巷3弄1號","121.445936666667","25.0122633333333","6500100","板橋區"
"220093","689-BX","2018/12/29 19:59:10","新北市板橋區長江路一段158號","121.46127","25.03039","6500100","板橋區"
"220054","741-BX","2018/12/29 19:59:27","新北市板橋區忠孝路201巷53號","121.464805","25.0039766666667","6500100","板橋區"
"220102","KEA-2699","2018/12/29 19:59:35","新北市板橋區莒光路16巷20號","121.46953","25.0242066666667","6500100","板橋區"
"220067","829-TW","2018/12/29 19:59:33","新北市板橋區中山路一段206巷123號","121.472573333333","25.0134866666667","6500100","板橋區"
"220074","895-R6","2018/12/29 19:59:41","新北市板橋區民權路65號","121.46184","25.0114866666667","6500100","板橋區"
"220073","985-R7","2018/12/29 19:59:34","新北市板橋區大仁街86號","121.45394","25.0162416666667","6500100","板橋區"
"220097","AAC-210","2018/12/29 19:44:09","新北市板橋區民生路二段120號","121.470345","25.01957","6500100","板橋區"
"220064","AAC-253","2018/12/29 19:59:28","新北市板橋區民族路220號","121.468616666667","25.0073716666667","6500100","板橋區"
"235068","KEA-2873","2018/12/29 19:59:23","新北市中和區中山路二段248號","121.497673333333","25.0025666666667","6500300","中和區"
