"lineid","car","time","location","longitude","latitude","cityid","cityname"
"234081","298-R6","2018/12/29 20:39:24","新北市永和區永貞路82號","121.520161666667","25.005025","6500400","永和區"
"234030","746-BX","2018/12/29 20:39:30","新北市中和區成功路139號","121.525841666667","24.9901133333333","6500400","永和區"
"234061","AAD-866","2018/12/29 20:39:33","新北市永和區秀朗路一段175號","121.51699","25.0037366666667","6500400","永和區"
"234064","748-BX","2018/12/29 20:39:39","新北市永和區中正路432號","121.517495","25.00246","6500400","永和區"
"234042","862-TW","2018/12/29 20:39:31","新北市永和區永利路38號","121.518636666667","25.005625","6500400","永和區"
"234050","863-TW","2018/12/29 20:39:32","新北市永和區新生路118巷1弄18號","121.506626666667","25.0144516666667","6500400","永和區"
"249001","173-UM","2018/12/29 20:39:23","新北市八里區中山路三段367號","121.373345","25.137975","6502300","八里區"
"249004","303-UY","2018/12/29 20:39:31","新北市八里區中山路一段338號","121.412568333333","25.1590016666667","6502300","八里區"
"234023","9380-KE","2018/12/29 20:39:20","新北市永和區博愛街32巷17-1號","121.518876666667","25.01526","6500400","永和區"
"234074","AAC-211","2018/12/29 20:39:39","新北市永和區竹林路119巷18弄1號","121.521098333333","25.011425","6500400","永和區"
"243009","297-R6","2018/12/29 20:39:29","新北市泰山區泰林路二段538號","121.42342","25.06414","6501600","泰山區"
"243015","421-VK","2018/12/29 20:39:26","新北市泰山區泰林路三段745巷145號","121.405801666667","25.0679066666667","6501600","泰山區"
"243011","KEA-2215","2018/12/29 20:39:26","新北市泰山區明志路三段42巷18號","121.424186666667","25.0423416666667","6501600","泰山區"
"222003","436-BY","2018/12/29 20:39:40","新北市深坑區阿柔洋1號","121.61278","25.0005133333333","6501800","深坑區"
"222002","659-BX","2018/12/29 20:39:33","新北市深坑區萬福路45號","121.599428333333","25.0068833333333","6501800","深坑區"
"231041","002-UM","2018/12/29 20:39:25","新北市新店區中正路692號","121.534023333333","24.99041","6500600","新店區"
"231059","046-UY","2018/12/29 20:39:34","新北市新店區僑愛一路2號","121.499808333333","24.9450583333333","6500600","新店區"
"231040","047-UY","2018/12/29 20:39:24","新北市新店區中正路263巷6號","121.538338333333","24.973295","6500600","新店區"
"231044","106-UY","2018/12/29 20:39:39","新北市新店區建國路257號","121.537401666667","24.9832666666667","6500600","新店區"
"231052","108-UY","2018/12/29 20:39:36","新北市新店區新烏路二段300號","121.548593333333","24.9130066666667","6500600","新店區"
"231048","187-VK","2018/12/29 20:39:35","新北市新店區寶慶街2號","121.544246666667","24.9867416666667","6500600","新店區"
"231054","188-VK","2018/12/29 20:39:21","新北市新店區行政街12巷2號","121.542826666667","24.96661","6500600","新店區"
"221035","KEA-2785","2018/12/29 20:39:41","新北市汐止區長江街101-5號","121.65867","25.0731833333333","6501100","汐止區"
"231057","256-BX","2018/12/29 20:39:25","新北市新店區花園二路一段9-6號","121.556346666667","24.9328466666667","6500600","新店區"
"231065","260-TV","2018/12/29 20:39:38","新北市新店區安祥路102巷119號","121.486343333333","24.9642633333333","6500600","新店區"
"231042","268-BY","2018/12/29 20:39:32","新北市新店區寶橋路238號","121.551643333333","24.97897","6500600","新店區"
"231051","278-BY","2018/12/29 20:39:36","新北市新店區中央三街97號","121.525273333333","24.976025","6500600","新店區"
"231050","AAD-862","2018/12/29 20:39:39","新北市新店區建國路35巷2號","121.540395","24.974685","6500600","新店區"
"231043","355-BY","2018/12/29 20:39:31","新北市新店區建國路21號","121.540008333333","24.9738383333333","6500600","新店區"
"231058","3713-VJ","2018/12/29 20:39:41","新北市新店區中正路307巷11號","121.536105","24.973975","6500600","新店區"
"231066","4716-K9","2018/12/29 20:39:35","新北市新店區安興路112號","121.514646666667","24.977665","6500600","新店區"
"231056","4715-K9","2018/12/29 20:39:36","新北市新店區中央七街61巷4號","121.528393333333","24.9764866666667","6500600","新店區"
"231067","4772-VM","2018/12/29 20:25:49","新北市新店區安華路28-1號","121.519686666667","24.9608433333333","6500600","新店區"
"231049","513-UM","2018/12/29 20:39:24","新北市新店區永業路81巷5弄11號","121.53042","24.94934","6500600","新店區"
"231061","619-UM","2018/12/29 20:39:37","新北市新店區新和街35號","121.519221666667","24.9849083333333","6500600","新店區"
"231063","641-BX","2018/12/29 20:39:33","新北市新店區玫瑰路4-1號","121.493695","24.9513983333333","6500600","新店區"
"231068","718-UY","2018/12/29 20:39:34","新北市新店區寶慶街37號","121.54308","24.9866733333333","6500600","新店區"
"231064","719-UM","2018/12/29 20:39:35","新北市新店區安和路三段173號","121.515871666667","24.9860666666667","6500600","新店區"
"231062","720-UM","2018/12/29 20:39:34","新北市新店區安泰路60巷55弄168號","121.484753333333","24.9456133333333","6500600","新店區"
"231060","897-TW","2018/12/29 20:39:26","新北市新店區安康路三段740號","121.47385","24.941915","6500600","新店區"
"231045","898-TW","2018/12/29 20:39:37","新北市新店區長春路211號","121.55921","24.9619866666667","6500600","新店區"
"241011","013-R5","2018/12/29 20:39:32","新北市三重區龍濱路221號","121.501833333333","25.0720333333333","6500200","三重區"
"241028","022-UY","2018/12/29 20:39:21","新北市三重區光興街91號","121.497376666667","25.0598733333333","6500200","三重區"
"241008","059-VK","2018/12/29 20:39:32","新北市三重區下竹圍街36號","121.481055","25.0749633333333","6500200","三重區"
"241022","060-VK","2018/12/29 20:39:30","新北市三重區過圳街27-5號","121.488018333333","25.0624016666667","6500200","三重區"
"241031","061-VK","2018/12/29 20:39:28","新北市三重區重陽路一段113巷1弄40號","121.48812","25.0587833333333","6500200","三重區"
"241015","062-VK","2018/12/29 20:39:26","新北市三重區文化北路105號","121.497908333333","25.0684633333333","6500200","三重區"
"241017","063-VK","2018/12/29 20:39:27","新北市三重區大同北路269號","121.490855","25.067265","6500200","三重區"
"241024","065-VK","2018/12/29 20:39:40","新北市三重區三民街206巷2號","121.480736666667","25.0667466666667","6500200","三重區"
"241002","090-VK","2018/12/29 20:39:38","新北市三重區仁義街167巷12號","121.49747","25.0818816666667","6500200","三重區"
"241003","091-VK","2018/12/29 20:39:36","新北市三重區五華街141巷58號","121.493551666667","25.0867983333333","6500200","三重區"
"251014","742-BX","2018/12/29 20:39:21","新北市淡水區公埔子32-5號","121.462453333333","25.232585","6501000","淡水區"
"241005","262-UM","2018/12/29 20:39:29","新北市三重區碧華街395號","121.493043333333","25.085705","6500200","三重區"
"241016","266-UM","2018/12/29 20:39:33","新北市三重區長壽西街143-3號","121.49428","25.0666716666667","6500200","三重區"
"241009","267-UM","2018/12/29 20:39:24","新北市三重區碧華街55號","121.484696666667","25.0813716666667","6500200","三重區"
"241018","268-UM","2018/12/29 20:39:31","新北市三重區重陽路四段1號","121.491065","25.068675","6500200","三重區"
"241032","269-UM","2018/12/29 20:39:25","新北市三重區重陽路一段120巷48號","121.485001666667","25.060195","6500200","三重區"
"241013","270-UM","2018/12/29 20:39:41","新北市三重區三和路四段71號","121.489903333333","25.0747466666667","6500200","三重區"
"241025","271-UM","2018/12/29 20:39:40","新北市三重區頂崁街140號","121.47761","25.0650316666667","6500200","三重區"
"241007","398-BY","2018/12/29 20:39:35","新北市三重區自強路四段20號","121.488565","25.0763983333333","6500200","三重區"
"241035","KEA-2210","2018/12/29 20:39:41","新北市三重區正義北路275-1號","121.495265","25.0699983333333","6500200","三重區"
"241004","475-VK","2018/12/29 20:39:37","新北市三重區仁愛街406巷3號","121.49062","25.0812416666667","6500200","三重區"
"241020","478-VK","2018/12/29 20:39:36","新北市三重區忠孝路一段87號","121.489808333333","25.0721266666667","6500200","三重區"
"241030","480-VK","2018/12/29 20:39:36","新北市三重區成功路73巷20號","121.489356666667","25.052065","6500200","三重區"
"241014","543-UM","2018/12/29 20:39:29","新北市三重區萬壽街7號","121.49941","25.0693516666667","6500200","三重區"
"241001","547-UM","2018/12/29 20:39:39","新北市三重區自強路三段76巷27弄8號","121.48517","25.0742366666667","6500200","三重區"
"241033","557-UM","2018/12/29 20:33:28","新北市三重區光復路二段87巷28號","121.474495","25.0580633333333","6500200","三重區"
"241019","KEA-2593","2018/12/29 20:39:24","新北市三重區大智街129-1號","121.491165","25.070365","6500200","三重區"
"241006","AAD-863","2018/12/29 20:39:30","新北市三重區車路頭街139巷14號","121.484306666667","25.076235","6500200","三重區"
"241026","743-BX","2018/12/29 20:39:35","新北市三重區和平街1號","121.500085","25.0622366666667","6500200","三重區"
"241023","887-TS","2018/12/29 20:39:27","新北市三重區頂崁街203巷27號","121.478203333333","25.0669066666667","6500200","三重區"
"241012","941-UM","2018/12/29 20:39:29","新北市三重區秀江街31號","121.502086666667","25.0728916666667","6500200","三重區"
"241029","942-UM","2018/12/29 20:39:38","新北市三重區集美街126巷36號","121.490403333333","25.0539033333333","6500200","三重區"
"235042","KEA-2878","2018/12/29 20:39:37","新北市中和區員山路36巷13號","121.484251666667","24.9906516666667","6500300","中和區"
"247012","KEA-2869","2018/12/29 20:39:36","新北市蘆洲區集賢路224巷72號","121.480601666667","25.0885166666667","6501400","蘆洲區"
"247006","KED-0682","2018/12/29 20:39:23","新北市蘆洲區和平路136-1號","121.467041666667","25.0806766666667","6501400","蘆洲區"
"235069","4980-A6","2018/12/29 20:39:32","新北市中和區員山路226巷3弄12號","121.481843333333","25.001085","6500300","中和區"
"247002","893-R6","2018/12/29 20:39:27","新北市蘆洲區永樂街74號","121.457143333333","25.0885533333333","6501400","蘆洲區"
"247016","546-UM","2018/12/29 20:39:34","新北市蘆洲區中山二路170號","121.470815","25.080805","6501400","蘆洲區"
"247024","500-BY","2018/12/29 20:39:29","新北市蘆洲區長樂路38-1號","121.46345","25.085595","6501400","蘆洲區"
"247020","057-VK","2018/12/29 20:39:36","新北市蘆洲區民族路331號","121.47378","25.0917583333333","6501400","蘆洲區"
"247014","053-VK","2018/12/29 20:39:32","新北市蘆洲區中山一路231號","121.473681666667","25.0806716666667","6501400","蘆洲區"
"247004","002-UY","2018/12/29 20:39:22","新北市蘆洲區長安街301號","121.458043333333","25.084945","6501400","蘆洲區"
"247022","001-UY","2018/12/29 20:39:25","新北市蘆洲區中正路185巷46弄36號","121.466648333333","25.0860133333333","6501400","蘆洲區"
"224011","420-VK","2018/12/29 20:39:34","新北市瑞芳區崙頂路1-6號","121.847225","25.10462","6501200","瑞芳區"
"222001","KEA-2212","2018/12/29 20:39:39","新北市深坑區北深路三段234號","121.600576666667","25.004025","6501800","深坑區"
"251002","012-UM","2018/12/29 20:39:30","新北市淡水區中正路38-1號","121.443703333333","25.1692783333333","6501000","淡水區"
"251013","KEA-2871","2018/12/29 20:39:37","新北市淡水區下圭柔山28巷19號","121.45806","25.2041133333333","6501000","淡水區"
"251016","179-VK","2018/12/29 20:39:34","新北市淡水區後洲子8-2號","121.4497","25.2240266666667","6501000","淡水區"
"251012","180-VK","2018/12/29 20:39:25","新北市淡水區興仁路108號","121.45166","25.2181433333333","6501000","淡水區"
"251015","182-VK","2018/12/29 20:39:27","新北市淡水區淡金路四段542巷17號","121.452778333333","25.22708","6501000","淡水區"
"251010","413-VK","2018/12/29 20:39:30","新北市淡水區沙崙路181巷15號","121.423883333333","25.1843966666667","6501000","淡水區"
"251007","442-VK","2018/12/29 20:39:25","新北市淡水區忠愛街3-1號","121.45787","25.171625","6501000","淡水區"
"251001","559-UM","2018/12/29 20:39:23","新北市淡水區淡金路218號","121.460495","25.1671966666667","6501000","淡水區"
"251006","561-UM","2018/12/29 20:39:41","新北市淡水區商工路194號","121.450883333333","25.188125","6501000","淡水區"
"251003","766-UM","2018/12/29 20:39:30","新北市淡水區新民街120巷17號","121.43829","25.17802","6501000","淡水區"
"247008","KED-0683","2018/12/29 20:39:29","新北市蘆洲區重陽街42-1號","121.48109","25.082385","6501400","蘆洲區"
"252001","KED-0821","2018/12/29 20:39:37","新北市三芝區中山路一段97號","121.501323333333","25.25682","6502100","三芝區"
"242036","AAC-296","2018/12/29 20:39:25","新北市新莊區建安街18號","121.428615","25.026285","6500500","新莊區"
"242058","986-R7","2018/12/29 20:39:31","新北市新莊區四維路95號","121.423378333333","25.0237116666667","6500500","新莊區"
"242056","751-BX","2018/12/29 20:39:25","新北市新莊區瓊泰路92號","121.443186666667","25.02936","6500500","新莊區"
"242027","705-TV","2018/12/29 20:39:29","新北市新莊區幸福路20號","121.45892","25.0494883333333","6500500","新莊區"
"242025","613-BX","2018/12/29 20:39:28","新北市三重區光復路二段198-1號","121.469885","25.0631983333333","6500500","新莊區"
"242029","612-BX","2018/12/29 20:39:40","新北市新莊區昌隆街54號","121.45476","25.05086","6500500","新莊區"
"242044","566-BX","2018/12/29 20:39:31","新北市新莊區龍安路63號","121.415535","25.0215866666667","6500500","新莊區"
"242048","497-BY","2018/12/29 20:39:32","新北市新莊區中正路695號","121.425753333333","25.0297966666667","6500500","新莊區"
"242021","442-UM","2018/12/29 20:39:40","新北市新莊區中華路一段73號","121.452195","25.0400483333333","6500500","新莊區"
"242053","441-UM","2018/12/29 20:39:31","新北市新莊區西盛街323巷5號","121.42841","25.0146683333333","6500500","新莊區"
"242002","440-UM","2018/12/29 20:39:34","新北市新莊區明中街43巷29號","121.457106666667","25.038425","6500500","新莊區"
"242039","415-TV","2018/12/29 20:39:33","新北市新莊區民安路461號","121.43464","25.0224833333333","6500500","新莊區"
"242009","413-TV","2018/12/29 20:39:36","新北市新莊區幸福路564巷2弄2號","121.454488333333","25.04951","6500500","新莊區"
"242046","400-BY","2018/12/29 20:39:40","新北市新莊區富國路22巷19號","121.418376666667","25.02582","6500500","新莊區"
"242023","362-BY","2018/12/29 20:39:33","新北市新莊區化成路150號","121.465446666667","25.0450216666667","6500500","新莊區"
"242061","353-BY","2018/12/29 20:39:37","新北市新莊區新樹路258巷3號","121.43211","25.0155916666667","6500500","新莊區"
"242034","135-UY","2018/12/29 20:39:26","新北市新莊區中正路342號","121.444353333333","25.0344483333333","6500500","新莊區"
"242051","172-VK","2018/12/29 20:39:37","新北市新莊區民安西路126號","121.426596666667","25.0183433333333","6500500","新莊區"
"242013","173-VK","2018/12/29 20:39:31","新北市新莊區中和街173號","121.447575","25.0504916666667","6500500","新莊區"
"242019","175-VK","2018/12/29 20:39:36","新北市新莊區長青街6-1號","121.457771666667","25.042745","6500500","新莊區"
"242017","KED-0687","2018/12/29 20:39:39","新北市新莊區中港三街73號","121.449771666667","25.0462783333333","6500500","新莊區"
"242007","346-TH","2018/12/29 20:39:21","新北市新莊區思源路271號","121.45975","25.04785","6500500","新莊區"
"242011","347-TH","2018/12/29 20:39:25","新北市新莊區中原路323號","121.446751666667","25.0538333333333","6500500","新莊區"
"242031","348-TH","2018/12/29 20:39:33","新北市新莊區三泰路56-6號","121.434396666667","25.037325","6500500","新莊區"
"242004","349-TH","2018/12/29 20:39:34","新北市三重區新北大道二段133號","121.466096666667","25.061375","6500500","新莊區"
"242015","351-TH","2018/12/29 20:39:43","新北市新莊區中和街32號","121.44825","25.0437716666667","6500500","新莊區"
"221008","489-VK","2018/12/29 20:39:35","新北市汐止區康寧街861巷3號","121.645298333333","25.0760983333333","6501100","汐止區"
"221036","130-UY","2018/12/29 20:39:25","新北市汐止區仁愛路326號","121.664216666667","25.0679533333333","6501100","汐止區"
"221015","131-UY","2018/12/29 20:39:31","新北市汐止區建成路21號","121.664363333333","25.07261","6501100","汐止區"
"221023","279-VK","2018/12/29 20:39:29","新北市汐止區康寧街861巷1號","121.64529","25.07595","6501100","汐止區"
"221027","281-BY","2018/12/29 20:39:38","新北市汐止區大同路二段563-1號","121.662866666667","25.06987","6501100","汐止區"
"221029","298-VK","2018/12/29 20:39:36","新北市汐止區新台五路一段79-11號","121.645616666667","25.0619933333333","6501100","汐止區"
"221021","299-VK","2018/12/29 20:39:26","新北市汐止區水源路一段282巷3號","121.654008333333","25.0581883333333","6501100","汐止區"
"221025","623-UM","2018/12/29 20:38:04","新北市汐止區水源路二段174號","121.657676666667","25.0538666666667","6501100","汐止區"
"221038","646-BX","2018/12/29 20:39:29","新北市汐止區汐萬路一段244-1號","121.651408333333","25.0733366666667","6501100","汐止區"
"221033","647-BX","2018/12/29 20:39:29","新北市汐止區合順街18巷8弄5號","121.620328333333","25.0419466666667","6501100","汐止區"
"221002","707-TV","2018/12/29 20:39:37","新北市汐止區福德二路169號","121.630821666667","25.065125","6501100","汐止區"
"221018","753-BX","2018/12/29 20:39:30","新北市汐止區茄苳路59號","121.666613333333","25.070725","6501100","汐止區"
"242042","281-VK","2018/12/29 20:39:31","新北市新莊區中正路694巷3弄20號","121.417793333333","25.0281883333333","6500500","新莊區"
"220064","AAC-253","2018/12/29 20:39:08","新北市五股區中直路17-4號","121.42266","25.1113633333333","6500100","板橋區"
