"lineid","car","time","location","longitude","latitude","cityid","cityname"
"251004","009-UM","2018/12/29 22:29:32","新北市淡水區民族路33號","121.46227","25.135825","6501000","淡水區"
"251008","181-VK","2018/12/29 22:29:27","新北市淡水區學府路104號","121.449925","25.1719216666667","6501000","淡水區"
"251010","413-VK","2018/12/29 22:29:30","新北市淡水區沙崙路200號","121.42469","25.1839016666667","6501000","淡水區"
"251007","442-VK","2018/12/29 22:29:25","新北市淡水區北新路180號","121.44946","25.1787616666667","6501000","淡水區"
"251011","650-BX","2018/12/29 22:29:41","新北市淡水區水碓街7號","121.443151666667","25.1771916666667","6501000","淡水區"
"247007","KED-0683","2018/12/29 22:25:49","新北市五股區中興路三段163號","121.449015","25.0808116666667","6501400","蘆洲區"
