"lineid","car","time","location","longitude","latitude","cityid","cityname"
"244004","410-SL","2018/11/23 09:35:35","新北市林口區粉寮路二段160巷28號","121.405151666667","25.090725","6501700","林口區"
"222005","289-BY","2018/11/23 09:37:42","新北市深坑區北深路一段20號","121.639683333333","25.0104483333333","6501800","深坑區"
"231007","189-VK","2018/11/23 09:37:34","新北市新店區新潭路三段215巷25號","121.508153333333","24.904005","6500600","新店區"
"231009","192-VK","2018/11/23 09:34:25","新北市新店區平廣路一段202巷2弄9號","121.516276666667","24.8889433333333","6500600","新店區"
"223008","406-TH","2018/11/23 09:35:48","新北市石碇區西勢坑5-1號","121.69143","24.99032","6501900","石碇區"
"227005","282-VK","2018/11/23 09:28:10","新北市雙溪區泰平里溪尾寮2-2號","121.819355","24.9642983333333","6502500","雙溪區"
"237001","159-UY","2018/11/23 09:37:36","新北市三峽區復興路465號","121.36189","24.93862","6500900","三峽區"
"220005","686-BX","2018/11/23 09:34:59","新北市土城區大安路101號","121.432231666667","24.96732","6500100","板橋區"
