"lineid","car","time","location","longitude","latitude","cityid","cityname"
"244004","410-SL","2018/11/23 09:35:35","新北市林口區粉寮路二段160巷28號","121.405151666667","25.090725","6501700","林口區"
"231007","189-VK","2018/11/23 09:47:34","新北市新店區新潭路三段215巷25號","121.50814","24.90406","6500600","新店區"
"231009","192-VK","2018/11/23 09:47:45","新北市新店區小坑一路21-1號","121.532786666667","24.9123333333333","6500600","新店區"
"227005","282-VK","2018/11/23 09:28:10","新北市雙溪區泰平里溪尾寮2-2號","121.819355","24.9642983333333","6502500","雙溪區"
"237001","159-UY","2018/11/23 09:47:36","新北市鶯歌區中正一路478號","121.365995","24.9567583333333","6500900","三峽區"
"220005","686-BX","2018/11/23 09:34:59","新北市土城區大安路101號","121.432231666667","24.96732","6500100","板橋區"
