"lineid","car","time","location","longitude","latitude","cityid","cityname"
"234044","148-BY","2018/11/23 12:48:10","新北市永和區秀朗路二段171號","121.525468333333","25.00163","6500400","永和區"
"234005","207-UY","2018/11/23 12:47:58","新北市永和區文化路188號","121.51122","25.01592","6500400","永和區"
"234078","298-R6","2018/11/23 12:47:58","新北市永和區永元路122號","121.52298","25.002745","6500400","永和區"
"234036","336-UY","2018/11/23 12:48:02","新北市永和區成功路一段77號","121.526941666667","25.0031766666667","6500400","永和區"
"234062","337-UY","2018/11/23 12:47:53","新北市永和區福和路1號","121.526048333333","25.0095283333333","6500400","永和區"
"234084","338-UY","2018/11/23 12:48:11","新北市永和區中正路77號","121.51511","24.99682","6500400","永和區"
"234068","552-UM","2018/11/23 12:48:10","新北市永和區竹林路117-1號","121.519953333333","25.01142","6500400","永和區"
"234015","745-BX","2018/11/23 12:48:08","新北市永和區永和路二段393號","121.515643333333","25.01664","6500400","永和區"
"234028","746-BX","2018/11/23 12:48:07","新北市永和區得和路321號","121.523428333333","24.9995766666667","6500400","永和區"
"234052","KEA-2590","2018/11/23 12:47:56","新北市永和區豫溪街189巷5號","121.52261","25.0103933333333","6500400","永和區"
"234012","KEA-2591","2018/11/23 12:48:02","新北市永和區保福路二段109巷35號","121.509415","25.013","6500400","永和區"
"234060","AAD-866","2018/11/23 12:48:05","新北市永和區福和路213號","121.519351666667","25.007595","6500400","永和區"
"234040","862-TW","2018/11/23 12:48:10","新北市永和區永貞路308號","121.511896666667","25.0048866666667","6500400","永和區"
"234048","863-TW","2018/11/23 12:48:07","新北市永和區福和路1號","121.526323333333","25.0099366666667","6500400","永和區"
"234025","9371-KE","2018/11/23 12:48:00","新北市永和區中正路651號","121.515115","25.010165","6500400","永和區"
"234010","9373-KE","2018/11/23 12:47:53","新北市永和區保福路二段165號","121.509025","25.015005","6500400","永和區"
"234076","969-R7","2018/11/23 12:48:07","新北市永和區中正路2巷5號","121.512823333333","24.9933883333333","6500400","永和區"
"234066","AAC-212","2018/11/23 12:47:59","新北市永和區中和路625號","121.513013333333","25.00494","6500400","永和區"
"234001","AAC-295","2018/11/23 12:48:08","新北市永和區中正路660-1號","121.516916666667","25.008655","6500400","永和區"
"231002","002-UM","2018/11/23 12:48:14","新北市新店區安華路28-1號","121.519721666667","24.960945","6500600","新店區"
"231005","106-UY","2018/11/23 12:48:06","新北市新店區安一路一段1-1號","121.519858333333","24.961125","6500600","新店區"
"231010","107-UY","2018/11/23 12:47:54","新北市新店區安一路一段1-1號","121.51933","24.9612566666667","6500600","新店區"
"231012","187-VK","2018/11/23 12:47:55","新北市新店區安一路一段1-1號","121.519691666667","24.9612816666667","6500600","新店區"
"231003","268-BY","2018/11/23 12:48:09","新北市新店區安一路一段1-1號","121.519676666667","24.96119","6500600","新店區"
"231016","AAD-862","2018/11/23 12:47:56","新北市新店區安華路30巷1號","121.519458333333","24.9597233333333","6500600","新店區"
"231036","512-UM","2018/11/23 12:48:07","新北市新店區安一路一段1-1號","121.519126666667","24.9612283333333","6500600","新店區"
"231013","513-UM","2018/11/23 12:48:07","新北市新店區安一路一段1-1號","121.519756666667","24.961315","6500600","新店區"
"231035","515-UM","2018/11/23 12:47:56","新北市新店區安一路一段1-1號","121.51956","24.9612516666667","6500600","新店區"
"231034","616-UM","2018/11/23 12:48:08","新北市新店區安華路28-1號","121.519606666667","24.9607216666667","6500600","新店區"
"235028","005-UY","2018/11/23 12:48:00","新北市中和區員山路36巷16-3號","121.485116666667","24.9914","6500300","中和區"
"235027","006-UY","2018/11/23 12:48:07","新北市中和區員山路36巷16-3號","121.485035","24.991355","6500300","中和區"
"235029","098-UM","2018/11/23 12:48:05","新北市中和區中正路589巷15號","121.485905","24.9935866666667","6500300","中和區"
"235002","185-VK","2018/11/23 12:48:08","新北市中和區員山路36巷16-3號","121.485095","24.9915466666667","6500300","中和區"
"235031","255-BX","2018/11/23 12:48:07","新北市中和區中山路二段479號","121.483123333333","25.00485","6500300","中和區"
"235035","783-BX","2018/11/23 12:48:08","新北市中和區員山路36巷16-3號","121.4851","24.9915183333333","6500300","中和區"
"235026","800-TS","2018/11/23 12:25:34","新北市中和區員山路36巷16-5號","121.484738333333","24.9920616666667","6500300","中和區"
"207002","749-BX","2018/11/23 12:48:04","新北市萬里區雙興里二坪路32號","121.644718333333","25.1687166666667","6502800","萬里區"
"207001","662-BX","2018/11/23 12:48:10","新北市萬里區萬里里獅頭路23號","121.69351","25.1781816666667","6502800","萬里區"
"221010","269-BY","2018/11/23 12:48:05","新北市汐止區康寧街451號","121.631268333333","25.06823","6501100","汐止區"
"221032","280-BY","2018/11/23 12:48:06","新北市汐止區康寧街901號","121.651548333333","25.0750116666667","6501100","汐止區"
"235025","KEA-2875","2018/11/23 12:29:15","新北市中和區員山路36巷16-2號","121.485268333333","24.9916816666667","6500300","中和區"
