"lineid","car","time","location","longitude","latitude","cityid","cityname"
"234044","148-BY","2018/11/23 13:48:09","新北市永和區永利路157號","121.524775","25.0034383333333","6500400","永和區"
"234005","207-UY","2018/11/23 13:47:58","新北市永和區永和路一段32號","121.513081666667","25.0049733333333","6500400","永和區"
"234078","298-R6","2018/11/23 13:47:59","新北市永和區永亨路100號","121.52311","25.0047516666667","6500400","永和區"
"234036","336-UY","2018/11/23 13:48:02","新北市永和區秀朗路二段281號","121.52618","24.9982616666667","6500400","永和區"
"234062","337-UY","2018/11/23 13:48:14","新北市永和區中正路412巷19號","121.518565","25.0020716666667","6500400","永和區"
"234084","338-UY","2018/11/23 13:48:11","新北市永和區中正路513號","121.516893333333","25.0071766666667","6500400","永和區"
"234068","552-UM","2018/11/23 13:48:10","新北市永和區竹林路69號","121.518465","25.0134216666667","6500400","永和區"
"234015","745-BX","2018/11/23 13:48:08","新北市永和區文化路39號","121.514576666667","25.0150183333333","6500400","永和區"
"234028","746-BX","2018/11/23 13:48:07","新北市永和區民生路47巷4號","121.523098333333","24.997775","6500400","永和區"
"234052","KEA-2590","2018/11/23 13:48:16","新北市永和區竹林路39巷28弄11號","121.519506666667","25.0144866666667","6500400","永和區"
"234012","KEA-2591","2018/11/23 13:48:02","新北市永和區保生路55號","121.50472","25.010645","6500400","永和區"
"234060","AAD-866","2018/11/23 13:48:05","新北市永和區中正路87號","121.515271666667","24.9971133333333","6500400","永和區"
"234040","862-TW","2018/11/23 13:48:10","新北市永和區中和路421巷3弄21號","121.50855","25.0002216666667","6500400","永和區"
"234048","863-TW","2018/11/23 13:48:09","新北市永和區保福路二段133巷64弄11號","121.508263333333","25.0141433333333","6500400","永和區"
"234022","9372-KE","2018/11/23 13:48:14","新北市永和區豫溪街48號","121.515758333333","25.009875","6500400","永和區"
"234025","9371-KE","2018/11/23 13:48:00","新北市永和區自由街54號","121.513701666667","25.0059916666667","6500400","永和區"
"234010","9373-KE","2018/11/23 13:48:13","新北市永和區仁愛路352巷92弄2號","121.501298333333","25.0079816666667","6500400","永和區"
"248019","225-UY","2018/11/23 13:48:11","新北市五股區凌雲路三段田埔巷12號","121.435868333333","25.121515","6501500","五股區"
"234076","969-R7","2018/11/23 13:48:07","新北市永和區民權路24號","121.520195","24.9992383333333","6500400","永和區"
"234072","AAC-211","2018/11/23 13:48:10","新北市永和區豫溪街205號","121.523578333333","25.00962","6500400","永和區"
"234066","AAC-212","2018/11/23 13:48:10","新北市永和區保平路236巷24弄1號","121.508076666667","25.0068566666667","6500400","永和區"
"234001","AAC-295","2018/11/23 13:48:08","新北市永和區永和路一段85號","121.513348333333","25.0074416666667","6500400","永和區"
"244004","410-SL","2018/11/23 13:48:15","新北市林口區南勢里10鄰34-2號","121.352268333333","25.0704433333333","6501700","林口區"
"231002","002-UM","2018/11/23 13:48:14","新北市新店區溪園路247號","121.525226666667","24.98314","6500600","新店區"
"231024","0293-UT","2018/11/23 13:48:07","新北市新店區北新路一段271巷37號","121.539701666667","24.9672766666667","6500600","新店區"
"231028","046-UY","2018/11/23 13:48:06","新北市新店區安和路二段148號","121.519746666667","24.9729766666667","6500600","新店區"
"231001","047-UY","2018/11/23 13:47:59","新北市新店區三民路159巷2號","121.534141666667","24.97412","6500600","新店區"
"231005","106-UY","2018/11/23 13:48:06","新北市新店區寶中路106號","121.549873333333","24.9790283333333","6500600","新店區"
"231010","107-UY","2018/11/23 13:48:14","新北市新店區三民路60巷4號","121.535495","24.9725166666667","6500600","新店區"
"231022","108-UY","2018/11/23 13:48:15","新北市新店區永興路95-3號","121.5445","24.9325533333333","6500600","新店區"
"231012","187-VK","2018/11/23 13:48:15","新北市新店區德正街27巷29弄131號","121.545743333333","24.9731733333333","6500600","新店區"
"231023","KEA-2219","2018/11/23 13:48:14","新北市新店區國校路47號","121.537931666667","24.954895","6500600","新店區"
"231026","256-BX","2018/11/23 13:48:12","新北市新店區三民路84巷12號","121.534898333333","24.9731316666667","6500600","新店區"
"231003","268-BY","2018/11/23 13:48:09","新北市新店區中興路一段203號","121.543628333333","24.965855","6500600","新店區"
"231018","278-BY","2018/11/23 13:48:04","新北市新店區百忍街50巷5號","121.5336","24.9764","6500600","新店區"
"231016","AAD-862","2018/11/23 13:47:56","新北市新店區北宜路二段82-7號","121.55414","24.9534466666667","6500600","新店區"
"231038","3712-VJ","2018/11/23 13:48:02","新北市新店區安華路1-1號","121.519525","24.9602083333333","6500600","新店區"
"231027","3713-VJ","2018/11/23 13:48:10","新北市新店區北宜路一段170號","121.54059","24.9529866666667","6500600","新店區"
"231037","4716-K9","2018/11/23 13:48:11","新北市新店區安康路三段269號","121.486401666667","24.951725","6500600","新店區"
"231025","4715-K9","2018/11/23 13:48:06","新北市新店區中正路444號","121.534083333333","24.978445","6500600","新店區"
"231036","512-UM","2018/11/23 13:48:07","新北市新店區安祥路141號","121.474511666667","24.9559116666667","6500600","新店區"
"231013","513-UM","2018/11/23 13:48:07","新北市新店區二十張路25巷16號","121.539245","24.98201","6500600","新店區"
"231035","515-UM","2018/11/23 13:48:16","新北市新店區安忠路73號","121.511243333333","24.95738","6500600","新店區"
"231034","616-UM","2018/11/23 13:48:08","新北市新店區達觀路14巷3號","121.503265","24.941715","6500600","新店區"
"231006","617-UM","2018/11/23 13:48:12","新北市新店區北宜路一段260號","121.545771666667","24.9527833333333","6500600","新店區"
"231030","619-UM","2018/11/23 13:48:12","新北市新店區安康路一段113號","121.528553333333","24.9617083333333","6500600","新店區"
"231032","720-UM","2018/11/23 13:48:06","新北市新店區莒光路44巷21弄11-3號","121.518511666667","24.9521866666667","6500600","新店區"
"231029","897-TW","2018/11/23 13:47:56","新北市新店區安康路二段200號","121.510505","24.9596683333333","6500600","新店區"
"231004","899-TW","2018/11/23 13:48:09","新北市新店區寶橋路98號","121.547205","24.97566","6500600","新店區"
"235030","003-UY","2018/11/23 13:47:58","新北市中和區水源路31號","121.504113333333","25.0035866666667","6500300","中和區"
"235028","005-UY","2018/11/23 13:39:24","新北市中和區連城路89巷9-2號","121.49761","24.9987833333333","6500300","中和區"
"235027","006-UY","2018/11/23 13:48:07","新北市中和區連城路319巷8號","121.489151666667","24.995365","6500300","中和區"
"235020","096-UM","2018/11/23 13:47:54","新北市中和區立德街329號","121.481533333333","25.0104333333333","6500300","中和區"
"235003","097-UM","2018/11/23 13:48:01","新北市中和區大勇街25巷1號","121.517215","24.9931916666667","6500300","中和區"
"235029","098-UM","2018/11/23 13:48:05","新北市中和區勝利路35巷9弄20號","121.499843333333","25.0073783333333","6500300","中和區"
"235022","151-BY","2018/11/23 13:48:16","新北市中和區連城路532號","121.47573","24.9915583333333","6500300","中和區"
"235019","183-VK","2018/11/23 13:48:02","新北市中和區德光路70號","121.469373333333","25.0038183333333","6500300","中和區"
"235002","185-VK","2018/11/23 13:48:08","新北市中和區大勇街41號","121.517673333333","24.9944983333333","6500300","中和區"
"235013","186-VK","2018/11/23 13:47:56","新北市中和區景安路177巷23號","121.506411666667","24.9944666666667","6500300","中和區"
"235031","255-BX","2018/11/23 13:48:07","新北市中和區新生街186巷1弄28號","121.483376666667","24.9985266666667","6500300","中和區"
"235008","293-VK","2018/11/23 13:48:08","新北市中和區中興街113號","121.499923333333","24.9921283333333","6500300","中和區"
"235036","301-VK","2018/11/23 13:47:56","新北市中和區連城路4號","121.4992","25.0024133333333","6500300","中和區"
"235007","352-BY","2018/11/23 13:48:02","新北市中和區成功路62號","121.52598","24.992215","6500300","中和區"
"235006","KEA-2878","2018/11/23 13:47:56","新北市中和區秀朗路三段70巷42號","121.525291666667","24.99445","6500300","中和區"
"235014","4979-A6","2018/11/23 13:47:58","新北市中和區忠孝街62巷46號","121.513166666667","24.9839216666667","6500300","中和區"
"235033","4980-A6","2018/11/23 13:47:58","新北市中和區泰和街23號","121.499423333333","25.000185","6500300","中和區"
"235034","558-UM","2018/11/23 13:48:13","新北市中和區南山路15號","121.502046666667","24.9992083333333","6500300","中和區"
"235009","565-BX","2018/11/23 13:47:55","新北市中和區興南路一段92號","121.509825","24.9891866666667","6500300","中和區"
"235018","640-BX","2018/11/23 13:48:05","新北市中和區民享街35巷3號","121.474468333333","25.0039583333333","6500300","中和區"
"235024","647-TV","2018/11/23 13:47:55","新北市中和區中山路三段153號","121.473583333333","25.006215","6500300","中和區"
"235011","732-UM","2018/11/23 13:48:00","新北市中和區興南路二段34巷55弄2號","121.504841666667","24.9860133333333","6500300","中和區"
"235010","733-UM","2018/11/23 13:48:05","新北市中和區仁愛街36巷44號","121.511355","24.9862616666667","6500300","中和區"
"235035","783-BX","2018/11/23 13:48:08","新北市中和區立德街26巷17弄3號","121.489925","25.00772","6500300","中和區"
"235026","800-TS","2018/11/23 13:48:11","新北市中和區中山路二段328-3號","121.49501","25.00232","6500300","中和區"
"235021","801-TS","2018/11/23 13:48:16","新北市中和區民利街14巷5弄20號","121.479815","24.9992783333333","6500300","中和區"
"235005","802-TS","2018/11/23 13:48:11","新北市中和區永貞路249巷1號","121.51281","25.003805","6500300","中和區"
"235016","805-TS","2018/11/23 13:47:57","新北市中和區興南路二段399巷58號","121.49957","24.978935","6500300","中和區"
"235012","896-TW","2018/11/23 13:48:04","新北市中和區南山路192號","121.50586","24.9905483333333","6500300","中和區"
"235017","900-TW","2018/11/23 13:48:12","新北市中和區華福街18號","121.465783333333","24.9966616666667","6500300","中和區"
"235015","157-BY","2018/11/23 13:47:57","新北市中和區忠孝街106巷52號","121.51366","24.98419","6500300","中和區"
"235001","AAC-213","2018/11/23 13:48:06","新北市中和區秀朗路三段175巷10號","121.524986666667","24.9912966666667","6500300","中和區"
"235023","AAC-215","2018/11/23 13:48:14","新北市中和區圓通路385號","121.490211666667","24.9892066666667","6500300","中和區"
"220016","013-TV","2018/11/23 13:47:59","新北市板橋區民生路二段89-6號","121.470893333333","25.019175","6500100","板橋區"
"220013","072-UY","2018/11/23 13:48:05","新北市板橋區漢生東路280號","121.47038","25.00996","6500100","板橋區"
"220034","073-UY","2018/11/23 13:48:02","新北市板橋區大智街71巷7弄1號","121.453165","25.014685","6500100","板橋區"
"220105","075-UY","2018/11/23 13:48:03","新北市板橋區民生路二段120號","121.470475","25.01959","6500100","板橋區"
"220017","AAD-861","2018/11/23 13:48:04","新北市板橋區南雅南路二段120-2號","121.452398333333","24.999795","6500100","板橋區"
"247019","057-VK","2018/11/23 13:47:55","新北市蘆洲區民族路422巷48弄22號","121.474586666667","25.09327","6501400","蘆洲區"
"247009","056-VK","2018/11/23 13:48:06","新北市蘆洲區中正路520巷26號","121.466635","25.0991716666667","6501400","蘆洲區"
"247007","053-VK","2018/11/23 13:48:09","新北市蘆洲區重陽一街21號","121.480903333333","25.0818133333333","6501400","蘆洲區"
"247021","001-UY","2018/11/23 13:48:14","新北市蘆洲區三民路580-6號","121.46088","25.0941966666667","6501400","蘆洲區"
"207002","749-BX","2018/11/23 13:48:04","新北市萬里區崁腳里崁腳路166號","121.645058333333","25.1557583333333","6502800","萬里區"
"207001","662-BX","2018/11/23 13:48:10","新北市萬里區磺潭里公館崙28號","121.633265","25.21198","6502800","萬里區"
"236067","105-UM","2018/11/23 13:47:58","新北市土城區城林路6巷80號","121.438663333333","24.9796883333333","6501300","土城區"
"236040","KED-0685","2018/11/23 13:48:10","新北市土城區城林路6巷80號","121.438508333333","24.9797433333333","6501300","土城區"
"236077","166-UM","2018/11/23 13:48:01","新北市土城區中華路二段56號","121.439036666667","24.9772483333333","6501300","土城區"
"236029","253-BX","2018/11/23 13:48:04","新北市土城區城林路6巷80號","121.438526666667","24.9797966666667","6501300","土城區"
"236013","270-VK","2018/11/23 13:47:59","新北市土城區城林路6巷80號","121.438633333333","24.979785","6501300","土城區"
"236032","271-VK","2018/11/23 13:48:12","新北市土城區城林路6巷80號","121.438496666667","24.97978","6501300","土城區"
"236016","752-BX","2018/11/23 13:47:57","新北市土城區城林路6巷80號","121.438716666667","24.9797733333333","6501300","土城區"
"236057","912-UM","2018/11/23 13:48:09","新北市土城區中華路二段2號","121.439435","24.97949","6501300","土城區"
"236045","913-UM","2018/11/23 13:47:59","新北市土城區城林路6巷80號","121.43848","24.9797116666667","6501300","土城區"
"236060","915-UM","2018/11/23 13:48:09","新北市土城區城林路6巷80號","121.438471666667","24.979825","6501300","土城區"
"236054","AAC-216","2018/11/23 13:47:54","新北市土城區城林路6巷80號","121.438621666667","24.97967","6501300","土城區"
"242050","172-VK","2018/11/23 13:48:13","新北市新莊區中正路384號","121.442316666667","25.0344166666667","6500500","新莊區"
"221010","269-BY","2018/11/23 13:48:05","新北市汐止區長青路210巷190號","121.616265","25.1130716666667","6501100","汐止區"
"221032","280-BY","2018/11/23 13:48:06","新北市汐止區仁愛路159號","121.664036666667","25.065035","6501100","汐止區"
"221033","647-BX","2018/11/23 13:48:12","新北市汐止區中興路110巷3號","121.633106666667","25.0638916666667","6501100","汐止區"
"220027","145-BY","2018/11/23 13:48:13","新北市板橋區民權路200號","121.459206666667","25.013915","6500100","板橋區"
"220028","200-UY","2018/11/23 13:48:10","新北市板橋區大觀路二段265巷130弄12號","121.441838333333","24.9965133333333","6500100","板橋區"
"220004","276-BY","2018/11/23 13:48:06","新北市板橋區四川路二段23-3號","121.454581666667","24.9956133333333","6500100","板橋區"
"220020","277-BY","2018/11/23 13:48:11","新北市板橋區大觀路三段36巷48號","121.4345","24.9969683333333","6500100","板橋區"
"220012","282-UM","2018/11/23 13:48:04","新北市板橋區民生路二段36-1號","121.47212","25.0167266666667","6500100","板橋區"
"220019","283-VK","2018/11/23 13:48:16","新北市板橋區忠孝路176巷7號","121.46482","25.0018566666667","6500100","板橋區"
"220043","285-UM","2018/11/23 13:48:01","新北市板橋區民生路二段161巷1號","121.470041666667","25.0198566666667","6500100","板橋區"
"220031","286-VK","2018/11/23 13:48:03","新北市板橋區僑中二街98號","121.44617","25.0085483333333","6500100","板橋區"
"220029","287-VK","2018/11/23 13:48:13","新北市板橋區光華街15巷1號","121.454028333333","25.0117833333333","6500100","板橋區"
"220039","288-VK","2018/11/23 13:48:04","新北市板橋區民生路二段161巷9號","121.470313333333","25.01944","6500100","板橋區"
"220061","295-UM","2018/11/23 13:48:06","新北市板橋區民生路二段121號","121.470786666667","25.0185433333333","6500100","板橋區"
"220032","296-UM","2018/11/23 13:48:13","新北市板橋區大觀路二段148巷1-2號","121.441691666667","24.99926","6500100","板橋區"
"220001","299-UM","2018/11/23 13:47:54","新北市板橋區民生路二段123號","121.470615","25.0185366666667","6500100","板橋區"
"220023","303-R5","2018/11/23 13:47:59","新北市板橋區南雅東路106號","121.453468333333","25.008105","6500100","板橋區"
"220010","305-R5","2018/11/23 13:47:56","新北市板橋區民生路二段56-4號","121.471885","25.01714","6500100","板橋區"
"220104","560-BX","2018/11/23 13:48:13","新北市板橋區中正路325巷3弄1號","121.453673333333","25.0191883333333","6500100","板橋區"
"220052","561-BX","2018/11/23 13:48:02","新北市板橋區民生路二段161巷1號","121.469965","25.0198333333333","6500100","板橋區"
"220040","637-BX","2018/11/23 13:48:06","新北市板橋區民生路二段161巷5號","121.47027","25.0198066666667","6500100","板橋區"
"220005","686-BX","2018/11/23 13:48:12","新北市板橋區華東街270號","121.452616666667","25.0016933333333","6500100","板橋區"
"220025","687-BX","2018/11/23 13:47:57","新北市板橋區金門街65號","121.433206666667","24.9927883333333","6500100","板橋區"
"220042","689-BX","2018/11/23 13:48:10","新北市板橋區民生路二段120號","121.470743333333","25.0198866666667","6500100","板橋區"
"220002","741-BX","2018/11/23 13:48:01","新北市板橋區館前西路53號","121.457731666667","25.00661","6500100","板橋區"
"220003","827-TW","2018/11/23 13:48:12","新北市板橋區南雅南路二段4巷2號","121.4542","25.00384","6500100","板橋區"
"220014","829-TW","2018/11/23 13:48:00","新北市板橋區民生路二段56-2號","121.471955","25.0169833333333","6500100","板橋區"
"220051","830-TW","2018/11/23 13:30:42","新北市板橋區民生路二段188號","121.470408333333","25.020635","6500100","板橋區"
"220022","895-R6","2018/11/23 13:48:12","新北市板橋區府中路30號","121.458915","25.00946","6500100","板橋區"
"220021","985-R7","2018/11/23 13:48:00","新北市板橋區南門街6號","121.457441666667","25.0092066666667","6500100","板橋區"
"220030","AAC-253","2018/11/23 13:48:04","新北市板橋區篤行路三段玉平巷68弄3號","121.427923333333","24.9860466666667","6500100","板橋區"
"235032","KEA-2873","2018/11/23 13:47:57","新北市中和區圓通路162巷2弄3號","121.497003333333","24.9954866666667","6500300","中和區"
"235025","KEA-2875","2018/11/23 13:48:15","新北市中和區民享街49巷1號","121.474403333333","25.0028583333333","6500300","中和區"
