"lineid","car","time","location","longitude","latitude","cityid","cityname"
"234044","148-BY","2018/11/23 13:57:29","新北市永和區成功路一段16巷4號","121.5267","25.0055866666667","6500400","永和區"
"234005","207-UY","2018/11/23 13:57:38","新北市永和區中和路427號","121.509306666667","25.0009","6500400","永和區"
"234078","298-R6","2018/11/23 13:57:39","新北市永和區永利路77號","121.521373333333","25.003765","6500400","永和區"
"234036","336-UY","2018/11/23 13:57:42","新北市永和區成功路二段118號","121.526555","24.99783","6500400","永和區"
"234062","337-UY","2018/11/23 13:57:33","新北市永和區中正路378號","121.517818333333","25.0011966666667","6500400","永和區"
"234084","338-UY","2018/11/23 13:57:27","新北市永和區福和路110號","121.522171666667","25.0079016666667","6500400","永和區"
"234068","552-UM","2018/11/23 13:57:30","新北市永和區國光路6號","121.51966","25.0086216666667","6500400","永和區"
"234015","745-BX","2018/11/23 13:57:28","新北市永和區文化路72號","121.514236666667","25.01513","6500400","永和區"
"234028","746-BX","2018/11/23 13:57:30","新北市永和區四維街67號","121.525705","24.9979016666667","6500400","永和區"
"234052","KEA-2590","2018/11/23 13:57:46","新北市永和區竹林路39巷33弄1號","121.519933333333","25.01518","6500400","永和區"
"234012","KEA-2591","2018/11/23 13:57:42","新北市永和區保生路55號","121.504673333333","25.0106066666667","6500400","永和區"
"234060","AAD-866","2018/11/23 13:57:45","新北市永和區中正路283巷57號","121.515546666667","24.99892","6500400","永和區"
"234040","862-TW","2018/11/23 13:57:42","新北市永和區中和路389巷7-1號","121.50809","25.0006266666667","6500400","永和區"
"234048","863-TW","2018/11/23 13:57:47","新北市永和區保安路260號","121.506166666667","25.012275","6500400","永和區"
"234022","9372-KE","2018/11/23 13:57:34","新北市永和區永和路二段216號","121.51565","25.0141633333333","6500400","永和區"
"234025","9371-KE","2018/11/23 13:57:40","新北市永和區自由街56號","121.513705","25.005975","6500400","永和區"
"234010","9373-KE","2018/11/23 13:57:33","新北市永和區仁愛路352巷112弄3號","121.500668333333","25.00841","6500400","永和區"
"248019","225-UY","2018/11/23 13:57:31","新北市五股區凌雲路三段45號","121.427846666667","25.1191733333333","6501500","五股區"
"234076","969-R7","2018/11/23 13:57:27","新北市永和區民權路80號","121.519871666667","24.997755","6500400","永和區"
"234072","AAC-211","2018/11/23 13:57:43","新北市永和區豫溪街185號","121.522491666667","25.0103516666667","6500400","永和區"
"234066","AAC-212","2018/11/23 13:57:39","新北市永和區永貞路358號","121.510265","25.0065966666667","6500400","永和區"
"234001","AAC-295","2018/11/23 13:57:28","新北市永和區福和路352號","121.514773333333","25.0074183333333","6500400","永和區"
"244004","410-SL","2018/11/23 13:57:35","新北市林口區信義路378-3號","121.37443","25.082845","6501700","林口區"
"231002","002-UM","2018/11/23 13:57:34","新北市新店區中正路695巷2號","121.533956666667","24.9906833333333","6500600","新店區"
"231024","0293-UT","2018/11/23 13:57:46","新北市新店區北新路一段271巷24號","121.540151666667","24.96721","6500600","新店區"
"231028","046-UY","2018/11/23 13:57:26","新北市新店區安業街1號","121.516698333333","24.9789166666667","6500600","新店區"
"231001","047-UY","2018/11/23 13:57:39","新北市新店區三民路43號","121.53714","24.9708316666667","6500600","新店區"
"231005","106-UY","2018/11/23 13:57:26","新北市新店區中興路三段188號","121.544013333333","24.9815666666667","6500600","新店區"
"231010","107-UY","2018/11/23 13:57:34","新北市新店區環河路116號","121.53684","24.9671133333333","6500600","新店區"
"231022","108-UY","2018/11/23 13:57:35","新北市新店區自強路23巷1號","121.54613","24.9266366666667","6500600","新店區"
"231012","187-VK","2018/11/23 13:57:35","新北市新店區中興路二段57巷12號","121.54592","24.9707383333333","6500600","新店區"
"231023","KEA-2219","2018/11/23 13:57:34","新北市新店區文中路45號","121.53956","24.9565866666667","6500600","新店區"
"231026","256-BX","2018/11/23 13:57:32","新北市新店區環河路42-1號","121.53691","24.9622733333333","6500600","新店區"
"231003","268-BY","2018/11/23 13:57:28","新北市新店區中興路一段111號","121.541118333333","24.96268","6500600","新店區"
"231018","278-BY","2018/11/23 13:57:44","新北市新店區中央路129號","121.530443333333","24.9740133333333","6500600","新店區"
"231016","AAD-862","2018/11/23 13:57:36","新北市新店區郵政路3巷5號","121.55731","24.9519733333333","6500600","新店區"
"231038","3712-VJ","2018/11/23 13:57:42","新北市新店區安華路30巷1號","121.51958","24.9592666666667","6500600","新店區"
"231027","3713-VJ","2018/11/23 13:57:30","新北市新店區北宜路一段36號","121.53832","24.9567133333333","6500600","新店區"
"231037","4716-K9","2018/11/23 13:57:11","新北市新店區安康路三段355巷7號","121.484675","24.9505716666667","6500600","新店區"
"231025","4715-K9","2018/11/23 13:57:26","新北市新店區中正路328巷12號","121.537336666667","24.9754116666667","6500600","新店區"
"231036","512-UM","2018/11/23 13:57:27","新北市新店區安祥路108巷35號","121.475108333333","24.9571216666667","6500600","新店區"
"231013","513-UM","2018/11/23 13:57:46","新北市新店區明德路66號","121.541595","24.9795916666667","6500600","新店區"
"231035","515-UM","2018/11/23 13:57:36","新北市新店區安康路二段85巷10號","121.513546666667","24.96251","6500600","新店區"
"231034","616-UM","2018/11/23 13:57:28","新北市新店區達觀路27-1號","121.503975","24.9387483333333","6500600","新店區"
"231006","617-UM","2018/11/23 13:57:32","新北市新店區北宜路二段209號","121.553173333333","24.9533833333333","6500600","新店區"
"231030","619-UM","2018/11/23 13:57:32","新北市新店區安康路一段222-2號","121.523103333333","24.963665","6500600","新店區"
"231032","720-UM","2018/11/23 13:57:34","新北市新店區莒光路44巷21弄11-6號","121.519243333333","24.9521416666667","6500600","新店區"
"231029","897-TW","2018/11/23 13:57:36","新北市新店區安康路二段68號","121.51467","24.9636533333333","6500600","新店區"
"231004","899-TW","2018/11/23 13:57:32","新北市新店區北新路二段106號","121.543026666667","24.973925","6500600","新店區"
"235030","003-UY","2018/11/23 13:57:38","新北市中和區中山路二段131巷5弄5號","121.502843333333","25.0029733333333","6500300","中和區"
"235028","005-UY","2018/11/23 13:39:24","新北市中和區連城路89巷9-2號","121.49761","24.9987833333333","6500300","中和區"
"235027","006-UY","2018/11/23 13:57:47","新北市中和區中正路578號","121.48624","24.9947483333333","6500300","中和區"
"235020","096-UM","2018/11/23 13:57:34","新北市中和區中正路1230號","121.479231666667","25.01102","6500300","中和區"
"235003","097-UM","2018/11/23 13:57:41","新北市中和區秀朗路三段177號","121.524278333333","24.9911166666667","6500300","中和區"
"235029","098-UM","2018/11/23 13:57:25","新北市中和區莊敬路33號","121.500858333333","25.00491","6500300","中和區"
"235022","151-BY","2018/11/23 13:57:36","新北市中和區員山路143巷30號","121.479775","24.9957216666667","6500300","中和區"
"235019","183-VK","2018/11/23 13:57:42","新北市中和區中山路三段218號","121.471261666667","25.0065883333333","6500300","中和區"
"235002","185-VK","2018/11/23 13:57:28","新北市中和區立人街24-4號","121.518883333333","24.9942166666667","6500300","中和區"
"235013","186-VK","2018/11/23 13:57:36","新北市中和區景安路130號","121.505198333333","24.99454","6500300","中和區"
"235031","255-BX","2018/11/23 13:57:27","新北市中和區新生街264號","121.483515","24.9971966666667","6500300","中和區"
"235008","293-VK","2018/11/23 13:57:28","新北市中和區中興街161巷1弄22號","121.500283333333","24.9914","6500300","中和區"
"235036","301-VK","2018/11/23 13:57:36","新北市永和區中山路一段330號","121.506216666667","25.0064733333333","6500300","中和區"
"235007","352-BY","2018/11/23 13:57:42","新北市中和區成功路36號","121.526053333333","24.9931466666667","6500300","中和區"
"235006","KEA-2878","2018/11/23 13:57:36","新北市中和區秀朗路三段22巷22號","121.525365","24.9961583333333","6500300","中和區"
"235014","4979-A6","2018/11/23 13:57:38","新北市中和區華新街50巷2號","121.507755","24.984105","6500300","中和區"
"235033","4980-A6","2018/11/23 13:57:38","新北市中和區景平路610巷3號","121.501033333333","24.9969116666667","6500300","中和區"
"235034","558-UM","2018/11/23 13:57:33","新北市中和區安和路179-1號","121.50609","24.9979333333333","6500300","中和區"
"235009","565-BX","2018/11/23 13:57:35","新北市中和區景新街467巷20弄11號","121.514598333333","24.9875066666667","6500300","中和區"
"235018","640-BX","2018/11/23 13:57:26","新北市中和區國光街8巷1號","121.471598333333","25.0000616666667","6500300","中和區"
"235024","647-TV","2018/11/23 13:57:35","新北市中和區民治街23巷2號","121.475366666667","25.0020483333333","6500300","中和區"
"235011","732-UM","2018/11/23 13:57:40","新北市中和區興南路二段74巷1號","121.505253333333","24.9851283333333","6500300","中和區"
"235010","733-UM","2018/11/23 13:57:45","新北市中和區興南路二段3巷7號","121.50818","24.9863","6500300","中和區"
"235035","783-BX","2018/11/23 13:57:28","新北市中和區立德街98巷46號","121.487803333333","25.009085","6500300","中和區"
"235026","800-TS","2018/11/23 13:57:31","新北市中和區中山路二段340巷57號","121.493003333333","25.0044366666667","6500300","中和區"
"235021","801-TS","2018/11/23 13:57:38","新北市中和區民利街58巷5弄11號","121.478161666667","24.9991516666667","6500300","中和區"
"235005","802-TS","2018/11/23 13:57:31","新北市中和區中安街16號","121.513488333333","25.0032216666667","6500300","中和區"
"235016","805-TS","2018/11/23 13:57:37","新北市中和區興南路二段252號","121.503001666667","24.9817466666667","6500300","中和區"
"235012","896-TW","2018/11/23 13:57:44","新北市中和區華新街32號","121.50782","24.9845083333333","6500300","中和區"
"235017","900-TW","2018/11/23 13:57:31","新北市中和區壽德街22-1號","121.466176666667","24.9946533333333","6500300","中和區"
"235015","157-BY","2018/11/23 13:57:37","新北市中和區忠孝街31巷33弄3號","121.509788333333","24.9845366666667","6500300","中和區"
"235001","AAC-213","2018/11/23 13:57:46","新北市中和區自立路99巷20號","121.523123333333","24.9947066666667","6500300","中和區"
"235023","AAC-215","2018/11/23 13:57:33","新北市中和區圓通路367巷18-5號","121.491885","24.9886166666667","6500300","中和區"
"220016","013-TV","2018/11/23 13:57:39","新北市板橋區中山路二段465巷96號","121.481133333333","25.0227733333333","6500100","板橋區"
"220013","072-UY","2018/11/23 13:57:43","新北市板橋區漢生東路324號","121.471801666667","25.0079566666667","6500100","板橋區"
"220034","073-UY","2018/11/23 13:57:42","新北市板橋區民權路306號","121.457081666667","25.0161283333333","6500100","板橋區"
"220105","075-UY","2018/11/23 13:57:43","新北市板橋區莊敬路133號","121.47187","25.0252616666667","6500100","板橋區"
"220017","AAD-861","2018/11/23 13:57:44","新北市板橋區華興街32號","121.458806666667","25.0048283333333","6500100","板橋區"
"247015","546-UM","2018/11/23 13:57:43","新北市蘆洲區光華路44號","121.468811666667","25.0830516666667","6501400","蘆洲區"
"247013","339-TH","2018/11/23 13:57:38","新北市蘆洲區中正路144號","121.468971666667","25.0853133333333","6501400","蘆洲區"
"247005","337-TH","2018/11/23 13:57:41","新北市五股區四維路185巷6-1號","121.467073333333","25.0768366666667","6501400","蘆洲區"
"247019","057-VK","2018/11/23 13:57:35","新北市蘆洲區民族路422巷11號","121.473948333333","25.0924283333333","6501400","蘆洲區"
"247009","056-VK","2018/11/23 13:57:26","新北市蘆洲區集賢路224巷27號","121.481803333333","25.087055","6501400","蘆洲區"
"247007","053-VK","2018/11/23 13:57:29","新北市蘆洲區重陽一街3號","121.481711666667","25.081455","6501400","蘆洲區"
"247017","007-UY","2018/11/23 13:57:43","新北市蘆洲區民族路255巷8號","121.476251666667","25.08994","6501400","蘆洲區"
"247003","002-UY","2018/11/23 13:57:44","新北市蘆洲區長榮路19-1號","121.463433333333","25.08236","6501400","蘆洲區"
"247021","001-UY","2018/11/23 13:57:33","新北市蘆洲區中正路263巷2號","121.467338333333","25.0873866666667","6501400","蘆洲區"
"207002","749-BX","2018/11/23 13:57:24","新北市萬里區溪底里富士坪路19號","121.626296666667","25.1488483333333","6502800","萬里區"
"207001","662-BX","2018/11/23 13:57:30","新北市萬里區磺潭里公館崙47-1號","121.62983","25.2049266666667","6502800","萬里區"
"236067","105-UM","2018/11/23 13:57:38","新北市土城區和平路79號","121.444906666667","24.9711366666667","6501300","土城區"
"236040","KED-0685","2018/11/23 13:57:30","新北市土城區城林路6巷80號","121.438523333333","24.9797516666667","6501300","土城區"
"236077","166-UM","2018/11/23 13:57:41","新北市土城區永寧路35號","121.4301","24.9621166666667","6501300","土城區"
"236029","253-BX","2018/11/23 13:57:44","新北市土城區城林路6巷80號","121.438551666667","24.9797733333333","6501300","土城區"
"236024","269-VK","2018/11/23 13:57:41","新北市土城區承天路18號","121.43927","24.9635933333333","6501300","土城區"
"236013","270-VK","2018/11/23 13:57:39","新北市土城區城林路6巷80號","121.438628333333","24.9797766666667","6501300","土城區"
"236032","271-VK","2018/11/23 13:57:32","新北市土城區城林路6巷80號","121.438451666667","24.9797883333333","6501300","土城區"
"236016","752-BX","2018/11/23 13:57:37","新北市土城區城林路6巷80號","121.438765","24.9797216666667","6501300","土城區"
"236057","912-UM","2018/11/23 13:57:29","新北市土城區中央路三段185號","121.430886666667","24.9650333333333","6501300","土城區"
"236045","913-UM","2018/11/23 13:57:39","新北市土城區城林路6巷80號","121.438446666667","24.9796916666667","6501300","土城區"
"236060","915-UM","2018/11/23 13:57:28","新北市土城區城林路6巷80號","121.438485","24.979765","6501300","土城區"
"236054","AAC-216","2018/11/23 13:57:34","新北市土城區水源街71號","121.439791666667","24.9764333333333","6501300","土城區"
"221010","269-BY","2018/11/23 13:57:25","新北市汐止區長青路210巷188號","121.616236666667","25.1131533333333","6501100","汐止區"
"221032","280-BY","2018/11/23 13:57:46","新北市汐止區茄苳路84號","121.666966666667","25.0703933333333","6501100","汐止區"
"221033","647-BX","2018/11/23 13:57:32","新北市汐止區明峰街200-1號","121.627731666667","25.0694166666667","6501100","汐止區"
"220027","145-BY","2018/11/23 13:57:41","新北市板橋區民權路202巷9弄55號","121.458923333333","25.0157","6500100","板橋區"
"220028","200-UY","2018/11/23 13:57:30","新北市板橋區大觀路二段文和巷88號","121.444548333333","24.9982266666667","6500100","板橋區"
"220050","245-BX","2018/11/23 13:57:39","新北市板橋區文化路二段182巷1弄2號","121.471226666667","25.0274283333333","6500100","板橋區"
"220004","276-BY","2018/11/23 13:57:26","新北市板橋區信義路98號","121.458056666667","24.9928766666667","6500100","板橋區"
"220020","277-BY","2018/11/23 13:57:43","新北市板橋區篤行路一段29號","121.432095","24.9946733333333","6500100","板橋區"
"220012","282-UM","2018/11/23 13:57:44","新北市板橋區板新路219號","121.468236666667","25.01594","6500100","板橋區"
"220019","283-VK","2018/11/23 13:57:36","新北市板橋區忠孝路154巷21號","121.464303333333","25.00158","6500100","板橋區"
"220043","285-UM","2018/11/23 13:57:41","新北市板橋區莒光路16巷19號","121.469466666667","25.0239133333333","6500100","板橋區"
"220031","286-VK","2018/11/23 13:57:43","新北市板橋區大觀路一段38巷184號","121.441426666667","25.0046283333333","6500100","板橋區"
"220029","287-VK","2018/11/23 13:57:38","新北市板橋區光華街39巷4號","121.453571666667","25.0131383333333","6500100","板橋區"
"220039","288-VK","2018/11/23 13:57:43","新北市板橋區四維路177巷1弄2號","121.464073333333","25.0261983333333","6500100","板橋區"
"220009","295-UM","2018/11/23 13:57:46","新北市板橋區富山街109巷60弄29號","121.475676666667","25.021525","6500100","板橋區"
"220032","296-UM","2018/11/23 13:57:33","新北市板橋區大觀路三段36巷5-2號","121.433191666667","24.9958266666667","6500100","板橋區"
"220001","299-UM","2018/11/23 13:57:34","新北市板橋區中山路二段98號","121.47553","25.01648","6500100","板橋區"
"220023","303-R5","2018/11/23 13:57:39","新北市板橋區南雅西路二段143號","121.452211666667","25.0116916666667","6500100","板橋區"
"220010","305-R5","2018/11/23 13:57:36","新北市板橋區三民路二段257號","121.479008333333","25.01162","6500100","板橋區"
"220041","307-R5","2018/11/23 13:57:44","新北市板橋區文化路一段104巷1號","121.46494","25.0179616666667","6500100","板橋區"
"220047","317-R6","2018/11/23 13:57:44","新北市板橋區民有街35號","121.465891666667","25.0255733333333","6500100","板橋區"
"220038","487-VK","2018/11/23 13:57:32","新北市板橋區文化路二段2號","121.468576666667","25.0238566666667","6500100","板橋區"
"220104","560-BX","2018/11/23 13:57:29","新北市板橋區中正路379巷3弄2號","121.453283333333","25.0212683333333","6500100","板橋區"
"220052","561-BX","2018/11/23 13:57:42","新北市板橋區民生路二段121號","121.470676666667","25.0183883333333","6500100","板橋區"
"220011","609-BX","2018/11/23 13:57:40","新北市板橋區中山路二段215號","121.47662","25.0171783333333","6500100","板橋區"
"220040","637-BX","2018/11/23 13:57:26","新北市板橋區莒光路165巷28號","121.474143333333","25.02475","6500100","板橋區"
"220005","686-BX","2018/11/23 13:57:32","新北市板橋區重慶路37-1號","121.461566666667","25.00772","6500100","板橋區"
"220025","687-BX","2018/11/23 13:57:43","新北市板橋區大觀路二段174巷157號","121.441588333333","25.0028883333333","6500100","板橋區"
"220042","689-BX","2018/11/23 13:57:30","新北市板橋區民生路三段46號","121.467343333333","25.025055","6500100","板橋區"
"220002","741-BX","2018/11/23 13:57:41","新北市板橋區重慶路139巷19號","121.463591666667","25.0045916666667","6500100","板橋區"
"220018","806-UM","2018/11/23 13:57:29","新北市板橋區四川路一段287號","121.458853333333","25.0005316666667","6500100","板橋區"
"220003","827-TW","2018/11/23 13:57:42","新北市板橋區民安街22-1號","121.466855","25.0114133333333","6500100","板橋區"
"220014","829-TW","2018/11/23 13:57:40","新北市板橋區三民路二段正隆巷29號","121.477315","25.0133583333333","6500100","板橋區"
"220051","830-TW","2018/11/23 13:57:43","新北市板橋區雙十路一段44巷36號","121.477331666667","25.024905","6500100","板橋區"
"220045","831-TW","2018/11/23 13:57:33","新北市板橋區莊敬路208巷6弄5號","121.471018333333","25.0209066666667","6500100","板橋區"
"220037","833-TW","2018/11/23 13:57:27","新北市板橋區民生路二段210-1號","121.46943","25.0215083333333","6500100","板橋區"
"220022","895-R6","2018/11/23 13:57:41","新北市板橋區西門街42號","121.454383333333","25.009305","6500100","板橋區"
"220021","985-R7","2018/11/23 13:57:40","新北市板橋區館前西路267號","121.45384","25.0085316666667","6500100","板橋區"
"220046","AAC-210","2018/11/23 13:57:41","新北市板橋區漢生西路39巷7號","121.462746666667","25.0180433333333","6500100","板橋區"
"220030","AAC-253","2018/11/23 13:57:44","新北市板橋區滿平街135號","121.428923333333","24.9882566666667","6500100","板橋區"
"235032","KEA-2873","2018/11/23 13:57:27","新北市中和區連城路89巷54號","121.497798333333","24.998425","6500300","中和區"
"235025","KEA-2875","2018/11/23 13:57:15","新北市中和區民治街130巷12號","121.47471","25.00258","6500300","中和區"
