"lineid","car","time","location","longitude","latitude","cityid","cityname"
"234078","298-R6","2018/11/23 14:27:38","新北市永和區永貞路19號","121.520968333333","25.0071333333333","6500400","永和區"
"234036","336-UY","2018/11/23 14:27:42","新北市永和區環河東路四段38號","121.528778333333","24.9989516666667","6500400","永和區"
"234062","337-UY","2018/11/23 14:27:33","新北市永和區中正路433號","121.517103333333","25.0050933333333","6500400","永和區"
"234084","338-UY","2018/11/23 14:27:31","新北市永和區光復街30號","121.516586666667","25.0174266666667","6500400","永和區"
"234068","552-UM","2018/11/23 14:27:30","新北市永和區永亨路7號","121.519455","25.005685","6500400","永和區"
"234028","746-BX","2018/11/23 14:27:47","新北市永和區民權路82號","121.51974","24.9971683333333","6500400","永和區"
"234052","KEA-2590","2018/11/23 14:27:36","新北市永和區光復街31-1號","121.516511666667","25.01796","6500400","永和區"
"234060","AAD-866","2018/11/23 14:27:45","新北市永和區秀朗路一段175號","121.517023333333","25.003705","6500400","永和區"
"234040","862-TW","2018/11/23 14:27:30","新北市永和區安樂路336號","121.514401666667","25.0059166666667","6500400","永和區"
"234048","863-TW","2018/11/23 14:26:07","新北市永和區新生路138巷1弄1號","121.506621666667","25.0143516666667","6500400","永和區"
"234025","9371-KE","2018/11/23 14:27:40","新北市永和區安樂路66號","121.514873333333","24.99819","6500400","永和區"
"248019","225-UY","2018/11/23 14:08:29","新北市五股區凌雲路三段57號","121.425226666667","25.1250216666667","6501500","五股區"
"234072","AAC-211","2018/11/23 14:27:43","新北市永和區光復街60巷25號","121.517833333333","25.0175166666667","6500400","永和區"
"234001","AAC-295","2018/11/23 14:27:47","新北市永和區大新街11號","121.51472","25.008565","6500400","永和區"
"244004","410-SL","2018/11/23 14:09:15","新北市林口區林口路76號","121.389713333333","25.0807183333333","6501700","林口區"
"231002","002-UM","2018/11/23 14:27:34","新北市新店區中央路69號","121.532481666667","24.97682","6500600","新店區"
"231028","046-UY","2018/11/23 14:27:26","新北市新店區安和路二段35號","121.518091666667","24.967795","6500600","新店區"
"231001","047-UY","2018/11/23 14:27:39","新北市新店區大新街7巷1號","121.543236666667","24.9686583333333","6500600","新店區"
"231005","106-UY","2018/11/23 14:27:26","新北市新店區順安街21號","121.540873333333","24.98558","6500600","新店區"
"231022","108-UY","2018/11/23 14:27:35","新北市新店區桂山路29巷3號","121.557408333333","24.9036183333333","6500600","新店區"
"231012","187-VK","2018/11/23 14:27:35","新北市新店區中興路二段22號","121.547146666667","24.9704616666667","6500600","新店區"
"231023","KEA-2219","2018/11/23 14:27:34","新北市新店區中興路一段49號","121.539355","24.9601483333333","6500600","新店區"
"231003","268-BY","2018/11/23 14:27:34","新北市新店區中興路一段252號","121.544448333333","24.966695","6500600","新店區"
"231018","278-BY","2018/11/23 14:27:44","新北市新店區中央路153號","121.530086666667","24.9731166666667","6500600","新店區"
"231016","AAD-862","2018/11/23 14:27:36","新北市新店區北宜路三段329號","121.60945","24.9578183333333","6500600","新店區"
"231038","3712-VJ","2018/11/23 14:27:42","新北市新店區溪洲路101號","121.532575","24.9617466666667","6500600","新店區"
"231027","3713-VJ","2018/11/23 14:27:30","新北市新店區北新路二段218號","121.542898333333","24.9770916666667","6500600","新店區"
"231037","4716-K9","2018/11/23 14:27:31","新北市新店區車子路30號","121.504263333333","24.952145","6500600","新店區"
"231036","512-UM","2018/11/23 14:27:47","新北市新店區安祥路106-1號","121.478656666667","24.9620166666667","6500600","新店區"
"231013","513-UM","2018/11/23 14:27:27","新北市新店區民權路90巷22號","121.536293333333","24.9836933333333","6500600","新店區"
"231035","515-UM","2018/11/23 14:27:36","新北市新店區吉安街16號","121.51663","24.9657616666667","6500600","新店區"
"231034","616-UM","2018/11/23 14:27:28","新北市新店區車子路11號","121.503066666667","24.9520583333333","6500600","新店區"
"231006","617-UM","2018/11/23 14:27:32","新北市新店區北宜路二段485號","121.56236","24.9539133333333","6500600","新店區"
"231030","619-UM","2018/11/23 14:27:32","新北市新店區吉安街28號","121.516223333333","24.9660666666667","6500600","新店區"
"231032","720-UM","2018/11/23 14:27:34","新北市新店區安業街215巷9號","121.523106666667","24.9728566666667","6500600","新店區"
"231029","897-TW","2018/11/23 14:27:36","新北市新店區安康路二段416號","121.496485","24.9551533333333","6500600","新店區"
"231004","899-TW","2018/11/23 14:27:28","新北市新店區中正路263-4號","121.538281666667","24.9738016666667","6500600","新店區"
"235030","003-UY","2018/11/23 14:27:38","新北市中和區景新街32號","121.503311666667","24.9993","6500300","中和區"
"235028","005-UY","2018/11/23 14:27:45","新北市中和區連城路75巷2-21號","121.497736666667","24.99877","6500300","中和區"
"235027","006-UY","2018/11/23 14:27:47","新北市中和區連城路219巷19號","121.495113333333","24.9961716666667","6500300","中和區"
"235020","096-UM","2018/11/23 14:27:34","新北市中和區員山路514巷4號","121.479356666667","25.00969","6500300","中和區"
"235003","097-UM","2018/11/23 14:27:41","新北市中和區秀峰街103巷7弄4號","121.519421666667","24.9890033333333","6500300","中和區"
"235029","098-UM","2018/11/23 14:27:25","新北市中和區中山路二段178巷1號","121.50061","25.00278","6500300","中和區"
"235022","151-BY","2018/11/23 14:27:36","新北市中和區員山路132巷22號","121.48228","24.9962333333333","6500300","中和區"
"235019","183-VK","2018/11/23 14:27:42","新北市中和區德光路26號","121.470791666667","25.0044316666667","6500300","中和區"
"235002","185-VK","2018/11/23 14:27:28","新北市中和區自立路115號","121.522028333333","24.9944233333333","6500300","中和區"
"235013","186-VK","2018/11/23 14:27:36","新北市中和區景新街295巷15號","121.510735","24.993375","6500300","中和區"
"235031","255-BX","2018/11/23 14:27:27","新北市中和區連城路340巷10弄5號","121.482895","24.99658","6500300","中和區"
"235008","293-VK","2018/11/23 14:27:29","新北市中和區景安路198號","121.504218333333","24.9913533333333","6500300","中和區"
"235036","301-VK","2018/11/23 14:27:36","新北市中和區保平路362巷11號","121.505788333333","25.0040066666667","6500300","中和區"
"235007","352-BY","2018/11/23 14:27:42","新北市中和區景平路159巷1號","121.51268","24.992245","6500300","中和區"
"235006","KEA-2878","2018/11/23 14:27:38","新北市中和區中和路350巷8弄3-1號","121.510373333333","25.0001883333333","6500300","中和區"
"247011","KEA-2869","2018/11/23 14:27:42","新北市蘆洲區復興路159號","121.478225","25.0889466666667","6501400","蘆洲區"
"235014","4979-A6","2018/11/23 14:27:38","新北市中和區中正路571巷2弄7號","121.486276666667","24.99378","6500300","中和區"
"235033","4980-A6","2018/11/23 14:27:38","新北市中和區連城路71號","121.497426666667","25.00118","6500300","中和區"
"235034","558-UM","2018/11/23 14:27:33","新北市中和區圓通路4號","121.50182","24.998045","6500300","中和區"
"235009","565-BX","2018/11/23 14:27:35","新北市中和區景新街497號","121.51391","24.9871416666667","6500300","中和區"
"235018","640-BX","2018/11/23 14:27:26","新北市中和區德光路72號","121.469296666667","25.0037833333333","6500300","中和區"
"235024","647-TV","2018/11/23 14:27:35","新北市中和區中山路二段523巷56-1號","121.482241666667","25.002925","6500300","中和區"
"235011","732-UM","2018/11/23 14:27:40","新北市中和區景平路259巷22號","121.507548333333","24.992745","6500300","中和區"
"235010","733-UM","2018/11/23 14:27:45","新北市中和區忠孝街37巷30號","121.510801666667","24.9843133333333","6500300","中和區"
"235035","783-BX","2018/11/23 14:27:28","新北市中和區連城路469巷69號","121.483461666667","24.9942383333333","6500300","中和區"
"235026","800-TS","2018/11/23 14:27:31","新北市中和區中山路二段488-1號","121.487453333333","25.004885","6500300","中和區"
"235021","801-TS","2018/11/23 14:27:38","新北市中和區中山路三段8號","121.47961","25.0061933333333","6500300","中和區"
"235005","802-TS","2018/11/23 14:27:31","新北市中和區景安路4號","121.507783333333","24.998975","6500300","中和區"
"235016","805-TS","2018/11/23 14:27:37","新北市中和區華新街143巷71弄41號","121.507755","24.979305","6500300","中和區"
"235012","896-TW","2018/11/23 14:27:44","新北市中和區忠孝街54號","121.511385","24.9836","6500300","中和區"
"235017","900-TW","2018/11/23 14:27:31","新北市中和區民德路197-2號","121.468985","24.998585","6500300","中和區"
"235015","157-BY","2018/11/23 14:27:37","新北市中和區中興街202巷18號","121.498296666667","24.9898633333333","6500300","中和區"
"235001","AAC-213","2018/11/23 14:27:26","新北市中和區秀朗路三段10巷14弄72號","121.523876666667","24.9965133333333","6500300","中和區"
"235023","AAC-215","2018/11/23 14:27:33","新北市中和區圓通路252巷4號","121.493155","24.9916366666667","6500300","中和區"
"220016","013-TV","2018/11/23 14:27:39","新北市板橋區萬安街25號","121.484465","25.022965","6500100","板橋區"
"220013","072-UY","2018/11/23 14:27:45","新北市板橋區實踐路93巷101號","121.467291666667","25.0059416666667","6500100","板橋區"
"220034","073-UY","2018/11/23 14:27:42","新北市板橋區國光路175號","121.460538333333","25.0184783333333","6500100","板橋區"
"220105","075-UY","2018/11/23 14:27:43","新北市板橋區江寧路三段83-2號","121.472603333333","25.032485","6500100","板橋區"
"220017","AAD-861","2018/11/23 14:27:44","新北市板橋區稚暉街46巷1號","121.456408333333","25.0042883333333","6500100","板橋區"
"247001","893-R6","2018/11/23 14:27:28","新北市蘆洲區永樂街38巷33弄16號","121.457411666667","25.0897366666667","6501400","蘆洲區"
"247015","546-UM","2018/11/23 14:27:43","新北市蘆洲區中正路185巷68弄31號","121.466096666667","25.0855716666667","6501400","蘆洲區"
"247023","500-BY","2018/11/23 14:27:30","新北市蘆洲區中正路259號","121.467635","25.0871116666667","6501400","蘆洲區"
"247013","339-TH","2018/11/23 14:27:38","新北市蘆洲區成功路156-1號","121.47163","25.0832683333333","6501400","蘆洲區"
"247005","337-TH","2018/11/23 14:27:41","新北市蘆洲區中華街79號","121.46191","25.0802183333333","6501400","蘆洲區"
"247019","057-VK","2018/11/23 14:27:35","新北市蘆洲區水湳街176號","121.470525","25.0939116666667","6501400","蘆洲區"
"247009","056-VK","2018/11/23 14:27:46","新北市蘆洲區鷺江街12號","121.479196666667","25.0826366666667","6501400","蘆洲區"
"247007","053-VK","2018/11/23 14:27:28","新北市蘆洲區信義路30巷22號","121.474313333333","25.0786583333333","6501400","蘆洲區"
"247017","007-UY","2018/11/23 14:27:43","新北市蘆洲區復興路227巷18-1號","121.479805","25.0905583333333","6501400","蘆洲區"
"247003","002-UY","2018/11/23 14:27:33","新北市蘆洲區永康街12號","121.459126666667","25.0858683333333","6501400","蘆洲區"
"207002","749-BX","2018/11/23 14:27:24","新北市萬里區溪底里福德坑路10-1號","121.623466666667","25.1561333333333","6502800","萬里區"
"207001","662-BX","2018/11/23 14:27:30","新北市萬里區磺潭里清水18號","121.6379","25.1976283333333","6502800","萬里區"
"236067","105-UM","2018/11/23 14:27:38","新北市土城區永豐路185號","121.470368333333","24.97809","6501300","土城區"
"236040","KED-0685","2018/11/23 14:27:30","新北市土城區裕民路67巷13號","121.449933333333","24.9883383333333","6501300","土城區"
"236077","166-UM","2018/11/23 14:27:41","新北市土城區中央路四段27巷10弄2號","121.424768333333","24.9618383333333","6501300","土城區"
"236029","253-BX","2018/11/23 14:27:44","新北市土城區順風路3號","121.43966","24.9765183333333","6501300","土城區"
"236024","269-VK","2018/11/23 14:27:41","新北市土城區承天路18號","121.439465","24.9634783333333","6501300","土城區"
"236013","270-VK","2018/11/23 14:27:39","新北市土城區青雲路39巷7號","121.460355","24.98757","6501300","土城區"
"236032","271-VK","2018/11/23 14:27:32","新北市土城區青雲路453號","121.458863333333","24.9745966666667","6501300","土城區"
"236016","752-BX","2018/11/23 14:27:37","新北市土城區永豐路202巷14號","121.466141666667","24.9834383333333","6501300","土城區"
"236057","912-UM","2018/11/23 14:27:33","新北市土城區中央路四段201號","121.414543333333","24.95644","6501300","土城區"
"236045","913-UM","2018/11/23 14:27:44","新北市土城區青雲路459號","121.458656666667","24.9743783333333","6501300","土城區"
"236060","915-UM","2018/11/23 14:27:32","新北市土城區延壽路111巷23號","121.46838","24.9935166666667","6501300","土城區"
"236054","AAC-216","2018/11/23 14:27:34","新北市土城區中華路二段1號","121.439746666667","24.9792616666667","6501300","土城區"
"221010","269-BY","2018/11/23 14:27:25","新北市汐止區八連路二段610巷4號","121.627863333333","25.10875","6501100","汐止區"
"221032","280-BY","2018/11/23 14:27:26","新北市汐止區大同路三段579號","121.682571666667","25.0733833333333","6501100","汐止區"
"221033","647-BX","2018/11/23 14:27:32","新北市汐止區和平街100巷8號","121.660698333333","25.07062","6501100","汐止區"
"220027","145-BY","2018/11/23 14:27:37","新北市板橋區建國街3-1號","121.457125","25.0169283333333","6500100","板橋區"
"220028","200-UY","2018/11/23 14:27:30","新北市板橋區大觀路二段37巷306號","121.450068333333","25.0020983333333","6500100","板橋區"
"220050","245-BX","2018/11/23 14:27:39","新北市板橋區縣民大道三段133巷19號","121.477038333333","25.0237166666667","6500100","板橋區"
"220004","276-BY","2018/11/23 14:27:46","新北市板橋區干城路153號","121.460645","24.992725","6500100","板橋區"
"220020","277-BY","2018/11/23 14:27:43","新北市板橋區金門街253巷10弄5號","121.433003333333","24.9884066666667","6500100","板橋區"
"220012","282-UM","2018/11/23 14:27:44","新北市板橋區中山路一段1號","121.459543333333","25.0075566666667","6500100","板橋區"
"220019","283-VK","2018/11/23 14:27:36","新北市板橋區四川路一段320號","121.458388333333","25.000105","6500100","板橋區"
"220043","285-UM","2018/11/23 14:27:41","新北市板橋區吳鳳路50巷21弄1號","121.4682","25.0304333333333","6500100","板橋區"
"220031","286-VK","2018/11/23 14:27:43","新北市板橋區龍興街71巷19號","121.442945","25.0021116666667","6500100","板橋區"
"220029","287-VK","2018/11/23 14:27:38","新北市板橋區大觀路一段75巷7號","121.447618333333","25.0045466666667","6500100","板橋區"
"220039","288-VK","2018/11/23 14:27:45","新北市板橋區長江路一段50號","121.45887","25.0289866666667","6500100","板橋區"
"220009","295-UM","2018/11/23 14:27:26","新北市板橋區中山路一段265巷13號","121.468681666667","25.014695","6500100","板橋區"
"220032","296-UM","2018/11/23 14:27:39","新北市板橋區篤行路三段玉平巷76弄8號","121.427603333333","24.9858016666667","6500100","板橋區"
"220001","299-UM","2018/11/23 14:27:43","新北市板橋區富山街93號","121.47648","25.0218633333333","6500100","板橋區"
"220023","303-R5","2018/11/23 14:27:39","新北市板橋區中正路253巷7號","121.455321666667","25.0181566666667","6500100","板橋區"
"220010","305-R5","2018/11/23 14:27:36","新北市板橋區三民路二段181巷5號","121.479855","25.014345","6500100","板橋區"
"220041","307-R5","2018/11/23 14:27:44","新北市板橋區光武街2巷14號","121.46847","25.025115","6500100","板橋區"
"220047","317-R6","2018/11/23 14:27:44","新北市板橋區民生路三段299巷6號","121.463168333333","25.0304016666667","6500100","板橋區"
"220038","487-VK","2018/11/23 14:27:32","新北市板橋區文化路一段109號","121.461678333333","25.0146733333333","6500100","板橋區"
"220104","560-BX","2018/11/23 14:27:29","新北市板橋區新生街89巷6號","121.45806","25.0223183333333","6500100","板橋區"
"220052","561-BX","2018/11/23 14:27:42","新北市板橋區文化路一段210號","121.466483333333","25.0201433333333","6500100","板橋區"
"220011","609-BX","2018/11/23 14:27:31","新北市板橋區三民路二段142號","121.479173333333","25.0156983333333","6500100","板橋區"
"220040","637-BX","2018/11/23 14:27:46","新北市板橋區文聖街135巷25號","121.478976666667","25.0290083333333","6500100","板橋區"
"220005","686-BX","2018/11/23 14:27:40","新北市板橋區國慶路182巷28-1號","121.463326666667","24.9954433333333","6500100","板橋區"
"220025","687-BX","2018/11/23 14:27:37","新北市板橋區僑中一街2號","121.449143333333","25.0112283333333","6500100","板橋區"
"220042","689-BX","2018/11/23 14:27:30","新北市板橋區雨農路50號","121.461016666667","25.024365","6500100","板橋區"
"220002","741-BX","2018/11/23 14:27:41","新北市板橋區忠孝路203號","121.465093333333","25.002685","6500100","板橋區"
"220018","806-UM","2018/11/23 14:27:29","新北市板橋區館前東路82號","121.46212","25.0075266666667","6500100","板橋區"
"220003","827-TW","2018/11/23 14:27:31","新北市板橋區重慶路256號","121.462991666667","25.0008316666667","6500100","板橋區"
"220014","829-TW","2018/11/23 14:27:43","新北市板橋區長安街138巷18號","121.47299","25.0090866666667","6500100","板橋區"
"220051","830-TW","2018/11/23 14:27:43","新北市板橋區松柏街22巷30號","121.474931666667","25.02907","6500100","板橋區"
"220045","831-TW","2018/11/23 14:27:33","新北市板橋區雙十路二段41巷9號","121.476231666667","25.02588","6500100","板橋區"
"220037","833-TW","2018/11/23 14:27:44","新北市板橋區雙十路二段37-1號","121.476908333333","25.02578","6500100","板橋區"
"220022","895-R6","2018/11/23 14:27:32","新北市板橋區府中路42號","121.457446666667","25.00954","6500100","板橋區"
"220021","985-R7","2018/11/23 14:27:41","新北市板橋區新生街32號","121.456255","25.0210266666667","6500100","板橋區"
"220046","AAC-210","2018/11/23 14:27:17","新北市板橋區新海路186號","121.46065","25.0235283333333","6500100","板橋區"
"220030","AAC-253","2018/11/23 14:27:44","新北市板橋區金門街271號","121.431578333333","24.9884416666667","6500100","板橋區"
"235032","KEA-2873","2018/11/23 14:27:27","新北市中和區莊敬路2號","121.499385","25.0042133333333","6500300","中和區"
"235025","KEA-2875","2018/11/23 14:27:45","新北市中和區民利街31巷2弄12號","121.479626666667","24.9986716666667","6500300","中和區"
