"lineid","car","time","location","longitude","latitude","cityid","cityname"
"234078","298-R6","2018/11/23 14:37:38","新北市永和區永貞路82號","121.520138333333","25.0050533333333","6500400","永和區"
"234062","337-UY","2018/11/23 14:37:33","新北市永和區中正路548-1號","121.51721","25.0053316666667","6500400","永和區"
"234028","746-BX","2018/11/23 14:37:27","新北市永和區得和路359號","121.524471666667","24.9994633333333","6500400","永和區"
"234052","KEA-2590","2018/11/23 14:37:36","新北市永和區福和路1號","121.525926666667","25.0095966666667","6500400","永和區"
"234060","AAD-866","2018/11/23 14:37:45","新北市永和區秀朗路一段175號","121.51707","25.0037383333333","6500400","永和區"
"234025","9371-KE","2018/11/23 14:37:40","新北市永和區中和路501巷5號","121.510443333333","25.0025966666667","6500400","永和區"
"248019","225-UY","2018/11/23 14:37:39","新北市五股區凌雲路三段100-3號","121.426421666667","25.1232533333333","6501500","五股區"
"234072","AAC-211","2018/11/23 14:37:43","新北市永和區環河東路二段26號","121.522486666667","25.0128466666667","6500400","永和區"
"234001","AAC-295","2018/11/23 14:37:28","新北市永和區中正路618-1號","121.51698","25.0077266666667","6500400","永和區"
"244004","410-SL","2018/11/23 14:09:15","新北市林口區林口路76號","121.389713333333","25.0807183333333","6501700","林口區"
"231002","002-UM","2018/11/23 14:37:34","新北市新店區中正路460號","121.534015","24.9793883333333","6500600","新店區"
"231024","0293-UT","2018/11/23 14:37:26","新北市新店區中央一街2號","121.52871","24.9722216666667","6500600","新店區"
"231028","046-UY","2018/11/23 14:37:26","新北市新店區安康路二段190號","121.511301666667","24.9600466666667","6500600","新店區"
"231001","047-UY","2018/11/23 14:37:39","新北市新店區中正路31號","121.545118333333","24.96965","6500600","新店區"
"231005","106-UY","2018/11/23 14:37:26","新北市新店區復興路2號","121.532408333333","24.98827","6500600","新店區"
"231022","108-UY","2018/11/23 14:36:15","新北市新店區桂山路161號","121.568975","24.8860583333333","6500600","新店區"
"231012","187-VK","2018/11/23 14:37:35","新北市新店區中興路二段236巷7號","121.54784","24.9760683333333","6500600","新店區"
"231023","KEA-2219","2018/11/23 14:37:34","新北市新店區檳榔路18號","121.541215","24.9644283333333","6500600","新店區"
"231003","268-BY","2018/11/23 14:37:28","新北市新店區中興路一段280號","121.545433333333","24.9683783333333","6500600","新店區"
"231018","278-BY","2018/11/23 14:37:44","新北市新店區中央二街5巷1號","121.529161666667","24.97279","6500600","新店區"
"231016","AAD-862","2018/11/23 14:37:36","新北市新店區北宜路三段335巷15號","121.61006","24.9590783333333","6500600","新店區"
"231038","3712-VJ","2018/11/23 14:37:42","新北市新店區安康路一段266巷4號","121.520108333333","24.9639766666667","6500600","新店區"
"231027","3713-VJ","2018/11/23 14:37:30","新北市新店區寶橋路80號","121.546155","24.9754933333333","6500600","新店區"
"231037","4716-K9","2018/11/23 14:37:31","新北市新店區安康路二段320巷6號","121.504458333333","24.9588133333333","6500600","新店區"
"231036","512-UM","2018/11/23 14:37:27","新北市新店區安祥路106巷49號","121.475675","24.960895","6500600","新店區"
"231013","513-UM","2018/11/23 14:37:46","新北市新店區明德路20號","121.542198333333","24.977","6500600","新店區"
"231035","515-UM","2018/11/23 14:37:36","新北市新店區安光路10-1號","121.513821666667","24.964165","6500600","新店區"
"231034","616-UM","2018/11/23 14:37:28","新北市新店區黎明路59巷1號","121.502428333333","24.9474466666667","6500600","新店區"
"231006","617-UM","2018/11/23 14:37:32","新北市新店區北宜路二段168號","121.558233333333","24.9540916666667","6500600","新店區"
"231030","619-UM","2018/11/23 14:37:32","新北市新店區安民街158號","121.516746666667","24.970155","6500600","新店區"
"231029","897-TW","2018/11/23 14:37:36","新北市新店區安康路三段351號","121.485025","24.9513883333333","6500600","新店區"
"231004","899-TW","2018/11/23 14:37:49","新北市新店區中正路267號","121.53791","24.9742133333333","6500600","新店區"
"235030","003-UY","2018/11/23 14:37:38","新北市中和區南華路89號","121.505601666667","24.9975333333333","6500300","中和區"
"235027","006-UY","2018/11/23 14:37:27","新北市中和區連城路174巷20-1號","121.492466666667","24.9984716666667","6500300","中和區"
"235020","096-UM","2018/11/23 14:37:34","新北市中和區員山路581巷31弄22號","121.476568333333","25.01036","6500300","中和區"
"235003","097-UM","2018/11/23 14:37:41","新北市中和區宜安路60號","121.511678333333","24.996945","6500300","中和區"
"235029","098-UM","2018/11/23 14:37:45","新北市中和區福美路263號","121.498406666667","25.0050516666667","6500300","中和區"
"235004","150-BY","2018/11/23 14:37:47","新北市永和區中正路42巷16號","121.513558333333","24.9941216666667","6500300","中和區"
"235022","151-BY","2018/11/23 14:37:36","新北市中和區員山路150巷2弄2號","121.481551666667","24.99828","6500300","中和區"
"235019","183-VK","2018/11/23 14:37:42","新北市中和區民生街15號","121.471295","25.0058333333333","6500300","中和區"
"235002","185-VK","2018/11/23 14:37:48","新北市中和區自立路20巷7號","121.521956666667","24.9932383333333","6500300","中和區"
"235013","186-VK","2018/11/23 14:37:36","新北市中和區安平路16號","121.50922","24.9941916666667","6500300","中和區"
"235031","255-BX","2018/11/23 14:37:27","新北市中和區新生街232號","121.48383","24.9981616666667","6500300","中和區"
"235008","293-VK","2018/11/23 14:37:28","新北市中和區捷運路6號","121.510025","24.9894283333333","6500300","中和區"
"235036","301-VK","2018/11/23 14:37:36","新北市中和區中山路二段3巷22弄9號","121.506293333333","25.0050583333333","6500300","中和區"
"235007","352-BY","2018/11/23 14:37:42","新北市中和區景平路480號","121.504961666667","24.9937516666667","6500300","中和區"
"235006","KEA-2878","2018/11/23 14:37:36","新北市中和區保健路2巷12號","121.507443333333","24.998025","6500300","中和區"
"247011","KEA-2869","2018/11/23 14:37:42","新北市蘆洲區集賢路224巷37弄1號","121.480661666667","25.0880433333333","6501400","蘆洲區"
"235014","4979-A6","2018/11/23 14:37:38","新北市中和區錦和路350-1號","121.490673333333","24.9935666666667","6500300","中和區"
"235034","558-UM","2018/11/23 14:37:33","新北市中和區景平路549號","121.498523333333","24.9995166666667","6500300","中和區"
"235009","565-BX","2018/11/23 14:37:35","新北市中和區景平路404號","121.50914","24.9930516666667","6500300","中和區"
"235018","640-BX","2018/11/23 14:37:26","新北市中和區莒光路222-3號","121.469256666667","24.99502","6500300","中和區"
"235024","647-TV","2018/11/23 14:37:35","新北市中和區新生街18號","121.483065","25.0043066666667","6500300","中和區"
"235011","732-UM","2018/11/23 14:37:40","新北市中和區捷運路125號","121.507271666667","24.9907333333333","6500300","中和區"
"235010","733-UM","2018/11/23 14:37:42","新北市中和區忠孝街59號","121.51186","24.9846916666667","6500300","中和區"
"235035","783-BX","2018/11/23 14:37:28","新北市中和區中正路657號","121.485045","24.9961633333333","6500300","中和區"
"235026","800-TS","2018/11/23 14:37:31","新北市中和區中山路二段544巷14號","121.48535","25.0058183333333","6500300","中和區"
"235021","801-TS","2018/11/23 14:37:38","新北市中和區員山路152-3號","121.48134","24.9985766666667","6500300","中和區"
"235005","802-TS","2018/11/23 14:37:31","新北市中和區景安路2號","121.507905","24.999065","6500300","中和區"
"235016","805-TS","2018/11/23 14:37:38","新北市中和區華新街192巷2號","121.506826666667","24.98228","6500300","中和區"
"235012","896-TW","2018/11/23 14:37:44","新北市中和區景新街566-1號","121.514583333333","24.9867183333333","6500300","中和區"
"235017","900-TW","2018/11/23 14:37:31","新北市中和區國光街215巷49號","121.467296666667","25.0002116666667","6500300","中和區"
"235015","157-BY","2018/11/23 14:37:37","新北市中和區復興路301巷16號","121.501421666667","24.9895616666667","6500300","中和區"
"235001","AAC-213","2018/11/23 14:37:26","新北市中和區秀朗路三段10巷29弄5號","121.52504","24.9960416666667","6500300","中和區"
"235023","AAC-215","2018/11/23 14:37:33","新北市中和區圓通路274-7號","121.492343333333","24.9907683333333","6500300","中和區"
"220016","013-TV","2018/11/23 14:37:44","新北市板橋區中山路二段412巷16-1號","121.483345","25.02027","6500100","板橋區"
"220013","072-UY","2018/11/23 14:37:47","新北市板橋區國泰街39巷3弄3號","121.468585","25.0065066666667","6500100","板橋區"
"220034","073-UY","2018/11/23 14:37:42","新北市板橋區中正路13號","121.456153333333","25.0122766666667","6500100","板橋區"
"220105","075-UY","2018/11/23 14:37:43","新北市板橋區文化路二段548巷25號","121.47678","25.0337933333333","6500100","板橋區"
"220017","AAD-861","2018/11/23 14:37:44","新北市板橋區南雅南路二段7巷12號","121.45441","25.0029516666667","6500100","板橋區"
"247001","893-R6","2018/11/23 14:37:48","新北市蘆洲區長安街345號","121.457183333333","25.086985","6501400","蘆洲區"
"247015","546-UM","2018/11/23 14:37:43","新北市蘆洲區正和街35號","121.46961","25.0817783333333","6501400","蘆洲區"
"247023","500-BY","2018/11/23 14:37:30","新北市蘆洲區中山二路198號","121.470186666667","25.0804533333333","6501400","蘆洲區"
"247013","339-TH","2018/11/23 14:37:38","新北市蘆洲區中央路61-8號","121.473478333333","25.0830533333333","6501400","蘆洲區"
"247005","337-TH","2018/11/23 14:37:41","新北市蘆洲區長安街68巷15號","121.463313333333","25.0806633333333","6501400","蘆洲區"
"247019","057-VK","2018/11/23 14:37:35","新北市蘆洲區民權路176號","121.47196","25.0902433333333","6501400","蘆洲區"
"247009","056-VK","2018/11/23 14:37:27","新北市蘆洲區信義路222巷57號","121.481003333333","25.0854866666667","6501400","蘆洲區"
"247007","053-VK","2018/11/23 14:37:49","新北市蘆洲區信義路27巷1號","121.47402","25.0793483333333","6501400","蘆洲區"
"207002","749-BX","2018/11/23 14:37:44","新北市萬里區崁腳里崁腳路118-1號","121.645031666667","25.1585283333333","6502800","萬里區"
"207001","662-BX","2018/11/23 14:37:30","新北市萬里區磺潭里員潭路55-2號","121.643223333333","25.1918966666667","6502800","萬里區"
"236067","105-UM","2018/11/23 14:37:38","新北市土城區永豐路342-1號","121.474436666667","24.97657","6501300","土城區"
"236040","KED-0685","2018/11/23 14:37:30","新北市土城區學成路94巷9弄17號","121.450343333333","24.9895916666667","6501300","土城區"
"236077","166-UM","2018/11/23 14:37:41","新北市土城區中央路四段54巷11號","121.419506666667","24.96067","6501300","土城區"
"236029","253-BX","2018/11/23 14:37:44","新北市土城區中華路二段171號","121.438693333333","24.9752133333333","6501300","土城區"
"236024","269-VK","2018/11/23 14:37:41","新北市土城區忠義路49號","121.440436666667","24.9691316666667","6501300","土城區"
"236013","270-VK","2018/11/23 14:37:39","新北市土城區青雲路185號","121.459333333333","24.9825866666667","6501300","土城區"
"236032","271-VK","2018/11/23 14:37:32","新北市土城區明德路一段293號","121.46023","24.9772583333333","6501300","土城區"
"236016","752-BX","2018/11/23 14:37:44","新北市土城區延吉街327-1號","121.465531666667","24.9842366666667","6501300","土城區"
"236057","912-UM","2018/11/23 14:37:29","新北市土城區中央路三段217號","121.429553333333","24.964525","6501300","土城區"
"236045","913-UM","2018/11/23 14:37:39","新北市土城區永豐路148號","121.46495","24.985455","6501300","土城區"
"236060","915-UM","2018/11/23 14:37:42","新北市土城區延和路125巷75號","121.469238333333","24.99126","6501300","土城區"
"236054","AAC-216","2018/11/23 14:37:34","新北市土城區裕民路36號","121.447996666667","24.9884233333333","6501300","土城區"
"221010","269-BY","2018/11/23 14:37:45","新北市汐止區八連路一段207號","121.641","25.0805033333333","6501100","汐止區"
"221032","280-BY","2018/11/23 14:37:46","新北市汐止區大同路三段392號","121.681525","25.07163","6501100","汐止區"
"221033","647-BX","2018/11/23 14:37:32","新北市汐止區大同路二段460號","121.659793333333","25.0677283333333","6501100","汐止區"
"220027","145-BY","2018/11/23 14:37:46","新北市板橋區建國街54巷1號","121.458946666667","25.0169266666667","6500100","板橋區"
"220028","200-UY","2018/11/23 14:37:30","新北市板橋區大觀路二段153巷46弄60號","121.449408333333","25.0002933333333","6500100","板橋區"
"220050","245-BX","2018/11/23 14:37:39","新北市板橋區縣民大道三段39號","121.474061666667","25.0209366666667","6500100","板橋區"
"220004","276-BY","2018/11/23 14:37:46","新北市土城區四川路3號","121.455808333333","24.996075","6500100","板橋區"
"220020","277-BY","2018/11/23 14:37:45","新北市板橋區金門街151巷42弄2號","121.433948333333","24.9901933333333","6500100","板橋區"
"220012","282-UM","2018/11/23 14:37:44","新北市板橋區中山路一段139-1號","121.462638333333","25.0109633333333","6500100","板橋區"
"220019","283-VK","2018/11/23 14:37:36","新北市板橋區五權街30巷37弄5號","121.46356","24.9925533333333","6500100","板橋區"
"220043","285-UM","2018/11/23 14:37:41","新北市板橋區宏國路96號","121.470175","25.0320933333333","6500100","板橋區"
"220031","286-VK","2018/11/23 14:37:43","新北市板橋區龍興街63巷13號","121.442545","25.0014866666667","6500100","板橋區"
"220029","287-VK","2018/11/23 14:37:38","新北市板橋區大觀路一段29巷7號","121.45014","25.0081566666667","6500100","板橋區"
"220039","288-VK","2018/11/23 14:37:45","新北市板橋區龍泉街54巷8弄2號","121.45707","25.0265866666667","6500100","板橋區"
"220009","295-UM","2018/11/23 14:37:46","新北市板橋區板新路136號","121.470763333333","25.0154633333333","6500100","板橋區"
"220032","296-UM","2018/11/23 14:37:43","新北市板橋區滿平二街9號","121.425396666667","24.9866066666667","6500100","板橋區"
"220001","299-UM","2018/11/23 14:37:40","新北市板橋區懷仁街75號","121.477355","25.0184783333333","6500100","板橋區"
"220023","303-R5","2018/11/23 14:37:41","新北市板橋區大勇街4巷1號","121.454826666667","25.01738","6500100","板橋區"
"220010","305-R5","2018/11/23 14:37:36","新北市板橋區三民路二段83號","121.47938","25.0166933333333","6500100","板橋區"
"220041","307-R5","2018/11/23 14:37:44","新北市板橋區陽明街36號","121.466071666667","25.0218066666667","6500100","板橋區"
"220047","317-R6","2018/11/23 14:37:44","新北市板橋區裕民街98-1號","121.460078333333","25.027935","6500100","板橋區"
"220038","487-VK","2018/11/23 14:37:32","新北市板橋區英士路49-1號","121.461125","25.0245783333333","6500100","板橋區"
"220104","560-BX","2018/11/23 14:37:29","新北市板橋區金華街101號","121.458635","25.0208083333333","6500100","板橋區"
"220052","561-BX","2018/11/23 14:37:42","新北市板橋區文化路一段288號","121.467385","25.021515","6500100","板橋區"
"220011","609-BX","2018/11/23 14:37:31","新北市板橋區三民路一段31巷87弄9-2號","121.481211666667","25.0233666666667","6500100","板橋區"
"220040","637-BX","2018/11/23 14:37:46","新北市板橋區懷德街139巷20弄6-2號","121.480056666667","25.0306883333333","6500100","板橋區"
"220005","686-BX","2018/11/23 14:37:41","新北市板橋區和平路101巷1號","121.462268333333","24.9948966666667","6500100","板橋區"
"220025","687-BX","2018/11/23 14:37:37","新北市板橋區僑中二街114巷1號","121.445811666667","25.0066816666667","6500100","板橋區"
"220042","689-BX","2018/11/23 14:37:34","新北市板橋區新海路411號","121.458393333333","25.0269766666667","6500100","板橋區"
"220002","741-BX","2018/11/23 14:37:41","新北市板橋區忠孝路忠義巷15弄112號","121.465321666667","25.0060383333333","6500100","板橋區"
"220018","806-UM","2018/11/23 14:37:31","新北市板橋區民族路271號","121.470741666667","25.0069366666667","6500100","板橋區"
"220003","827-TW","2018/11/23 14:37:31","新北市板橋區國慶路167巷8號","121.46205","24.9966516666667","6500100","板橋區"
"220014","829-TW","2018/11/23 14:37:40","新北市板橋區長安街251巷36號","121.471965","25.0112116666667","6500100","板橋區"
"220051","830-TW","2018/11/23 14:37:43","新北市板橋區雙十路二段46巷39號","121.47615","25.0291183333333","6500100","板橋區"
"220045","831-TW","2018/11/23 14:37:47","新北市板橋區莒光路16巷21號","121.469578333333","25.023725","6500100","板橋區"
"220037","833-TW","2018/11/23 14:37:44","新北市板橋區文化路二段382號","121.473273333333","25.030875","6500100","板橋區"
"220022","895-R6","2018/11/23 14:37:37","新北市板橋區民權路89號","121.460646666667","25.0119083333333","6500100","板橋區"
"220021","985-R7","2018/11/23 14:37:40","新北市板橋區中正路222號","121.455816666667","25.018625","6500100","板橋區"
"220046","AAC-210","2018/11/23 14:37:28","新北市板橋區幸福路32巷18號","121.461383333333","25.0210333333333","6500100","板橋區"
"220030","AAC-253","2018/11/23 14:37:44","新北市板橋區大觀路三段236-10號","121.429421666667","24.99224","6500100","板橋區"
"235032","KEA-2873","2018/11/23 14:37:27","新北市中和區福美路301巷17號","121.497591666667","25.0041366666667","6500300","中和區"
"235025","KEA-2875","2018/11/23 14:37:45","新北市中和區民樂路2-1號","121.4815","25.0011316666667","6500300","中和區"
