"lineid","car","time","location","longitude","latitude","cityid","cityname"
"248019","225-UY","2018/11/23 15:07:39","新北市五股區凌雲路三段32-1號","121.43141","25.1077866666667","6501500","五股區"
"244004","410-SL","2018/11/23 15:07:32","新北市林口區林口路76號","121.389695","25.0806883333333","6501700","林口區"
"231002","002-UM","2018/11/23 15:07:34","新北市新店區中正路503-6號","121.533581666667","24.9844116666667","6500600","新店區"
"231024","0293-UT","2018/11/23 15:07:46","新北市新店區中華路42巷10號","121.540328333333","24.9684883333333","6500600","新店區"
"231028","046-UY","2018/11/23 15:07:46","新北市新店區僑信路18-1號","121.499748333333","24.9523666666667","6500600","新店區"
"231001","047-UY","2018/11/23 15:07:39","新北市新店區中正路266號","121.539085","24.9735783333333","6500600","新店區"
"231005","106-UY","2018/11/23 15:07:46","新北市新店區北新路三段169號","121.541058333333","24.9839066666667","6500600","新店區"
"231022","108-UY","2018/11/23 15:07:35","新北市新店區永福路54-2號","121.55813","24.9287366666667","6500600","新店區"
"231012","187-VK","2018/11/23 15:07:35","新北市新店區中興路三段205巷7弄1號","121.543221666667","24.9815033333333","6500600","新店區"
"231023","KEA-2219","2018/11/23 15:07:34","新北市新店區檳榔路109號","121.544556666667","24.9616433333333","6500600","新店區"
"231026","256-BX","2018/11/23 15:07:45","新北市新店區建興街9巷1號","121.539966666667","24.97636","6500600","新店區"
"231003","268-BY","2018/11/23 15:07:48","新北市新店區中興路二段227號","121.547726666667","24.9745366666667","6500600","新店區"
"231018","278-BY","2018/11/23 15:07:44","新北市新店區中央六街99號","121.526053333333","24.9771283333333","6500600","新店區"
"231016","AAD-862","2018/11/23 15:07:36","新北市新店區明山路45號","121.563825","24.9559033333333","6500600","新店區"
"231038","3712-VJ","2018/11/23 15:07:42","新北市新店區安華路28-1號","121.51973","24.96091","6500600","新店區"
"231037","4716-K9","2018/11/23 15:07:31","新北市新店區薏仁坑路自強巷6號","121.496631666667","24.9584966666667","6500600","新店區"
"231025","4715-K9","2018/11/23 15:07:46","新北市新店區民權路107-3號","121.536313333333","24.9822233333333","6500600","新店區"
"231036","512-UM","2018/11/23 15:07:48","新北市新店區安祥路104巷13號","121.481281666667","24.9633333333333","6500600","新店區"
"231035","515-UM","2018/11/23 15:07:36","新北市新店區永安街56巷17號","121.518781666667","24.9858816666667","6500600","新店區"
"231034","616-UM","2018/11/23 15:07:48","新北市新店區玫瑰路4-1號","121.493608333333","24.951445","6500600","新店區"
"231006","617-UM","2018/11/23 15:07:32","新北市新店區新坡一街25號","121.549708333333","24.9632366666667","6500600","新店區"
"231030","619-UM","2018/11/23 15:07:32","新北市新店區安民街341-1號","121.516765","24.974895","6500600","新店區"
"231039","718-UY","2018/11/23 15:07:33","新北市新店區寶安街18號","121.54207","24.9818316666667","6500600","新店區"
"231032","720-UM","2018/11/23 15:07:34","新北市新店區安泰路60巷134弄66號","121.483476666667","24.9434816666667","6500600","新店區"
"231029","897-TW","2018/11/23 15:07:36","新北市新店區安康路三段738號","121.473808333333","24.9420316666667","6500600","新店區"
"231004","899-TW","2018/11/23 15:07:49","新北市新店區建國路15號","121.539953333333","24.973585","6500600","新店區"
"241013","270-UM","2018/11/23 15:07:36","新北市三重區重新路四段121號","121.485126666667","25.0520383333333","6500200","三重區"
"235030","003-UY","2018/11/23 15:07:37","新北市中和區水源路101號","121.507298333333","25.003385","6500300","中和區"
"235020","096-UM","2018/11/23 15:07:34","新北市中和區中山路三段145號","121.473823333333","25.0059833333333","6500300","中和區"
"235004","150-BY","2018/11/23 14:44:07","新北市永和區中正路42巷16號","121.513558333333","24.9941216666667","6500300","中和區"
"235007","352-BY","2018/11/23 15:07:42","新北市中和區興南路二段159巷12號","121.505063333333","24.9831183333333","6500300","中和區"
"235006","KEA-2878","2018/11/23 15:07:36","新北市新店區安德街60巷19-1號","121.51042","24.9632116666667","6500300","中和區"
"235014","4979-A6","2018/11/23 15:07:50","新北市中和區安樂路1號","121.511513333333","24.991875","6500300","中和區"
"235033","4980-A6","2018/11/23 15:07:51","新北市中和區景新街47號","121.504286666667","24.9990966666667","6500300","中和區"
"235034","558-UM","2018/11/23 15:07:33","新北市中和區中正路296號","121.494428333333","24.9939683333333","6500300","中和區"
"235035","783-BX","2018/11/23 15:07:48","新北市中和區中正路998號","121.482643333333","25.008665","6500300","中和區"
"235005","802-TS","2018/11/23 15:07:31","新北市中和區安平路59號","121.50953","24.9951933333333","6500300","中和區"
"235012","896-TW","2018/11/23 15:07:44","新北市中和區興南路二段22-3號","121.507503333333","24.9858","6500300","中和區"
"235001","AAC-213","2018/11/23 15:07:46","新北市中和區立人街23號","121.521295","24.9940733333333","6500300","中和區"
"235023","AAC-215","2018/11/23 15:07:33","新北市中和區圓通路335巷39號","121.493931666667","24.9892016666667","6500300","中和區"
"220016","013-TV","2018/11/23 15:07:39","新北市板橋區光復街230號","121.484766666667","25.0213666666667","6500100","板橋區"
"220013","072-UY","2018/11/23 15:07:45","新北市板橋區忠孝路21號","121.46044","25.00193","6500100","板橋區"
"220017","AAD-861","2018/11/23 15:07:44","新北市板橋區大觀路一段28巷6弄55-2號","121.451075","25.0103616666667","6500100","板橋區"
"207002","749-BX","2018/11/23 15:07:44","新北市萬里區崁腳里內中福路97號","121.653706666667","25.163835","6502800","萬里區"
"207001","662-BX","2018/11/23 15:07:49","新北市萬里區雙興里麗水路3-1號","121.653253333333","25.1801483333333","6502800","萬里區"
"236067","105-UM","2018/11/23 15:07:44","新北市土城區中央路一段58號","121.447268333333","24.989865","6501300","土城區"
"236040","KED-0685","2018/11/23 15:07:30","新北市土城區清水路85巷5號","121.456173333333","24.982325","6501300","土城區"
"236077","166-UM","2018/11/23 15:07:41","新北市土城區中州路27巷81號","121.412658333333","24.9563866666667","6501300","土城區"
"236029","253-BX","2018/11/23 15:07:44","新北市土城區福祥街12號","121.441036666667","24.979505","6501300","土城區"
"236024","269-VK","2018/11/23 15:07:46","新北市土城區中正路69號","121.444645","24.9756983333333","6501300","土城區"
"236013","270-VK","2018/11/23 15:07:39","新北市土城區學府路一段75巷16弄2號","121.457201666667","24.98766","6501300","土城區"
"236032","271-VK","2018/11/23 15:07:32","新北市土城區仁愛路25號","121.462636666667","24.97842","6501300","土城區"
"236016","752-BX","2018/11/23 15:07:37","新北市土城區延峰街19號","121.468916666667","24.9860383333333","6501300","土城區"
"236057","912-UM","2018/11/23 15:07:29","新北市土城區金城路一段131號","121.444805","24.9737516666667","6501300","土城區"
"236045","913-UM","2018/11/23 15:07:45","新北市土城區清水路201號","121.459968333333","24.9816566666667","6501300","土城區"
"236060","915-UM","2018/11/23 15:07:28","新北市土城區延平街69巷6號","121.467256666667","24.99311","6501300","土城區"
"236054","AAC-216","2018/11/23 15:07:34","新北市土城區學府路一段276號","121.4502","24.98331","6501300","土城區"
"221010","269-BY","2018/11/23 15:07:45","新北市汐止區汐萬路一段39-3號","121.655008333333","25.0694183333333","6501100","汐止區"
"220028","200-UY","2018/11/23 15:07:30","新北市板橋區大觀路二段153巷44弄1號","121.44619","24.9992866666667","6500100","板橋區"
"220050","245-BX","2018/11/23 15:07:39","新北市板橋區莒光路171巷1弄16號","121.474516666667","25.0245333333333","6500100","板橋區"
"220012","282-UM","2018/11/23 15:07:44","新北市板橋區民族路219巷69號","121.468545","25.0091216666667","6500100","板橋區"
"220043","285-UM","2018/11/23 15:07:48","新北市板橋區陽明街10號","121.466616666667","25.0217083333333","6500100","板橋區"
"220031","286-VK","2018/11/23 15:07:43","新北市板橋區僑中二街92巷30號","121.444791666667","25.009105","6500100","板橋區"
"220029","287-VK","2018/11/23 15:07:38","新北市板橋區僑中一街86號","121.447265","25.0116416666667","6500100","板橋區"
"220009","295-UM","2018/11/23 15:07:45","新北市板橋區四川路一段288號","121.458611666667","25.0007883333333","6500100","板橋區"
"220041","307-R5","2018/11/23 15:06:09","新北市板橋區新海路137號","121.460396666667","25.023515","6500100","板橋區"
"220038","487-VK","2018/11/23 15:07:52","新北市板橋區新海路403巷12號","121.45804","25.026575","6500100","板橋區"
"220052","561-BX","2018/11/23 15:07:42","新北市板橋區英士路58巷7號","121.460631666667","25.02509","6500100","板橋區"
"220011","609-BX","2018/11/23 15:07:46","新北市板橋區中山路二段156號","121.476815","25.017095","6500100","板橋區"
"220025","687-BX","2018/11/23 15:07:37","新北市板橋區大觀路一段29巷35-4號","121.451208333333","25.0076483333333","6500100","板橋區"
"220042","689-BX","2018/11/23 15:07:30","新北市板橋區長江路二段8號","121.46467","25.0313583333333","6500100","板橋區"
"220018","806-UM","2018/11/23 15:07:49","新北市板橋區四川路二段245巷65號","121.452506666667","24.9921083333333","6500100","板橋區"
"220003","827-TW","2018/11/23 15:07:31","新北市板橋區忠孝路48巷11弄2號","121.461421666667","24.99973","6500100","板橋區"
"220014","829-TW","2018/11/23 15:07:43","新北市板橋區中山路一段206巷33號","121.470428333333","25.0129966666667","6500100","板橋區"
"220051","830-TW","2018/11/23 15:07:43","新北市板橋區仁化街76號","121.476168333333","25.0316966666667","6500100","板橋區"
"220037","833-TW","2018/11/23 15:07:43","新北市板橋區民治街51巷1號","121.479186666667","25.0336933333333","6500100","板橋區"
"220046","AAC-210","2018/11/23 15:07:48","新北市板橋區復興街135號","121.461105","25.0180233333333","6500100","板橋區"
"235032","KEA-2873","2018/11/23 15:07:27","新北市中和區連城路215號","121.494386666667","24.997855","6500300","中和區"
