"lineid","car","time","location","longitude","latitude","cityid","cityname"
"249005","172-UM","2018/11/23 16:47:39","新北市八里區大堀湖1-9號","121.42285","25.1550166666667","6502300","八里區"
"231046","107-UY","2018/11/23 16:47:42","新北市新店區灣潭路4-1號","121.536676666667","24.9473583333333","6500600","新店區"
"241011","013-R5","2018/11/23 16:47:44","新北市三重區仁愛街53巷75號","121.498136666667","25.0723","6500200","三重區"
"241028","022-UY","2018/11/23 16:47:45","新北市三重區光興街71號","121.497921666667","25.0600266666667","6500200","三重區"
"241008","059-VK","2018/11/23 16:47:53","新北市三重區永福街179巷28號","121.477991666667","25.074825","6500200","三重區"
"241022","060-VK","2018/11/23 16:47:44","新北市三重區三民街112號","121.484858333333","25.0634083333333","6500200","三重區"
"241031","061-VK","2018/11/23 16:47:36","新北市三重區過圳街42-2號","121.48802","25.0601316666667","6500200","三重區"
"241015","062-VK","2018/11/23 16:47:37","新北市三重區文化北路43巷9號","121.499265","25.0655066666667","6500200","三重區"
"241017","063-VK","2018/11/23 16:47:54","新北市三重區國隆路8巷49號","121.492403333333","25.06342","6500200","三重區"
"241024","065-VK","2018/11/23 16:47:50","新北市三重區中正北路331巷22號","121.473785","25.0723466666667","6500200","三重區"
"241026","066-VK","2018/11/23 16:47:48","新北市三重區文化南路10巷11號","121.500655","25.062065","6500200","三重區"
"241002","090-VK","2018/11/23 16:47:39","新北市三重區仁義街161-2號","121.497006666667","25.08127","6500200","三重區"
"241003","091-VK","2018/11/23 16:47:38","新北市三重區五華街127號","121.491241666667","25.0841866666667","6500200","三重區"
"241005","262-UM","2018/11/23 16:47:50","新北市三重區仁華街80巷14號","121.484545","25.0835466666667","6500200","三重區"
"241016","265-UM","2018/11/23 16:47:41","新北市三重區大同北路117號","121.494118333333","25.0643333333333","6500200","三重區"
"241009","267-UM","2018/11/23 16:47:43","新北市三重區三和路四段203巷224號","121.486686666667","25.0808016666667","6500200","三重區"
"241018","268-UM","2018/11/23 16:47:51","新北市三重區安樂街77號","121.49479","25.06937","6500200","三重區"
"241032","269-UM","2018/11/23 16:47:39","新北市三重區重陽路一段144號","121.486693333333","25.0608033333333","6500200","三重區"
"241013","270-UM","2018/11/23 16:47:36","新北市三重區仁愛街91號","121.495751666667","25.0734183333333","6500200","三重區"
"241025","271-UM","2018/11/23 16:47:54","新北市三重區中正北路361-1號","121.472558333333","25.07179","6500200","三重區"
"241007","398-BY","2018/11/23 16:47:35","新北市三重區三和路四段181巷99號","121.484995","25.079595","6500200","三重區"
"241004","475-VK","2018/11/23 16:47:44","新北市三重區仁愛街403號","121.490906666667","25.0810583333333","6500200","三重區"
"241030","480-VK","2018/11/23 16:47:52","新北市三重區新興路4號","121.492745","25.052855","6500200","三重區"
"241014","543-UM","2018/11/23 16:47:49","新北市三重區龍濱路64號","121.502478333333","25.0691883333333","6500200","三重區"
"241023","545-UM","2018/11/23 16:47:44","新北市三重區中華路76巷37-1號","121.482001666667","25.062685","6500200","三重區"
"241001","547-UM","2018/11/23 16:47:44","新北市三重區仁政街49號","121.492998333333","25.077065","6500200","三重區"
"241019","KEA-2593","2018/11/23 16:47:48","新北市三重區力行路一段179巷17弄1號","121.485106666667","25.0699666666667","6500200","三重區"
"241006","AAD-863","2018/11/23 16:47:41","新北市三重區車路頭街139巷2號","121.483873333333","25.0764416666667","6500200","三重區"
"241020","743-BX","2018/11/23 16:47:38","新北市三重區忠孝路二段34號","121.485775","25.0710233333333","6500200","三重區"
"241012","941-UM","2018/11/23 16:47:39","新北市三重區河邊北街216號","121.502221666667","25.0749816666667","6500200","三重區"
"241029","942-UM","2018/11/23 16:47:42","新北市三重區中正南路201巷12號","121.492453333333","25.0540166666667","6500200","三重區"
"235065","098-UM","2018/11/23 16:47:45","新北市中和區員山路36巷16-3號","121.48503","24.9911916666667","6500300","中和區"
"247010","056-VK","2018/11/23 16:47:48","新北市蘆洲區環堤大道365號","121.456431666667","25.0973666666667","6501400","蘆洲區"
"247008","053-VK","2018/11/23 16:47:39","新北市蘆洲區永安南路二段2號","121.467936666667","25.0765783333333","6501400","蘆洲區"
"247022","001-UY","2018/11/23 16:47:52","新北市蘆洲區環堤大道365號","121.45648","25.0973683333333","6501400","蘆洲區"
"228002","585-TW","2018/11/23 16:47:46","新北市貢寮區貢寮里朝陽街120巷2號","121.907916666667","25.0229233333333","6502600","貢寮區"
"228003","828-UM","2018/11/23 16:47:49","新北市貢寮區貢寮里朝陽街1-2號","121.912378333333","25.0212433333333","6502600","貢寮區"
"224006","676-BX","2018/11/23 16:47:39","新北市瑞芳區大寮路356-1號","121.784765","25.10318","6501200","瑞芳區"
"224008","285-BY","2018/11/23 16:47:51","新北市瑞芳區中山路375號","121.796061666667","25.1101583333333","6501200","瑞芳區"
"224005","275-VK","2018/11/23 16:47:35","新北市瑞芳區中央路48巷吉祥園3號","121.760033333333","25.1037066666667","6501200","瑞芳區"
"224009","273-VK","2018/11/23 16:44:40","新北市瑞芳區中山路198號","121.801275","25.1068066666667","6501200","瑞芳區"
"224005","271-BY","2018/11/23 16:47:36","新北市瑞芳區洞頂路63號","121.86166","25.1206066666667","6501200","瑞芳區"
"227011","642-TC","2018/11/23 16:47:35","新北市雙溪區牡丹里中正路93巷3號","121.86146","25.0478233333333","6502500","雙溪區"
"227003","400-TW","2018/11/23 16:47:48","新北市雙溪區外柑里外柑腳56號","121.807971666667","25.0178733333333","6502500","雙溪區"
"251008","181-VK","2018/11/23 16:47:43","新北市淡水區樹梅坑9號","121.47288","25.1426566666667","6501000","淡水區"
"251012","441-VK","2018/11/23 16:47:42","新北市淡水區中正路二段31號","121.419658333333","25.1814983333333","6501000","淡水區"
"251007","577-R6","2018/11/23 16:47:47","新北市淡水區中正路二段4號","121.420651666667","25.18036","6501000","淡水區"
"252002","178-VK","2018/11/23 16:47:50","新北市三芝區芝柏路1號","121.512078333333","25.2549316666667","6502100","三芝區"
"252001","292-VK","2018/11/23 16:47:47","新北市三芝區淡金路二段76-2號","121.504118333333","25.2610166666667","6502100","三芝區"
"236054","AAC-216","2018/11/23 16:20:15","新北市土城區城林路6巷80號","121.43855","24.9796183333333","6501300","土城區"
"242019","175-VK","2018/11/23 16:47:46","新北市新莊區三和路12-21號","121.441948333333","25.0386666666667","6500500","新莊區"
"242017","280-VK","2018/11/23 16:47:38","新北市新莊區三和路12-21號","121.441985","25.0382983333333","6500500","新莊區"
