"lineid","car","time","location","longitude","latitude","cityid","cityname"
"249005","172-UM","2018/11/23 17:27:39","新北市八里區荖阡坑路71號","121.407071666667","25.1262083333333","6502300","八里區"
"249001","173-UM","2018/11/23 17:27:42","新北市八里區中華路一段5-28號","121.420666666667","25.1573333333333","6502300","八里區"
"249004","303-UY","2018/11/23 17:27:38","新北市八里區民治街32號","121.41457","25.1574466666667","6502300","八里區"
"249002","305-UY","2018/11/23 17:27:30","新北市八里區烏山頭1-10號","121.44737","25.1403033333333","6502300","八里區"
"249003","593-UM","2018/11/23 17:27:36","新北市八里區中山路二段315號","121.400658333333","25.14774","6502300","八里區"
"232011","375-UM","2018/11/23 17:27:51","新北市坪林區九芎林14-1號","121.70726","24.931085","6502000","坪林區"
"244023","069-UM","2018/11/23 17:27:52","新北市林口區東明一街15巷10號","121.39306","25.0720933333333","6501700","林口區"
"244007","080-UY","2018/11/23 17:27:46","新北市林口區湖子8號","121.392178333333","25.09217","6501700","林口區"
"244019","403-UM","2018/11/23 17:27:44","新北市林口區文化一路一段99-3號","121.372731666667","25.0709116666667","6501700","林口區"
"244013","KEA-2802","2018/11/23 17:27:51","新北市林口區粉寮路二段167-1號","121.404446666667","25.0884833333333","6501700","林口區"
"244017","485-VK","2018/11/23 17:27:47","新北市林口區粉寮路19號","121.39989","25.0821233333333","6501700","林口區"
"244009","656-BX","2018/11/23 17:27:38","新北市林口區文化一路二段285-1號","121.385011666667","25.084645","6501700","林口區"
"244011","701-TV","2018/11/23 17:27:48","新北市林口區仁愛路一段669號","121.387661666667","25.07673","6501700","林口區"
"244025","837-TS","2018/11/23 17:27:38","新北市林口區忠孝路53號","121.365448333333","25.0750916666667","6501700","林口區"
"244021","838-TS","2018/11/23 17:27:47","新北市林口區東林街14號","121.396158333333","25.0789683333333","6501700","林口區"
"231046","107-UY","2018/11/23 17:27:42","新北市新店區直潭路92號","121.530893333333","24.9375966666667","6500600","新店區"
"241011","013-R5","2018/11/23 17:27:44","新北市三重區河邊北街108號","121.503785","25.0708883333333","6500200","三重區"
"241008","059-VK","2018/11/23 17:27:33","新北市三重區車路頭街137號","121.484053333333","25.07623","6500200","三重區"
"241015","062-VK","2018/11/23 17:27:45","新北市三重區長元街65巷16弄10號","121.50346","25.0662816666667","6500200","三重區"
"241017","063-VK","2018/11/23 17:27:43","新北市三重區重新路三段45-6號","121.493525","25.0618216666667","6500200","三重區"
"241024","065-VK","2018/11/23 17:27:40","新北市三重區中正北路191巷3弄2號","121.477675","25.0698716666667","6500200","三重區"
"241003","091-VK","2018/11/23 17:27:38","新北市三重區集賢路87-1號","121.493638333333","25.0868283333333","6500200","三重區"
"241005","262-UM","2018/11/23 17:27:50","新北市三重區永安北路二段5巷7號","121.481793333333","25.080905","6500200","三重區"
"241016","265-UM","2018/11/23 17:27:41","新北市三重區信義西街51號","121.49515","25.0637583333333","6500200","三重區"
"241009","267-UM","2018/11/23 17:27:43","新北市三重區仁美街52號","121.487105","25.0779316666667","6500200","三重區"
"241018","268-UM","2018/11/23 17:27:50","新北市三重區新北大道一段50號","121.487653333333","25.061455","6500200","三重區"
"241032","269-UM","2018/11/23 17:27:39","新北市三重區名源街33號","121.481898333333","25.060295","6500200","三重區"
"241025","271-UM","2018/11/23 17:27:54","新北市三重區中正北路346號","121.477818333333","25.0691683333333","6500200","三重區"
"241007","398-BY","2018/11/23 17:27:35","新北市三重區三和路四段145巷170號","121.488421666667","25.07949","6500200","三重區"
"241030","480-VK","2018/11/23 17:27:52","新北市三重區環河南路220-8號","121.493341666667","25.0526716666667","6500200","三重區"
"241014","543-UM","2018/11/23 17:27:49","新北市三重區長壽街56號","121.500813333333","25.0682633333333","6500200","三重區"
"241023","545-UM","2018/11/23 17:27:44","新北市三重區三民街146巷3弄2號","121.48171","25.0646","6500200","三重區"
"241019","KEA-2593","2018/11/23 17:27:49","新北市三重區自強路二段28號","121.489421666667","25.0691866666667","6500200","三重區"
"241020","743-BX","2018/11/23 17:27:38","新北市三重區忠孝路二段4號","121.48677","25.0713783333333","6500200","三重區"
"241012","941-UM","2018/11/23 17:27:39","新北市三重區仁興街41號","121.49912","25.0758066666667","6500200","三重區"
"235064","005-UY","2018/11/23 17:27:54","新北市中和區員山路36巷16-3號","121.484931666667","24.9912616666667","6500300","中和區"
"235065","098-UM","2018/11/23 17:27:45","新北市中和區員山路36巷16-3號","121.485105","24.9911466666667","6500300","中和區"
"247012","KEA-2869","2018/11/23 17:27:35","新北市蘆洲區民族路96號","121.478126666667","25.08512","6501400","蘆洲區"
"247002","893-R6","2018/11/23 17:27:52","新北市蘆洲區永樂街38巷67弄1號","121.458288333333","25.0905766666667","6501400","蘆洲區"
"247016","546-UM","2018/11/23 17:27:47","新北市蘆洲區光華路22巷35號","121.468391666667","25.0845966666667","6501400","蘆洲區"
"247024","500-BY","2018/11/23 17:27:51","新北市蘆洲區三民路577號","121.461901666667","25.09279","6501400","蘆洲區"
"247014","339-TH","2018/11/23 17:27:52","新北市蘆洲區三民路33號","121.475415","25.082995","6501400","蘆洲區"
"247006","337-TH","2018/11/23 17:27:41","新北市蘆洲區長安街22巷31弄9號","121.464178333333","25.0802366666667","6501400","蘆洲區"
"247020","057-VK","2018/11/23 17:27:55","新北市蘆洲區水湳街178號","121.470608333333","25.0939733333333","6501400","蘆洲區"
"247010","056-VK","2018/11/23 17:27:48","新北市蘆洲區集賢路402號","121.479895","25.0820216666667","6501400","蘆洲區"
"247008","053-VK","2018/11/23 17:27:39","新北市蘆洲區信義路34巷56號","121.475181666667","25.07796","6501400","蘆洲區"
"247018","007-UY","2018/11/23 17:27:41","新北市蘆洲區民權路146號","121.472716666667","25.0891983333333","6501400","蘆洲區"
"247004","002-UY","2018/11/23 17:27:33","新北市蘆洲區中原路35號","121.460043333333","25.0826433333333","6501400","蘆洲區"
"247022","001-UY","2018/11/23 17:27:32","新北市蘆洲區三民路341號","121.465021666667","25.0908583333333","6501400","蘆洲區"
"228002","585-TW","2018/11/23 17:27:46","新北市貢寮區福隆里興隆街100巷7號","121.936115","25.0181833333333","6502600","貢寮區"
"228001","670-TC","2018/11/23 17:27:46","新北市貢寮區仁理村仁愛路5號","121.924198333333","25.0533166666667","6502600","貢寮區"
"228003","828-UM","2018/11/23 17:27:49","新北市貢寮區仁理村研海街22號","121.927536666667","25.0380316666667","6502600","貢寮區"
"224010","AGQ-8101","2018/11/23 17:27:35","新北市瑞芳區逢甲路15號","121.80964","25.108505","6501200","瑞芳區"
"224006","676-BX","2018/11/23 17:27:39","新北市瑞芳區傑魚坑路151號","121.79011","25.109635","6501200","瑞芳區"
"224008","285-BY","2018/11/23 17:27:51","新北市瑞芳區侯硐路314號","121.832583333333","25.0895533333333","6501200","瑞芳區"
"224009","273-VK","2018/11/23 17:27:39","新北市瑞芳區汽車路90-4號","121.842466666667","25.108925","6501200","瑞芳區"
"224005","271-BY","2018/11/23 17:27:36","新北市瑞芳區洞頂路138-1號","121.862321666667","25.124445","6501200","瑞芳區"
"227011","642-TC","2018/11/23 17:22:32","新北市雙溪區三貂里定福路1-2號","121.85074","25.0634066666667","6502500","雙溪區"
"227003","400-TW","2018/11/23 17:27:48","新北市雙溪區上林里內平林13號","121.836665","25.0284483333333","6502500","雙溪區"
"251005","010-UM","2018/11/23 17:27:38","新北市淡水區鄧公路23巷2號","121.451051666667","25.1701016666667","6501000","淡水區"
"251002","012-UM","2018/11/23 17:27:51","新北市淡水區中正路382號","121.42857","25.1754166666667","6501000","淡水區"
"251008","181-VK","2018/11/23 17:27:43","新北市淡水區大同路100巷6號","121.462573333333","25.1396683333333","6501000","淡水區"
"251010","413-VK","2018/11/23 17:27:54","新北市淡水區中正路二段211號","121.426175","25.189135","6501000","淡水區"
"251012","441-VK","2018/11/23 17:27:42","新北市淡水區北新路117號","121.448921666667","25.1785566666667","6501000","淡水區"
"251004","443-VK","2018/11/23 17:14:56","新北市淡水區中正東路二段88巷15號","121.459166666667","25.15042","6501000","淡水區"
"251006","561-UM","2018/11/23 17:27:46","新北市淡水區大智街13號","121.441888333333","25.1746766666667","6501000","淡水區"
"251009","575-R6","2018/11/23 17:27:47","新北市淡水區重建街1巷3號","121.439803333333","25.17337","6501000","淡水區"
"251007","577-R6","2018/11/23 17:27:47","新北市淡水區民生路60號","121.462093333333","25.137895","6501000","淡水區"
"251011","650-BX","2018/11/23 17:27:41","新北市淡水區坪頂路616號","121.479535","25.1598466666667","6501000","淡水區"
"251003","673-BX","2018/11/23 17:27:50","新北市淡水區建設街1巷1號","121.438923333333","25.172845","6501000","淡水區"
"207003","550-UM","2018/11/23 17:27:49","新北市萬里區龜吼里美崙路91號","121.685721666667","25.1850066666667","6502800","萬里區"
"207004","225-TW","2018/11/23 17:27:40","新北市萬里區萬里里景美路16號","121.686923333333","25.17357","6502800","萬里區"
"252002","178-VK","2018/11/23 17:27:50","新北市三芝區忠孝街1-15號","121.505558333333","25.2539133333333","6502100","三芝區"
"252001","292-VK","2018/11/23 17:27:46","新北市三芝區長安街119號","121.498041666667","25.2596483333333","6502100","三芝區"
"237012","275-BY","2018/11/23 17:27:46","新北市三峽區中山路459巷137號","121.349935","24.93395","6500900","三峽區"
"237015","649-BX","2018/11/23 17:27:47","新北市三峽區中山路217-1號","121.363606666667","24.9368633333333","6500900","三峽區"
"242037","AAC-296","2018/11/23 17:27:53","新北市新莊區建國二路5-3號","121.434866666667","25.0237283333333","6500500","新莊區"
"242058","986-R7","2018/11/23 17:27:55","新北市新莊區中正路535號","121.438836666667","25.03336","6500500","新莊區"
"242056","751-BX","2018/11/23 17:27:38","新北市新莊區景德路274號","121.448228333333","25.0336616666667","6500500","新莊區"
"242029","705-TV","2018/11/23 17:27:55","新北市新莊區復興路二段190號","121.45914","25.0443683333333","6500500","新莊區"
"242027","615-BX","2018/11/23 17:27:48","新北市新莊區思源路47號","121.459901666667","25.04001","6500500","新莊區"
"242025","613-BX","2018/11/23 17:27:33","新北市新莊區中港路272號","121.453313333333","25.0441183333333","6500500","新莊區"
"242044","566-BX","2018/11/23 17:27:39","新北市新莊區富國路156號","121.423321666667","25.0249566666667","6500500","新莊區"
"242048","497-BY","2018/11/23 17:27:43","新北市新莊區四維路210號","121.421361666667","25.020105","6500500","新莊區"
"242054","441-UM","2018/11/23 17:27:38","新北市新莊區瓊林南路305巷13號","121.435093333333","25.005255","6500500","新莊區"
"242002","440-UM","2018/11/23 17:27:38","新北市新莊區新莊路209號","121.455415","25.0355216666667","6500500","新莊區"
"242039","415-TV","2018/11/23 17:27:46","新北市新莊區民安路272號","121.427605","25.02136","6500500","新莊區"
"242009","413-TV","2018/11/23 17:27:45","新北市新莊區中原路193號","121.451938333333","25.0542833333333","6500500","新莊區"
"242046","400-BY","2018/11/23 17:27:35","新北市新莊區新樹路67巷3-1號","121.441195","25.0305866666667","6500500","新莊區"
"242023","362-BY","2018/11/23 17:27:40","新北市新莊區中港一街145號","121.447798333333","25.04505","6500500","新莊區"
"242060","353-BY","2018/11/23 17:27:35","新北市新莊區瓊林路190-2號","121.439501666667","25.0210083333333","6500500","新莊區"
"242011","132-UY","2018/11/23 17:27:54","新北市新莊區中港路471號","121.452371666667","25.0491333333333","6500500","新莊區"
"242034","135-UY","2018/11/23 17:27:39","新北市新莊區新泰路3巷1號","121.449813333333","25.0322283333333","6500500","新莊區"
"242050","172-VK","2018/11/23 17:27:37","新北市新莊區瓊林南路75-2號","121.434866666667","25.0142416666667","6500500","新莊區"
"242013","173-VK","2018/11/23 17:27:50","新北市新莊區中和街63號","121.447543333333","25.047115","6500500","新莊區"
"242019","175-VK","2018/11/23 17:27:46","新北市新莊區中港路105號","121.455398333333","25.0395633333333","6500500","新莊區"
"242007","176-VK","2018/11/23 17:27:45","新北市新莊區自強街1號","121.454725","25.04554","6500500","新莊區"
"242032","348-TH","2018/11/23 17:27:45","新北市新莊區新泰路413巷22號","121.44255","25.044505","6500500","新莊區"
"242005","349-TH","2018/11/23 17:27:44","新北市新莊區中港路289號","121.452875","25.044045","6500500","新莊區"
"242021","350-TH","2018/11/23 17:27:37","新北市新莊區中正路130號","121.45278","25.036185","6500500","新莊區"
"242015","351-TH","2018/11/23 17:27:34","新北市新莊區建中街100號","121.44652","25.03654","6500500","新莊區"
"238015","755-BX","2018/11/23 17:27:45","新北市樹林區大安路251號","121.41936","24.9941416666667","6500700","樹林區"
"238006","599-UM","2018/11/23 17:27:47","新北市樹林區八德街69號","121.419453333333","24.9821866666667","6500700","樹林區"
"238018","571-TV","2018/11/23 17:27:42","新北市樹林區鎮前街127號","121.424223333333","24.9895566666667","6500700","樹林區"
"238024","5061-A6","2018/11/23 17:27:50","新北市樹林區博愛街223號","121.424011666667","24.9861166666667","6500700","樹林區"
"238022","KEA-2213","2018/11/23 17:27:43","新北市樹林區忠孝街21號","121.423518333333","24.982525","6500700","樹林區"
"238021","KEA-2539","2018/11/23 17:27:39","新北市樹林區西圳街一段203巷35號","121.395028333333","24.95771","6500700","樹林區"
"238025","303-VK","2018/11/23 17:27:39","新北市樹林區保安街一段326號","121.41833","24.9976683333333","6500700","樹林區"
"238017","283-BY","2018/11/23 17:27:48","新北市樹林區光武街32巷2號","121.416193333333","25.0056466666667","6500700","樹林區"
"238014","282-BY","2018/11/23 17:27:41","新北市樹林區保安街一段247號","121.419798333333","24.996665","6500700","樹林區"
"238020","268-VK","2018/11/23 17:27:54","新北市樹林區俊英街21-7號","121.429093333333","25.001995","6500700","樹林區"
"238026","172-UY","2018/11/23 17:27:50","新北市樹林區味王街46巷34號","121.402676666667","24.9736983333333","6500700","樹林區"
"238016","169-UY","2018/11/23 17:27:44","新北市樹林區長壽街32號","121.42282","24.993965","6500700","樹林區"
"239007","AAC-297","2018/11/23 17:27:35","新北市鶯歌區中山路48號","121.351995","24.9570766666667","6500800","鶯歌區"
"239006","891-R6","2018/11/23 17:27:37","新北市鶯歌區鳳鳴路45號","121.333433333333","24.96543","6500800","鶯歌區"
"239008","527-UM","2018/11/23 17:27:46","新北市鶯歌區大湖路351號","121.338435","24.9715583333333","6500800","鶯歌區"
"239001","417-VK","2018/11/23 17:27:36","新北市鶯歌區中正三路94號","121.338175","24.940975","6500800","鶯歌區"
"239003","360-BY","2018/11/23 17:27:38","新北市鶯歌區德昌街68號","121.332975","24.959885","6500800","鶯歌區"
"239002","359-BY","2018/11/23 17:27:50","新北市鶯歌區國慶街78號","121.350135","24.9547133333333","6500800","鶯歌區"
"239004","193-VK","2018/11/23 17:27:53","新北市鶯歌區三鶯路23號","121.356115","24.941595","6500800","鶯歌區"
"221008","489-VK","2018/11/23 17:27:49","新北市汐止區康寧街901號","121.651373333333","25.0750266666667","6501100","汐止區"
"242041","281-VK","2018/11/23 17:27:49","新北市新莊區新樹路113巷33號","121.43951","25.0263333333333","6500500","新莊區"
"242017","280-VK","2018/11/23 17:27:41","新北市新莊區中華路一段103號","121.45273","25.043865","6500500","新莊區"
"235061","KEA-2875","2018/11/23 17:26:22","新北市中和區員山路36巷16-2號","121.48531","24.9917166666667","6500300","中和區"
