"lineid","car","time","location","longitude","latitude","cityid","cityname"
"234026","9371-KE","2018/11/23 17:57:43","新北市永和區永和路一段41號","121.512813333333","25.0062","6500400","永和區"
"249005","172-UM","2018/11/23 17:57:39","新北市八里區荖阡坑路22-1號","121.399018333333","25.13662","6502300","八里區"
"249001","173-UM","2018/11/23 17:57:42","新北市八里區龍米路二段30號","121.44858","25.140065","6502300","八里區"
"249004","303-UY","2018/11/23 17:57:38","新北市八里區龍米路二段150號","121.435996666667","25.1565533333333","6502300","八里區"
"249002","305-UY","2018/11/23 17:57:35","新北市八里區龍形五街23號","121.450121666667","25.1332583333333","6502300","八里區"
"249003","593-UM","2018/11/23 17:57:36","新北市八里區中山路二段306號","121.404691666667","25.1501183333333","6502300","八里區"
"248008","095-VK","2018/11/23 17:57:44","新北市五股區中興路二段150號","121.458606666667","25.0785483333333","6501500","五股區"
"248018","225-UY","2018/11/23 17:57:40","新北市五股區中興路二段83巷26-3號","121.460105","25.07542","6501500","五股區"
"232011","375-UM","2018/11/23 17:57:51","新北市坪林區北宜路八段186號","121.707868333333","24.9345866666667","6502000","坪林區"
"244023","069-UM","2018/11/23 17:57:52","新北市林口區東湖路105巷73號","121.38479","25.071635","6501700","林口區"
"244007","080-UY","2018/11/23 17:57:46","新北市林口區林口路78號","121.389308333333","25.0806116666667","6501700","林口區"
"244019","403-UM","2018/11/23 17:57:44","新北市林口區文化一路一段126號","121.375358333333","25.0726483333333","6501700","林口區"
"244013","KEA-2802","2018/11/23 17:57:51","新北市林口區中山路130號","121.392196666667","25.0784833333333","6501700","林口區"
"244017","485-VK","2018/11/23 17:57:47","新北市林口區文化二路一段228號","121.369695","25.0723933333333","6501700","林口區"
"244009","656-BX","2018/11/23 17:57:38","新北市林口區竹林路606巷23號","121.384961666667","25.082925","6501700","林口區"
"244011","701-TV","2018/11/23 17:57:48","新北市林口區中正路190號","121.39155","25.0775383333333","6501700","林口區"
"244025","837-TS","2018/11/23 17:57:38","新北市林口區忠孝三路71號","121.359843333333","25.06904","6501700","林口區"
"244021","838-TS","2018/11/23 17:57:47","新北市林口區新寮27-15號","121.396531666667","25.0666633333333","6501700","林口區"
"243013","AAD-798","2018/11/23 17:57:35","新北市泰山區犁頭窠16-1號","121.420771666667","25.0534316666667","6501600","泰山區"
"222003","436-BY","2018/11/23 17:57:43","新北市深坑區炮子崙23號","121.607251666667","24.9908816666667","6501800","深坑區"
"222002","659-BX","2018/11/23 17:57:50","新北市深坑區文化街116號","121.615845","25.0018433333333","6501800","深坑區"
"231046","107-UY","2018/11/23 17:57:42","新北市新店區康雅崙路45號","121.535696666667","24.926985","6500600","新店區"
"231058","3713-VJ","2018/11/23 17:57:41","新北市新店區安華路28-1號","121.519138333333","24.960575","6500600","新店區"
"241024","065-VK","2018/11/23 17:57:40","新北市三重區國道路一段42號","121.483196666667","25.072965","6500200","三重區"
"241016","265-UM","2018/11/23 17:57:41","新北市三重區大同北路97號","121.494578333333","25.063625","6500200","三重區"
"235064","005-UY","2018/11/23 17:57:34","新北市中和區員山路36巷16-3號","121.485023333333","24.991295","6500300","中和區"
"235063","006-UY","2018/11/23 17:57:39","新北市中和區員山路36巷16-3號","121.485093333333","24.9912733333333","6500300","中和區"
"235065","098-UM","2018/11/23 17:57:45","新北市中和區中山路二段361號","121.487981666667","25.0047216666667","6500300","中和區"
"235058","151-BY","2018/11/23 17:57:50","新北市中和區錦和路366號","121.490625","24.9911233333333","6500300","中和區"
"235038","185-VK","2018/11/23 17:57:51","新北市中和區中正路426號","121.491813333333","24.9936333333333","6500300","中和區"
"235067","255-BX","2018/11/23 17:57:34","新北市中和區和城路一段271巷1號","121.485735","24.9917283333333","6500300","中和區"
"247012","KEA-2869","2018/11/23 17:57:55","新北市蘆洲區民族路266號","121.478878333333","25.08888","6501400","蘆洲區"
"235060","647-TV","2018/11/23 17:57:42","新北市中和區員山路36巷16-3號","121.485183333333","24.99132","6500300","中和區"
"235062","800-TS","2018/11/23 17:57:38","新北市中和區員山路36巷16-3號","121.484885","24.99166","6500300","中和區"
"235051","157-BY","2018/11/23 17:57:41","新北市中和區和城路一段271巷1號","121.485458333333","24.9918833333333","6500300","中和區"
"235037","AAC-213","2018/11/23 17:57:50","新北市中和區中正路637巷52弄1號","121.485411666667","24.9935033333333","6500300","中和區"
"247002","893-R6","2018/11/23 17:57:52","新北市蘆洲區永平街32巷57弄10號","121.459468333333","25.09306","6501400","蘆洲區"
"247016","546-UM","2018/11/23 17:57:47","新北市蘆洲區中正路185巷78弄21號","121.465421666667","25.0851266666667","6501400","蘆洲區"
"247024","500-BY","2018/11/23 17:57:52","新北市蘆洲區長興路52號","121.463641666667","25.0836416666667","6501400","蘆洲區"
"247014","339-TH","2018/11/23 17:57:52","新北市蘆洲區忠孝路45號","121.471413333333","25.0862383333333","6501400","蘆洲區"
"247006","337-TH","2018/11/23 17:57:41","新北市蘆洲區長榮路1號","121.463771666667","25.0817566666667","6501400","蘆洲區"
"247020","057-VK","2018/11/23 17:57:35","新北市蘆洲區三民路128巷26號","121.470898333333","25.0882666666667","6501400","蘆洲區"
"247008","053-VK","2018/11/23 17:57:39","新北市蘆洲區中山一路236號","121.472693333333","25.0801783333333","6501400","蘆洲區"
"247018","007-UY","2018/11/23 17:57:41","新北市蘆洲區復興路318號","121.48178","25.0901583333333","6501400","蘆洲區"
"226004","205-ST","2018/11/23 17:57:53","新北市平溪區石底里公園街18-3號","121.733376666667","25.0256966666667","6502400","平溪區"
"228002","585-TW","2018/11/23 17:57:46","新北市貢寮區福連里香蘭街2-1號","121.971163333333","25.0243183333333","6502600","貢寮區"
"228001","670-TC","2018/11/23 17:57:46","新北市貢寮區真理里新港街26巷37號","121.92853","25.0550466666667","6502600","貢寮區"
"228003","828-UM","2018/11/23 17:57:49","新北市貢寮區真理里美艷山街6-2號","121.928806666667","25.060735","6502600","貢寮區"
"224006","676-BX","2018/11/23 17:57:39","新北市瑞芳區大寮路356-1號","121.784885","25.1032333333333","6501200","瑞芳區"
"224008","285-BY","2018/11/23 17:57:51","新北市瑞芳區明燈路一段45巷100號","121.820506666667","25.1045166666667","6501200","瑞芳區"
"224009","273-VK","2018/11/23 17:57:38","新北市瑞芳區山尖路2號","121.85395","25.1155283333333","6501200","瑞芳區"
"224005","271-BY","2018/11/23 17:57:36","新北市瑞芳區深澳路209號","121.820093333333","25.1321416666667","6501200","瑞芳區"
"253006","032-BX","2018/11/23 17:57:47","新北市石門區大丘田45-2號","121.549755","25.2748633333333","6502200","石門區"
"222001","KEA-2212","2018/11/23 17:57:37","新北市深坑區文山路三段110號","121.608635","24.999405","6501800","深坑區"
"208002","KEA-2872","2018/11/23 17:57:43","新北市金山區三界壇路33號","121.62755","25.227915","6502700","金山區"
"208003","665-BX","2018/11/23 17:57:37","新北市金山區磺港里磺港路301號","121.643671666667","25.2265866666667","6502700","金山區"
"208001","761-BX","2018/11/23 17:57:38","新北市金山區磺港里社寮18號","121.638761666667","25.227905","6502700","金山區"
"251005","010-UM","2018/11/23 17:57:49","新北市淡水區水源街一段139號","121.447056666667","25.171945","6501000","淡水區"
"251001","011-UM","2018/11/23 17:57:54","新北市淡水區民權路94巷1號","121.463085","25.1247816666667","6501000","淡水區"
"251002","012-UM","2018/11/23 17:57:51","新北市淡水區鼻頭街18-5號","121.446875","25.1668216666667","6501000","淡水區"
"251008","181-VK","2018/11/23 17:57:42","新北市淡水區八勢一街32巷1號","121.4619","25.155735","6501000","淡水區"
"251010","413-VK","2018/11/23 17:57:54","新北市淡水區中正路一段130-7號","121.422255","25.179455","6501000","淡水區"
"251012","441-VK","2018/11/23 17:57:42","新北市淡水區北新路三段30號","121.483688333333","25.18647","6501000","淡水區"
"251004","443-VK","2018/11/23 17:57:36","新北市淡水區民權路187巷54號","121.461291666667","25.1336666666667","6501000","淡水區"
"251006","561-UM","2018/11/23 17:57:38","新北市淡水區新生街19號","121.438883333333","25.17361","6501000","淡水區"
"251009","575-R6","2018/11/23 17:57:47","新北市淡水區大仁街6巷1號","121.442406666667","25.1746","6501000","淡水區"
"251007","577-R6","2018/11/23 17:57:47","新北市淡水區中正東路二段161巷11弄10號","121.46147","25.1460366666667","6501000","淡水區"
"251011","650-BX","2018/11/23 17:57:40","新北市淡水區坪頂路536號","121.479406666667","25.1605716666667","6501000","淡水區"
"251003","673-BX","2018/11/23 17:57:50","新北市淡水區大忠街90號","121.444833333333","25.1763216666667","6501000","淡水區"
"207003","550-UM","2018/11/23 17:57:39","新北市萬里區港東路野柳風景區攤販153號","121.69054","25.2053016666667","6502800","萬里區"
"207004","225-TW","2018/11/23 17:57:40","新北市萬里區中幅里中福路48號","121.683406666667","25.1741666666667","6502800","萬里區"
"252002","178-VK","2018/11/23 17:57:49","新北市三芝區中山路二段43號","121.502945","25.25505","6502100","三芝區"
"252001","292-VK","2018/11/23 17:57:47","新北市三芝區中興街二段2號","121.498346666667","25.2566033333333","6502100","三芝區"
"237004","KEA-2597","2018/11/23 17:57:48","新北市三峽區中園街205號","121.367018333333","24.9206916666667","6500900","三峽區"
"237007","153-BY","2018/11/23 17:57:37","新北市三峽區中園街108號","121.367173333333","24.922965","6500900","三峽區"
"237009","210-TH","2018/11/23 17:57:37","新北市三峽區中山路106巷1號","121.36604","24.9359583333333","6500900","三峽區"
"237013","252-BX","2018/11/23 17:57:41","新北市三峽區介壽路一段53號","121.375578333333","24.932895","6500900","三峽區"
"237012","275-BY","2018/11/23 17:57:46","新北市三峽區民生街29號","121.375811666667","24.9364316666667","6500900","三峽區"
"237008","302-VK","2018/11/23 17:57:50","新北市三峽區正義街68號","121.369043333333","24.918165","6500900","三峽區"
"237014","433-BY","2018/11/23 17:57:43","新北市三峽區復興路101巷1弄79號","121.370941666667","24.93767","6500900","三峽區"
"237006","5529-G3","2018/11/23 17:57:45","新北市三峽區介壽路二段136巷45弄31號","121.393745","24.9331566666667","6500900","三峽區"
"237011","KEA-2596","2018/11/23 17:57:50","新北市三峽區光明路71號","121.37626","24.928535","6500900","三峽區"
"237015","649-BX","2018/11/23 17:57:46","新北市三峽區詩朗139號","121.404768333333","24.91065","6500900","三峽區"
"237010","706-TV","2018/11/23 17:57:55","新北市三峽區民權街155號","121.368073333333","24.9305833333333","6500900","三峽區"
"237005","AKY-6261","2018/11/23 17:57:46","新北市三峽區復興路237巷28號","121.368521666667","24.9374433333333","6500900","三峽區"
"236069","105-UM","2018/11/23 17:57:42","新北市土城區城林路6巷80號","121.438533333333","24.979705","6501300","土城區"
"236042","KED-0685","2018/11/23 17:57:42","新北市土城區城林路6巷80號","121.438508333333","24.97966","6501300","土城區"
"236079","166-UM","2018/11/23 17:57:51","新北市土城區永寧路35號","121.430073333333","24.9620866666667","6501300","土城區"
"236030","253-BX","2018/11/23 17:57:32","新北市土城區城林路6巷80號","121.438675","24.9796233333333","6501300","土城區"
"236026","269-VK","2018/11/23 17:57:49","新北市土城區承天路1號","121.435816666667","24.9665183333333","6501300","土城區"
"236014","270-VK","2018/11/23 17:57:51","新北市土城區城林路6巷80號","121.43849","24.979605","6501300","土城區"
"236039","271-VK","2018/11/23 17:57:44","新北市土城區城林路6巷80號","121.438538333333","24.9797633333333","6501300","土城區"
"236020","752-BX","2018/11/23 17:57:51","新北市土城區城林路6巷80號","121.438485","24.97972","6501300","土城區"
"236059","912-UM","2018/11/23 17:57:36","新北市土城區永寧路1號","121.430381666667","24.9647583333333","6501300","土城區"
"236048","913-UM","2018/11/23 17:57:54","新北市土城區城林路6巷80號","121.438741666667","24.9796533333333","6501300","土城區"
"236063","915-UM","2018/11/23 17:57:48","新北市土城區城林路6巷80號","121.438525","24.979595","6501300","土城區"
"242037","AAC-296","2018/11/23 17:57:54","新北市新莊區建福路49巷8號","121.427061666667","25.0277166666667","6500500","新莊區"
"242058","986-R7","2018/11/23 17:57:33","新北市新莊區中正路891-30號","121.41471","25.0234616666667","6500500","新莊區"
"242056","751-BX","2018/11/23 17:57:38","新北市新莊區豐年街57-1號","121.446541666667","25.029775","6500500","新莊區"
"242029","705-TV","2018/11/23 17:57:55","新北市新莊區中平路86號","121.444798333333","25.045045","6500500","新莊區"
"242027","615-BX","2018/11/23 17:57:48","新北市新莊區頭前路179號","121.460106666667","25.052025","6500500","新莊區"
"242025","613-BX","2018/11/23 17:57:52","新北市新莊區化成路531巷50號","121.461495","25.0634533333333","6500500","新莊區"
"242044","566-BX","2018/11/23 17:57:39","新北市新莊區雙鳳路101號","121.414538333333","25.0278733333333","6500500","新莊區"
"242048","497-BY","2018/11/23 17:57:43","新北市新莊區後港二路10號","121.422805","25.0240583333333","6500500","新莊區"
"242054","441-UM","2018/11/23 17:57:38","新北市新莊區民安西路327巷4弄19號","121.42874","25.0112133333333","6500500","新莊區"
"242002","440-UM","2018/11/23 17:57:38","新北市新莊區中正路147-3號","121.457778333333","25.0371583333333","6500500","新莊區"
"242039","415-TV","2018/11/23 17:57:46","新北市新莊區民安路138號","121.424216666667","25.0253083333333","6500500","新莊區"
"242009","413-TV","2018/11/23 17:57:45","新北市新莊區中華路二段294號","121.452356666667","25.0538566666667","6500500","新莊區"
"242046","400-BY","2018/11/23 17:57:35","新北市新莊區福營路165巷16號","121.432543333333","25.030375","6500500","新莊區"
"242023","362-BY","2018/11/23 17:57:40","新北市新莊區福壽街41號","121.458216666667","25.0486233333333","6500500","新莊區"
"242060","353-BY","2018/11/23 17:57:45","新北市新莊區新樹路465號","121.43269","25.013065","6500500","新莊區"
"242011","132-UY","2018/11/23 17:57:34","新北市新莊區中港路635號","121.451115","25.05443","6500500","新莊區"
"242034","135-UY","2018/11/23 17:57:39","新北市新莊區福海街31巷2號","121.445233333333","25.0339816666667","6500500","新莊區"
"242050","172-VK","2018/11/23 17:57:37","新北市新莊區龍安路500號","121.426648333333","25.0170666666667","6500500","新莊區"
"242013","173-VK","2018/11/23 17:57:50","新北市新莊區中和街83號","121.447441666667","25.04772","6500500","新莊區"
"242019","175-VK","2018/11/23 17:57:46","新北市新莊區明中街43巷4號","121.457538333333","25.03897","6500500","新莊區"
"242007","176-VK","2018/11/23 17:57:48","新北市新莊區自信街24號","121.454073333333","25.0481883333333","6500500","新莊區"
"242032","348-TH","2018/11/23 17:57:55","新北市新莊區新泰路307號","121.445113333333","25.0410883333333","6500500","新莊區"
"242005","349-TH","2018/11/23 17:57:44","新北市新莊區福樂街71巷13號","121.456808333333","25.04741","6500500","新莊區"
"242021","350-TH","2018/11/23 17:57:37","新北市新莊區建興街3號","121.450096666667","25.0358633333333","6500500","新莊區"
"242015","351-TH","2018/11/23 17:57:54","新北市新莊區中平路119巷9號","121.444275","25.04668","6500500","新莊區"
"238015","755-BX","2018/11/23 17:57:39","新北市樹林區大安路307巷2弄2號","121.418028333333","24.9919733333333","6500700","樹林區"
"238023","601-UM","2018/11/23 17:57:50","新北市樹林區龍興街44號","121.402991666667","25.0156016666667","6500700","樹林區"
"238006","599-UM","2018/11/23 17:57:47","新北市樹林區太平路255-1號","121.418815","24.9746133333333","6500700","樹林區"
"238018","571-TV","2018/11/23 17:57:42","新北市樹林區中正路7-1號","121.430198333333","24.9975783333333","6500700","樹林區"
"238022","KEA-2213","2018/11/23 17:57:43","新北市樹林區太順街51巷1號","121.417651666667","24.97906","6500700","樹林區"
"238021","KEA-2539","2018/11/23 17:57:39","新北市樹林區柑園街一段157號","121.400055","24.9579066666667","6500700","樹林區"
"238025","303-VK","2018/11/23 17:57:39","新北市樹林區三俊街128號","121.41559","25.0154466666667","6500700","樹林區"
"238017","283-BY","2018/11/23 17:57:48","新北市樹林區俊德街51號","121.415523333333","25.0132883333333","6500700","樹林區"
"238014","282-BY","2018/11/23 17:57:41","新北市樹林區中正路89號","121.425888333333","25.0005116666667","6500700","樹林區"
"238020","268-VK","2018/11/23 17:57:46","新北市樹林區三俊街199巷10-4號","121.420135","25.0161733333333","6500700","樹林區"
"238026","172-UY","2018/11/23 17:57:39","新北市樹林區八德街500號","121.399843333333","24.9704283333333","6500700","樹林區"
"238016","169-UY","2018/11/23 17:55:43","新北市樹林區復興路300號","121.41706","24.9872666666667","6500700","樹林區"
"239007","AAC-297","2018/11/23 17:57:42","新北市鶯歌區永樂街28號","121.342133333333","24.9535766666667","6500800","鶯歌區"
"239006","891-R6","2018/11/23 17:57:37","新北市鶯歌區鶯桃路455巷2弄2號","121.331826666667","24.9655","6500800","鶯歌區"
"239008","527-UM","2018/11/23 17:57:46","新北市鶯歌區欣欣街1號","121.336013333333","24.9777783333333","6500800","鶯歌區"
"239005","526-UM","2018/11/23 17:57:42","新北市鶯歌區鶯桃路668巷74-1號","121.330055","24.9718516666667","6500800","鶯歌區"
"239001","417-VK","2018/11/23 17:57:36","新北市鶯歌區中正三路234-6號","121.330503333333","24.93697","6500800","鶯歌區"
"239003","360-BY","2018/11/23 17:57:38","新北市鶯歌區永吉街11巷1號","121.336385","24.9581316666667","6500800","鶯歌區"
"239002","359-BY","2018/11/23 17:57:50","新北市鶯歌區光明街17號","121.348888333333","24.95576","6500800","鶯歌區"
"239004","193-VK","2018/11/23 17:57:53","新北市鶯歌區尖山路166巷29號","121.344983333333","24.9489483333333","6500800","鶯歌區"
"221008","489-VK","2018/11/23 17:57:49","新北市汐止區明峰街9號","121.635256666667","25.0712516666667","6501100","汐止區"
"221036","130-UY","2018/11/23 17:57:38","新北市汐止區汐萬路一段39號","121.655046666667","25.0691633333333","6501100","汐止區"
"221015","131-UY","2018/11/23 17:57:50","新北市汐止區長江街244號","121.662986666667","25.0791833333333","6501100","汐止區"
"221010","269-BY","2018/11/23 17:57:44","新北市汐止區汐萬路二段245巷27號","121.644521666667","25.08753","6501100","汐止區"
"221012","278-VK","2018/11/23 17:57:52","新北市汐止區鄉長路一段297號","121.669493333333","25.079275","6501100","汐止區"
"221023","279-VK","2018/11/23 17:57:36","新北市汐止區明峰街13號","121.635025","25.0713616666667","6501100","汐止區"
"221032","280-BY","2018/11/23 17:57:47","新北市汐止區大同路一段18號","121.621656666667","25.0548866666667","6501100","汐止區"
"221027","281-BY","2018/11/23 17:57:52","新北市汐止區汐萬路一段39號","121.655261666667","25.0687216666667","6501100","汐止區"
"221029","298-VK","2018/11/23 17:57:52","新北市汐止區樟樹二路329號","121.641438333333","25.070395","6501100","汐止區"
"221021","299-VK","2018/11/23 17:57:46","新北市汐止區水源路一段42-1號","121.657228333333","25.06612","6501100","汐止區"
"221031","353-TW","2018/11/23 17:57:49","新北市汐止區中興路121號","121.631995","25.0651766666667","6501100","汐止區"
"221035","622-UM","2018/11/23 17:57:42","新北市汐止區汐萬路一段115巷4號","121.654176666667","25.0707366666667","6501100","汐止區"
"221025","623-UM","2018/11/23 17:57:49","新北市汐止區復興路31號","121.656505","25.0634133333333","6501100","汐止區"
"221038","646-BX","2018/11/23 17:57:34","新北市汐止區大同路一段515巷22號","121.645098333333","25.062545","6501100","汐止區"
"221033","647-BX","2018/11/23 17:57:37","新北市汐止區林森街33號","121.622716666667","25.0400366666667","6501100","汐止區"
"221002","707-TV","2018/11/23 17:57:40","新北市汐止區工建路202號","121.636876666667","25.06267","6501100","汐止區"
"221018","753-BX","2018/11/23 17:57:53","新北市汐止區大同路二段340號","121.656488333333","25.0670483333333","6501100","汐止區"
"224002","257-TC","2018/11/23 17:57:37","新北市瑞芳區三爪子坑路151號","121.810616666667","25.10626","6501200","瑞芳區"
"242041","281-VK","2018/11/23 17:57:49","新北市新莊區中正路614巷4弄2號","121.425861666667","25.0305183333333","6500500","新莊區"
"242017","280-VK","2018/11/23 17:57:51","新北市新莊區中港路339巷52號","121.450093333333","25.0450366666667","6500500","新莊區"
