"lineid","car","time","location","longitude","latitude","cityid","cityname"
"234026","9371-KE","2018/11/23 18:07:43","新北市永和區秀朗路一段10巷21號","121.513305","25.0062316666667","6500400","永和區"
"234011","9373-KE","2018/11/23 18:07:47","新北市永和區福和路1號","121.525495","25.0093316666667","6500400","永和區"
"249005","172-UM","2018/11/23 18:07:39","新北市八里區荖阡坑路15號","121.401595","25.1398716666667","6502300","八里區"
"249001","173-UM","2018/11/23 18:07:42","新北市八里區龍米路二段36號","121.448561666667","25.140125","6502300","八里區"
"249004","303-UY","2018/11/23 18:07:38","新北市八里區龍米路二段200巷3號","121.433715","25.1587016666667","6502300","八里區"
"249002","305-UY","2018/11/23 18:07:35","新北市八里區龍米路一段356巷20號","121.452096666667","25.1308416666667","6502300","八里區"
"249003","593-UM","2018/11/23 18:07:36","新北市八里區中華路二段165巷19弄26號","121.410366666667","25.1517583333333","6502300","八里區"
"248006","077-UY","2018/11/23 18:07:40","新北市五股區中興路二段89號","121.460593333333","25.0773166666667","6501500","五股區"
"248008","095-VK","2018/11/23 18:07:44","新北市蘆洲區永安南路二段294號","121.457245","25.0818883333333","6501500","五股區"
"248018","225-UY","2018/11/23 18:07:40","新北市五股區中興路三段196號","121.442183333333","25.081855","6501500","五股區"
"248010","272-BY","2018/11/23 18:07:45","新北市五股區中興路四段17號","121.440271666667","25.0822666666667","6501500","五股區"
"248004","677-BX","2018/11/23 18:07:46","新北市五股區新五路二段258號","121.441056666667","25.0821116666667","6501500","五股區"
"248002","678-BX","2018/11/23 18:07:48","新北市五股區中興路三段196號","121.442216666667","25.081905","6501500","五股區"
"232011","375-UM","2018/11/23 18:07:51","新北市坪林區國中路8號","121.713106666667","24.9402283333333","6502000","坪林區"
"244023","069-UM","2018/11/23 18:07:52","新北市林口區東湖路153巷13號","121.382566666667","25.07275","6501700","林口區"
"244007","080-UY","2018/11/23 18:07:46","新北市林口區林口路124巷13號","121.38901","25.081865","6501700","林口區"
"244019","403-UM","2018/11/23 18:07:44","新北市林口區忠孝路561巷10號","121.373236666667","25.0688016666667","6501700","林口區"
"244013","KEA-2802","2018/11/23 18:07:51","新北市林口區中山路130號","121.392213333333","25.0786766666667","6501700","林口區"
"244017","485-VK","2018/11/23 18:07:47","新北市林口區忠孝路504巷21號","121.369696666667","25.0696116666667","6501700","林口區"
"244009","656-BX","2018/11/23 18:07:38","新北市林口區文化三路二段297號","121.379038333333","25.0865783333333","6501700","林口區"
"244011","701-TV","2018/11/23 18:07:48","新北市林口區中正路32號","121.395715","25.0776283333333","6501700","林口區"
"244025","837-TS","2018/11/23 18:07:42","新北市林口區文化北路一段297號","121.35995","25.073105","6501700","林口區"
"244021","838-TS","2018/11/23 18:07:47","新北市林口區自強八街1號","121.400596666667","25.076545","6501700","林口區"
"243013","AAD-798","2018/11/23 18:07:35","新北市泰山區南林路93號","121.41549","25.05117","6501600","泰山區"
"222003","436-BY","2018/11/23 18:07:43","新北市深坑區腳坑6號","121.610121666667","24.9946066666667","6501800","深坑區"
"222002","659-BX","2018/11/23 18:07:41","新北市深坑區文化街42號","121.619081666667","25.0017216666667","6501800","深坑區"
"231041","002-UM","2018/11/23 18:07:51","新北市新店區安華路28-1號","121.519748333333","24.9607266666667","6500600","新店區"
"231059","046-UY","2018/11/23 18:07:55","新北市新店區安華路28-1號","121.51951","24.9608233333333","6500600","新店區"
"231044","106-UY","2018/11/23 18:07:45","新北市新店區安華路28-1號","121.519856666667","24.9608733333333","6500600","新店區"
"231046","107-UY","2018/11/23 18:07:42","新北市新店區直潭七街60號","121.532263333333","24.9398516666667","6500600","新店區"
"231048","187-VK","2018/11/23 18:07:53","新北市新店區安一路一段1-1號","121.519665","24.961265","6500600","新店區"
"231054","KEA-2219","2018/11/23 18:07:36","新北市新店區安一路一段1-1號","121.519738333333","24.9612483333333","6500600","新店區"
"231057","256-BX","2018/11/23 18:07:40","新北市新店區安一路一段1-1號","121.51966","24.9611483333333","6500600","新店區"
"231051","278-BY","2018/11/23 18:07:44","新北市新店區安一路一段1-1號","121.51956","24.9611866666667","6500600","新店區"
"231058","3713-VJ","2018/11/23 18:07:41","新北市新店區安華路28-1號","121.519155","24.960595","6500600","新店區"
"231066","4716-K9","2018/11/23 18:07:50","新北市新店區安一路一段1-1號","121.51915","24.961315","6500600","新店區"
"231056","4715-K9","2018/11/23 18:07:41","新北市新店區安康路一段355-3號","121.519831666667","24.9625616666667","6500600","新店區"
"231065","512-UM","2018/11/23 18:07:53","新北市新店區安一路一段1-1號","121.519381666667","24.9610966666667","6500600","新店區"
"231049","513-UM","2018/11/23 18:07:38","新北市新店區安華路28-1號","121.519548333333","24.9610266666667","6500600","新店區"
"231064","515-UM","2018/11/23 18:07:37","新北市新店區安一路一段1-1號","121.51945","24.961265","6500600","新店區"
"231045","617-UM","2018/11/23 18:07:31","新北市新店區安華路28-1號","121.519473333333","24.96095","6500600","新店區"
"231061","619-UM","2018/11/23 18:07:50","新北市新店區安華路28-1號","121.519621666667","24.960885","6500600","新店區"
"231062","720-UM","2018/11/23 18:07:36","新北市新店區安一路一段1-1號","121.51938","24.961225","6500600","新店區"
"231060","897-TW","2018/11/23 18:07:35","新北市新店區安華路28-1號","121.519691666667","24.96068","6500600","新店區"
"231043","899-TW","2018/11/23 18:07:50","新北市新店區安華路28-1號","121.519315","24.9609666666667","6500600","新店區"
"231055","AKT-0513","2018/11/23 18:07:52","新北市新店區安華路28-1號","121.519483333333","24.9605533333333","6500600","新店區"
"241024","065-VK","2018/11/23 18:07:40","新北市三重區中正北路193巷35弄9號","121.476568333333","25.0709166666667","6500200","三重區"
"235064","005-UY","2018/11/23 18:07:54","新北市中和區中正路281-10號","121.494205","24.9938466666667","6500300","中和區"
"235063","006-UY","2018/11/23 18:07:39","新北市中和區員山路36巷16-3號","121.485036666667","24.9912883333333","6500300","中和區"
"235065","098-UM","2018/11/23 18:07:45","新北市中和區中山路二段2巷45弄44號","121.50182","25.006395","6500300","中和區"
"235058","151-BY","2018/11/23 18:07:50","新北市中和區圓通路367巷60號","121.491716666667","24.9842","6500300","中和區"
"235038","185-VK","2018/11/23 18:07:51","新北市中和區景平路166號","121.516878333333","24.9921583333333","6500300","中和區"
"235049","186-VK","2018/11/23 18:07:45","新北市中和區員山路36巷13號","121.484228333333","24.9909283333333","6500300","中和區"
"235067","255-BX","2018/11/23 18:07:54","新北市中和區和城路一段271巷1號","121.485726666667","24.9917416666667","6500300","中和區"
"235042","KEA-2878","2018/11/23 18:07:47","新北市中和區中正路303號","121.493073333333","24.9939033333333","6500300","中和區"
"247012","KEA-2869","2018/11/23 18:07:55","新北市蘆洲區三民路25號","121.47554","25.0827266666667","6501400","蘆洲區"
"235045","565-BX","2018/11/23 18:07:41","新北市中和區中正路305號","121.492018333333","24.993645","6500300","中和區"
"235054","640-BX","2018/11/23 18:07:42","新北市中和區連城路569巷9弄22號","121.479808333333","24.99352","6500300","中和區"
"235060","647-TV","2018/11/23 18:07:42","新北市中和區員山路36巷16-3號","121.485073333333","24.9914066666667","6500300","中和區"
"235047","732-UM","2018/11/23 18:07:38","新北市中和區中正路637巷52弄1號","121.485415","24.9934683333333","6500300","中和區"
"235062","800-TS","2018/11/23 18:07:38","新北市中和區新生街211號","121.483893333333","24.9997283333333","6500300","中和區"
"235057","801-TS","2018/11/23 18:07:36","新北市中和區連城路376號","121.48145","24.995215","6500300","中和區"
"235041","802-TS","2018/11/23 18:07:54","新北市中和區和城路一段271巷1號","121.485481666667","24.9916733333333","6500300","中和區"
"235052","805-TS","2018/11/23 18:07:41","新北市中和區中正路155號","121.499083333333","24.99357","6500300","中和區"
"235053","900-TW","2018/11/23 18:07:38","新北市中和區員山路36巷16-2號","121.485168333333","24.99183","6500300","中和區"
"235051","157-BY","2018/11/23 18:07:41","新北市中和區中正路143號","121.499263333333","24.9935566666667","6500300","中和區"
"235037","AAC-213","2018/11/23 18:07:50","新北市中和區景平路255號","121.508648333333","24.9930083333333","6500300","中和區"
"235059","AAC-215","2018/11/23 18:07:41","新北市中和區員山路36巷16-3號","121.485096666667","24.991265","6500300","中和區"
"226004","205-ST","2018/11/23 18:07:53","新北市平溪區菁桐里菁桐街165號","121.722983333333","25.0233983333333","6502400","平溪區"
"228002","585-TW","2018/11/23 18:07:46","新北市貢寮區福連里馬崗街4-1號","121.999753333333","25.013055","6502600","貢寮區"
"228001","670-TC","2018/11/23 18:07:46","新北市貢寮區真理里新港街26巷55弄2-1號","121.927433333333","25.05284","6502600","貢寮區"
"228003","828-UM","2018/11/23 18:07:49","新北市貢寮區真理里美艷山街6-2號","121.928818333333","25.0607183333333","6502600","貢寮區"
"224006","676-BX","2018/11/23 18:07:39","新北市瑞芳區中山路44號","121.803443333333","25.1063666666667","6501200","瑞芳區"
"224008","285-BY","2018/11/23 18:07:51","新北市瑞芳區員山子路3-2號","121.819233333333","25.10464","6501200","瑞芳區"
"224005","275-VK","2018/11/23 18:07:47","新北市瑞芳區四腳亭埔路33號","121.777923333333","25.103715","6501200","瑞芳區"
"224009","273-VK","2018/11/23 18:07:38","新北市瑞芳區金光路115號","121.853656666667","25.10624","6501200","瑞芳區"
"224005","271-BY","2018/11/23 18:07:48","新北市瑞芳區建基路二段12-1號","121.815278333333","25.1286033333333","6501200","瑞芳區"
"253006","032-BX","2018/11/23 18:07:47","新北市石門區老梅路52巷25弄2-1號","121.546838333333","25.286675","6502200","石門區"
"253005","295-VK","2018/11/23 18:07:54","新北市石門區福安街41號","121.568556666667","25.29195","6502200","石門區"
"222001","KEA-2212","2018/11/23 18:07:37","新北市深坑區北深路二段186號","121.614073333333","25.0021916666667","6501800","深坑區"
"208002","KEA-2872","2018/11/23 18:07:44","新北市金山區三界壇路99巷15號","121.620393333333","25.2276366666667","6502700","金山區"
"208003","665-BX","2018/11/23 18:07:37","新北市金山區磺港里磺港路202-1號","121.645225","25.2275566666667","6502700","金山區"
"208001","761-BX","2018/11/23 18:07:38","新北市金山區磺港里磺港路112號","121.64629","25.2266866666667","6502700","金山區"
"251005","010-UM","2018/11/23 18:07:39","新北市淡水區水源街一段147號","121.447526666667","25.171805","6501000","淡水區"
"251001","011-UM","2018/11/23 18:07:34","新北市淡水區自立路10號","121.46308","25.1298016666667","6501000","淡水區"
"251002","012-UM","2018/11/23 18:07:51","新北市淡水區中正東路一段105巷3號","121.453223333333","25.1605033333333","6501000","淡水區"
"251008","181-VK","2018/11/23 18:07:42","新北市淡水區淡金路16巷67號","121.45948","25.1608966666667","6501000","淡水區"
"251010","413-VK","2018/11/23 18:07:54","新北市淡水區中正路二段50巷10號","121.419846666667","25.1833666666667","6501000","淡水區"
"251012","441-VK","2018/11/23 18:07:42","新北市淡水區北新路三段176號","121.492908333333","25.1928283333333","6501000","淡水區"
"251004","443-VK","2018/11/23 18:07:47","新北市淡水區民族路55號","121.462886666667","25.135155","6501000","淡水區"
"251006","561-UM","2018/11/23 18:07:38","新北市淡水區真理街3巷21-1號","121.437756666667","25.1763383333333","6501000","淡水區"
"251009","575-R6","2018/11/23 18:07:47","新北市淡水區大忠街34巷25號","121.444366666667","25.1758366666667","6501000","淡水區"
"251007","577-R6","2018/11/23 18:07:47","新北市淡水區中正東路二段143巷1弄7號","121.460761666667","25.148185","6501000","淡水區"
"251011","650-BX","2018/11/23 18:07:40","新北市淡水區三空泉9-2號","121.47406","25.163495","6501000","淡水區"
"251003","673-BX","2018/11/23 18:07:50","新北市淡水區大忠街113巷12號","121.446981666667","25.177495","6501000","淡水區"
"207003","550-UM","2018/11/23 18:07:39","新北市萬里區野柳里港西路7號","121.685155","25.2034316666667","6502800","萬里區"
"207004","225-TW","2018/11/23 18:07:52","新北市萬里區中幅里中福路89號","121.676445","25.171145","6502800","萬里區"
"252002","178-VK","2018/11/23 18:07:49","新北市三芝區中山路二段41號","121.502915","25.2550616666667","6502100","三芝區"
"252003","249-BX","2018/11/23 18:07:52","新北市三芝區北海路二段167號","121.502741666667","25.2615583333333","6502100","三芝區"
"252001","292-VK","2018/11/23 18:07:46","新北市三芝區中興街二段2號","121.498348333333","25.25661","6502100","三芝區"
"237004","KEA-2597","2018/11/23 18:07:48","新北市三峽區大埔路230號","121.374528333333","24.890725","6500900","三峽區"
"237007","153-BY","2018/11/23 18:07:37","新北市三峽區中正路二段370巷81號","121.364216666667","24.911615","6500900","三峽區"
"237009","210-TH","2018/11/23 18:07:37","新北市三峽區大仁路51號","121.365393333333","24.9374466666667","6500900","三峽區"
"237013","252-BX","2018/11/23 18:07:41","新北市三峽區長泰街5巷4號","121.378246666667","24.9311133333333","6500900","三峽區"
"237012","275-BY","2018/11/23 18:07:46","新北市三峽區民生街19巷7弄45號","121.377621666667","24.935625","6500900","三峽區"
"237008","302-VK","2018/11/23 18:07:50","新北市三峽區白雞44-1號","121.37855","24.9100683333333","6500900","三峽區"
"237014","433-BY","2018/11/23 18:07:43","新北市三峽區復興路59號","121.373056666667","24.9372333333333","6500900","三峽區"
"237006","5529-G3","2018/11/23 18:07:45","新北市三峽區介壽路三段1號","121.395346666667","24.936135","6500900","三峽區"
"237011","KEA-2596","2018/11/23 18:07:50","新北市三峽區光明路66號","121.375166666667","24.9290583333333","6500900","三峽區"
"237015","649-BX","2018/11/23 18:07:46","新北市三峽區紫新路1號","121.422746666667","24.920405","6500900","三峽區"
"237010","706-TV","2018/11/23 18:07:53","新北市三峽區民族街131號","121.369171666667","24.92834","6500900","三峽區"
"237005","AKY-6261","2018/11/23 18:07:46","新北市三峽區文化路116號","121.371185","24.9361833333333","6500900","三峽區"
"236069","105-UM","2018/11/23 18:07:42","新北市土城區明德路一段385-1號","121.452396666667","24.9801866666667","6501300","土城區"
"236042","KED-0685","2018/11/23 18:07:42","新北市土城區城林路6巷80號","121.438496666667","24.9796416666667","6501300","土城區"
"236079","166-UM","2018/11/23 18:07:51","新北市土城區永寧路32巷32號","121.428351666667","24.9608366666667","6501300","土城區"
"236030","253-BX","2018/11/23 18:07:51","新北市土城區城林路6巷80號","121.438675","24.9796233333333","6501300","土城區"
"236026","269-VK","2018/11/23 18:07:49","新北市土城區承天路65號","121.439515","24.9637533333333","6501300","土城區"
"236014","270-VK","2018/11/23 18:07:51","新北市土城區中華路一段301號","121.439813333333","24.97942","6501300","土城區"
"236039","271-VK","2018/11/23 18:07:44","新北市土城區金城路一段112號","121.445916666667","24.975805","6501300","土城區"
"236020","752-BX","2018/11/23 18:07:51","新北市土城區城林路6巷80號","121.43849","24.9796966666667","6501300","土城區"
"236059","912-UM","2018/11/23 18:07:36","新北市土城區中央路四段99號","121.416836666667","24.9579616666667","6501300","土城區"
"236048","913-UM","2018/11/23 18:07:53","新北市土城區中正路82號","121.44586","24.9757816666667","6501300","土城區"
"236063","915-UM","2018/11/23 18:07:48","新北市土城區中華路二段2號","121.439481666667","24.9795433333333","6501300","土城區"
"236055","970-R7","2018/11/23 18:07:41","新北市土城區城林路6巷80號","121.4387","24.9796616666667","6501300","土城區"
"242037","AAC-296","2018/11/23 18:07:53","新北市新莊區建福路48巷6號","121.42619","25.0275633333333","6500500","新莊區"
"242058","986-R7","2018/11/23 18:07:53","新北市新莊區新北大道七段237號","121.413191666667","25.02954","6500500","新莊區"
"242056","751-BX","2018/11/23 18:07:38","新北市新莊區豐年街豐1巷12號","121.447065","25.0311533333333","6500500","新莊區"
"242029","705-TV","2018/11/23 18:07:55","新北市新莊區中平路190號","121.444818333333","25.04816","6500500","新莊區"
"242027","615-BX","2018/11/23 18:07:48","新北市新莊區幸福路535號","121.45505","25.0492833333333","6500500","新莊區"
"242025","613-BX","2018/11/23 18:07:32","新北市新莊區五權一路72號","121.458686666667","25.0666733333333","6500500","新莊區"
"242044","566-BX","2018/11/23 18:07:39","新北市新莊區鳳山街1號","121.41572","25.0269766666667","6500500","新莊區"
"242048","497-BY","2018/11/23 18:07:46","新北市新莊區民安路98巷9號","121.423611666667","25.025515","6500500","新莊區"
"242054","441-UM","2018/11/23 18:07:43","新北市新莊區民安西路410巷8弄1號","121.428411666667","25.00948","6500500","新莊區"
"242002","440-UM","2018/11/23 18:07:38","新北市新莊區新莊路90號","121.456721666667","25.0362783333333","6500500","新莊區"
"242039","415-TV","2018/11/23 18:07:46","新北市新莊區民安西路88巷12弄17號","121.425943333333","25.0204","6500500","新莊區"
"242009","413-TV","2018/11/23 18:07:45","新北市新莊區昌平街71巷12號","121.454023333333","25.053665","6500500","新莊區"
"242046","400-BY","2018/11/23 18:07:55","新北市新莊區福營路227巷12號","121.430153333333","25.0291366666667","6500500","新莊區"
"242023","362-BY","2018/11/23 18:07:40","新北市新莊區幸福路755號","121.448261666667","25.049085","6500500","新莊區"
"242060","353-BY","2018/11/23 18:07:35","新北市新莊區新樹路259-6號","121.434473333333","25.0211983333333","6500500","新莊區"
"242011","132-UY","2018/11/23 18:07:54","新北市新莊區中港路中慶巷37號","121.449285","25.05372","6500500","新莊區"
"242034","135-UY","2018/11/23 18:07:39","新北市新莊區景德路301號","121.44736","25.033505","6500500","新莊區"
"242050","172-VK","2018/11/23 18:07:37","新北市新莊區民本街27巷15號","121.429026666667","25.0192366666667","6500500","新莊區"
"242019","175-VK","2018/11/23 18:07:51","新北市新莊區長青街37巷22弄12號","121.456023333333","25.0413","6500500","新莊區"
"242007","176-VK","2018/11/23 18:07:45","新北市新莊區自強街37巷3號","121.454358333333","25.0465716666667","6500500","新莊區"
"242032","348-TH","2018/11/23 18:07:45","新北市新莊區新泰路277巷59號","121.443376666667","25.04002","6500500","新莊區"
"242005","349-TH","2018/11/23 18:07:44","新北市新莊區中華路二段9號","121.453678333333","25.04546","6500500","新莊區"
"242021","350-TH","2018/11/23 18:07:37","新北市新莊區新興街104號","121.450626666667","25.0389233333333","6500500","新莊區"
"242015","351-TH","2018/11/23 18:07:54","新北市新莊區中平路132巷18號","121.445688333333","25.0467233333333","6500500","新莊區"
"238015","755-BX","2018/11/23 18:07:39","新北市樹林區文德街4巷1號","121.419026666667","24.9916316666667","6500700","樹林區"
"238023","601-UM","2018/11/23 18:07:50","新北市樹林區三寶街12號","121.40653","25.0155716666667","6500700","樹林區"
"238006","599-UM","2018/11/23 18:07:47","新北市樹林區水源街27號","121.425326666667","24.9824366666667","6500700","樹林區"
"238018","571-TV","2018/11/23 18:07:42","新北市板橋區大觀路三段265號","121.42895","24.9923283333333","6500700","樹林區"
"238024","5061-A6","2018/11/23 18:07:50","新北市樹林區豐林街41-1號","121.421378333333","24.9981833333333","6500700","樹林區"
"238022","KEA-2213","2018/11/23 18:07:43","新北市樹林區太平路174巷3號","121.417976666667","24.9767216666667","6500700","樹林區"
"238021","KEA-2539","2018/11/23 18:07:39","新北市樹林區柑園街二段77號","121.386606666667","24.95509","6500700","樹林區"
"238025","303-VK","2018/11/23 18:07:39","新北市樹林區保安街二段24號","121.415401666667","25.0017233333333","6500700","樹林區"
"238017","283-BY","2018/11/23 18:07:48","新北市樹林區中正路825號","121.409298333333","25.0173033333333","6500700","樹林區"
"238014","282-BY","2018/11/23 18:07:41","新北市樹林區潭興街103號","121.424713333333","24.99859","6500700","樹林區"
"238020","268-VK","2018/11/23 18:07:54","新北市樹林區三俊街125號","121.417916666667","25.0156183333333","6500700","樹林區"
"238026","172-UY","2018/11/23 18:07:39","新北市樹林區中山路三段153-2號","121.395733333333","24.97291","6500700","樹林區"
"238016","169-UY","2018/11/23 17:55:43","新北市樹林區復興路300號","121.41706","24.9872666666667","6500700","樹林區"
"239007","AAC-297","2018/11/23 18:07:35","新北市鶯歌區尖山埔路127號","121.346906666667","24.9511633333333","6500800","鶯歌區"
"239006","891-R6","2018/11/23 18:07:37","新北市鶯歌區鶯桃路365巷74號","121.331363333333","24.9622683333333","6500800","鶯歌區"
"239008","527-UM","2018/11/23 18:07:46","新北市鶯歌區朝陽街2號","121.336231666667","24.976605","6500800","鶯歌區"
"239005","526-UM","2018/11/23 18:06:02","新北市鶯歌區鳳七路101巷8號","121.329713333333","24.9705883333333","6500800","鶯歌區"
"239001","417-VK","2018/11/23 18:07:36","新北市鶯歌區尖山路302巷22號","121.342051666667","24.9433233333333","6500800","鶯歌區"
"239003","360-BY","2018/11/23 18:07:38","新北市鶯歌區福安街32巷16號","121.334956666667","24.9637633333333","6500800","鶯歌區"
"239002","359-BY","2018/11/23 18:07:50","新北市鶯歌區國華路31號","121.343113333333","24.9557283333333","6500800","鶯歌區"
"239004","193-VK","2018/11/23 18:07:53","新北市鶯歌區黃厝街7巷14號","121.343876666667","24.9461766666667","6500800","鶯歌區"
"221008","489-VK","2018/11/23 18:07:49","新北市汐止區康寧街315號","121.627131666667","25.067845","6501100","汐止區"
"221036","130-UY","2018/11/23 18:07:40","新北市汐止區大同路三段271號","121.673838333333","25.075595","6501100","汐止區"
"221015","131-UY","2018/11/23 18:07:49","新北市汐止區長江街341號","121.667045","25.08189","6501100","汐止區"
"221010","269-BY","2018/11/23 18:07:44","新北市汐止區祥雲街2號","121.645608333333","25.08949","6501100","汐止區"
"221012","278-VK","2018/11/23 18:07:52","新北市汐止區長興街二段50巷30弄17號","121.675075","25.0806383333333","6501100","汐止區"
"221023","279-VK","2018/11/23 18:07:35","新北市汐止區民族五街67號","121.628301666667","25.0704916666667","6501100","汐止區"
"221032","280-BY","2018/11/23 18:07:47","新北市汐止區橫科路8號","121.617775","25.0512466666667","6501100","汐止區"
"221027","281-BY","2018/11/23 18:07:51","新北市汐止區大同路二段484號","121.660375","25.0678683333333","6501100","汐止區"
"221029","298-VK","2018/11/23 18:07:52","新北市汐止區樟樹二路132號","121.639931666667","25.0656183333333","6501100","汐止區"
"221021","299-VK","2018/11/23 18:07:46","新北市汐止區龍安路16號","121.655781666667","25.064215","6501100","汐止區"
"221031","353-TW","2018/11/23 18:07:49","新北市汐止區中興路188號","121.631618333333","25.06568","6501100","汐止區"
"221035","622-UM","2018/11/23 18:07:42","新北市汐止區汐萬路一段39-3號","121.654998333333","25.0693233333333","6501100","汐止區"
"221025","623-UM","2018/11/23 18:07:49","新北市汐止區秀峰路129號","121.66022","25.0626766666667","6501100","汐止區"
"221038","646-BX","2018/11/23 18:07:54","新北市汐止區大同路二段113號","121.650033333333","25.0633733333333","6501100","汐止區"
"221033","647-BX","2018/11/23 18:07:37","新北市汐止區合順街19號","121.620085","25.0432133333333","6501100","汐止區"
"221002","707-TV","2018/11/23 18:07:40","新北市汐止區福德一路256號","121.6335","25.0646766666667","6501100","汐止區"
"221018","753-BX","2018/11/23 18:07:33","新北市汐止區招商街19巷25號","121.667378333333","25.0681283333333","6501100","汐止區"
"224002","257-TC","2018/11/23 18:07:37","新北市瑞芳區三爪子坑路66-29號","121.811425","25.1057233333333","6501200","瑞芳區"
"242041","281-VK","2018/11/23 18:07:49","新北市泰山區壽山路32號","121.420625","25.028975","6500500","新莊區"
"242017","280-VK","2018/11/23 18:07:38","新北市新莊區中港路306號","121.452676666667","25.0450183333333","6500500","新莊區"
"235068","KEA-2873","2018/11/23 18:07:37","新北市中和區員山路36巷16-3號","121.485138333333","24.99113","6500300","中和區"
"235061","KEA-2875","2018/11/23 18:07:31","新北市中和區連城路599號","121.478678333333","24.9931716666667","6500300","中和區"
