"lineid","car","time","location","longitude","latitude","cityid","cityname"
"234046","148-BY","2018/11/23 18:57:54","新北市永和區得和路373巷31弄2號","121.525108333333","25.0004116666667","6500400","永和區"
"234007","207-UY","2018/11/23 18:57:43","新北市永和區永和路二段94號","121.515151666667","25.011635","6500400","永和區"
"234081","298-R6","2018/11/23 18:57:47","新北市永和區福和路57巷14弄1號","121.522778333333","25.0069416666667","6500400","永和區"
"234038","336-UY","2018/11/23 18:57:46","新北市永和區成功路二段207號","121.526578333333","24.9958866666667","6500400","永和區"
"234064","337-UY","2018/11/23 18:57:58","新北市永和區秀朗路一段162號","121.518446666667","25.0033666666667","6500400","永和區"
"234086","338-UY","2018/11/23 18:57:38","新北市永和區中正路397號","121.517333333333","25.0041383333333","6500400","永和區"
"234070","552-UM","2018/11/23 18:57:50","新北市永和區中興街84巷8號","121.518518333333","25.0116066666667","6500400","永和區"
"234017","745-BX","2018/11/23 18:57:50","新北市永和區永和路二段299號","121.516081666667","25.0161616666667","6500400","永和區"
"234030","746-BX","2018/11/23 18:57:55","新北市永和區秀朗路二段265號","121.526266666667","24.9987233333333","6500400","永和區"
"234054","KEA-2590","2018/11/23 18:57:43","新北市永和區竹林路64號","121.518333333333","25.0134933333333","6500400","永和區"
"234013","KEA-2591","2018/11/23 18:57:47","新北市永和區中山路一段60巷14號","121.513291666667","25.011065","6500400","永和區"
"234061","AAD-866","2018/11/23 18:57:50","新北市永和區福和路309巷1號","121.516335","25.0070216666667","6500400","永和區"
"234042","862-TW","2018/11/23 18:57:42","新北市永和區永貞路310號","121.511816666667","25.0049033333333","6500400","永和區"
"234050","863-TW","2018/11/23 18:57:41","新北市永和區保安路2號","121.510696666667","25.0174283333333","6500400","永和區"
"234023","9372-KE","2018/11/23 18:57:56","新北市永和區竹林路75巷35號","121.520653333333","25.0142316666667","6500400","永和區"
"234026","9371-KE","2018/11/23 18:57:43","新北市永和區自由街58號","121.5138","25.0059933333333","6500400","永和區"
"234011","9373-KE","2018/11/23 18:57:47","新北市永和區忠孝街23號","121.514131666667","25.0156366666667","6500400","永和區"
"249005","172-UM","2018/11/23 18:57:39","新北市八里區長道坑14號","121.396383333333","25.1231133333333","6502300","八里區"
"249001","173-UM","2018/11/23 18:57:41","新北市八里區龍米路二段208號","121.433438333333","25.1584716666667","6502300","八里區"
"248014","025-BX","2018/11/23 18:57:37","新北市五股區民義路一段96號","121.435803333333","25.0851216666667","6501500","五股區"
"248016","026-BX","2018/11/23 18:57:55","新北市五股區成泰路三段543巷18號","121.450836666667","25.1022466666667","6501500","五股區"
"248006","077-UY","2018/11/23 18:57:38","新北市五股區中興路一段13號","121.469238333333","25.0723216666667","6501500","五股區"
"248008","095-VK","2018/11/23 18:57:44","新北市五股區中興路一段128巷41號","121.465695","25.0750833333333","6501500","五股區"
"248018","225-UY","2018/11/23 18:57:40","新北市五股區民義路二段22巷26-2號","121.423881666667","25.098645","6501500","五股區"
"248012","247-BX","2018/11/23 18:57:42","新北市五股區工商路52號","121.43914","25.08409","6501500","五股區"
"248010","272-BY","2018/11/23 18:57:49","新北市五股區水碓三路120號","121.431905","25.0734866666667","6501500","五股區"
"248004","677-BX","2018/11/23 18:57:46","新北市五股區民義路二段68號","121.405746666667","25.1078416666667","6501500","五股區"
"248002","678-BX","2018/11/23 18:57:48","新北市五股區成泰路三段513號","121.451356666667","25.1004333333333","6501500","五股區"
"234077","969-R7","2018/11/23 18:57:49","新北市永和區智光街22號","121.518016666667","24.99922","6500400","永和區"
"234067","AAC-212","2018/11/23 18:57:57","新北市永和區永和路一段22號","121.513031666667","25.0047983333333","6500400","永和區"
"234003","AAC-295","2018/11/23 18:57:53","新北市永和區永和路一段173號","121.513906666667","25.0098383333333","6500400","永和區"
"232011","375-UM","2018/11/23 18:57:51","新北市坪林區水聳淒坑20-2號","121.711373333333","24.9340016666667","6502000","坪林區"
"244023","069-UM","2018/11/23 18:57:52","新北市林口區民權路12巷5號","121.371698333333","25.0798266666667","6501700","林口區"
"244019","403-UM","2018/11/23 18:57:44","新北市林口區麗園一街35號","121.377658333333","25.0687733333333","6501700","林口區"
"244013","KEA-2802","2018/11/23 18:57:50","新北市林口區麗園二街1巷9-3號","121.37886","25.0705166666667","6501700","林口區"
"244017","485-VK","2018/11/23 18:57:46","新北市林口區文化二路一段68巷18-2號","121.366088333333","25.067775","6501700","林口區"
"244009","656-BX","2018/11/23 18:57:38","新北市林口區林口路55號","121.389978333333","25.0794966666667","6501700","林口區"
"244011","701-TV","2018/11/23 18:57:48","新北市林口區仁愛路一段285巷112號","121.39508","25.07563","6501700","林口區"
"244025","837-TS","2018/11/23 18:57:38","新北市林口區文化北路一段370號","121.362051666667","25.0748516666667","6501700","林口區"
"244021","838-TS","2018/11/23 18:57:47","新北市八里區長道坑1號","121.39356","25.1261066666667","6501700","林口區"
"243013","AAD-798","2018/11/23 18:57:55","新北市泰山區明志路三段206巷3號","121.423313333333","25.0379333333333","6501600","泰山區"
"243009","297-R6","2018/11/23 18:57:36","新北市泰山區泰林路二段365號","121.427995","25.0636733333333","6501600","泰山區"
"243016","KEA-2801","2018/11/23 18:57:40","新北市泰山區明志路二段152-1號","121.42757","25.0506066666667","6501600","泰山區"
"243015","421-VK","2018/11/23 18:57:43","新北市泰山區泰林路二段334號","121.43012","25.0635533333333","6501600","泰山區"
"243011","KEA-2215","2018/11/23 18:57:48","新北市泰山區明志路二段239號","121.427191666667","25.048135","6501600","泰山區"
"243010","KEA-2216","2018/11/23 18:57:54","新北市泰山區辭修路24號","121.429033333333","25.0581583333333","6501600","泰山區"
"243012","646-TV","2018/11/23 18:57:38","新北市泰山區福興三街28號","121.434036666667","25.0575733333333","6501600","泰山區"
"243014","680-BX","2018/11/23 18:57:47","新北市泰山區黎明路23號","121.420911666667","25.0626083333333","6501600","泰山區"
"222003","436-BY","2018/11/23 18:57:43","新北市深坑區深南路51-1號","121.621351666667","25.0101283333333","6501800","深坑區"
"222002","659-BX","2018/11/23 18:57:42","新北市深坑區文山路一段35號","121.627841666667","25.0025583333333","6501800","深坑區"
"231041","002-UM","2018/11/23 18:57:51","新北市新店區環河路60號","121.537121666667","24.9625166666667","6500600","新店區"
"231059","046-UY","2018/11/23 18:57:55","新北市新店區安華路28-1號","121.519598333333","24.9607316666667","6500600","新店區"
"231040","047-UY","2018/11/23 18:57:41","新北市新店區中央路3號","121.533538333333","24.9787516666667","6500600","新店區"
"231044","106-UY","2018/11/23 18:57:44","新北市新店區寶中路72號","121.547858333333","24.9805766666667","6500600","新店區"
"231046","107-UY","2018/11/23 18:57:42","新北市新店區直潭五街28號","121.534148333333","24.9415916666667","6500600","新店區"
"231053","108-UY","2018/11/23 18:57:56","新北市新店區自強路55巷12號","121.547605","24.92455","6500600","新店區"
"231048","187-VK","2018/11/23 18:57:53","新北市新店區德正街23巷1號","121.544183333333","24.9719483333333","6500600","新店區"
"231054","KEA-2219","2018/11/23 18:57:36","新北市新店區新店路13號","121.54034","24.95285","6500600","新店區"
"231042","268-BY","2018/11/23 18:57:42","新北市新店區北新路一段128-1號","121.54269","24.9697883333333","6500600","新店區"
"231051","278-BY","2018/11/23 18:57:45","新北市新店區中正路367號","121.534913333333","24.9764866666667","6500600","新店區"
"231050","AAD-862","2018/11/23 18:57:37","新北市新店區北宜路二段30巷5弄2號","121.547963333333","24.9508016666667","6500600","新店區"
"231058","3713-VJ","2018/11/23 18:57:41","新北市新店區中興路一段255號","121.544598333333","24.967125","6500600","新店區"
"231066","4716-K9","2018/11/23 18:57:50","新北市新店區安忠路102-1號","121.510536666667","24.9557483333333","6500600","新店區"
"231056","4715-K9","2018/11/23 18:57:41","新北市新店區建國路212號","121.538086666667","24.9810016666667","6500600","新店區"
"231067","4772-VM","2018/11/23 18:57:54","新北市新店區安康路一段293號","121.522716666667","24.9637083333333","6500600","新店區"
"231065","512-UM","2018/11/23 18:57:53","新北市新店區安康路三段49號","121.492601666667","24.9525516666667","6500600","新店區"
"231049","513-UM","2018/11/23 18:57:38","新北市新店區中正路454-5號","121.534446666667","24.97902","6500600","新店區"
"231064","515-UM","2018/11/23 18:57:56","新北市新店區安一路一段1-1號","121.519428333333","24.961275","6500600","新店區"
"231063","616-UM","2018/11/23 18:57:42","新北市新店區安忠路102-1號","121.51056","24.9558616666667","6500600","新店區"
"231045","617-UM","2018/11/23 18:57:52","新北市新店區北新路一段2-20號","121.538578333333","24.959945","6500600","新店區"
"231061","619-UM","2018/11/23 18:57:30","新北市新店區安華路28-1號","121.519641666667","24.960695","6500600","新店區"
"231062","720-UM","2018/11/23 18:57:56","新北市新店區安豐路22巷20號","121.503718333333","24.9545016666667","6500600","新店區"
"231060","897-TW","2018/11/23 18:57:35","新北市新店區安華路28-1號","121.519743333333","24.96076","6500600","新店區"
"231043","899-TW","2018/11/23 18:57:50","新北市新店區北新路一段235號","121.540758333333","24.9657633333333","6500600","新店區"
"231055","AKT-0513","2018/11/23 18:57:52","新北市新店區北新路一段271巷26號","121.54015","24.9673133333333","6500600","新店區"
"241026","066-VK","2018/11/23 18:57:51","新北市三重區泉州街106號","121.494896666667","25.0536816666667","6500200","三重區"
"241035","KEA-2210","2018/11/23 18:57:54","新北市三重區重新路四段121號","121.484623333333","25.052085","6500200","三重區"
"235066","003-UY","2018/11/23 18:57:53","新北市中和區廣福路56巷1弄12號","121.502845","25.001985","6500300","中和區"
"235064","005-UY","2018/11/23 18:57:54","新北市中和區景平路634-10號","121.498853333333","24.999905","6500300","中和區"
"235063","006-UY","2018/11/23 18:57:39","新北市中和區中正路544號","121.48728","24.994395","6500300","中和區"
"235056","096-UM","2018/11/23 18:57:55","新北市中和區中山路二段596巷44號","121.481605","25.0063366666667","6500300","中和區"
"235039","097-UM","2018/11/23 18:57:37","新北市永和區中正路226號","121.515995","24.9976466666667","6500300","中和區"
"235065","098-UM","2018/11/23 18:57:45","新北市中和區勝利路35巷1弄2號","121.499011666667","25.0073716666667","6500300","中和區"
"235058","151-BY","2018/11/23 18:57:50","新北市中和區連城路384號","121.480668333333","24.99504","6500300","中和區"
"235055","183-VK","2018/11/23 18:57:52","新北市中和區民德路25巷8號","121.469316666667","25.00277","6500300","中和區"
"235038","185-VK","2018/11/23 18:57:51","新北市中和區立人街24-5號","121.518861666667","24.9941316666667","6500300","中和區"
"235049","186-VK","2018/11/23 18:57:45","新北市中和區景安路116號","121.50536","24.995","6500300","中和區"
"235067","255-BX","2018/11/23 18:57:34","新北市中和區新生街205號","121.483778333333","24.9999333333333","6500300","中和區"
"235044","293-VK","2018/11/23 18:57:55","新北市中和區中興街161巷5弄21號","121.500666666667","24.9914266666667","6500300","中和區"
"235072","301-VK","2018/11/23 18:57:39","新北市中和區永和路24號","121.499458333333","25.0034516666667","6500300","中和區"
"235043","352-BY","2018/11/23 18:57:40","新北市中和區成功路41巷1號","121.526175","24.9933316666667","6500300","中和區"
"235042","KEA-2878","2018/11/23 18:57:47","新北市中和區秀朗路三段50巷2弄7號","121.526051666667","24.9958566666667","6500300","中和區"
"235050","4979-A6","2018/11/23 18:57:36","新北市中和區忠孝街58巷30弄9號","121.512046666667","24.9826833333333","6500300","中和區"
"235069","4980-A6","2018/11/23 18:57:43","新北市中和區景平路471號","121.500495","24.9969766666667","6500300","中和區"
"235070","558-UM","2018/11/23 18:57:52","新北市中和區安和路209號","121.505973333333","24.9988216666667","6500300","中和區"
"235045","565-BX","2018/11/23 18:57:41","新北市中和區景新街467巷20弄84號","121.514498333333","24.987535","6500300","中和區"
"235054","640-BX","2018/11/23 18:57:42","新北市中和區民享街51號","121.474088333333","25.0027583333333","6500300","中和區"
"235060","647-TV","2018/11/23 18:57:42","新北市中和區民治街7巷2號","121.475086666667","25.00458","6500300","中和區"
"235047","732-UM","2018/11/23 18:57:38","新北市中和區興南路二段54巷2-8號","121.50603","24.98558","6500300","中和區"
"235046","733-UM","2018/11/23 18:57:44","新北市中和區興南路一段164號","121.50819","24.98663","6500300","中和區"
"235071","783-BX","2018/11/23 18:57:41","新北市中和區員山路36巷16-3號","121.485175","24.991145","6500300","中和區"
"235062","800-TS","2018/11/23 18:57:38","新北市中和區中山路二段348巷2號","121.493208333333","25.00266","6500300","中和區"
"235057","801-TS","2018/11/23 18:57:36","新北市中和區民利街71號","121.478588333333","24.9983283333333","6500300","中和區"
"235041","802-TS","2018/11/23 18:57:35","新北市中和區安平路132號","121.512031666667","24.9978966666667","6500300","中和區"
"235052","805-TS","2018/11/23 18:57:41","新北市中和區興南路二段347號","121.500083333333","24.98009","6500300","中和區"
"235048","896-TW","2018/11/23 18:57:41","新北市中和區華新街109巷16號","121.508723333333","24.981145","6500300","中和區"
"235053","900-TW","2018/11/23 18:57:48","新北市中和區壽德街18-1號","121.466096666667","24.9949416666667","6500300","中和區"
"235051","157-BY","2018/11/23 18:57:41","新北市中和區忠孝街19巷18號","121.510071666667","24.9833016666667","6500300","中和區"
"235037","AAC-213","2018/11/23 18:57:50","新北市中和區自立路99巷1號","121.522095","24.9948783333333","6500300","中和區"
"235059","AAC-215","2018/11/23 18:57:41","新北市中和區圓通路369巷2號","121.491216666667","24.9894316666667","6500300","中和區"
"220068","013-TV","2018/11/23 18:57:47","新北市板橋區三民路一段31巷42號","121.481118333333","25.0229466666667","6500100","板橋區"
"220065","072-UY","2018/11/23 18:57:52","新北市板橋區漢生東路335號","121.47193","25.0077266666667","6500100","板橋區"
"220086","073-UY","2018/11/23 18:57:40","新北市板橋區民權路266號","121.457671666667","25.0153883333333","6500100","板橋區"
"220106","075-UY","2018/11/23 18:57:39","新北市板橋區文化路二段16-2號","121.468828333333","25.0243416666667","6500100","板橋區"
"226004","205-ST","2018/11/23 18:57:53","新北市平溪區平溪里平溪街53號","121.737231666667","25.0269916666667","6502400","平溪區"
"228002","585-TW","2018/11/23 18:57:46","新北市貢寮區福隆里東興街106巷21弄2號","121.94603","25.0178466666667","6502600","貢寮區"
"228001","670-TC","2018/11/23 18:57:45","新北市貢寮區仁理村保健街69號","121.92374","25.0516083333333","6502600","貢寮區"
"228003","828-UM","2018/11/23 18:57:49","新北市貢寮區和美里龍洞街56-3號","121.913233333333","25.1150816666667","6502600","貢寮區"
"224006","676-BX","2018/11/23 18:57:39","新北市瑞芳區明燈路三段1號","121.80918","25.10725","6501200","瑞芳區"
"224008","285-BY","2018/11/23 18:57:51","新北市瑞芳區逢甲路271-1號","121.801678333333","25.112085","6501200","瑞芳區"
"224007","275-VK","2018/11/23 18:57:47","新北市瑞芳區大埔路慶安新村32號","121.762686666667","25.0999533333333","6501200","瑞芳區"
"224009","273-VK","2018/11/23 18:57:38","新北市瑞芳區洞頂路148號","121.858781666667","25.11754","6501200","瑞芳區"
"224005","271-BY","2018/11/23 18:57:36","新北市瑞芳區豎崎路32-5號","121.824246666667","25.1209866666667","6501200","瑞芳區"
"227011","642-TC","2018/11/23 18:57:48","新北市雙溪區牡丹里中正路58巷23號","121.866475","25.0415433333333","6502500","雙溪區"
"227003","400-TW","2018/11/23 18:57:48","新北市雙溪區平林里康福家園17號","121.85884","25.0373016666667","6502500","雙溪區"
"253006","032-BX","2018/11/23 18:57:47","新北市石門區下員坑30-7號","121.519048333333","25.2807883333333","6502200","石門區"
"253005","295-VK","2018/11/23 18:57:45","新北市石門區中央路24號","121.567853333333","25.291995","6502200","石門區"
"222001","KEA-2212","2018/11/23 18:57:57","新北市深坑區北深路一段170號","121.63405","25.0107366666667","6501800","深坑區"
"208002","KEA-2872","2018/11/23 18:57:43","新北市金山區仁愛路67巷14號","121.634563333333","25.2208666666667","6502700","金山區"
"208003","665-BX","2018/11/23 18:57:37","新北市金山區中正路85號","121.633388333333","25.2216516666667","6502700","金山區"
"208001","761-BX","2018/11/23 18:57:38","新北市金山區中山路93號","121.640141666667","25.2188766666667","6502700","金山區"
"251001","011-UM","2018/11/23 18:57:36","新北市淡水區自強路68號","121.463106666667","25.12773","6501000","淡水區"
"251002","012-UM","2018/11/23 18:57:51","新北市淡水區學府路20號","121.447563333333","25.1680666666667","6501000","淡水區"
"251010","413-VK","2018/11/23 18:57:34","新北市淡水區沙崙路2號","121.420808333333","25.1809","6501000","淡水區"
"251012","441-VK","2018/11/23 18:57:42","新北市淡水區新民街一段11-1號","121.43339","25.18447","6501000","淡水區"
"251009","575-R6","2018/11/23 18:57:53","新北市淡水區重建街58號","121.439908333333","25.171745","6501000","淡水區"
"251007","577-R6","2018/11/23 18:57:47","新北市淡水區民生路113巷1弄43號","121.462818333333","25.1386","6501000","淡水區"
"251011","650-BX","2018/11/23 18:57:40","新北市淡水區中正東路二段81號","121.459418333333","25.1535383333333","6501000","淡水區"
"251003","673-BX","2018/11/23 18:57:50","新北市淡水區中山北路一段149巷27號","121.442981666667","25.177925","6501000","淡水區"
"207003","550-UM","2018/11/23 18:57:49","新北市萬里區大鵬里頂社28號","121.656791666667","25.21059","6502800","萬里區"
"207004","225-TW","2018/11/23 18:57:39","新北市萬里區萬里里獅頭路23號","121.693251666667","25.178255","6502800","萬里區"
"252002","178-VK","2018/11/23 18:57:49","新北市三芝區中正路一段82號","121.504165","25.2572583333333","6502100","三芝區"
"252003","249-BX","2018/11/23 18:57:52","新北市三芝區後厝里北勢子45-30號","121.469305","25.2505616666667","6502100","三芝區"
"252001","292-VK","2018/11/23 18:57:46","新北市三芝區中興街二段260號","121.50173","25.2530416666667","6502100","三芝區"
"237004","KEA-2597","2018/11/23 18:57:48","新北市三峽區有木206號","121.439136666667","24.8515316666667","6500900","三峽區"
"237007","153-BY","2018/11/23 18:57:57","新北市三峽區中正路二段83巷17號","121.367221666667","24.9178016666667","6500900","三峽區"
"237013","252-BX","2018/11/23 18:57:40","新北市三峽區光明路69巷25號","121.376581666667","24.929145","6500900","三峽區"
"237012","275-BY","2018/11/23 18:57:46","新北市三峽區三樹路222巷196-31號","121.389268333333","24.9426533333333","6500900","三峽區"
"237008","302-VK","2018/11/23 18:57:50","新北市三峽區中正路一段191巷4號","121.372848333333","24.927655","6500900","三峽區"
"237014","433-BY","2018/11/23 18:57:43","新北市三峽區隆恩街158巷42號","121.366533333333","24.94452","6500900","三峽區"
"237006","5529-G3","2018/11/23 18:57:45","新北市三峽區溪東路126號","121.404536666667","24.9334116666667","6500900","三峽區"
"237011","KEA-2596","2018/11/23 18:57:50","新北市三峽區介壽路三段235號","121.406951666667","24.94887","6500900","三峽區"
"237015","649-BX","2018/11/23 18:57:46","新北市三峽區建安107-5號","121.456936666667","24.9225033333333","6500900","三峽區"
"237010","706-TV","2018/11/23 18:57:56","新北市三峽區國光街322號","121.372103333333","24.9393916666667","6500900","三峽區"
"237005","AKY-6261","2018/11/23 18:57:46","新北市三峽區中山路459巷163-3號","121.348651666667","24.9329316666667","6500900","三峽區"
"236069","105-UM","2018/11/23 18:57:42","新北市土城區清水路34號","121.455256666667","24.980895","6501300","土城區"
"236042","KED-0685","2018/11/23 18:57:42","新北市土城區學府路一段229巷12號","121.451638333333","24.983705","6501300","土城區"
"236079","166-UM","2018/11/23 18:57:51","新北市土城區中央路四段159-3號","121.415171666667","24.9569133333333","6501300","土城區"
"236030","253-BX","2018/11/23 18:57:51","新北市土城區中央路三段1號","121.439696666667","24.9707683333333","6501300","土城區"
"236026","269-VK","2018/11/23 18:57:49","新北市土城區光明街18號","121.442053333333","24.9742083333333","6501300","土城區"
"236014","270-VK","2018/11/23 18:57:51","新北市土城區永豐路92號","121.463083333333","24.98764","6501300","土城區"
"236039","271-VK","2018/11/23 18:57:53","新北市土城區仁愛路9巷1號","121.460138333333","24.980965","6501300","土城區"
"236020","752-BX","2018/11/23 18:57:51","新北市土城區延吉街168巷9號","121.46811","24.98585","6501300","土城區"
"236059","912-UM","2018/11/23 18:57:56","新北市土城區金城路二段188號","121.453393333333","24.9806566666667","6501300","土城區"
"236048","913-UM","2018/11/23 18:57:53","新北市土城區明德路一段365-1號","121.453651666667","24.97909","6501300","土城區"
"236063","915-UM","2018/11/23 18:57:48","新北市土城區延和路106號","121.467048333333","24.9898283333333","6501300","土城區"
"236055","970-R7","2018/11/23 18:57:41","新北市土城區學成路179號","121.447866666667","24.9885366666667","6501300","土城區"
"242058","986-R7","2018/11/23 18:57:53","新北市新莊區新泰路357巷3弄57號","121.442098333333","25.03949","6500500","新莊區"
"242056","751-BX","2018/11/23 18:57:38","新北市新莊區三和路12-21號","121.442301666667","25.0382","6500500","新莊區"
"242046","400-BY","2018/11/23 18:57:55","新北市新莊區瓊林南路77-41號","121.437848333333","25.01295","6500500","新莊區"
"238023","601-UM","2018/11/23 18:57:50","新北市樹林區大慶街150號","121.396713333333","25.013505","6500700","樹林區"
"238019","599-UM","2018/11/23 18:57:52","新北市樹林區東榮街147巷2弄19號","121.414155","24.9810666666667","6500700","樹林區"
"238018","571-TV","2018/11/23 18:52:16","新北市樹林區太平路48號","121.418971666667","24.9825133333333","6500700","樹林區"
"238022","KEA-2213","2018/11/23 18:57:43","新北市樹林區東興街2-5號","121.409493333333","24.9793333333333","6500700","樹林區"
"238021","KEA-2539","2018/11/23 18:57:50","新北市樹林區柑園街二段276巷26號","121.37252","24.953335","6500700","樹林區"
"238025","303-VK","2018/11/23 18:57:39","新北市樹林區中山路三段22號","121.395546666667","24.9729183333333","6500700","樹林區"
"238017","283-BY","2018/11/23 18:57:48","新北市樹林區光興街44號","121.409896666667","25.00269","6500700","樹林區"
"238014","282-BY","2018/11/23 18:57:41","新北市樹林區潭興街143巷2號","121.425795","24.9998666666667","6500700","樹林區"
"238020","268-VK","2018/11/23 18:57:46","新北市樹林區俊英街79號","121.426136666667","25.00752","6500700","樹林區"
"238026","172-UY","2018/11/23 18:57:39","新北市樹林區中和街46號","121.389246666667","24.9738183333333","6500700","樹林區"
"238016","169-UY","2018/11/23 18:57:44","新北市樹林區文化街28號","121.4193","24.9876816666667","6500700","樹林區"
"239007","AAC-297","2018/11/23 18:57:35","新北市鶯歌區中山路138巷17-5號","121.351271666667","24.959625","6500800","鶯歌區"
"239006","891-R6","2018/11/23 18:57:57","新北市鶯歌區鶯桃路296巷109號","121.336758333333","24.9620233333333","6500800","鶯歌區"
"239008","527-UM","2018/11/23 18:57:46","新北市鶯歌區國際二路4巷4號","121.338706666667","24.9732633333333","6500800","鶯歌區"
"239005","526-UM","2018/11/23 18:57:42","新北市鶯歌區中湖街118號","121.349008333333","24.9729816666667","6500800","鶯歌區"
"239001","417-VK","2018/11/23 18:57:36","新北市鶯歌區永明街15號","121.33848","24.9554016666667","6500800","鶯歌區"
"239003","360-BY","2018/11/23 18:57:38","新北市鶯歌區鶯桃路377號","121.333765","24.9631733333333","6500800","鶯歌區"
"239002","359-BY","2018/11/23 18:57:49","新北市鶯歌區中山路147號","121.34902","24.95696","6500800","鶯歌區"
"239004","193-VK","2018/11/23 18:57:53","新北市鶯歌區中正三路293號","121.329511666667","24.9362383333333","6500800","鶯歌區"
"221008","489-VK","2018/11/23 18:57:49","新北市汐止區康寧街901號","121.650923333333","25.0752266666667","6501100","汐止區"
"221036","130-UY","2018/11/23 18:57:38","新北市汐止區新江北路21號","121.652936666667","25.0703833333333","6501100","汐止區"
"221015","131-UY","2018/11/23 18:57:49","新北市汐止區鄉長路一段55巷22號","121.6648","25.076315","6501100","汐止區"
"221010","269-BY","2018/11/23 18:57:44","新北市汐止區康寧街901號","121.651383333333","25.0750466666667","6501100","汐止區"
"221012","278-VK","2018/11/23 18:57:52","新北市汐止區康寧街901號","121.65071","25.0752916666667","6501100","汐止區"
"221023","279-VK","2018/11/23 18:57:35","新北市汐止區康寧街901號","121.65172","25.074935","6501100","汐止區"
"221032","280-BY","2018/11/23 18:57:47","新北市汐止區橫科路407巷30弄28-5號","121.627633333333","25.04883","6501100","汐止區"
"221027","281-BY","2018/11/23 18:57:51","新北市汐止區康寧街901號","121.651431666667","25.07498","6501100","汐止區"
"221029","298-VK","2018/11/23 18:57:52","新北市汐止區樟樹一路230號","121.642273333333","25.0666933333333","6501100","汐止區"
"221021","299-VK","2018/11/23 18:57:46","新北市汐止區汐萬路一段271號","121.650575","25.0744083333333","6501100","汐止區"
"221031","353-TW","2018/11/23 18:57:49","新北市汐止區福德三路143號","121.631998333333","25.0671433333333","6501100","汐止區"
"221035","622-UM","2018/11/23 18:57:42","新北市汐止區汐萬路一段39-3號","121.65505","25.06924","6501100","汐止區"
"221025","623-UM","2018/11/23 18:57:49","新北市汐止區汐萬路一段147號","121.653316666667","25.0710966666667","6501100","汐止區"
"221038","646-BX","2018/11/23 18:57:54","新北市汐止區康寧街901號","121.650755","25.0752566666667","6501100","汐止區"
"221002","707-TV","2018/11/23 18:57:40","台北市南港區經貿一路55號","121.619891666667","25.0559","6501100","汐止區"
"221018","753-BX","2018/11/23 18:57:53","新北市汐止區汐萬路一段188號","121.652236666667","25.0720783333333","6501100","汐止區"
"220079","145-BY","2018/11/23 18:57:50","新北市板橋區民權路202巷9弄29號","121.459451666667","25.015615","6500100","板橋區"
"220080","200-UY","2018/11/23 18:57:41","新北市板橋區大觀路二段265巷3弄15號","121.443568333333","24.9983516666667","6500100","板橋區"
"220101","245-BX","2018/11/23 18:57:49","新北市板橋區莊敬路78-2號","121.471603333333","25.0250033333333","6500100","板橋區"
"220056","276-BY","2018/11/23 18:57:54","新北市板橋區信義路165號","121.458726666667","24.9922616666667","6500100","板橋區"
"220072","277-BY","2018/11/23 18:57:56","新北市板橋區篤行路二段3-3號","121.431903333333","24.9934516666667","6500100","板橋區"
"220064","282-UM","2018/11/23 18:57:53","新北市板橋區漢生東路166號","121.466995","25.0148","6500100","板橋區"
"220071","283-VK","2018/11/23 18:57:56","新北市板橋區忠孝路154巷49號","121.464358333333","25.0008416666667","6500100","板橋區"
"220094","285-UM","2018/11/23 18:57:38","新北市板橋區民生路二段234巷9號","121.46858","25.0227283333333","6500100","板橋區"
"220083","286-VK","2018/11/23 18:57:51","新北市板橋區大觀路一段38巷156弄77號","121.443101666667","25.0068266666667","6500100","板橋區"
"220081","287-VK","2018/11/23 18:57:48","新北市板橋區光華街19巷31號","121.452983333333","25.0118683333333","6500100","板橋區"
"220090","288-VK","2018/11/23 18:57:52","新北市板橋區四維路177巷2弄1號","121.463965","25.026205","6500100","板橋區"
"220061","295-UM","2018/11/23 18:57:52","新北市板橋區太和街6巷1號","121.473696666667","25.0200466666667","6500100","板橋區"
"220084","296-UM","2018/11/23 18:57:38","新北市板橋區龍興街63巷2號","121.443018333333","25.001285","6500100","板橋區"
"220053","299-UM","2018/11/23 18:57:47","新北市板橋區中山路二段157號","121.4756","25.0167633333333","6500100","板橋區"
"220075","303-R5","2018/11/23 18:57:42","新北市板橋區後菜園街34號","121.4567","25.0102116666667","6500100","板橋區"
"220062","305-R5","2018/11/23 18:57:56","新北市板橋區中山路二段178號","121.477393333333","25.0172283333333","6500100","板橋區"
"220092","307-R5","2018/11/23 18:57:53","新北市板橋區漢生東路7號","121.464658333333","25.01744","6500100","板橋區"
"220098","317-R6","2018/11/23 18:57:53","新北市板橋區民生路三段95號","121.466668333333","25.0247983333333","6500100","板橋區"
"220089","487-VK","2018/11/23 18:57:52","新北市板橋區文化路二段28號","121.469096666667","25.024865","6500100","板橋區"
"220035","560-BX","2018/11/23 18:57:44","新北市板橋區中正路325巷8號","121.454406666667","25.0199533333333","6500100","板橋區"
"220103","561-BX","2018/11/23 18:57:49","新北市板橋區民生路二段89-4號","121.471015","25.0182433333333","6500100","板橋區"
"220069","568-UM","2018/11/23 18:57:40","新北市板橋區華興街73-1號","121.457066666667","25.005085","6500100","板橋區"
"220011","609-BX","2018/11/23 18:57:52","新北市板橋區中山路二段74號","121.474443333333","25.0160583333333","6500100","板橋區"
"220091","637-BX","2018/11/23 18:57:43","新北市板橋區萬板路165號","121.474135","25.0234016666667","6500100","板橋區"
"220057","686-BX","2018/11/23 18:57:36","新北市板橋區重慶路91-1號","121.462103333333","25.0059216666667","6500100","板橋區"
"220077","687-BX","2018/11/23 18:57:50","新北市板橋區龍興街12號","121.442828333333","24.9997616666667","6500100","板橋區"
"220093","689-BX","2018/11/23 18:57:49","新北市板橋區民生路三段54號","121.46719","25.0252566666667","6500100","板橋區"
"220054","741-BX","2018/11/23 18:57:38","新北市板橋區重慶路93巷47號","121.46338","25.0059633333333","6500100","板橋區"
"220070","806-UM","2018/11/23 18:57:53","新北市板橋區四川路一段467號","121.457263333333","24.9977616666667","6500100","板橋區"
"220055","827-TW","2018/11/23 18:57:45","新北市板橋區民安街13號","121.46695","25.01165","6500100","板橋區"
"220067","829-TW","2018/11/23 18:57:47","新北市板橋區三民路二段正隆巷32號","121.477211666667","25.0135066666667","6500100","板橋區"
"220102","830-TW","2018/11/23 18:57:47","新北市板橋區萬板路476號","121.479903333333","25.026035","6500100","板橋區"
"220096","831-TW","2018/11/23 18:57:39","新北市板橋區莒光路75號","121.471555","25.0241583333333","6500100","板橋區"
"220088","833-TW","2018/11/23 18:57:46","新北市板橋區民生路二段148號","121.471388333333","25.01985","6500100","板橋區"
"220074","895-R6","2018/11/23 18:57:45","新北市板橋區文昌街24巷11號","121.45624","25.01099","6500100","板橋區"
"220073","985-R7","2018/11/23 18:57:56","新北市板橋區民權路200號","121.459073333333","25.0138016666667","6500100","板橋區"
"220097","AAC-210","2018/11/23 18:57:42","新北市板橋區文化路一段88號","121.464488333333","25.0175333333333","6500100","板橋區"
"220082","AAC-253","2018/11/23 18:57:36","新北市板橋區滿平街81巷120弄22號","121.427885","24.98896","6500100","板橋區"
"235068","KEA-2873","2018/11/23 18:57:37","新北市中和區圓通路265巷58號","121.496295","24.9923066666667","6500300","中和區"
"235061","KEA-2875","2018/11/23 18:57:35","新北市中和區民治街132巷5號","121.47508","25.002235","6500300","中和區"
