"lineid","car","time","location","longitude","latitude","cityid","cityname"
"234046","148-BY","2018/11/23 19:07:54","新北市永和區永元路18巷31號","121.523738333333","25.00016","6500400","永和區"
"234007","207-UY","2018/11/23 19:07:43","新北市永和區中山路一段211號","121.508831666667","25.0083733333333","6500400","永和區"
"234081","298-R6","2018/11/23 19:07:47","新北市永和區福和路149號","121.520613333333","25.00763","6500400","永和區"
"234038","336-UY","2018/11/23 19:07:46","新北市永和區民樂街88巷1號","121.5273","24.9976166666667","6500400","永和區"
"234064","337-UY","2018/11/23 19:07:38","新北市永和區秀朗路二段33號","121.521273333333","25.0024783333333","6500400","永和區"
"234086","338-UY","2018/11/23 19:07:41","新北市永和區永貞路75號","121.518676666667","25.0043983333333","6500400","永和區"
"234070","552-UM","2018/11/23 19:07:50","新北市永和區豫溪街137巷1弄18號","121.518776666667","25.0104266666667","6500400","永和區"
"234017","745-BX","2018/11/23 19:07:50","新北市永和區忠孝街27號","121.513935","25.015565","6500400","永和區"
"234030","746-BX","2018/11/23 19:07:35","新北市永和區四維街66號","121.524036666667","24.9982616666667","6500400","永和區"
"234054","KEA-2590","2018/11/23 19:07:43","新北市永和區中興街133巷8號","121.518723333333","25.01267","6500400","永和區"
"234013","KEA-2591","2018/11/23 19:07:47","新北市永和區保福路二段45號","121.510946666667","25.0117683333333","6500400","永和區"
"234061","AAD-866","2018/11/23 19:07:50","新北市永和區安樂路304巷22號","121.514968333333","25.0053783333333","6500400","永和區"
"234042","862-TW","2018/11/23 19:07:42","新北市永和區永貞路330號","121.511248333333","25.0054533333333","6500400","永和區"
"234050","863-TW","2018/11/23 19:07:41","新北市永和區保福路二段150巷18號","121.510356666667","25.014985","6500400","永和區"
"234023","9372-KE","2018/11/23 19:07:56","新北市永和區中興街10巷30號","121.51582","25.0111633333333","6500400","永和區"
"234026","9371-KE","2018/11/23 19:07:43","新北市永和區安樂路272巷11號","121.514971666667","25.0044433333333","6500400","永和區"
"234011","9373-KE","2018/11/23 19:07:47","新北市永和區仁愛路141巷9號","121.511668333333","25.011895","6500400","永和區"
"249005","172-UM","2018/11/23 19:07:39","新北市八里區中華路三段99巷2號","121.393758333333","25.1382933333333","6502300","八里區"
"249001","173-UM","2018/11/23 19:07:41","新北市八里區龍米路二段228-1號","121.432761666667","25.158405","6502300","八里區"
"248016","026-BX","2018/11/23 19:07:55","新北市五股區成泰路三段543巷30號","121.450608333333","25.1025583333333","6501500","五股區"
"248006","077-UY","2018/11/23 19:07:47","新北市五股區四維路114號","121.467696666667","25.07413","6501500","五股區"
"248008","095-VK","2018/11/23 19:07:44","新北市五股區中興路一段118巷17號","121.465893333333","25.0742633333333","6501500","五股區"
"248018","225-UY","2018/11/23 19:07:40","新北市五股區民義路一段287巷2-1號","121.423938333333","25.0911983333333","6501500","五股區"
"248012","247-BX","2018/11/23 19:07:43","新北市五股區中興路四段48巷16號","121.438593333333","25.0834566666667","6501500","五股區"
"248010","272-BY","2018/11/23 19:07:50","新北市五股區水碓九路39號","121.428928333333","25.07208","6501500","五股區"
"248004","677-BX","2018/11/23 19:07:46","新北市五股區六合街21號","121.43106","25.0886966666667","6501500","五股區"
"248002","678-BX","2018/11/23 19:07:48","新北市五股區凌雲路一段161號","121.448943333333","25.1025466666667","6501500","五股區"
"234077","969-R7","2018/11/23 19:07:49","新北市永和區民權路60號","121.519813333333","24.99821","6500400","永和區"
"234074","AAC-211","2018/11/23 19:07:42","新北市永和區福和路20號","121.524133333333","25.0084766666667","6500400","永和區"
"234067","AAC-212","2018/11/23 19:07:37","新北市永和區保平路33號","121.512073333333","25.0072666666667","6500400","永和區"
"234003","AAC-295","2018/11/23 19:07:40","新北市永和區保福路一段70號","121.51247","25.0100516666667","6500400","永和區"
"244023","069-UM","2018/11/23 19:07:52","新北市林口區文林六街13巷22號","121.370218333333","25.0807916666667","6501700","林口區"
"244019","403-UM","2018/11/23 19:07:44","新北市林口區四維路114號","121.377276666667","25.0781783333333","6501700","林口區"
"244013","KEA-2802","2018/11/23 19:07:51","新北市林口區麗園一街2巷2號","121.375816666667","25.0716183333333","6501700","林口區"
"244017","485-VK","2018/11/23 19:07:46","新北市林口區文化二路一段120巷8-2號","121.367798333333","25.0696966666667","6501700","林口區"
"244011","701-TV","2018/11/23 19:07:48","新北市林口區中正路343號","121.387975","25.07764","6501700","林口區"
"244025","837-TS","2018/11/23 19:07:55","新北市林口區文化北路一段526巷19號","121.367986666667","25.0786866666667","6501700","林口區"
"243013","AAD-798","2018/11/23 19:07:35","新北市泰山區明志路三段277號","121.42317","25.0367583333333","6501600","泰山區"
"243009","297-R6","2018/11/23 19:07:56","新北市泰山區明志路一段120號","121.433243333333","25.0636116666667","6501600","泰山區"
"243016","KEA-2801","2018/11/23 19:07:49","新北市泰山區明志路二段342號","121.426123333333","25.0453466666667","6501600","泰山區"
"243015","421-VK","2018/11/23 19:07:43","新北市泰山區明志路一段368號","121.430781666667","25.0578866666667","6501600","泰山區"
"243011","KEA-2215","2018/11/23 19:07:48","新北市泰山區明志路二段322號","121.42624","25.0459366666667","6501600","泰山區"
"243010","KEA-2216","2018/11/23 19:07:38","新北市泰山區仁愛路39巷27號","121.430883333333","25.0552866666667","6501600","泰山區"
"243012","646-TV","2018/11/23 19:07:38","新北市泰山區辭修路34巷1號","121.428783333333","25.058055","6501600","泰山區"
"243014","680-BX","2018/11/23 19:07:47","新北市泰山區泰林路二段429號","121.426385","25.064145","6501600","泰山區"
"222003","436-BY","2018/11/23 19:07:43","新北市深坑區深南路142號","121.623","25.01412","6501800","深坑區"
"222002","659-BX","2018/11/23 19:07:40","新北市深坑區文山路一段19-1號","121.631898333333","25.0072233333333","6501800","深坑區"
"231041","002-UM","2018/11/23 19:07:50","新北市新店區溪園路395號","121.523743333333","24.9774716666667","6500600","新店區"
"231059","046-UY","2018/11/23 19:07:55","新北市新店區安康路一段355號","121.519911666667","24.963825","6500600","新店區"
"231040","047-UY","2018/11/23 19:07:41","新北市新店區三民路157號","121.533898333333","24.973545","6500600","新店區"
"231044","106-UY","2018/11/23 19:07:44","新北市新店區中興路三段134號","121.54469","24.979775","6500600","新店區"
"231046","107-UY","2018/11/23 19:07:42","新北市新店區永業路101號","121.528681666667","24.9486216666667","6500600","新店區"
"231053","108-UY","2018/11/23 19:07:56","新北市新店區自強路147號","121.545981666667","24.92206","6500600","新店區"
"231048","187-VK","2018/11/23 19:07:53","新北市新店區德正街27巷29弄52號","121.545781666667","24.9727533333333","6500600","新店區"
"231054","KEA-2219","2018/11/23 19:07:56","新北市新店區新店路68號","121.537323333333","24.9537183333333","6500600","新店區"
"231042","268-BY","2018/11/23 19:07:42","新北市新店區中興路一段201號","121.543506666667","24.96541","6500600","新店區"
"231051","278-BY","2018/11/23 19:07:45","新北市新店區中正路382巷1號","121.535046666667","24.9773366666667","6500600","新店區"
"231050","AAD-862","2018/11/23 19:07:56","新北市新店區竹林路2巷27弄2號","121.550041666667","24.950725","6500600","新店區"
"231058","3713-VJ","2018/11/23 19:07:40","新北市新店區光明街61號","121.53882","24.96034","6500600","新店區"
"231066","4716-K9","2018/11/23 19:07:50","新北市新店區安豐路30-1號","121.500668333333","24.9568583333333","6500600","新店區"
"231056","4715-K9","2018/11/23 19:07:41","新北市新店區民權路107-2號","121.536388333333","24.98218","6500600","新店區"
"231067","4772-VM","2018/11/23 19:07:54","新北市新店區安康路一段281巷7號","121.523685","24.9631733333333","6500600","新店區"
"231065","512-UM","2018/11/23 19:07:54","新北市新店區安祥路147巷40號","121.476105","24.95688","6500600","新店區"
"231049","513-UM","2018/11/23 19:07:52","新北市新店區二十張路25巷12號","121.539031666667","24.98206","6500600","新店區"
"231064","515-UM","2018/11/23 19:07:37","新北市新店區安忠路20號","121.514556666667","24.962045","6500600","新店區"
"231063","616-UM","2018/11/23 19:07:42","新北市新店區車子路110號","121.50526","24.9520466666667","6500600","新店區"
"231045","617-UM","2018/11/23 19:07:52","新北市新店區北宜路一段142號","121.54009","24.9542933333333","6500600","新店區"
"231061","619-UM","2018/11/23 19:07:50","新北市新店區安康路一段351-1號","121.51941","24.9638516666667","6500600","新店區"
"231062","720-UM","2018/11/23 19:07:36","新北市新店區安和路一段52巷2-1號","121.517715","24.9665083333333","6500600","新店區"
"231060","897-TW","2018/11/23 19:07:55","新北市新店區安康路二段301號","121.502238333333","24.9573933333333","6500600","新店區"
"231043","899-TW","2018/11/23 19:07:50","新北市新店區寶橋路56號","121.546028333333","24.9754166666667","6500600","新店區"
"231055","AKT-0513","2018/11/23 19:07:52","新北市新店區環河路116號","121.537006666667","24.96713","6500600","新店區"
"241026","066-VK","2018/11/23 19:07:51","新北市三重區泉州街72號","121.494745","25.0548966666667","6500200","三重區"
"241035","KEA-2210","2018/11/23 19:07:35","新北市三重區新北大道一段7號","121.489548333333","25.061275","6500200","三重區"
"241029","942-UM","2018/11/23 19:07:41","新北市三重區集美街222號","121.491986666667","25.0553033333333","6500200","三重區"
"235066","003-UY","2018/11/23 19:07:53","新北市中和區光華街43號","121.505383333333","25.0038016666667","6500300","中和區"
"235064","005-UY","2018/11/23 19:07:54","新北市中和區泰和街38巷24號","121.498643333333","25.00105","6500300","中和區"
"235063","006-UY","2018/11/23 19:07:39","新北市中和區連城路353號","121.487911666667","24.9962333333333","6500300","中和區"
"235056","096-UM","2018/11/23 19:07:35","新北市板橋區三民路二段228號","121.478793333333","25.0113383333333","6500300","中和區"
"235039","097-UM","2018/11/23 19:07:57","新北市中和區自立路60號","121.523663333333","24.9915466666667","6500300","中和區"
"235065","098-UM","2018/11/23 19:07:45","新北市中和區中山路二段136巷66號","121.500595","25.00433","6500300","中和區"
"235058","151-BY","2018/11/23 19:07:50","新北市中和區連城路523巷11弄2號","121.481715","24.9940266666667","6500300","中和區"
"235055","183-VK","2018/11/23 19:07:52","新北市中和區德光路18號","121.47111","25.0044383333333","6500300","中和區"
"235038","185-VK","2018/11/23 19:07:51","新北市中和區大仁街20巷28號","121.518966666667","24.9931616666667","6500300","中和區"
"235049","186-VK","2018/11/23 19:07:55","新北市中和區景新街218號","121.507176666667","24.9951533333333","6500300","中和區"
"235067","255-BX","2018/11/23 19:07:54","新北市中和區新生街191號","121.483881666667","25.0002366666667","6500300","中和區"
"235044","293-VK","2018/11/23 19:07:55","新北市中和區中興街214號","121.499451666667","24.9899716666667","6500300","中和區"
"235072","301-VK","2018/11/23 19:07:39","新北市中和區連城路164號","121.493976666667","24.997625","6500300","中和區"
"235043","352-BY","2018/11/23 19:07:40","新北市中和區景平路116號","121.519321666667","24.9916116666667","6500300","中和區"
"235042","KEA-2878","2018/11/23 19:07:47","新北市中和區自立路16巷11號","121.521318333333","24.993525","6500300","中和區"
"235050","4979-A6","2018/11/23 19:07:56","新北市中和區華新街5號","121.507478333333","24.9853316666667","6500300","中和區"
"235069","4980-A6","2018/11/23 19:07:43","新北市中和區中和路217巷6號","121.504206666667","25.0004083333333","6500300","中和區"
"235070","558-UM","2018/11/23 19:07:32","新北市中和區中和路6號","121.4996","25.0022766666667","6500300","中和區"
"235045","565-BX","2018/11/23 19:07:41","新北市中和區景新街449號","121.513225","24.9884866666667","6500300","中和區"
"235054","640-BX","2018/11/23 19:07:42","新北市中和區民德路150號","121.46865","25.000135","6500300","中和區"
"235060","647-TV","2018/11/23 19:07:42","新北市中和區中山路三段145號","121.473923333333","25.00616","6500300","中和區"
"235047","732-UM","2018/11/23 19:07:37","新北市中和區興南路一段52號","121.51077","24.9907666666667","6500300","中和區"
"235046","733-UM","2018/11/23 19:07:44","新北市中和區忠孝街1巷70號","121.508281666667","24.9846666666667","6500300","中和區"
"235071","783-BX","2018/11/23 19:07:41","新北市中和區連城路519號","121.482055","24.9953333333333","6500300","中和區"
"235062","800-TS","2018/11/23 19:07:38","新北市中和區中山路二段526巷19號","121.485751666667","25.005605","6500300","中和區"
"235057","801-TS","2018/11/23 19:07:36","新北市中和區民利街87號","121.478125","24.9981033333333","6500300","中和區"
"235041","802-TS","2018/11/23 19:07:54","新北市中和區中和路232號","121.506645","24.9995533333333","6500300","中和區"
"235052","805-TS","2018/11/23 19:07:41","新北市中和區興南路二段128巷9弄1號","121.503401666667","24.9841966666667","6500300","中和區"
"235048","896-TW","2018/11/23 19:07:41","新北市中和區華新街97號","121.50878","24.9829666666667","6500300","中和區"
"235053","900-TW","2018/11/23 19:07:38","新北市中和區華福街5號","121.465313333333","24.996805","6500300","中和區"
"235051","157-BY","2018/11/23 19:07:41","新北市中和區興南路一段77號","121.510078333333","24.9892333333333","6500300","中和區"
"235037","AAC-213","2018/11/23 19:07:50","新北市中和區秀朗路三段60巷37號","121.525113333333","24.994915","6500300","中和區"
"235059","AAC-215","2018/11/23 19:07:42","新北市中和區圓通路294巷11弄3號","121.488503333333","24.989945","6500300","中和區"
"220068","013-TV","2018/11/23 19:07:47","新北市板橋區中山路二段437號","121.48132","25.020075","6500100","板橋區"
"220065","072-UY","2018/11/23 19:07:52","新北市板橋區民族路219巷44號","121.469458333333","25.0087283333333","6500100","板橋區"
"220086","073-UY","2018/11/23 19:07:40","新北市板橋區中正路216巷142號","121.460315","25.0194266666667","6500100","板橋區"
"220106","075-UY","2018/11/23 19:07:40","新北市板橋區文化路二段76號","121.469293333333","25.0250733333333","6500100","板橋區"
"226004","205-ST","2018/11/23 19:07:53","新北市平溪區靜安路二段530巷7號","121.744913333333","25.0272833333333","6502400","平溪區"
"228002","585-TW","2018/11/23 19:07:46","新北市貢寮區福隆里福隆街32-1號","121.945048333333","25.0174116666667","6502600","貢寮區"
"228001","670-TC","2018/11/23 19:07:45","新北市貢寮區真理里新港街10號","121.92551","25.0543716666667","6502600","貢寮區"
"228003","828-UM","2018/11/23 19:07:49","新北市貢寮區和美里和美街40-2號","121.912986666667","25.0906066666667","6502600","貢寮區"
"224006","676-BX","2018/11/23 19:07:39","新北市瑞芳區中山路225號","121.800491666667","25.1068816666667","6501200","瑞芳區"
"224008","285-BY","2018/11/23 19:07:51","新北市瑞芳區逢甲路402號","121.796746666667","25.11251","6501200","瑞芳區"
"224007","275-VK","2018/11/23 19:07:47","新北市瑞芳區瑞竹路76號","121.763223333333","25.103425","6501200","瑞芳區"
"224009","273-VK","2018/11/23 19:07:38","新北市瑞芳區洞頂路101巷12號","121.860706666667","25.1211533333333","6501200","瑞芳區"
"227011","642-TC","2018/11/23 19:07:48","新北市雙溪區牡丹里中正路23號","121.86457","25.0373533333333","6502500","雙溪區"
"227003","400-TW","2018/11/23 19:07:48","新北市雙溪區平林里外平林9-5號","121.859145","25.0380116666667","6502500","雙溪區"
"253006","032-BX","2018/11/23 19:07:47","新北市石門區八甲4-10號","121.521143333333","25.2826033333333","6502200","石門區"
"253005","295-VK","2018/11/23 19:07:44","新北市石門區阿里荖41-1號","121.604858333333","25.283895","6502200","石門區"
"222001","KEA-2212","2018/11/23 19:07:37","新北市深坑區北深路一段300號","121.624241666667","25.00578","6501800","深坑區"
"208002","KEA-2872","2018/11/23 19:07:43","新北市金山區中正路67號","121.633861666667","25.2217166666667","6502700","金山區"
"208003","665-BX","2018/11/23 19:07:54","新北市金山區中正路49號","121.634716666667","25.2220233333333","6502700","金山區"
"208001","761-BX","2018/11/23 19:07:48","新北市金山區福德街14號","121.639315","25.221765","6502700","金山區"
"251005","010-UM","2018/11/23 19:07:38","新北市淡水區中山路129巷1號","121.441235","25.17131","6501000","淡水區"
"251001","011-UM","2018/11/23 19:07:54","新北市淡水區自強路201巷39號","121.462171666667","25.1268116666667","6501000","淡水區"
"251002","012-UM","2018/11/23 19:07:51","新北市淡水區中山路94號","121.442655","25.1705633333333","6501000","淡水區"
"251010","413-VK","2018/11/23 19:07:54","新北市淡水區中正路一段156巷3號","121.421136666667","25.1802683333333","6501000","淡水區"
"251009","575-R6","2018/11/23 19:07:47","新北市淡水區清水街238號","121.440218333333","25.171835","6501000","淡水區"
"251007","577-R6","2018/11/23 19:07:47","新北市淡水區民生路135巷32號","121.466681666667","25.1390883333333","6501000","淡水區"
"251011","650-BX","2018/11/23 19:07:40","新北市淡水區中正東路二段143巷2弄1號","121.460746666667","25.1474166666667","6501000","淡水區"
"251003","673-BX","2018/11/23 19:07:50","新北市淡水區大義街3號","121.443813333333","25.1779883333333","6501000","淡水區"
"207003","550-UM","2018/11/23 19:07:39","新北市萬里區大鵬里萬里加投19-7號","121.648933333333","25.2105666666667","6502800","萬里區"
"207004","225-TW","2018/11/23 19:07:39","新北市萬里區萬里里瑪鋉下街2號","121.690976666667","25.17821","6502800","萬里區"
"252002","178-VK","2018/11/23 19:07:49","新北市三芝區埔坪里埔頭坑84號","121.50809","25.2542683333333","6502100","三芝區"
"252003","249-BX","2018/11/23 19:07:52","新北市三芝區錫板里南勢崗8號","121.479233333333","25.2616533333333","6502100","三芝區"
"252001","292-VK","2018/11/23 19:07:46","新北市三芝區長勤街82號","121.500281666667","25.2550383333333","6502100","三芝區"
"237004","KEA-2597","2018/11/23 19:07:48","新北市三峽區有木205-1號","121.439073333333","24.8515083333333","6500900","三峽區"
"237007","153-BY","2018/11/23 19:07:37","新北市三峽區中正路二段42巷12-1號","121.364273333333","24.9206266666667","6500900","三峽區"
"237013","252-BX","2018/11/23 19:07:40","新北市三峽區光明路69巷25號","121.376611666667","24.9292033333333","6500900","三峽區"
"237012","275-BY","2018/11/23 19:07:46","新北市三峽區三樹路222巷236弄23號","121.391391666667","24.9430216666667","6500900","三峽區"
"237008","302-VK","2018/11/23 19:07:50","新北市三峽區光明路106巷1號","121.376561666667","24.92742","6500900","三峽區"
"237014","433-BY","2018/11/23 19:07:43","新北市鶯歌區三鶯路5號","121.356928333333","24.94069","6500900","三峽區"
"237006","5529-G3","2018/11/23 19:07:45","新北市三峽區溪北街109號","121.398361666667","24.9354483333333","6500900","三峽區"
"237011","KEA-2596","2018/11/23 19:07:50","新北市三峽區介壽路三段107號","121.395511666667","24.9392466666667","6500900","三峽區"
"237015","649-BX","2018/11/23 19:07:46","新北市三峽區建安71號","121.44907","24.9260166666667","6500900","三峽區"
"237010","706-TV","2018/11/23 19:07:40","新北市三峽區民生街60號","121.375155","24.9362083333333","6500900","三峽區"
"237005","AKY-6261","2018/11/23 19:07:46","新北市三峽區中山路459巷163-3號","121.348646666667","24.93293","6500900","三峽區"
"236069","105-UM","2018/11/23 19:07:42","新北市土城區裕生路84巷11號","121.446745","24.9855833333333","6501300","土城區"
"236079","166-UM","2018/11/23 19:07:51","新北市土城區中央路四段464號","121.409805","24.9502016666667","6501300","土城區"
"236026","269-VK","2018/11/23 19:07:49","新北市土城區中正路56巷2號","121.443846666667","24.9753416666667","6501300","土城區"
"236014","270-VK","2018/11/23 19:07:51","新北市土城區學府路一段5-1號","121.458795","24.9884333333333","6501300","土城區"
"236039","271-VK","2018/11/23 19:07:44","新北市土城區清水路98巷3弄1號","121.457528333333","24.9813383333333","6501300","土城區"
"236020","752-BX","2018/11/23 19:07:51","新北市土城區延吉街185號","121.469225","24.9854833333333","6501300","土城區"
"236059","912-UM","2018/11/23 19:07:36","新北市土城區金城路二段266號","121.457988333333","24.98389","6501300","土城區"
"236048","913-UM","2018/11/23 19:07:53","新北市土城區明德路一段365-1號","121.453648333333","24.9790866666667","6501300","土城區"
"236055","970-R7","2018/11/23 19:07:45","新北市土城區學府路一段202號","121.452655","24.985525","6501300","土城區"
"242056","751-BX","2018/11/23 19:07:37","新北市新莊區新泰路255巷83號","121.442318333333","25.038805","6500500","新莊區"
"242046","400-BY","2018/11/23 19:07:55","新北市新莊區瓊林南路77-41號","121.437858333333","25.0129333333333","6500500","新莊區"
"242013","173-VK","2018/11/23 19:07:50","新北市新莊區三和路12-21號","121.44202","25.0387033333333","6500500","新莊區"
"238023","601-UM","2018/11/23 19:07:50","新北市樹林區三興路77號","121.392593333333","25.0144283333333","6500700","樹林區"
"238019","599-UM","2018/11/23 19:07:52","新北市樹林區東榮街91巷2弄21號","121.4152","24.9817716666667","6500700","樹林區"
"238018","571-TV","2018/11/23 18:52:16","新北市樹林區太平路48號","121.418971666667","24.9825133333333","6500700","樹林區"
"238022","KEA-2213","2018/11/23 19:07:43","新北市樹林區中山路二段151巷6弄1號","121.406798333333","24.9783466666667","6500700","樹林區"
"238021","KEA-2539","2018/11/23 19:07:50","新北市樹林區柑園街二段363巷8號","121.368848333333","24.9484066666667","6500700","樹林區"
"238025","303-VK","2018/11/23 19:07:39","新北市樹林區民和街8號","121.385496666667","24.9685216666667","6500700","樹林區"
"238017","283-BY","2018/11/23 19:07:48","新北市樹林區光興街50號","121.409871666667","25.002705","6500700","樹林區"
"238014","282-BY","2018/11/23 19:07:41","新北市樹林區千歲街92巷7弄17號","121.427316666667","24.99798","6500700","樹林區"
"238020","268-VK","2018/11/23 19:07:46","新北市樹林區俊英街155巷1號","121.424203333333","25.0123","6500700","樹林區"
"238026","172-UY","2018/11/23 19:07:39","新北市樹林區佳園路一段25號","121.392835","24.9712133333333","6500700","樹林區"
"238016","169-UY","2018/11/23 19:07:46","新北市樹林區復興路335巷6弄14號","121.417888333333","24.9873266666667","6500700","樹林區"
"239007","AAC-297","2018/11/23 19:07:55","新北市鶯歌區大湖路余厝巷11號","121.341931666667","24.9610883333333","6500800","鶯歌區"
"239006","891-R6","2018/11/23 19:07:37","新北市鶯歌區鶯桃路141號","121.337775","24.9548966666667","6500800","鶯歌區"
"239008","527-UM","2018/11/23 19:07:46","新北市鶯歌區大湖路462號","121.34","24.9721633333333","6500800","鶯歌區"
"239005","526-UM","2018/11/23 19:07:42","新北市鶯歌區東湖路4號","121.351056666667","24.9725983333333","6500800","鶯歌區"
"239001","417-VK","2018/11/23 19:07:56","新北市鶯歌區鶯桃路95巷80號","121.336978333333","24.9529866666667","6500800","鶯歌區"
"239003","360-BY","2018/11/23 19:07:38","新北市鶯歌區中正二路121號","121.347795","24.95018","6500800","鶯歌區"
"239002","359-BY","2018/11/23 19:07:50","新北市鶯歌區國際二路6巷11號","121.338743333333","24.9738016666667","6500800","鶯歌區"
"239004","193-VK","2018/11/23 19:07:53","新北市鶯歌區二甲路55-10號","121.336345","24.9322666666667","6500800","鶯歌區"
"221008","489-VK","2018/11/23 19:07:49","新北市汐止區康寧街495-2號","121.632568333333","25.068485","6501100","汐止區"
"221036","130-UY","2018/11/23 19:07:38","新北市汐止區康寧街901號","121.651606666667","25.0749833333333","6501100","汐止區"
"221015","131-UY","2018/11/23 19:07:49","新北市汐止區大同路二段383號","121.657651666667","25.06726","6501100","汐止區"
"221010","269-BY","2018/11/23 19:07:44","新北市汐止區康寧街901號","121.651243333333","25.0749966666667","6501100","汐止區"
"221012","278-VK","2018/11/23 19:07:52","新北市汐止區汐萬路一段312號","121.650705","25.07528","6501100","汐止區"
"221023","279-VK","2018/11/23 19:07:54","新北市汐止區康寧街901號","121.65174","25.074935","6501100","汐止區"
"221027","281-BY","2018/11/23 19:07:51","新北市汐止區康寧街901號","121.651436666667","25.0749683333333","6501100","汐止區"
"221029","298-VK","2018/11/23 19:07:52","新北市汐止區康寧街861巷1號","121.645606666667","25.0759433333333","6501100","汐止區"
"221021","299-VK","2018/11/23 19:07:46","新北市汐止區康寧街901號","121.651471666667","25.0750116666667","6501100","汐止區"
"221031","353-TW","2018/11/23 19:07:49","新北市汐止區康寧街901號","121.650758333333","25.0752833333333","6501100","汐止區"
"221025","623-UM","2018/11/23 19:07:49","新北市汐止區康寧街901號","121.651521666667","25.0749333333333","6501100","汐止區"
"221038","646-BX","2018/11/23 19:07:34","新北市汐止區康寧街901號","121.650763333333","25.0753133333333","6501100","汐止區"
"221002","707-TV","2018/11/23 19:07:40","新北市汐止區環河街207號","121.626041666667","25.0540366666667","6501100","汐止區"
"220079","145-BY","2018/11/23 19:07:50","新北市板橋區民權路260巷24-2號","121.458708333333","25.015285","6500100","板橋區"
"220080","200-UY","2018/11/23 19:07:55","新北市板橋區大觀路二段7巷16號","121.447628333333","25.0033866666667","6500100","板橋區"
"220101","245-BX","2018/11/23 19:07:49","新北市板橋區莊敬路142-1號","121.471055","25.0230583333333","6500100","板橋區"
"220056","276-BY","2018/11/23 19:07:54","新北市板橋區信義路74巷1弄8號","121.457371666667","24.9929683333333","6500100","板橋區"
"220072","277-BY","2018/11/23 19:07:36","新北市板橋區金門街369巷99號","121.428311666667","24.9816083333333","6500100","板橋區"
"220064","282-UM","2018/11/23 19:07:53","新北市板橋區民生路一段33號","121.47619","25.01215","6500100","板橋區"
"220071","283-VK","2018/11/23 19:07:56","新北市板橋區重慶路353巷7號","121.46481","24.998115","6500100","板橋區"
"220094","285-UM","2018/11/23 19:07:38","新北市板橋區光武街121號","121.466425","25.02795","6500100","板橋區"
"220083","286-VK","2018/11/23 19:07:49","新北市板橋區龍興街99巷2號","121.444221666667","25.00293","6500100","板橋區"
"220081","287-VK","2018/11/23 19:07:48","新北市板橋區南雅西路二段156巷26號","121.452316666667","25.0127966666667","6500100","板橋區"
"220090","288-VK","2018/11/23 19:07:52","新北市板橋區裕民街23-3號","121.462123333333","25.028935","6500100","板橋區"
"220061","295-UM","2018/11/23 19:07:52","新北市板橋區中山路二段295巷17號","121.477795","25.0187533333333","6500100","板橋區"
"220084","296-UM","2018/11/23 19:07:58","新北市板橋區篤行路二段126-3號","121.431188333333","24.9907083333333","6500100","板橋區"
"220053","299-UM","2018/11/23 19:07:47","新北市板橋區太和街5巷2號","121.473635","25.0201066666667","6500100","板橋區"
"220075","303-R5","2018/11/23 19:07:42","新北市板橋區南雅南路一段3巷48號","121.45666","25.0059533333333","6500100","板橋區"
"220062","305-R5","2018/11/23 19:07:39","新北市中和區中正路1194巷26號","121.480836666667","25.0117266666667","6500100","板橋區"
"220092","307-R5","2018/11/23 19:07:53","新北市板橋區文化路一段322-1號","121.467761666667","25.022375","6500100","板橋區"
"220098","317-R6","2018/11/23 19:07:53","新北市板橋區自由路51巷14弄5號","121.464665","25.0237066666667","6500100","板橋區"
"220089","487-VK","2018/11/23 19:07:52","新北市板橋區文化路二段453號","121.47547","25.0335316666667","6500100","板橋區"
"220035","560-BX","2018/11/23 19:07:44","新北市板橋區中正路381號","121.454148333333","25.0215833333333","6500100","板橋區"
"220103","561-BX","2018/11/23 19:07:49","新北市板橋區文化路一段188巷9弄112號","121.468576666667","25.0193783333333","6500100","板橋區"
"220069","568-UM","2018/11/23 19:07:40","新北市板橋區華興街58號","121.457813333333","25.0047333333333","6500100","板橋區"
"220011","609-BX","2018/11/23 19:07:46","新北市板橋區三民路二段117號","121.479175","25.0157816666667","6500100","板橋區"
"220091","637-BX","2018/11/23 19:07:50","新北市板橋區萬板路506號","121.480296666667","25.0262716666667","6500100","板橋區"
"220057","686-BX","2018/11/23 19:07:55","新北市板橋區重慶路325號","121.463998333333","24.9984916666667","6500100","板橋區"
"220077","687-BX","2018/11/23 19:07:49","新北市板橋區大觀路二段125-1號","121.445876666667","25.0013183333333","6500100","板橋區"
"220093","689-BX","2018/11/23 19:07:50","新北市板橋區民生路三段255號","121.464538333333","25.029375","6500100","板橋區"
"220054","741-BX","2018/11/23 19:07:38","新北市板橋區四川路一段189號","121.460938333333","25.0038816666667","6500100","板橋區"
"220070","806-UM","2018/11/23 19:07:53","新北市板橋區忠孝路41-1號","121.461213333333","25.0020616666667","6500100","板橋區"
"220055","827-TW","2018/11/23 19:07:38","新北市板橋區新民街9號","121.463695","25.0098266666667","6500100","板橋區"
"220067","829-TW","2018/11/23 19:07:47","新北市板橋區民享街116巷2弄13號","121.477406666667","25.015425","6500100","板橋區"
"220102","830-TW","2018/11/23 19:07:47","新北市板橋區萬板路818巷9號","121.483025","25.0268033333333","6500100","板橋區"
"220096","831-TW","2018/11/23 19:07:39","新北市板橋區雙十路二段4-4號","121.476926666667","25.02565","6500100","板橋區"
"220088","833-TW","2018/11/23 19:07:50","新北市板橋區文化路二段182巷3弄12號","121.471756666667","25.027555","6500100","板橋區"
"220074","895-R6","2018/11/23 19:07:45","新北市板橋區中正路39巷15號","121.454868333333","25.01312","6500100","板橋區"
"220073","985-R7","2018/11/23 19:07:53","新北市板橋區中正路268號","121.455258333333","25.0196366666667","6500100","板橋區"
"220097","AAC-210","2018/11/23 19:07:42","新北市板橋區新海路135巷2號","121.459946666667","25.0229966666667","6500100","板橋區"
"220082","AAC-253","2018/11/23 19:07:35","新北市板橋區溪崑二街41號","121.42843","24.9909683333333","6500100","板橋區"
"235068","KEA-2873","2018/11/23 19:07:37","新北市中和區圓通路213號","121.496871666667","24.9943633333333","6500300","中和區"
"235061","KEA-2875","2018/11/23 19:07:31","新北市中和區中山路三段179巷10號","121.473503333333","25.0056866666667","6500300","中和區"
