"lineid","car","time","location","longitude","latitude","cityid","cityname"
"234046","148-BY","2018/11/23 19:17:54","新北市永和區得和路352號","121.523838333333","24.9994316666667","6500400","永和區"
"234007","207-UY","2018/11/23 19:17:43","新北市永和區中山路一段232號","121.507955","25.0081","6500400","永和區"
"234081","298-R6","2018/11/23 19:17:47","新北市永和區福和路52號","121.523411666667","25.0081316666667","6500400","永和區"
"234038","336-UY","2018/11/23 19:17:46","新北市永和區民樂街55巷2號","121.527418333333","24.998445","6500400","永和區"
"234064","337-UY","2018/11/23 19:17:38","新北市永和區永元路17巷6弄2號","121.521351666667","25.0006933333333","6500400","永和區"
"234086","338-UY","2018/11/23 19:17:37","新北市永和區永利路40號","121.518693333333","25.005485","6500400","永和區"
"234070","552-UM","2018/11/23 19:17:50","新北市永和區豫溪街72-1號","121.517145","25.009855","6500400","永和區"
"234017","745-BX","2018/11/23 19:17:50","新北市永和區文化路144巷19弄12號","121.512398333333","25.0167383333333","6500400","永和區"
"234030","746-BX","2018/11/23 19:17:55","新北市永和區民生路21號","121.522995","24.999005","6500400","永和區"
"234054","KEA-2590","2018/11/23 19:17:43","新北市永和區中興街61號","121.516686666667","25.011675","6500400","永和區"
"234013","KEA-2591","2018/11/23 19:17:48","新北市永和區信義路33號","121.51367","25.0122133333333","6500400","永和區"
"234061","AAD-866","2018/11/23 19:17:50","新北市永和區秀朗路一段175號","121.517053333333","25.0036783333333","6500400","永和區"
"234042","862-TW","2018/11/23 19:17:42","新北市永和區保平路177巷6弄11號","121.509473333333","25.004505","6500400","永和區"
"234050","863-TW","2018/11/23 19:17:41","新北市永和區保福路二段78號","121.510561666667","25.0133416666667","6500400","永和區"
"234023","9372-KE","2018/11/23 19:17:39","新北市永和區竹林路109巷9號","121.52037","25.0120583333333","6500400","永和區"
"234026","9371-KE","2018/11/23 19:17:56","新北市永和區安樂路144巷20號","121.514975","24.9997583333333","6500400","永和區"
"234011","9373-KE","2018/11/23 19:17:47","新北市永和區永平路218巷23號","121.510066666667","25.0111166666667","6500400","永和區"
"249001","173-UM","2018/11/23 19:17:41","新北市八里區中華路一段40-18號","121.418913333333","25.1567316666667","6502300","八里區"
"248016","026-BX","2018/11/23 19:17:55","新北市五股區成洲五路12號","121.452261666667","25.101565","6501500","五股區"
"248008","095-VK","2018/11/23 19:17:44","新北市五股區中興路二段83巷26-3號","121.460045","25.0753333333333","6501500","五股區"
"248018","225-UY","2018/11/23 19:17:40","新北市五股區民義路一段226號","121.428645","25.0907","6501500","五股區"
"248012","247-BX","2018/11/23 19:17:42","新北市五股區中興路四段48巷16號","121.438606666667","25.08342","6501500","五股區"
"248010","272-BY","2018/11/23 19:17:45","新北市五股區水碓一路23號","121.430636666667","25.0712916666667","6501500","五股區"
"248004","677-BX","2018/11/23 19:17:48","新北市五股區五福路69號","121.432658333333","25.0901","6501500","五股區"
"248002","678-BX","2018/11/23 19:17:48","新北市五股區凌雲路一段158巷6號","121.447795","25.102995","6501500","五股區"
"234077","969-R7","2018/11/23 19:17:49","新北市永和區民族街42號","121.518398333333","24.9987883333333","6500400","永和區"
"234074","AAC-211","2018/11/23 19:17:42","新北市永和區竹林路108號","121.519761666667","25.0118333333333","6500400","永和區"
"234067","AAC-212","2018/11/23 19:17:37","新北市永和區保平路59號","121.511538333333","25.0069516666667","6500400","永和區"
"234003","AAC-295","2018/11/23 19:17:40","新北市永和區中山路一段120號","121.5107","25.0102","6500400","永和區"
"244023","069-UM","2018/11/23 19:17:52","新北市林口區文化三路一段617巷138號","121.371246666667","25.0784283333333","6501700","林口區"
"244017","485-VK","2018/11/23 19:17:46","新北市林口區公園路90號","121.369506666667","25.070425","6501700","林口區"
"244011","701-TV","2018/11/23 19:17:48","新北市林口區中正路264巷23號","121.388505","25.078365","6501700","林口區"
"244025","837-TS","2018/11/23 19:17:38","新北市林口區民族路212號","121.369151666667","25.0774916666667","6501700","林口區"
"243013","AAD-798","2018/11/23 19:17:55","新北市泰山區明志路三段145巷2弄1號","121.425415","25.0399083333333","6501600","泰山區"
"243009","297-R6","2018/11/23 19:17:56","新北市泰山區明志路一段94號","121.433475","25.0641633333333","6501600","泰山區"
"243016","KEA-2801","2018/11/23 19:17:40","新北市泰山區明志路三段98號","121.425066666667","25.041135","6501600","泰山區"
"243015","421-VK","2018/11/23 19:17:46","新北市泰山區公園路23號","121.429128333333","25.0542533333333","6501600","泰山區"
"243011","KEA-2215","2018/11/23 19:17:48","新北市泰山區中央路22號","121.426383333333","25.0433616666667","6501600","泰山區"
"243010","KEA-2216","2018/11/23 19:17:54","新北市泰山區明志路一段492巷4弄1號","121.430043333333","25.0548316666667","6501600","泰山區"
"243012","646-TV","2018/11/23 19:17:38","新北市泰山區仁愛路41號","121.432288333333","25.0551683333333","6501600","泰山區"
"243014","680-BX","2018/11/23 19:17:47","新北市泰山區泰林路二段150號","121.434153333333","25.06007","6501600","泰山區"
"222003","436-BY","2018/11/23 19:17:43","新北市深坑區深南路204號","121.626636666667","25.0160433333333","6501800","深坑區"
"222002","659-BX","2018/11/23 19:17:41","新北市深坑區北深路一段210號","121.632613333333","25.0109066666667","6501800","深坑區"
"231041","002-UM","2018/11/23 19:17:31","新北市新店區溪園路247號","121.525421666667","24.9832966666667","6500600","新店區"
"231059","046-UY","2018/11/23 19:17:35","新北市新店區安和路二段120號","121.519018333333","24.9707033333333","6500600","新店區"
"231040","047-UY","2018/11/23 19:17:41","新北市新店區三民路35巷2號","121.537405","24.9707283333333","6500600","新店區"
"231044","106-UY","2018/11/23 19:17:44","新北市新店區中興路三段327號","121.542008333333","24.9863566666667","6500600","新店區"
"231046","107-UY","2018/11/23 19:17:42","新北市新店區華城路12-1號","121.529256666667","24.9578966666667","6500600","新店區"
"231053","108-UY","2018/11/23 19:17:36","新北市新店區新烏路二段200巷11號","121.54767","24.9165683333333","6500600","新店區"
"231048","187-VK","2018/11/23 19:17:53","新北市新店區中興路二段57巷1號","121.546276666667","24.970495","6500600","新店區"
"231054","KEA-2219","2018/11/23 19:17:56","新北市新店區國校路51巷1號","121.538056666667","24.9546483333333","6500600","新店區"
"231042","268-BY","2018/11/23 19:17:42","新北市新店區中興路一段170號","121.542906666667","24.96439","6500600","新店區"
"231051","278-BY","2018/11/23 19:17:44","新北市新店區中央路75號","121.53226","24.976825","6500600","新店區"
"231050","AAD-862","2018/11/23 19:17:56","新北市新店區竹林路30巷1號","121.552313333333","24.9513066666667","6500600","新店區"
"231058","3713-VJ","2018/11/23 19:17:41","新北市新店區光明街224巷16號","121.540698333333","24.962485","6500600","新店區"
"231066","4716-K9","2018/11/23 19:17:50","新北市新店區安康路三段15號","121.493638333333","24.9535833333333","6500600","新店區"
"231056","4715-K9","2018/11/23 19:17:41","新北市新店區安民街133巷26號","121.515511666667","24.9696333333333","6500600","新店區"
"231067","4772-VM","2018/11/23 19:17:55","新北市新店區安康路一段195巷3號","121.526368333333","24.9626033333333","6500600","新店區"
"231065","512-UM","2018/11/23 19:17:53","新北市新店區安祥路110巷30弄1號","121.473803333333","24.9563166666667","6500600","新店區"
"231049","513-UM","2018/11/23 19:17:38","新北市新店區明德路64號","121.54156","24.9794466666667","6500600","新店區"
"231064","515-UM","2018/11/23 19:17:37","新北市新店區安忠路79號","121.511141666667","24.957145","6500600","新店區"
"231063","616-UM","2018/11/23 19:17:42","新北市新店區達觀路14巷3號","121.503221666667","24.9418016666667","6500600","新店區"
"231045","617-UM","2018/11/23 19:17:52","新北市新店區北宜路一段260號","121.54565","24.95278","6500600","新店區"
"231061","619-UM","2018/11/23 19:17:50","新北市新店區安康路一段113號","121.52852","24.9616833333333","6500600","新店區"
"231062","720-UM","2018/11/23 19:17:36","新北市新店區莒光路21號","121.525491666667","24.95999","6500600","新店區"
"231060","897-TW","2018/11/23 19:17:35","新北市新店區安康路二段138號","121.512465","24.9619066666667","6500600","新店區"
"231043","899-TW","2018/11/23 19:17:50","新北市新店區寶橋路15號","121.543743333333","24.97392","6500600","新店區"
"241022","060-VK","2018/11/23 19:17:44","新北市三重區重陽路二段58號","121.487255","25.0635633333333","6500200","三重區"
"241031","061-VK","2018/11/23 19:17:57","新北市三重區重新路四段254號","121.485198333333","25.05298","6500200","三重區"
"241026","066-VK","2018/11/23 19:17:51","新北市三重區正義南路86巷2號","121.4989","25.0577666666667","6500200","三重區"
"241009","267-UM","2018/11/23 19:17:43","新北市三重區仁美街114巷6號","121.485371666667","25.0809583333333","6500200","三重區"
"241035","KEA-2210","2018/11/23 19:17:54","新北市三重區信義西街138號","121.495526666667","25.0643383333333","6500200","三重區"
"241030","480-VK","2018/11/23 19:17:52","新北市三重區新興路40號","121.491543333333","25.053575","6500200","三重區"
"241006","AAD-863","2018/11/23 19:17:40","新北市三重區力行路二段123巷14號","121.483795","25.07644","6500200","三重區"
"241020","743-BX","2018/11/23 19:13:18","新北市三重區自強路三段17號","121.487316666667","25.07228","6500200","三重區"
"241029","942-UM","2018/11/23 19:17:42","新北市三重區重安街96號","121.492423333333","25.0562866666667","6500200","三重區"
"235066","003-UY","2018/11/23 19:17:53","新北市中和區廣福路112號","121.502156666667","25.001115","6500300","中和區"
"235064","005-UY","2018/11/23 19:17:54","新北市中和區泰和街38巷36號","121.498406666667","25.001455","6500300","中和區"
"235063","006-UY","2018/11/23 19:17:39","新北市中和區連城路249巷28弄1號","121.494795","24.9949483333333","6500300","中和區"
"235056","096-UM","2018/11/23 19:17:35","新北市中和區新民街5號","121.482455","25.0060766666667","6500300","中和區"
"235039","097-UM","2018/11/23 19:17:37","新北市中和區秀峰街64號","121.520653333333","24.9904316666667","6500300","中和區"
"235065","098-UM","2018/11/23 19:17:45","新北市中和區中山路二段2巷3弄15號","121.504291666667","25.0056733333333","6500300","中和區"
"235058","151-BY","2018/11/23 19:17:50","新北市中和區連城路469巷79弄2號","121.483516666667","24.993695","6500300","中和區"
"235055","183-VK","2018/11/23 19:17:51","新北市中和區德光路21號","121.470958333333","25.0042833333333","6500300","中和區"
"235038","185-VK","2018/11/23 19:17:51","新北市中和區大仁街20巷48號","121.519898333333","24.9933366666667","6500300","中和區"
"235049","186-VK","2018/11/23 19:17:45","新北市中和區景新街295巷16號","121.511228333333","24.9934483333333","6500300","中和區"
"235067","255-BX","2018/11/23 19:17:54","新北市中和區中正路803號","121.484675","25.0012233333333","6500300","中和區"
"235044","293-VK","2018/11/23 19:17:35","新北市中和區中興街266巷2號","121.498493333333","24.98745","6500300","中和區"
"235072","301-VK","2018/11/23 19:17:39","新北市中和區連城路265巷1號","121.49136","24.9963983333333","6500300","中和區"
"235043","352-BY","2018/11/23 19:17:40","新北市中和區景平路406號","121.508835","24.993305","6500300","中和區"
"235042","KEA-2878","2018/11/23 19:17:47","新北市中和區安樂路143巷2弄12號","121.514293333333","24.9975516666667","6500300","中和區"
"235050","4979-A6","2018/11/23 19:17:56","新北市中和區復興路280巷18弄11號","121.501938333333","24.9923083333333","6500300","中和區"
"235069","4980-A6","2018/11/23 19:17:43","新北市中和區中山路二段134號","121.50228","25.00328","6500300","中和區"
"235070","558-UM","2018/11/23 19:17:52","新北市中和區中山路二段274號","121.496911666667","25.0024383333333","6500300","中和區"
"235045","565-BX","2018/11/23 19:17:41","新北市中和區景新街383巷36號","121.513828333333","24.9906133333333","6500300","中和區"
"235054","640-BX","2018/11/23 19:17:42","新北市中和區國光街109巷20號","121.469581666667","24.999845","6500300","中和區"
"235060","647-TV","2018/11/23 19:17:41","新北市中和區員山路467號","121.480385","25.00453","6500300","中和區"
"235047","732-UM","2018/11/23 19:17:38","新北市中和區景平路239巷73號","121.508203333333","24.9921","6500300","中和區"
"235046","733-UM","2018/11/23 19:17:44","新北市中和區忠孝街2號","121.508653333333","24.98278","6500300","中和區"
"235071","783-BX","2018/11/23 19:17:47","新北市中和區連城路469巷79弄2號","121.483465","24.9939666666667","6500300","中和區"
"235057","801-TS","2018/11/23 19:17:56","新北市中和區員山路318號","121.481291666667","25.0029366666667","6500300","中和區"
"235041","802-TS","2018/11/23 19:17:54","新北市永和區中和路373號","121.508366666667","24.9998916666667","6500300","中和區"
"235052","805-TS","2018/11/23 19:17:41","新北市中和區興南路二段142巷8號","121.503623333333","24.9835116666667","6500300","中和區"
"235048","896-TW","2018/11/23 19:17:41","新北市中和區忠孝街112號","121.512175","24.9853733333333","6500300","中和區"
"235053","900-TW","2018/11/23 19:17:38","新北市中和區華安街32巷2號","121.467378333333","24.99743","6500300","中和區"
"235051","157-BY","2018/11/23 19:17:41","新北市中和區景平路239巷33弄33號","121.509586666667","24.9915533333333","6500300","中和區"
"235037","AAC-213","2018/11/23 19:17:51","新北市中和區秀朗路三段50巷12弄6號","121.524063333333","24.9952666666667","6500300","中和區"
"235059","AAC-215","2018/11/23 19:17:41","新北市中和區錦和路195巷1弄2號","121.491086666667","24.9908433333333","6500300","中和區"
"220068","013-TV","2018/11/23 19:17:47","新北市板橋區翠華街6巷26號","121.481276666667","25.0242416666667","6500100","板橋區"
"220065","072-UY","2018/11/23 19:17:52","新北市板橋區民族路170巷16號","121.467145","25.0072633333333","6500100","板橋區"
"220086","073-UY","2018/11/23 19:17:40","新北市板橋區中正路216巷22號","121.456736666667","25.0186733333333","6500100","板橋區"
"220106","075-UY","2018/11/23 19:17:40","新北市板橋區雙十路三段10巷16號","121.472391666667","25.03097","6500100","板橋區"
"226004","205-ST","2018/11/23 19:17:53","新北市平溪區南山里南山坪5號","121.762711666667","25.033235","6502400","平溪區"
"228002","585-TW","2018/11/23 19:17:46","新北市貢寮區福隆里興隆街21-2號","121.932793333333","25.0192233333333","6502600","貢寮區"
"228001","670-TC","2018/11/23 19:17:45","新北市貢寮區真理里新港街10號","121.925501666667","25.0543666666667","6502600","貢寮區"
"228003","828-UM","2018/11/23 19:17:49","新北市貢寮區和美里和美街19-2號","121.91277","25.08261","6502600","貢寮區"
"224008","285-BY","2018/11/23 19:17:51","新北市瑞芳區一坑路217號","121.801395","25.108885","6501200","瑞芳區"
"227011","642-TC","2018/11/23 19:17:48","新北市雙溪區新基里新基北街40號","121.868558333333","25.0380866666667","6502500","雙溪區"
"227003","400-TW","2018/11/23 19:17:48","新北市雙溪區平林里梅竹蹊66-1號","121.860168333333","25.0358033333333","6502500","雙溪區"
"253006","032-BX","2018/11/23 19:17:46","新北市石門區崁子腳18-10號","121.534513333333","25.290365","6502200","石門區"
"253005","295-VK","2018/11/23 19:17:44","新北市石門區阿里荖4-7號","121.612465","25.2791916666667","6502200","石門區"
"222001","KEA-2212","2018/11/23 19:17:56","新北市深坑區北深路二段51-1號","121.619138333333","25.0040966666667","6501800","深坑區"
"208002","KEA-2872","2018/11/23 19:17:52","新北市金山區中正路105-1號","121.632783333333","25.2215766666667","6502700","金山區"
"208003","665-BX","2018/11/23 19:17:37","新北市金山區忠孝一路56號","121.637543333333","25.2204616666667","6502700","金山區"
"208001","761-BX","2018/11/23 19:17:38","新北市金山區慈護街2號","121.640003333333","25.2206766666667","6502700","金山區"
"251005","010-UM","2018/11/23 19:17:37","新北市淡水區水源街一段34巷2號","121.443201666667","25.1722166666667","6501000","淡水區"
"251001","011-UM","2018/11/23 19:17:54","新北市淡水區自強路201巷39號","121.462205","25.12681","6501000","淡水區"
"251010","413-VK","2018/11/23 19:17:34","新北市淡水區沙崙路28號","121.421523333333","25.181335","6501000","淡水區"
"251006","561-UM","2018/11/23 19:17:38","新北市淡水區大信街33號","121.441988333333","25.1773416666667","6501000","淡水區"
"251009","575-R6","2018/11/23 19:17:47","新北市淡水區中正路38-1號","121.443646666667","25.16934","6501000","淡水區"
"251007","577-R6","2018/11/23 19:17:47","新北市淡水區民生路178號","121.465273333333","25.138705","6501000","淡水區"
"251011","650-BX","2018/11/23 19:08:25","新北市淡水區中正東路二段143巷2弄1號","121.46072","25.1474216666667","6501000","淡水區"
"251003","673-BX","2018/11/23 19:17:50","新北市淡水區中山北路一段108號","121.44281","25.1767916666667","6501000","淡水區"
"207003","550-UM","2018/11/23 19:17:39","新北市萬里區大鵬里萬里加投79-3號","121.647306666667","25.212335","6502800","萬里區"
"207004","225-TW","2018/11/23 19:17:39","新北市萬里區萬里里瑪鋉路18號","121.689265","25.175125","6502800","萬里區"
"252002","178-VK","2018/11/23 19:17:49","新北市三芝區淡金路二段18-1號","121.502671666667","25.2595016666667","6502100","三芝區"
"252001","292-VK","2018/11/23 19:17:46","新北市三芝區長勤街9巷11弄5號","121.501903333333","25.254675","6502100","三芝區"
"237004","KEA-2597","2018/11/23 19:17:48","新北市三峽區有木206號","121.439113333333","24.851595","6500900","三峽區"
"237007","153-BY","2018/11/23 19:17:37","新北市三峽區二鬮路75號","121.359688333333","24.9071433333333","6500900","三峽區"
"237009","210-TH","2018/11/23 19:17:37","新北市三峽區民生街195號","121.371871666667","24.93474","6500900","三峽區"
"237013","252-BX","2018/11/23 19:17:50","新北市三峽區光明路75巷21號","121.37734","24.9281466666667","6500900","三峽區"
"237012","275-BY","2018/11/23 19:17:46","新北市三峽區三樹路222巷196-33號","121.389606666667","24.9425733333333","6500900","三峽區"
"237008","302-VK","2018/11/23 19:17:50","新北市三峽區大同路154號","121.373125","24.926755","6500900","三峽區"
"237014","433-BY","2018/11/23 19:17:43","新北市三峽區中山路257巷39號","121.362091666667","24.936415","6500900","三峽區"
"237006","5529-G3","2018/11/23 19:17:45","新北市三峽區中正路一段227號","121.37202","24.9270733333333","6500900","三峽區"
"237011","KEA-2596","2018/11/23 19:17:50","新北市三峽區介壽路三段45號","121.395616666667","24.9373016666667","6500900","三峽區"
"237015","649-BX","2018/11/23 19:17:46","新北市三峽區成福路305號","121.429103333333","24.9235933333333","6500900","三峽區"
"237010","706-TV","2018/11/23 19:17:55","新北市三峽區復興路163號","121.370298333333","24.9384483333333","6500900","三峽區"
"237005","AKY-6261","2018/11/23 19:17:46","新北市三峽區隆恩街551號","121.357156666667","24.9399566666667","6500900","三峽區"
"236069","105-UM","2018/11/23 19:17:42","新北市土城區學成路67-1號","121.451436666667","24.9880983333333","6501300","土城區"
"236079","166-UM","2018/11/23 19:17:51","新北市土城區中州路3巷43號","121.413363333333","24.956365","6501300","土城區"
"236026","269-VK","2018/11/23 19:17:49","新北市土城區中央路二段149巷37號","121.443296666667","24.9767116666667","6501300","土城區"
"236014","270-VK","2018/11/23 19:17:51","新北市土城區學府路一段23巷25弄78號","121.457628333333","24.9860783333333","6501300","土城區"
"236020","752-BX","2018/11/23 19:16:02","新北市土城區峰廷街3號","121.469041666667","24.98734","6501300","土城區"
"236059","912-UM","2018/11/23 19:17:56","新北市土城區金城路一段41號","121.440296666667","24.9693616666667","6501300","土城區"
"236048","913-UM","2018/11/23 19:17:53","新北市土城區明德路一段365-1號","121.453656666667","24.9791033333333","6501300","土城區"
"242056","751-BX","2018/11/23 19:17:37","新北市新莊區三和路12-21號","121.442255","25.0386566666667","6500500","新莊區"
"242046","400-BY","2018/11/23 19:17:55","新北市新莊區瓊林南路77-41號","121.437676666667","25.0123916666667","6500500","新莊區"
"242013","173-VK","2018/11/23 19:17:50","新北市新莊區三和路12-21號","121.441956666667","25.0387333333333","6500500","新莊區"
"238015","755-BX","2018/11/23 19:17:41","新北市樹林區備內街1巷21號","121.413061666667","24.9866283333333","6500700","樹林區"
"238023","601-UM","2018/11/23 19:17:30","新北市樹林區三福街4號","121.409041666667","25.0168833333333","6500700","樹林區"
"238019","599-UM","2018/11/23 19:17:52","新北市樹林區東榮街91巷2弄2號","121.416041666667","24.982485","6500700","樹林區"
"238018","571-TV","2018/11/23 19:17:55","新北市樹林區太元街2巷7號","121.417106666667","24.9809483333333","6500700","樹林區"
"238024","5061-A6","2018/11/23 19:17:50","新北市樹林區福德街33號","121.400478333333","24.975395","6500700","樹林區"
"238022","KEA-2213","2018/11/23 19:17:43","新北市樹林區中山路二段153號","121.406375","24.9788366666667","6500700","樹林區"
"238021","KEA-2539","2018/11/23 19:17:50","新北市樹林區柑園街二段247巷17號","121.375508333333","24.95057","6500700","樹林區"
"238025","303-VK","2018/11/23 19:17:39","新北市樹林區中山路三段109-1號","121.39957","24.9744933333333","6500700","樹林區"
"238017","283-BY","2018/11/23 19:17:48","新北市樹林區光興街157巷2號","121.407763333333","25.0043566666667","6500700","樹林區"
"238014","282-BY","2018/11/23 19:17:41","新北市樹林區中正路22-1號","121.427725","24.9994133333333","6500700","樹林區"
"238020","268-VK","2018/11/23 19:17:46","新北市樹林區俊英街123巷45號","121.42336","25.0103916666667","6500700","樹林區"
"238026","172-UY","2018/11/23 19:17:39","新北市樹林區佳園路二段13號","121.393358333333","24.9641283333333","6500700","樹林區"
"238016","169-UY","2018/11/23 19:17:44","新北市樹林區復興路322巷4號","121.416393333333","24.9870633333333","6500700","樹林區"
"239007","AAC-297","2018/11/23 19:17:55","新北市鶯歌區大湖路326巷35號","121.346241666667","24.9699433333333","6500800","鶯歌區"
"239006","891-R6","2018/11/23 19:17:47","新北市鶯歌區鶯桃路67巷5號","121.340898333333","24.9524333333333","6500800","鶯歌區"
"239001","417-VK","2018/11/23 19:17:56","新北市鶯歌區建國路367巷1號","121.339275","24.949645","6500800","鶯歌區"
"239003","360-BY","2018/11/23 19:16:58","新北市鶯歌區建國路57-1號","121.354283333333","24.9546816666667","6500800","鶯歌區"
"239002","359-BY","2018/11/23 19:17:49","新北市鶯歌區湖山路28巷2號","121.340386666667","24.9739733333333","6500800","鶯歌區"
"221008","489-VK","2018/11/23 19:17:49","新北市汐止區康寧街309號","121.627248333333","25.06745","6501100","汐止區"
"221036","130-UY","2018/11/23 19:17:38","新北市汐止區康寧街901號","121.651626666667","25.0749866666667","6501100","汐止區"
"221015","131-UY","2018/11/23 19:17:49","新北市汐止區康寧街901號","121.651691666667","25.0748916666667","6501100","汐止區"
"221010","269-BY","2018/11/23 19:17:44","新北市汐止區康寧街901號","121.65127","25.0751066666667","6501100","汐止區"
"221012","278-VK","2018/11/23 19:17:52","新北市汐止區汐萬路一段271號","121.650588333333","25.0743433333333","6501100","汐止區"
"221023","279-VK","2018/11/23 19:17:54","新北市汐止區康寧街901號","121.651743333333","25.074935","6501100","汐止區"
"221027","281-BY","2018/11/23 19:17:51","新北市汐止區康寧街901號","121.65143","25.0749783333333","6501100","汐止區"
"221029","298-VK","2018/11/23 19:17:52","新北市汐止區汐萬路一段256巷1號","121.651736666667","25.074855","6501100","汐止區"
"221021","299-VK","2018/11/23 19:17:46","新北市汐止區康寧街901號","121.651456666667","25.074985","6501100","汐止區"
"221031","353-TW","2018/11/23 19:17:49","新北市汐止區康寧街901號","121.651536666667","25.07491","6501100","汐止區"
"221025","623-UM","2018/11/23 19:17:49","新北市汐止區康寧街901號","121.651536666667","25.0749366666667","6501100","汐止區"
"221038","646-BX","2018/11/23 19:17:54","新北市汐止區康寧街901號","121.650768333333","25.075315","6501100","汐止區"
"221002","707-TV","2018/11/23 19:17:40","新北市汐止區大同路一段296號","121.635498333333","25.0580066666667","6501100","汐止區"
"220079","145-BY","2018/11/23 19:17:50","新北市板橋區民權路202巷18弄1-2號","121.460851666667","25.01654","6500100","板橋區"
"220080","200-UY","2018/11/23 19:17:41","新北市板橋區大觀路二段19巷58號","121.448375","25.0029983333333","6500100","板橋區"
"220101","245-BX","2018/11/23 19:17:49","新北市板橋區莊敬路220巷3號","121.472591666667","25.021215","6500100","板橋區"
"220056","276-BY","2018/11/23 19:17:54","新北市板橋區信義路114號","121.458376666667","24.99262","6500100","板橋區"
"220072","277-BY","2018/11/23 19:17:36","新北市板橋區金門街297巷1號","121.430365","24.9864033333333","6500100","板橋區"
"220064","282-UM","2018/11/23 19:17:53","新北市板橋區漢生東路83巷4號","121.467081666667","25.0159383333333","6500100","板橋區"
"220071","283-VK","2018/11/23 19:17:36","新北市板橋區大豐街132號","121.460895","25.0011016666667","6500100","板橋區"
"220094","285-UM","2018/11/23 19:17:49","新北市板橋區吳鳳路82號","121.467046666667","25.031235","6500100","板橋區"
"220083","286-VK","2018/11/23 19:17:49","新北市板橋區大觀路二段174巷196弄16號","121.443093333333","25.0036216666667","6500100","板橋區"
"220081","287-VK","2018/11/23 19:17:48","新北市板橋區南雅西路一段184號","121.452918333333","25.0081433333333","6500100","板橋區"
"220090","288-VK","2018/11/23 19:17:52","新北市板橋區長江路一段106巷13弄4號","121.460183333333","25.02911","6500100","板橋區"
"220061","295-UM","2018/11/23 19:17:52","新北市板橋區中山路二段318巷20弄2號","121.48045","25.0187033333333","6500100","板橋區"
"220084","296-UM","2018/11/23 19:17:38","新北市板橋區溪崑二街62號","121.427923333333","24.9903783333333","6500100","板橋區"
"220053","299-UM","2018/11/23 19:17:47","新北市板橋區永豐街245號","121.47756","25.0212933333333","6500100","板橋區"
"220075","303-R5","2018/11/23 19:17:42","新北市板橋區南雅西路一段116號","121.452455","25.0064333333333","6500100","板橋區"
"220062","305-R5","2018/11/23 19:17:57","新北市板橋區三民路二段居仁巷1弄48-1號","121.481096666667","25.0136483333333","6500100","板橋區"
"220092","307-R5","2018/11/23 19:17:53","新北市板橋區光武街36巷12號","121.467901666667","25.02612","6500100","板橋區"
"220098","317-R6","2018/11/23 19:17:53","新北市板橋區民有街89巷8弄1號","121.464183333333","25.0273866666667","6500100","板橋區"
"220089","487-VK","2018/11/23 19:17:52","新北市板橋區文化路一段360號","121.468291666667","25.0236383333333","6500100","板橋區"
"220035","560-BX","2018/11/23 19:17:44","新北市板橋區中正路360巷8號","121.454885","25.02363","6500100","板橋區"
"220103","561-BX","2018/11/23 19:17:52","新北市板橋區介壽街20號","121.467615","25.020075","6500100","板橋區"
"220069","568-UM","2018/11/23 19:17:56","新北市板橋區貴興路7號","121.457701666667","25.0044433333333","6500100","板橋區"
"220011","609-BX","2018/11/23 19:17:56","新北市板橋區三民路二段146號","121.478998333333","25.0154483333333","6500100","板橋區"
"220091","637-BX","2018/11/23 19:17:43","新北市板橋區萬板路476號","121.479946666667","25.0259616666667","6500100","板橋區"
"220057","686-BX","2018/11/23 19:17:55","新北市板橋區五權街61-4號","121.464816666667","24.993405","6500100","板橋區"
"220077","687-BX","2018/11/23 19:17:49","新北市板橋區大觀路一段28巷72號","121.449793333333","25.0106883333333","6500100","板橋區"
"220093","689-BX","2018/11/23 19:17:49","新北市板橋區文化路一段419號","121.467815","25.022585","6500100","板橋區"
"220054","741-BX","2018/11/23 19:17:38","新北市板橋區光明街86號","121.4618","25.0027983333333","6500100","板橋區"
"220070","806-UM","2018/11/23 19:17:53","新北市板橋區忠孝路4號","121.45956","25.00171","6500100","板橋區"
"220055","827-TW","2018/11/23 19:17:38","新北市板橋區民族路61號","121.4649","25.0086916666667","6500100","板橋區"
"220067","829-TW","2018/11/23 19:17:47","新北市板橋區長安街138巷1弄54號","121.473983333333","25.0101733333333","6500100","板橋區"
"220102","830-TW","2018/11/23 19:17:47","新北市板橋區文聖街205巷2號","121.47994","25.026455","6500100","板橋區"
"220096","831-TW","2018/11/23 19:17:52","新北市板橋區文聖街156-1號","121.478721666667","25.027245","6500100","板橋區"
"220088","833-TW","2018/11/23 19:17:46","新北市板橋區雙十路一段3號","121.478076666667","25.0239816666667","6500100","板橋區"
"220074","895-R6","2018/11/23 19:17:45","新北市板橋區民權路117號","121.45846","25.01318","6500100","板橋區"
"220073","985-R7","2018/11/23 19:17:53","新北市板橋區新生街58號","121.457038333333","25.02097","6500100","板橋區"
"220097","AAC-210","2018/11/23 19:17:42","新北市板橋區幸福路32巷3弄12號","121.460806666667","25.02071","6500100","板橋區"
"220082","AAC-253","2018/11/23 19:17:35","新北市板橋區篤行路三段77號","121.426965","24.985275","6500100","板橋區"
"235068","KEA-2873","2018/11/23 19:17:37","新北市中和區圓通路175號","121.497551666667","24.9951283333333","6500300","中和區"
"235061","KEA-2875","2018/11/23 19:17:31","新北市中和區員山路394巷12弄7號","121.481418333333","25.0040866666667","6500300","中和區"
