"lineid","car","time","location","longitude","latitude","cityid","cityname"
"234081","298-R6","2018/11/23 20:27:47","新北市永和區永貞路19號","121.520921666667","25.007135","6500400","永和區"
"234038","336-UY","2018/11/23 20:27:51","新北市永和區民樂街39巷23號","121.528856666667","25.0007283333333","6500400","永和區"
"234064","337-UY","2018/11/23 20:27:58","新北市永和區中正路419號","121.517105","25.0050116666667","6500400","永和區"
"234070","552-UM","2018/11/23 20:27:50","新北市永和區永亨路7號","121.51933","25.0056666666667","6500400","永和區"
"234030","746-BX","2018/11/23 20:27:55","新北市永和區民族街81巷50-1號","121.519971666667","24.99647","6500400","永和區"
"234054","KEA-2590","2018/11/23 20:27:52","新北市永和區博愛街45巷25弄1號","121.519026666667","25.0169483333333","6500400","永和區"
"234061","AAD-866","2018/11/23 20:27:50","新北市永和區安樂路194巷25號","121.516133333333","25.0008666666667","6500400","永和區"
"234086","748-BX","2018/11/23 20:27:56","新北市永和區福和路79號","121.522521666667","25.0079233333333","6500400","永和區"
"234042","862-TW","2018/11/23 20:27:44","新北市永和區安樂路282號","121.514413333333","25.0044016666667","6500400","永和區"
"234050","863-TW","2018/11/23 20:27:47","新北市永和區新生路66巷3弄21號","121.50717","25.0151616666667","6500400","永和區"
"234023","9372-KE","2018/11/23 20:27:56","新北市永和區光復街2巷16弄19號","121.517901666667","25.016355","6500400","永和區"
"249001","173-UM","2018/11/23 20:27:50","新北市八里區商港路48號","121.395363333333","25.1449883333333","6502300","八里區"
"249004","303-UY","2018/11/23 20:27:57","新北市八里區中山路一段278號","121.41388","25.1596883333333","6502300","八里區"
"249002","305-UY","2018/11/23 20:27:55","新北市八里區龍米路二段125巷13號","121.445906666667","25.1455483333333","6502300","八里區"
"249003","593-UM","2018/11/23 20:27:41","新北市八里區華峰一街40號","121.398646666667","25.1464133333333","6502300","八里區"
"248002","678-BX","2018/11/23 20:27:48","新北市五股區成泰路三段1號","121.440883333333","25.0874816666667","6501500","五股區"
"234074","AAC-211","2018/11/23 20:27:42","新北市永和區福和路1號","121.525063333333","25.008935","6500400","永和區"
"234067","AAC-212","2018/11/23 20:27:57","新北市永和區保平路292巷2號","121.50801","25.0047466666667","6500400","永和區"
"234003","AAC-295","2018/11/23 20:27:40","新北市永和區中正路620號","121.51705","25.00781","6500400","永和區"
"243009","297-R6","2018/11/23 20:27:54","新北市泰山區忠孝街43號","121.429011666667","25.065455","6501600","泰山區"
"243016","KEA-2801","2018/11/23 20:27:40","新北市泰山區明志路二段313號","121.426515","25.046245","6501600","泰山區"
"243015","421-VK","2018/11/23 20:27:42","新北市泰山區泰林路二段462-1號","121.425821666667","25.064115","6501600","泰山區"
"243011","KEA-2215","2018/11/23 20:27:48","新北市泰山區明志路三段31號","121.424865","25.0428383333333","6501600","泰山區"
"243010","KEA-2216","2018/11/23 20:27:54","新北市泰山區明志路二段273巷16弄25號","121.427775","25.0464366666667","6501600","泰山區"
"243012","646-TV","2018/11/23 20:27:38","新北市泰山區忠孝街17巷2號","121.42751","25.0654383333333","6501600","泰山區"
"243014","680-BX","2018/11/23 20:27:47","新北市泰山區橫窠雅36號","121.4033","25.0732633333333","6501600","泰山區"
"222003","436-BY","2018/11/23 20:27:59","新北市深坑區深坑街37號","121.61583","25.0022533333333","6501800","深坑區"
"222002","659-BX","2018/11/23 20:27:40","新北市深坑區萬福路16巷16號","121.605495","25.007345","6501800","深坑區"
"231041","002-UM","2018/11/23 20:27:50","新北市新店區民權路89號","121.53774","24.9829366666667","6500600","新店區"
"231059","046-UY","2018/11/23 20:27:55","新北市新店區安德街173號","121.508651666667","24.9590083333333","6500600","新店區"
"231040","047-UY","2018/11/23 20:27:41","新北市新店區三民路183號","121.535186666667","24.97528","6500600","新店區"
"231044","106-UY","2018/11/23 20:27:44","新北市新店區建國路128巷2號","121.539326666667","24.97901","6500600","新店區"
"231053","108-UY","2018/11/23 20:27:58","新北市新店區松林路38號","121.546253333333","24.9102683333333","6500600","新店區"
"231048","187-VK","2018/11/23 20:27:53","新北市新店區寶慶街58巷21-1號","121.542025","24.9872833333333","6500600","新店區"
"231054","KEA-2219","2018/11/23 20:27:56","新北市新店區檳榔路111號","121.54458","24.9615533333333","6500600","新店區"
"231057","256-BX","2018/11/23 20:27:38","新北市新店區花園五路二段1號","121.553543333333","24.9342033333333","6500600","新店區"
"231042","268-BY","2018/11/23 20:27:42","新北市新店區中興路二段239號","121.547635","24.975435","6500600","新店區"
"231051","278-BY","2018/11/23 20:27:44","新北市新店區中央七街35號","121.529315","24.9756433333333","6500600","新店區"
"231050","AAD-862","2018/11/23 20:27:37","新北市新店區建興街9巷1號","121.539905","24.97633","6500600","新店區"
"231058","3713-VJ","2018/11/23 20:27:40","新北市新店區三民路191號","121.535518333333","24.9757083333333","6500600","新店區"
"231056","4715-K9","2018/11/23 20:27:41","新北市新店區中正路460號","121.533931666667","24.9793616666667","6500600","新店區"
"231067","4772-VM","2018/11/23 20:27:54","新北市新店區安華路28-1號","121.519621666667","24.9608233333333","6500600","新店區"
"231065","512-UM","2018/11/23 20:27:53","新北市新店區安祥路102巷42弄97號","121.487101666667","24.9630316666667","6500600","新店區"
"231049","513-UM","2018/11/23 20:27:58","新北市新店區華城路10巷2-2號","121.52928","24.958645","6500600","新店區"
"231064","515-UM","2018/11/23 20:27:56","新北市新店區新和街34號","121.519095","24.9847366666667","6500600","新店區"
"231063","616-UM","2018/11/23 20:27:41","新北市新店區玫瑰路4-1號","121.493605","24.9513933333333","6500600","新店區"
"231045","617-UM","2018/11/23 20:27:52","新北市新店區新坡一街24號","121.549018333333","24.9619966666667","6500600","新店區"
"231061","619-UM","2018/11/23 20:27:50","新北市新店區安和路三段60-1號","121.518046666667","24.9828116666667","6500600","新店區"
"231068","718-UY","2018/11/23 20:27:52","新北市新店區民權路19號","121.541971666667","24.9826866666667","6500600","新店區"
"231062","720-UM","2018/11/23 20:27:56","新北市新店區安泰路7巷16號","121.485633333333","24.9509516666667","6500600","新店區"
"231060","897-TW","2018/11/23 20:27:55","新北市新店區錦秀路1號","121.478995","24.9458183333333","6500600","新店區"
"231043","899-TW","2018/11/23 20:27:50","新北市新店區建國路104-1號","121.53986","24.977795","6500600","新店區"
"231055","AKT-0513","2018/11/23 20:27:52","新北市新店區安康路一段351-1號","121.519226666667","24.9640266666667","6500600","新店區"
"241011","013-R5","2018/11/23 20:27:40","新北市三重區龍門路29號","121.495648333333","25.0720383333333","6500200","三重區"
"241028","022-UY","2018/11/23 20:27:45","新北市三重區光興街93號","121.497321666667","25.0599283333333","6500200","三重區"
"241008","059-VK","2018/11/23 20:27:44","新北市三重區力行路二段123巷3號","121.48317","25.0763266666667","6500200","三重區"
"241022","060-VK","2018/11/23 20:27:44","新北市三重區民生街61巷18弄6號","121.487651666667","25.062905","6500200","三重區"
"241031","061-VK","2018/11/23 20:27:36","新北市三重區三寧街15號","121.489445","25.0598116666667","6500200","三重區"
"241015","062-VK","2018/11/23 20:27:38","新北市三重區文化北路41號","121.498963333333","25.0652283333333","6500200","三重區"
"241024","065-VK","2018/11/23 20:27:40","新北市三重區忠孝路三段15巷28號","121.480473333333","25.06784","6500200","三重區"
"241026","066-VK","2018/11/23 20:27:51","新北市三重區環河南路24號","121.503496666667","25.06229","6500200","三重區"
"241002","090-VK","2018/11/23 20:27:39","新北市三重區仁義街211巷17號","121.497563333333","25.08209","6500200","三重區"
"241003","091-VK","2018/11/23 20:27:51","新北市三重區富華街194號","121.493105","25.0849633333333","6500200","三重區"
"241005","262-UM","2018/11/23 20:27:50","新北市三重區溪尾街248號","121.487448333333","25.0825566666667","6500200","三重區"
"241016","265-UM","2018/11/23 20:27:52","新北市三重區正義北路88號","121.496825","25.0645833333333","6500200","三重區"
"241009","267-UM","2018/11/23 20:27:43","新北市三重區三和路四段400巷27號","121.479995","25.0792933333333","6500200","三重區"
"241018","268-UM","2018/11/23 20:27:50","新北市三重區正義北路232號","121.495891666667","25.0678616666667","6500200","三重區"
"241013","270-UM","2018/11/23 20:27:49","新北市三重區溪尾街6號","121.491565","25.0744166666667","6500200","三重區"
"241025","271-UM","2018/11/23 20:27:47","新北市三重區頂崁街210巷27號","121.475796666667","25.0681883333333","6500200","三重區"
"241007","398-BY","2018/11/23 20:27:42","新北市三重區自強路四段28號","121.488863333333","25.0767916666667","6500200","三重區"
"241035","KEA-2210","2018/11/23 20:27:54","新北市三重區重新路二段26號","121.499121666667","25.0626316666667","6500200","三重區"
"241004","475-VK","2018/11/23 20:27:37","新北市三重區溪尾街209號","121.48852","25.0808666666667","6500200","三重區"
"241030","480-VK","2018/11/23 20:27:52","新北市三重區成功路81號","121.488643333333","25.051315","6500200","三重區"
"241014","543-UM","2018/11/23 20:27:48","新北市三重區龍濱路64號","121.502418333333","25.0692566666667","6500200","三重區"
"241023","545-UM","2018/11/23 20:27:44","新北市三重區自由街16號","121.479841666667","25.0665183333333","6500200","三重區"
"241001","547-UM","2018/11/23 20:27:55","新北市三重區溪尾街66號","121.490378333333","25.0778716666667","6500200","三重區"
"241019","KEA-2593","2018/11/23 20:27:50","新北市三重區重陽路四段83號","121.492571666667","25.0710916666667","6500200","三重區"
"241006","AAD-863","2018/11/23 20:27:40","新北市三重區車路頭街135-1號","121.484345","25.0761066666667","6500200","三重區"
"241020","743-BX","2018/11/23 20:27:40","新北市三重區三和路三段142號","121.493446666667","25.0726616666667","6500200","三重區"
"241029","942-UM","2018/11/23 20:27:41","新北市三重區集美街227號","121.492191666667","25.0550833333333","6500200","三重區"
"247012","KEA-2869","2018/11/23 20:27:47","新北市蘆洲區復興路201號","121.47955","25.0895666666667","6501400","蘆洲區"
"235050","4979-A6","2018/11/23 20:27:36","新北市中和區景新街160巷5弄1號","121.50544","24.9970483333333","6500300","中和區"
"235069","4980-A6","2018/11/23 20:27:43","新北市中和區圓通路229號","121.496318333333","24.9942616666667","6500300","中和區"
"235059","AAC-215","2018/11/23 20:27:41","新北市中和區員山路36巷16號","121.484356666667","24.991515","6500300","中和區"
"247002","893-R6","2018/11/23 20:27:45","新北市蘆洲區長安街361巷28號","121.455955","25.0876266666667","6501400","蘆洲區"
"247016","546-UM","2018/11/23 20:27:43","新北市蘆洲區光華路96號","121.46748","25.0826516666667","6501400","蘆洲區"
"247024","500-BY","2018/11/23 20:27:46","新北市蘆洲區長樂路2-7號","121.464535","25.0842316666667","6501400","蘆洲區"
"247014","339-TH","2018/11/23 20:27:45","新北市蘆洲區中山二路44號","121.474035","25.0821916666667","6501400","蘆洲區"
"247006","337-TH","2018/11/23 20:27:38","新北市蘆洲區九芎街142號","121.464573333333","25.0785583333333","6501400","蘆洲區"
"247020","057-VK","2018/11/23 20:27:43","新北市蘆洲區仁愛街130號","121.4692","25.0944866666667","6501400","蘆洲區"
"247008","053-VK","2018/11/23 20:27:55","新北市蘆洲區永安北路二段76巷8號","121.483228333333","25.0850066666667","6501400","蘆洲區"
"247018","007-UY","2018/11/23 20:27:49","新北市蘆洲區民族路344號","121.476816666667","25.0905183333333","6501400","蘆洲區"
"247004","002-UY","2018/11/23 20:27:52","新北市蘆洲區長安街301號","121.457996666667","25.0848833333333","6501400","蘆洲區"
"247022","001-UY","2018/11/23 20:27:49","新北市蘆洲區中正路314號","121.464656666667","25.091195","6501400","蘆洲區"
"222001","KEA-2212","2018/11/23 20:27:56","新北市深坑區北深路三段345號","121.597156666667","25.0050266666667","6501800","深坑區"
"251001","011-UM","2018/11/23 20:27:54","新北市淡水區中山北路一段382號","121.44479","25.1828333333333","6501000","淡水區"
"251002","012-UM","2018/11/23 20:27:51","新北市淡水區中正路25號","121.442576666667","25.1696116666667","6501000","淡水區"
"251008","181-VK","2018/11/23 20:27:38","新北市淡水區淡海路200號","121.420471666667","25.185605","6501000","淡水區"
"251010","413-VK","2018/11/23 20:27:54","新北市淡水區沙崙路181巷2號","121.424433333333","25.184","6501000","淡水區"
"251012","441-VK","2018/11/23 20:27:53","新北市淡水區興仁路88號","121.45208","25.2178066666667","6501000","淡水區"
"251006","561-UM","2018/11/23 20:27:38","新北市淡水區商工路350號","121.468035","25.1854216666667","6501000","淡水區"
"251009","575-R6","2018/11/23 20:27:47","新北市淡水區中正東路一段25號","121.45179","25.16331","6501000","淡水區"
"251007","577-R6","2018/11/23 20:27:47","新北市淡水區崁頂70-2號","121.437133333333","25.20314","6501000","淡水區"
"251011","650-BX","2018/11/23 20:27:40","新北市淡水區崁頂145號","121.430928333333","25.2060016666667","6501000","淡水區"
"251003","673-BX","2018/11/23 20:27:50","新北市淡水區新生街108巷2號","121.440131666667","25.1747733333333","6501000","淡水區"
"252002","178-VK","2018/11/23 20:27:49","新北市三芝區淡金路二段47-2號","121.503725","25.2605233333333","6502100","三芝區"
"252001","292-VK","2018/11/23 20:27:46","新北市三芝區中山路一段14號","121.500646666667","25.258045","6502100","三芝區"
"236014","270-VK","2018/11/23 20:27:51","新北市土城區廣明街66號","121.455093333333","24.9936233333333","6501300","土城區"
"242037","AAC-296","2018/11/23 20:27:55","新北市新莊區後港一路56巷5弄1號","121.426623333333","25.0259","6500500","新莊區"
"242058","986-R7","2018/11/23 20:27:50","新北市新莊區四維路201號","121.421915","25.02057","6500500","新莊區"
"242056","751-BX","2018/11/23 20:27:37","新北市新莊區瓊泰路152號","121.443225","25.0323916666667","6500500","新莊區"
"242029","705-TV","2018/11/23 20:27:35","新北市新莊區昌平街31巷9號","121.454243333333","25.0513933333333","6500500","新莊區"
"242027","615-BX","2018/11/23 20:27:45","新北市新莊區幸福路26號","121.458728333333","25.04951","6500500","新莊區"
"242025","613-BX","2018/11/23 20:27:47","新北市新莊區五工二路51號","121.460898333333","25.06525","6500500","新莊區"
"242044","566-BX","2018/11/23 20:27:42","新北市新莊區中正路新建巷25號","121.414228333333","25.022125","6500500","新莊區"
"242048","497-BY","2018/11/23 20:27:45","新北市新莊區富國路18號","121.418475","25.0263566666667","6500500","新莊區"
"242002","440-UM","2018/11/23 20:27:55","新北市新莊區中正路80號","121.457656666667","25.03735","6500500","新莊區"
"242039","415-TV","2018/11/23 20:27:46","新北市新莊區成功街1號","121.425938333333","25.0219916666667","6500500","新莊區"
"242009","413-TV","2018/11/23 20:27:53","新北市新莊區昌盛街105號","121.456233333333","25.0500083333333","6500500","新莊區"
"242046","400-BY","2018/11/23 20:27:55","新北市新莊區中正路新雅巷2弄15號","121.417833333333","25.0249766666667","6500500","新莊區"
"242023","362-BY","2018/11/23 20:27:51","新北市新莊區化成路620號","121.466193333333","25.054885","6500500","新莊區"
"242060","353-BY","2018/11/23 20:27:49","新北市新莊區民安東路130號","121.430836666667","25.0206633333333","6500500","新莊區"
"242011","132-UY","2018/11/23 20:27:52","新北市新莊區中義街17號","121.45085","25.0511283333333","6500500","新莊區"
"242034","135-UY","2018/11/23 20:27:46","新北市新莊區中正路331號","121.447553333333","25.035","6500500","新莊區"
"242050","172-VK","2018/11/23 20:27:57","新北市新莊區民安西路189巷23號","121.426976666667","25.015335","6500500","新莊區"
"242013","173-VK","2018/11/23 20:27:50","新北市新莊區中平路302巷4號","121.445255","25.05163","6500500","新莊區"
"242019","175-VK","2018/11/23 20:27:50","新北市新莊區銘德街65號","121.456666666667","25.0436283333333","6500500","新莊區"
"242007","176-VK","2018/11/23 20:27:56","新北市新莊區思源路287巷1弄2號","121.459311666667","25.0479166666667","6500500","新莊區"
"242032","348-TH","2018/11/23 20:27:56","新北市新莊區中正路508巷9-17號","121.437066666667","25.035555","6500500","新莊區"
"242005","349-TH","2018/11/23 20:27:44","新北市新莊區化成路746巷50號","121.466971666667","25.0581216666667","6500500","新莊區"
"242021","350-TH","2018/11/23 20:27:55","新北市新莊區公園路10巷1號","121.447841666667","25.0388033333333","6500500","新莊區"
"242015","351-TH","2018/11/23 20:27:54","新北市新莊區中平路36巷5號","121.445098333333","25.043595","6500500","新莊區"
"221008","489-VK","2018/11/23 20:27:49","新北市汐止區康寧街543號","121.634385","25.069095","6501100","汐止區"
"221036","130-UY","2018/11/23 20:27:38","新北市汐止區新台五路二段65號","121.663816666667","25.0665883333333","6501100","汐止區"
"221015","131-UY","2018/11/23 20:27:48","新北市汐止區建成路142巷19弄17號","121.661835","25.0739333333333","6501100","汐止區"
"221010","269-BY","2018/11/23 20:27:44","新北市汐止區八連路一段207號","121.641205","25.0806216666667","6501100","汐止區"
"221012","278-VK","2018/11/23 20:27:52","新北市汐止區汐平路一段5號","121.680793333333","25.0713066666667","6501100","汐止區"
"221023","279-VK","2018/11/23 20:27:54","新北市汐止區湖東街9號","121.634731666667","25.0723066666667","6501100","汐止區"
"221032","280-BY","2018/11/23 20:27:47","新北市汐止區弘道街53巷22號","121.618783333333","25.0495133333333","6501100","汐止區"
"221027","281-BY","2018/11/23 20:27:51","新北市汐止區中正路225號","121.658","25.068765","6501100","汐止區"
"221029","298-VK","2018/11/23 20:27:52","新北市汐止區樟樹一路129巷32號","121.64053","25.0650933333333","6501100","汐止區"
"221021","299-VK","2018/11/23 20:27:46","新北市汐止區水源路一段286號","121.654151666667","25.058225","6501100","汐止區"
"221031","353-TW","2018/11/23 20:27:49","新北市汐止區福德一路237號","121.634221666667","25.0646916666667","6501100","汐止區"
"221035","622-UM","2018/11/23 20:27:42","新北市汐止區長江街101-5號","121.658788333333","25.07314","6501100","汐止區"
"221025","623-UM","2018/11/23 20:27:29","新北市汐止區水源路二段86號","121.656413333333","25.056105","6501100","汐止區"
"221038","646-BX","2018/11/23 20:27:54","新北市汐止區秀峰路60號","121.659381666667","25.0656716666667","6501100","汐止區"
"221033","647-BX","2018/11/23 20:27:56","新北市汐止區林森街73巷5號","121.623525","25.040925","6501100","汐止區"
"221002","707-TV","2018/11/23 20:27:46","新北市汐止區福德二路31號","121.635031666667","25.0678466666667","6501100","汐止區"
"221018","753-BX","2018/11/23 20:27:53","新北市汐止區茄苳路225巷11弄29號","121.670623333333","25.06997","6501100","汐止區"
"220083","286-VK","2018/11/23 20:27:52","新北市板橋區僑中二街102巷29號","121.444921666667","25.0084166666667","6500100","板橋區"
"242041","281-VK","2018/11/23 20:27:49","新北市新莊區中正路694巷3弄1號","121.418486666667","25.0283233333333","6500500","新莊區"
"220092","307-R5","2018/11/23 20:27:53","新北市板橋區溪城路90-2號","121.429838333333","24.98059","6500100","板橋區"
"220089","487-VK","2018/11/23 20:27:52","新北市板橋區四維路319號","121.46292","25.0290166666667","6500100","板橋區"
"242017","280-VK","2018/11/23 20:27:43","新北市新莊區中港三街9巷2弄2號","121.451113333333","25.0463683333333","6500500","新莊區"
"220103","561-BX","2018/11/23 20:27:49","新北市板橋區漢生東路33巷13號","121.465715","25.0173783333333","6500100","板橋區"
"220063","609-BX","2018/11/23 20:27:39","新北市林口區太平里180號","121.368316666667","25.1338566666667","6500100","板橋區"
"220070","806-UM","2018/11/23 20:27:53","新北市五股區新五路三段38號","121.4446","25.08802","6500100","板橋區"
"220073","985-R7","2018/11/23 20:27:52","新北市八里區中山路三段387號","121.37121","25.1374333333333","6500100","板橋區"
