"lineid","car","time","location","longitude","latitude","cityid","cityname"
"231059","046-UY","2018/11/23 21:07:55","新北市新店區僑信路52號","121.499358333333","24.95029","6500600","新店區"
"231040","047-UY","2018/11/23 21:07:41","新北市新店區北新路一段351號","121.541981666667","24.9693383333333","6500600","新店區"
"231048","187-VK","2018/11/23 21:07:53","新北市新店區文化路45號","121.544561666667","24.9811266666667","6500600","新店區"
"231054","KEA-2219","2018/11/23 21:07:56","新北市新店區大新街7巷26號","121.544111666667","24.9678616666667","6500600","新店區"
"231042","268-BY","2018/11/23 21:07:42","新北市新店區寶興路60巷3號","121.549915","24.9718883333333","6500600","新店區"
"231051","278-BY","2018/11/23 21:07:44","新北市新店區中正路700巷40號","121.535625","24.9917266666667","6500600","新店區"
"231050","AAD-862","2018/11/23 21:07:56","新北市新店區中華路70巷1號","121.538905","24.9694083333333","6500600","新店區"
"231065","512-UM","2018/11/23 21:07:53","新北市新店區安祥路69巷89弄6號","121.48353","24.959815","6500600","新店區"
"231064","515-UM","2018/11/23 21:07:36","新北市新店區薏仁坑路自強巷1號","121.497646666667","24.95776","6500600","新店區"
"231063","616-UM","2018/11/23 21:07:41","新北市新店區玫瑰路57巷2號","121.495805","24.94604","6500600","新店區"
"231061","619-UM","2018/11/23 21:07:50","新北市新店區永安街32號","121.517803333333","24.9866533333333","6500600","新店區"
"231062","720-UM","2018/11/23 21:07:36","新北市新店區安康路三段87號","121.491756666667","24.951885","6500600","新店區"
"231060","897-TW","2018/11/23 21:07:55","新北市新店區安康路二段337-1號","121.49859","24.9560733333333","6500600","新店區"
"241011","013-R5","2018/11/23 21:07:40","新北市三重區秀江街117號","121.499731666667","25.0722033333333","6500200","三重區"
"241028","022-UY","2018/11/23 21:07:45","新北市三重區正義南路47號","121.498215","25.0606716666667","6500200","三重區"
"241008","059-VK","2018/11/23 21:07:44","新北市三重區三和路四段36號","121.490618333333","25.0743716666667","6500200","三重區"
"241022","060-VK","2018/11/23 21:07:44","新北市三重區中正北路64巷24號","121.486093333333","25.063705","6500200","三重區"
"241031","061-VK","2018/11/23 21:07:56","新北市三重區重新路四段146號","121.486456666667","25.0558933333333","6500200","三重區"
"241015","062-VK","2018/11/23 21:07:38","新北市三重區福德北路46號","121.502058333333","25.0654883333333","6500200","三重區"
"241024","065-VK","2018/11/23 21:07:40","新北市三重區國道路一段58巷15號","121.481401666667","25.0720483333333","6500200","三重區"
"241026","066-VK","2018/11/23 21:07:51","新北市三重區文化南路32號","121.500271666667","25.0614616666667","6500200","三重區"
"241002","090-VK","2018/11/23 21:07:39","新北市三重區五華街18號","121.494846666667","25.080345","6500200","三重區"
"241003","091-VK","2018/11/23 21:07:50","新北市三重區仁義街224號","121.494921666667","25.08475","6500200","三重區"
"241005","262-UM","2018/11/23 21:07:50","新北市三重區五華街170號","121.48898","25.08608","6500200","三重區"
"241016","265-UM","2018/11/23 21:07:52","新北市三重區正義北路90號","121.497105","25.064745","6500200","三重區"
"241009","267-UM","2018/11/23 21:07:43","新北市三重區忠孝路二段122號","121.48304","25.0688083333333","6500200","三重區"
"241018","268-UM","2018/11/23 21:07:50","新北市三重區正義北路332-1號","121.49437","25.0704933333333","6500200","三重區"
"241013","270-UM","2018/11/23 21:07:49","新北市三重區仁賢街12-1號","121.495686666667","25.0748816666667","6500200","三重區"
"241025","271-UM","2018/11/23 21:07:47","新北市三重區中正北路208巷8號","121.482276666667","25.06693","6500200","三重區"
"241007","398-BY","2018/11/23 21:07:42","新北市三重區三和路四段145巷81號","121.486386666667","25.0787116666667","6500200","三重區"
"241004","475-VK","2018/11/23 21:07:57","新北市三重區仁愛街420號","121.490405","25.0814266666667","6500200","三重區"
"241030","480-VK","2018/11/23 21:07:52","新北市三重區五谷王北街20巷15弄1號","121.475046666667","25.0484266666667","6500200","三重區"
"241014","543-UM","2018/11/23 21:07:48","新北市三重區長安街82號","121.501436666667","25.067485","6500200","三重區"
"241023","545-UM","2018/11/23 21:07:44","新北市三重區洛陽街45巷15號","121.482383333333","25.0637516666667","6500200","三重區"
"241001","547-UM","2018/11/23 21:07:55","新北市三重區自強路四段45號","121.489663333333","25.07765","6500200","三重區"
"241019","KEA-2593","2018/11/23 21:07:50","新北市三重區自強路二段74巷19號","121.488036666667","25.0698816666667","6500200","三重區"
"241006","AAD-863","2018/11/23 21:07:40","新北市三重區中正北路105號","121.489341666667","25.0632416666667","6500200","三重區"
"241020","743-BX","2018/11/23 21:07:58","新北市三重區忠孝路二段34號","121.485743333333","25.070935","6500200","三重區"
"241029","942-UM","2018/11/23 21:07:41","新北市三重區正義南路107號","121.498246666667","25.0585416666667","6500200","三重區"
"247012","KEA-2869","2018/11/23 21:07:47","新北市蘆洲區民族路31-6號","121.477293333333","25.0850166666667","6501400","蘆洲區"
"247002","893-R6","2018/11/23 21:07:55","新北市蘆洲區長榮路387-1號","121.45903","25.0898016666667","6501400","蘆洲區"
"247016","546-UM","2018/11/23 21:07:43","新北市蘆洲區光華路151號","121.465601666667","25.0820916666667","6501400","蘆洲區"
"247024","500-BY","2018/11/23 21:07:46","新北市蘆洲區長興路50巷1號","121.46377","25.0837733333333","6501400","蘆洲區"
"247014","339-TH","2018/11/23 21:07:45","新北市蘆洲區中央路155號","121.472651666667","25.0847133333333","6501400","蘆洲區"
"247006","337-TH","2018/11/23 21:07:38","新北市蘆洲區九芎街15巷10號","121.467858333333","25.0780183333333","6501400","蘆洲區"
"247020","057-VK","2018/11/23 21:07:43","新北市蘆洲區民族路488號","121.471108333333","25.0912516666667","6501400","蘆洲區"
"247010","056-VK","2018/11/23 21:07:47","新北市蘆洲區鷺江街48號","121.47722","25.0831583333333","6501400","蘆洲區"
"247008","053-VK","2018/11/23 21:07:55","新北市蘆洲區民生街131巷12號","121.472451666667","25.0787983333333","6501400","蘆洲區"
"247004","002-UY","2018/11/23 21:07:53","新北市蘆洲區永安南路二段268號","121.458688333333","25.0807466666667","6501400","蘆洲區"
"247022","001-UY","2018/11/23 21:07:49","新北市蘆洲區中正路261號","121.467521666667","25.0873316666667","6501400","蘆洲區"
"251005","010-UM","2018/11/23 21:07:37","新北市淡水區中正東路35巷28號","121.446868333333","25.1688433333333","6501000","淡水區"
"251001","011-UM","2018/11/23 21:07:54","新北市淡水區新市一路三段101巷16弄3號","121.446601666667","25.1839466666667","6501000","淡水區"
"251002","012-UM","2018/11/23 21:07:50","新北市淡水區水源街一段145號","121.447358333333","25.1718616666667","6501000","淡水區"
"251010","413-VK","2018/11/23 21:07:53","新北市淡水區中正路一段61號","121.42387","25.1776616666667","6501000","淡水區"
"251012","441-VK","2018/11/23 21:07:41","新北市淡水區六塊厝14-1號","121.453316666667","25.240805","6501000","淡水區"
"251009","575-R6","2018/11/23 21:07:47","新北市淡水區民族路112巷57號","121.462055","25.1343266666667","6501000","淡水區"
"251011","650-BX","2018/11/23 21:07:46","新北市淡水區新民街180巷7弄27號","121.436968333333","25.1798466666667","6501000","淡水區"
"251003","673-BX","2018/11/23 21:07:50","新北市淡水區新春街96號","121.43907","25.1824483333333","6501000","淡水區"
"220070","806-UM","2018/11/23 21:07:53","新北市五股區中直路3-19號","121.428088333333","25.10904","6500100","板橋區"
