"lineid","car","time","location","longitude","latitude","cityid","cityname"
"247012","KEA-2869","2018/11/23 21:57:47","新北市八里區中山路三段409號","121.368656666667","25.1347583333333","6501400","蘆洲區"
"235010","733-UM","2018/11/23 21:37:58","新北市中和區員山路36巷13號","121.484191666667","24.9908166666667","6500300","中和區"
"220016","120-SR","2018/11/23 21:50:13","新北市板橋區海山路19號","121.468708333333","25.0092216666667","6500100","板橋區"
"251005","010-UM","2018/11/23 21:57:57","新北市淡水區鄧公路30巷1弄1號","121.45257","25.1696966666667","6501000","淡水區"
"251008","181-VK","2018/11/23 21:57:49","新北市淡水區學府路104號","121.449858333333","25.1717733333333","6501000","淡水區"
"251010","413-VK","2018/11/23 21:57:53","新北市淡水區中正路二段215號","121.426238333333","25.189265","6501000","淡水區"
"251004","443-VK","2018/11/23 21:57:46","新北市淡水區自強路201巷39號","121.46215","25.1267916666667","6501000","淡水區"
"251006","561-UM","2018/11/23 21:57:58","新北市淡水區中正東路36-1號","121.448828333333","25.1656983333333","6501000","淡水區"
"251007","577-R6","2018/11/23 21:57:47","新北市淡水區水源街二段177巷51號","121.452003333333","25.1771866666667","6501000","淡水區"
"251011","650-BX","2018/11/23 21:57:40","新北市淡水區中山北路一段157號","121.443256666667","25.1775366666667","6501000","淡水區"
"251003","673-BX","2018/11/23 21:57:50","新北市淡水區新春街96號","121.439106666667","25.1824533333333","6501000","淡水區"
