"lineid","car","time","location","longitude","latitude","cityid","cityname"
"234040","862-TW","2018/11/23 22:03:28","新北市永和區福和路1號","121.526371666667","25.0097","6500400","永和區"
"247012","KEA-2869","2018/11/23 22:27:47","新北市五股區成泰路一段98巷77號","121.452345","25.0788883333333","6501400","蘆洲區"
"251008","181-VK","2018/11/23 22:27:49","新北市淡水區學府路104號","121.449848333333","25.1717766666667","6501000","淡水區"
"251010","413-VK","2018/11/23 22:27:53","新北市淡水區沙崙路200號","121.424663333333","25.1839083333333","6501000","淡水區"
"251004","443-VK","2018/11/23 22:27:46","新北市淡水區民族路33號","121.462255","25.135825","6501000","淡水區"
"251007","577-R6","2018/11/23 22:27:47","新北市淡水區北新路180號","121.449351666667","25.178805","6501000","淡水區"
"251011","650-BX","2018/11/23 22:28:00","新北市淡水區水碓街7號","121.443218333333","25.177135","6501000","淡水區"
