"lineid","car","time","location","longitude","latitude","cityid","cityname"
"232004","290-BY","2018/11/24 07:18:04","新北市坪林區九芎坑15號","121.73826","24.9492366666667","6502000","坪林區"
"232016","291-BY","2018/11/24 07:18:08","新北市坪林區金瓜寮19號","121.67978","24.9131683333333","6502000","坪林區"
"232010","375-UM","2018/11/24 07:18:13","新北市坪林區水聳淒坑1號","121.726178333333","24.9252616666667","6502000","坪林區"
"244005","410-SL","2018/11/24 07:18:03","新北市林口區頂福里71-69號","121.354441666667","25.0816","6501700","林口區"
"235001","611-BX","2018/11/24 07:18:04","新北市中和區圓通路367巷6號","121.49144","24.9892316666667","6500300","中和區"
"226005","5620-A6","2018/11/24 07:18:09","新北市平溪區靜安路二段119號","121.721351666667","25.02393","6502400","平溪區"
"226007","7418-A5","2018/11/24 07:18:05","新北市平溪區南山里南山坪5號","121.762848333333","25.0332866666667","6502400","平溪區"
"226003","AGD-0702","2018/11/24 07:17:54","新北市平溪區嶺腳里嶺腳寮68-1號","121.748065","25.0319833333333","6502400","平溪區"
"223006","022-BY","2018/11/24 07:15:51","新北市石碇區深按6號","121.660351666667","25.0173233333333","6501900","石碇區"
"223002","KEA-2673","2018/11/24 07:18:09","新北市石碇區烏塗窟16-2號","121.656276666667","24.9755866666667","6501900","石碇區"
"223003","205-TH","2018/11/24 07:18:04","新北市石碇區蓬菜寮4號","121.652285","24.9738016666667","6501900","石碇區"
"223008","406-TH","2018/11/24 07:18:09","新北市石碇區番子坑24-7號","121.678438333333","25.00335","6501900","石碇區"
"223004","437-BY","2018/11/24 07:18:11","新北市石碇區新興坑6-2號","121.654256666667","25.0177766666667","6501900","石碇區"
"223001","592-UM","2018/11/24 07:17:54","新北市石碇區蓬菜寮4號","121.652376666667","24.97389","6501900","石碇區"
"223005","677-TV","2018/11/24 07:18:00","新北市石碇區新興坑6-2號","121.654316666667","25.0176","6501900","石碇區"
"227006","282-VK","2018/11/24 07:18:05","新北市雙溪區新基里中華路98號","121.866285","25.0391766666667","6502500","雙溪區"
"252004","249-BX","2018/11/24 07:17:57","新北市三芝區錫板里棟板頭38-1號","121.498605","25.22891","6502100","三芝區"
"252007","AAC-283","2018/11/24 07:17:52","新北市三芝區錫板里海尾17-1號","121.478981666667","25.25688","6502100","三芝區"
"237001","159-UY","2018/11/24 07:18:02","新北市三峽區中山路459巷137號","121.350353333333","24.9340433333333","6500900","三峽區"
