"lineid","car","time","location","longitude","latitude","cityid","cityname"
"248005","653-BX","2018/08/21 08:29:40","新北市五股區明德路12巷16號","121.433301666667","25.0718683333333","6501500","五股區"
"244002","248-BX","2018/08/21 08:29:29","新北市林口區嘉寶里6鄰47號","121.31512","25.1213566666667","6501700","林口區"
"222004","289-BY","2018/08/21 08:29:38","新北市深坑區昇高坑路33號","121.628305","24.99893","6501800","深坑區"
"231007","189-VK","2018/08/21 08:29:35","新北市新店區環湖路5號","121.532058333333","24.92251","6500600","新店區"
"231009","192-VK","2018/08/21 08:29:37","新北市新店區永興路102-4號","121.54559","24.930295","6500600","新店區"
"235001","611-BX","2018/08/21 08:29:26","新北市中和區員山路427號","121.48097","25.0035616666667","6500300","中和區"
"226005","5620-A6","2018/08/21 08:29:36","新北市平溪區南山里六分8號","121.796435","25.0497116666667","6502400","平溪區"
"226002","8452-VL","2018/08/21 08:29:28","新北市平溪區東勢里東勢格5號","121.738555","25.0046633333333","6502400","平溪區"
"226006","AGD-0702","2018/08/21 08:29:26","新北市平溪區十分里十分街214號","121.779105","25.0448166666667","6502400","平溪區"
"223006","022-BY","2018/08/21 08:29:47","新北市石碇區靜安路一段108號","121.64828","25.0084783333333","6501900","石碇區"
"223002","KEA-2673","2018/08/21 08:29:43","新北市石碇區碇坪路一段186號","121.667701666667","24.9839416666667","6501900","石碇區"
"223003","205-TH","2018/08/21 08:29:39","新北市石碇區小粗坑(格頭里)1號","121.65096","24.9521116666667","6501900","石碇區"
"223008","406-TH","2018/08/21 08:29:41","新北市石碇區靜安路一段252號","121.677618333333","25.0106466666667","6501900","石碇區"
"223001","592-UM","2018/08/21 08:29:28","新北市石碇區小粗坑(格頭里)1號","121.6509","24.952095","6501900","石碇區"
"223004","660-BX","2018/08/21 08:29:42","新北市石碇區碇坪路一段282號","121.676506666667","24.97679","6501900","石碇區"
"223005","677-TV","2018/08/21 08:29:30","新北市石碇區碇坪路一段280號","121.67619","24.97689","6501900","石碇區"
"227006","282-VK","2018/08/21 08:29:48","新北市雙溪區平林里竹寮坑4號","121.841733333333","25.0368183333333","6502500","雙溪區"
"252004","249-BX","2018/08/21 08:29:37","新北市三芝區興華里楓子林45-8號","121.501146666667","25.204665","6502100","三芝區"
"252002","702-TV","2018/08/21 08:29:28","新北市三芝區忠孝街1-12號","121.505556666667","25.2542266666667","6502100","三芝區"
"252007","AAC-283","2018/08/21 08:29:39","新北市三芝區蘭陽街49號","121.47487","25.2422333333333","6502100","三芝區"
"237001","159-UY","2018/08/21 08:29:31","新北市三峽區三樹路199號","121.378083333333","24.942185","6500900","三峽區"
"236008","165-UM","2018/08/21 08:29:30","新北市土城區金城路二段46巷1-24號","121.453676666667","24.9753283333333","6501300","土城區"
"236006","498-BY","2018/08/21 08:29:43","新北市土城區大暖路3號","121.422545","24.9613833333333","6501300","土城區"
