"lineid","car","time","location","longitude","latitude","cityid","cityname"
"234070","149-BY","2018/08/21 08:39:30","新北市永和區福和路1號","121.52655","25.009875","6500400","永和區"
"248005","653-BX","2018/08/21 08:32:21","新北市五股區明德路12巷6號","121.433326666667","25.0718666666667","6501500","五股區"
"222004","289-BY","2018/08/21 08:39:48","新北市深坑區大崙腳2-2號","121.614281666667","24.9942683333333","6501800","深坑區"
"231007","189-VK","2018/08/21 08:39:35","新北市新店區小坑二路120號","121.517375","24.9121283333333","6500600","新店區"
"231009","192-VK","2018/08/21 08:39:37","新北市新店區新烏路三段165巷64號","121.55397","24.901545","6500600","新店區"
"235001","611-BX","2018/08/21 08:39:45","新北市中和區民享街86巷27號","121.473025","25.0004233333333","6500300","中和區"
"226005","5620-A6","2018/08/21 08:39:36","新北市平溪區南山里南山坪125號","121.786363333333","25.0453116666667","6502400","平溪區"
"226002","8452-VL","2018/08/21 08:31:28","新北市平溪區東勢里東勢格11號","121.735186666667","25.002455","6502400","平溪區"
"226006","AGD-0702","2018/08/21 08:39:26","新北市平溪區十分里十分街187號","121.77803","25.0439916666667","6502400","平溪區"
"223006","022-BY","2018/08/21 08:39:47","新北市石碇區碇坪路一段82號","121.657691666667","24.9913333333333","6501900","石碇區"
"223002","KEA-2673","2018/08/21 08:39:27","新北市石碇區八分寮47-1號","121.643028333333","25.0133766666667","6501900","石碇區"
"223003","205-TH","2018/08/21 08:39:39","新北市石碇區北宜路五段80號","121.646741666667","24.9512033333333","6501900","石碇區"
"223008","406-TH","2018/08/21 08:39:33","新北市石碇區碇南路二段松柏崎巷32號","121.676101666667","25.02129","6501900","石碇區"
"223001","592-UM","2018/08/21 08:39:34","新北市石碇區北宜路五段80號","121.646506666667","24.9513733333333","6501900","石碇區"
"223004","660-BX","2018/08/21 08:39:42","新北市石碇區崩山24-2號","121.67863","24.9678583333333","6501900","石碇區"
"223005","677-TV","2018/08/21 08:39:30","新北市石碇區崩山24-2號","121.678646666667","24.96783","6501900","石碇區"
"227006","282-VK","2018/08/21 08:39:28","新北市雙溪區上林里大瀨1號","121.829983333333","25.0252283333333","6502500","雙溪區"
"252004","249-BX","2018/08/21 08:39:37","新北市三芝區興華里田心子12-2號","121.492035","25.206145","6502100","三芝區"
"252002","702-TV","2018/08/21 08:39:48","新北市三芝區忠孝街1-6號","121.505695","25.2544316666667","6502100","三芝區"
"252007","AAC-283","2018/08/21 08:39:39","新北市三芝區後厝里番子崙10-1號","121.488705","25.2387366666667","6502100","三芝區"
"237001","159-UY","2018/08/21 08:39:46","新北市三峽區學勤路106號","121.374881666667","24.9461433333333","6500900","三峽區"
"236008","165-UM","2018/08/21 08:39:30","新北市土城區金城路二段46巷1-24號","121.453495","24.97554","6501300","土城區"
"236002","339-SR","2018/08/21 08:39:41","新北市土城區中央路三段283號","121.426463333333","24.9633166666667","6501300","土城區"
"236006","498-BY","2018/08/21 08:39:43","新北市土城區永和街5號","121.434778333333","24.96463","6501300","土城區"
