"lineid","car","time","location","longitude","latitude","cityid","cityname"
"248005","653-BX","2018/08/21 10:29:31","新北市五股區中興路二段63巷17號","121.460191666667","25.0753233333333","6501500","五股區"
"231007","189-VK","2018/08/21 10:29:35","新北市新店區小坑三路51-2號","121.517158333333","24.9082783333333","6500600","新店區"
"231009","192-VK","2018/08/21 10:29:37","新北市新店區小坑一路21-1號","121.531718333333","24.912965","6500600","新店區"
"227006","282-VK","2018/08/21 10:29:48","新北市雙溪區長源里柑腳8號","121.804633333333","25.0145066666667","6502500","雙溪區"
"237001","159-UY","2018/08/21 10:29:31","新北市三峽區中山路459巷163-1號","121.349306666667","24.9333883333333","6500900","三峽區"
