"lineid","car","time","location","longitude","latitude","cityid","cityname"
"234070","149-BY","2018/08/21 13:29:37","新北市永和區得和路326號","121.523245","24.9994733333333","6500400","永和區"
"234005","207-UY","2018/08/21 13:29:35","新北市永和區中山路一段224號","121.508121666667","25.0082483333333","6500400","永和區"
"234078","298-R6","2018/08/21 13:29:48","新北市永和區福和路1號","121.525421666667","25.00861","6500400","永和區"
"234036","336-UY","2018/08/21 13:29:46","新北市永和區民樂街28號","121.527506666667","25.0015666666667","6500400","永和區"
"234062","337-UY","2018/08/21 13:29:42","新北市永和區得和路243巷16號","121.520613333333","25.000795","6500400","永和區"
"234084","338-UY","2018/08/21 13:29:43","新北市永和區永亨路165巷10號","121.526223333333","25.0041983333333","6500400","永和區"
"234068","552-UM","2018/08/21 13:29:49","新北市永和區竹林路177號","121.5206","25.0098133333333","6500400","永和區"
"234015","745-BX","2018/08/21 13:29:35","新北市永和區永和路二段425巷16號","121.514901666667","25.0177933333333","6500400","永和區"
"234028","746-BX","2018/08/21 13:29:41","新北市永和區民生路53號","121.5227","24.99766","6500400","永和區"
"234052","KEA-2590","2018/08/21 13:29:42","新北市永和區復興街19巷4號","121.516203333333","25.0131616666667","6500400","永和區"
"234012","KEA-2591","2018/08/21 13:29:51","新北市永和區中山路一段93號","121.511511666667","25.0106383333333","6500400","永和區"
"234060","AAD-866","2018/08/21 13:29:37","新北市永和區永貞路141號","121.51635","25.0040883333333","6500400","永和區"
"234040","862-TW","2018/08/21 13:29:43","新北市永和區中和路573號","121.51186","25.0036216666667","6500400","永和區"
"234048","863-TW","2018/08/21 13:29:48","新北市永和區仁愛路165號","121.51085","25.0128266666667","6500400","永和區"
"234025","9371-KE","2018/08/21 13:29:34","新北市永和區中山路一段17號","121.513843333333","25.0103333333333","6500400","永和區"
"234010","9373-KE","2018/08/21 13:29:43","新北市永和區中山路一段58號","121.512956666667","25.010815","6500400","永和區"
"248017","225-UY","2018/08/21 13:29:34","新北市五股區御史路291號","121.418846666667","25.1073466666667","6501500","五股區"
"234022","9380-KE","2018/08/21 13:29:40","新北市永和區竹林路91巷47弄1號","121.521191666667","25.012845","6500400","永和區"
"234076","969-R7","2018/08/21 13:29:45","新北市永和區得和路104巷7號","121.518028333333","24.99952","6500400","永和區"
"234072","AAC-211","2018/08/21 13:29:49","新北市永和區環河東路一段76號","121.519405","25.0167016666667","6500400","永和區"
"234066","AAC-212","2018/08/21 13:29:36","新北市永和區保平路109號","121.511071666667","25.00666","6500400","永和區"
"234001","AAC-295","2018/08/21 13:29:49","新北市永和區自強街2號","121.51401","25.008005","6500400","永和區"
"244002","248-BX","2018/08/21 13:29:46","新北市林口區頂福里23-1號","121.351496666667","25.084055","6501700","林口區"
"231002","002-UM","2018/08/21 13:29:49","新北市新店區環河路64號","121.537076666667","24.9627366666667","6500600","新店區"
"231027","0291-UT","2018/08/21 13:29:37","新北市新店區北宜路一段2號","121.53802","24.95872","6500600","新店區"
"231028","046-UY","2018/08/21 13:29:35","新北市新店區安華路28-1號","121.519611666667","24.960915","6500600","新店區"
"231005","106-UY","2018/08/21 13:29:26","新北市新店區北新路一段128-3號","121.54232","24.9697366666667","6500600","新店區"
"231010","107-UY","2018/08/21 13:29:35","新北市新店區中正路366號","121.5354","24.975995","6500600","新店區"
"231020","108-UY","2018/08/21 13:29:45","新北市新店區北宜路一段182號","121.540875","24.9528683333333","6500600","新店區"
"231012","187-VK","2018/08/21 13:29:52","新北市新店區光明街171號","121.539598333333","24.9626783333333","6500600","新店區"
"231023","KEA-2219","2018/08/21 13:29:34","新北市新店區新店路13號","121.54032","24.952845","6500600","新店區"
"231026","256-BX","2018/08/21 13:29:50","新北市新店區北新路一段89號","121.538698333333","24.9616833333333","6500600","新店區"
"231003","268-BY","2018/08/21 13:29:51","新北市新店區北新路一段91號","121.538796666667","24.961765","6500600","新店區"
"231018","278-BY","2018/08/21 13:29:52","新北市新店區中央路63號","121.53253","24.9770716666667","6500600","新店區"
"231015","AAD-862","2018/08/21 13:29:53","新北市新店區北宜路二段30巷5弄30號","121.548946666667","24.950715","6500600","新店區"
"231001","355-BY","2018/08/21 13:29:53","新北市新店區中央路173號","121.53414","24.9700783333333","6500600","新店區"
"231038","3712-VJ","2018/08/21 13:29:34","新北市新店區安華路28-1號","121.519156666667","24.9606383333333","6500600","新店區"
"231037","4716-K9","2018/08/21 13:29:45","新北市新店區安康路二段380號","121.500461666667","24.95746","6500600","新店區"
"231025","4715-K9","2018/08/21 13:29:49","新北市新店區中央七街61巷8號","121.528586666667","24.9764683333333","6500600","新店區"
"231036","512-UM","2018/08/21 13:29:32","新北市新店區建業路20號","121.481821666667","24.9535983333333","6500600","新店區"
"231013","513-UM","2018/08/21 13:29:37","新北市新店區中央路179-1號","121.5355","24.9693016666667","6500600","新店區"
"231006","617-UM","2018/08/21 13:29:41","新北市新店區安康路一段35-5號","121.531946666667","24.9606616666667","6500600","新店區"
"231030","619-UM","2018/08/21 13:29:41","新北市新店區安華路30巷3號","121.519001666667","24.9591133333333","6500600","新店區"
"231034","641-BX","2018/08/21 13:29:43","新北市新店區安華路28-1號","121.519558333333","24.9605216666667","6500600","新店區"
"231035","719-UM","2018/08/21 13:29:47","新北市新店區安一路一段1-1號","121.51964","24.9611366666667","6500600","新店區"
"231032","720-UM","2018/08/21 13:29:43","新北市新店區安豐路57號","121.499146666667","24.9543116666667","6500600","新店區"
"231029","897-TW","2018/08/21 13:29:41","新北市新店區安華路30巷12-1號","121.518105","24.95806","6500600","新店區"
"231004","899-TW","2018/08/21 13:29:48","新北市新店區安康路一段107-2號","121.528933333333","24.9616833333333","6500600","新店區"
"231024","AKT-0513","2018/08/21 13:29:39","新北市新店區中正路154巷4號","121.54176","24.97198","6500600","新店區"
"235030","003-UY","2018/08/21 13:29:43","新北市中和區中山路二段119號","121.502886666667","25.003755","6500300","中和區"
"235028","005-UY","2018/08/21 13:29:39","新北市中和區連城路139巷56號","121.496791666667","24.9972666666667","6500300","中和區"
"235027","006-UY","2018/08/21 13:29:50","新北市中和區連城路347巷1弄2號","121.488371666667","24.9957333333333","6500300","中和區"
"235020","096-UM","2018/08/21 13:29:53","新北市中和區中山路二段586-2號","121.482355","25.0054633333333","6500300","中和區"
"235003","097-UM","2018/08/21 13:29:48","新北市中和區景平路172號","121.517026666667","24.992735","6500300","中和區"
"235004","150-BY","2018/08/21 13:29:42","新北市中和區安平路59號","121.509435","24.9951683333333","6500300","中和區"
"235022","151-BY","2018/08/21 13:29:37","新北市中和區圓通路369巷197號","121.488653333333","24.9814233333333","6500300","中和區"
"235019","183-VK","2018/08/21 13:28:04","新北市中和區民享街287號","121.470876666667","24.9958483333333","6500300","中和區"
"235002","185-VK","2018/08/21 13:29:36","新北市中和區秀朗路三段128巷17弄43號","121.522865","24.9931016666667","6500300","中和區"
"235013","186-VK","2018/08/21 13:29:44","新北市中和區景安路138號","121.505","24.9942233333333","6500300","中和區"
"235031","255-BX","2018/08/21 13:29:40","新北市中和區新生街186巷5弄27號","121.482891666667","24.9986766666667","6500300","中和區"
"235036","301-VK","2018/08/21 13:29:44","新北市中和區連城路196號","121.492168333333","24.9966733333333","6500300","中和區"
"235007","352-BY","2018/08/21 13:29:44","新北市中和區景平路319號","121.506098333333","24.9930583333333","6500300","中和區"
"235006","KEA-2878","2018/08/21 13:29:36","新北市中和區景平路62號","121.522241666667","24.9907516666667","6500300","中和區"
"235014","4979-A6","2018/08/21 13:29:42","新北市中和區景新街362巷5號","121.511998333333","24.9900716666667","6500300","中和區"
"235033","4980-A6","2018/08/21 13:29:39","新北市中和區連城路127巷17號","121.496718333333","24.9983366666667","6500300","中和區"
"235034","558-UM","2018/08/21 13:29:51","新北市中和區南華路89號","121.505681666667","24.997325","6500300","中和區"
"235009","565-BX","2018/08/21 13:29:30","新北市中和區南山路236巷24弄21號","121.504908333333","24.9889966666667","6500300","中和區"
"235018","640-BX","2018/08/21 13:29:43","新北市中和區民享街93-2號","121.474715","25.0004716666667","6500300","中和區"
"235024","647-TV","2018/08/21 13:29:51","新北市中和區員山路295號","121.481265","25.0000066666667","6500300","中和區"
"235011","732-UM","2018/08/21 13:29:32","新北市中和區南山路523-1號","121.507953333333","24.987205","6500300","中和區"
"235035","783-BX","2018/08/21 13:29:49","新北市中和區中原街176號","121.484211666667","25.0129616666667","6500300","中和區"
"235026","800-TS","2018/08/21 13:29:36","新北市中和區景平路756號","121.496535","25.0046883333333","6500300","中和區"
"235021","801-TS","2018/08/21 13:29:51","新北市中和區民享街97巷19號","121.475346666667","24.999565","6500300","中和區"
"235005","802-TS","2018/08/21 13:29:37","新北市永和區中和路451號","121.509883333333","25.0013166666667","6500300","中和區"
"235016","805-TS","2018/08/21 13:29:34","新北市中和區興南路二段133號","121.505266666667","24.9842066666667","6500300","中和區"
"235012","896-TW","2018/08/21 13:29:49","新北市中和區中正路637巷52弄1號","121.485411666667","24.99346","6500300","中和區"
"235017","900-TW","2018/08/21 13:29:49","新北市土城區金城路三段259-1號","121.472","24.990075","6500300","中和區"
"235029","911-UM","2018/08/21 13:29:40","新北市中和區中山路二段64巷8號","121.50359","25.0051066666667","6500300","中和區"
"235015","157-BY","2018/08/21 13:29:47","新北市中和區興南路二段142巷24弄2號","121.50233","24.9847316666667","6500300","中和區"
"235001","AAC-213","2018/08/21 13:29:52","新北市中和區景德街86號","121.516298333333","24.9915166666667","6500300","中和區"
"235023","AAC-215","2018/08/21 13:29:42","新北市中和區員山路36巷16-3號","121.484926666667","24.9916416666667","6500300","中和區"
"220013","072-UY","2018/08/21 13:29:36","新北市板橋區南雅南路二段88號","121.453631666667","25.00152","6500100","板橋區"
"220034","073-UY","2018/08/21 13:29:41","新北市板橋區華東街1-10號","121.44827","24.9950616666667","6500100","板橋區"
"220017","AAD-861","2018/08/21 13:29:45","新北市板橋區華東街1-10號","121.448346666667","24.9951333333333","6500100","板橋區"
"247007","056-VK","2018/08/21 13:29:39","新北市五股區新五路二段258號","121.440946666667","25.0822033333333","6501400","蘆洲區"
"228004","212-TW","2018/08/21 13:29:37","新北市貢寮區龍崗里石壁坑街17號","121.91041","24.9895166666667","6502600","貢寮區"
"228005","828-UM","2018/08/21 13:29:34","新北市貢寮區美豐里文秀坑8號","121.902625","25.0504683333333","6502600","貢寮區"
"207002","749-BX","2018/08/21 13:29:40","新北市萬里區崁腳里崁腳路166號","121.645036666667","25.15577","6502800","萬里區"
"207001","662-BX","2018/08/21 13:28:23","新北市萬里區龜吼里石角路43號","121.68444","25.1924333333333","6502800","萬里區"
"252005","AAC-283","2018/08/21 13:29:34","新北市三芝區圓山里二坪頂46號","121.53986","25.228115","6502100","三芝區"
"236006","498-BY","2018/08/21 13:29:44","新北市土城區亞洲路11巷3弄11號","121.436185","24.9715183333333","6501300","土城區"
"221010","269-BY","2018/08/21 13:29:41","新北市汐止區長青路210巷1號","121.608551666667","25.1155533333333","6501100","汐止區"
"220028","200-UY","2018/08/21 13:29:36","新北市板橋區華東街1-9號","121.448178333333","24.9948833333333","6500100","板橋區"
"220030","610-BX","2018/08/21 13:29:42","新北市板橋區華東街1-10號","121.448273333333","24.9949416666667","6500100","板橋區"
"220043","285-UM","2018/08/21 13:29:40","新北市板橋區萬板路13號","121.470525","25.0209166666667","6500100","板橋區"
"220031","286-VK","2018/08/21 13:29:40","新北市板橋區華東街1-10號","121.448396666667","24.9951483333333","6500100","板橋區"
"220005","686-BX","2018/08/21 13:29:37","新北市板橋區華東街1-9號","121.448216666667","24.9949633333333","6500100","板橋區"
"220002","741-BX","2018/08/21 13:29:47","新北市板橋區華東街1-9號","121.448125","24.9949","6500100","板橋區"
"220022","895-R6","2018/08/21 13:29:35","新北市板橋區華東街1-10號","121.448251666667","24.9949833333333","6500100","板橋區"
"220021","985-R7","2018/08/21 13:29:48","新北市板橋區華東街1-10號","121.448328333333","24.9949816666667","6500100","板橋區"
"220018","AAC-253","2018/08/21 13:29:39","新北市板橋區華東街1-9號","121.448273333333","24.9948916666667","6500100","板橋區"
"235032","KEA-2873","2018/08/21 13:29:32","新北市中和區中正路273-5號","121.495638333333","24.993205","6500300","中和區"
"235025","KEA-2875","2018/08/21 13:29:28","新北市中和區莒光路131號","121.472535","25.0018366666667","6500300","中和區"
