"lineid","car","time","location","longitude","latitude","cityid","cityname"
"234070","149-BY","2018/08/21 13:39:37","新北市中和區永貞路262巷8號","121.513846666667","25.0040983333333","6500400","永和區"
"234005","207-UY","2018/08/21 13:39:35","新北市永和區中山路一段73號","121.512533333333","25.010665","6500400","永和區"
"234078","298-R6","2018/08/21 13:39:43","新北市永和區林森路20巷1號","121.526056666667","25.0053733333333","6500400","永和區"
"234036","336-UY","2018/08/21 13:39:46","新北市永和區民樂街41巷14號","121.52825","24.9999666666667","6500400","永和區"
"234062","337-UY","2018/08/21 13:39:42","新北市永和區秀朗路一段192巷6弄10號","121.519175","25.0023483333333","6500400","永和區"
"234084","338-UY","2018/08/21 13:39:43","新北市永和區永利路34-2號","121.518455","25.0054666666667","6500400","永和區"
"234068","552-UM","2018/08/21 13:39:46","新北市永和區永和路二段235號","121.515558333333","25.014375","6500400","永和區"
"234015","745-BX","2018/08/21 13:39:46","新北市永和區永和路二段301巷1號","121.51579","25.0164233333333","6500400","永和區"
"234028","746-BX","2018/08/21 13:39:41","新北市永和區民權路23號","121.520273333333","24.9978333333333","6500400","永和區"
"234052","KEA-2590","2018/08/21 13:39:42","新北市永和區竹林路39巷14號","121.51859","25.0145816666667","6500400","永和區"
"234012","KEA-2591","2018/08/21 13:39:51","新北市永和區永平路238巷12號","121.509455","25.0116183333333","6500400","永和區"
"234060","AAD-866","2018/08/21 13:39:37","新北市永和區中正路456號","121.517536666667","25.0029383333333","6500400","永和區"
"234040","862-TW","2018/08/21 13:39:43","新北市永和區永貞路261號","121.512055","25.00466","6500400","永和區"
"234048","863-TW","2018/08/21 13:39:48","新北市永和區保安路23號","121.510268333333","25.0167466666667","6500400","永和區"
"234025","9371-KE","2018/08/21 13:39:34","新北市永和區永和路一段63號","121.513086666667","25.00691","6500400","永和區"
"234010","9373-KE","2018/08/21 13:39:38","新北市永和區保福路二段9巷9號","121.510608333333","25.0109183333333","6500400","永和區"
"248017","225-UY","2018/08/21 13:39:34","新北市五股區民義路二段84號","121.405961666667","25.109005","6501500","五股區"
"234022","9380-KE","2018/08/21 13:39:40","新北市永和區中正路702巷20弄1號","121.51648","25.0106066666667","6500400","永和區"
"234076","969-R7","2018/08/21 13:39:47","新北市永和區民族街43巷14號","121.519196666667","24.998355","6500400","永和區"
"234072","AAC-211","2018/08/21 13:39:49","新北市永和區竹林路213巷26號","121.522261666667","25.0089483333333","6500400","永和區"
"234066","AAC-212","2018/08/21 13:39:54","新北市永和區中山路一段188號","121.50899","25.0088216666667","6500400","永和區"
"234001","AAC-295","2018/08/21 13:39:49","新北市永和區福和路346號","121.514946666667","25.007275","6500400","永和區"
"244002","248-BX","2018/08/21 13:39:46","新北市林口區頂福里5-1號","121.361673333333","25.08179","6501700","林口區"
"231002","002-UM","2018/08/21 13:39:49","新北市新店區溪園路403號","121.524016666667","24.9781533333333","6500600","新店區"
"231027","0291-UT","2018/08/21 13:39:37","新北市新店區北宜路一段170號","121.540633333333","24.9529983333333","6500600","新店區"
"231028","046-UY","2018/08/21 13:39:51","新北市新店區安和路一段39號","121.517223333333","24.9653016666667","6500600","新店區"
"231005","106-UY","2018/08/21 13:39:46","新北市新店區寶中路72號","121.547965","24.9806683333333","6500600","新店區"
"231010","107-UY","2018/08/21 13:39:36","新北市新店區中正路305號","121.536531666667","24.9745833333333","6500600","新店區"
"231020","108-UY","2018/08/21 13:39:45","新北市新店區永興路88-1號","121.544153333333","24.9336566666667","6500600","新店區"
"231012","187-VK","2018/08/21 13:39:52","新北市新店區德正街23巷2號","121.544151666667","24.97188","6500600","新店區"
"231023","KEA-2219","2018/08/21 13:39:34","新北市新店區新店路148號","121.537256666667","24.955435","6500600","新店區"
"231026","256-BX","2018/08/21 13:39:50","新北市新店區中正路163號","121.541125","24.97196","6500600","新店區"
"231003","268-BY","2018/08/21 13:39:51","新北市新店區中正路19號","121.545318333333","24.9694083333333","6500600","新店區"
"231018","278-BY","2018/08/21 13:39:52","新北市新店區百忍街43巷1弄7號","121.53331","24.97596","6500600","新店區"
"231015","AAD-862","2018/08/21 13:39:53","新北市新店區竹林路2巷27弄11號","121.551015","24.9508533333333","6500600","新店區"
"231001","355-BY","2018/08/21 13:39:33","新北市新店區中正路438號","121.534135","24.978275","6500600","新店區"
"231038","3712-VJ","2018/08/21 13:39:54","新北市新店區安華路28-1號","121.519193333333","24.960695","6500600","新店區"
"231037","4716-K9","2018/08/21 13:39:45","新北市新店區薏仁坑路51號","121.493981666667","24.964705","6500600","新店區"
"231025","4715-K9","2018/08/21 13:39:49","新北市新店區中央路63號","121.532586666667","24.97709","6500600","新店區"
"231036","512-UM","2018/08/21 13:39:52","新北市新店區安祥路142號","121.474235","24.95548","6500600","新店區"
"231013","513-UM","2018/08/21 13:39:55","新北市新店區二十張路143-2號","121.534996666667","24.9787883333333","6500600","新店區"
"231006","617-UM","2018/08/21 13:39:41","新北市新店區北宜路一段83號","121.538821666667","24.955875","6500600","新店區"
"231030","619-UM","2018/08/21 13:39:41","新北市新店區安康路一段228號","121.523205","24.96364","6500600","新店區"
"231034","641-BX","2018/08/21 13:39:43","新北市新店區車子路134號","121.504973333333","24.9486016666667","6500600","新店區"
"231035","719-UM","2018/08/21 13:39:46","新北市新店區安忠路59號","121.512198333333","24.9587","6500600","新店區"
"231032","720-UM","2018/08/21 13:39:43","新北市新店區安康路一段299-3號","121.52093","24.96388","6500600","新店區"
"231029","897-TW","2018/08/21 13:39:41","新北市新店區車子路1-1號","121.504541666667","24.9579416666667","6500600","新店區"
"231004","899-TW","2018/08/21 13:39:48","新北市新店區北新路二段7號","121.542698333333","24.9713333333333","6500600","新店區"
"231024","AKT-0513","2018/08/21 13:39:49","新北市新店區中華路47巷9號","121.539736666667","24.9672766666667","6500600","新店區"
"235030","003-UY","2018/08/21 13:39:43","新北市中和區光華街60號","121.50543","25.00358","6500300","中和區"
"235028","005-UY","2018/08/21 13:39:39","新北市中和區連城路103號","121.496335","24.9996583333333","6500300","中和區"
"235027","006-UY","2018/08/21 13:39:50","新北市中和區連城路389巷10弄4號","121.486241666667","24.99569","6500300","中和區"
"235020","096-UM","2018/08/21 13:39:33","新北市中和區員山路466巷21弄1號","121.480645","25.00704","6500300","中和區"
"235003","097-UM","2018/08/21 13:39:48","新北市中和區景平路240巷1弄6號","121.515108333333","24.99314","6500300","中和區"
"235004","150-BY","2018/08/21 13:39:42","新北市中和區安平路59號","121.509461666667","24.99514","6500300","中和區"
"235022","151-BY","2018/08/21 13:39:37","新北市中和區圓通路459號","121.484198333333","24.985795","6500300","中和區"
"235019","183-VK","2018/08/21 13:39:44","新北市中和區莒光路120巷19弄1-4號","121.471708333333","25.0007933333333","6500300","中和區"
"235002","185-VK","2018/08/21 13:39:36","新北市中和區大勇街45巷3號","121.517926666667","24.9947216666667","6500300","中和區"
"235013","186-VK","2018/08/21 13:39:44","新北市中和區明義街11巷12弄2號","121.503751666667","24.9947166666667","6500300","中和區"
"235031","255-BX","2018/08/21 13:39:40","新北市中和區新生街220巷1弄9號","121.483368333333","24.9981616666667","6500300","中和區"
"235008","293-VK","2018/08/21 13:39:51","新北市中和區復興路280巷6號","121.50231","24.9909316666667","6500300","中和區"
"235036","301-VK","2018/08/21 13:39:44","新北市中和區連城路171巷41弄1號","121.496296666667","24.9965383333333","6500300","中和區"
"235007","352-BY","2018/08/21 13:39:44","新北市中和區景平路183號","121.511711666667","24.9925683333333","6500300","中和區"
"235006","KEA-2878","2018/08/21 13:39:36","新北市中和區成功路97巷18弄13號","121.52699","24.9912816666667","6500300","中和區"
"235014","4979-A6","2018/08/21 13:39:42","新北市中和區景新街496巷28弄39號","121.51271","24.9858583333333","6500300","中和區"
"235033","4980-A6","2018/08/21 13:39:39","新北市中和區連城路87號","121.496908333333","25.0004033333333","6500300","中和區"
"235034","558-UM","2018/08/21 13:39:51","新北市中和區圓通路40號","121.50088","24.9977983333333","6500300","中和區"
"235009","565-BX","2018/08/21 13:39:49","新北市中和區南山路236巷24弄33號","121.505073333333","24.9883833333333","6500300","中和區"
"235018","640-BX","2018/08/21 13:39:45","新北市中和區莒光路127號","121.472563333333","25.0020033333333","6500300","中和區"
"235024","647-TV","2018/08/21 13:39:51","新北市中和區中山路二段509號","121.482193333333","25.0049516666667","6500300","中和區"
"235011","732-UM","2018/08/21 13:39:51","新北市中和區興南路二段37號","121.50768","24.9856816666667","6500300","中和區"
"235035","783-BX","2018/08/21 13:39:49","新北市中和區立德街98巷65號","121.487616666667","25.009575","6500300","中和區"
"235026","800-TS","2018/08/21 13:39:36","新北市中和區中山路二段312巷23號","121.49578","25.0033933333333","6500300","中和區"
"235021","801-TS","2018/08/21 13:39:51","新北市中和區民安街42巷24號","121.479413333333","25.0008","6500300","中和區"
"235005","802-TS","2018/08/21 13:39:37","新北市中和區中安街78號","121.512036666667","25.0020266666667","6500300","中和區"
"235016","805-TS","2018/08/21 13:39:54","新北市中和區興南路三段52巷2-5號","121.494341666667","24.9758216666667","6500300","中和區"
"235012","896-TW","2018/08/21 13:39:49","新北市中和區中正路79號","121.500811666667","24.99341","6500300","中和區"
"235017","900-TW","2018/08/21 13:39:49","新北市中和區民享街484號","121.46944","24.992365","6500300","中和區"
"235029","911-UM","2018/08/21 13:39:40","新北市中和區中山路二段2巷81弄8號","121.500726666667","25.0072783333333","6500300","中和區"
"235015","157-BY","2018/08/21 13:39:47","新北市中和區華新街143巷106弄11號","121.506283333333","24.978805","6500300","中和區"
"235001","AAC-213","2018/08/21 13:39:52","新北市中和區景德街52號","121.51759","24.9915233333333","6500300","中和區"
"235023","AAC-215","2018/08/21 13:39:42","新北市中和區錦和路350-1號","121.49057","24.9935516666667","6500300","中和區"
"220013","072-UY","2018/08/21 13:39:36","新北市板橋區漢生東路262號","121.468236666667","25.0135383333333","6500100","板橋區"
"220034","073-UY","2018/08/21 13:39:41","新北市板橋區南雅西路一段53巷10號","121.45272","25.00495","6500100","板橋區"
"220017","AAD-861","2018/08/21 13:39:45","新北市板橋區華東街1-10號","121.44833","24.9951583333333","6500100","板橋區"
"247007","056-VK","2018/08/21 13:39:40","新北市五股區中興路一段118巷6弄36號","121.466395","25.0754716666667","6501400","蘆洲區"
"247019","001-UY","2018/08/21 13:39:45","新北市五股區成洲一路25號","121.449893333333","25.0953583333333","6501400","蘆洲區"
"228004","212-TW","2018/08/21 13:39:37","新北市貢寮區龍崗里嵩陽街41-2號","121.907303333333","25.0077566666667","6502600","貢寮區"
"228005","828-UM","2018/08/21 13:39:54","新北市貢寮區美豐里文秀坑1-3號","121.904835","25.053895","6502600","貢寮區"
"207002","749-BX","2018/08/21 13:39:40","新北市萬里區崁腳里崁腳路166號","121.64505","25.1557833333333","6502800","萬里區"
"207001","662-BX","2018/08/21 13:39:43","新北市萬里區大鵬里萬里加投46-1號","121.641926666667","25.2109966666667","6502800","萬里區"
"252005","AAC-283","2018/08/21 13:39:34","新北市三芝區圓山里二坪頂79號","121.540171666667","25.244855","6502100","三芝區"
"236040","107-UM","2018/08/21 13:39:53","新北市土城區城林路6巷80號","121.438555","24.9797316666667","6501300","土城區"
"236032","271-VK","2018/08/21 13:39:49","新北市土城區城林路6巷80號","121.438556666667","24.9797616666667","6501300","土城區"
"236017","401-BY","2018/08/21 13:39:49","新北市土城區城林路6巷80號","121.438491666667","24.979845","6501300","土城區"
"236006","498-BY","2018/08/21 13:39:44","新北市土城區慶祥街80號","121.436151666667","24.9735216666667","6501300","土城區"
"236045","913-UM","2018/08/21 13:39:43","新北市土城區城林路6巷80號","121.438516666667","24.9797833333333","6501300","土城區"
"236054","AAC-216","2018/08/21 13:39:37","新北市土城區城林路6巷80號","121.438756666667","24.97965","6501300","土城區"
"221010","269-BY","2018/08/21 13:39:41","新北市汐止區長青路210巷190號","121.616073333333","25.113015","6501100","汐止區"
"220027","145-BY","2018/08/21 13:39:36","新北市板橋區大觀路一段79號","121.44706","25.0042016666667","6500100","板橋區"
"220028","200-UY","2018/08/21 13:39:36","新北市板橋區大觀路二段265巷76弄31號","121.441378333333","24.9967116666667","6500100","板橋區"
"220030","610-BX","2018/08/21 13:39:42","新北市板橋區篤行路一段33號","121.432065","24.9943616666667","6500100","板橋區"
"220004","276-BY","2018/08/21 13:39:50","新北市板橋區四川路二段247號","121.450223333333","24.99307","6500100","板橋區"
"220020","277-BY","2018/08/21 13:39:46","新北市板橋區大觀路三段59巷17弄6-1號","121.437268333333","24.9954016666667","6500100","板橋區"
"220019","283-VK","2018/08/21 13:39:40","新北市板橋區四川路二段140巷2號","121.449898333333","24.9930416666667","6500100","板橋區"
"220043","285-UM","2018/08/21 13:39:40","新北市板橋區民生路二段188號","121.470176666667","25.020635","6500100","板橋區"
"220031","286-VK","2018/08/21 13:39:40","新北市板橋區大觀路二段109巷1號","121.447288333333","25.0011116666667","6500100","板橋區"
"220029","287-VK","2018/08/21 13:39:41","新北市板橋區大觀路二段101巷23號","121.44704","25.0013533333333","6500100","板橋區"
"220023","303-R5","2018/08/21 13:39:35","新北市板橋區南雅南路二段120-2號","121.452353333333","24.9999816666667","6500100","板橋區"
"220010","305-R5","2018/08/21 13:39:48","新北市板橋區民生路二段120號","121.470456666667","25.0195933333333","6500100","板橋區"
"220104","560-BX","2018/08/21 13:39:35","新北市板橋區南雅南路二段1-1號","121.454698333333","25.0038483333333","6500100","板橋區"
"220005","686-BX","2018/08/21 13:39:37","新北市板橋區華東街1-9號","121.44817","24.9948983333333","6500100","板橋區"
"220025","687-BX","2018/08/21 13:39:40","新北市板橋區大觀路三段212巷72號","121.429665","24.9933416666667","6500100","板橋區"
"220002","741-BX","2018/08/21 13:39:47","新北市板橋區華東街1-9號","121.448123333333","24.9949233333333","6500100","板橋區"
"220003","827-TW","2018/08/21 13:39:40","新北市板橋區板城路421號","121.448","24.9955783333333","6500100","板橋區"
"220014","829-TW","2018/08/21 13:39:34","新北市板橋區民生路二段161巷9號","121.470265","25.0196566666667","6500100","板橋區"
"220022","895-R6","2018/08/21 13:39:35","新北市板橋區南雅南路一段8號","121.455836666667","25.0062366666667","6500100","板橋區"
"220021","985-R7","2018/08/21 13:39:48","新北市板橋區南雅南路二段118號","121.452396666667","25.0001416666667","6500100","板橋區"
"220018","AAC-253","2018/08/21 13:39:39","新北市板橋區板城路407號","121.447646666667","24.9953633333333","6500100","板橋區"
"235032","KEA-2873","2018/08/21 13:39:48","新北市中和區圓通路265巷60號","121.496321666667","24.9924183333333","6500300","中和區"
"235025","KEA-2875","2018/08/21 13:39:43","新北市中和區民享街88巷3號","121.474383333333","25.0005366666667","6500300","中和區"
