"lineid","car","time","location","longitude","latitude","cityid","cityname"
"234070","149-BY","2018/08/21 14:29:37","新北市永和區永元路95號","121.522283333333","25.00181","6500400","永和區"
"234078","298-R6","2018/08/21 14:29:43","新北市永和區福和路85號","121.522201666667","25.007855","6500400","永和區"
"234062","337-UY","2018/08/21 14:29:42","新北市永和區中正路419號","121.517101666667","25.0050116666667","6500400","永和區"
"234084","338-UY","2018/08/21 14:29:43","新北市永和區光復街21號","121.51652","25.01748","6500400","永和區"
"234068","552-UM","2018/08/21 14:29:46","新北市永和區永利路13號","121.51768","25.0059733333333","6500400","永和區"
"234028","746-BX","2018/08/21 14:29:41","新北市永和區民權路51號","121.520041666667","24.9970533333333","6500400","永和區"
"234052","KEA-2590","2018/08/21 14:29:42","新北市永和區環河東路一段82號","121.51962","25.0164666666667","6500400","永和區"
"234060","AAD-866","2018/08/21 14:29:37","新北市永和區秀朗路一段175號","121.516976666667","25.0036416666667","6500400","永和區"
"234040","862-TW","2018/08/21 14:29:43","新北市永和區安樂路324號","121.514445","25.00571","6500400","永和區"
"234048","863-TW","2018/08/21 14:29:48","新北市永和區保安路138號","121.508678333333","25.0151","6500400","永和區"
"234025","9371-KE","2018/08/21 14:29:43","新北市中和區安樂路255號","121.514118333333","24.9998833333333","6500400","永和區"
"248017","225-UY","2018/08/21 14:26:34","新北市五股區壟路16號","121.415421666667","25.0855933333333","6501500","五股區"
"234072","AAC-211","2018/08/21 14:29:49","新北市永和區環河東路一段124號","121.520686666667","25.0154083333333","6500400","永和區"
"234001","AAC-295","2018/08/21 14:29:49","新北市永和區大新街52巷1弄1號","121.516136666667","25.0082266666667","6500400","永和區"
"244002","248-BX","2018/08/21 14:29:46","新北市林口區南勢里31號","121.352141666667","25.0703833333333","6501700","林口區"
"231002","002-UM","2018/08/21 14:29:49","新北市新店區中正路438號","121.5342","24.9783516666667","6500600","新店區"
"231027","0291-UT","2018/08/21 14:29:37","新北市新店區寶橋路85巷50號","121.5455","24.97629","6500600","新店區"
"231028","046-UY","2018/08/21 14:29:35","新北市新店區安康路二段46號","121.515411666667","24.96371","6500600","新店區"
"231005","106-UY","2018/08/21 14:29:45","新北市新店區北新路三段101號","121.541431666667","24.9820266666667","6500600","新店區"
"231020","108-UY","2018/08/21 14:29:45","新北市新店區新烏路三段69號","121.554948333333","24.9036583333333","6500600","新店區"
"231012","187-VK","2018/08/21 14:29:52","新北市新店區寶興路49-1號","121.549485","24.972955","6500600","新店區"
"231023","KEA-2219","2018/08/21 14:29:54","新北市新店區光明街170號","121.539523333333","24.9619533333333","6500600","新店區"
"231003","268-BY","2018/08/21 14:29:51","新北市新店區中興路一段266號","121.544811666667","24.96734","6500600","新店區"
"231018","278-BY","2018/08/21 14:29:32","新北市新店區中央路216號","121.529936666667","24.9732916666667","6500600","新店區"
"231015","AAD-862","2018/08/21 14:29:53","新北市新店區北宜路三段86號","121.577745","24.95143","6500600","新店區"
"231001","355-BY","2018/08/21 14:29:53","新北市新店區北新路一段96巷23號","121.543066666667","24.9687766666667","6500600","新店區"
"231038","3712-VJ","2018/08/21 14:29:54","新北市新店區溪洲路85號","121.533196666667","24.9609883333333","6500600","新店區"
"231037","4716-K9","2018/08/21 14:29:45","新北市新店區安康路二段320巷1號","121.504648333333","24.9584166666667","6500600","新店區"
"231025","4715-K9","2018/08/21 14:29:49","新北市新店區民族路161號","121.537656666667","24.9767216666667","6500600","新店區"
"231036","512-UM","2018/08/21 14:29:52","新北市新店區安祥路109巷151弄8號","121.478366666667","24.9588116666667","6500600","新店區"
"231013","513-UM","2018/08/21 14:29:37","新北市新店區民權路88-5號","121.53637","24.9836516666667","6500600","新店區"
"231006","617-UM","2018/08/21 14:29:53","新北市新店區北宜路二段427號","121.560581666667","24.954365","6500600","新店區"
"231030","619-UM","2018/08/21 14:29:41","新北市新店區安民街67-3號","121.51618","24.9667033333333","6500600","新店區"
"231034","641-BX","2018/08/21 14:29:43","新北市新店區車子路11號","121.503046666667","24.9518816666667","6500600","新店區"
"231035","719-UM","2018/08/21 14:29:46","新北市新店區安和路二段68號","121.518336666667","24.96847","6500600","新店區"
"231032","720-UM","2018/08/21 14:29:43","新北市新店區溪洲路202-6號","121.52887","24.9682316666667","6500600","新店區"
"231029","897-TW","2018/08/21 14:29:41","新北市新店區安康路三段29號","121.493095","24.9530583333333","6500600","新店區"
"231004","899-TW","2018/08/21 14:29:48","新北市新店區中正路263-3號","121.538343333333","24.9737216666667","6500600","新店區"
"231024","AKT-0513","2018/08/21 14:29:39","新北市新店區力行路90號","121.538486666667","24.9664666666667","6500600","新店區"
"235030","003-UY","2018/08/21 14:29:43","新北市中和區景新街48號","121.503818333333","24.999195","6500300","中和區"
"235028","005-UY","2018/08/21 14:29:39","新北市中和區南山路62號","121.50213","24.996645","6500300","中和區"
"235027","006-UY","2018/08/21 14:29:50","新北市中和區連勝街72號","121.495778333333","24.9964283333333","6500300","中和區"
"235020","096-UM","2018/08/21 14:29:53","新北市中和區員山路514巷1號","121.47929","25.0095066666667","6500300","中和區"
"235003","097-UM","2018/08/21 14:29:48","新北市中和區秀峰街119巷6弄24號","121.518605","24.9902516666667","6500300","中和區"
"235004","150-BY","2018/08/21 14:29:42","新北市中和區安樂路71號","121.5125","24.9939733333333","6500300","中和區"
"235022","151-BY","2018/08/21 14:29:37","新北市中和區連城路376號","121.481401666667","24.9952566666667","6500300","中和區"
"235019","183-VK","2018/08/21 14:29:44","新北市中和區德光路23號","121.47075","25.0042966666667","6500300","中和區"
"235002","185-VK","2018/08/21 14:29:36","新北市中和區自立路107號","121.521926666667","24.99468","6500300","中和區"
"235013","186-VK","2018/08/21 14:29:55","新北市中和區安和路15號","121.51136","24.9938466666667","6500300","中和區"
"235031","255-BX","2018/08/21 14:29:40","新北市中和區新生街220巷9號","121.483101666667","24.9984783333333","6500300","中和區"
"235008","293-VK","2018/08/21 14:29:52","新北市中和區捷運路185號","121.505433333333","24.991435","6500300","中和區"
"235036","301-VK","2018/08/21 14:29:44","新北市中和區保平路340巷18號","121.506033333333","25.0045466666667","6500300","中和區"
"235007","352-BY","2018/08/21 14:29:44","新北市中和區景平路388號","121.510608333333","24.99299","6500300","中和區"
"235006","KEA-2878","2018/08/21 14:29:46","新北市中和區中和路262巷43弄2號","121.509893333333","24.9997483333333","6500300","中和區"
"247009","KEA-2869","2018/08/21 14:29:39","新北市蘆洲區鷺江街102號","121.476881666667","25.0839666666667","6501400","蘆洲區"
"235014","4979-A6","2018/08/21 14:29:42","新北市中和區中正路446號","121.491008333333","24.994145","6500300","中和區"
"235033","4980-A6","2018/08/21 14:29:39","新北市中和區連城路134巷18號","121.495253333333","25.0000666666667","6500300","中和區"
"235034","558-UM","2018/08/21 14:29:51","新北市中和區景平路632-8號","121.49991","24.9984516666667","6500300","中和區"
"235009","565-BX","2018/08/21 14:29:49","新北市中和區景新街483號","121.513585","24.98748","6500300","中和區"
"235018","640-BX","2018/08/21 14:29:43","新北市中和區國光街112巷22弄15號","121.470173333333","25.0023933333333","6500300","中和區"
"235024","647-TV","2018/08/21 14:29:51","新北市中和區員山路266巷35號","121.482746666667","25.0018633333333","6500300","中和區"
"235011","732-UM","2018/08/21 14:29:51","新北市中和區景平路329巷2弄1號","121.5057","24.9929033333333","6500300","中和區"
"235010","733-UM","2018/08/21 14:29:48","新北市中和區忠孝街37巷52號","121.511156666667","24.9849266666667","6500300","中和區"
"235035","783-BX","2018/08/21 14:29:49","新北市中和區連城路469巷28號","121.483503333333","24.9949366666667","6500300","中和區"
"235026","800-TS","2018/08/21 14:29:36","新北市中和區中山路二段383號","121.4871","25.0047833333333","6500300","中和區"
"235021","801-TS","2018/08/21 14:29:51","新北市中和區中山路三段37巷35號","121.479595","25.0047216666667","6500300","中和區"
"235005","802-TS","2018/08/21 14:29:37","新北市中和區景安路61號","121.507061666667","24.9979866666667","6500300","中和區"
"235016","805-TS","2018/08/21 14:29:53","新北市中和區華新街143巷72號","121.506356666667","24.9791566666667","6500300","中和區"
"235012","896-TW","2018/08/21 14:29:49","新北市中和區忠孝街39-2號","121.51163","24.9838166666667","6500300","中和區"
"235017","900-TW","2018/08/21 14:29:49","新北市中和區民德路197-2號","121.468923333333","24.9985833333333","6500300","中和區"
"235029","911-UM","2018/08/21 14:29:40","新北市中和區莊敬路9號","121.499811666667","25.0045133333333","6500300","中和區"
"235015","157-BY","2018/08/21 14:29:47","新北市中和區中興街132巷14號","121.499021666667","24.992065","6500300","中和區"
"235001","AAC-213","2018/08/21 14:29:52","新北市中和區秀朗路三段10巷12弄2號","121.52549","24.99658","6500300","中和區"
"235023","AAC-215","2018/08/21 14:29:42","新北市中和區錦和路203巷5號","121.49117","24.99042","6500300","中和區"
"220013","072-UY","2018/08/21 14:29:56","新北市板橋區國泰街111巷15號","121.466143333333","25.0059716666667","6500100","板橋區"
"220034","073-UY","2018/08/21 14:29:41","新北市板橋區國光路171號","121.460468333333","25.018525","6500100","板橋區"
"220105","075-UY","2018/08/21 14:29:39","新北市板橋區雙十路三段58號","121.470923333333","25.031575","6500100","板橋區"
"220017","AAD-861","2018/08/21 14:29:45","新北市板橋區貴興路35號","121.45768","25.0038933333333","6500100","板橋區"
"247023","893-R6","2018/08/21 14:29:40","新北市蘆洲區中正路261號","121.467403333333","25.0873766666667","6501400","蘆洲區"
"247013","546-UM","2018/08/21 14:29:53","新北市蘆洲區中山二路223號","121.470331666667","25.0802633333333","6501400","蘆洲區"
"247021","500-BY","2018/08/21 14:29:38","新北市蘆洲區中正路505號","121.461688333333","25.0970216666667","6501400","蘆洲區"
"247011","339-TH","2018/08/21 14:29:47","新北市蘆洲區中興街132號","121.482203333333","25.0895566666667","6501400","蘆洲區"
"247003","337-TH","2018/08/21 14:29:49","新北市蘆洲區長榮路269巷32號","121.459503333333","25.0858266666667","6501400","蘆洲區"
"247005","336-TH","2018/08/21 14:29:44","新北市蘆洲區長安街55號","121.463126666667","25.0797133333333","6501400","蘆洲區"
"247017","057-VK","2018/08/21 14:29:49","新北市蘆洲區復興路227巷37號","121.478751666667","25.0916033333333","6501400","蘆洲區"
"247007","056-VK","2018/08/21 14:29:39","新北市蘆洲區民生街95號","121.473763333333","25.07871","6501400","蘆洲區"
"247015","007-UY","2018/08/21 14:29:47","新北市蘆洲區中正路185巷78弄1號","121.466146666667","25.0843266666667","6501400","蘆洲區"
"247001","002-UY","2018/08/21 14:29:45","新北市蘆洲區永樂街38巷33弄46號","121.45681","25.0897983333333","6501400","蘆洲區"
"247019","001-UY","2018/08/21 14:29:45","新北市蘆洲區仁愛街101巷16號","121.470463333333","25.0941033333333","6501400","蘆洲區"
"228004","212-TW","2018/08/21 14:29:37","新北市貢寮區雙玉里田寮洋街33-1號","121.93222","25.014395","6502600","貢寮區"
"228005","828-UM","2018/08/21 14:29:54","新北市貢寮區美豐里巫里岸9-1號","121.901958333333","25.0700716666667","6502600","貢寮區"
"207002","749-BX","2018/08/21 14:24:09","新北市萬里區溪底里富士坪路6號","121.622883333333","25.1551566666667","6502800","萬里區"
"207001","662-BX","2018/08/21 14:29:43","新北市萬里區磺潭里清水15號","121.637781666667","25.19816","6502800","萬里區"
"252005","AAC-283","2018/08/21 14:29:55","新北市三芝區茂長里陳厝坑12號","121.51504","25.2553816666667","6502100","三芝區"
"236065","105-UM","2018/08/21 14:29:38","新北市土城區永豐路358-2號","121.474236666667","24.97495","6501300","土城區"
"236040","107-UM","2018/08/21 14:29:53","新北市土城區學成路89號","121.450955","24.9882833333333","6501300","土城區"
"236074","166-UM","2018/08/21 14:29:48","新北市土城區中央路三段282號","121.426443333333","24.9634616666667","6501300","土城區"
"236029","253-BX","2018/08/21 14:29:37","新北市土城區水源街63號","121.440088333333","24.9761733333333","6501300","土城區"
"236024","269-VK","2018/08/21 14:29:44","新北市土城區承天路65號","121.43969","24.9637883333333","6501300","土城區"
"236013","270-VK","2018/08/21 14:29:34","新北市土城區青雲路39巷7號","121.460433333333","24.9875316666667","6501300","土城區"
"236032","271-VK","2018/08/21 14:29:49","新北市土城區明德路一段311號","121.459528333333","24.9771716666667","6501300","土城區"
"236017","401-BY","2018/08/21 14:29:49","新北市土城區永豐路202巷14號","121.46614","24.9835616666667","6501300","土城區"
"236006","498-BY","2018/08/21 14:29:44","新北市土城區中華路一段108號","121.44424","24.98687","6501300","土城區"
"236057","912-UM","2018/08/21 14:29:45","新北市土城區中央路四段127號","121.416163333333","24.957575","6501300","土城區"
"236045","913-UM","2018/08/21 14:29:43","新北市土城區明德路一段182號","121.46231","24.9780666666667","6501300","土城區"
"236060","915-UM","2018/08/21 14:29:42","新北市中和區莒光路222-8號","121.469035","24.9947733333333","6501300","土城區"
"236054","AAC-216","2018/08/21 14:29:37","新北市土城區中華路二段1號","121.439656666667","24.97903","6501300","土城區"
"242048","172-VK","2018/08/21 14:29:42","新北市新莊區新樹路29號","121.440408333333","25.0323616666667","6500500","新莊區"
"221010","269-BY","2018/08/21 14:29:41","新北市汐止區八連路一段217號","121.640558333333","25.081925","6501100","汐止區"
"221025","623-UM","2018/08/21 14:29:41","新北市八里區荖阡坑路15-66號","121.398676666667","25.1395633333333","6501100","汐止區"
"220027","145-BY","2018/08/21 14:29:36","新北市板橋區民權路314號","121.45719","25.0164216666667","6500100","板橋區"
"220028","200-UY","2018/08/21 14:29:36","新北市板橋區大觀路二段153巷46弄10號","121.449035","24.9996933333333","6500100","板橋區"
"220030","610-BX","2018/08/21 14:29:42","新北市板橋區金門街125-3號","121.432973333333","24.9915216666667","6500100","板橋區"
"220050","245-BX","2018/08/21 14:29:51","新北市板橋區莊敬路208巷2弄1號","121.471731666667","25.0211133333333","6500100","板橋區"
"220004","276-BY","2018/08/21 14:29:50","新北市板橋區國慶路49巷23號","121.459656666667","24.9964116666667","6500100","板橋區"
"220020","277-BY","2018/08/21 14:29:46","新北市板橋區金門街215巷2弄28號","121.432415","24.9888183333333","6500100","板橋區"
"220011","280-UM","2018/08/21 14:29:51","新北市板橋區三民路二段28號","121.479193333333","25.01811","6500100","板橋區"
"220019","283-VK","2018/08/21 14:29:40","新北市板橋區信義路127號","121.457761666667","24.993295","6500100","板橋區"
"220043","285-UM","2018/08/21 14:29:40","新北市板橋區雙十路三段15號","121.470931666667","25.0309816666667","6500100","板橋區"
"220001","285-VK","2018/08/21 14:29:46","新北市板橋區富山街85巷6弄2號","121.476586666667","25.0211983333333","6500100","板橋區"
"220031","286-VK","2018/08/21 14:29:40","新北市板橋區龍興街65巷23號","121.442926666667","25.0016533333333","6500100","板橋區"
"220029","287-VK","2018/08/21 14:29:52","新北市板橋區大觀路一段29巷10弄33號","121.449435","25.005545","6500100","板橋區"
"220039","288-VK","2018/08/21 14:29:42","新北市板橋區長江路一段106巷13弄21號","121.460841666667","25.0296066666667","6500100","板橋區"
"220009","295-UM","2018/08/21 14:29:48","新北市板橋區中山路一段265巷36弄2號","121.46911","25.015","6500100","板橋區"
"220041","299-UM","2018/08/21 14:29:46","新北市板橋區文化路一段360號","121.468351666667","25.0235383333333","6500100","板橋區"
"220023","303-R5","2018/08/21 14:29:56","新北市板橋區中正路275巷46號","121.453841666667","25.0183033333333","6500100","板橋區"
"220010","305-R5","2018/08/21 14:29:48","新北市板橋區三民路二段95巷21號","121.480545","25.0163416666667","6500100","板橋區"
"220047","317-R6","2018/08/21 14:29:42","新北市板橋區四維路306號","121.462543333333","25.02969","6500100","板橋區"
"220012","486-VK","2018/08/21 14:29:51","新北市板橋區中山路一段56號","121.461301666667","25.0096333333333","6500100","板橋區"
"220037","491-VK","2018/08/21 14:29:53","新北市板橋區雙十路二段143號","121.474838333333","25.0281233333333","6500100","板橋區"
"220104","560-BX","2018/08/21 14:29:46","新北市板橋區中正路415號","121.454238333333","25.0228366666667","6500100","板橋區"
"220052","561-BX","2018/08/21 14:29:44","新北市板橋區文化路一段280-3號","121.46733","25.021475","6500100","板橋區"
"220040","637-BX","2018/08/21 14:29:39","新北市板橋區文聖街149巷41號","121.480111666667","25.0290083333333","6500100","板橋區"
"220005","686-BX","2018/08/21 14:29:37","新北市板橋區和平路61號","121.461123333333","24.9946","6500100","板橋區"
"220025","687-BX","2018/08/21 14:29:44","新北市板橋區僑中二街10巷1號","121.446981666667","25.0108416666667","6500100","板橋區"
"220042","689-BX","2018/08/21 14:29:46","新北市板橋區雨農路30號","121.46144","25.0244083333333","6500100","板橋區"
"220002","741-BX","2018/08/21 14:29:47","新北市板橋區忠孝路279號","121.467466666667","25.0030616666667","6500100","板橋區"
"220051","KEA-2699","2018/08/21 14:29:36","新北市板橋區松柏街22巷45號","121.475118333333","25.02873","6500100","板橋區"
"220003","827-TW","2018/08/21 14:29:40","新北市板橋區重慶路290巷16號","121.462565","24.99891","6500100","板橋區"
"220014","829-TW","2018/08/21 14:29:39","新北市板橋區長安街138巷1弄2號","121.472805","25.00961","6500100","板橋區"
"220016","830-TW","2018/08/21 14:29:40","新北市板橋區中山路二段505巷7號","121.482403333333","25.02133","6500100","板橋區"
"220045","831-TW","2018/08/21 14:29:34","新北市板橋區民生路二段226巷13號","121.470385","25.0218516666667","6500100","板橋區"
"220038","833-TW","2018/08/21 14:29:40","新北市板橋區光正街45巷28號","121.461423333333","25.0163","6500100","板橋區"
"220022","895-R6","2018/08/21 14:29:35","新北市板橋區府中路44號","121.457223333333","25.009565","6500100","板橋區"
"220021","985-R7","2018/08/21 14:29:52","新北市板橋區瑞安街59號","121.455485","25.02181","6500100","板橋區"
"220046","AAC-210","2018/08/21 14:29:52","新北市板橋區漢生西路131號","121.462753333333","25.0214316666667","6500100","板橋區"
"220018","AAC-253","2018/08/21 14:29:39","新北市板橋區民族路180號","121.467753333333","25.007765","6500100","板橋區"
"235032","KEA-2873","2018/08/21 14:29:32","新北市中和區福美路262號","121.49815","25.0051283333333","6500300","中和區"
"235025","KEA-2875","2018/08/21 14:29:28","新北市中和區員山路206號","121.481326666667","25.0006916666667","6500300","中和區"
