"lineid","car","time","location","longitude","latitude","cityid","cityname"
"234070","149-BY","2018/08/21 16:19:57","新北市永和區福和路1號","121.526465","25.010005","6500400","永和區"
"231046","107-UY","2018/08/21 16:19:55","新北市新店區灣潭路3-3號","121.538245","24.95081","6500600","新店區"
"231018","278-BY","2018/08/21 16:19:52","新北市新店區中正路700巷79號","121.536068333333","24.9933533333333","6500600","新店區"
"241011","013-R5","2018/08/21 16:19:42","新北市三重區龍濱路281-2號","121.501225","25.0733666666667","6500200","三重區"
"241028","022-UY","2018/08/21 16:19:43","新北市三重區正義南路181巷1號","121.499091666667","25.05721","6500200","三重區"
"241008","059-VK","2018/08/21 16:19:43","新北市三重區力行路二段136巷45弄10號","121.479035","25.07529","6500200","三重區"
"241022","060-VK","2018/08/21 16:19:54","新北市三重區新北大道一段7號","121.489705","25.06149","6500200","三重區"
"241031","061-VK","2018/08/21 16:19:39","新北市三重區捷運路36號","121.482893333333","25.055145","6500200","三重區"
"241015","062-VK","2018/08/21 16:19:39","新北市三重區福德北路89號","121.502","25.06614","6500200","三重區"
"241017","063-VK","2018/08/21 16:19:38","新北市三重區大同北路83號","121.494905","25.06361","6500200","三重區"
"241024","065-VK","2018/08/21 16:19:47","新北市三重區中正北路145巷3弄1號","121.483328333333","25.067635","6500200","三重區"
"241026","066-VK","2018/08/21 16:19:46","新北市三重區正義南路38號","121.498181666667","25.0608966666667","6500200","三重區"
"241002","090-VK","2018/08/21 16:19:57","新北市三重區仁義街91號","121.499901666667","25.079475","6500200","三重區"
"241003","091-VK","2018/08/21 16:19:37","新北市三重區仁義街220巷32-1號","121.49415","25.0833683333333","6500200","三重區"
"241016","266-UM","2018/08/21 16:19:53","新北市三重區大仁街86號","121.49286","25.065435","6500200","三重區"
"241009","267-UM","2018/08/21 16:19:53","新北市三重區溪尾街196巷7號","121.487898333333","25.080895","6500200","三重區"
"241018","268-UM","2018/08/21 16:19:40","新北市三重區重陽路三段142號","121.489288333333","25.0670533333333","6500200","三重區"
"241013","270-UM","2018/08/21 16:19:44","新北市三重區仁愛街65號","121.49635","25.0726866666667","6500200","三重區"
"241025","271-UM","2018/08/21 16:19:56","新北市三重區中正北路560巷100弄2號","121.472631666667","25.0682466666667","6500200","三重區"
"241007","398-BY","2018/08/21 16:19:38","新北市三重區三和路四段163巷64號","121.486581666667","25.0796166666667","6500200","三重區"
"241006","413-TH","2018/08/21 16:19:40","新北市三重區永福街46巷31弄12號","121.481821666667","25.0774683333333","6500200","三重區"
"241004","475-VK","2018/08/21 16:19:38","新北市三重區自強路五段69號","121.494933333333","25.0820066666667","6500200","三重區"
"241020","478-VK","2018/08/21 16:19:56","新北市三重區車路頭街4巷14號","121.4834","25.0699483333333","6500200","三重區"
"241014","543-UM","2018/08/21 16:19:49","新北市三重區河邊北街96-1號","121.504108333333","25.0699566666667","6500200","三重區"
"241023","545-UM","2018/08/21 16:19:39","新北市三重區忠孝路二段138號","121.482463333333","25.0683066666667","6500200","三重區"
"241001","547-UM","2018/08/21 16:19:56","新北市三重區自強路四段100號","121.491291666667","25.0797266666667","6500200","三重區"
"241019","KEA-2593","2018/08/21 16:19:37","新北市三重區重陽路三段95號","121.49028","25.0678883333333","6500200","三重區"
"241005","887-TS","2018/08/21 16:19:48","新北市三重區溪尾街300-2號","121.487396666667","25.083705","6500200","三重區"
"241012","941-UM","2018/08/21 16:19:47","新北市三重區河邊北街313號","121.502416666667","25.074875","6500200","三重區"
"241029","942-UM","2018/08/21 16:19:50","新北市三重區環河南路220-8號","121.49337","25.052695","6500200","三重區"
"241033","AAC-255","2018/08/21 16:19:44","新北市三重區重新路五段328號","121.477375","25.0480483333333","6500200","三重區"
"235026","800-TS","2018/08/21 16:19:56","新北市中和區永和路171巷3弄8號","121.492743333333","25.0065666666667","6500300","中和區"
"235065","911-UM","2018/08/21 16:19:40","新北市中和區員山路36巷16-3號","121.485083333333","24.9912183333333","6500300","中和區"
"224007","275-VK","2018/08/21 16:19:47","新北市瑞芳區大埔路276號","121.759873333333","25.1025716666667","6501200","瑞芳區"
"224005","271-BY","2018/08/21 16:19:42","新北市瑞芳區三爪子坑路32巷124號","121.80932","25.106535","6501200","瑞芳區"
"227003","642-TC","2018/08/21 16:19:40","新北市雙溪區上林里內平林80號","121.828291666667","25.0279666666667","6502500","雙溪區"
"227009","400-TW","2018/08/21 16:19:47","新北市雙溪區三港里雙澳路80號","121.883831666667","25.0539133333333","6502500","雙溪區"
"251014","180-VK","2018/08/21 16:19:50","新北市淡水區新市二路三段16號","121.431958333333","25.193635","6501000","淡水區"
