"lineid","car","time","location","longitude","latitude","cityid","cityname"
"234046","148-BY","2018/08/21 19:49:20","新北市永和區永利路135號","121.523836666667","25.0033466666667","6500400","永和區"
"234007","207-UY","2018/08/21 19:49:26","新北市中和區南工路2巷2號","121.505441666667","25.0001516666667","6500400","永和區"
"234081","298-R6","2018/08/21 19:49:16","新北市永和區林森路49號","121.524628333333","25.004345","6500400","永和區"
"234038","336-UY","2018/08/21 19:49:25","新北市永和區成功路二段121巷8號","121.527155","24.99834","6500400","永和區"
"234064","337-UY","2018/08/21 19:49:28","新北市永和區中正路368巷12號","121.51825","25.0008283333333","6500400","永和區"
"234086","338-UY","2018/08/21 19:49:28","新北市永和區福和路256號","121.518433333333","25.0075533333333","6500400","永和區"
"234070","552-UM","2018/08/21 19:49:13","新北市永和區竹林路86號","121.519315","25.0126033333333","6500400","永和區"
"234017","745-BX","2018/08/21 19:49:21","新北市永和區忠孝街26巷8號","121.515451666667","25.0166383333333","6500400","永和區"
"234030","746-BX","2018/08/21 19:49:28","新北市永和區民生路67巷44號","121.524998333333","24.9974033333333","6500400","永和區"
"234054","KEA-2590","2018/08/21 19:49:25","新北市永和區竹林路75巷25弄6號","121.520283333333","25.0143433333333","6500400","永和區"
"234013","KEA-2591","2018/08/21 19:49:25","新北市永和區永平路280號","121.507985","25.0118566666667","6500400","永和區"
"234061","AAD-866","2018/08/21 19:49:20","新北市永和區中正路33號","121.514131666667","24.9960683333333","6500400","永和區"
"234042","862-TW","2018/08/21 19:49:19","新北市永和區中和路389巷49號","121.5081","25.0020466666667","6500400","永和區"
"234050","863-TW","2018/08/21 19:49:18","新北市永和區保安路77號","121.508723333333","25.01475","6500400","永和區"
"234026","9371-KE","2018/08/21 19:49:22","新北市永和區雙和街25巷5號","121.508991666667","25.00192","6500400","永和區"
"234011","9373-KE","2018/08/21 19:49:24","新北市永和區仁愛路352巷92弄16號","121.5013","25.0081583333333","6500400","永和區"
"249001","173-UM","2018/08/21 19:49:18","新北市八里區中華路二段252號","121.405403333333","25.14964","6502300","八里區"
"249004","303-UY","2018/08/21 19:49:19","新北市八里區仁愛路127號","121.410156666667","25.1589283333333","6502300","八里區"
"249003","593-UM","2018/08/21 19:49:19","新北市八里區華峰三街35號","121.398526666667","25.145305","6502300","八里區"
"248016","026-BX","2018/08/21 19:49:23","新北市五股區成泰路三段577巷80弄7號","121.449545","25.1042983333333","6501500","五股區"
"248008","095-VK","2018/08/21 19:49:14","新北市五股區國道路三段7-1號","121.469491666667","25.0752016666667","6501500","五股區"
"248020","225-UY","2018/08/21 19:49:12","新北市五股區中直路40號","121.419968333333","25.115075","6501500","五股區"
"248012","247-BX","2018/08/21 19:49:25","新北市五股區蓬萊路24號","121.434203333333","25.0797933333333","6501500","五股區"
"248014","261-SL","2018/08/21 19:49:22","新北市五股區五福路52巷11弄2號","121.433978333333","25.0899","6501500","五股區"
"248010","272-BY","2018/08/21 19:49:22","新北市五股區登林路76-5號","121.430585","25.0694333333333","6501500","五股區"
"248004","677-BX","2018/08/21 19:49:18","新北市五股區成泰路一段106-1號","121.435686666667","25.0718433333333","6501500","五股區"
"248002","678-BX","2018/08/21 19:49:12","新北市五股區成泰路四段14號","121.453351666667","25.1067866666667","6501500","五股區"
"234077","969-R7","2018/08/21 19:49:24","新北市永和區智光街50號","121.516895","24.997975","6500400","永和區"
"234074","AAC-211","2018/08/21 19:49:17","新北市永和區竹林路215號","121.520983333333","25.008835","6500400","永和區"
"234067","AAC-212","2018/08/21 19:49:29","新北市永和區中山路一段154號","121.509638333333","25.009385","6500400","永和區"
"234003","AAC-295","2018/08/21 19:49:28","新北市永和區福和路316號","121.516131666667","25.0073683333333","6500400","永和區"
"244017","485-VK","2018/08/21 19:49:12","新北市八里區中山路三段382號","121.368708333333","25.135855","6501700","林口區"
"243013","AAD-798","2018/08/21 19:40:09","新北市泰山區應化街7號","121.423876666667","25.0437366666667","6501600","泰山區"
"243009","297-R6","2018/08/21 19:49:26","新北市泰山區美寧街71號","121.431011666667","25.0647166666667","6501600","泰山區"
"243016","KEA-2801","2018/08/21 19:49:18","新北市泰山區新北大道七段103號","121.417733333333","25.03203","6501600","泰山區"
"243015","421-VK","2018/08/21 19:49:13","新北市泰山區明志路二段214巷11號","121.42672","25.0489483333333","6501600","泰山區"
"243011","KEA-2215","2018/08/21 19:49:20","新北市泰山區明志路三段204巷10弄3號","121.423088333333","25.0384383333333","6501600","泰山區"
"243010","KEA-2216","2018/08/21 19:49:21","新北市泰山區民生路33號","121.430715","25.05206","6501600","泰山區"
"243012","646-TV","2018/08/21 19:49:25","新北市泰山區全興路13號","121.432413333333","25.0589483333333","6501600","泰山區"
"243014","680-BX","2018/08/21 19:49:22","新北市泰山區泰林路二段33-7號","121.435231666667","25.056515","6501600","泰山區"
"222003","436-BY","2018/08/21 19:49:20","新北市深坑區深南路51-1號","121.62115","25.0097833333333","6501800","深坑區"
"222002","659-BX","2018/08/21 19:49:25","新北市深坑區北深路一段300號","121.623298333333","25.0053783333333","6501800","深坑區"
"231041","002-UM","2018/08/21 19:49:25","新北市新店區中央路208-1號","121.530151666667","24.9737116666667","6500600","新店區"
"231059","046-UY","2018/08/21 19:49:22","新北市新店區安和路二段185號","121.518341666667","24.97493","6500600","新店區"
"231044","106-UY","2018/08/21 19:49:19","新北市新店區復興路121號","121.53414","24.9879983333333","6500600","新店區"
"231046","107-UY","2018/08/21 19:49:30","新北市新店區三民路159巷19弄31號","121.532208333333","24.97305","6500600","新店區"
"231053","108-UY","2018/08/21 19:49:16","新北市新店區新烏路二段396號","121.551558333333","24.9091966666667","6500600","新店區"
"231048","187-VK","2018/08/21 19:49:25","新北市新店區中興路二段100巷1號","121.547666666667","24.971565","6500600","新店區"
"231054","KEA-2219","2018/08/21 19:49:17","新北市新店區光明街75號","121.53876","24.9607","6500600","新店區"
"231057","256-BX","2018/08/21 19:49:11","新北市新店區梅崗一路10號","121.556036666667","24.9314133333333","6500600","新店區"
"231042","268-BY","2018/08/21 19:49:24","新北市新店區中興路一段255號","121.54463","24.9671966666667","6500600","新店區"
"231051","278-BY","2018/08/21 19:49:15","新北市新店區中央三街22號","121.528796666667","24.97381","6500600","新店區"
"231050","AAD-862","2018/08/21 19:49:24","新北市新店區郵政路4巷5號","121.556888333333","24.9515816666667","6500600","新店區"
"231040","355-BY","2018/08/21 19:49:29","新北市新店區中正路75巷71號","121.543258333333","24.96893","6500600","新店區"
"231058","3713-VJ","2018/08/21 19:49:28","新北市新店區安德街60巷26號","121.511251666667","24.9641083333333","6500600","新店區"
"231066","4716-K9","2018/08/21 19:49:26","新北市新店區安康路二段341巷38號","121.496596666667","24.9544233333333","6500600","新店區"
"231056","4715-K9","2018/08/21 19:49:25","新北市新店區中央路39號","121.532933333333","24.9776766666667","6500600","新店區"
"231065","512-UM","2018/08/21 19:49:23","新北市新店區安祥路109巷90弄26號","121.477296666667","24.9593516666667","6500600","新店區"
"231049","513-UM","2018/08/21 19:49:10","新北市新店區民權路123號","121.535645","24.9827616666667","6500600","新店區"
"231045","617-UM","2018/08/21 19:49:21","新北市新店區北宜路二段360-1號","121.564731666667","24.952325","6500600","新店區"
"231061","619-UM","2018/08/21 19:49:22","新北市新店區安民街143號","121.516481666667","24.969565","6500600","新店區"
"231063","641-BX","2018/08/21 19:49:15","新北市新店區車子路11號","121.503018333333","24.9519633333333","6500600","新店區"
"231068","718-UY","2018/08/21 19:49:30","新北市新店區安一路一段1-1號","121.519525","24.961255","6500600","新店區"
"231064","719-UM","2018/08/21 19:49:13","新北市新店區安和路二段113巷1弄2號","121.518363333333","24.9701933333333","6500600","新店區"
"231062","720-UM","2018/08/21 19:49:32","新北市新店區永業路51巷2號","121.531921666667","24.9547766666667","6500600","新店區"
"231060","897-TW","2018/08/21 19:49:24","新北市新店區安康路二段240號","121.509193333333","24.9591233333333","6500600","新店區"
"231043","899-TW","2018/08/21 19:49:25","新北市新店區中正路263-3號","121.538423333333","24.973845","6500600","新店區"
"231055","AKT-0513","2018/08/21 19:49:26","新北市新店區力行路78號","121.538568333333","24.9664283333333","6500600","新店區"
"241011","013-R5","2018/08/21 19:49:13","新北市三重區介壽路41號","121.498636666667","25.070085","6500200","三重區"
"241028","022-UY","2018/08/21 19:49:23","新北市三重區中正南路170號","121.494088333333","25.0567933333333","6500200","三重區"
"241008","059-VK","2018/08/21 19:49:32","新北市三重區永福街96號","121.478878333333","25.0759633333333","6500200","三重區"
"241022","060-VK","2018/08/21 19:49:19","新北市三重區新北大道一段7號","121.489666666667","25.0615933333333","6500200","三重區"
"241031","061-VK","2018/08/21 19:49:19","新北市三重區重新路四段248號","121.486088333333","25.053385","6500200","三重區"
"241015","062-VK","2018/08/21 19:49:11","新北市三重區重新路一段1號","121.503796666667","25.064325","6500200","三重區"
"241017","063-VK","2018/08/21 19:49:18","新北市三重區重陽路三段15號","121.489543333333","25.06674","6500200","三重區"
"241026","066-VK","2018/08/21 19:49:25","新北市三重區文化南路42號","121.500401666667","25.0602166666667","6500200","三重區"
"241003","091-VK","2018/08/21 19:49:17","新北市三重區五華街130號","121.491693333333","25.0835483333333","6500200","三重區"
"241016","266-UM","2018/08/21 19:49:13","新北市三重區正義北路16巷29號","121.496603333333","25.0629216666667","6500200","三重區"
"241009","267-UM","2018/08/21 19:49:26","新北市三重區三和路四段396巷21號","121.480538333333","25.0789833333333","6500200","三重區"
"241018","268-UM","2018/08/21 19:49:29","新北市三重區雙園街57巷34弄59號","121.493143333333","25.0680466666667","6500200","三重區"
"241032","269-UM","2018/08/21 19:49:11","新北市三重區重陽路一段44巷59號","121.48456","25.0578283333333","6500200","三重區"
"241013","270-UM","2018/08/21 19:49:32","新北市三重區仁愛街92巷13號","121.494791666667","25.0738483333333","6500200","三重區"
"241025","271-UM","2018/08/21 19:49:28","新北市三重區忠孝路三段52號","121.480716666667","25.0656866666667","6500200","三重區"
"241007","398-BY","2018/08/21 19:49:18","新北市三重區三和路四段143-1號","121.484196666667","25.078125","6500200","三重區"
"241035","KEA-2210","2018/08/21 19:49:26","新北市三重區文化北路12號","121.499488333333","25.0637716666667","6500200","三重區"
"241006","413-TH","2018/08/21 19:49:20","新北市三重區力行路二段80號","121.481718333333","25.07379","6500200","三重區"
"241004","475-VK","2018/08/21 19:49:18","新北市三重區仁愛街377巷132號","121.493531666667","25.0819116666667","6500200","三重區"
"241020","478-VK","2018/08/21 19:49:16","新北市三重區三和路四段156號","121.487991666667","25.07568","6500200","三重區"
"241030","480-VK","2018/08/21 19:49:18","新北市三重區環河南路254巷88號","121.48884","25.0516716666667","6500200","三重區"
"241014","543-UM","2018/08/21 19:49:28","新北市三重區長安街73號","121.501521666667","25.0673966666667","6500200","三重區"
"241023","545-UM","2018/08/21 19:49:26","新北市三重區頂崁街172號","121.477511666667","25.0659833333333","6500200","三重區"
"241019","KEA-2593","2018/08/21 19:49:19","新北市三重區自強路二段67巷15號","121.489395","25.070315","6500200","三重區"
"241012","941-UM","2018/08/21 19:49:27","新北市三重區仁興街56巷14號","121.49861","25.07564","6500200","三重區"
"241029","942-UM","2018/08/21 19:49:23","新北市三重區光明路27號","121.491185","25.05848","6500200","三重區"
"241033","AAC-255","2018/08/21 19:49:20","新北市三重區中興南街29-1號","121.470616666667","25.0439466666667","6500200","三重區"
"235066","003-UY","2018/08/21 19:49:10","新北市中和區南工路70號","121.506458333333","25.0021383333333","6500300","中和區"
"235064","005-UY","2018/08/21 19:49:29","新北市中和區南山路40號","121.50201","24.9976733333333","6500300","中和區"
"235063","006-UY","2018/08/21 19:49:31","新北市中和區連城路263巷27弄2號","121.492728333333","24.9945616666667","6500300","中和區"
"235056","096-UM","2018/08/21 19:49:16","新北市中和區中山路三段118-1號","121.47532","25.0075583333333","6500300","中和區"
"235039","097-UM","2018/08/21 19:49:23","新北市中和區大勇街25巷15弄1號","121.515923333333","24.9936333333333","6500300","中和區"
"235040","150-BY","2018/08/21 19:49:20","新北市中和區安和路43號","121.509643333333","24.9947816666667","6500300","中和區"
"235058","151-BY","2018/08/21 19:49:28","新北市中和區員山路124巷25號","121.482506666667","24.9961166666667","6500300","中和區"
"235055","183-VK","2018/08/21 19:49:31","新北市中和區德光路26號","121.47088","25.00433","6500300","中和區"
"235038","185-VK","2018/08/21 19:49:29","新北市永和區民生路46巷48號","121.52119","24.99632","6500300","中和區"
"235049","186-VK","2018/08/21 19:49:14","新北市中和區中興街37號","121.500793333333","24.9944683333333","6500300","中和區"
"235067","255-BX","2018/08/21 19:49:13","新北市中和區新生街186巷1弄25號","121.483471666667","24.9987666666667","6500300","中和區"
"235044","293-VK","2018/08/21 19:49:26","新北市中和區南山路150號","121.504228333333","24.992175","6500300","中和區"
"235072","301-VK","2018/08/21 19:49:15","新北市中和區橋和路128號","121.493538333333","25.0061483333333","6500300","中和區"
"235043","352-BY","2018/08/21 19:49:24","新北市中和區華新街228號","121.506086666667","24.981815","6500300","中和區"
"235042","KEA-2878","2018/08/21 19:49:21","新北市中和區保健路7巷10號","121.508378333333","24.9989066666667","6500300","中和區"
"235050","4979-A6","2018/08/21 19:49:16","新北市中和區景平路241巷84弄54號","121.506133333333","24.992385","6500300","中和區"
"235070","558-UM","2018/08/21 19:49:19","新北市中和區圓通路111號","121.499373333333","24.996505","6500300","中和區"
"235054","640-BX","2018/08/21 19:49:17","新北市中和區莒光路63號","121.47233","25.003885","6500300","中和區"
"235060","647-TV","2018/08/21 19:49:17","新北市中和區員山路384號","121.480703333333","25.0044083333333","6500300","中和區"
"235047","732-UM","2018/08/21 19:49:30","新北市中和區和平街72號","121.50804","24.9909566666667","6500300","中和區"
"235046","733-UM","2018/08/21 19:49:13","新北市中和區仁愛街30號","121.510925","24.9885766666667","6500300","中和區"
"235057","801-TS","2018/08/21 19:49:28","新北市中和區員山路144號","121.481235","24.9965216666667","6500300","中和區"
"235041","802-TS","2018/08/21 19:49:22","新北市中和區新興街17巷28號","121.512715","25.0028283333333","6500300","中和區"
"235052","805-TS","2018/08/21 19:49:05","新北市中和區興南路二段77號","121.506625","24.984885","6500300","中和區"
"235048","896-TW","2018/08/21 19:49:16","新北市中和區興南路二段5號","121.507973333333","24.9863816666667","6500300","中和區"
"235053","900-TW","2018/08/21 19:49:16","新北市中和區國光街185號","121.467551666667","25.0017066666667","6500300","中和區"
"235065","911-UM","2018/08/21 19:49:19","新北市中和區中山路二段201號","121.499801666667","25.002685","6500300","中和區"
"235051","157-BY","2018/08/21 19:49:31","新北市中和區中興街180巷52弄3號","121.498535","24.9883466666667","6500300","中和區"
"235037","AAC-213","2018/08/21 19:49:29","新北市中和區秀朗路三段138號","121.524436666667","24.9915816666667","6500300","中和區"
"235059","AAC-215","2018/08/21 19:49:24","新北市中和區圓通路305巷15弄3號","121.494375","24.9896166666667","6500300","中和區"
"220065","072-UY","2018/08/21 19:49:18","新北市板橋區民族路280號","121.470091666667","25.0069016666667","6500100","板橋區"
"220086","073-UY","2018/08/21 19:49:33","新北市板橋區僑中一街124巷74-5號","121.448065","25.0176483333333","6500100","板橋區"
"220106","075-UY","2018/08/21 19:49:19","新北市板橋區民治街61巷27號","121.480533333333","25.0335666666667","6500100","板橋區"
"220069","AAD-861","2018/08/21 19:49:28","新北市板橋區貴興路60號","121.456695","25.0030066666667","6500100","板橋區"
"247014","546-UM","2018/08/21 19:49:27","新北市蘆洲區復興路30號","121.472328333333","25.0850866666667","6501400","蘆洲區"
"247004","337-TH","2018/08/21 19:49:14","新北市蘆洲區中原路50號","121.459196666667","25.082515","6501400","蘆洲區"
"247006","336-TH","2018/08/21 19:49:33","新北市蘆洲區永安南路二段20號","121.467476666667","25.077265","6501400","蘆洲區"
"247008","056-VK","2018/08/21 19:49:27","新北市蘆洲區中山一路1號","121.478658333333","25.0800666666667","6501400","蘆洲區"
"247002","002-UY","2018/08/21 19:49:18","新北市蘆洲區永平街20號","121.45911","25.0906866666667","6501400","蘆洲區"
"226004","312-R5","2018/08/21 19:49:13","新北市平溪區石底里公園街18-3號","121.733238333333","25.025795","6502400","平溪區"
"228001","212-TW","2018/08/21 19:49:31","新北市貢寮區真理里新港街101號","121.926908333333","25.0565883333333","6502600","貢寮區"
"228003","828-UM","2018/08/21 19:49:21","新北市貢寮區真理里延平街171號","121.925498333333","25.0593383333333","6502600","貢寮區"
"224002","639-TC","2018/08/21 19:49:27","新北市瑞芳區員山子路員山巷24-1號","121.816858333333","25.104605","6501200","瑞芳區"
"227003","642-TC","2018/08/21 19:49:20","新北市雙溪區雙溪里內挖路83號","121.86325","25.0368766666667","6502500","雙溪區"
"227009","400-TW","2018/08/21 19:49:27","新北市雙溪區新基里中華路90-1號","121.865986666667","25.039085","6502500","雙溪區"
"222001","KEA-2212","2018/08/21 19:49:11","新北市深坑區北深路三段110號","121.606775","25.0016033333333","6501800","深坑區"
"208002","KEA-2872","2018/08/21 19:49:32","新北市金山區八德街14號","121.634891666667","25.2236516666667","6502700","金山區"
"208003","665-BX","2018/08/21 19:49:18","新北市金山區海興路6號","121.630068333333","25.23725","6502700","金山區"
"208001","761-BX","2018/08/21 19:49:15","新北市金山區重和里六股林口38-1號","121.603366666667","25.2186916666667","6502700","金山區"
"251005","010-UM","2018/08/21 19:49:17","新北市淡水區中正東路49號","121.446533333333","25.16755","6501000","淡水區"
"251013","KEA-2871","2018/08/21 19:49:30","新北市淡水區頂田寮18號","121.460991666667","25.2145216666667","6501000","淡水區"
"251016","179-VK","2018/08/21 19:49:21","新北市淡水區三塊厝3-2號","121.456185","25.2092183333333","6501000","淡水區"
"251014","180-VK","2018/08/21 19:49:31","新北市淡水區石頭厝14-6號","121.466803333333","25.237145","6501000","淡水區"
"251015","181-VK","2018/08/21 19:49:27","新北市淡水區北新路三段18號","121.483538333333","25.1860933333333","6501000","淡水區"
"251010","413-VK","2018/08/21 19:49:14","新北市淡水區下圭柔山91-3號","121.431121666667","25.2102733333333","6501000","淡水區"
"251012","441-VK","2018/08/21 19:49:20","新北市淡水區淡金路三段70巷1號","121.448316666667","25.20041","6501000","淡水區"
"251008","442-VK","2018/08/21 19:49:16","新北市淡水區中正路一段22巷22號","121.426856666667","25.176955","6501000","淡水區"
"251001","559-UM","2018/08/21 19:49:28","新北市淡水區淡金路51-1號","121.456246666667","25.16116","6501000","淡水區"
"251006","561-UM","2018/08/21 19:49:28","新北市淡水區水碓街15號","121.443453333333","25.17702","6501000","淡水區"
"251009","575-R6","2018/08/21 19:49:20","新北市淡水區中正路32號","121.444018333333","25.16931","6501000","淡水區"
"251007","577-R6","2018/08/21 19:49:21","新北市淡水區竿蓁二街97號","121.456253333333","25.164385","6501000","淡水區"
"251011","650-BX","2018/08/21 19:49:17","新北市淡水區淡金路二段600號","121.446446666667","25.192905","6501000","淡水區"
"251003","766-UM","2018/08/21 19:49:20","新北市淡水區崁頂75-2號","121.436418333333","25.203595","6501000","淡水區"
"207003","550-UM","2018/08/21 19:49:23","新北市萬里區大鵬里萬里加投68號","121.642225","25.214605","6502800","萬里區"
"207004","225-TW","2018/08/21 19:49:24","新北市萬里區萬里里瑪鋉路218號","121.68931","25.1803166666667","6502800","萬里區"
"252002","178-VK","2018/08/21 19:49:27","新北市三芝區三民街33號","121.504713333333","25.2585316666667","6502100","三芝區"
"252001","292-VK","2018/08/21 19:49:21","新北市三芝區公正街9號","121.499765","25.25754","6502100","三芝區"
"237004","KEA-2597","2018/08/21 19:49:28","新北市三峽區添福295-1號","121.377981666667","24.8847066666667","6500900","三峽區"
"237007","153-BY","2018/08/21 19:49:22","新北市三峽區二鬮路57-2號","121.361716666667","24.9097166666667","6500900","三峽區"
"237009","210-TH","2018/08/21 19:49:10","新北市三峽區民族街78巷2弄12號","121.36829","24.9300083333333","6500900","三峽區"
"237013","252-BX","2018/08/21 19:49:27","新北市三峽區介壽路二段165號","121.39417","24.9359666666667","6500900","三峽區"
"237012","275-BY","2018/08/21 19:49:24","新北市三峽區中華路3巷6-1號","121.375013333333","24.9312233333333","6500900","三峽區"
"237008","302-VK","2018/08/21 19:49:26","新北市三峽區永安街216號","121.373093333333","24.9270583333333","6500900","三峽區"
"237014","433-BY","2018/08/21 19:49:23","新北市三峽區添福59-10號","121.373636666667","24.9033066666667","6500900","三峽區"
"237006","5529-G3","2018/08/21 19:49:24","新北市三峽區中正路一段336巷15弄2號","121.37035","24.924915","6500900","三峽區"
"237016","649-BX","2018/08/21 19:49:24","新北市三峽區溪東路430號","121.41552","24.9276683333333","6500900","三峽區"
"237005","AKY-6261","2018/08/21 19:49:10","新北市三峽區長泰街90號","121.376261666667","24.9331933333333","6500900","三峽區"
"236070","105-UM","2018/08/21 19:49:24","新北市土城區水源街30號","121.440953333333","24.9755983333333","6501300","土城區"
"236042","107-UM","2018/08/21 19:49:28","新北市土城區裕民路228號","121.453711666667","24.9838716666667","6501300","土城區"
"236079","166-UM","2018/08/21 19:49:17","新北市土城區中央路四段464號","121.409638333333","24.95039","6501300","土城區"
"236030","253-BX","2018/08/21 19:49:21","新北市土城區中央路一段294號","121.443311666667","24.9823833333333","6501300","土城區"
"236026","269-VK","2018/08/21 19:49:15","新北市土城區中央路二段61巷26號","121.443316666667","24.9786616666667","6501300","土城區"
"236038","271-VK","2018/08/21 19:49:30","新北市土城區國際路158巷5號","121.46856","24.9763916666667","6501300","土城區"
"236021","401-BY","2018/08/21 19:49:12","新北市土城區延吉街137巷8號","121.470891666667","24.9856933333333","6501300","土城區"
"236059","912-UM","2018/08/21 19:49:26","新北市土城區中央路一段148號","121.446163333333","24.98739","6501300","土城區"
"236049","913-UM","2018/08/21 19:49:23","新北市土城區清水路144號","121.459011666667","24.981405","6501300","土城區"
"236063","915-UM","2018/08/21 19:49:22","新北市土城區延和路105巷4弄1號","121.467438333333","24.990765","6501300","土城區"
"236055","AAC-216","2018/08/21 19:49:19","新北市土城區延平街1號","121.468241666667","24.99042","6501300","土城區"
"242034","AAC-296","2018/08/21 19:49:17","新北市新莊區仁愛街54巷12號","121.444933333333","25.0370683333333","6500500","新莊區"
"242058","986-R7","2018/08/21 19:49:16","新北市新莊區民安路282號","121.427793333333","25.02157","6500500","新莊區"
"242023","705-TV","2018/08/21 19:49:17","新北市新莊區化成路95號","121.465583333333","25.0467366666667","6500500","新莊區"
"242046","497-BY","2018/08/21 19:49:15","新北市新莊區建國二路67號","121.432193333333","25.0247366666667","6500500","新莊區"
"242019","442-UM","2018/08/21 19:49:25","新北市新莊區明智街1號","121.454786666667","25.04133","6500500","新莊區"
"242056","440-UM","2018/08/21 19:49:20","新北市新莊區新泰路26號","121.449606666667","25.0338416666667","6500500","新莊區"
"242037","415-TV","2018/08/21 19:49:26","新北市新莊區建安街101巷32號","121.427081666667","25.0235466666667","6500500","新莊區"
"242007","413-TV","2018/08/21 19:49:13","新北市新莊區新北大道三段5號","121.458365","25.0600066666667","6500500","新莊區"
"242061","353-BY","2018/08/21 19:49:27","新北市新莊區中環路一段10號","121.442788333333","25.0258116666667","6500500","新莊區"
"242039","133-UY","2018/08/21 19:49:29","新北市新莊區民安路299巷40號","121.429705","25.0235333333333","6500500","新莊區"
"242032","135-UY","2018/08/21 19:49:09","新北市新莊區忠孝街26號","121.443995","25.0355","6500500","新莊區"
"242048","172-VK","2018/08/21 19:49:27","新北市新莊區民安路137巷1弄2號","121.425446666667","25.0243566666667","6500500","新莊區"
"242011","173-VK","2018/08/21 19:27:10","新北市新莊區新泰路357巷2-2號","121.442026666667","25.0412533333333","6500500","新莊區"
"242005","176-VK","2018/08/21 19:49:28","新北市新莊區化成路63巷24弄43號","121.46205","25.0459233333333","6500500","新莊區"
"242002","347-TH","2018/08/21 19:49:18","新北市新莊區新泰路2號","121.449823333333","25.032475","6500500","新莊區"
"242021","348-TH","2018/08/21 19:49:23","新北市新莊區中興街59號","121.449056666667","25.03744","6500500","新莊區"
"238015","755-BX","2018/08/21 19:49:16","新北市樹林區中山路二段230號","121.409063333333","24.9803033333333","6500700","樹林區"
"238021","KEA-2539","2018/08/21 19:49:24","新北市樹林區佳園路三段101巷101號","121.39584","24.9497","6500700","樹林區"
"238025","303-VK","2018/08/21 19:49:26","新北市樹林區中山路二段162號","121.412076666667","24.9829883333333","6500700","樹林區"
"238020","268-VK","2018/08/21 19:49:17","新北市樹林區俊英街83巷2號","121.425675","25.008375","6500700","樹林區"
"239006","891-R6","2018/08/21 19:49:30","新北市樹林區中山路三段214號","121.379825","24.9677633333333","6500800","鶯歌區"
"239003","360-BY","2018/08/21 19:49:21","新北市鶯歌區二甲路12-2號","121.345636666667","24.9348083333333","6500800","鶯歌區"
"221008","489-VK","2018/08/21 19:49:29","新北市汐止區康寧街65號","121.6187","25.0667966666667","6501100","汐止區"
"221036","130-UY","2018/08/21 19:49:23","新北市汐止區中正路311號","121.655908333333","25.06763","6501100","汐止區"
"221015","131-UY","2018/08/21 19:49:16","新北市汐止區忠孝東路416號","121.666103333333","25.0712983333333","6501100","汐止區"
"221010","269-BY","2018/08/21 19:49:31","新北市汐止區汐萬路一段418巷1弄5號","121.649621666667","25.0786283333333","6501100","汐止區"
"221012","278-VK","2018/08/21 19:49:28","新北市汐止區保長路273巷10號","121.682161666667","25.0737633333333","6501100","汐止區"
"221023","279-VK","2018/08/21 19:49:22","新北市汐止區明峰街151號","121.629385","25.07034","6501100","汐止區"
"221032","280-BY","2018/08/21 19:49:20","新北市汐止區橫科路119號","121.620078333333","25.0504466666667","6501100","汐止區"
"221027","281-BY","2018/08/21 19:49:20","新北市汐止區南昌街9號","121.663643333333","25.069595","6501100","汐止區"
"221029","298-VK","2018/08/21 19:49:33","新北市汐止區康寧街901號","121.651443333333","25.0750866666667","6501100","汐止區"
"221021","299-VK","2018/08/21 19:49:31","新北市汐止區連興街120號","121.653656666667","25.0624216666667","6501100","汐止區"
"221031","353-TW","2018/08/21 19:49:27","新北市汐止區福德二路54巷2弄7號","121.634003333333","25.0676916666667","6501100","汐止區"
"221035","622-UM","2018/08/21 19:49:13","新北市汐止區長江街13巷6弄3號","121.654803333333","25.0717533333333","6501100","汐止區"
"221025","623-UM","2018/08/21 19:49:13","新北市汐止區秀峰路81巷15弄47號","121.661795","25.0649383333333","6501100","汐止區"
"221038","646-BX","2018/08/21 19:49:28","新北市汐止區忠孝東路423號","121.665638333333","25.0716533333333","6501100","汐止區"
"221033","647-BX","2018/08/21 19:49:21","新北市汐止區東勢街76巷99號","121.636481666667","25.0390566666667","6501100","汐止區"
"221018","753-BX","2018/08/21 19:49:16","新北市汐止區大同路二段544號","121.661815","25.0688616666667","6501100","汐止區"
"220079","145-BY","2018/08/21 19:49:24","新北市板橋區建國街23號","121.458081666667","25.0169933333333","6500100","板橋區"
"220080","200-UY","2018/08/21 19:49:19","新北市板橋區大觀路二段153巷39弄1號","121.447073333333","25.0005216666667","6500100","板橋區"
"220082","610-BX","2018/08/21 19:49:21","新北市板橋區存德街45號","121.431038333333","24.9915133333333","6500100","板橋區"
"220101","245-BX","2018/08/21 19:49:12","新北市板橋區縣民大道三段93巷9號","121.475371666667","25.0221116666667","6500100","板橋區"
"220072","277-BY","2018/08/21 19:49:21","新北市板橋區金門街127巷10號","121.43332","24.9911333333333","6500100","板橋區"
"220063","280-UM","2018/08/21 19:49:28","新北市板橋區三民路一段26號","121.479203333333","25.0229183333333","6500100","板橋區"
"220071","283-VK","2018/08/21 19:49:19","新北市板橋區五權街30巷24弄33號","121.463633333333","24.9939266666667","6500100","板橋區"
"220094","285-UM","2018/08/21 19:49:10","新北市板橋區長江路一段122號","121.460081666667","25.02984","6500100","板橋區"
"220053","285-VK","2018/08/21 19:49:29","新北市板橋區中山路二段60巷1弄25號","121.47513","25.01584","6500100","板橋區"
"220083","286-VK","2018/08/21 19:49:12","新北市板橋區僑中二街8巷4號","121.447045","25.0112433333333","6500100","板橋區"
"220081","287-VK","2018/08/21 19:49:20","新北市板橋區大觀路一段28巷105號","121.449965","25.011995","6500100","板橋區"
"220090","288-VK","2018/08/21 19:49:30","新北市板橋區龍泉街82巷14弄21號","121.45595","25.0262266666667","6500100","板橋區"
"220061","295-UM","2018/08/21 19:49:19","新北市板橋區板新路215號","121.46839","25.015795","6500100","板橋區"
"220084","296-UM","2018/08/21 19:49:27","新北市板橋區溪崑二街103巷12號","121.427068333333","24.9887783333333","6500100","板橋區"
"220092","299-UM","2018/08/21 19:49:14","新北市板橋區四維路259巷11號","121.462713333333","25.0278066666667","6500100","板橋區"
"220075","303-R5","2018/08/21 19:49:30","新北市板橋區金華街10巷48弄17號","121.457616666667","25.0199583333333","6500100","板橋區"
"220062","305-R5","2018/08/21 19:49:15","新北市板橋區中山路二段416巷38弄29號","121.481708333333","25.0194583333333","6500100","板橋區"
"220098","317-R6","2018/08/21 19:49:27","新北市板橋區新海路405號","121.458571666667","25.0268216666667","6500100","板橋區"
"220064","486-VK","2018/08/21 19:49:20","新北市板橋區實踐路106號","121.464201666667","25.0046316666667","6500100","板橋區"
"242013","280-VK","2018/08/21 19:49:26","新北市新莊區中誠街67號","121.450665","25.0478316666667","6500500","新莊區"
"220088","491-VK","2018/08/21 19:49:31","新北市板橋區仁化街93號","121.476308333333","25.0320266666667","6500100","板橋區"
"220035","560-BX","2018/08/21 19:49:24","新北市板橋區新生街89巷2號","121.458246666667","25.021965","6500100","板橋區"
"220103","561-BX","2018/08/21 19:49:10","新北市板橋區陽明街29巷36號","121.463558333333","25.02274","6500100","板橋區"
"220091","637-BX","2018/08/21 19:49:26","新北市板橋區懷德街191巷28號","121.480551666667","25.0298516666667","6500100","板橋區"
"220057","686-BX","2018/08/21 19:49:25","新北市板橋區信義路132號","121.458621666667","24.9922766666667","6500100","板橋區"
"220093","689-BX","2018/08/21 19:49:27","新北市板橋區長江路二段303號","121.4708","25.0331666666667","6500100","板橋區"
"220054","741-BX","2018/08/21 19:49:32","新北市板橋區實踐路93巷50號","121.465905","25.0051133333333","6500100","板橋區"
"220102","KEA-2699","2018/08/21 19:49:14","新北市板橋區松柏街31號","121.475188333333","25.030325","6500100","板橋區"
"220055","827-TW","2018/08/21 19:49:17","新北市板橋區國慶路49巷3號","121.459638333333","24.9958566666667","6500100","板橋區"
"220067","829-TW","2018/08/21 19:49:26","新北市板橋區漢生東路193巷66-3號","121.473288333333","25.0121116666667","6500100","板橋區"
"220068","830-TW","2018/08/21 19:49:18","新北市板橋區中山路二段416巷45號","121.483106666667","25.0193883333333","6500100","板橋區"
"220096","831-TW","2018/08/21 19:49:24","新北市板橋區莒光路39巷18號","121.471056666667","25.0253233333333","6500100","板橋區"
"220089","833-TW","2018/08/21 19:49:22","新北市板橋區龍泉街82巷11-4號","121.455813333333","25.0254483333333","6500100","板橋區"
"220074","895-R6","2018/08/21 19:49:14","新北市板橋區府中路29-2號","121.458563333333","25.00817","6500100","板橋區"
"220073","985-R7","2018/08/21 19:49:22","新北市板橋區大仁街112號","121.452828333333","25.0159166666667","6500100","板橋區"
"220097","AAC-210","2018/08/21 19:49:20","新北市板橋區文化路一段285巷1弄15號","121.464161666667","25.018615","6500100","板橋區"
"220070","AAC-253","2018/08/21 19:49:11","新北市板橋區館前東路120號","121.463755","25.0078166666667","6500100","板橋區"
"235068","KEA-2873","2018/08/21 19:49:05","新北市中和區莊敬路16巷5號","121.500041666667","25.004145","6500300","中和區"
"235061","KEA-2875","2018/08/21 19:49:20","新北市中和區民安街6號","121.480783333333","25.0009316666667","6500300","中和區"
