"lineid","car","time","location","longitude","latitude","cityid","cityname"
"234077","969-R7","2018/08/21 21:39:24","新北市板橋區文化路二段656號","121.480605","25.039765","6500400","永和區"
"243001","297-R6","2018/08/21 21:14:20","新北市泰山區黎明路25號","121.421891666667","25.0608416666667","6501600","泰山區"
"241028","022-UY","2018/08/21 21:39:23","新北市八里區荖阡坑路15-66號","121.398675","25.1403133333333","6500200","三重區"
"241005","887-TS","2018/08/21 21:39:28","新北市三重區碧華街50號","121.483503333333","25.0812333333333","6500200","三重區"
"247010","KEA-2869","2018/08/21 21:39:25","新北市八里區荖阡坑路32號","121.403785","25.1274116666667","6501400","蘆洲區"
"235016","805-TS","2018/08/21 21:39:18","新北市中和區員山路36巷13號","121.484303333333","24.9913966666667","6500300","中和區"
"251005","010-UM","2018/08/21 21:39:17","新北市淡水區學府路88號","121.44901","25.1710716666667","6501000","淡水區"
"251002","012-UM","2018/08/21 21:39:22","新北市淡水區學府路177號","121.446423333333","25.1744233333333","6501000","淡水區"
"251016","179-VK","2018/08/21 21:39:21","新北市淡水區中山北路三段169號","121.445516666667","25.1969416666667","6501000","淡水區"
"251014","180-VK","2018/08/21 21:39:31","新北市淡水區下圭柔山431-1號","121.449948333333","25.2113083333333","6501000","淡水區"
"251010","413-VK","2018/08/21 21:39:14","新北市淡水區沙崙路242號","121.425718333333","25.1847866666667","6501000","淡水區"
"251012","441-VK","2018/08/21 21:39:18","新北市淡水區淡金路四段225號","121.45173","25.22249","6501000","淡水區"
"251008","442-VK","2018/08/21 21:39:16","新北市淡水區水源街二段62號","121.450963333333","25.1741166666667","6501000","淡水區"
"251004","443-VK","2018/08/21 21:39:31","新北市淡水區民生路15號","121.460725","25.1379066666667","6501000","淡水區"
"251001","559-UM","2018/08/21 21:39:28","新北市淡水區新市二路三段152號","121.435373333333","25.1942483333333","6501000","淡水區"
"251006","561-UM","2018/08/21 21:39:28","新北市淡水區中正路11巷3號","121.43781","25.1707583333333","6501000","淡水區"
"251009","575-R6","2018/08/21 21:39:20","新北市淡水區民族路29巷2弄1號","121.462625","25.1373733333333","6501000","淡水區"
"251007","577-R6","2018/08/21 21:39:31","新北市淡水區水源街二段179號","121.455311666667","25.175885","6501000","淡水區"
"251011","650-BX","2018/08/21 21:39:24","新北市淡水區新民街294號","121.43508","25.1822833333333","6501000","淡水區"
"251003","766-UM","2018/08/21 21:39:20","新北市淡水區新春街34號","121.437041666667","25.1814133333333","6501000","淡水區"
"220070","AAC-253","2018/08/21 21:39:31","新北市五股區新城一路12號","121.44106","25.0830766666667","6500100","板橋區"
