"lineid","car","time","location","longitude","latitude","cityid","cityname"
"247010","KEA-2869","2018/08/21 21:59:25","新北市八里區下罟子8-7號","121.384085","25.14107","6501400","蘆洲區"
"235010","733-UM","2018/08/21 21:42:51","新北市中和區員山路36巷13號","121.484171666667","24.990835","6500300","中和區"
"235016","805-TS","2018/08/21 21:48:00","新北市中和區員山路36巷13號","121.484196666667","24.9914033333333","6500300","中和區"
"251005","010-UM","2018/08/21 21:59:17","新北市淡水區鄧公路30巷32-2號","121.454538333333","25.169685","6501000","淡水區"
"251010","413-VK","2018/08/21 21:59:14","新北市淡水區中正路二段211號","121.426183333333","25.1890866666667","6501000","淡水區"
"251008","442-VK","2018/08/21 21:59:16","新北市淡水區學府路104號","121.449901666667","25.17181","6501000","淡水區"
"251004","443-VK","2018/08/21 21:59:17","新北市淡水區民權路229號","121.46056","25.1294883333333","6501000","淡水區"
"251006","561-UM","2018/08/21 21:59:28","新北市淡水區中正路11巷3號","121.437806666667","25.1707733333333","6501000","淡水區"
"251007","577-R6","2018/08/21 21:59:31","新北市淡水區北新路184巷19號","121.45031","25.17808","6501000","淡水區"
"251011","650-BX","2018/08/21 21:59:17","新北市淡水區水碓街7號","121.443201666667","25.177115","6501000","淡水區"
"251003","766-UM","2018/08/21 21:59:20","新北市淡水區新春街81號","121.438783333333","25.1823483333333","6501000","淡水區"
"220070","AAC-253","2018/08/21 21:59:31","新北市板橋區華東街1-9號","121.448268333333","24.994875","6500100","板橋區"
