"lineid","car","time","location","longitude","latitude","cityid","cityname"
"248005","653-BX","2018/07/02 08:09:02","新北市五股區明德路12巷3號","121.433306666667","25.0718016666667","6501500","五股區"
"232001","290-BY","2018/07/02 08:09:18","新北市坪林區下坑子口12號","121.721541666667","24.9413033333333","6502000","坪林區"
"232012","291-BY","2018/07/02 08:09:17","新北市坪林區金瓜寮34-1號","121.676883333333","24.9033383333333","6502000","坪林區"
"232010","375-UM","2018/07/02 08:09:17","新北市坪林區磨壁潭12-2號","121.725918333333","24.938395","6502000","坪林區"
"232017","705-BZ","2018/07/02 08:09:27","新北市坪林區坪雙路二段143號","121.76115","24.96172","6502000","坪林區"
"232005","758-BX","2018/07/02 08:09:16","新北市坪林區鶯子瀨9-9號","121.708826666667","24.9156683333333","6502000","坪林區"
"244006","080-UY","2018/07/02 08:09:25","新北市林口區中湖43-5號","121.381758333333","25.0923766666667","6501700","林口區"
"244001","248-BX","2018/07/02 08:09:11","新北市林口區頂福里8鄰68號","121.331683333333","25.1017983333333","6501700","林口區"
"244012","742-UY","2018/07/02 08:09:15","新北市林口區粉寮路二段98號","121.404445","25.0892816666667","6501700","林口區"
"244008","410-SL","2018/07/02 08:09:10","新北市林口區林口路296號","121.386095","25.08542","6501700","林口區"
"244022","483-VK","2018/07/02 08:09:23","新北市林口區仁愛路一段647號","121.388465","25.07666","6501700","林口區"
"244016","485-VK","2018/07/02 08:09:30","新北市林口區粉寮路二段1-1號","121.400421666667","25.0837083333333","6501700","林口區"
"244010","657-BX","2018/07/02 08:09:28","新北市林口區粉寮路一段1號","121.396113333333","25.0758166666667","6501700","林口區"
"244024","837-TS","2018/07/02 08:09:22","新北市林口區粉寮路一段1號","121.396258333333","25.075865","6501700","林口區"
"244020","838-TS","2018/07/02 08:09:24","新北市林口區粉寮路60-16號","121.404356666667","25.0898783333333","6501700","林口區"
"231007","189-VK","2018/07/02 08:09:15","新北市新店區華潭街6號","121.529858333333","24.9517","6500600","新店區"
"231011","719-UY","2018/07/02 08:09:19","新北市新店區安康路一段229號","121.525528333333","24.963105","6500600","新店區"
"235043","352-BY","2018/07/02 08:09:22","新北市中和區中正路122號","121.499698333333","24.993845","6500300","中和區"
"226005","5620-A6","2018/07/02 08:09:22","新北市平溪區靜安路二段550號","121.747425","25.0250666666667","6502400","平溪區"
"226001","7418-A5","2018/07/02 08:09:27","新北市平溪區十分里姜仔坑12號","121.769048333333","25.0372733333333","6502400","平溪區"
"226003","AGD-0702","2018/07/02 08:09:00","新北市平溪區十分里十分街286號","121.777095","25.0484766666667","6502400","平溪區"
"223006","022-BY","2018/07/02 08:09:16","新北市石碇區番子坑24-7號","121.677595","25.0044183333333","6501900","石碇區"
"223002","KEA-2673","2018/07/02 08:09:10","新北市石碇區北宜路五段80號","121.646563333333","24.95174","6501900","石碇區"
"223003","205-TH","2018/07/02 08:09:20","新北市石碇區月扇湖3-1號","121.658093333333","24.958175","6501900","石碇區"
"223008","406-TH","2018/07/02 08:09:24","新北市石碇區靜安路一段262號","121.680808333333","25.0108216666667","6501900","石碇區"
"223001","592-UM","2018/07/02 08:09:23","新北市石碇區月扇湖3-1號","121.657756666667","24.9579633333333","6501900","石碇區"
"223004","660-BX","2018/07/02 08:09:27","新北市石碇區外按9-2號","121.650616666667","24.997395","6501900","石碇區"
"223007","661-BX","2018/07/02 08:09:22","新北市石碇區蚯蚓坑61-1號","121.683573333333","25.0100333333333","6501900","石碇區"
"223005","677-TV","2018/07/02 08:09:21","新北市石碇區外按6-1號","121.649285","24.9949033333333","6501900","石碇區"
"227005","282-VK","2018/07/02 08:09:13","新北市雙溪區上林里大瀨75-1號","121.830416666667","25.0288383333333","6502500","雙溪區"
"252006","073-UM","2018/07/02 08:09:15","新北市三芝區後厝里大片頭83-1號","121.458593333333","25.245","6502100","三芝區"
"252004","249-BX","2018/07/02 08:09:26","新北市三芝區興華里車埕24-2號","121.502081666667","25.1957716666667","6502100","三芝區"
"237001","159-UY","2018/07/02 08:09:21","新北市三峽區學成路285號","121.37621","24.9432516666667","6500900","三峽區"
"236007","165-UM","2018/07/02 08:09:22","新北市土城區青雲路322巷12號","121.457493333333","24.9766516666667","6501300","土城區"
"236001","339-SR","2018/07/02 08:09:13","新北市土城區龍泉路89-2號","121.444553333333","24.9424416666667","6501300","土城區"
"236005","498-BY","2018/07/02 08:09:23","新北市土城區永平街51號","121.427566666667","24.95918","6501300","土城區"
"242033","AAC-296","2018/07/02 08:09:21","新北市新莊區新莊路617號","121.445748333333","25.0329","6500500","新莊區"
"242057","986-R7","2018/07/02 08:09:18","新北市新莊區中正路690號","121.42047","25.028335","6500500","新莊區"
"242052","751-BX","2018/07/02 08:09:30","新北市新莊區樹新路120巷45號","121.430106666667","24.996025","6500500","新莊區"
"242026","615-BX","2018/07/02 08:09:29","新北市新莊區昌隆街89號","121.45748","25.05147","6500500","新莊區"
"242024","613-BX","2018/07/02 08:09:24","新北市新莊區思源路108號","121.46015","25.0465816666667","6500500","新莊區"
"242028","612-BX","2018/07/02 08:09:29","新北市新莊區復興路一段163號","121.450943333333","25.0433866666667","6500500","新莊區"
"242040","566-BX","2018/07/02 08:09:18","新北市新莊區中正路514巷105弄2-1號","121.427563333333","25.0349166666667","6500500","新莊區"
"242045","497-BY","2018/07/02 08:09:15","新北市新莊區中正路589號","121.434156666667","25.032335","6500500","新莊區"
"242049","442-UM","2018/07/02 08:09:18","新北市新莊區西盛街259號","121.42809","25.0158033333333","6500500","新莊區"
"242035","415-TV","2018/07/02 08:09:21","新北市新莊區建福路59巷28號","121.428013333333","25.02761","6500500","新莊區"
"242006","413-TV","2018/07/02 08:09:29","新北市新莊區福樂街132巷6號","121.456751666667","25.0482516666667","6500500","新莊區"
"242043","400-BY","2018/07/02 08:09:31","新北市新莊區中正路871巷9弄31號","121.419545","25.0269066666667","6500500","新莊區"
"242022","362-BY","2018/07/02 08:09:29","新北市新莊區民樂街37號","121.457765","25.0412683333333","6500500","新莊區"
"242059","353-BY","2018/07/02 08:09:28","新北市新莊區瓊林南路77-9號","121.434541666667","25.0134266666667","6500500","新莊區"
"242008","132-UY","2018/07/02 08:09:28","新北市新莊區昌明街14巷7弄3號","121.457226666667","25.053405","6500500","新莊區"
"242038","133-UY","2018/07/02 08:09:20","新北市新莊區民安路322號","121.428958333333","25.0220566666667","6500500","新莊區"
"242030","135-UY","2018/07/02 08:09:24","新北市新莊區新泰路321巷2弄1號","121.444723333333","25.0414033333333","6500500","新莊區"
"242047","172-VK","2018/07/02 08:09:24","新北市新莊區萬安街135號","121.420573333333","25.0221383333333","6500500","新莊區"
"242010","173-VK","2018/07/02 08:08:05","新北市新莊區中港路599號","121.451396666667","25.0529516666667","6500500","新莊區"
"242016","175-VK","2018/07/02 08:09:18","新北市新莊區復興路一段151號","121.450445","25.0432566666667","6500500","新莊區"
"242003","176-VK","2018/07/02 08:09:17","新北市新莊區自立街214巷7號","121.457198333333","25.04503","6500500","新莊區"
"242014","346-TH","2018/07/02 08:09:26","新北市新莊區新泰路406巷1弄2號","121.44433","25.0439316666667","6500500","新莊區"
"242020","348-TH","2018/07/02 08:09:19","新北市新莊區中華路一段180號","121.452661666667","25.041935","6500500","新莊區"
"242001","349-TH","2018/07/02 08:09:31","新北市新莊區新莊路301號","121.453338333333","25.0344033333333","6500500","新莊區"
"242018","350-TH","2018/07/02 08:09:29","新北市新莊區中港路259號","121.45384","25.0432483333333","6500500","新莊區"
"242012","351-TH","2018/07/02 08:09:28","新北市新莊區中誠街97號","121.449966666667","25.0477116666667","6500500","新莊區"
"242055","280-VK","2018/07/02 08:09:16","新北市新莊區新泰路3巷33號","121.44903","25.0320233333333","6500500","新莊區"
