"lineid","car","time","location","longitude","latitude","cityid","cityname"
"248005","653-BX","2018/07/02 08:39:22","新北市五股區明德路12巷16號","121.433285","25.0719083333333","6501500","五股區"
"232001","290-BY","2018/07/02 08:39:17","新北市坪林區大粗坑6-1號","121.731718333333","24.94928","6502000","坪林區"
"232012","291-BY","2018/07/02 08:39:17","新北市坪林區金瓜寮24-2號","121.680235","24.9080533333333","6502000","坪林區"
"232017","705-BZ","2018/07/02 08:29:27","新北市坪林區中心崙14號","121.773158333333","24.943675","6502000","坪林區"
"232005","758-BX","2018/07/02 08:39:16","新北市坪林區魚堀8-5號","121.709253333333","24.9068466666667","6502000","坪林區"
"244006","080-UY","2018/07/02 08:39:25","新北市林口區林口路141號","121.388498333333","25.08135","6501700","林口區"
"244001","248-BX","2018/07/02 08:39:31","新北市林口區嘉寶里15鄰43-2號","121.34196","25.108315","6501700","林口區"
"244018","403-UM","2018/07/02 08:39:29","新北市林口區公園路112號","121.370278333333","25.0711566666667","6501700","林口區"
"244012","742-UY","2018/07/02 08:39:15","新北市林口區中山路130號","121.392393333333","25.0786766666667","6501700","林口區"
"244008","410-SL","2018/07/02 08:39:10","新北市林口區竹林路582巷13號","121.386018333333","25.0833366666667","6501700","林口區"
"244022","483-VK","2018/07/02 08:39:23","新北市林口區興林路152巷24號","121.387501666667","25.0717383333333","6501700","林口區"
"244016","485-VK","2018/07/02 08:39:30","新北市林口區文化二路一段232號","121.369691666667","25.0725583333333","6501700","林口區"
"244010","657-BX","2018/07/02 08:39:28","新北市林口區中正路93號","121.394426666667","25.077235","6501700","林口區"
"244024","837-TS","2018/07/02 08:39:22","新北市林口區文化三路一段39巷11號","121.359833333333","25.0666783333333","6501700","林口區"
"244020","838-TS","2018/07/02 08:39:24","新北市林口區自強一街101號","121.400425","25.0767183333333","6501700","林口區"
"222005","289-BY","2018/07/02 08:39:27","新北市深坑區風格街31巷39號","121.627728333333","25.0179733333333","6501800","深坑區"
"231007","189-VK","2018/07/02 08:39:15","新北市新店區新潭路二段61號","121.5219","24.9263","6500600","新店區"
"231008","192-VK","2018/07/02 08:39:18","新北市新店區新烏路二段142號","121.548578333333","24.91857","6500600","新店區"
"231011","719-UY","2018/07/02 08:39:19","新北市新店區北宜路三段311-5號","121.607376666667","24.9583266666667","6500600","新店區"
"226005","5620-A6","2018/07/02 08:39:22","新北市平溪區南山里南山坪118-1號","121.783133333333","25.0441666666667","6502400","平溪區"
"226001","7418-A5","2018/07/02 08:39:27","新北市平溪區東勢里火燒寮36-1號","121.768475","24.986535","6502400","平溪區"
"226003","AGD-0702","2018/07/02 08:39:20","新北市平溪區新寮里新寮路1-1號","121.7907","25.0584316666667","6502400","平溪區"
"223006","022-BY","2018/07/02 08:39:15","新北市石碇區靜安路一段213號","121.6742","25.0098983333333","6501900","石碇區"
"223002","KEA-2673","2018/07/02 08:39:29","新北市石碇區烏塗窟37號","121.656998333333","24.97112","6501900","石碇區"
"223003","205-TH","2018/07/02 08:39:20","新北市石碇區北宜路六段塗潭巷56號","121.653836666667","24.9352933333333","6501900","石碇區"
"223008","406-TH","2018/07/02 08:39:24","新北市石碇區碇南路二段松柏崎巷32號","121.67646","25.02144","6501900","石碇區"
"223001","592-UM","2018/07/02 08:39:23","新北市石碇區北宜路六段直潭巷26號","121.65996","24.934095","6501900","石碇區"
"223004","660-BX","2018/07/02 08:39:26","新北市石碇區崩山29號","121.676655","24.9665033333333","6501900","石碇區"
"223007","661-BX","2018/07/02 08:39:22","新北市石碇區碇南路二段松柏崎巷12-1號","121.676075","25.0180766666667","6501900","石碇區"
"223005","677-TV","2018/07/02 08:39:23","新北市石碇區崩山26-1號","121.676701666667","24.9671316666667","6501900","石碇區"
"227005","282-VK","2018/07/02 08:39:13","新北市雙溪區外柑里三叉坑12號","121.830776666667","25.0009966666667","6502500","雙溪區"
"252006","073-UM","2018/07/02 08:38:55","新北市三芝區後厝里北勢子7-22號","121.478778333333","25.2531266666667","6502100","三芝區"
"252004","249-BX","2018/07/02 08:39:26","新北市三芝區興華里楓子林38號","121.49053","25.207935","6502100","三芝區"
"237001","159-UY","2018/07/02 08:39:21","新北市三峽區大德路91號","121.37703","24.943345","6500900","三峽區"
"236007","165-UM","2018/07/02 08:39:22","新北市土城區石門路61號","121.456888333333","24.962705","6501300","土城區"
"236001","339-SR","2018/07/02 08:39:13","新北市土城區中山路1號","121.412065","24.9603466666667","6501300","土城區"
"236005","498-BY","2018/07/02 08:39:23","新北市土城區永寧路12-2號","121.43034","24.9636433333333","6501300","土城區"
"242033","AAC-296","2018/07/02 08:39:21","新北市新莊區新豐街59號","121.446643333333","25.0335416666667","6500500","新莊區"
"242057","986-R7","2018/07/02 08:39:20","新北市新莊區新北大道七段788號","121.413183333333","25.024545","6500500","新莊區"
"242052","751-BX","2018/07/02 08:39:30","新北市新莊區西盛街395巷25弄13號","121.428368333333","25.0120266666667","6500500","新莊區"
"242026","615-BX","2018/07/02 08:39:29","新北市新莊區幸福路834號","121.445201666667","25.0490716666667","6500500","新莊區"
"242024","613-BX","2018/07/02 08:36:53","新北市新莊區五工一路98號","121.46038","25.0677816666667","6500500","新莊區"
"242028","612-BX","2018/07/02 08:39:29","新北市新莊區幸福路906號","121.44299","25.0490533333333","6500500","新莊區"
"242040","566-BX","2018/07/02 08:39:28","新北市新莊區天祥街71巷11號","121.415821666667","25.0289866666667","6500500","新莊區"
"242045","497-BY","2018/07/02 08:39:15","新北市新莊區福營路196號","121.430978333333","25.030635","6500500","新莊區"
"242049","442-UM","2018/07/02 08:39:22","新北市新莊區民本街27巷1號","121.428268333333","25.019245","6500500","新莊區"
"242035","415-TV","2018/07/02 08:39:21","新北市新莊區建福路48巷13號","121.425743333333","25.0273066666667","6500500","新莊區"
"242006","413-TV","2018/07/02 08:39:29","新北市新莊區思源路593巷26號","121.4581","25.059695","6500500","新莊區"
"242043","400-BY","2018/07/02 08:39:20","新北市新莊區鳳山街56巷21號","121.413893333333","25.02643","6500500","新莊區"
"242022","362-BY","2018/07/02 08:39:28","新北市新莊區化成路308號","121.46569","25.0481433333333","6500500","新莊區"
"242059","353-BY","2018/07/02 08:39:18","新北市新莊區新樹路52-26號","121.437455","25.0268466666667","6500500","新莊區"
"242008","132-UY","2018/07/02 08:39:28","新北市新莊區中原路179號","121.453451666667","25.05392","6500500","新莊區"
"242038","133-UY","2018/07/02 08:39:20","新北市新莊區民安路292號","121.428071666667","25.0217083333333","6500500","新莊區"
"242030","135-UY","2018/07/02 08:39:24","新北市新莊區新泰路357巷1弄51號","121.442738333333","25.0395866666667","6500500","新莊區"
"242047","172-VK","2018/07/02 08:39:24","新北市新莊區民安路37巷6號","121.423951666667","25.026695","6500500","新莊區"
"242010","173-VK","2018/07/02 08:39:26","新北市新莊區中榮街76號","121.448208333333","25.0529566666667","6500500","新莊區"
"242016","175-VK","2018/07/02 08:39:17","新北市新莊區中港路360號","121.451993333333","25.0469183333333","6500500","新莊區"
"242003","176-VK","2018/07/02 08:39:29","新北市新莊區化成路11巷36號","121.46365","25.043495","6500500","新莊區"
"242014","346-TH","2018/07/02 08:39:25","新北市新莊區中平路152巷17號","121.445638333333","25.0474133333333","6500500","新莊區"
"242020","348-TH","2018/07/02 08:38:59","新北市新莊區新興街40號","121.450785","25.0371983333333","6500500","新莊區"
"242001","349-TH","2018/07/02 08:39:21","新北市新莊區新莊路201號","121.45557","25.0356183333333","6500500","新莊區"
"242018","350-TH","2018/07/02 08:39:29","新北市新莊區中港路208號","121.45479","25.0426133333333","6500500","新莊區"
"242012","351-TH","2018/07/02 08:39:28","新北市新莊區中泰街86號","121.449573333333","25.0467666666667","6500500","新莊區"
"242055","280-VK","2018/07/02 08:39:24","新北市新莊區泰豐街1巷7號","121.448141666667","25.031025","6500500","新莊區"
