"lineid","car","time","location","longitude","latitude","cityid","cityname"
"248005","653-BX","2018/07/02 09:09:19","新北市五股區水碓路28號","121.433173333333","25.0728433333333","6501500","五股區"
"232012","291-BY","2018/07/02 09:09:28","新北市坪林區北宜路八段6號","121.700281666667","24.9364316666667","6502000","坪林區"
"232005","758-BX","2018/07/02 09:09:16","新北市坪林區鶯子瀨11-6號","121.709013333333","24.9153666666667","6502000","坪林區"
"244006","080-UY","2018/07/02 09:09:25","新北市林口區林口路296號","121.386076666667","25.08546","6501700","林口區"
"244018","403-UM","2018/07/02 09:09:29","新北市林口區文化一路一段124號","121.375101666667","25.0723616666667","6501700","林口區"
"244012","742-UY","2018/07/02 09:09:15","新北市林口區中正路514巷4弄2號","121.381996666667","25.0777216666667","6501700","林口區"
"244008","410-SL","2018/07/02 09:09:10","新北市林口區文林一街115巷20號","121.378911666667","25.08768","6501700","林口區"
"244022","483-VK","2018/07/02 09:09:23","新北市林口區隆林街215巷26號","121.383606666667","25.0732233333333","6501700","林口區"
"244016","485-VK","2018/07/02 09:09:30","新北市林口區公園路35號","121.367101666667","25.0680366666667","6501700","林口區"
"244010","657-BX","2018/07/02 09:09:28","新北市林口區仁愛路一段330-1號","121.391441666667","25.07691","6501700","林口區"
"244024","837-TS","2018/07/02 09:09:22","新北市林口區忠孝一路182號","121.358958333333","25.074355","6501700","林口區"
"244020","838-TS","2018/07/02 09:09:24","新北市林口區工六路100號","121.401206666667","25.0766616666667","6501700","林口區"
"222005","289-BY","2018/07/02 09:09:07","新北市深坑區土庫尖路75-1號","121.631265","25.0182083333333","6501800","深坑區"
"231007","189-VK","2018/07/02 09:09:15","新北市新店區新潭路三段215巷25號","121.508145","24.9040583333333","6500600","新店區"
"231008","192-VK","2018/07/02 09:09:17","新北市新店區廣興路60巷36弄6號","121.544825","24.915715","6500600","新店區"
"231011","719-UY","2018/07/02 09:09:19","新北市新店區雙峰路27號","121.5848","24.9438166666667","6500600","新店區"
"226001","7418-A5","2018/07/02 08:52:47","新北市平溪區東勢里番仔坑17號","121.751878333333","24.9897733333333","6502400","平溪區"
"226003","AGD-0702","2018/07/02 09:09:20","新北市平溪區望古里望古坑26號","121.763338333333","25.0343866666667","6502400","平溪區"
"223006","022-BY","2018/07/02 09:06:09","新北市深坑區昇高坑路51-1號","121.63037","24.9939983333333","6501900","石碇區"
"223003","205-TH","2018/07/02 09:09:20","新北市石碇區北宜路六段水底寮巷1號","121.657393333333","24.945255","6501900","石碇區"
"223008","406-TH","2018/07/02 09:09:23","新北市石碇區光明路13號","121.680065","25.0336316666667","6501900","石碇區"
"223001","592-UM","2018/07/02 09:09:23","新北市石碇區北宜路六段水底寮巷1號","121.658958333333","24.9453833333333","6501900","石碇區"
"223004","660-BX","2018/07/02 09:09:26","新北市石碇區崩山53號","121.682366666667","24.9688516666667","6501900","石碇區"
"223007","661-BX","2018/07/02 09:09:22","新北市石碇區光明路13號","121.680113333333","25.0336483333333","6501900","石碇區"
"223005","677-TV","2018/07/02 09:09:30","新北市石碇區崩山53號","121.682388333333","24.9688866666667","6501900","石碇區"
"227005","282-VK","2018/07/02 09:09:12","新北市雙溪區泰平里料角坑13-1號","121.816033333333","24.9731816666667","6502500","雙溪區"
"252006","073-UM","2018/07/02 09:09:15","新北市三芝區淡金路二段76號","121.503425","25.2614383333333","6502100","三芝區"
"252004","249-BX","2018/07/02 09:09:26","新北市淡水區大埤頭1-2號","121.492855","25.1945466666667","6502100","三芝區"
"237001","159-UY","2018/07/02 09:08:41","新北市樹林區中山路三段210-2號","121.38059","24.9677416666667","6500900","三峽區"
"236007","165-UM","2018/07/02 09:09:22","新北市土城區金城路一段1號","121.439088333333","24.968875","6501300","土城區"
"236001","339-SR","2018/07/02 09:09:13","新北市土城區和平路79號","121.4443","24.9710133333333","6501300","土城區"
"236005","498-BY","2018/07/02 09:09:22","新北市土城區中央路三段76巷48號","121.435633333333","24.96914","6501300","土城區"
"242033","AAC-296","2018/07/02 09:09:21","新北市新莊區建中街81巷10弄5號","121.447033333333","25.0363483333333","6500500","新莊區"
"242057","986-R7","2018/07/02 09:09:17","新北市新莊區八德街45號","121.42489","25.0222316666667","6500500","新莊區"
"242052","751-BX","2018/07/02 09:09:30","新北市新莊區西盛街394號","121.427663333333","25.0127","6500500","新莊區"
"242026","615-BX","2018/07/02 09:09:29","新北市新莊區幸福路66號","121.457068333333","25.0495033333333","6500500","新莊區"
"242024","613-BX","2018/07/02 09:07:53","新北市新莊區五工二路53號","121.460748333333","25.065315","6500500","新莊區"
"242028","612-BX","2018/07/02 09:09:29","新北市新莊區中原路191號","121.45216","25.0540083333333","6500500","新莊區"
"242040","566-BX","2018/07/02 09:09:18","新北市新莊區壽山路49號","121.414371666667","25.0312","6500500","新莊區"
"242045","497-BY","2018/07/02 09:09:15","新北市新莊區富國路77巷9號","121.420355","25.0262883333333","6500500","新莊區"
"242049","442-UM","2018/07/02 09:09:25","新北市新莊區西盛街246巷3號","121.427771666667","25.0160083333333","6500500","新莊區"
"242035","415-TV","2018/07/02 09:09:21","新北市新莊區後港一路130巷31號","121.429971666667","25.026095","6500500","新莊區"
"242006","413-TV","2018/07/02 09:09:29","新北市新莊區思源路287巷16號","121.45874","25.048275","6500500","新莊區"
"242043","400-BY","2018/07/02 09:09:20","新北市新莊區中正路929巷21號","121.411175","25.02019","6500500","新莊區"
"242022","362-BY","2018/07/02 09:09:22","新北市新莊區化成路940號","121.46486","25.06283","6500500","新莊區"
"242059","353-BY","2018/07/02 09:09:18","新北市新莊區瓊林路204號","121.438501666667","25.0208133333333","6500500","新莊區"
"242008","132-UY","2018/07/02 09:09:28","新北市新莊區昌隆街73號","121.457158333333","25.05103","6500500","新莊區"
"242038","133-UY","2018/07/02 09:09:20","新北市新莊區龍安路481號","121.425548333333","25.0182283333333","6500500","新莊區"
"242030","135-UY","2018/07/02 09:09:24","新北市新莊區中正路352號","121.443978333333","25.0344333333333","6500500","新莊區"
"242047","172-VK","2018/07/02 09:09:30","新北市新莊區四維路182巷4號","121.422076666667","25.0217766666667","6500500","新莊區"
"242010","173-VK","2018/07/02 09:08:06","新北市新莊區中和街155巷24弄85號","121.446695","25.05173","6500500","新莊區"
"242016","175-VK","2018/07/02 09:09:17","新北市新莊區新泰路357巷3弄1號","121.442473333333","25.0413883333333","6500500","新莊區"
"242003","176-VK","2018/07/02 09:09:23","新北市新莊區頭興街52號","121.463803333333","25.0536033333333","6500500","新莊區"
"242014","346-TH","2018/07/02 09:09:25","新北市新莊區永樂街254號","121.445468333333","25.0444916666667","6500500","新莊區"
"242055","347-TH","2018/07/02 09:09:24","新北市新莊區新泰路89號","121.448888333333","25.034395","6500500","新莊區"
"242020","348-TH","2018/07/02 09:09:19","新北市新莊區新泰路275號","121.445755","25.0404666666667","6500500","新莊區"
"242001","349-TH","2018/07/02 09:09:14","新北市新莊區思源路23號","121.46031","25.0389133333333","6500500","新莊區"
"242018","350-TH","2018/07/02 09:09:29","新北市新莊區銘德街81號","121.456295","25.0435216666667","6500500","新莊區"
"242012","351-TH","2018/07/02 09:09:28","新北市新莊區中平路274-2號","121.445021666667","25.0504116666667","6500500","新莊區"
