"lineid","car","time","location","longitude","latitude","cityid","cityname"
"244022","483-VK","2018/07/02 11:09:03","新北市林口區太平里180號","121.368445","25.1343516666667","6501700","林口區"
"244011","657-BX","2018/07/02 11:02:26","新北市林口區粉寮路二段160巷28號","121.405196666667","25.0908033333333","6501700","林口區"
"231007","189-VK","2018/07/02 11:09:15","新北市新店區新潭路一段120巷16號","121.527218333333","24.9358933333333","6500600","新店區"
"231008","192-VK","2018/07/02 11:09:17","新北市新店區成功路150號","121.532711666667","24.891395","6500600","新店區"
"235029","098-UM","2018/07/02 11:09:15","新北市中和區員山路36巷16-3號","121.485003333333","24.9912766666667","6500300","中和區"
"227005","282-VK","2018/07/02 11:09:32","新北市雙溪區泰平里泰平1-5號","121.84759","24.994555","6502500","雙溪區"
"237001","159-UY","2018/07/02 11:09:21","新北市三峽區中山路459巷163-1號","121.349303333333","24.9334133333333","6500900","三峽區"
