"lineid","car","time","location","longitude","latitude","cityid","cityname"
"244019","403-UM","2018/07/02 11:19:28","新北市林口區粉寮69號","121.405088333333","25.0908","6501700","林口區"
"244022","483-VK","2018/07/02 11:19:23","新北市八里區中華路三段170-1號","121.39219","25.1301816666667","6501700","林口區"
"244011","657-BX","2018/07/02 11:02:26","新北市林口區粉寮路二段160巷28號","121.405196666667","25.0908033333333","6501700","林口區"
"231007","189-VK","2018/07/02 11:19:15","新北市新店區華潭街20號","121.52928","24.952545","6500600","新店區"
"231008","192-VK","2018/07/02 11:19:18","新北市新店區成功路50巷1號","121.544253333333","24.90304","6500600","新店區"
"235029","098-UM","2018/07/02 11:19:34","新北市中和區員山路36巷16-3號","121.48503","24.991285","6500300","中和區"
"227005","282-VK","2018/07/02 11:19:12","新北市雙溪區魚行里丁子蘭坑21號","121.85836","25.017755","6502500","雙溪區"
"237001","159-UY","2018/07/02 11:19:21","新北市三峽區中山路459巷163-1號","121.349308333333","24.9333916666667","6500900","三峽區"
