"lineid","car","time","location","longitude","latitude","cityid","cityname"
"244019","403-UM","2018/07/02 11:29:28","新北市林口區粉寮69號","121.405078333333","25.09078","6501700","林口區"
"244022","483-VK","2018/07/02 11:29:03","新北市八里區長道坑34號","121.39925","25.09143","6501700","林口區"
"244011","657-BX","2018/07/02 11:02:26","新北市林口區粉寮路二段160巷28號","121.405196666667","25.0908033333333","6501700","林口區"
"231007","189-VK","2018/07/02 11:29:35","新北市新店區安康路二段161號","121.510171666667","24.9594533333333","6500600","新店區"
"231008","192-VK","2018/07/02 11:29:17","新北市新店區新烏路二段300號","121.548525","24.9129166666667","6500600","新店區"
"235029","098-UM","2018/07/02 11:29:34","新北市中和區員山路36巷16-3號","121.485026666667","24.991275","6500300","中和區"
"227005","282-VK","2018/07/02 11:28:03","新北市雙溪區魚行里丁子蘭坑7號","121.872353333333","25.00649","6502500","雙溪區"
"237001","159-UY","2018/07/02 11:29:21","新北市三峽區中山路459巷163-1號","121.349308333333","24.933405","6500900","三峽區"
