"lineid","car","time","location","longitude","latitude","cityid","cityname"
"234044","148-BY","2018/07/02 12:59:23","新北市永和區得和路373巷16弄1號","121.525115","25.000315","6500400","永和區"
"234005","207-UY","2018/07/02 12:59:33","新北市永和區中山路一段23號","121.513708333333","25.0104366666667","6500400","永和區"
"234078","298-R6","2018/07/02 12:59:27","新北市永和區國中路208號","121.522145","25.00586","6500400","永和區"
"234036","336-UY","2018/07/02 12:59:25","新北市中和區秀朗路三段38號","121.526513333333","24.9959316666667","6500400","永和區"
"234062","337-UY","2018/07/02 12:59:37","新北市永和區秀朗路一段146號","121.518306666667","25.003395","6500400","永和區"
"234084","338-UY","2018/07/02 12:59:31","新北市永和區永寧街133巷2號","121.518121666667","25.0048116666667","6500400","永和區"
"234068","552-UM","2018/07/02 12:59:37","新北市永和區中興街84巷8號","121.518538333333","25.0116683333333","6500400","永和區"
"234015","745-BX","2018/07/02 12:59:34","新北市永和區永和路二段299號","121.516041666667","25.016125","6500400","永和區"
"234028","746-BX","2018/07/02 12:59:34","新北市永和區秀朗路二段289號","121.526178333333","24.9980766666667","6500400","永和區"
"234052","KEA-2590","2018/07/02 12:59:20","新北市永和區竹林路66巷2號","121.518328333333","25.013325","6500400","永和區"
"234012","KEA-2591","2018/07/02 12:59:34","新北市永和區信義路14-1號","121.514271666667","25.0120983333333","6500400","永和區"
"234060","AAD-866","2018/07/02 12:59:36","新北市永和區福和路303號","121.516358333333","25.0072533333333","6500400","永和區"
"234040","862-TW","2018/07/02 12:59:21","新北市永和區永貞路306號","121.511938333333","25.0048683333333","6500400","永和區"
"234048","863-TW","2018/07/02 12:59:30","新北市永和區文化路190號","121.510923333333","25.0161633333333","6500400","永和區"
"234025","9371-KE","2018/07/02 12:59:29","新北市永和區水源街2巷22號","121.512128333333","25.0056533333333","6500400","永和區"
"234010","9373-KE","2018/07/02 12:59:21","新北市永和區文化路113巷25號","121.513123333333","25.0139233333333","6500400","永和區"
"248005","077-UY","2018/07/02 12:59:36","新北市五股區中興路二段83巷26-6號","121.460016666667","25.0750916666667","6501500","五股區"
"248007","095-VK","2018/07/02 12:59:23","新北市五股區中興路二段150號","121.458621666667","25.0785616666667","6501500","五股區"
"248019","225-UY","2018/07/02 12:59:37","新北市五股區中興路二段83巷26-6號","121.460063333333","25.075175","6501500","五股區"
"248011","247-BX","2018/07/02 12:59:35","新北市五股區中興路二段83巷26-6號","121.46011","25.0750816666667","6501500","五股區"
"248013","261-SL","2018/07/02 12:59:34","新北市五股區中興路二段163號","121.45762","25.0776616666667","6501500","五股區"
"248001","678-BX","2018/07/02 12:59:29","新北市五股區中興路二段83巷26-6號","121.459446666667","25.075475","6501500","五股區"
"248009","682-TV","2018/07/02 12:59:23","新北市五股區中興路二段63巷17號","121.460266666667","25.075275","6501500","五股區"
"234022","9380-KE","2018/07/02 12:59:22","新北市永和區竹林路75巷47號","121.520893333333","25.014425","6500400","永和區"
"234076","969-R7","2018/07/02 12:59:38","新北市永和區民享街3號","121.515138333333","24.9955783333333","6500400","永和區"
"234072","AAC-211","2018/07/02 12:59:33","新北市永和區環河東路二段98號","121.524086666667","25.0103583333333","6500400","永和區"
"234066","AAC-212","2018/07/02 12:59:33","新北市永和區自由街55號","121.513636666667","25.005565","6500400","永和區"
"234001","AAC-295","2018/07/02 12:59:08","新北市永和區永平路20號","121.513541666667","25.0088333333333","6500400","永和區"
"243005","AAD-798","2018/07/02 12:59:36","新北市泰山區黎明路25號","121.422068333333","25.06078","6501600","泰山區"
"231002","002-UM","2018/07/02 12:59:33","新北市新店區安華路28-1號","121.519731666667","24.9607533333333","6500600","新店區"
"231028","046-UY","2018/07/02 12:59:27","新北市新店區安華路28-1號","121.51951","24.9607516666667","6500600","新店區"
"231001","047-UY","2018/07/02 12:59:28","新北市新店區安一路一段1-1號","121.51928","24.9609916666667","6500600","新店區"
"231005","106-UY","2018/07/02 12:59:33","新北市新店區安華路28-1號","121.519648333333","24.9607966666667","6500600","新店區"
"231011","187-VK","2018/07/02 12:59:29","新北市新店區安一路一段1-1號","121.51961","24.9611883333333","6500600","新店區"
"231010","188-VK","2018/07/02 12:59:32","新北市新店區安一路一段1-1號","121.519306666667","24.9613133333333","6500600","新店區"
"231023","KEA-2219","2018/07/02 12:59:34","新北市新店區安一路一段1-1號","121.519868333333","24.961115","6500600","新店區"
"231003","268-BY","2018/07/02 12:59:37","新北市新店區安華路28-1號","121.519453333333","24.9606283333333","6500600","新店區"
"231018","278-BY","2018/07/02 12:59:35","新北市新店區安一路一段1-1號","121.519696666667","24.9611766666667","6500600","新店區"
"231037","4716-K9","2018/07/02 12:59:31","新北市新店區安一路一段1-1號","121.51933","24.9611816666667","6500600","新店區"
"231025","4715-K9","2018/07/02 12:59:29","新北市新店區安華路28-1號","121.519323333333","24.960745","6500600","新店區"
"231036","512-UM","2018/07/02 12:59:36","新北市新店區安一路一段1-1號","121.519595","24.9613016666667","6500600","新店區"
"231013","513-UM","2018/07/02 12:59:29","新北市新店區安一路一段1-1號","121.519613333333","24.9611233333333","6500600","新店區"
"231030","619-UM","2018/07/02 12:59:32","新北市新店區安華路28-1號","121.519575","24.96103","6500600","新店區"
"231034","641-BX","2018/07/02 12:59:24","新北市新店區安一路一段1-1號","121.519773333333","24.9616016666667","6500600","新店區"
"231035","719-UM","2018/07/02 12:59:30","新北市新店區安一路一段1-1號","121.51951","24.961445","6500600","新店區"
"231031","720-UM","2018/07/02 12:59:25","新北市新店區安一路一段1-1號","121.518836666667","24.9612066666667","6500600","新店區"
"231029","897-TW","2018/07/02 12:59:29","新北市新店區安華路28-1號","121.519693333333","24.960755","6500600","新店區"
"231004","899-TW","2018/07/02 12:59:22","新北市新店區安華路28-1號","121.518886666667","24.9608583333333","6500600","新店區"
"231024","AKT-0513","2018/07/02 12:59:20","新北市新店區安華路28-1號","121.51954","24.960565","6500600","新店區"
"235028","005-UY","2018/07/02 12:59:35","新北市中和區員山路36巷16-3號","121.485113333333","24.99126","6500300","中和區"
"235003","097-UM","2018/07/02 12:59:29","新北市中和區員山路36巷16-2號","121.485376666667","24.99166","6500300","中和區"
"235029","098-UM","2018/07/02 12:59:33","新北市中和區橋和路270號","121.495731666667","25.00641","6500300","中和區"
"235022","151-BY","2018/07/02 12:59:28","新北市中和區圓通路367巷3號","121.492135","24.9883116666667","6500300","中和區"
"235002","185-VK","2018/07/02 12:59:30","新北市中和區成功路25號","121.526195","24.9935683333333","6500300","中和區"
"235031","255-BX","2018/07/02 12:59:33","新北市中和區新生街13巷1-1號","121.483413333333","25.0043","6500300","中和區"
"235006","KEA-2878","2018/07/02 12:59:29","新北市中和區和城路一段271巷1號","121.485396666667","24.99176","6500300","中和區"
"235018","640-BX","2018/07/02 12:59:35","新北市中和區連城路599號","121.478641666667","24.9932483333333","6500300","中和區"
"235024","647-TV","2018/07/02 12:59:26","新北市中和區員山路36巷16-3號","121.484833333333","24.9916466666667","6500300","中和區"
"235010","733-UM","2018/07/02 12:59:25","新北市中和區員山路36巷13號","121.484176666667","24.9909816666667","6500300","中和區"
"235035","783-BX","2018/07/02 12:59:24","新北市中和區橋和路2-1號","121.488705","25.0050683333333","6500300","中和區"
"235005","802-TS","2018/07/02 12:59:38","新北市中和區員山路36巷16-2號","121.485253333333","24.9917016666667","6500300","中和區"
"235017","900-TW","2018/07/02 12:59:31","新北市中和區員山路36巷16-3號","121.484846666667","24.9919216666667","6500300","中和區"
"235015","157-BY","2018/07/02 12:59:23","新北市中和區中正路507號","121.488505","24.9935","6500300","中和區"
"235001","AAC-213","2018/07/02 12:59:36","新北市中和區錦和路350-1號","121.490588333333","24.9935366666667","6500300","中和區"
"253001","6251-TK","2018/07/02 12:59:17","新北市石門區中山路64-1號","121.56753","25.290355","6502200","石門區"
"253004","8270-PC","2018/07/02 12:59:27","新北市石門區中山路64-1號","121.56753","25.2905483333333","6502200","石門區"
"207002","749-BX","2018/07/02 12:59:28","新北市萬里區雙興里大坪路39號","121.625366666667","25.1714783333333","6502800","萬里區"
"252005","073-UM","2018/07/02 12:59:27","新北市三芝區埔坪里埔頭坑107號","121.504636666667","25.2617483333333","6502100","三芝區"
"207001","662-BX","2018/07/02 12:59:22","新北市萬里區萬里里獅頭路22-1號","121.693088333333","25.17821","6502800","萬里區"
"237001","159-UY","2018/07/02 12:59:21","新北市三峽區中山路459巷163-1號","121.3493","24.9334083333333","6500900","三峽區"
"236005","498-BY","2018/07/02 12:59:22","新北市土城區亞洲路30號","121.436103333333","24.974275","6501300","土城區"
"242047","172-VK","2018/07/02 12:59:34","新北市新莊區中平路26巷42號","121.44669","25.043245","6500500","新莊區"
"221032","280-BY","2018/07/02 12:59:34","新北市汐止區建成路39號","121.663015","25.0729233333333","6501100","汐止區"
"241031","AAD-800","2018/07/02 12:59:30","新北市板橋區民生路二段89-6號","121.470431666667","25.0192716666667","6500200","三重區"
