"lineid","car","time","location","longitude","latitude","cityid","cityname"
"234044","148-BY","2018/07/02 13:09:22","新北市永和區永元路18巷18號","121.523161666667","25.000215","6500400","永和區"
"234005","207-UY","2018/07/02 13:09:33","新北市永和區中山路一段197號","121.50912","25.00877","6500400","永和區"
"234078","298-R6","2018/07/02 13:09:27","新北市永和區永亨路83號","121.521975","25.0057883333333","6500400","永和區"
"234036","336-UY","2018/07/02 13:09:26","新北市永和區民樂街73巷1號","121.527395","24.9973033333333","6500400","永和區"
"234062","337-UY","2018/07/02 13:09:37","新北市永和區秀朗路二段17號","121.52102","25.0026683333333","6500400","永和區"
"234084","338-UY","2018/07/02 13:09:24","新北市永和區永貞路158號","121.517613333333","25.0046","6500400","永和區"
"234068","552-UM","2018/07/02 13:09:33","新北市永和區豫溪街95巷7號","121.518253333333","25.0105","6500400","永和區"
"234015","745-BX","2018/07/02 13:09:38","新北市永和區文化路90巷15弄1號","121.51383","25.01592","6500400","永和區"
"234028","746-BX","2018/07/02 13:09:22","新北市永和區民生路27號","121.523026666667","24.9984533333333","6500400","永和區"
"234052","KEA-2590","2018/07/02 13:09:24","新北市永和區中興街133巷16號","121.51829","25.0125933333333","6500400","永和區"
"234012","KEA-2591","2018/07/02 13:09:34","新北市永和區保福路二段30號","121.51105","25.011685","6500400","永和區"
"234060","AAD-866","2018/07/02 13:09:26","新北市永和區安樂路304巷2號","121.514505","25.0049266666667","6500400","永和區"
"234040","862-TW","2018/07/02 13:09:35","新北市永和區保平路93巷2弄10號","121.511135","25.0064533333333","6500400","永和區"
"234048","863-TW","2018/07/02 13:09:30","新北市永和區仁愛路104巷7弄56號","121.510981666667","25.0141383333333","6500400","永和區"
"234025","9371-KE","2018/07/02 13:09:29","新北市永和區永和路一段72巷4號","121.51343","25.0061033333333","6500400","永和區"
"234010","9373-KE","2018/07/02 13:09:21","新北市永和區永和路二段231巷1號","121.515168333333","25.0140533333333","6500400","永和區"
"248015","026-BX","2018/07/02 13:09:33","新北市五股區新五路三段2號","121.444448333333","25.0881316666667","6501500","五股區"
"248005","077-UY","2018/07/02 13:09:36","新北市五股區中興路二段81號","121.460786666667","25.0772083333333","6501500","五股區"
"248007","095-VK","2018/07/02 13:09:23","新北市五股區更洲路32巷15弄9號","121.458183333333","25.08049","6501500","五股區"
"248019","225-UY","2018/07/02 13:09:17","新北市五股區成泰路三段544-18號","121.453138333333","25.1036266666667","6501500","五股區"
"248011","247-BX","2018/07/02 13:09:35","新北市五股區中興路三段198號","121.441715","25.08195","6501500","五股區"
"248013","261-SL","2018/07/02 13:09:34","新北市五股區成泰路二段86號","121.43746","25.0824883333333","6501500","五股區"
"248003","677-BX","2018/07/02 13:09:34","新北市五股區成泰路二段140號","121.438156666667","25.0837966666667","6501500","五股區"
"248001","678-BX","2018/07/02 13:09:29","新北市五股區新城一路12號","121.441213333333","25.0830466666667","6501500","五股區"
"248009","682-TV","2018/07/02 13:09:23","新北市五股區新五路二段258號","121.440733333333","25.082185","6501500","五股區"
"234022","9380-KE","2018/07/02 13:09:25","新北市永和區勵行街84巷14號","121.516361666667","25.0124416666667","6500400","永和區"
"234076","969-R7","2018/07/02 13:09:21","新北市永和區民光街1號","121.515225","24.9964466666667","6500400","永和區"
"234072","AAC-211","2018/07/02 13:09:26","新北市永和區竹林路160號","121.52019","25.0105666666667","6500400","永和區"
"234066","AAC-212","2018/07/02 13:09:33","新北市永和區永和路一段67號","121.512928333333","25.0072333333333","6500400","永和區"
"234001","AAC-295","2018/07/02 13:09:28","新北市永和區中山路一段66號","121.512661666667","25.0106983333333","6500400","永和區"
"243005","AAD-798","2018/07/02 13:08:55","新北市泰山區南林路89-4號","121.415515","25.0512616666667","6501600","泰山區"
"231002","002-UM","2018/07/02 13:09:34","新北市新店區安華路28-1號","121.519655","24.9608083333333","6500600","新店區"
"231028","046-UY","2018/07/02 13:09:27","新北市新店區安華路28-1號","121.51956","24.9609116666667","6500600","新店區"
"231001","047-UY","2018/07/02 13:09:28","新北市新店區安華路28-1號","121.519271666667","24.96092","6500600","新店區"
"231005","106-UY","2018/07/02 13:09:32","新北市新店區安華路28-1號","121.51963","24.9607916666667","6500600","新店區"
"231011","187-VK","2018/07/02 13:09:29","新北市新店區安一路一段1-1號","121.519583333333","24.9611983333333","6500600","新店區"
"231010","188-VK","2018/07/02 13:09:32","新北市新店區安一路一段1-1號","121.519351666667","24.9614366666667","6500600","新店區"
"231023","KEA-2219","2018/07/02 13:09:34","新北市新店區安一路一段1-1號","121.519788333333","24.9611266666667","6500600","新店區"
"231026","256-BX","2018/07/02 13:09:38","新北市新店區安一路一段1-1號","121.519668333333","24.9611733333333","6500600","新店區"
"231003","268-BY","2018/07/02 13:09:17","新北市新店區安華路28-1號","121.519435","24.9606283333333","6500600","新店區"
"231018","278-BY","2018/07/02 13:07:09","新北市新店區安康路一段299-1號","121.52222","24.9636883333333","6500600","新店區"
"231014","AAD-862","2018/07/02 13:09:35","新北市新店區安一路一段1-1號","121.5202","24.9611683333333","6500600","新店區"
"231037","4716-K9","2018/07/02 13:09:31","新北市新店區安華路28-1號","121.519695","24.961","6500600","新店區"
"231025","4715-K9","2018/07/02 13:09:29","新北市新店區安一路一段1-1號","121.519805","24.9621116666667","6500600","新店區"
"231036","512-UM","2018/07/02 13:09:36","新北市新店區安一路一段1-1號","121.519316666667","24.96124","6500600","新店區"
"231013","513-UM","2018/07/02 13:09:29","新北市新店區安一路一段1-1號","121.519588333333","24.96117","6500600","新店區"
"231030","619-UM","2018/07/02 13:09:33","新北市新店區安華路28-1號","121.519536666667","24.9609466666667","6500600","新店區"
"231034","641-BX","2018/07/02 13:09:24","新北市新店區安華路1-1號","121.519555","24.960355","6500600","新店區"
"231035","719-UM","2018/07/02 13:09:30","新北市新店區安一路一段1-1號","121.519531666667","24.9614083333333","6500600","新店區"
"231031","720-UM","2018/07/02 13:09:25","新北市新店區安康路一段359-27號","121.518676666667","24.961295","6500600","新店區"
"231029","897-TW","2018/07/02 13:09:29","新北市新店區安華路28-1號","121.519653333333","24.96072","6500600","新店區"
"231006","898-TW","2018/07/02 13:09:27","新北市新店區安華路28-1號","121.51937","24.9609966666667","6500600","新店區"
"231004","899-TW","2018/07/02 13:09:22","新北市新店區安華路28-1號","121.519006666667","24.960815","6500600","新店區"
"231024","AKT-0513","2018/07/02 13:09:20","新北市新店區安華路28-1號","121.519471666667","24.9605666666667","6500600","新店區"
"235028","005-UY","2018/07/02 13:09:35","新北市中和區中正路277號","121.49538","24.9938283333333","6500300","中和區"
"235027","006-UY","2018/07/02 13:09:31","新北市中和區員山路36巷16-3號","121.484985","24.9914133333333","6500300","中和區"
"235003","097-UM","2018/07/02 13:09:29","新北市中和區和城路一段271巷1號","121.485471666667","24.99167","6500300","中和區"
"235029","098-UM","2018/07/02 13:09:33","新北市中和區莊敬路49巷20弄24號","121.502923333333","25.0058566666667","6500300","中和區"
"235004","150-BY","2018/07/02 13:09:25","新北市中和區員山路36巷16-2號","121.48539","24.9915133333333","6500300","中和區"
"235022","151-BY","2018/07/02 13:09:28","新北市中和區圓通路367巷29號","121.492483333333","24.9854933333333","6500300","中和區"
"235002","185-VK","2018/07/02 13:09:30","新北市中和區大仁街36號","121.517828333333","24.993695","6500300","中和區"
"235031","255-BX","2018/07/02 13:09:33","新北市中和區中正路765號","121.484201666667","25.0001566666667","6500300","中和區"
"235007","352-BY","2018/07/02 13:09:36","新北市中和區中正路637巷60弄61號","121.485446666667","24.9932466666667","6500300","中和區"
"235006","KEA-2878","2018/07/02 13:09:29","新北市中和區景平路255號","121.50864","24.99292","6500300","中和區"
"235034","558-UM","2018/07/02 13:09:27","新北市中和區圓通路207號","121.497118333333","24.99445","6500300","中和區"
"235009","565-BX","2018/07/02 13:09:24","新北市中和區員山路36巷13號","121.484188333333","24.9910616666667","6500300","中和區"
"235018","640-BX","2018/07/02 13:09:35","新北市中和區國光街107巷4弄30號","121.46938","24.998915","6500300","中和區"
"235024","647-TV","2018/07/02 13:09:26","新北市中和區員山路36巷16-3號","121.484875","24.9914866666667","6500300","中和區"
"235010","733-UM","2018/07/02 13:09:25","新北市中和區員山路36巷13號","121.484165","24.9909216666667","6500300","中和區"
"235035","783-BX","2018/07/02 13:09:24","新北市中和區板南路520巷15號","121.483718333333","25.00888","6500300","中和區"
"235026","800-TS","2018/07/02 13:09:37","新北市中和區建八路16號","121.486906666667","24.998635","6500300","中和區"
"235021","801-TS","2018/07/02 13:09:35","新北市中和區員山路36巷16-3號","121.484841666667","24.991735","6500300","中和區"
"235005","802-TS","2018/07/02 13:09:18","新北市中和區中正路277-6號","121.495066666667","24.9938716666667","6500300","中和區"
"235016","805-TS","2018/07/02 13:09:24","新北市中和區板南路150號","121.501995","24.9926566666667","6500300","中和區"
"235012","896-TW","2018/07/02 13:09:27","新北市中和區員山路36巷16-3號","121.484933333333","24.9919116666667","6500300","中和區"
"235017","900-TW","2018/07/02 13:09:31","新北市中和區員山路36巷16-3號","121.484923333333","24.9919283333333","6500300","中和區"
"235015","157-BY","2018/07/02 13:09:23","新北市中和區捷運路3號","121.509628333333","24.989415","6500300","中和區"
"235001","AAC-213","2018/07/02 13:09:36","新北市中和區景平路149號","121.513911666667","24.9921716666667","6500300","中和區"
"235011","251-BX","2018/07/02 13:09:24","新北市中和區中興街124-1號","121.499843333333","24.9929733333333","6500300","中和區"
"253003","6232-TK","2018/07/02 13:05:53","新北市石門區石崩山1號","121.56339","25.285855","6502200","石門區"
"253001","6251-TK","2018/07/02 13:09:37","新北市石門區老梅路43-2號","121.545438333333","25.2895633333333","6502200","石門區"
"253002","637-UY","2018/07/02 13:09:25","新北市石門區九芎林3-1號","121.556848333333","25.2736916666667","6502200","石門區"
"253004","8270-PC","2018/07/02 13:09:27","新北市石門區阿里荖33-1號","121.60668","25.28097","6502200","石門區"
"207002","749-BX","2018/07/02 13:09:28","新北市萬里區崁腳里內崁路2-3號","121.638941666667","25.160505","6502800","萬里區"
"252005","073-UM","2018/07/02 13:09:27","新北市三芝區八賢里八連溪6號","121.510025","25.2452433333333","6502100","三芝區"
"207001","662-BX","2018/07/02 13:09:22","新北市萬里區萬里里瑪鋉路145-1號","121.689763333333","25.17805","6502800","萬里區"
"237001","159-UY","2018/07/02 13:09:20","新北市三峽區中山路459巷163-1號","121.349278333333","24.9334366666667","6500900","三峽區"
"236005","498-BY","2018/07/02 13:09:22","新北市土城區亞洲路58巷3弄6號","121.434733333333","24.9736566666667","6501300","土城區"
"242047","172-VK","2018/07/02 13:09:34","新北市新莊區立信三街39號","121.44337","25.0510183333333","6500500","新莊區"
"221032","280-BY","2018/07/02 13:09:34","新北市汐止區大同路二段364號","121.657473333333","25.0672416666667","6501100","汐止區"
"220010","295-UM","2018/07/02 13:09:35","新北市板橋區民生路二段120號","121.470475","25.0197033333333","6500100","板橋區"
"241031","AAD-800","2018/07/02 13:09:30","新北市板橋區文化路二段656號","121.481435","25.0390216666667","6500200","三重區"
"235032","KEA-2873","2018/07/02 13:09:13","新北市中和區員山路36巷16-2號","121.485368333333","24.991515","6500300","中和區"
"235025","KEA-2875","2018/07/02 13:09:19","新北市中和區連城路583巷15號","121.479153333333","24.99349","6500300","中和區"
