"lineid","car","time","location","longitude","latitude","cityid","cityname"
"234044","148-BY","2018/07/02 14:09:22","新北市永和區得和路370號","121.524361666667","24.9993533333333","6500400","永和區"
"234005","207-UY","2018/07/02 14:09:33","新北市中和區中和路246號","121.507251666667","24.9994366666667","6500400","永和區"
"234078","298-R6","2018/07/02 14:09:27","新北市永和區國中路53號","121.524568333333","25.0060433333333","6500400","永和區"
"234036","336-UY","2018/07/02 14:09:26","新北市永和區成功路一段50號","121.526975","25.0040966666667","6500400","永和區"
"234062","337-UY","2018/07/02 14:09:17","新北市永和區永利路96號","121.520925","25.0036716666667","6500400","永和區"
"234084","338-UY","2018/07/02 14:09:24","新北市永和區中正路660-1號","121.516853333333","25.008755","6500400","永和區"
"234068","552-UM","2018/07/02 14:09:37","新北市永和區永安街37號","121.518973333333","25.007355","6500400","永和區"
"234015","745-BX","2018/07/02 14:09:34","新北市永和區仁愛路17號","121.514653333333","25.0133816666667","6500400","永和區"
"234028","746-BX","2018/07/02 14:09:26","新北市永和區民生路22巷3號","121.522173333333","24.9972116666667","6500400","永和區"
"234052","KEA-2590","2018/07/02 14:09:20","新北市永和區環河東路一段122號","121.520608333333","25.015455","6500400","永和區"
"234012","KEA-2591","2018/07/02 14:09:34","新北市永和區永貞路435號","121.506901666667","25.0099266666667","6500400","永和區"
"234060","AAD-866","2018/07/02 14:09:36","新北市中和區安平路222號","121.514078333333","24.9999716666667","6500400","永和區"
"234040","862-TW","2018/07/02 14:09:36","新北市永和區雙和街60號","121.509098333333","25.003415","6500400","永和區"
"234048","863-TW","2018/07/02 14:09:30","新北市永和區永平路368號","121.505783333333","25.013805","6500400","永和區"
"234025","9371-KE","2018/07/02 14:09:29","新北市永和區安樂路272巷9弄7號","121.515078333333","25.004555","6500400","永和區"
"248015","026-BX","2018/07/02 14:09:33","新北市五股區成泰路三段543巷54號","121.449598333333","25.10309","6501500","五股區"
"248007","095-VK","2018/07/02 14:09:23","新北市五股區中興路一段118巷16號","121.466003333333","25.0742316666667","6501500","五股區"
"248019","225-UY","2018/07/02 13:58:22","新北市五股區凌雲路三段57號","121.425325","25.1250033333333","6501500","五股區"
"248011","247-BX","2018/07/02 14:09:35","新北市五股區工商路36巷16號","121.439841666667","25.08425","6501500","五股區"
"248003","677-BX","2018/07/02 14:09:21","新北市五股區六合街11號","121.431496666667","25.0886083333333","6501500","五股區"
"248001","678-BX","2018/07/02 14:09:29","新北市五股區成泰路三段577巷77號","121.449688333333","25.1037133333333","6501500","五股區"
"248009","682-TV","2018/07/02 14:09:23","新北市五股區水碓二路1號","121.430591666667","25.071295","6501500","五股區"
"234022","9380-KE","2018/07/02 14:09:22","新北市永和區中正路653號","121.515065","25.0101766666667","6500400","永和區"
"234076","969-R7","2018/07/02 14:09:38","新北市永和區民權路51號","121.519923333333","24.9970716666667","6500400","永和區"
"234072","AAC-211","2018/07/02 14:09:23","新北市永和區豫溪街156-1號","121.522898333333","25.0097583333333","6500400","永和區"
"234066","AAC-212","2018/07/02 14:09:33","新北市永和區保平路236巷12弄4號","121.50871","25.0064983333333","6500400","永和區"
"234001","AAC-295","2018/07/02 14:09:28","新北市永和區永和路二段5號","121.514421666667","25.0100516666667","6500400","永和區"
"243005","AAD-798","2018/07/02 14:09:26","新北市泰山區明志路三段231巷2弄1號","121.424118333333","25.03767","6501600","泰山區"
"243001","297-R6","2018/07/02 14:09:36","新北市泰山區楓樹街15巷1-2號","121.435026666667","25.0629883333333","6501600","泰山區"
"243008","380-SR","2018/07/02 14:09:27","新北市泰山區明志路二段325號","121.425758333333","25.0450166666667","6501600","泰山區"
"243007","421-VK","2018/07/02 14:09:32","新北市泰山區明志路一段471號","121.43082","25.055735","6501600","泰山區"
"243003","KEA-2215","2018/07/02 14:09:26","新北市泰山區明志路二段366號","121.425465","25.0450066666667","6501600","泰山區"
"243002","KEA-2216","2018/07/02 14:09:28","新北市泰山區明志路一段483巷1弄1號","121.431073333333","25.0554683333333","6501600","泰山區"
"243004","646-TV","2018/07/02 14:09:26","新北市泰山區犁頭窠7號","121.42992","25.0578883333333","6501600","泰山區"
"243006","680-BX","2018/07/02 14:09:23","新北市泰山區泰林路二段466號","121.42541","25.06412","6501600","泰山區"
"231002","002-UM","2018/07/02 14:09:38","新北市新店區中正路542-10號","121.53375","24.9849216666667","6500600","新店區"
"231027","0293-UT","2018/07/02 14:09:34","新北市新店區光明街138巷13弄2號","121.540115","24.9613816666667","6500600","新店區"
"231028","046-UY","2018/07/02 14:09:31","新北市新店區安和路三段53號","121.518033333333","24.982745","6500600","新店區"
"231001","047-UY","2018/07/02 14:09:28","新北市新店區中華路36號","121.540015","24.9680416666667","6500600","新店區"
"231005","106-UY","2018/07/02 14:09:32","新北市新店區中興路三段304號","121.542326666667","24.9853083333333","6500600","新店區"
"231019","108-UY","2018/07/02 14:09:35","新北市新店區自強路74巷8號","121.545416666667","24.9251033333333","6500600","新店區"
"231011","187-VK","2018/07/02 14:09:28","新北市新店區五峰路63巷8弄2號","121.546656666667","24.9685333333333","6500600","新店區"
"231010","188-VK","2018/07/02 14:09:31","新北市新店區安康路一段355-2號","121.519528333333","24.9625866666667","6500600","新店區"
"231023","KEA-2219","2018/07/02 14:09:34","新北市新店區北宜路一段41-1號","121.538445","24.9573883333333","6500600","新店區"
"231003","268-BY","2018/07/02 14:09:37","新北市新店區中興路一段24-2號","121.538578333333","24.9583566666667","6500600","新店區"
"231018","278-BY","2018/07/02 14:09:20","新北市新店區中央五街43號","121.528218333333","24.9751733333333","6500600","新店區"
"231014","AAD-862","2018/07/02 14:09:36","新北市新店區北宜路二段392巷9號","121.566593333333","24.9530866666667","6500600","新店區"
"231038","3712-VJ","2018/07/02 14:09:20","新北市新店區安康路一段35號","121.53168","24.9607766666667","6500600","新店區"
"231037","4716-K9","2018/07/02 14:09:31","新北市新店區安康路三段207巷15號","121.488426666667","24.9508383333333","6500600","新店區"
"231025","4715-K9","2018/07/02 14:09:29","新北市新店區自立街45巷7號","121.536656666667","24.9795216666667","6500600","新店區"
"231036","512-UM","2018/07/02 14:09:36","新北市新店區安祥路109巷3弄58號","121.477268333333","24.960855","6500600","新店區"
"231013","513-UM","2018/07/02 14:09:31","新北市新店區二十張路1巷2弄6-1號","121.540106666667","24.98211","6500600","新店區"
"231030","619-UM","2018/07/02 14:09:33","新北市新店區安興路7-1號","121.515005","24.968635","6500600","新店區"
"231034","641-BX","2018/07/02 14:09:23","新北市新店區車子路11號","121.503023333333","24.9519733333333","6500600","新店區"
"231035","719-UM","2018/07/02 14:09:30","新北市新店區安和路一段52巷2號","121.517636666667","24.9662416666667","6500600","新店區"
"231031","720-UM","2018/07/02 14:09:25","新北市新店區永業路11號","121.53354","24.9558316666667","6500600","新店區"
"231029","897-TW","2018/07/02 14:09:29","新北市新店區安康路二段107巷1號","121.512665","24.9621766666667","6500600","新店區"
"231006","898-TW","2018/07/02 14:09:27","新北市新店區北宜路二段150-1號","121.557796666667","24.95393","6500600","新店區"
"231004","899-TW","2018/07/02 14:09:22","新北市新店區北新路二段156號","121.54306","24.9754966666667","6500600","新店區"
"235030","003-UY","2018/07/02 14:09:25","新北市中和區廣福路12號","121.505611666667","25.0028","6500300","中和區"
"235028","005-UY","2018/07/02 14:09:35","新北市中和區泰和街30巷17號","121.499003333333","25.0009633333333","6500300","中和區"
"235027","006-UY","2018/07/02 14:09:31","新北市中和區連城路249巷21弄2號","121.494035","24.9959366666667","6500300","中和區"
"235020","096-UM","2018/07/02 14:09:39","新北市中和區中正路1191號","121.480611666667","25.009915","6500300","中和區"
"235003","097-UM","2018/07/02 14:09:29","新北市中和區秀峰街103巷2弄4號","121.52003","24.99063","6500300","中和區"
"235029","098-UM","2018/07/02 14:09:32","新北市中和區中山路二段2巷3弄2號","121.504733333333","25.0061066666667","6500300","中和區"
"235004","150-BY","2018/07/02 14:09:25","新北市中和區保健路63號","121.50958","24.9972866666667","6500300","中和區"
"235022","151-BY","2018/07/02 14:09:28","新北市中和區員山路104號","121.481123333333","24.9954333333333","6500300","中和區"
"235019","183-VK","2018/07/02 14:09:31","新北市中和區德光路79號","121.469345","25.00361","6500300","中和區"
"235002","185-VK","2018/07/02 14:09:30","新北市中和區大仁街10巷27弄6號","121.519256666667","24.9928016666667","6500300","中和區"
"235013","186-VK","2018/07/02 14:09:34","新北市中和區景新街175號","121.506735","24.9954416666667","6500300","中和區"
"235031","255-BX","2018/07/02 14:09:33","新北市中和區中正路711號","121.484501666667","24.9985583333333","6500300","中和區"
"235008","293-VK","2018/07/02 14:09:29","新北市中和區中興街202巷2號","121.49943","24.9901966666667","6500300","中和區"
"235036","301-VK","2018/07/02 14:09:28","新北市中和區中山路二段181號","121.500768333333","25.00278","6500300","中和區"
"235007","352-BY","2018/07/02 14:09:36","新北市中和區景平路8號","121.524048333333","24.9904983333333","6500300","中和區"
"235006","KEA-2878","2018/07/02 14:09:29","新北市中和區自立路117巷2弄2號","121.522236666667","24.994425","6500300","中和區"
"235014","4979-A6","2018/07/02 14:09:28","新北市中和區復興路249巷11弄3號","121.503585","24.989735","6500300","中和區"
"235033","4980-A6","2018/07/02 14:09:33","新北市中和區中和路217巷1弄9號","121.503708333333","25.0003966666667","6500300","中和區"
"235034","558-UM","2018/07/02 14:09:37","新北市中和區中和路120號","121.503141666667","24.9996783333333","6500300","中和區"
"235009","565-BX","2018/07/02 14:09:24","新北市中和區景新街467巷15弄11號","121.51375","24.98868","6500300","中和區"
"235018","640-BX","2018/07/02 14:09:35","新北市中和區國光街107巷2弄32號","121.469303333333","24.99904","6500300","中和區"
"235024","647-TV","2018/07/02 14:09:26","新北市中和區中山路三段147號","121.473765","25.0060666666667","6500300","中和區"
"235010","733-UM","2018/07/02 14:09:25","新北市中和區華新街134號","121.508148333333","24.982585","6500300","中和區"
"235035","783-BX","2018/07/02 14:09:24","新北市中和區立言街56號","121.488345","25.007095","6500300","中和區"
"235026","800-TS","2018/07/02 14:09:32","新北市中和區中山路二段346號","121.49321","25.002475","6500300","中和區"
"235021","801-TS","2018/07/02 14:09:35","新北市中和區民利街67號","121.478723333333","24.99848","6500300","中和區"
"235005","802-TS","2018/07/02 14:09:38","新北市中和區中安街178巷2號","121.511085","24.99961","6500300","中和區"
"235016","805-TS","2018/07/02 14:09:24","新北市中和區興南路二段114巷2號","121.504363333333","24.9842566666667","6500300","中和區"
"235012","896-TW","2018/07/02 14:09:27","新北市中和區工專路147號","121.508401666667","24.9788766666667","6500300","中和區"
"235017","900-TW","2018/07/02 14:09:31","新北市中和區民德路274號","121.46759","24.996465","6500300","中和區"
"235015","157-BY","2018/07/02 14:09:23","新北市中和區興南路一段77號","121.510158333333","24.989095","6500300","中和區"
"235001","AAC-213","2018/07/02 14:09:36","新北市中和區秀朗路三段50巷7號","121.525925","24.99534","6500300","中和區"
"235023","AAC-215","2018/07/02 14:09:24","新北市中和區圓通路417號","121.488838333333","24.98923","6500300","中和區"
"220016","013-TV","2018/07/02 14:09:32","新北市板橋區翠華街6巷27號","121.481431666667","25.0242866666667","6500100","板橋區"
"220003","015-TV","2018/07/02 14:09:20","新北市板橋區新民街9號","121.46389","25.0097283333333","6500100","板橋區"
"220013","072-UY","2018/07/02 14:09:33","新北市板橋區民族路219巷9號","121.469246666667","25.0079066666667","6500100","板橋區"
"220105","075-UY","2018/07/02 14:09:39","新北市板橋區雙十路三段8-1號","121.47192","25.03055","6500100","板橋區"
"220017","AAD-861","2018/07/02 14:09:20","新北市板橋區東興街91號","121.457625","25.0051633333333","6500100","板橋區"
"247023","893-R6","2018/07/02 14:09:19","新北市蘆洲區光榮路88號","121.463686666667","25.0889533333333","6501400","蘆洲區"
"247013","546-UM","2018/07/02 14:09:31","新北市蘆洲區三民路155號","121.471413333333","25.086815","6501400","蘆洲區"
"247021","500-BY","2018/07/02 14:09:38","新北市蘆洲區三民路251號","121.468285","25.08927","6501400","蘆洲區"
"247009","341-TH","2018/07/02 14:09:28","新北市蘆洲區信義路231號","121.479171666667","25.0839183333333","6501400","蘆洲區"
"247011","339-TH","2018/07/02 14:09:38","新北市蘆洲區信義路333號","121.477928333333","25.0869333333333","6501400","蘆洲區"
"247003","337-TH","2018/07/02 14:09:35","新北市蘆洲區中華街6巷28號","121.46284","25.0821816666667","6501400","蘆洲區"
"247005","336-TH","2018/07/02 14:09:33","新北市蘆洲區九芎街62號","121.466836666667","25.0790183333333","6501400","蘆洲區"
"247017","057-VK","2018/07/02 14:09:34","新北市蘆洲區復興路111-6號","121.476506666667","25.0883466666667","6501400","蘆洲區"
"247007","056-VK","2018/07/02 14:09:33","新北市蘆洲區永安南路一段142巷64號","121.471783333333","25.0776733333333","6501400","蘆洲區"
"247015","007-UY","2018/07/02 14:09:34","新北市蘆洲區中正路185巷23弄23號","121.467668333333","25.0841316666667","6501400","蘆洲區"
"247001","002-UY","2018/07/02 14:08:55","新北市蘆洲區永平街34號","121.458498333333","25.0910716666667","6501400","蘆洲區"
"247019","001-UY","2018/07/02 14:09:25","新北市蘆洲區民族路426巷52號","121.472843333333","25.0936383333333","6501400","蘆洲區"
"235011","251-BX","2018/07/02 14:09:24","新北市中和區捷運路6號","121.51025","24.9896933333333","6500300","中和區"
"253003","6232-TK","2018/07/02 14:09:33","新北市石門區尖子鹿52-1號","121.579063333333","25.273565","6502200","石門區"
"253001","6251-TK","2018/07/02 14:09:37","新北市石門區八甲74號","121.52985","25.2644116666667","6502200","石門區"
"253002","637-UY","2018/07/02 14:09:25","新北市石門區七股33-1號","121.552703333333","25.2612433333333","6502200","石門區"
"253004","8270-PC","2018/07/02 14:09:39","新北市石門區茂林社區226號","121.590453333333","25.270235","6502200","石門區"
"207002","749-BX","2018/07/02 14:09:28","新北市萬里區溪底里瑞泉路13-1號","121.60473","25.1451883333333","6502800","萬里區"
"252005","073-UM","2018/07/02 14:09:27","新北市三芝區橫山里橫山57-2號","121.535398333333","25.2536266666667","6502100","三芝區"
"207001","662-BX","2018/07/02 14:09:22","新北市萬里區磺潭里清水18號","121.637906666667","25.1977","6502800","萬里區"
"236064","105-UM","2018/07/02 14:09:24","新北市土城區明德路一段295號","121.460041666667","24.97724","6501300","土城區"
"236040","107-UM","2018/07/02 14:09:34","新北市土城區裕生路81號","121.446831666667","24.9842416666667","6501300","土城區"
"236074","166-UM","2018/07/02 14:09:29","新北市土城區永安街21-1號","121.433643333333","24.9643433333333","6501300","土城區"
"236029","253-BX","2018/07/02 14:09:23","新北市土城區城林路6巷80號","121.438556666667","24.9797216666667","6501300","土城區"
"236024","269-VK","2018/07/02 14:09:26","新北市土城區承天路18號","121.439413333333","24.9634833333333","6501300","土城區"
"236012","270-VK","2018/07/02 14:09:24","新北市土城區學府路一段179號","121.452351666667","24.9851716666667","6501300","土城區"
"236032","271-VK","2018/07/02 14:09:23","新北市土城區中正路75號","121.445158333333","24.9757366666667","6501300","土城區"
"236016","401-BY","2018/07/02 14:09:37","新北市土城區城林路6巷80號","121.438551666667","24.9797","6501300","土城區"
"236005","498-BY","2018/07/02 14:09:22","新北市土城區中央路一段48號","121.447716666667","24.9899516666667","6501300","土城區"
"236057","912-UM","2018/07/02 14:09:20","新北市土城區中央路四段107號","121.416625","24.9578333333333","6501300","土城區"
"236045","913-UM","2018/07/02 14:08:24","新北市土城區中央路二段280號","121.440695","24.9740566666667","6501300","土城區"
"236060","915-UM","2018/07/02 14:09:31","新北市土城區延壽路44巷15號","121.471466666667","24.9929983333333","6501300","土城區"
"236054","AAC-216","2018/07/02 14:09:19","新北市土城區中華路二段26號","121.439246666667","24.9782466666667","6501300","土城區"
"220027","145-BY","2018/07/02 14:09:37","新北市板橋區民權路202巷10弄1號","121.460441666667","25.0153783333333","6500100","板橋區"
"220028","200-UY","2018/07/02 14:09:28","新北市板橋區大觀路二段7巷31號","121.448031666667","25.0034333333333","6500100","板橋區"
"220030","610-BX","2018/07/02 14:09:20","新北市板橋區溪崑二街89號","121.42729","24.9894483333333","6500100","板橋區"
"220050","245-BX","2018/07/02 14:09:21","新北市板橋區莊敬路208巷6弄7號","121.470878333333","25.0210233333333","6500100","板橋區"
"220004","276-BY","2018/07/02 14:09:30","新北市板橋區信義路74巷1弄1號","121.457251666667","24.9932033333333","6500100","板橋區"
"220020","277-BY","2018/07/02 14:09:35","新北市板橋區金門街369巷99號","121.428265","24.9815666666667","6500100","板橋區"
"220019","283-VK","2018/07/02 14:09:34","新北市板橋區重慶路253號","121.463486666667","25.0001716666667","6500100","板橋區"
"220043","285-UM","2018/07/02 14:09:35","新北市板橋區光武街151號","121.46557","25.02946","6500100","板橋區"
"220001","285-VK","2018/07/02 14:09:21","新北市板橋區懷仁街24巷23號","121.475635","25.0192166666667","6500100","板橋區"
"220031","286-VK","2018/07/02 14:09:39","新北市板橋區大觀路二段174巷165弄2-1號","121.441506666667","25.00341","6500100","板橋區"
"220029","287-VK","2018/07/02 14:09:30","新北市板橋區南雅西路二段156巷17號","121.452343333333","25.013165","6500100","板橋區"
"220039","288-VK","2018/07/02 14:09:35","新北市板橋區四維路291巷1號","121.461928333333","25.028235","6500100","板橋區"
"220009","293-UM","2018/07/02 14:09:35","新北市板橋區三民路二段21巷8號","121.479921666667","25.0181633333333","6500100","板橋區"
"220010","295-UM","2018/07/02 14:09:34","新北市板橋區民生路二段36-1號","121.472655","25.0166766666667","6500100","板橋區"
"220032","296-UM","2018/07/02 14:09:38","新北市板橋區篤行路二段126-3號","121.43122","24.9907083333333","6500100","板橋區"
"220023","303-R5","2018/07/02 14:09:29","新北市板橋區西門街59號","121.454486666667","25.0091883333333","6500100","板橋區"
"220010","305-R5","2018/07/02 14:09:41","新北市板橋區三民路二段居仁巷2弄32號","121.47996","25.01289","6500100","板橋區"
"220041","307-R5","2018/07/02 14:09:29","新北市板橋區文化路二段225巷60弄30號","121.469216666667","25.0291833333333","6500100","板橋區"
"220047","317-R6","2018/07/02 14:09:18","新北市板橋區自由路52號","121.465696666667","25.023615","6500100","板橋區"
"220012","486-VK","2018/07/02 14:09:31","新北市板橋區長安街236-3號","121.475336666667","25.012655","6500100","板橋區"
"220037","491-VK","2018/07/02 14:09:23","新北市板橋區莊敬路38號","121.472778333333","25.0270116666667","6500100","板橋區"
"220104","560-BX","2018/07/02 14:09:33","新北市板橋區中正路399巷3號","121.453945","25.0221566666667","6500100","板橋區"
"220052","561-BX","2018/07/02 14:09:33","新北市板橋區文化路一段188巷9弄21號","121.468555","25.019435","6500100","板橋區"
"220011","609-BX","2018/07/02 14:09:24","新北市板橋區三民路二段89號","121.479425","25.0164633333333","6500100","板橋區"
"220034","630-UY","2018/07/02 14:09:37","新北市板橋區中正路216巷22號","121.456761666667","25.0185416666667","6500100","板橋區"
"220040","637-BX","2018/07/02 14:09:31","新北市板橋區縣民大道247巷41號","121.482066666667","25.0269566666667","6500100","板橋區"
"220005","686-BX","2018/07/02 14:09:24","新北市板橋區重慶路290-5號","121.463678333333","24.9987966666667","6500100","板橋區"
"220042","689-BX","2018/07/02 14:09:37","新北市板橋區民生路三段191號","121.465366666667","25.027595","6500100","板橋區"
"220002","741-BX","2018/07/02 14:09:30","新北市板橋區重慶路71-9號","121.46212","25.006845","6500100","板橋區"
"220051","KEA-2699","2018/07/02 14:09:33","新北市板橋區田單街51號","121.48261","25.0279733333333","6500100","板橋區"
"220025","806-UM","2018/07/02 14:09:29","新北市板橋區龍興街71巷1號","121.443845","25.00183","6500100","板橋區"
"220014","829-TW","2018/07/02 14:09:31","新北市板橋區中山路二段90巷43弄20號","121.477063333333","25.0151483333333","6500100","板橋區"
"220045","830-TW","2018/07/02 14:09:30","新北市板橋區大同街2號","121.476926666667","25.0266666666667","6500100","板橋區"
"220038","833-TW","2018/07/02 14:09:22","新北市板橋區文化路二段325號","121.472365","25.0302416666667","6500100","板橋區"
"220022","895-R6","2018/07/02 14:09:30","新北市板橋區西門街59號","121.454428333333","25.0091783333333","6500100","板橋區"
"220021","985-R7","2018/07/02 14:09:24","新北市板橋區民權路262號","121.457778333333","25.01531","6500100","板橋區"
"220046","AAC-210","2018/07/02 14:09:24","新北市板橋區新海路135巷2號","121.45994","25.0229","6500100","板橋區"
"220018","AAC-253","2018/07/02 14:09:31","新北市板橋區忠孝路40號","121.46046","25.001825","6500100","板橋區"
"235032","KEA-2873","2018/07/02 14:09:13","新北市中和區圓通路158巷8弄16號","121.498118333333","24.996395","6500300","中和區"
"235025","KEA-2875","2018/07/02 14:09:19","新北市中和區員山路150-7號","121.481366666667","24.9975133333333","6500300","中和區"
