"lineid","car","time","location","longitude","latitude","cityid","cityname"
"234005","207-UY","2018/07/02 14:49:33","新北市永和區永貞路422號","121.508535","25.0082383333333","6500400","永和區"
"234028","746-BX","2018/07/02 14:49:35","新北市中和區中正路803號","121.484985","25.0011333333333","6500400","永和區"
"234025","9371-KE","2018/07/02 14:49:28","新北市永和區雙和街25巷5號","121.508966666667","25.00191","6500400","永和區"
"248015","026-BX","2018/07/02 14:49:33","新北市五股區成泰路三段577巷80弄25號","121.449565","25.1045616666667","6501500","五股區"
"248007","095-VK","2018/07/02 14:49:23","新北市五股區四維路140號","121.468203333333","25.0753116666667","6501500","五股區"
"248011","247-BX","2018/07/02 14:49:35","新北市五股區民義路一段212號","121.430516666667","25.08951","6501500","五股區"
"248013","261-SL","2018/07/02 14:49:30","新北市五股區五福路16號","121.434295","25.0887116666667","6501500","五股區"
"248003","677-BX","2018/07/02 14:49:21","新北市五股區成泰路一段82號","121.4357","25.0705983333333","6501500","五股區"
"248001","678-BX","2018/07/02 14:49:29","新北市五股區成泰路三段165號","121.445186666667","25.0918733333333","6501500","五股區"
"248009","682-TV","2018/07/02 14:49:23","新北市五股區成泰路一段87-1號","121.43492","25.06895","6501500","五股區"
"243005","AAD-798","2018/07/02 14:49:26","新北市泰山區明志路三段76號","121.42481","25.04169","6501600","泰山區"
"243001","297-R6","2018/07/02 14:49:36","新北市泰山區泰林路二段117號","121.434345","25.0596066666667","6501600","泰山區"
"243008","380-SR","2018/07/02 14:49:28","新北市泰山區貴陽街4-1號","121.421588333333","25.0331","6501600","泰山區"
"243007","421-VK","2018/07/02 14:49:33","新北市泰山區明志路二段17號","121.429911666667","25.05346","6501600","泰山區"
"243003","KEA-2215","2018/07/02 14:49:25","新北市泰山區明志路三段427號","121.4209","25.0332333333333","6501600","泰山區"
"243002","KEA-2216","2018/07/02 14:49:27","新北市泰山區明志路二段214巷13號","121.426553333333","25.04901","6501600","泰山區"
"243004","646-TV","2018/07/02 14:49:26","新北市泰山區楓江路113號","121.43852","25.06408","6501600","泰山區"
"243006","680-BX","2018/07/02 14:49:23","新北市泰山區明志路一段46號","121.43356","25.0650666666667","6501600","泰山區"
"231002","002-UM","2018/07/02 14:49:33","新北市新店區民權路123號","121.535641666667","24.9828533333333","6500600","新店區"
"231027","0293-UT","2018/07/02 14:49:34","新北市新店區安民街121巷19號","121.515211666667","24.968745","6500600","新店區"
"231028","046-UY","2018/07/02 14:49:27","新北市新店區安成街35號","121.509775","24.9611133333333","6500600","新店區"
"231001","047-UY","2018/07/02 14:49:28","新北市新店區三民路136號","121.53499","24.975005","6500600","新店區"
"231005","106-UY","2018/07/02 14:49:32","新北市新店區復興路2號","121.532273333333","24.98837","6500600","新店區"
"231019","108-UY","2018/07/02 14:49:35","新北市新店區桂山路51巷6-1號","121.56199","24.9015733333333","6500600","新店區"
"231011","187-VK","2018/07/02 14:49:29","新北市新店區永華街47號","121.544228333333","24.9759616666667","6500600","新店區"
"231023","KEA-2219","2018/07/02 14:49:34","新北市新店區檳榔路109號","121.544538333333","24.9617066666667","6500600","新店區"
"231026","256-BX","2018/07/02 14:49:35","新北市新店區安康路一段219號","121.525835","24.963055","6500600","新店區"
"231003","268-BY","2018/07/02 14:49:37","新北市新店區中興路二段121巷1號","121.547508333333","24.972115","6500600","新店區"
"231018","278-BY","2018/07/02 14:49:40","新北市新店區中央路153號","121.529935","24.9730316666667","6500600","新店區"
"231014","AAD-862","2018/07/02 14:49:36","新北市新店區明山路1巷1號","121.5625","24.95447","6500600","新店區"
"231038","3712-VJ","2018/07/02 14:49:40","新北市新店區安康路一段216號","121.523935","24.9635066666667","6500600","新店區"
"231037","4716-K9","2018/07/02 14:49:31","新北市新店區柴埕路52巷17號","121.51125","24.9652716666667","6500600","新店區"
"231036","512-UM","2018/07/02 14:49:36","新北市新店區安祥路106巷202號","121.47431","24.960375","6500600","新店區"
"231013","513-UM","2018/07/02 14:49:31","新北市新店區北新路二段121巷17號","121.542181666667","24.9746183333333","6500600","新店區"
"231030","619-UM","2018/07/02 14:49:33","新北市新店區安民街259號","121.517416666667","24.972665","6500600","新店區"
"231034","641-BX","2018/07/02 14:49:23","新北市新店區安康路二段454號","121.49449","24.9543466666667","6500600","新店區"
"231039","718-UY","2018/07/02 14:49:23","新北市新店區中興路二段223號","121.548103333333","24.9746883333333","6500600","新店區"
"231035","719-UM","2018/07/02 14:49:30","新北市新店區安利街32號","121.51906","24.9747883333333","6500600","新店區"
"231031","720-UM","2018/07/02 14:49:24","新北市新店區安康路二段383號","121.49492","24.9545816666667","6500600","新店區"
"231029","897-TW","2018/07/02 14:49:29","新北市新店區錦秀路11巷103號","121.480796666667","24.944615","6500600","新店區"
"231006","898-TW","2018/07/02 14:49:27","新北市新店區北宜路一段121-1號","121.540343333333","24.9537916666667","6500600","新店區"
"231004","899-TW","2018/07/02 14:49:22","新北市新店區民族路103號","121.538523333333","24.9775366666667","6500600","新店區"
"231024","AKT-0513","2018/07/02 14:49:40","新北市新店區力行路44號","121.5388","24.96529","6500600","新店區"
"235030","003-UY","2018/07/02 14:49:25","新北市中和區景新街57巷30號","121.504551666667","24.99937","6500300","中和區"
"235028","005-UY","2018/07/02 14:49:35","新北市中和區圓通路29號","121.501098333333","24.9977283333333","6500300","中和區"
"235020","096-UM","2018/07/02 14:49:19","新北市中和區民富街14號","121.476915","25.0062766666667","6500300","中和區"
"235003","097-UM","2018/07/02 14:49:29","新北市中和區安樂路129號","121.51411","24.9963033333333","6500300","中和區"
"235029","098-UM","2018/07/02 14:49:32","新北市中和區永和路90巷2弄2號","121.497335","25.0057133333333","6500300","中和區"
"235004","150-BY","2018/07/02 14:49:25","新北市中和區景新街149號","121.506466666667","24.9965683333333","6500300","中和區"
"235022","151-BY","2018/07/02 14:49:28","新北市中和區員山路150巷2弄22號","121.481631666667","24.9976133333333","6500300","中和區"
"235019","183-VK","2018/07/02 14:49:31","新北市中和區民德路19號","121.468836666667","25.0027966666667","6500300","中和區"
"235002","185-VK","2018/07/02 14:49:30","新北市中和區自立路15巷1號","121.522536666667","24.9963033333333","6500300","中和區"
"235013","186-VK","2018/07/02 14:49:34","新北市中和區景平路566號","121.501883333333","24.995285","6500300","中和區"
"235031","255-BX","2018/07/02 14:49:33","新北市中和區中正路809號","121.484948333333","25.0016216666667","6500300","中和區"
"235008","293-VK","2018/07/02 14:49:29","新北市中和區南山路363號","121.50605","24.990655","6500300","中和區"
"235036","301-VK","2018/07/02 14:49:28","新北市中和區板南路386號","121.493265","24.9992583333333","6500300","中和區"
"235007","352-BY","2018/07/02 14:49:36","新北市中和區安和路9號","121.511583333333","24.993655","6500300","中和區"
"235006","KEA-2878","2018/07/02 14:49:28","新北市中和區景新街5號","121.503155","24.9994666666667","6500300","中和區"
"235014","4979-A6","2018/07/02 14:49:28","新北市中和區和平街164巷4號","121.506023333333","24.9923683333333","6500300","中和區"
"235033","4980-A6","2018/07/02 14:49:32","新北市中和區中正路637巷52弄1號","121.485465","24.9934016666667","6500300","中和區"
"235034","558-UM","2018/07/02 14:49:37","新北市中和區圓通路109號","121.49944","24.9965433333333","6500300","中和區"
"235018","640-BX","2018/07/02 14:49:35","新北市中和區莒光路89號","121.472401666667","25.00327","6500300","中和區"
"235024","647-TV","2018/07/02 14:49:27","新北市中和區新生街16巷17號","121.482481666667","25.004225","6500300","中和區"
"235010","733-UM","2018/07/02 14:49:25","新北市中和區仁愛街53號","121.511245","24.9879933333333","6500300","中和區"
"235035","783-BX","2018/07/02 14:49:24","新北市中和區建一路103號","121.487943333333","25.001385","6500300","中和區"
"235026","800-TS","2018/07/02 14:49:32","新北市中和區建六路61號","121.486866666667","25.0022016666667","6500300","中和區"
"235021","801-TS","2018/07/02 14:49:35","新北市中和區員山路144號","121.481243333333","24.9965716666667","6500300","中和區"
"235016","805-TS","2018/07/02 14:49:24","新北市中和區興南路二段117巷11號","121.505825","24.9840433333333","6500300","中和區"
"235012","896-TW","2018/07/02 14:49:27","新北市中和區忠孝街103號","121.51205","24.986285","6500300","中和區"
"235017","900-TW","2018/07/02 14:49:31","新北市中和區國光街189巷12弄1-1號","121.467696666667","25.0011783333333","6500300","中和區"
"235015","157-BY","2018/07/02 14:49:23","新北市中和區復興路269號","121.502645","24.9902083333333","6500300","中和區"
"235001","AAC-213","2018/07/02 14:49:36","新北市中和區秀朗路三段173-2號","121.524478333333","24.9913366666667","6500300","中和區"
"235023","AAC-215","2018/07/02 14:49:24","新北市中和區圓通路305巷5弄32號","121.494305","24.9902283333333","6500300","中和區"
"220016","013-TV","2018/07/02 14:49:38","新北市板橋區光復街13號","121.484906666667","25.0196716666667","6500100","板橋區"
"220003","015-TV","2018/07/02 14:49:29","新北市板橋區仁愛路62巷14弄1號","121.459923333333","24.9984266666667","6500100","板橋區"
"220013","072-UY","2018/07/02 14:49:38","新北市板橋區民族路270巷37號","121.46919","25.00609","6500100","板橋區"
"220105","075-UY","2018/07/02 14:49:39","新北市板橋區民治街57巷24弄2號","121.480146666667","25.0337216666667","6500100","板橋區"
"220017","AAD-861","2018/07/02 14:49:00","新北市板橋區貴興路84號","121.456173333333","25.0027","6500100","板橋區"
"247021","500-BY","2018/07/02 14:49:29","新北市蘆洲區三民路273號","121.468021666667","25.0897516666667","6501400","蘆洲區"
"247005","336-TH","2018/07/02 14:49:33","新北市蘆洲區中華街65號","121.462376666667","25.0808433333333","6501400","蘆洲區"
"247015","007-UY","2018/07/02 14:49:34","新北市蘆洲區和平路164號","121.466643333333","25.0813683333333","6501400","蘆洲區"
"247001","002-UY","2018/07/02 14:49:01","新北市蘆洲區長安街254號","121.457501666667","25.0862983333333","6501400","蘆洲區"
"247019","001-UY","2018/07/02 14:49:25","新北市蘆洲區民義街71巷24號","121.472555","25.0907366666667","6501400","蘆洲區"
"235011","251-BX","2018/07/02 14:49:32","新北市中和區和平街29-1號","121.507561666667","24.991125","6500300","中和區"
"253003","6232-TK","2018/07/02 14:49:33","新北市石門區尖子鹿90號","121.5803","25.2889533333333","6502200","石門區"
"253001","6251-TK","2018/07/02 14:49:16","新北市石門區崁子腳90-1號","121.536138333333","25.2706416666667","6502200","石門區"
"253002","637-UY","2018/07/02 14:49:05","新北市石門區七股10-5號","121.544971666667","25.2690766666667","6502200","石門區"
"253004","8270-PC","2018/07/02 14:49:19","新北市石門區坪林40號","121.590428333333","25.261465","6502200","石門區"
"207002","749-BX","2018/07/02 14:49:28","新北市萬里區崁腳里崁腳路73號","121.647565","25.1596933333333","6502800","萬里區"
"252005","073-UM","2018/07/02 14:49:26","新北市三芝區埔坪里埔頭坑142-1號","121.512391666667","25.248135","6502100","三芝區"
"207001","662-BX","2018/07/02 14:49:22","新北市萬里區雙興里豐稟路31-1號","121.643083333333","25.18102","6502800","萬里區"
"236064","105-UM","2018/07/02 14:49:24","新北市土城區明德路一段385-1號","121.452688333333","24.98029","6501300","土城區"
"236040","107-UM","2018/07/02 14:49:34","新北市土城區裕民路136巷13號","121.451165","24.9856833333333","6501300","土城區"
"236074","166-UM","2018/07/02 14:49:29","新北市土城區中央路四段125巷29號","121.417595","24.9563316666667","6501300","土城區"
"236029","253-BX","2018/07/02 14:49:34","新北市土城區千歲路1號","121.44088","24.9702083333333","6501300","土城區"
"236024","269-VK","2018/07/02 14:49:37","新北市土城區慶安街59號","121.440868333333","24.97291","6501300","土城區"
"236012","270-VK","2018/07/02 14:49:24","新北市土城區金城路二段356號","121.461498333333","24.985045","6501300","土城區"
"236032","271-VK","2018/07/02 14:49:37","新北市土城區仁愛路25號","121.462616666667","24.9784466666667","6501300","土城區"
"236016","401-BY","2018/07/02 14:49:37","新北市土城區明峰街43-1號","121.467003333333","24.9862583333333","6501300","土城區"
"236057","912-UM","2018/07/02 14:49:40","新北市土城區金城路一段62號","121.44264","24.970945","6501300","土城區"
"236045","913-UM","2018/07/02 14:49:31","新北市板橋區信義路170巷10號","121.45994","24.9905916666667","6501300","土城區"
"236060","915-UM","2018/07/02 14:49:31","新北市土城區金城路三段197號","121.47006","24.9892166666667","6501300","土城區"
"236054","AAC-216","2018/07/02 14:49:39","新北市土城區裕民路204號","121.453308333333","24.98465","6501300","土城區"
"220027","145-BY","2018/07/02 14:49:37","新北市板橋區建國街54巷10號","121.459215","25.0168833333333","6500100","板橋區"
"220028","200-UY","2018/07/02 14:49:28","新北市板橋區大觀路二段37巷10號","121.447273333333","25.0028133333333","6500100","板橋區"
"220030","610-BX","2018/07/02 14:49:40","新北市板橋區溪北路101號","121.429038333333","24.9893966666667","6500100","板橋區"
"220050","245-BX","2018/07/02 14:49:21","新北市板橋區縣民大道三段93巷23號","121.474755","25.0224366666667","6500100","板橋區"
"220004","276-BY","2018/07/02 14:49:24","新北市土城區廣明街85巷2號","121.45442","24.9942333333333","6500100","板橋區"
"220020","277-BY","2018/07/02 14:49:35","新北市板橋區金門街151巷3弄20號","121.433315","24.9910833333333","6500100","板橋區"
"220019","283-VK","2018/07/02 14:49:34","新北市板橋區五權街30巷26-2號","121.463893333333","24.9930833333333","6500100","板橋區"
"220043","285-UM","2018/07/02 14:49:21","新北市板橋區溪頭街2號","121.457478333333","25.0288983333333","6500100","板橋區"
"220001","285-VK","2018/07/02 14:49:21","新北市板橋區民享街59號","121.476226666667","25.0152533333333","6500100","板橋區"
"220031","286-VK","2018/07/02 14:49:35","新北市板橋區僑中二街10巷38號","121.445435","25.0111833333333","6500100","板橋區"
"220029","287-VK","2018/07/02 14:49:39","新北市板橋區大觀路一段29巷33號","121.450263333333","25.00754","6500100","板橋區"
"220039","288-VK","2018/07/02 14:49:24","新北市板橋區龍泉街54巷8弄10號","121.457305","25.02692","6500100","板橋區"
"220009","293-UM","2018/07/02 14:49:35","新北市板橋區觀光街30號","121.471388333333","25.0162916666667","6500100","板橋區"
"220010","295-UM","2018/07/02 14:29:13","新北市板橋區民生路二段36-1號","121.472596666667","25.0168366666667","6500100","板橋區"
"220032","296-UM","2018/07/02 14:49:31","新北市板橋區溪崑二街106巷2號","121.426428333333","24.9888833333333","6500100","板橋區"
"220023","303-R5","2018/07/02 14:49:29","新北市板橋區金華街3號","121.455578333333","25.020105","6500100","板橋區"
"220010","305-R5","2018/07/02 14:49:37","新北市板橋區三民路二段29巷31弄3號","121.481445","25.01773","6500100","板橋區"
"220041","307-R5","2018/07/02 14:49:19","新北市板橋區四維路259巷32號","121.461883333333","25.0274333333333","6500100","板橋區"
"220047","317-R6","2018/07/02 14:49:18","新北市板橋區新海路385巷8號","121.458545","25.0259183333333","6500100","板橋區"
"220012","486-VK","2018/07/02 14:49:31","新北市板橋區公園街34巷2號","121.462455","25.00841","6500100","板橋區"
"220037","491-VK","2018/07/02 14:49:23","新北市板橋區文化路二段500號","121.475586666667","25.033455","6500100","板橋區"
"220104","560-BX","2018/07/02 14:49:33","新北市板橋區金華街86號","121.458011666667","25.020685","6500100","板橋區"
"220052","561-BX","2018/07/02 14:49:35","新北市板橋區陽明街29巷27號","121.464226666667","25.02237","6500100","板橋區"
"220011","609-BX","2018/07/02 14:49:40","新北市板橋區三民路一段102號","121.479308333333","25.0211","6500100","板橋區"
"220040","637-BX","2018/07/02 14:49:32","新北市板橋區懷德街127巷56號","121.48059","25.031875","6500100","板橋區"
"220005","686-BX","2018/07/02 14:49:40","新北市板橋區廣和街61號","121.462558333333","24.9930033333333","6500100","板橋區"
"220042","689-BX","2018/07/02 14:49:37","新北市板橋區新海路442號","121.457973333333","25.0278416666667","6500100","板橋區"
"220002","741-BX","2018/07/02 14:49:36","新北市板橋區忠孝路忠義巷15弄24號","121.465788333333","25.004185","6500100","板橋區"
"220051","KEA-2699","2018/07/02 14:49:33","新北市板橋區雙十路二段52號","121.475396666667","25.02785","6500100","板橋區"
"220025","806-UM","2018/07/02 14:49:30","新北市板橋區僑中三街40號","121.445118333333","25.0049283333333","6500100","板橋區"
"220014","829-TW","2018/07/02 14:49:31","新北市板橋區民生路一段21號","121.47496","25.011505","6500100","板橋區"
"220045","830-TW","2018/07/02 14:49:29","新北市板橋區民生路二段234巷65號","121.46998","25.0226816666667","6500100","板橋區"
"220038","833-TW","2018/07/02 14:49:22","新北市板橋區龍泉街139號","121.457783333333","25.0240183333333","6500100","板橋區"
"220022","895-R6","2018/07/02 14:49:36","新北市板橋區文化路一段52巷10號","121.46055","25.0115733333333","6500100","板橋區"
"220021","985-R7","2018/07/02 14:49:23","新北市板橋區大仁街86號","121.453996666667","25.0162783333333","6500100","板橋區"
"220046","AAC-210","2018/07/02 14:49:24","新北市板橋區文化路一段285巷67號","121.463043333333","25.0199433333333","6500100","板橋區"
"220018","AAC-253","2018/07/02 14:49:31","新北市板橋區民族路213號","121.469356666667","25.00727","6500100","板橋區"
"235032","KEA-2873","2018/07/02 14:49:31","新北市中和區福祥路93號","121.498801666667","25.0060033333333","6500300","中和區"
