"lineid","car","time","location","longitude","latitude","cityid","cityname"
"248018","225-UY","2018/07/02 15:35:04","新北市五股區中興路二段83巷26-3號","121.46015","25.0753083333333","6501500","五股區"
"243004","646-TV","2018/07/02 15:39:26","新北市泰山區黎明路6號","121.420863333333","25.06241","6501600","泰山區"
"243014","680-BX","2018/07/02 15:35:10","新北市泰山區黎明路25號","121.422081666667","25.0607633333333","6501600","泰山區"
"231002","002-UM","2018/07/02 15:39:33","新北市新店區環河路150-8號","121.5344","24.9679116666667","6500600","新店區"
"231028","046-UY","2018/07/02 15:39:27","新北市新店區僑義路17巷1號","121.500356666667","24.9513533333333","6500600","新店區"
"231005","106-UY","2018/07/02 15:39:32","新北市新店區中正路361號","121.535033333333","24.97628","6500600","新店區"
"231019","108-UY","2018/07/02 15:39:35","新北市新店區金興路35號","121.552688333333","24.9313983333333","6500600","新店區"
"231011","187-VK","2018/07/02 15:39:29","新北市新店區寶元路一段109號","121.545688333333","24.98314","6500600","新店區"
"231023","KEA-2219","2018/07/02 15:39:34","新北市新店區中興路一段268-3號","121.545151666667","24.9679183333333","6500600","新店區"
"231026","256-BX","2018/07/02 15:39:35","新北市新店區三民路75巷4弄2號","121.535531666667","24.9709216666667","6500600","新店區"
"231003","268-BY","2018/07/02 15:39:37","新北市新店區中興路二段200-1號","121.548278333333","24.9739816666667","6500600","新店區"
"231018","278-BY","2018/07/02 15:39:40","新北市新店區溪園路221號","121.525833333333","24.9834866666667","6500600","新店區"
"231014","AAD-862","2018/07/02 15:39:36","新北市新店區北宜路二段171號","121.552275","24.9532033333333","6500600","新店區"
"231038","3712-VJ","2018/07/02 15:39:40","新北市新店區安華路28-1號","121.519515","24.9607116666667","6500600","新店區"
"231037","4716-K9","2018/07/02 15:39:31","新北市新店區安興路56號","121.516355","24.974635","6500600","新店區"
"231013","513-UM","2018/07/02 15:39:31","新北市新店區永業路81巷1弄2號","121.529688333333","24.9495366666667","6500600","新店區"
"231030","619-UM","2018/07/02 15:39:33","新北市新店區新和街99號","121.521278333333","24.986685","6500600","新店區"
"231034","641-BX","2018/07/02 15:39:24","新北市新店區玫瑰路58巷33號","121.493855","24.9467366666667","6500600","新店區"
"231039","718-UY","2018/07/02 15:39:23","新北市新店區寶元路一段107號","121.545548333333","24.9828783333333","6500600","新店區"
"231035","719-UM","2018/07/02 15:39:30","新北市新店區安興路81號","121.515691666667","24.97528","6500600","新店區"
"231031","720-UM","2018/07/02 15:39:24","新北市新店區雙城路133號","121.497906666667","24.9387966666667","6500600","新店區"
"231029","897-TW","2018/07/02 15:39:29","新北市新店區安康路二段391號","121.494511666667","24.954255","6500600","新店區"
"241011","013-R5","2018/07/02 15:39:31","新北市三重區秀江街213號","121.497465","25.0716333333333","6500200","三重區"
"241028","022-UY","2018/07/02 15:39:33","新北市三重區成功路22-1號","121.489771666667","25.0501833333333","6500200","三重區"
"241015","062-VK","2018/07/02 15:39:27","新北市三重區重新路四段121號","121.485151666667","25.0519966666667","6500200","三重區"
"241017","063-VK","2018/07/02 15:39:26","新北市三重區重新路三段130號","121.491693333333","25.0599716666667","6500200","三重區"
"241024","065-VK","2018/07/02 15:39:22","新北市三重區重新路四段121號","121.485288333333","25.0521083333333","6500200","三重區"
"241002","090-VK","2018/07/02 15:39:23","新北市三重區重新路四段121號","121.48503","25.051875","6500200","三重區"
"241003","091-VK","2018/07/02 15:39:31","新北市三重區重新路四段121號","121.484895","25.0517283333333","6500200","三重區"
"241007","742-BX","2018/07/02 15:39:41","新北市三重區重新路四段121號","121.485346666667","25.0520483333333","6500200","三重區"
"241005","262-UM","2018/07/02 15:39:19","新北市三重區成功路187號","121.485366666667","25.0525983333333","6500200","三重區"
"241018","268-UM","2018/07/02 15:39:39","新北市三重區重新路四段121號","121.484953333333","25.0522983333333","6500200","三重區"
"241013","270-UM","2018/07/02 15:39:39","新北市三重區正義北路291號","121.494878333333","25.0705316666667","6500200","三重區"
"241025","271-UM","2018/07/02 15:39:26","新北市三重區重新路四段121號","121.484971666667","25.0523016666667","6500200","三重區"
"241004","475-VK","2018/07/02 15:39:32","新北市三重區重新路四段121號","121.485211666667","25.0518883333333","6500200","三重區"
"241020","478-VK","2018/07/02 15:39:28","新北市三重區忠孝路二段34號","121.485551666667","25.0708316666667","6500200","三重區"
"241030","480-VK","2018/07/02 15:39:37","新北市三重區重新路四段121號","121.484801666667","25.0524633333333","6500200","三重區"
"241014","543-UM","2018/07/02 15:39:37","新北市三重區重新路四段121號","121.485183333333","25.0517966666667","6500200","三重區"
"241033","557-UM","2018/07/02 15:18:46","新北市三重區重新路四段121號","121.48471","25.052415","6500200","三重區"
"241019","KEA-2593","2018/07/02 15:39:31","新北市三重區重新路四段121號","121.484988333333","25.0521616666667","6500200","三重區"
"241012","941-UM","2018/07/02 15:39:21","新北市三重區成功路6號","121.490193333333","25.0499933333333","6500200","三重區"
"235033","4980-A6","2018/07/02 15:39:32","新北市中和區新生街180號","121.483683333333","24.9998366666667","6500300","中和區"
"235023","AAC-215","2018/07/02 15:39:24","新北市中和區員山路17號","121.480381666667","24.984705","6500300","中和區"
"227008","642-TC","2018/07/02 15:39:29","新北市雙溪區三貂里政光路3-1號","121.851136666667","25.0628733333333","6502500","雙溪區"
"227001","400-TW","2018/07/02 15:39:37","新北市雙溪區牡丹里中正路36號","121.864355","25.0385416666667","6502500","雙溪區"
"236064","105-UM","2018/07/02 15:39:24","新北市土城區中央路三段32號","121.438491666667","24.9690483333333","6501300","土城區"
"236074","166-UM","2018/07/02 15:39:29","新北市土城區中州路30巷5號","121.413403333333","24.958985","6501300","土城區"
"236029","253-BX","2018/07/02 15:39:23","新北市土城區中央路一段69巷4號","121.44798","24.9893866666667","6501300","土城區"
"236024","269-VK","2018/07/02 15:39:35","新北市土城區裕生路83巷16弄2號","121.447188333333","24.9841266666667","6501300","土城區"
"236012","270-VK","2018/07/02 15:39:28","新北市板橋區信義路26巷10號","121.456155","24.9953266666667","6501300","土城區"
"236016","401-BY","2018/07/02 15:39:37","新北市土城區延吉街111巷10號","121.471801666667","24.9859566666667","6501300","土城區"
"236057","912-UM","2018/07/02 15:39:40","新北市土城區中央路一段260-3號","121.444058333333","24.984005","6501300","土城區"
"236045","913-UM","2018/07/02 15:39:31","新北市土城區金城路二段396號","121.463788333333","24.9857866666667","6501300","土城區"
"236054","AAC-216","2018/07/02 15:39:39","新北市土城區學成路5號","121.453306666667","24.9863883333333","6501300","土城區"
"238002","755-BX","2018/07/02 15:39:38","新北市樹林區日新街109號","121.421358333333","24.9898283333333","6500700","樹林區"
"238010","601-UM","2018/07/02 15:39:31","新北市樹林區龍興街15號","121.403036666667","25.0164383333333","6500700","樹林區"
"238006","599-UM","2018/07/02 15:39:34","新北市樹林區太平路196-1號","121.418495","24.9757966666667","6500700","樹林區"
"238005","571-TV","2018/07/02 15:39:30","新北市樹林區中華路176號","121.414061666667","24.9802833333333","6500700","樹林區"
"238011","5061-A6","2018/07/02 15:39:23","新北市樹林區中山路二段189巷9號","121.405543333333","24.9767483333333","6500700","樹林區"
"238008","KEA-2539","2018/07/02 15:39:40","新北市樹林區柑園街一段260號","121.391155","24.9564616666667","6500700","樹林區"
"238012","303-VK","2018/07/02 15:39:21","新北市樹林區中山路二段44號","121.416878333333","24.984745","6500700","樹林區"
"238001","283-BY","2018/07/02 15:39:25","新北市樹林區光華街6號","121.41345","25.00359","6500700","樹林區"
"238001","282-BY","2018/07/02 15:39:20","新北市樹林區潭興街143巷5號","121.425641666667","24.9998716666667","6500700","樹林區"
"238007","268-VK","2018/07/02 15:39:34","新北市樹林區俊英街210號","121.425155","25.009415","6500700","樹林區"
"238013","172-UY","2018/07/02 15:39:27","新北市樹林區八德街590號","121.397803333333","24.9700466666667","6500700","樹林區"
"238003","169-UY","2018/07/02 15:39:26","新北市樹林區復興路317號","121.418338333333","24.9885766666667","6500700","樹林區"
"221021","299-VK","2018/07/02 15:13:45","新北市汐止區汐萬路一段256巷1號","121.651985","25.0747983333333","6501100","汐止區"
"220050","245-BX","2018/07/02 15:39:20","新北市板橋區太和街5巷4號","121.473518333333","25.0201266666667","6500100","板橋區"
"220038","833-TW","2018/07/02 15:39:28","新北市板橋區四維路347號","121.462328333333","25.0298966666667","6500100","板橋區"
