"lineid","car","time","location","longitude","latitude","cityid","cityname"
"248018","225-UY","2018/07/02 15:35:04","新北市五股區中興路二段83巷26-3號","121.46015","25.0753083333333","6501500","五股區"
"243009","297-R6","2018/07/02 15:47:53","新北市泰山區黎明路25號","121.42193","25.0606016666667","6501600","泰山區"
"243014","680-BX","2018/07/02 15:35:10","新北市泰山區黎明路25號","121.422081666667","25.0607633333333","6501600","泰山區"
"231019","108-UY","2018/07/02 15:59:35","新北市新店區新烏路一段60號","121.546076666667","24.9483866666667","6500600","新店區"
"231011","187-VK","2018/07/02 15:59:28","新北市新店區民族路91號","121.538575","24.9776966666667","6500600","新店區"
"231046","188-VK","2018/07/02 15:59:25","新北市新店區華城路12-1號","121.529118333333","24.957815","6500600","新店區"
"221018","KEA-2785","2018/07/02 15:48:48","新北市汐止區汐萬路一段256巷1號","121.651953333333","25.07475","6501100","汐止區"
"231026","256-BX","2018/07/02 15:59:35","新北市新店區中正路448-1號","121.533955","24.9788183333333","6500600","新店區"
"231003","268-BY","2018/07/02 15:59:37","新北市新店區寶興路60巷4號","121.549805","24.9719383333333","6500600","新店區"
"231018","278-BY","2018/07/02 15:59:40","新北市新店區中正路663巷7弄13號","121.532826666667","24.990035","6500600","新店區"
"231014","AAD-862","2018/07/02 15:59:36","新北市新店區中正路282-10號","121.537918333333","24.974245","6500600","新店區"
"231038","3712-VJ","2018/07/02 15:59:40","新北市新店區安康路二段266號","121.508656666667","24.958835","6500600","新店區"
"231037","4716-K9","2018/07/02 15:59:31","新北市新店區吉安街10號","121.51681","24.965705","6500600","新店區"
"231030","619-UM","2018/07/02 15:59:33","新北市新店區永平街87號","121.516338333333","24.9854933333333","6500600","新店區"
"231034","641-BX","2018/07/02 15:59:23","新北市新店區如意街92號","121.49601","24.946965","6500600","新店區"
"231035","719-UM","2018/07/02 15:56:50","新北市新店區安民街303巷9弄2號","121.516905","24.97343","6500600","新店區"
"241011","013-R5","2018/07/02 15:59:35","新北市三重區雙園街36號","121.496868333333","25.068","6500200","三重區"
"241028","022-UY","2018/07/02 15:59:33","新北市三重區電信街99號","121.495308333333","25.0582533333333","6500200","三重區"
"241008","059-VK","2018/07/02 15:59:41","新北市三重區成功路106-2號","121.487245","25.0517183333333","6500200","三重區"
"241022","060-VK","2018/07/02 15:59:38","新北市三重區忠孝路三段40巷40號","121.48286","25.0659283333333","6500200","三重區"
"241015","062-VK","2018/07/02 15:59:27","新北市三重區重新路四段121號","121.485143333333","25.0520416666667","6500200","三重區"
"241017","063-VK","2018/07/02 15:59:26","新北市三重區民生街86號","121.490163333333","25.06427","6500200","三重區"
"241024","065-VK","2018/07/02 15:59:21","新北市三重區忠孝路三段2號","121.48206","25.0677666666667","6500200","三重區"
"241026","066-VK","2018/07/02 15:59:29","新北市三重區大同南路58號","121.496083333333","25.05977","6500200","三重區"
"241002","090-VK","2018/07/02 15:59:23","新北市三重區仁愛街225巷7弄17號","121.497431666667","25.078565","6500200","三重區"
"241003","091-VK","2018/07/02 15:59:31","新北市三重區進安街27號","121.496698333333","25.083995","6500200","三重區"
"241007","742-BX","2018/07/02 15:59:41","新北市三重區慈愛街1號","121.484646666667","25.078365","6500200","三重區"
"241005","262-UM","2018/07/02 15:59:39","新北市三重區自強路四段37號","121.489315","25.076935","6500200","三重區"
"241031","265-UM","2018/07/02 15:59:34","新北市三重區重新路四段121號","121.48487","25.0520833333333","6500200","三重區"
"241009","267-UM","2018/07/02 15:59:31","新北市三重區成功路108巷8號","121.486781666667","25.0509133333333","6500200","三重區"
"241018","268-UM","2018/07/02 15:59:39","新北市三重區中正北路13號","121.49258","25.0616633333333","6500200","三重區"
"241013","270-UM","2018/07/02 15:59:39","新北市三重區三和路三段8號","121.497215","25.0701683333333","6500200","三重區"
"241025","271-UM","2018/07/02 15:59:26","新北市三重區三民街195號","121.48214","25.0657266666667","6500200","三重區"
"241004","475-VK","2018/07/02 15:59:32","新北市三重區成功路110-1號","121.487191666667","25.05169","6500200","三重區"
"241020","478-VK","2018/07/02 15:59:28","新北市三重區忠孝路二段58號","121.485021666667","25.0702716666667","6500200","三重區"
"241030","480-VK","2018/07/02 15:59:37","新北市三重區重新路四段121號","121.484741666667","25.0524083333333","6500200","三重區"
"241014","543-UM","2018/07/02 15:59:37","新北市三重區重新路四段121號","121.485186666667","25.05185","6500200","三重區"
"241023","545-UM","2018/07/02 15:59:41","新北市三重區中正北路174-4號","121.483673333333","25.0667016666667","6500200","三重區"
"241001","547-UM","2018/07/02 15:59:36","新北市三重區成功路108巷6-3號","121.486476666667","25.0504416666667","6500200","三重區"
"241019","KEA-2593","2018/07/02 15:59:31","新北市三重區重新路四段121號","121.484913333333","25.0522366666667","6500200","三重區"
"241006","743-BX","2018/07/02 15:59:22","新北市三重區成功路108巷6-1號","121.486918333333","25.0510866666667","6500200","三重區"
"241012","941-UM","2018/07/02 15:59:21","新北市三重區文化北路96號","121.49856","25.0659516666667","6500200","三重區"
"241029","942-UM","2018/07/02 15:59:43","新北市三重區大同南路212巷42號","121.497833333333","25.056755","6500200","三重區"
"247010","341-TH","2018/07/02 15:52:12","新北市五股區中興路三段163號","121.449038333333","25.0806916666667","6501400","蘆洲區"
"247006","336-TH","2018/07/02 15:42:03","新北市五股區中興路三段163號","121.449133333333","25.0807033333333","6501400","蘆洲區"
"224007","275-VK","2018/07/02 15:59:21","新北市瑞芳區大寮路158號","121.77707","25.0998483333333","6501200","瑞芳區"
"227008","642-TC","2018/07/02 15:59:29","新北市雙溪區三港里雙澳路32-2號","121.871086666667","25.05017","6502500","雙溪區"
"227001","400-TW","2018/07/02 15:59:37","新北市雙溪區平林里外平林76號","121.841956666667","25.0348566666667","6502500","雙溪區"
"236074","166-UM","2018/07/02 15:59:29","新北市土城區金安街30號","121.420821666667","24.9648466666667","6501300","土城區"
"236057","912-UM","2018/07/02 15:59:40","新北市土城區中央路二段218號","121.44196","24.97549","6501300","土城區"
"238002","755-BX","2018/07/02 15:59:34","新北市樹林區啟智街80巷6號","121.41921","24.9922416666667","6500700","樹林區"
"238010","601-UM","2018/07/02 15:59:31","新北市樹林區龍興街31巷19號","121.403678333333","25.016115","6500700","樹林區"
"238006","599-UM","2018/07/02 15:59:38","新北市樹林區國凱街140巷18號","121.42409","24.9801416666667","6500700","樹林區"
"238005","571-TV","2018/07/02 15:59:30","新北市樹林區博愛街69號","121.427176666667","24.9922216666667","6500700","樹林區"
"238011","5061-A6","2018/07/02 15:59:35","新北市樹林區佳園路一段58號","121.393073333333","24.970375","6500700","樹林區"
"238012","303-VK","2018/07/02 15:59:21","新北市樹林區中正路22-1號","121.427795","24.9993166666667","6500700","樹林區"
"238001","283-BY","2018/07/02 15:59:25","新北市樹林區中正路433-1號","121.414906666667","25.0081033333333","6500700","樹林區"
"238001","282-BY","2018/07/02 15:59:40","新北市樹林區千歲街28巷11號","121.425961666667","24.99578","6500700","樹林區"
"238007","268-VK","2018/07/02 15:59:34","新北市新莊區龍安路254巷18-1號","121.420703333333","25.0184983333333","6500700","樹林區"
"238013","172-UY","2018/07/02 15:59:27","新北市樹林區佳園路一段71-3號","121.393328333333","24.970075","6500700","樹林區"
"238003","169-UY","2018/07/02 15:58:46","新北市樹林區文化街5巷6號","121.420108333333","24.9868616666667","6500700","樹林區"
"220010","295-UM","2018/07/02 15:52:38","新北市板橋區民生路二段20號","121.473155","25.0167766666667","6500100","板橋區"
