"lineid","car","time","location","longitude","latitude","cityid","cityname"
"231046","188-VK","2018/07/02 16:27:25","新北市新店區灣潭路3-3號","121.538253333333","24.9507916666667","6500600","新店區"
"241011","013-R5","2018/07/02 16:27:30","新北市三重區龍濱路190號","121.501243333333","25.0731716666667","6500200","三重區"
"241028","022-UY","2018/07/02 16:27:33","新北市三重區重安街170巷6號","121.496338333333","25.054745","6500200","三重區"
"241008","059-VK","2018/07/02 16:27:22","新北市三重區力行路二段136巷45弄12號","121.479073333333","25.07539","6500200","三重區"
"241022","060-VK","2018/07/02 16:27:38","新北市三重區重陽路二段2號","121.486533333333","25.0616283333333","6500200","三重區"
"241031","061-VK","2018/07/02 16:27:36","新北市三重區重陽路一段45號","121.486733333333","25.0580216666667","6500200","三重區"
"241015","062-VK","2018/07/02 16:27:27","新北市三重區福德北路81號","121.50209","25.0659766666667","6500200","三重區"
"241017","063-VK","2018/07/02 16:27:26","新北市三重區大同北路83號","121.494878333333","25.0636683333333","6500200","三重區"
"241024","065-VK","2018/07/02 16:27:41","新北市三重區中正北路269號","121.47531","25.0711866666667","6500200","三重區"
"241026","066-VK","2018/07/02 16:27:29","新北市三重區正義南路181巷1號","121.499006666667","25.05714","6500200","三重區"
"241002","090-VK","2018/07/02 16:27:36","新北市三重區五華街7巷16號","121.495718333333","25.0804416666667","6500200","三重區"
"241003","091-VK","2018/07/02 16:27:31","新北市三重區仁義街319號","121.49544","25.0843283333333","6500200","三重區"
"241007","742-BX","2018/07/02 16:27:21","新北市三重區三和路四段167巷161號","121.488375","25.08032","6500200","三重區"
"241005","262-UM","2018/07/02 16:27:39","新北市三重區溪尾街300-2號","121.487431666667","25.08367","6500200","三重區"
"241020","265-UM","2018/07/02 16:27:34","新北市三重區力行路一段247號","121.482626666667","25.0708283333333","6500200","三重區"
"241016","266-UM","2018/07/02 16:27:34","新北市三重區自強路一段160巷2弄55號","121.494336666667","25.065765","6500200","三重區"
"241009","267-UM","2018/07/02 16:27:31","新北市三重區三和路四段203巷121號","121.484821666667","25.0799166666667","6500200","三重區"
"241018","268-UM","2018/07/02 16:27:39","新北市三重區重陽路四段20-1號","121.491096666667","25.06929","6500200","三重區"
"241032","269-UM","2018/07/02 16:27:31","新北市三重區三陽路116巷4號","121.483095","25.0580716666667","6500200","三重區"
"241013","270-UM","2018/07/02 16:27:39","新北市三重區龍門路144號","121.498376666667","25.0731233333333","6500200","三重區"
"241025","271-UM","2018/07/02 16:27:26","新北市三重區中正北路560巷100弄2號","121.47242","25.0682233333333","6500200","三重區"
"241004","475-VK","2018/07/02 16:27:32","新北市三重區仁愛街377巷3號","121.491978333333","25.0805633333333","6500200","三重區"
"241030","480-VK","2018/07/02 16:27:37","新北市三重區成功路187號","121.485633333333","25.0529066666667","6500200","三重區"
"241014","543-UM","2018/07/02 16:27:37","新北市三重區長壽街196號","121.504095","25.0691433333333","6500200","三重區"
"241023","545-UM","2018/07/02 16:27:41","新北市三重區忠孝路三段50巷43號","121.482855","25.0644666666667","6500200","三重區"
"241001","547-UM","2018/07/02 16:27:36","新北市三重區仁愛街306號","121.492018333333","25.0795483333333","6500200","三重區"
"241019","KEA-2593","2018/07/02 16:27:31","新北市三重區重陽路三段97號","121.490331666667","25.0680616666667","6500200","三重區"
"241006","743-BX","2018/07/02 16:18:02","新北市三重區永福街46巷41弄3號","121.482058333333","25.0771533333333","6500200","三重區"
"241012","941-UM","2018/07/02 16:27:21","新北市三重區河邊北街311號","121.502458333333","25.0748383333333","6500200","三重區"
"241029","942-UM","2018/07/02 16:27:23","新北市三重區集美街126巷6號","121.489156666667","25.0536583333333","6500200","三重區"
"235026","800-TS","2018/07/02 16:27:32","新北市中和區永和路171巷1弄1號","121.492333333333","25.00703","6500300","中和區"
"247008","056-VK","2018/07/02 16:27:32","新北市五股區中興路三段2巷10號","121.449143333333","25.08091","6501400","蘆洲區"
"224008","285-BY","2018/07/02 16:27:26","新北市瑞芳區大寮路356-1號","121.785021666667","25.10336","6501200","瑞芳區"
"224007","275-VK","2018/07/02 16:27:41","新北市瑞芳區大埔路108-3號","121.76242","25.1022516666667","6501200","瑞芳區"
"224005","271-BY","2018/07/02 16:27:30","新北市瑞芳區阿美家園2號","121.821928333333","25.1160533333333","6501200","瑞芳區"
"227008","642-TC","2018/07/02 16:27:29","新北市雙溪區三港里雙澳路37-5號","121.87274","25.0501833333333","6502500","雙溪區"
"227001","400-TW","2018/07/02 16:27:37","新北市雙溪區上林里內平林111號","121.826101666667","25.026985","6502500","雙溪區"
"251013","KEA-2871","2018/07/02 16:27:25","新北市淡水區北新路三段162號","121.492395","25.191525","6501000","淡水區"
"251016","179-VK","2018/07/02 16:27:35","新北市淡水區中正路二段31號","121.419583333333","25.181475","6501000","淡水區"
"251014","180-VK","2018/07/02 16:27:32","新北市淡水區淡金路三段8-1號","121.447096666667","25.1980633333333","6501000","淡水區"
"251008","443-VK","2018/07/02 16:27:37","新北市淡水區民生路135巷98號","121.468078333333","25.1410883333333","6501000","淡水區"
"238002","755-BX","2018/07/02 16:27:34","新北市樹林區中山路三段92號","121.39325","24.9722666666667","6500700","樹林區"
"238006","599-UM","2018/07/02 16:27:34","新北市樹林區東華街71號","121.415703333333","24.9809716666667","6500700","樹林區"
"238025","303-VK","2018/07/02 16:27:30","新北市樹林區中正路17號","121.427833333333","24.9992333333333","6500700","樹林區"
"238001","283-BY","2018/07/02 16:27:25","新北市樹林區中正路433-1號","121.414721666667","25.00797","6500700","樹林區"
"238001","282-BY","2018/07/02 16:27:20","新北市樹林區中正路22-1號","121.427751666667","24.9996566666667","6500700","樹林區"
"238007","268-VK","2018/07/02 16:27:34","新北市樹林區三龍街43號","121.414486666667","25.0186966666667","6500700","樹林區"
