"lineid","car","time","location","longitude","latitude","cityid","cityname"
"249003","759-BX","2018/07/02 16:39:26","新北市八里區博物館路10-1號","121.415363333333","25.164135","6502300","八里區"
"231046","188-VK","2018/07/02 16:39:25","新北市新店區灣潭路46號","121.54288","24.9452516666667","6500600","新店區"
"241011","013-R5","2018/07/02 16:39:36","新北市三重區仁愛街45號","121.496765","25.0717066666667","6500200","三重區"
"241028","022-UY","2018/07/02 16:39:33","新北市三重區中正南路5號","121.493393333333","25.0603516666667","6500200","三重區"
"241008","059-VK","2018/07/02 16:39:22","新北市三重區永安北路一段27巷21號","121.477125","25.0754666666667","6500200","三重區"
"241022","060-VK","2018/07/02 16:39:38","新北市三重區三民街89號","121.48558","25.0631733333333","6500200","三重區"
"241031","061-VK","2018/07/02 16:39:36","新北市三重區過圳街18號","121.48873","25.059045","6500200","三重區"
"241015","062-VK","2018/07/02 16:39:27","新北市三重區文化北路37號","121.499015","25.06499","6500200","三重區"
"241017","063-VK","2018/07/02 16:39:26","新北市三重區中正北路25巷5號","121.492573333333","25.062155","6500200","三重區"
"241024","065-VK","2018/07/02 16:39:41","新北市三重區中正北路315巷6弄70號","121.476635","25.072515","6500200","三重區"
"241026","066-VK","2018/07/02 16:39:29","新北市三重區福德南路21-3號","121.50231","25.062865","6500200","三重區"
"241002","090-VK","2018/07/02 16:39:23","新北市三重區仁義街241巷16號","121.496703333333","25.08289","6500200","三重區"
"241003","091-VK","2018/07/02 16:39:31","新北市三重區五華街71巷25號","121.493118333333","25.0831816666667","6500200","三重區"
"241007","742-BX","2018/07/02 16:39:21","新北市三重區三和路四段167巷49號","121.485343333333","25.0794183333333","6500200","三重區"
"241005","262-UM","2018/07/02 16:39:39","新北市三重區仁華街118巷11號","121.486135","25.0832616666667","6500200","三重區"
"241020","265-UM","2018/07/02 16:39:34","新北市三重區力行路一段247號","121.4826","25.0707866666667","6500200","三重區"
"241016","266-UM","2018/07/02 16:39:34","新北市三重區大智街5號","121.49484","25.0649683333333","6500200","三重區"
"241009","267-UM","2018/07/02 16:39:31","新北市三重區三和路四段203巷71號","121.483696666667","25.0798233333333","6500200","三重區"
"241018","268-UM","2018/07/02 16:39:39","新北市三重區六張街85-1號","121.493015","25.070255","6500200","三重區"
"241032","269-UM","2018/07/02 16:39:31","新北市三重區三民街28號","121.485633333333","25.0611466666667","6500200","三重區"
"241013","270-UM","2018/07/02 16:39:39","新北市三重區三和路三段101巷64號","121.496298333333","25.0730283333333","6500200","三重區"
"241025","271-UM","2018/07/02 16:39:26","新北市三重區中正北路430-3號","121.474523333333","25.0707016666667","6500200","三重區"
"241004","475-VK","2018/07/02 16:39:32","新北市三重區五福街28號","121.492531666667","25.081225","6500200","三重區"
"241030","480-VK","2018/07/02 16:39:37","新北市三重區環河南路286號","121.48933","25.0489133333333","6500200","三重區"
"241014","543-UM","2018/07/02 16:39:37","新北市三重區龍濱路33號","121.502956666667","25.0682883333333","6500200","三重區"
"241023","545-UM","2018/07/02 16:39:20","新北市三重區忠孝路三段50巷43號","121.482806666667","25.0642933333333","6500200","三重區"
"241001","547-UM","2018/07/02 16:39:36","新北市三重區仁愛街202號","121.493908333333","25.077475","6500200","三重區"
"241019","KEA-2593","2018/07/02 16:39:31","新北市三重區力行路一段79號","121.486986666667","25.0676283333333","6500200","三重區"
"241006","743-BX","2018/07/02 16:39:22","新北市三重區力行路二段162巷7號","121.48259","25.0766366666667","6500200","三重區"
"241012","941-UM","2018/07/02 16:39:41","新北市三重區河邊北街355號","121.50216","25.0758083333333","6500200","三重區"
"241029","942-UM","2018/07/02 16:39:23","新北市三重區集美街112巷15號","121.48951","25.0541516666667","6500200","三重區"
"235026","800-TS","2018/07/02 16:39:32","新北市中和區建八路137號","121.490183333333","24.9986933333333","6500300","中和區"
"247010","341-TH","2018/07/02 16:39:33","新北市蘆洲區中正路507號","121.459741666667","25.09788","6501400","蘆洲區"
"247006","336-TH","2018/07/02 16:39:30","新北市五股區工商路8號","121.440983333333","25.0827483333333","6501400","蘆洲區"
"247008","056-VK","2018/07/02 16:39:32","新北市蘆洲區永安南路二段108-2號","121.462783333333","25.0784016666667","6501400","蘆洲區"
"228002","663-BX","2018/07/02 16:39:38","新北市貢寮區貢寮里朝陽街28-1號","121.911196666667","25.02162","6502600","貢寮區"
"224008","285-BY","2018/07/02 16:39:26","新北市瑞芳區中山路251號","121.797741666667","25.1095633333333","6501200","瑞芳區"
"224007","275-VK","2018/07/02 16:39:41","新北市瑞芳區中央路23號","121.761958333333","25.1034233333333","6501200","瑞芳區"
"224005","271-BY","2018/07/02 16:39:30","新北市瑞芳區洞頂路101巷80號","121.856213333333","25.1242316666667","6501200","瑞芳區"
"227008","642-TC","2018/07/02 16:39:29","新北市雙溪區牡丹里中正路72號","121.864211666667","25.0444366666667","6502500","雙溪區"
"227001","400-TW","2018/07/02 16:39:37","新北市雙溪區外柑里外柑腳56號","121.807978333333","25.0178916666667","6502500","雙溪區"
"251013","KEA-2871","2018/07/02 16:39:25","新北市淡水區楓樹湖3-3號","121.496593333333","25.1865533333333","6501000","淡水區"
"251016","179-VK","2018/07/02 16:39:36","新北市淡水區北新路一段2號","121.453476666667","25.1808816666667","6501000","淡水區"
"251014","180-VK","2018/07/02 16:39:32","新北市淡水區淡金路四段478號","121.452436666667","25.2239166666667","6501000","淡水區"
"251008","443-VK","2018/07/02 16:39:37","新北市淡水區民生路169號","121.470583333333","25.1426916666667","6501000","淡水區"
"252002","178-VK","2018/07/02 16:39:31","新北市三芝區芝柏三街2號","121.51139","25.2564916666667","6502100","三芝區"
"242053","751-BX","2018/07/02 16:39:31","新北市新莊區新泰路357巷3弄57號","121.442045","25.0391683333333","6500500","新莊區"
"238025","303-VK","2018/07/02 16:39:30","新北市樹林區中正路22-1號","121.427851666667","24.99928","6500700","樹林區"
"238001","283-BY","2018/07/02 16:39:25","新北市樹林區三多路123號","121.414638333333","25.00795","6500700","樹林區"
"238001","282-BY","2018/07/02 16:39:40","新北市樹林區大慶街99-1號","121.42769","24.99965","6500700","樹林區"
"238007","268-VK","2018/07/02 16:39:34","新北市樹林區俊英街121巷2號","121.424585","25.010455","6500700","樹林區"
