"lineid","car","time","location","longitude","latitude","cityid","cityname"
"234026","9371-KE","2018/07/02 17:39:27","新北市永和區中正路647號","121.515196666667","25.0101633333333","6500400","永和區"
"249005","172-UM","2018/07/02 17:39:35","新北市八里區荖阡坑路34-1號","121.402713333333","25.129695","6502300","八里區"
"249001","173-UM","2018/07/02 17:39:35","新北市八里區龍米路二段157-1號","121.439901666667","25.15362","6502300","八里區"
"249004","303-UY","2018/07/02 17:39:24","新北市八里區大崁三街15-6號","121.416145","25.1576433333333","6502300","八里區"
"249002","305-UY","2018/07/02 17:39:23","新北市八里區頂寮二街121巷18-28號","121.44646","25.1270366666667","6502300","八里區"
"249003","759-BX","2018/07/02 17:39:26","新北市八里區中山路二段191號","121.404593333333","25.1499933333333","6502300","八里區"
"232011","375-UM","2018/07/02 17:39:29","新北市坪林區水柳腳38號","121.709806666667","24.9352","6502000","坪林區"
"244007","080-UY","2018/07/02 17:39:28","新北市林口區林口路272巷15號","121.386583333333","25.08468","6501700","林口區"
"244019","403-UM","2018/07/02 17:39:37","新北市林口區文化一路一段111號","121.373096666667","25.071085","6501700","林口區"
"244009","410-SL","2018/07/02 17:39:26","新北市林口區民享路218號","121.38288","25.08469","6501700","林口區"
"244023","483-VK","2018/07/02 17:39:28","新北市林口區興林路366號","121.388958333333","25.0692483333333","6501700","林口區"
"244017","485-VK","2018/07/02 17:39:30","新北市林口區忠孝路371-1號","121.369006666667","25.0719316666667","6501700","林口區"
"244011","657-BX","2018/07/02 17:39:29","新北市林口區佳林路211號","121.384251666667","25.0770483333333","6501700","林口區"
"244025","837-TS","2018/07/02 17:39:39","新北市林口區文化三路一段392號","121.36572","25.0729166666667","6501700","林口區"
"244021","838-TS","2018/07/02 17:39:33","新北市林口區仁愛路一段12號","121.397755","25.0751266666667","6501700","林口區"
"243013","AAD-798","2018/07/02 17:27:21","新北市泰山區黎明路25號","121.42206","25.060815","6501600","泰山區"
"222002","659-BX","2018/07/02 17:39:33","新北市深坑區深南路31號","121.619553333333","25.0097766666667","6501800","深坑區"
"231046","188-VK","2018/07/02 17:39:45","新北市新店區直潭路92號","121.53091","24.937565","6500600","新店區"
"241017","063-VK","2018/07/02 17:39:26","新北市三重區重新路三段47巷5弄1號","121.492906666667","25.0618733333333","6500200","三重區"
"241005","262-UM","2018/07/02 17:39:39","新北市三重區碧華街3號","121.483658333333","25.0810833333333","6500200","三重區"
"241020","265-UM","2018/07/02 17:39:34","新北市三重區忠孝路一段149號","121.48814","25.0719633333333","6500200","三重區"
"241016","266-UM","2018/07/02 17:39:34","新北市三重區正義北路49號","121.497425","25.0639933333333","6500200","三重區"
"241024","KEA-2210","2018/07/02 17:39:37","新北市三重區車路頭街34巷2號","121.483806666667","25.0715316666667","6500200","三重區"
"241014","543-UM","2018/07/02 17:39:37","新北市三重區河邊北街80號","121.504398333333","25.0689233333333","6500200","三重區"
"241023","545-UM","2018/07/02 17:39:41","新北市三重區中華路109號","121.483645","25.0634683333333","6500200","三重區"
"241006","743-BX","2018/07/02 17:39:42","新北市八里區商港路120號","121.392888333333","25.1499516666667","6500200","三重區"
"241012","941-UM","2018/07/02 17:39:40","新北市三重區仁興街24巷1號","121.499256666667","25.075195","6500200","三重區"
"235064","005-UY","2018/07/02 17:39:28","新北市中和區員山路36巷16-3號","121.485133333333","24.991325","6500300","中和區"
"247024","893-R6","2018/07/02 17:39:44","新北市蘆洲區長樂路125-1號","121.462081666667","25.0880633333333","6501400","蘆洲區"
"247014","546-UM","2018/07/02 17:39:31","新北市蘆洲區中山二路126號","121.471975","25.0816833333333","6501400","蘆洲區"
"247022","500-BY","2018/07/02 17:39:33","新北市蘆洲區民族路546號","121.467693333333","25.089255","6501400","蘆洲區"
"247010","341-TH","2018/07/02 17:39:33","新北市蘆洲區中山一路74巷5號","121.478725","25.0811283333333","6501400","蘆洲區"
"247012","339-TH","2018/07/02 17:39:41","新北市蘆洲區民權路3巷4號","121.476323333333","25.0856016666667","6501400","蘆洲區"
"247004","337-TH","2018/07/02 17:39:36","新北市蘆洲區長安街249巷24號","121.458305","25.0830183333333","6501400","蘆洲區"
"247006","336-TH","2018/07/02 17:39:30","新北市蘆洲區長安街68巷12號","121.4632","25.0805283333333","6501400","蘆洲區"
"247018","057-VK","2018/07/02 17:39:32","新北市蘆洲區民權路63號","121.473606666667","25.0880183333333","6501400","蘆洲區"
"247008","056-VK","2018/07/02 17:39:32","新北市蘆洲區和平路15號","121.472731666667","25.0791833333333","6501400","蘆洲區"
"247016","007-UY","2018/07/02 17:39:30","新北市蘆洲區光華路70巷6號","121.46782","25.0834016666667","6501400","蘆洲區"
"247002","002-UY","2018/07/02 17:39:25","新北市蘆洲區永平街32巷1號","121.458631666667","25.0909816666667","6501400","蘆洲區"
"247020","001-UY","2018/07/02 17:39:31","新北市蘆洲區民族路355號","121.471891666667","25.091715","6501400","蘆洲區"
"228003","097-TW","2018/07/02 17:39:45","新北市貢寮區仁理村仁和路186號","121.923365","25.0522866666667","6502600","貢寮區"
"228002","663-BX","2018/07/02 17:39:38","新北市貢寮區福隆里龜壽谷街27號","121.952565","25.0121433333333","6502600","貢寮區"
"228001","670-TC","2018/07/02 17:39:38","新北市貢寮區仁理村仁愛路95-1號","121.927713333333","25.0554516666667","6502600","貢寮區"
"224010","AGQ-8101","2018/07/02 17:34:37","新北市瑞芳區逢甲路149號","121.807001666667","25.1100283333333","6501200","瑞芳區"
"224006","676-BX","2018/07/02 17:39:27","新北市瑞芳區中山路326號","121.796503333333","25.110175","6501200","瑞芳區"
"224008","285-BY","2018/07/02 17:39:43","新北市瑞芳區瑞柑新村33號","121.82979","25.10746","6501200","瑞芳區"
"224009","273-VK","2018/07/02 17:39:26","新北市瑞芳區崙頂路1-6號","121.847236666667","25.1045183333333","6501200","瑞芳區"
"224005","271-BY","2018/07/02 17:39:30","新北市瑞芳區海濱路8-6號","121.831688333333","25.1261833333333","6501200","瑞芳區"
"227008","642-TC","2018/07/02 17:39:29","新北市雙溪區三貂里定福路1-2號","121.850678333333","25.0635016666667","6502500","雙溪區"
"251004","009-UM","2018/07/02 17:39:28","新北市淡水區中正東路二段88巷37號","121.459276666667","25.14667","6501000","淡水區"
"251005","010-UM","2018/07/02 17:39:27","新北市淡水區鄧公路32巷1號","121.45146","25.171275","6501000","淡水區"
"251001","011-UM","2018/07/02 17:39:32","新北市淡水區民權路92巷35-1號","121.46219","25.1266466666667","6501000","淡水區"
"251013","KEA-2871","2018/07/02 17:39:25","新北市淡水區演戲埔腳11號","121.469725","25.1947383333333","6501000","淡水區"
"251016","179-VK","2018/07/02 17:39:35","新北市淡水區埤島39-15號","121.452806666667","25.19588","6501000","淡水區"
"251014","180-VK","2018/07/02 17:39:32","新北市淡水區公埔子16-6號","121.481023333333","25.224575","6501000","淡水區"
"251015","181-VK","2018/07/02 17:39:30","新北市淡水區興福寮1-7號","121.487153333333","25.16569","6501000","淡水區"
"251010","413-VK","2018/07/02 17:39:37","新北市淡水區淡海路280巷97號","121.41994","25.1891383333333","6501000","淡水區"
"251012","441-VK","2018/07/02 17:39:37","新北市淡水區北新路200巷8號","121.451773333333","25.1796616666667","6501000","淡水區"
"251007","442-VK","2018/07/02 17:39:34","新北市淡水區民族路33巷2號","121.46427","25.13747","6501000","淡水區"
"251008","443-VK","2018/07/02 17:39:32","新北市淡水區八勢路一段123巷5弄3號","121.466595","25.1564766666667","6501000","淡水區"
"251006","561-UM","2018/07/02 17:39:43","新北市淡水區大信街30號","121.442068333333","25.177015","6501000","淡水區"
"251009","575-R6","2018/07/02 17:39:30","新北市淡水區中正路28號","121.444328333333","25.169075","6501000","淡水區"
"251011","650-BX","2018/07/02 17:39:32","新北市淡水區小坪頂20-2號","121.484738333333","25.1581316666667","6501000","淡水區"
"251002","672-BX","2018/07/02 17:39:25","新北市淡水區中山路135號","121.440978333333","25.1714566666667","6501000","淡水區"
"251003","766-UM","2018/07/02 17:39:28","新北市淡水區中山北路一段64號","121.442003333333","25.1758066666667","6501000","淡水區"
"207003","550-UM","2018/07/02 17:39:25","新北市萬里區龜吼里漁澳路25-1號","121.686203333333","25.1947583333333","6502800","萬里區"
"207004","225-TW","2018/07/02 17:39:22","新北市萬里區中幅里中福路8-1號","121.685843333333","25.1649333333333","6502800","萬里區"
"252002","178-VK","2018/07/02 17:39:31","新北市三芝區中正路二段11號","121.504655","25.2555633333333","6502100","三芝區"
"252001","292-VK","2018/07/02 17:39:28","新北市三芝區淡金路一段83號","121.502093333333","25.2589833333333","6502100","三芝區"
"237004","KEA-2597","2018/07/02 17:39:43","新北市三峽區中山路459巷163-3號","121.349086666667","24.9332766666667","6500900","三峽區"
"237013","252-BX","2018/07/02 17:39:32","新北市三峽區愛國路33-9號","121.374953333333","24.9329516666667","6500900","三峽區"
"237012","275-BY","2018/07/02 17:39:40","新北市三峽區中山路459巷163-3號","121.348835","24.93314","6500900","三峽區"
"237014","433-BY","2018/07/02 17:39:25","新北市三峽區中山路459巷163-3號","121.348651666667","24.93285","6500900","三峽區"
"237006","5529-G3","2018/07/02 17:39:39","新北市三峽區介壽路一段550號","121.387118333333","24.9334166666667","6500900","三峽區"
"237011","KEA-2596","2018/07/02 17:39:27","新北市三峽區中山路459巷137號","121.349923333333","24.9335766666667","6500900","三峽區"
"237015","649-BX","2018/07/02 17:39:27","新北市三峽區正義街92號","121.36886","24.9176316666667","6500900","三峽區"
"237010","706-TV","2018/07/02 17:39:28","新北市三峽區中山路145號","121.364985","24.9362233333333","6500900","三峽區"
"237005","AKY-6261","2018/07/02 17:39:29","新北市三峽區中山路459巷163-3號","121.348598333333","24.9330083333333","6500900","三峽區"
"236078","166-UM","2018/07/02 17:39:29","新北市土城區城林路6巷80號","121.438525","24.9796966666667","6501300","土城區"
"236014","270-VK","2018/07/02 17:39:39","新北市土城區城林路6巷80號","121.43852","24.9796033333333","6501300","土城區"
"236039","271-VK","2018/07/02 17:39:33","新北市土城區城林路6巷80號","121.4385","24.9798333333333","6501300","土城區"
"236055","AAC-216","2018/07/02 17:39:30","新北市土城區城林路6巷80號","121.438426666667","24.9795866666667","6501300","土城區"
"242034","AAC-296","2018/07/02 17:39:30","新北市新莊區新莊路504號","121.446081666667","25.033235","6500500","新莊區"
"242058","986-R7","2018/07/02 17:39:33","新北市新莊區中正路626號","121.42218","25.0288516666667","6500500","新莊區"
"242053","751-BX","2018/07/02 17:39:32","新北市新莊區新樹路699巷2號","121.432326666667","25.002155","6500500","新莊區"
"242027","615-BX","2018/07/02 17:39:34","新北市新莊區福壽街116號","121.457995","25.05084","6500500","新莊區"
"242025","613-BX","2018/07/02 17:39:26","新北市新莊區思源路116號","121.460078333333","25.0468166666667","6500500","新莊區"
"242029","612-BX","2018/07/02 17:39:32","新北市新莊區復興路一段159號","121.450873333333","25.0432983333333","6500500","新莊區"
"242042","566-BX","2018/07/02 17:39:32","新北市新莊區中正路514巷49號","121.43226","25.03358","6500500","新莊區"
"242046","497-BY","2018/07/02 17:39:26","新北市新莊區建國一路19號","121.433915","25.0316","6500500","新莊區"
"242050","442-UM","2018/07/02 17:39:36","新北市新莊區西盛街223號","121.428118333333","25.01656","6500500","新莊區"
"242036","415-TV","2018/07/02 17:39:27","新北市新莊區建福路59巷49號","121.428676666667","25.0278533333333","6500500","新莊區"
"242007","413-TV","2018/07/02 17:39:26","新北市新莊區自信街24號","121.454041666667","25.0482666666667","6500500","新莊區"
"242044","400-BY","2018/07/02 17:39:25","新北市新莊區富國路16號","121.418413333333","25.0262933333333","6500500","新莊區"
"242023","362-BY","2018/07/02 17:39:44","新北市新莊區民樂街59號","121.45793","25.0416966666667","6500500","新莊區"
"242060","353-BY","2018/07/02 17:39:39","新北市新莊區瓊林南路219號","121.434646666667","25.0089033333333","6500500","新莊區"
"242009","132-UY","2018/07/02 17:39:27","新北市新莊區昌明街14巷8弄2號","121.457441666667","25.0531233333333","6500500","新莊區"
"242039","133-UY","2018/07/02 17:39:39","新北市新莊區民安東路43巷3號","121.429066666667","25.0214","6500500","新莊區"
"242031","135-UY","2018/07/02 17:39:39","新北市新莊區新泰路336號","121.444791666667","25.0420783333333","6500500","新莊區"
"242048","172-VK","2018/07/02 17:39:35","新北市新莊區萬安街145號","121.420428333333","25.02178","6500500","新莊區"
"242011","173-VK","2018/07/02 17:39:25","新北市新莊區中港路599號","121.451463333333","25.0529883333333","6500500","新莊區"
"242017","175-VK","2018/07/02 17:39:38","新北市新莊區復興路一段149巷21弄1號","121.45022","25.04412","6500500","新莊區"
"242004","176-VK","2018/07/02 17:39:42","新北市新莊區自立街216號","121.457156666667","25.0453766666667","6500500","新莊區"
"242015","346-TH","2018/07/02 17:39:36","新北市新莊區新泰路332號","121.444961666667","25.04198","6500500","新莊區"
"242056","347-TH","2018/07/02 17:39:36","新北市新莊區泰豐街22號","121.448435","25.0315483333333","6500500","新莊區"
"242021","348-TH","2018/07/02 17:39:28","新北市新莊區中華路一段180號","121.452698333333","25.04191","6500500","新莊區"
"242002","349-TH","2018/07/02 17:39:43","新北市新莊區新莊路208號","121.453493333333","25.0345366666667","6500500","新莊區"
"242019","350-TH","2018/07/02 17:39:29","新北市新莊區中港路176號","121.454896666667","25.0419666666667","6500500","新莊區"
"242013","351-TH","2018/07/02 17:39:34","新北市新莊區中誠街122號","121.449288333333","25.0476333333333","6500500","新莊區"
"238015","755-BX","2018/07/02 17:39:37","新北市樹林區啟智街34號","121.420726666667","24.9931933333333","6500700","樹林區"
"238023","601-UM","2018/07/02 17:39:31","新北市樹林區三福街114號","121.40649","25.016295","6500700","樹林區"
"238019","599-UM","2018/07/02 17:39:34","新北市樹林區太順街25號","121.419288333333","24.9798866666667","6500700","樹林區"
"238018","571-TV","2018/07/02 17:39:34","新北市樹林區鎮前街1號","121.426088333333","24.992985","6500700","樹林區"
"238024","5061-A6","2018/07/02 17:39:24","新北市樹林區八德街262-1號","121.417715","24.9721816666667","6500700","樹林區"
"238022","KEA-2213","2018/07/02 17:39:37","新北市樹林區太順街52號","121.418148333333","24.9794516666667","6500700","樹林區"
"238021","KEA-2539","2018/07/02 17:39:27","新北市樹林區柑園街一段295號","121.393098333333","24.9563116666667","6500700","樹林區"
"238025","303-VK","2018/07/02 17:39:37","新北市樹林區保安街二段341號","121.412563333333","25.0094133333333","6500700","樹林區"
"238017","283-BY","2018/07/02 17:39:25","新北市樹林區三德街30巷33號","121.414735","25.0121916666667","6500700","樹林區"
"238014","282-BY","2018/07/02 17:39:40","新北市樹林區保安街一段336巷1-4號","121.41802","24.9984616666667","6500700","樹林區"
"238020","268-VK","2018/07/02 17:39:34","新北市樹林區俊英街112號","121.427451666667","25.0054816666667","6500700","樹林區"
"238026","172-UY","2018/07/02 17:39:27","新北市樹林區新興街19巷36弄16號","121.402395","24.9729016666667","6500700","樹林區"
"238016","169-UY","2018/07/02 17:39:26","新北市樹林區文化街56號","121.41797","24.9885516666667","6500700","樹林區"
"239006","891-R6","2018/07/02 17:39:23","新北市鶯歌區永和街34巷21號","121.333871666667","24.9672633333333","6500800","鶯歌區"
"239008","527-UM","2018/07/02 17:39:25","新北市鶯歌區大湖路732巷15弄2號","121.332865","24.9778483333333","6500800","鶯歌區"
"239005","526-UM","2018/07/02 17:39:33","新北市鶯歌區鶯桃路二段20號","121.326158333333","24.9723416666667","6500800","鶯歌區"
"239001","417-VK","2018/07/02 17:39:36","新北市鶯歌區中正三路248號","121.329825","24.9365266666667","6500800","鶯歌區"
"239003","360-BY","2018/07/02 17:39:33","新北市鶯歌區永吉街11巷46號","121.33738","24.9571883333333","6500800","鶯歌區"
"239002","359-BY","2018/07/02 17:39:30","新北市鶯歌區南雅路457號","121.34641","24.9540166666667","6500800","鶯歌區"
"239004","193-VK","2018/07/02 17:39:27","新北市鶯歌區三鶯路94號","121.35878","24.9436366666667","6500800","鶯歌區"
"221008","489-VK","2018/07/02 17:39:26","新北市汐止區康寧街901號","121.651343333333","25.0749566666667","6501100","汐止區"
"221036","130-UY","2018/07/02 17:39:40","新北市汐止區汐萬路一段256巷1號","121.651913333333","25.074835","6501100","汐止區"
"221010","269-BY","2018/07/02 17:39:40","新北市汐止區汐萬路一段418巷35號","121.650673333333","25.07893","6501100","汐止區"
"221023","279-VK","2018/07/02 17:39:37","新北市汐止區康寧街901號","121.651633333333","25.0748483333333","6501100","汐止區"
"221032","280-BY","2018/07/02 17:39:37","新北市汐止區康寧街901號","121.651368333333","25.075025","6501100","汐止區"
"221021","299-VK","2018/07/02 17:39:35","新北市汐止區康寧街901號","121.651115","25.0751016666667","6501100","汐止區"
"221031","353-TW","2018/07/02 17:39:27","新北市汐止區汐萬路一段256巷1號","121.651713333333","25.0748433333333","6501100","汐止區"
"221033","647-BX","2018/07/02 17:39:37","新北市汐止區新台五路一段131號","121.652303333333","25.0620316666667","6501100","汐止區"
"235061","KEA-2875","2018/07/02 17:32:25","新北市中和區員山路36巷16-2號","121.48532","24.991665","6500300","中和區"
