"lineid","car","time","location","longitude","latitude","cityid","cityname"
"234026","9371-KE","2018/07/02 17:59:27","新北市永和區永和路一段45-1號","121.51282","25.0062783333333","6500400","永和區"
"249005","172-UM","2018/07/02 17:59:35","新北市八里區荖阡坑路20號","121.397548333333","25.136445","6502300","八里區"
"249001","173-UM","2018/07/02 17:59:27","新北市八里區龍米路二段35號","121.448515","25.1400166666667","6502300","八里區"
"249004","303-UY","2018/07/02 17:59:44","新北市八里區大崁腳41-3號","121.42611","25.1594316666667","6502300","八里區"
"249002","305-UY","2018/07/02 17:59:43","新北市八里區龍米路一段440巷8號","121.451245","25.13384","6502300","八里區"
"249003","759-BX","2018/07/02 17:59:26","新北市八里區中山路二段306號","121.404708333333","25.15016","6502300","八里區"
"248016","026-BX","2018/07/02 17:59:26","新北市五股區中興路二段83巷26-6號","121.459535","25.0752966666667","6501500","五股區"
"248006","077-UY","2018/07/02 17:59:24","新北市五股區中興路二段83巷26-6號","121.460015","25.07493","6501500","五股區"
"248008","095-VK","2018/07/02 17:59:26","新北市五股區更洲路10號","121.458343333333","25.078795","6501500","五股區"
"248018","225-UY","2018/07/02 17:59:26","新北市五股區中興路二段83巷26-6號","121.460043333333","25.0752116666667","6501500","五股區"
"248012","247-BX","2018/07/02 17:59:31","新北市五股區中興路二段83巷26-6號","121.460148333333","25.075185","6501500","五股區"
"248014","261-SL","2018/07/02 17:59:41","新北市五股區中興路二段182巷3號","121.456496666667","25.07803","6501500","五股區"
"248004","677-BX","2018/07/02 17:59:38","新北市五股區中興路二段182巷3號","121.456488333333","25.078075","6501500","五股區"
"248002","678-BX","2018/07/02 17:59:44","新北市五股區中興路二段83巷26-6號","121.459568333333","25.0752433333333","6501500","五股區"
"248010","682-TV","2018/07/02 17:59:36","新北市五股區中興路二段182巷3號","121.456726666667","25.0781116666667","6501500","五股區"
"232011","375-UM","2018/07/02 17:59:29","新北市坪林區北宜路八段301號","121.711006666667","24.9337733333333","6502000","坪林區"
"244007","080-UY","2018/07/02 17:59:28","新北市林口區林口路82號","121.38902","25.08077","6501700","林口區"
"244019","403-UM","2018/07/02 17:59:36","新北市林口區忠孝路528號","121.372246666667","25.0684083333333","6501700","林口區"
"244013","742-UY","2018/07/02 17:59:36","新北市林口區中山路73號","121.393073333333","25.0784933333333","6501700","林口區"
"244009","410-SL","2018/07/02 17:59:26","新北市林口區佳林路56巷33號","121.38526","25.0809266666667","6501700","林口區"
"244023","483-VK","2018/07/02 17:59:28","新北市林口區隆林街123巷20號","121.3846","25.0740933333333","6501700","林口區"
"244017","485-VK","2018/07/02 17:59:30","新北市林口區文化二路一段226-1號","121.369568333333","25.0725383333333","6501700","林口區"
"244011","657-BX","2018/07/02 17:59:29","新北市林口區中正路164號","121.392293333333","25.0774516666667","6501700","林口區"
"244025","837-TS","2018/07/02 17:59:39","新北市林口區忠孝三路42號","121.360146666667","25.0699","6501700","林口區"
"244021","838-TS","2018/07/02 17:59:33","新北市林口區新寮27-5號","121.396545","25.0666516666667","6501700","林口區"
"243013","AAD-798","2018/07/02 17:59:26","新北市泰山區黎明路33號","121.421821666667","25.0604683333333","6501600","泰山區"
"222003","436-BY","2018/07/02 17:59:38","新北市深坑區炮子崙24號","121.605231666667","24.9877416666667","6501800","深坑區"
"222002","659-BX","2018/07/02 17:59:33","新北市深坑區深坑街35號","121.616013333333","25.00184","6501800","深坑區"
"231046","188-VK","2018/07/02 17:59:45","新北市新店區康雅崙路31號","121.537708333333","24.92595","6500600","新店區"
"221018","KEA-2785","2018/07/02 17:59:35","新北市汐止區忠孝東路382巷3弄1號","121.666026666667","25.0695366666667","6501100","汐止區"
"231056","4715-K9","2018/07/02 17:59:29","新北市新店區安華路3號","121.519025","24.9602533333333","6500600","新店區"
"241016","266-UM","2018/07/02 17:59:34","新北市三重區疏洪西路246號","121.475383333333","25.0616433333333","6500200","三重區"
"241024","KEA-2210","2018/07/02 17:59:37","新北市三重區車路頭街62巷3號","121.48408","25.0725866666667","6500200","三重區"
"241006","743-BX","2018/07/02 17:59:22","新北市八里區荖阡坑路22-5號","121.398625","25.135065","6500200","三重區"
"235064","005-UY","2018/07/02 17:59:29","新北市中和區員山路36巷16-3號","121.485081666667","24.991245","6500300","中和區"
"235063","006-UY","2018/07/02 17:59:36","新北市中和區員山路36巷16-3號","121.485103333333","24.9911733333333","6500300","中和區"
"235065","098-UM","2018/07/02 17:59:32","新北市中和區橋和路270號","121.49539","25.006485","6500300","中和區"
"235040","150-BY","2018/07/02 17:59:28","新北市中和區和城路一段271巷1號","121.485523333333","24.9917883333333","6500300","中和區"
"235058","151-BY","2018/07/02 17:59:25","新北市中和區錦和路350-1號","121.490526666667","24.99352","6500300","中和區"
"235038","185-VK","2018/07/02 17:59:31","新北市中和區中正路192號","121.497561666667","24.9938116666667","6500300","中和區"
"235042","KEA-2878","2018/07/02 17:59:26","新北市中和區錦和路350-1號","121.490271666667","24.9935716666667","6500300","中和區"
"235054","640-BX","2018/07/02 17:59:36","新北市中和區連城路583巷17號","121.47906","24.99342","6500300","中和區"
"235060","647-TV","2018/07/02 17:59:22","新北市中和區員山路36巷16-3號","121.484966666667","24.9916783333333","6500300","中和區"
"235062","800-TS","2018/07/02 17:59:27","新北市中和區員山路36巷16-2號","121.48531","24.9916566666667","6500300","中和區"
"235051","157-BY","2018/07/02 17:59:30","新北市中和區中正路637巷52弄1號","121.48544","24.9935216666667","6500300","中和區"
"235037","AAC-213","2018/07/02 17:59:27","新北市中和區錦和路350-1號","121.490191666667","24.9935466666667","6500300","中和區"
"247024","893-R6","2018/07/02 17:59:44","新北市蘆洲區長興路50巷3號","121.463926666667","25.084075","6501400","蘆洲區"
"247014","546-UM","2018/07/02 17:59:31","新北市蘆洲區忠孝路45號","121.471203333333","25.0862333333333","6501400","蘆洲區"
"247022","500-BY","2018/07/02 17:59:33","新北市蘆洲區中正路506號","121.461838333333","25.09676","6501400","蘆洲區"
"247010","341-TH","2018/07/02 17:59:33","新北市蘆洲區信義路259巷8號","121.478443333333","25.08468","6501400","蘆洲區"
"247012","339-TH","2018/07/02 17:59:22","新北市蘆洲區民族路167巷15號","121.478275","25.0883266666667","6501400","蘆洲區"
"247006","336-TH","2018/07/02 17:59:45","新北市蘆洲區中華街6號","121.463496666667","25.0817016666667","6501400","蘆洲區"
"247018","057-VK","2018/07/02 17:59:32","新北市蘆洲區復興路201號","121.479486666667","25.0895033333333","6501400","蘆洲區"
"247008","056-VK","2018/07/02 17:59:32","新北市蘆洲區成功路27號","121.473191666667","25.0794216666667","6501400","蘆洲區"
"247016","007-UY","2018/07/02 17:59:30","新北市蘆洲區中正路185巷80弄2號","121.465941666667","25.08416","6501400","蘆洲區"
"247002","002-UY","2018/07/02 17:59:25","新北市蘆洲區永平街32巷45弄23號","121.458688333333","25.0928266666667","6501400","蘆洲區"
"247020","001-UY","2018/07/02 17:59:31","新北市蘆洲區民權路131巷10號","121.471378333333","25.089925","6501400","蘆洲區"
"226004","312-R5","2018/07/02 17:59:39","新北市平溪區石底里公園街18-3號","121.733141666667","25.0259533333333","6502400","平溪區"
"228003","097-TW","2018/07/02 17:59:45","新北市貢寮區真理里美艷山街6-2號","121.928781666667","25.0607616666667","6502600","貢寮區"
"228002","663-BX","2018/07/02 17:59:38","新北市貢寮區福連里香蘭街5號","121.973371666667","25.024375","6502600","貢寮區"
"228001","670-TC","2018/07/02 17:59:38","新北市貢寮區真理里新港街26巷53號","121.928243333333","25.0537683333333","6502600","貢寮區"
"224010","AGQ-8101","2018/07/02 17:59:28","新北市瑞芳區汽車路9-3號","121.845516666667","25.109815","6501200","瑞芳區"
"224006","676-BX","2018/07/02 17:59:27","新北市瑞芳區大寮路356-1號","121.784831666667","25.103235","6501200","瑞芳區"
"224002","639-TC","2018/07/02 17:59:36","新北市瑞芳區三爪子坑路32巷1號","121.810281666667","25.1060433333333","6501200","瑞芳區"
"224008","285-BY","2018/07/02 17:59:43","新北市瑞芳區明燈路一段65號","121.820398333333","25.1068633333333","6501200","瑞芳區"
"224009","273-VK","2018/07/02 17:59:38","新北市瑞芳區山尖路2號","121.854096666667","25.1154066666667","6501200","瑞芳區"
"224005","271-BY","2018/07/02 17:59:30","新北市瑞芳區深澳路10-2號","121.817405","25.128935","6501200","瑞芳區"
"227008","642-TC","2018/07/02 17:59:29","新北市雙溪區三貂里定福路1-2號","121.850631666667","25.063425","6502500","雙溪區"
"253005","032-BX","2018/07/02 17:59:25","新北市石門區中山路62-11號","121.567545","25.2896533333333","6502200","石門區"
"253006","295-VK","2018/07/02 17:59:26","新北市石門區大丘田45-1號","121.54981","25.2750766666667","6502200","石門區"
"222001","KEA-2212","2018/07/02 17:59:28","新北市深坑區北深路三段22號","121.60936","25.0010516666667","6501800","深坑區"
"208002","KEA-2872","2018/07/02 17:59:24","新北市金山區三界壇路61號","121.627043333333","25.2280583333333","6502700","金山區"
"208003","665-BX","2018/07/02 17:59:44","新北市金山區磺港里磺港路246號","121.643686666667","25.2254733333333","6502700","金山區"
"208001","761-BX","2018/07/02 17:59:33","新北市金山區磺港里磺港路228號","121.644545","25.22562","6502700","金山區"
"251004","009-UM","2018/07/02 17:59:28","新北市淡水區民權路20號","121.459666666667","25.1380833333333","6501000","淡水區"
"251005","010-UM","2018/07/02 17:59:27","新北市淡水區英專路120號","121.445965","25.1725633333333","6501000","淡水區"
"251001","011-UM","2018/07/02 17:59:32","新北市淡水區自立路40號","121.464538333333","25.12774","6501000","淡水區"
"251013","KEA-2871","2018/07/02 17:59:25","新北市淡水區泉洲厝31號","121.479588333333","25.19104","6501000","淡水區"
"251016","179-VK","2018/07/02 17:59:35","新北市淡水區埤島30-12號","121.447811666667","25.1982516666667","6501000","淡水區"
"251014","180-VK","2018/07/02 17:59:32","新北市淡水區公埔子16-6號","121.480945","25.2244016666667","6501000","淡水區"
"251015","181-VK","2018/07/02 17:59:30","新北市淡水區興福寮66巷539號","121.484591666667","25.1651083333333","6501000","淡水區"
"251010","413-VK","2018/07/02 17:59:37","新北市淡水區中正路一段87巷1號","121.421823333333","25.1791666666667","6501000","淡水區"
"251012","441-VK","2018/07/02 17:59:37","新北市淡水區北新路三段38巷7號","121.484516666667","25.1869916666667","6501000","淡水區"
"251008","443-VK","2018/07/02 17:59:35","新北市淡水區八勢一街43-2號","121.462023333333","25.1561183333333","6501000","淡水區"
"251006","561-UM","2018/07/02 17:59:41","新北市淡水區新生街19號","121.43892","25.173605","6501000","淡水區"
"251009","575-R6","2018/07/02 17:59:30","新北市淡水區大仁街6巷1號","121.442543333333","25.17461","6501000","淡水區"
"251011","650-BX","2018/07/02 17:59:40","新北市淡水區坪頂路608號","121.479793333333","25.159885","6501000","淡水區"
"251002","672-BX","2018/07/02 17:59:25","新北市淡水區中正東路8-8號","121.447815","25.1666666666667","6501000","淡水區"
"251003","766-UM","2018/07/02 17:59:28","新北市淡水區大忠街47號","121.444705","25.176425","6501000","淡水區"
"207003","550-UM","2018/07/02 17:59:25","新北市萬里區港東路野柳風景區攤販153號","121.690658333333","25.2053916666667","6502800","萬里區"
"207004","225-TW","2018/07/02 17:59:22","新北市萬里區中幅里中福路48號","121.683333333333","25.1741016666667","6502800","萬里區"
"252002","178-VK","2018/07/02 17:59:31","新北市三芝區中山路二段45號","121.502803333333","25.2548433333333","6502100","三芝區"
"252001","292-VK","2018/07/02 17:59:28","新北市三芝區中興街二段2號","121.498396666667","25.2566133333333","6502100","三芝區"
"237004","KEA-2597","2018/07/02 17:59:23","新北市三峽區中園街122號","121.367168333333","24.9223633333333","6500900","三峽區"
"237007","153-BY","2018/07/02 17:59:33","新北市三峽區中園街149號","121.367281666667","24.9227766666667","6500900","三峽區"
"237009","210-TH","2018/07/02 17:59:41","新北市三峽區中山路106巷18號","121.366081666667","24.936545","6500900","三峽區"
"237013","252-BX","2018/07/02 17:59:32","新北市三峽區介壽路一段53號","121.375616666667","24.9328966666667","6500900","三峽區"
"237012","275-BY","2018/07/02 17:59:40","新北市三峽區民生街17號","121.376303333333","24.936465","6500900","三峽區"
"237008","302-VK","2018/07/02 17:59:36","新北市三峽區白雞24號","121.368436666667","24.912505","6500900","三峽區"
"237014","433-BY","2018/07/02 17:59:25","新北市三峽區復興路101巷1弄28號","121.371015","24.9377366666667","6500900","三峽區"
"237006","5529-G3","2018/07/02 17:59:37","新北市三峽區介壽路二段138巷1弄90-6號","121.397438333333","24.9320366666667","6500900","三峽區"
"237011","KEA-2596","2018/07/02 17:59:27","新北市三峽區光明路82號","121.375463333333","24.9287766666667","6500900","三峽區"
"237015","649-BX","2018/07/02 17:59:27","新北市三峽區紫微路109號","121.409205","24.9115333333333","6500900","三峽區"
"237005","AKY-6261","2018/07/02 17:59:29","新北市三峽區和平街79巷6號","121.369823333333","24.937515","6500900","三峽區"
"236069","105-UM","2018/07/02 17:59:37","新北市土城區城林路6巷80號","121.438376666667","24.9799566666667","6501300","土城區"
"236042","107-UM","2018/07/02 17:59:31","新北市土城區城林路6巷80號","121.438541666667","24.979755","6501300","土城區"
"236078","166-UM","2018/07/02 17:59:29","新北市土城區永寧路32巷10弄23號","121.428905","24.9610416666667","6501300","土城區"
"236030","253-BX","2018/07/02 17:59:40","新北市土城區城林路6巷80號","121.43859","24.9796016666667","6501300","土城區"
"236026","269-VK","2018/07/02 17:59:24","新北市土城區忠承路103號","121.438328333333","24.9641066666667","6501300","土城區"
"236014","270-VK","2018/07/02 17:59:39","新北市土城區城林路6巷80號","121.43851","24.97961","6501300","土城區"
"236039","271-VK","2018/07/02 17:59:33","新北市土城區中央路二段280號","121.440688333333","24.973965","6501300","土城區"
"236020","401-BY","2018/07/02 17:59:45","新北市土城區城林路6巷80號","121.438783333333","24.979645","6501300","土城區"
"236059","912-UM","2018/07/02 17:59:37","新北市土城區中央路三段244巷5號","121.427791666667","24.96428","6501300","土城區"
"236048","913-UM","2018/07/02 17:59:30","新北市土城區城林路6巷80號","121.438476666667","24.9797366666667","6501300","土城區"
"236063","915-UM","2018/07/02 17:59:30","新北市土城區城林路6巷80號","121.438545","24.97962","6501300","土城區"
"236055","AAC-216","2018/07/02 17:59:30","新北市土城區城林路6巷80號","121.438448333333","24.979585","6501300","土城區"
"242034","AAC-296","2018/07/02 17:59:30","新北市新莊區福海街31巷2號","121.445231666667","25.0339933333333","6500500","新莊區"
"242058","986-R7","2018/07/02 17:59:26","新北市新莊區雙鳳路134巷5號","121.412745","25.028085","6500500","新莊區"
"242053","751-BX","2018/07/02 17:59:32","新北市新莊區光華街4號","121.428705","25.0106","6500500","新莊區"
"242027","615-BX","2018/07/02 17:59:34","新北市新莊區思源路448號","121.459986666667","25.0533916666667","6500500","新莊區"
"242025","613-BX","2018/07/02 17:59:25","新北市新莊區五工路60號","121.458601666667","25.0629816666667","6500500","新莊區"
"242029","612-BX","2018/07/02 17:59:32","新北市新莊區中平路83號","121.44469","25.0454","6500500","新莊區"
"242042","566-BX","2018/07/02 17:59:34","新北市新莊區壽山路31號","121.420181666667","25.029045","6500500","新莊區"
"242046","497-BY","2018/07/02 17:59:26","新北市新莊區福營路195巷24號","121.43188","25.029805","6500500","新莊區"
"242050","442-UM","2018/07/02 17:59:36","新北市新莊區西盛街206號","121.428095","25.018075","6500500","新莊區"
"242036","415-TV","2018/07/02 17:59:27","新北市新莊區建福路30號","121.426295","25.0286383333333","6500500","新莊區"
"242007","413-TV","2018/07/02 17:59:26","新北市新莊區自信街81巷17弄1號","121.455998333333","25.0487533333333","6500500","新莊區"
"242044","400-BY","2018/07/02 17:59:25","新北市新莊區雙鳳路73巷1號","121.41497","25.0275233333333","6500500","新莊區"
"242023","362-BY","2018/07/02 17:59:27","新北市新莊區幸福路38號","121.458003333333","25.0495383333333","6500500","新莊區"
"242060","353-BY","2018/07/02 17:59:39","新北市新莊區新樹路371號","121.432895","25.0177316666667","6500500","新莊區"
"242009","132-UY","2018/07/02 17:59:07","新北市新莊區中華路二段258巷3號","121.453285","25.05322","6500500","新莊區"
"242039","133-UY","2018/07/02 17:59:39","新北市新莊區民安西路17號","121.426803333333","25.0214133333333","6500500","新莊區"
"242031","135-UY","2018/07/02 17:59:39","新北市新莊區新泰路289巷56號","121.442968333333","25.040385","6500500","新莊區"
"242048","172-VK","2018/07/02 17:59:41","新北市新莊區萬安街47巷21號","121.422438333333","25.0244066666667","6500500","新莊區"
"242011","173-VK","2018/07/02 17:59:05","新北市新莊區中港路618-2號","121.45111","25.054455","6500500","新莊區"
"242017","175-VK","2018/07/02 17:59:38","新北市新莊區中和街60巷3號","121.448161666667","25.0448","6500500","新莊區"
"242004","176-VK","2018/07/02 17:59:42","新北市新莊區自由街6號","121.455763333333","25.04792","6500500","新莊區"
"242015","346-TH","2018/07/02 17:59:36","新北市新莊區中平路87巷5號","121.444225","25.0457366666667","6500500","新莊區"
"242056","347-TH","2018/07/02 17:59:36","新北市新莊區豐年街124巷18號","121.445448333333","25.02988","6500500","新莊區"
"242021","348-TH","2018/07/02 17:59:28","新北市新莊區建興街39巷2號","121.4501","25.0369566666667","6500500","新莊區"
"242002","349-TH","2018/07/02 17:59:36","新北市新莊區大觀街39巷5號","121.453488333333","25.035535","6500500","新莊區"
"242019","350-TH","2018/07/02 17:59:29","新北市新莊區明中街49巷15號","121.456756666667","25.0389516666667","6500500","新莊區"
"242013","351-TH","2018/07/02 17:59:34","新北市新莊區中和街125巷14號","121.446935","25.0486333333333","6500500","新莊區"
"238015","755-BX","2018/07/02 17:59:37","新北市樹林區大安路307巷1弄1號","121.418216666667","24.9921033333333","6500700","樹林區"
"238023","601-UM","2018/07/02 17:59:42","新北市樹林區龍興街53號","121.403226666667","25.0153333333333","6500700","樹林區"
"238019","599-UM","2018/07/02 17:59:34","新北市樹林區水源街27號","121.425283333333","24.9825233333333","6500700","樹林區"
"238018","571-TV","2018/07/02 17:59:34","新北市樹林區中正路241號","121.430246666667","24.9985216666667","6500700","樹林區"
"238022","KEA-2213","2018/07/02 17:59:36","新北市樹林區太平路150巷39弄4號","121.417156666667","24.976945","6500700","樹林區"
"238021","KEA-2539","2018/07/02 17:59:45","新北市樹林區柑園街一段33巷18號","121.404505","24.95844","6500700","樹林區"
"238025","303-VK","2018/07/02 17:59:30","新北市樹林區三俊街102號","121.414585","25.015575","6500700","樹林區"
"238017","283-BY","2018/07/02 17:59:25","新北市樹林區中正路668號","121.409583333333","25.016905","6500700","樹林區"
"238014","282-BY","2018/07/02 17:59:40","新北市樹林區大安路145巷14號","121.422531666667","24.996495","6500700","樹林區"
"238020","268-VK","2018/07/02 17:59:38","新北市樹林區三俊街199巷14號","121.420251666667","25.0169566666667","6500700","樹林區"
"238026","172-UY","2018/07/02 17:59:30","新北市樹林區佳園路一段4號","121.392733333333","24.9715566666667","6500700","樹林區"
"238016","169-UY","2018/07/02 17:59:26","新北市樹林區育英街135巷1弄7號","121.419835","24.9889983333333","6500700","樹林區"
"239006","891-R6","2018/07/02 17:59:43","新北市鶯歌區鶯桃路455巷6弄6號","121.331826666667","24.9647766666667","6500800","鶯歌區"
"239008","527-UM","2018/07/02 17:59:25","新北市鶯歌區明圓街7號","121.335951666667","24.9770033333333","6500800","鶯歌區"
"239005","526-UM","2018/07/02 17:59:33","新北市鶯歌區大湖路584號","121.335561666667","24.9733183333333","6500800","鶯歌區"
"239001","417-VK","2018/07/02 17:59:36","新北市鶯歌區中正三路106-1號","121.337943333333","24.9407766666667","6500800","鶯歌區"
"239003","360-BY","2018/07/02 17:59:33","新北市鶯歌區永吉街41號","121.33567","24.9573516666667","6500800","鶯歌區"
"239002","359-BY","2018/07/02 17:59:30","新北市鶯歌區光明街94號","121.346316666667","24.95585","6500800","鶯歌區"
"221008","489-VK","2018/07/02 17:59:26","新北市汐止區明峰街27號","121.634285","25.0714066666667","6501100","汐止區"
"221036","130-UY","2018/07/02 17:59:25","新北市汐止區水碓街3號","121.663896666667","25.0703516666667","6501100","汐止區"
"221015","131-UY","2018/07/02 17:59:30","新北市汐止區長江街286-3號","121.665205","25.081045","6501100","汐止區"
"221010","269-BY","2018/07/02 17:59:40","新北市汐止區汐萬路二段245巷37號","121.643745","25.0877716666667","6501100","汐止區"
"221012","278-VK","2018/07/02 17:59:40","新北市汐止區長興街二段32號","121.673281666667","25.0815216666667","6501100","汐止區"
"221023","279-VK","2018/07/02 17:59:37","新北市汐止區民族六街1巷2號","121.629235","25.070705","6501100","汐止區"
"221032","280-BY","2018/07/02 17:59:37","新北市汐止區民權街一段211巷5號","121.619883333333","25.0517566666667","6501100","汐止區"
"221027","281-BY","2018/07/02 17:59:45","新北市汐止區大同路二段374號","121.657776666667","25.067065","6501100","汐止區"
"221029","298-VK","2018/07/02 17:59:29","新北市汐止區樟樹二路251巷35號","121.640535","25.0674733333333","6501100","汐止區"
"221021","299-VK","2018/07/02 17:59:35","新北市汐止區新興路32號","121.656718333333","25.06401","6501100","汐止區"
"221031","353-TW","2018/07/02 17:59:38","新北市汐止區中興路194號","121.631526666667","25.065815","6501100","汐止區"
"221035","622-UM","2018/07/02 17:59:37","新北市汐止區新江北路30巷22弄7號","121.65122","25.0697133333333","6501100","汐止區"
"221025","623-UM","2018/07/02 17:59:41","新北市汐止區仁愛路23號","121.659323333333","25.063815","6501100","汐止區"
"221038","646-BX","2018/07/02 17:59:35","新北市汐止區連興街128巷7弄12號","121.653496666667","25.0612116666667","6501100","汐止區"
"221033","647-BX","2018/07/02 17:59:37","新北市汐止區合順街39巷1號","121.620675","25.0432816666667","6501100","汐止區"
"221002","707-TV","2018/07/02 17:59:39","新北市汐止區中興路62號","121.635573333333","25.0615816666667","6501100","汐止區"
"235061","KEA-2875","2018/07/02 17:32:25","新北市中和區員山路36巷16-2號","121.48532","24.991665","6500300","中和區"
