"lineid","car","time","location","longitude","latitude","cityid","cityname"
"234046","148-BY","2018/07/02 19:09:37","新北市永和區永元路19號","121.52202","25.0004283333333","6500400","永和區"
"234007","207-UY","2018/07/02 19:09:29","新北市永和區中山路一段177號","121.509333333333","25.0088533333333","6500400","永和區"
"234081","298-R6","2018/07/02 19:09:39","新北市永和區福和路57巷14弄1號","121.522663333333","25.0068866666667","6500400","永和區"
"234038","336-UY","2018/07/02 19:09:43","新北市永和區民樂街71巷2號","121.527388333333","24.997325","6500400","永和區"
"234064","337-UY","2018/07/02 19:09:28","新北市永和區秀朗路二段15號","121.520956666667","25.00266","6500400","永和區"
"234086","338-UY","2018/07/02 19:09:26","新北市永和區永貞路114號","121.518793333333","25.0044583333333","6500400","永和區"
"234070","552-UM","2018/07/02 19:09:33","新北市永和區豫溪街137巷1弄23號","121.518485","25.0104033333333","6500400","永和區"
"234017","745-BX","2018/07/02 19:09:40","新北市永和區文化路90巷15弄1號","121.513846666667","25.0158683333333","6500400","永和區"
"234030","746-BX","2018/07/02 19:09:37","新北市永和區四維街72號","121.523746666667","24.9984133333333","6500400","永和區"
"234054","KEA-2590","2018/07/02 19:09:38","新北市永和區中興街108號","121.519263333333","25.0123883333333","6500400","永和區"
"234012","KEA-2591","2018/07/02 19:09:34","新北市永和區永和路二段48號","121.51475","25.0107466666667","6500400","永和區"
"234061","AAD-866","2018/07/02 19:09:27","新北市永和區安樂路304巷24號","121.514948333333","25.005515","6500400","永和區"
"234042","862-TW","2018/07/02 19:09:28","新北市永和區永貞路330號","121.511231666667","25.0054983333333","6500400","永和區"
"234050","863-TW","2018/07/02 19:09:38","新北市永和區文化路135巷24弄2號","121.510671666667","25.0147216666667","6500400","永和區"
"234026","9371-KE","2018/07/02 19:09:27","新北市永和區安樂路272巷7弄1號","121.514813333333","25.0042533333333","6500400","永和區"
"234011","9373-KE","2018/07/02 19:09:31","新北市永和區信義路43巷22弄2號","121.51244","25.0121066666667","6500400","永和區"
"249005","172-UM","2018/07/02 19:09:37","新北市八里區中華路三段134號","121.392038333333","25.133885","6502300","八里區"
"249001","173-UM","2018/07/02 19:09:27","新北市八里區龍米路二段236-3號","121.431536666667","25.15858","6502300","八里區"
"248016","026-BX","2018/07/02 19:09:46","新北市五股區成泰路三段543巷54號","121.44962","25.1030516666667","6501500","五股區"
"248006","077-UY","2018/07/02 19:09:44","新北市五股區四維路177號","121.467941666667","25.0751466666667","6501500","五股區"
"248008","095-VK","2018/07/02 19:09:26","新北市五股區中興路二段37巷11弄25號","121.461383333333","25.0734966666667","6501500","五股區"
"248018","225-UY","2018/07/02 19:09:26","新北市五股區民義路一段287巷3號","121.425118333333","25.0921016666667","6501500","五股區"
"248012","247-BX","2018/07/02 19:09:31","新北市五股區中興路四段48巷16號","121.438631666667","25.08343","6501500","五股區"
"248004","677-BX","2018/07/02 19:09:38","新北市五股區五福路29號","121.433856666667","25.0892166666667","6501500","五股區"
"248002","678-BX","2018/07/02 19:09:44","新北市五股區凌雲路一段158巷13號","121.447718333333","25.1034666666667","6501500","五股區"
"248010","682-TV","2018/07/02 19:09:36","新北市五股區水碓一路23號","121.43065","25.0712666666667","6501500","五股區"
"234023","9380-KE","2018/07/02 19:09:35","新北市永和區中興街10巷21號","121.515936666667","25.0111466666667","6500400","永和區"
"234077","969-R7","2018/07/02 19:09:34","新北市永和區民權路34號","121.520295","24.99883","6500400","永和區"
"234074","AAC-211","2018/07/02 19:09:45","新北市永和區竹林路208號","121.520741666667","25.0083016666667","6500400","永和區"
"234067","AAC-212","2018/07/02 19:09:42","新北市永和區永和路一段63號","121.51293","25.0070016666667","6500400","永和區"
"234003","AAC-295","2018/07/02 19:09:45","新北市永和區保福路一段65號","121.512476666667","25.0099066666667","6500400","永和區"
"244019","403-UM","2018/07/02 19:09:37","新北市林口區麗園二街12巷2-2號","121.378351666667","25.06902","6501700","林口區"
"244013","742-UY","2018/07/02 19:09:36","新北市林口區麗園一街9巷1號","121.376638333333","25.07148","6501700","林口區"
"244009","410-SL","2018/07/02 19:09:26","新北市林口區中山路168-1號","121.389653333333","25.0789266666667","6501700","林口區"
"244023","483-VK","2018/07/02 19:09:28","新北市林口區民族路302-99號","121.370691666667","25.07938","6501700","林口區"
"244017","485-VK","2018/07/02 19:09:29","新北市林口區公園路56-1號","121.369078333333","25.0699683333333","6501700","林口區"
"244011","657-BX","2018/07/02 19:09:28","新北市林口區中正路341號","121.388098333333","25.0776616666667","6501700","林口區"
"244025","837-TS","2018/07/02 19:09:42","新北市林口區民族路86-1號","121.366283333333","25.075215","6501700","林口區"
"243013","AAD-798","2018/07/02 19:09:38","新北市泰山區明志路三段277號","121.423191666667","25.03676","6501600","泰山區"
"243009","297-R6","2018/07/02 19:09:34","新北市泰山區明志路一段117巷22號","121.434265","25.06333","6501600","泰山區"
"243016","380-SR","2018/07/02 19:09:33","新北市泰山區明志路二段341號","121.42561","25.0446783333333","6501600","泰山區"
"243015","421-VK","2018/07/02 19:09:36","新北市泰山區明志路一段485號","121.430698333333","25.0554416666667","6501600","泰山區"
"243011","KEA-2215","2018/07/02 19:09:35","新北市泰山區明志路二段368號","121.425435","25.04495","6501600","泰山區"
"243010","KEA-2216","2018/07/02 19:09:35","新北市泰山區明志路一段483巷1弄6號","121.431165","25.0555183333333","6501600","泰山區"
"243012","646-TV","2018/07/02 19:09:38","新北市泰山區吳厝窠1號","121.428126666667","25.0584383333333","6501600","泰山區"
"243014","680-BX","2018/07/02 19:09:42","新北市泰山區泰林路二段360號","121.428933333333","25.063645","6501600","泰山區"
"222003","436-BY","2018/07/02 19:09:38","新北市深坑區深南路162號","121.626115","25.0149883333333","6501800","深坑區"
"222002","659-BX","2018/07/02 19:09:33","新北市深坑區北深路一段185號","121.63195","25.0104816666667","6501800","深坑區"
"231041","002-UM","2018/07/02 19:09:36","新北市新店區溪園路365-7號","121.523043333333","24.9804816666667","6500600","新店區"
"231059","046-UY","2018/07/02 19:09:32","新北市新店區安康路一段351-1號","121.519445","24.9640533333333","6500600","新店區"
"231040","047-UY","2018/07/02 19:09:33","新北市新店區三民路155-1號","121.533835","24.9733683333333","6500600","新店區"
"231044","106-UY","2018/07/02 19:09:35","新北市新店區中興路三段193號","121.543966666667","24.9813583333333","6500600","新店區"
"231052","108-UY","2018/07/02 19:09:34","新北市新店區自強路99號","121.546308333333","24.9236166666667","6500600","新店區"
"231047","187-VK","2018/07/02 19:09:38","新北市新店區德正街27巷29弄131號","121.545711666667","24.9731883333333","6500600","新店區"
"231046","188-VK","2018/07/02 19:09:45","新北市新店區華潭街1巷47號","121.527765","24.9474433333333","6500600","新店區"
"231054","KEA-2219","2018/07/02 19:09:35","新北市新店區新店路157號","121.53706","24.95513","6500600","新店區"
"231042","268-BY","2018/07/02 19:09:31","新北市新店區中興路一段165號","121.54264","24.9643116666667","6500600","新店區"
"231051","278-BY","2018/07/02 19:09:35","新北市新店區中正路400巷16號","121.535083333333","24.9781033333333","6500600","新店區"
"231050","AAD-862","2018/07/02 19:09:45","新北市新店區竹林路30巷10號","121.551716666667","24.9510883333333","6500600","新店區"
"231058","3713-VJ","2018/07/02 19:09:41","新北市新店區光明街168巷12號","121.540248333333","24.9616683333333","6500600","新店區"
"231066","4716-K9","2018/07/02 19:09:28","新北市新店區安康路二段402號","121.496866666667","24.95534","6500600","新店區"
"231056","4715-K9","2018/07/02 19:09:29","新北市新店區民權路109號","121.536191666667","24.982105","6500600","新店區"
"231067","4772-VM","2018/07/02 19:09:36","新北市新店區安康路一段76巷10-1號","121.528503333333","24.9624166666667","6500600","新店區"
"231065","512-UM","2018/07/02 19:09:26","新北市新店區安祥路145巷31號","121.475495","24.956715","6500600","新店區"
"231049","513-UM","2018/07/02 19:09:41","新北市新店區二十張路25巷12號","121.539016666667","24.982015","6500600","新店區"
"231061","619-UM","2018/07/02 19:09:37","新北市新店區安康路一段355-10號","121.520845","24.9637883333333","6500600","新店區"
"231063","641-BX","2018/07/02 19:09:34","新北市新店區車子路117號","121.505433333333","24.9515283333333","6500600","新店區"
"231064","719-UM","2018/07/02 19:09:34","新北市新店區安忠路56巷6號","121.512898333333","24.9594116666667","6500600","新店區"
"231062","720-UM","2018/07/02 19:09:28","新北市新店區安平路56號","121.520055","24.968505","6500600","新店區"
"231060","897-TW","2018/07/02 19:09:34","新北市新店區安豐路30-1號","121.50101","24.9567933333333","6500600","新店區"
"231045","898-TW","2018/07/02 19:09:41","新北市新店區北宜路一段172號","121.540706666667","24.95296","6500600","新店區"
"231043","899-TW","2018/07/02 19:09:39","新北市新店區寶橋路98號","121.547033333333","24.9761166666667","6500600","新店區"
"241028","022-UY","2018/07/02 19:09:33","新北市三重區新北大道一段1號","121.492061666667","25.0612783333333","6500200","三重區"
"241026","066-VK","2018/07/02 19:09:27","新北市三重區泉州街61巷1號","121.494643333333","25.05456","6500200","三重區"
"241020","265-UM","2018/07/02 19:09:32","新北市三重區後竹圍街162號","121.487556666667","25.0723283333333","6500200","三重區"
"241035","462-BY","2018/07/02 19:09:30","新北市三重區重新路四段138號","121.486361666667","25.0564483333333","6500200","三重區"
"241006","743-BX","2018/07/02 19:09:42","新北市三重區永福街192號","121.481736666667","25.0743133333333","6500200","三重區"
"241029","942-UM","2018/07/02 19:09:29","新北市三重區集美街257號","121.492428333333","25.0556716666667","6500200","三重區"
"235066","003-UY","2018/07/02 19:09:25","新北市中和區廣福路14號","121.505301666667","25.0025933333333","6500300","中和區"
"235064","005-UY","2018/07/02 19:09:36","新北市中和區泰和街38巷7號","121.499073333333","25.00027","6500300","中和區"
"235063","006-UY","2018/07/02 19:09:35","新北市中和區連城路258-9號","121.487203333333","24.9963633333333","6500300","中和區"
"235056","096-UM","2018/07/02 19:09:46","新北市中和區員山路536號","121.478783333333","25.0099383333333","6500300","中和區"
"235065","098-UM","2018/07/02 19:09:32","新北市中和區中山路二段136巷66號","121.500588333333","25.004365","6500300","中和區"
"235040","150-BY","2018/07/02 19:09:28","新北市中和區宜安路97-2號","121.510556666667","24.9976333333333","6500300","中和區"
"235058","151-BY","2018/07/02 19:09:25","新北市中和區員山路125號","121.480986666667","24.9955316666667","6500300","中和區"
"235055","183-VK","2018/07/02 19:09:29","新北市中和區德光路47號","121.47026","25.0041416666667","6500300","中和區"
"235038","185-VK","2018/07/02 19:09:11","新北市中和區大仁街10巷9弄27號","121.519188333333","24.9928383333333","6500300","中和區"
"235049","186-VK","2018/07/02 19:09:37","新北市中和區南華路60號","121.504548333333","24.997105","6500300","中和區"
"235067","255-BX","2018/07/02 19:09:32","新北市中和區新生街166巷12號","121.48306","25.0002366666667","6500300","中和區"
"235044","293-VK","2018/07/02 19:09:43","新北市中和區中興街222-4號","121.500583333333","24.98956","6500300","中和區"
"235072","301-VK","2018/07/02 19:09:40","新北市中和區連城路146號","121.495066666667","24.9983016666667","6500300","中和區"
"235043","352-BY","2018/07/02 19:09:34","新北市中和區景平路116號","121.519341666667","24.991725","6500300","中和區"
"235042","KEA-2878","2018/07/02 19:09:46","新北市中和區自立路115號","121.522063333333","24.994485","6500300","中和區"
"235050","4979-A6","2018/07/02 19:09:46","新北市中和區復興路263巷9弄7號","121.503183333333","24.9897933333333","6500300","中和區"
"235069","4980-A6","2018/07/02 19:09:41","新北市中和區中和路217巷10號","121.504263333333","25.0007083333333","6500300","中和區"
"235070","558-UM","2018/07/02 19:09:31","新北市中和區中和路119號","121.50162","25.00013","6500300","中和區"
"235045","565-BX","2018/07/02 19:09:33","新北市中和區景新街447-1號","121.513275","24.988645","6500300","中和區"
"235054","640-BX","2018/07/02 19:09:36","新北市中和區國光街6巷1號","121.471945","25.000265","6500300","中和區"
"235060","647-TV","2018/07/02 19:09:42","新北市中和區民享街2巷2號","121.473808333333","25.0058933333333","6500300","中和區"
"235046","733-UM","2018/07/02 19:09:45","新北市中和區華新街116號","121.50839","24.9827983333333","6500300","中和區"
"235071","783-BX","2018/07/02 19:09:43","新北市中和區連城路469巷14號","121.48355","24.9953466666667","6500300","中和區"
"235062","800-TS","2018/07/02 19:09:27","新北市中和區中山路二段355-1號","121.48934","25.0040983333333","6500300","中和區"
"235057","801-TS","2018/07/02 19:09:27","新北市中和區民利街80號","121.478095","24.9982016666667","6500300","中和區"
"235041","802-TS","2018/07/02 19:09:43","新北市永和區中和路323號","121.507156666667","24.9996433333333","6500300","中和區"
"235052","805-TS","2018/07/02 19:09:26","新北市中和區興南路二段242巷20號","121.502051666667","24.9832983333333","6500300","中和區"
"235048","896-TW","2018/07/02 19:09:34","新北市中和區華新街134號","121.508156666667","24.98264","6500300","中和區"
"235053","900-TW","2018/07/02 19:09:33","新北市中和區民德路274號","121.467681666667","24.9965216666667","6500300","中和區"
"235051","157-BY","2018/07/02 19:09:30","新北市中和區興南路一段71號","121.510143333333","24.9892566666667","6500300","中和區"
"235037","AAC-213","2018/07/02 19:09:27","新北市中和區秀朗路三段60巷9號","121.525783333333","24.9950666666667","6500300","中和區"
"235059","AAC-215","2018/07/02 19:09:37","新北市中和區圓通路294巷13號","121.488786666667","24.9900433333333","6500300","中和區"
"220068","013-TV","2018/07/02 19:09:32","新北市板橋區中山路二段463號","121.481796666667","25.02064","6500100","板橋區"
"220055","015-TV","2018/07/02 19:09:31","新北市板橋區新民街7巷13號","121.463483333333","25.0102216666667","6500100","板橋區"
"220065","072-UY","2018/07/02 19:09:38","新北市板橋區民族路151巷57號","121.46932","25.008415","6500100","板橋區"
"220106","075-UY","2018/07/02 19:09:27","新北市板橋區文化路二段315號","121.47211","25.02969","6500100","板橋區"
"226004","312-R5","2018/07/02 19:09:39","新北市平溪區靜安路二段561號","121.750641666667","25.0238766666667","6502400","平溪區"
"235047","251-BX","2018/07/02 19:09:43","新北市中和區興南路一段129號","121.509006666667","24.98791","6500300","中和區"
"228003","097-TW","2018/07/02 19:09:45","新北市貢寮區和美里和美街36號","121.912286666667","25.0852316666667","6502600","貢寮區"
"228002","663-BX","2018/07/02 19:09:37","新北市貢寮區福隆里福隆街26號","121.945006666667","25.0172033333333","6502600","貢寮區"
"228001","670-TC","2018/07/02 19:09:38","新北市貢寮區真理里新港街10號","121.925521666667","25.0543666666667","6502600","貢寮區"
"224006","676-BX","2018/07/02 19:09:27","新北市瑞芳區東和路29號","121.80498","25.106065","6501200","瑞芳區"
"224008","285-BY","2018/07/02 19:09:23","新北市瑞芳區逢甲路343-12號","121.799398333333","25.1125083333333","6501200","瑞芳區"
"224007","275-VK","2018/07/02 19:09:41","新北市瑞芳區瑞竹路122號","121.762095","25.103975","6501200","瑞芳區"
"224009","273-VK","2018/07/02 19:09:26","新北市瑞芳區洞頂路172號","121.860815","25.1193333333333","6501200","瑞芳區"
"227008","642-TC","2018/07/02 19:09:29","新北市雙溪區牡丹里中正路36號","121.864691666667","25.0383633333333","6502500","雙溪區"
"227001","400-TW","2018/07/02 19:09:43","新北市雙溪區平林里梅竹蹊56-4號","121.860723333333","25.0366683333333","6502500","雙溪區"
"253005","032-BX","2018/07/02 19:09:24","新北市石門區阿里荖41-1號","121.60552","25.2805283333333","6502200","石門區"
"253006","295-VK","2018/07/02 19:09:46","新北市石門區崁子腳58-7號","121.530366666667","25.2864816666667","6502200","石門區"
"222001","KEA-2212","2018/07/02 19:09:28","新北市深坑區北深路一段300號","121.624215","25.0057783333333","6501800","深坑區"
"208002","KEA-2872","2018/07/02 19:09:24","新北市金山區仁愛路69號","121.634836666667","25.2210383333333","6502700","金山區"
"208003","665-BX","2018/07/02 19:09:40","新北市金山區中正路32號","121.63535","25.222135","6502700","金山區"
"208001","761-BX","2018/07/02 19:09:34","新北市金山區福德街14號","121.639281666667","25.2217666666667","6502700","金山區"
"251005","010-UM","2018/07/02 19:09:26","新北市淡水區原德路11號","121.4421","25.17121","6501000","淡水區"
"251001","011-UM","2018/07/02 19:09:32","新北市淡水區自強路201巷39號","121.462141666667","25.126855","6501000","淡水區"
"251013","KEA-2871","2018/07/02 19:09:25","新北市淡水區安子內12-1號","121.481531666667","25.21909","6501000","淡水區"
"251016","179-VK","2018/07/02 19:09:35","新北市淡水區淡金路三段56號","121.448166666667","25.1994233333333","6501000","淡水區"
"251014","180-VK","2018/07/02 19:09:32","新北市淡水區小中寮19-8號","121.486645","25.22777","6501000","淡水區"
"251015","181-VK","2018/07/02 19:09:30","新北市淡水區南勢埔22-1號","121.483251666667","25.1791166666667","6501000","淡水區"
"251010","413-VK","2018/07/02 19:09:37","新北市淡水區中正路一段156巷3號","121.421081666667","25.1803383333333","6501000","淡水區"
"251007","442-VK","2018/07/02 19:09:34","新北市淡水區民生路135巷32號","121.46666","25.139105","6501000","淡水區"
"251006","561-UM","2018/07/02 19:09:41","新北市淡水區崁頂59號","121.441281666667","25.199225","6501000","淡水區"
"251009","575-R6","2018/07/02 19:09:32","新北市淡水區重建街56號","121.439948333333","25.1716833333333","6501000","淡水區"
"251002","672-BX","2018/07/02 19:09:45","新北市淡水區中山路104號","121.44237","25.1706316666667","6501000","淡水區"
"251003","766-UM","2018/07/02 19:09:28","新北市淡水區中山北路一段96號","121.442453333333","25.1764233333333","6501000","淡水區"
"207003","550-UM","2018/07/02 19:09:25","新北市萬里區大鵬里萬里加投24-2號","121.649138333333","25.207345","6502800","萬里區"
"207004","225-TW","2018/07/02 19:09:42","新北市萬里區萬里里瑪鋉下街52號","121.691653333333","25.1795216666667","6502800","萬里區"
"252002","178-VK","2018/07/02 19:09:31","新北市三芝區中正路一段101-1號","121.504743333333","25.2562933333333","6502100","三芝區"
"252003","249-BX","2018/07/02 19:09:43","新北市三芝區錫板里南勢崗8號","121.479211666667","25.2616166666667","6502100","三芝區"
"252001","292-VK","2018/07/02 19:09:28","新北市三芝區長勤街45巷2號","121.500346666667","25.25513","6502100","三芝區"
"237004","KEA-2597","2018/07/02 19:09:43","新北市三峽區有木205-1號","121.439066666667","24.8514633333333","6500900","三峽區"
"237007","153-BY","2018/07/02 19:09:33","新北市三峽區中正路二段42巷84號","121.364266666667","24.92057","6500900","三峽區"
"237010","572-TV","2018/07/02 19:09:25","新北市三峽區國光街350巷14號","121.371695","24.940125","6500900","三峽區"
"237013","252-BX","2018/07/02 19:09:32","新北市三峽區光明路69巷25號","121.376738333333","24.9292083333333","6500900","三峽區"
"237012","275-BY","2018/07/02 19:09:40","新北市三峽區三樹路222巷236弄69-26號","121.395566666667","24.9436633333333","6500900","三峽區"
"237008","302-VK","2018/07/02 19:09:36","新北市三峽區光明路106巷4號","121.376455","24.9274933333333","6500900","三峽區"
"237014","433-BY","2018/07/02 19:09:44","新北市三峽區中山路184巷19號","121.364418333333","24.9372116666667","6500900","三峽區"
"237006","5529-G3","2018/07/02 19:09:37","新北市三峽區溪東路67號","121.400753333333","24.93511","6500900","三峽區"
"237011","KEA-2596","2018/07/02 19:09:26","新北市三峽區介壽路三段131-2號","121.39919","24.9421616666667","6500900","三峽區"
"237015","649-BX","2018/07/02 19:09:27","新北市三峽區建安77-1號","121.451048333333","24.9244733333333","6500900","三峽區"
"237005","AKY-6261","2018/07/02 19:09:29","新北市三峽區中山路459巷163-3號","121.348715","24.9329983333333","6500900","三峽區"
"236069","105-UM","2018/07/02 19:09:37","新北市土城區中央路一段249巷29弄3號","121.446513333333","24.985575","6501300","土城區"
"236078","166-UM","2018/07/02 19:09:28","新北市土城區龍泉路52號","121.41303","24.944365","6501300","土城區"
"236030","253-BX","2018/07/02 19:09:40","新北市土城區城林路6巷80號","121.438553333333","24.9796083333333","6501300","土城區"
"236026","269-VK","2018/07/02 19:09:44","新北市土城區中正路74巷6弄2號","121.444665","24.9748833333333","6501300","土城區"
"236014","270-VK","2018/07/02 19:09:39","新北市土城區學府路一段75巷16弄2號","121.457208333333","24.987635","6501300","土城區"
"236020","401-BY","2018/07/02 19:09:25","新北市土城區延峰街34巷1號","121.469533333333","24.98481","6501300","土城區"
"236059","912-UM","2018/07/02 19:09:36","新北市土城區金城路一段131號","121.444813333333","24.9737066666667","6501300","土城區"
"236048","913-UM","2018/07/02 19:09:30","新北市土城區明德路一段365-1號","121.453613333333","24.97908","6501300","土城區"
"236055","AAC-216","2018/07/02 19:09:33","新北市土城區學府路一段169號","121.452678333333","24.9855183333333","6501300","土城區"
"238015","755-BX","2018/07/02 19:09:44","新北市樹林區備內街150-2號","121.407816666667","24.9892233333333","6500700","樹林區"
"238023","601-UM","2018/07/02 19:09:31","新北市樹林區大慶街46號","121.397305","25.0140083333333","6500700","樹林區"
"238019","599-UM","2018/07/02 19:09:34","新北市樹林區東榮街65號","121.417201666667","24.9830766666667","6500700","樹林區"
"238018","571-TV","2018/07/02 19:09:34","新北市樹林區太平路56巷33號","121.418223333333","24.9815533333333","6500700","樹林區"
"238022","KEA-2213","2018/07/02 19:09:36","新北市樹林區中山路二段151巷8弄25號","121.406171666667","24.9776383333333","6500700","樹林區"
"238021","KEA-2539","2018/07/02 19:09:39","新北市樹林區柑園街二段384巷1號","121.368046666667","24.949165","6500700","樹林區"
"238025","303-VK","2018/07/02 19:09:30","新北市樹林區中山路三段30號","121.395381666667","24.97273","6500700","樹林區"
"238017","283-BY","2018/07/02 19:09:25","新北市樹林區保安街一段244號","121.419988333333","24.9967","6500700","樹林區"
"238014","282-BY","2018/07/02 19:09:40","新北市樹林區千歲街63-15號","121.427073333333","24.99868","6500700","樹林區"
"238020","268-VK","2018/07/02 19:09:34","新北市樹林區俊英街133巷4號","121.42397","25.0114266666667","6500700","樹林區"
"238026","172-UY","2018/07/02 19:09:27","新北市樹林區地政街13號","121.3941","24.971805","6500700","樹林區"
"238016","169-UY","2018/07/02 19:03:26","新北市樹林區中山路一段306巷26號","121.418953333333","24.986685","6500700","樹林區"
"239006","891-R6","2018/07/02 19:09:43","新北市鶯歌區鶯桃路296巷102號","121.337071666667","24.96223","6500800","鶯歌區"
"239008","527-UM","2018/07/02 19:09:45","新北市鶯歌區國際二路6巷9號","121.338671666667","24.9738133333333","6500800","鶯歌區"
"239001","417-VK","2018/07/02 19:09:36","新北市鶯歌區鶯桃路134號","121.338088333333","24.95484","6500800","鶯歌區"
"239003","360-BY","2018/07/02 19:09:33","新北市鶯歌區德昌街11號","121.333578333333","24.960195","6500800","鶯歌區"
"239007","292-BY","2018/07/02 19:09:31","新北市鶯歌區中正一路建德巷38號","121.364536666667","24.9577833333333","6500800","鶯歌區"
"239004","193-VK","2018/07/02 19:09:27","新北市鶯歌區中正三路335巷10號","121.328341666667","24.9349683333333","6500800","鶯歌區"
"221008","489-VK","2018/07/02 19:09:26","新北市汐止區康寧街472號","121.632043333333","25.0682583333333","6501100","汐止區"
"221036","130-UY","2018/07/02 19:09:44","新北市汐止區大同路二段339號","121.656473333333","25.0671233333333","6501100","汐止區"
"221015","131-UY","2018/07/02 19:09:29","新北市汐止區大同路二段545號","121.662223333333","25.06944","6501100","汐止區"
"221010","269-BY","2018/07/02 19:09:40","新北市汐止區康寧街901號","121.651386666667","25.07508","6501100","汐止區"
"221012","278-VK","2018/07/02 19:09:40","新北市汐止區康寧街901號","121.650825","25.0753466666667","6501100","汐止區"
"221023","279-VK","2018/07/02 19:09:37","新北市汐止區康寧街901號","121.650988333333","25.07521","6501100","汐止區"
"221032","280-BY","2018/07/02 19:09:37","新北市汐止區橫科路407巷25弄13號","121.626046666667","25.0486466666667","6501100","汐止區"
"221027","281-BY","2018/07/02 19:09:25","新北市汐止區康寧街901號","121.651396666667","25.0750383333333","6501100","汐止區"
"221029","298-VK","2018/07/02 19:09:29","新北市汐止區康寧街901號","121.651606666667","25.0749033333333","6501100","汐止區"
"221021","299-VK","2018/07/02 19:09:35","新北市汐止區康寧街901號","121.651488333333","25.0750366666667","6501100","汐止區"
"221031","353-TW","2018/07/02 19:09:47","新北市汐止區福德三路127號","121.63365","25.0676333333333","6501100","汐止區"
"221025","623-UM","2018/07/02 19:09:41","新北市汐止區康寧街901號","121.651613333333","25.0749733333333","6501100","汐止區"
"221038","646-BX","2018/07/02 19:09:35","新北市汐止區康寧街901號","121.650735","25.0753766666667","6501100","汐止區"
"221033","647-BX","2018/07/02 19:09:37","新北市汐止區南勢街11號","121.62735","25.0378116666667","6501100","汐止區"
"221002","707-TV","2018/07/02 19:09:39","新北市汐止區環河街207號","121.62662","25.0538966666667","6501100","汐止區"
"220079","145-BY","2018/07/02 19:09:27","新北市板橋區民權路262號","121.45782","25.0152616666667","6500100","板橋區"
"220080","200-UY","2018/07/02 19:09:26","新北市板橋區大觀路二段7巷45號","121.448405","25.0033833333333","6500100","板橋區"
"220082","610-BX","2018/07/02 19:09:29","新北市板橋區溪崑二街62號","121.427925","24.9904316666667","6500100","板橋區"
"220101","245-BX","2018/07/02 19:09:14","新北市板橋區萬板路35號","121.470776666667","25.0211216666667","6500100","板橋區"
"220056","276-BY","2018/07/02 19:09:39","新北市板橋區信義路110巷2弄13號","121.45762","24.992685","6500100","板橋區"
"220072","277-BY","2018/07/02 19:09:28","新北市板橋區篤行路三段玉平巷31弄5號","121.429358333333","24.986915","6500100","板橋區"
"220071","283-VK","2018/07/02 19:09:37","新北市板橋區重慶路300號","121.463781666667","24.998445","6500100","板橋區"
"220094","285-UM","2018/07/02 19:09:38","新北市板橋區光武街133號","121.465628333333","25.0291433333333","6500100","板橋區"
"220053","285-VK","2018/07/02 19:09:37","新北市板橋區懷仁街35巷7號","121.476953333333","25.0197333333333","6500100","板橋區"
"220083","286-VK","2018/07/02 19:09:31","新北市板橋區大觀路二段174巷173弄12號","121.441343333333","25.00393","6500100","板橋區"
"220081","287-VK","2018/07/02 19:09:35","新北市板橋區南雅西路二段156巷55號","121.452461666667","25.01268","6500100","板橋區"
"220090","288-VK","2018/07/02 19:09:26","新北市板橋區裕民街45巷2號","121.461463333333","25.02851","6500100","板橋區"
"220061","293-UM","2018/07/02 19:09:36","新北市板橋區懷仁街85巷2弄2號","121.477648333333","25.0183416666667","6500100","板橋區"
"220084","296-UM","2018/07/02 19:09:32","新北市板橋區溪崑二街56巷20號","121.427935","24.9912433333333","6500100","板橋區"
"220075","303-R5","2018/07/02 19:09:36","新北市板橋區南雅南路一段3巷25-6號","121.456751666667","25.0059216666667","6500100","板橋區"
"220092","307-R5","2018/07/02 19:09:38","新北市板橋區文化路二段225巷16號","121.470328333333","25.0284866666667","6500100","板橋區"
"220098","317-R6","2018/07/02 19:09:41","新北市板橋區四維路103巷8號","121.464861666667","25.0242583333333","6500100","板橋區"
"220064","486-VK","2018/07/02 19:09:41","新北市板橋區板新路14號","121.474536666667","25.0132633333333","6500100","板橋區"
"220088","491-VK","2018/07/02 19:09:41","新北市板橋區文化路二段182巷1弄6號","121.471301666667","25.0275966666667","6500100","板橋區"
"220035","560-BX","2018/07/02 19:09:40","新北市板橋區中正路377-3號","121.454165","25.0214583333333","6500100","板橋區"
"220103","561-BX","2018/07/02 19:09:40","新北市板橋區文化路一段188巷9弄110號","121.468553333333","25.0194","6500100","板橋區"
"220063","609-BX","2018/07/02 19:09:25","新北市板橋區三民路二段150號","121.479078333333","25.01504","6500100","板橋區"
"220086","630-UY","2018/07/02 19:09:36","新北市板橋區國光路173巷12號","121.460373333333","25.0190433333333","6500100","板橋區"
"220091","637-BX","2018/07/02 19:09:30","新北市板橋區縣民大道三段247巷9號","121.481678333333","25.026305","6500100","板橋區"
"220057","686-BX","2018/07/02 19:09:26","新北市板橋區重慶路290-5號","121.463675","24.9988216666667","6500100","板橋區"
"220093","689-BX","2018/07/02 19:09:41","新北市板橋區民生路三段175號","121.465528333333","25.0272266666667","6500100","板橋區"
"220054","741-BX","2018/07/02 19:09:29","新北市板橋區實踐路46號","121.463598333333","25.0066","6500100","板橋區"
"220102","KEA-2699","2018/07/02 19:09:25","新北市板橋區田單街2巷34號","121.482198333333","25.0277583333333","6500100","板橋區"
"220077","806-UM","2018/07/02 19:09:40","新北市板橋區大觀路一段51號","121.447955","25.0075333333333","6500100","板橋區"
"220067","829-TW","2018/07/02 19:09:45","新北市板橋區三民路二段正隆巷75號","121.475993333333","25.0130133333333","6500100","板橋區"
"220096","830-TW","2018/07/02 19:09:26","新北市板橋區雙十路二段33巷1-1號","121.476561666667","25.02548","6500100","板橋區"
"220089","833-TW","2018/07/02 19:09:41","新北市板橋區文化路二段367號","121.473151666667","25.0309766666667","6500100","板橋區"
"220074","895-R6","2018/07/02 19:09:24","新北市板橋區中正路自強新村56號","121.454775","25.013485","6500100","板橋區"
"220073","985-R7","2018/07/02 19:09:43","新北市板橋區英士路190巷2號","121.458208333333","25.022475","6500100","板橋區"
"220097","AAC-210","2018/07/02 19:09:33","新北市板橋區公館街256號","121.45994","25.0213583333333","6500100","板橋區"
"220070","AAC-253","2018/07/02 19:09:39","新北市板橋區忠孝路136號","121.463621666667","25.002415","6500100","板橋區"
"235068","KEA-2873","2018/07/02 19:09:39","新北市中和區圓通路162巷35號","121.49665","24.9955033333333","6500300","中和區"
"235061","KEA-2875","2018/07/02 19:09:39","新北市中和區中山路三段63巷9號","121.477146666667","25.0041616666667","6500300","中和區"
