"lineid","car","time","location","longitude","latitude","cityid","cityname"
"234046","148-BY","2018/07/02 19:39:37","新北市永和區得和路423號","121.526216666667","24.999175","6500400","永和區"
"234007","207-UY","2018/07/02 19:39:28","新北市中和區中和路442號","121.511966666667","25.003605","6500400","永和區"
"234081","298-R6","2018/07/02 19:39:39","新北市永和區國中路104巷6號","121.524616666667","25.006905","6500400","永和區"
"234038","336-UY","2018/07/02 19:39:43","新北市永和區成功路二段1巷6號","121.527253333333","25.0014666666667","6500400","永和區"
"234064","337-UY","2018/07/02 19:39:28","新北市永和區秀朗路一段192巷6弄10號","121.519088333333","25.0023833333333","6500400","永和區"
"234086","338-UY","2018/07/02 19:39:46","新北市永和區永亨路165巷10號","121.526221666667","25.00419","6500400","永和區"
"234070","552-UM","2018/07/02 19:39:33","新北市永和區永和路二段217號","121.515541666667","25.0140716666667","6500400","永和區"
"234017","745-BX","2018/07/02 19:39:40","新北市永和區永和路二段425巷57弄1號","121.5137","25.0172633333333","6500400","永和區"
"234030","746-BX","2018/07/02 19:39:37","新北市永和區民生路37巷3號","121.523123333333","24.9981516666667","6500400","永和區"
"234054","KEA-2590","2018/07/02 19:39:38","新北市永和區竹林路39巷3號","121.518171666667","25.014455","6500400","永和區"
"234012","KEA-2591","2018/07/02 19:39:34","新北市永和區中山路一段184巷9弄1號","121.508543333333","25.0092683333333","6500400","永和區"
"234061","AAD-866","2018/07/02 19:39:27","新北市永和區中正路399號","121.517193333333","25.004315","6500400","永和區"
"234042","862-TW","2018/07/02 19:39:28","新北市永和區中和路373號","121.508358333333","24.9997416666667","6500400","永和區"
"234050","863-TW","2018/07/02 19:39:36","新北市永和區保福路二段163巷2號","121.509263333333","25.01484","6500400","永和區"
"234026","9371-KE","2018/07/02 19:39:27","新北市永和區中和路501巷5號","121.510488333333","25.002595","6500400","永和區"
"234011","9373-KE","2018/07/02 19:39:31","新北市永和區保生路55號","121.504596666667","25.0107833333333","6500400","永和區"
"249004","303-UY","2018/07/02 19:39:25","新北市八里區中山路一段268巷45號","121.413933333333","25.160265","6502300","八里區"
"249002","305-UY","2018/07/02 19:39:43","新北市八里區頂寮二街32號","121.450628333333","25.12545","6502300","八里區"
"249003","759-BX","2018/07/02 19:39:33","新北市八里區華峰三街33巷2號","121.3994","25.1458166666667","6502300","八里區"
"248016","026-BX","2018/07/02 19:39:26","新北市五股區成泰路三段625-2號","121.45289","25.1044616666667","6501500","五股區"
"248008","095-VK","2018/07/02 19:39:26","新北市五股區四維路118巷11號","121.469145","25.0742766666667","6501500","五股區"
"248018","225-UY","2018/07/02 19:26:06","新北市五股區壟路16號","121.415083333333","25.085385","6501500","五股區"
"248012","247-BX","2018/07/02 19:39:31","新北市五股區成泰路二段25號","121.437166666667","25.0816033333333","6501500","五股區"
"248014","261-SL","2018/07/02 19:39:30","新北市五股區五福路93號","121.43227","25.0904166666667","6501500","五股區"
"248004","677-BX","2018/07/02 19:39:38","新北市五股區成泰路二段38號","121.437083333333","25.08135","6501500","五股區"
"248002","678-BX","2018/07/02 19:39:44","新北市五股區成泰路三段577巷56號","121.450593333333","25.1032566666667","6501500","五股區"
"248010","682-TV","2018/07/02 19:39:36","新北市五股區自強路148號","121.432238333333","25.0705366666667","6501500","五股區"
"234077","969-R7","2018/07/02 19:39:34","新北市永和區民族街67巷20號","121.519583333333","24.9971366666667","6500400","永和區"
"234074","AAC-211","2018/07/02 19:39:45","新北市永和區福和路85號","121.52231","25.0079216666667","6500400","永和區"
"234067","AAC-212","2018/07/02 19:39:42","新北市永和區永平路173巷14弄2號","121.51015","25.0084683333333","6500400","永和區"
"234003","AAC-295","2018/07/02 19:39:26","新北市永和區永和路一段36號","121.51309","25.0051433333333","6500400","永和區"
"244019","403-UM","2018/07/02 19:39:36","新北市林口區瑞平里54-2號","121.340923333333","25.12555","6501700","林口區"
"243013","AAD-798","2018/07/02 19:39:38","新北市泰山區應化街7號","121.423873333333","25.043695","6501600","泰山區"
"243009","297-R6","2018/07/02 19:39:34","新北市泰山區美寧街64號","121.43101","25.064655","6501600","泰山區"
"243016","380-SR","2018/07/02 19:39:33","新北市泰山區中山路三段6號","121.420961666667","25.0324283333333","6501600","泰山區"
"243015","421-VK","2018/07/02 19:39:36","新北市泰山區明志路二段237巷22號","121.427921666667","25.0479783333333","6501600","泰山區"
"243011","KEA-2215","2018/07/02 19:39:35","新北市泰山區貴子路47號","121.4299","25.039845","6501600","泰山區"
"243010","KEA-2216","2018/07/02 19:39:35","新北市泰山區明志路二段7巷4號","121.430451666667","25.053455","6501600","泰山區"
"243012","646-TV","2018/07/02 19:39:41","新北市泰山區福興一街76號","121.432036666667","25.0578716666667","6501600","泰山區"
"243014","680-BX","2018/07/02 19:39:35","新北市泰山區泰林路二段33-8號","121.435201666667","25.0564933333333","6501600","泰山區"
"222003","436-BY","2018/07/02 19:39:38","新北市深坑區深南路51-1號","121.621243333333","25.009815","6501800","深坑區"
"222002","659-BX","2018/07/02 19:39:33","新北市深坑區北深路一段177號","121.63255","25.0108933333333","6501800","深坑區"
"231041","002-UM","2018/07/02 19:39:36","新北市新店區中正路485號","121.533928333333","24.9819333333333","6500600","新店區"
"231059","046-UY","2018/07/02 19:39:32","新北市新店區安和路三段53號","121.518005","24.982745","6500600","新店區"
"231040","047-UY","2018/07/02 19:39:33","新北市新店區中正路75巷71號","121.543175","24.9688316666667","6500600","新店區"
"231044","106-UY","2018/07/02 19:39:35","新北市新店區北新路三段117號","121.54116","24.9823766666667","6500600","新店區"
"231052","108-UY","2018/07/02 19:39:33","新北市新店區新烏路二段489號","121.552288333333","24.9087116666667","6500600","新店區"
"231047","187-VK","2018/07/02 19:39:38","新北市新店區五峰路63巷8弄18號","121.547033333333","24.9692316666667","6500600","新店區"
"231046","188-VK","2018/07/02 19:39:43","新北市新店區自由街13號","121.535543333333","24.9748416666667","6500600","新店區"
"231054","KEA-2219","2018/07/02 19:39:35","新北市新店區北宜路一段49號","121.538438333333","24.956985","6500600","新店區"
"231057","256-BX","2018/07/02 19:39:46","新北市新店區橘園一路11號","121.547941666667","24.93402","6500600","新店區"
"231042","268-BY","2018/07/02 19:39:31","新北市新店區中興路一段203號","121.543606666667","24.9656233333333","6500600","新店區"
"231051","278-BY","2018/07/02 19:39:35","新北市新店區中央四街27號","121.528801666667","24.9743583333333","6500600","新店區"
"231050","AAD-862","2018/07/02 19:39:45","新北市新店區北宜路二段126號","121.556853333333","24.95379","6500600","新店區"
"231058","3713-VJ","2018/07/02 19:39:38","新北市新店區華中街29號","121.540476666667","24.970615","6500600","新店區"
"231066","4716-K9","2018/07/02 19:39:48","新北市新店區安康路三段165巷5號","121.489735","24.9512566666667","6500600","新店區"
"231056","4715-K9","2018/07/02 19:39:29","新北市新店區薏仁坑路6號","121.50021","24.95808","6500600","新店區"
"231067","4772-VM","2018/07/02 19:39:36","新北市新店區薏仁坑路6-3號","121.499708333333","24.9586266666667","6500600","新店區"
"231065","512-UM","2018/07/02 19:39:46","新北市新店區安祥路109巷85弄39號","121.478821666667","24.9596883333333","6500600","新店區"
"231049","513-UM","2018/07/02 19:39:41","新北市新店區大豐路13號","121.541481666667","24.980295","6500600","新店區"
"231061","619-UM","2018/07/02 19:39:34","新北市新店區安民街40號","121.515851666667","24.9652966666667","6500600","新店區"
"231063","641-BX","2018/07/02 19:39:34","新北市新店區達觀路32號","121.50232","24.93999","6500600","新店區"
"231064","719-UM","2018/07/02 19:39:35","新北市新店區安和路一段52巷2-1號","121.517643333333","24.9663183333333","6500600","新店區"
"231062","720-UM","2018/07/02 19:39:30","新北市新店區碧潭路60號","121.534483333333","24.9569133333333","6500600","新店區"
"231060","897-TW","2018/07/02 19:39:35","新北市新店區安康路二段162號","121.512181666667","24.9607466666667","6500600","新店區"
"231045","898-TW","2018/07/02 19:39:41","新北市新店區北宜路二段431-5號","121.560958333333","24.95427","6500600","新店區"
"231043","899-TW","2018/07/02 19:39:39","新北市新店區北新路二段78號","121.543021666667","24.9726766666667","6500600","新店區"
"231055","AKT-0513","2018/07/02 19:39:34","新北市新店區力行路14巷16弄1號","121.539185","24.96558","6500600","新店區"
"241011","013-R5","2018/07/02 19:39:38","新北市三重區秀江街192號","121.497706666667","25.0716366666667","6500200","三重區"
"241028","022-UY","2018/07/02 19:39:33","新北市三重區中正南路200號","121.49388","25.0559466666667","6500200","三重區"
"241008","059-VK","2018/07/02 19:39:46","新北市三重區永福街135巷10號","121.478356666667","25.0768883333333","6500200","三重區"
"241022","060-VK","2018/07/02 19:39:40","新北市三重區三民街157巷2號","121.483716666667","25.0645983333333","6500200","三重區"
"241031","061-VK","2018/07/02 19:39:36","新北市三重區重新路四段244巷33號","121.48722","25.05359","6500200","三重區"
"241015","062-VK","2018/07/02 19:39:43","新北市三重區福德北路55號","121.502153333333","25.0652233333333","6500200","三重區"
"241017","063-VK","2018/07/02 19:39:46","新北市三重區重陽路三段5巷30號","121.491288333333","25.0654233333333","6500200","三重區"
"241026","066-VK","2018/07/02 19:39:27","新北市三重區文化南路65巷18號","121.499431666667","25.06076","6500200","三重區"
"241003","091-VK","2018/07/02 19:39:41","新北市三重區仁義街238號","121.494376666667","25.0854733333333","6500200","三重區"
"241007","742-BX","2018/07/02 19:39:39","新北市三重區三和路四段125巷74號","121.487255","25.0785383333333","6500200","三重區"
"241020","265-UM","2018/07/02 19:39:32","新北市三重區自強路三段101號","121.487675","25.0755133333333","6500200","三重區"
"241009","267-UM","2018/07/02 19:39:31","新北市三重區三和路四段400巷34號","121.479808333333","25.079065","6500200","三重區"
"241013","270-UM","2018/07/02 19:39:43","新北市三重區仁賢街5號","121.495808333333","25.0745816666667","6500200","三重區"
"241025","271-UM","2018/07/02 19:39:33","新北市三重區頂崁街201巷1號","121.47736","25.06699","6500200","三重區"
"241035","462-BY","2018/07/02 19:39:30","新北市三重區信義西街48號","121.498111666667","25.06468","6500200","三重區"
"241030","480-VK","2018/07/02 19:39:36","新北市三重區新興路20號","121.492226666667","25.0532533333333","6500200","三重區"
"241014","543-UM","2018/07/02 19:39:37","新北市三重區河邊北街84號","121.50425","25.069215","6500200","三重區"
"241023","545-UM","2018/07/02 19:39:40","新北市三重區忠孝路三段99巷23弄3號","121.479371666667","25.0645866666667","6500200","三重區"
"241001","547-UM","2018/07/02 19:39:41","新北市三重區仁愛街315巷10號","121.493021666667","25.0795583333333","6500200","三重區"
"241019","KEA-2593","2018/07/02 19:39:29","新北市三重區六張街194巷1弄13號","121.488138333333","25.06815","6500200","三重區"
"241006","743-BX","2018/07/02 19:29:22","新北市三重區自強路三段73號","121.4869","25.0735883333333","6500200","三重區"
"241012","941-UM","2018/07/02 19:39:40","新北市三重區河邊北街256巷31號","121.500628333333","25.07596","6500200","三重區"
"241029","942-UM","2018/07/02 19:39:29","新北市三重區同安街141號","121.493205","25.0560683333333","6500200","三重區"
"235066","003-UY","2018/07/02 19:39:45","新北市中和區中和路196巷6號","121.505061666667","24.9991533333333","6500300","中和區"
"235064","005-UY","2018/07/02 19:39:29","新北市中和區南山路127巷8弄2號","121.502705","24.9972216666667","6500300","中和區"
"235063","006-UY","2018/07/02 19:39:35","新北市中和區連城路171巷46號","121.495798333333","24.99643","6500300","中和區"
"235056","096-UM","2018/07/02 19:39:26","新北市中和區員山路581巷2號","121.47808","25.0093416666667","6500300","中和區"
"235003","097-UM","2018/07/02 19:39:32","新北市中和區秀峰街127巷2號","121.519653333333","24.99095","6500300","中和區"
"235065","098-UM","2018/07/02 19:39:32","新北市中和區永和路9巷1號","121.499176666667","25.0040283333333","6500300","中和區"
"235040","150-BY","2018/07/02 19:39:28","新北市中和區宜安路92巷5號","121.510896666667","24.9977316666667","6500300","中和區"
"235058","151-BY","2018/07/02 19:39:25","新北市中和區員山路122號","121.48127","24.9959166666667","6500300","中和區"
"235055","183-VK","2018/07/02 19:39:29","新北市中和區中山路三段181巷2號","121.472805","25.0059883333333","6500300","中和區"
"235038","185-VK","2018/07/02 19:39:31","新北市中和區自立路20巷1號","121.522228333333","24.9934316666667","6500300","中和區"
"235049","186-VK","2018/07/02 19:39:37","新北市中和區景安路139號","121.505691666667","24.9955933333333","6500300","中和區"
"235067","255-BX","2018/07/02 19:39:32","新北市中和區連城路340巷14弄9號","121.483126666667","24.997155","6500300","中和區"
"235044","293-VK","2018/07/02 19:39:43","新北市中和區南山路240-6號","121.50725","24.98952","6500300","中和區"
"235072","301-VK","2018/07/02 19:39:20","新北市中和區連城路174巷42號","121.494318333333","25.0006116666667","6500300","中和區"
"235043","352-BY","2018/07/02 19:39:34","新北市中和區興南路一段108號","121.509581666667","24.9888533333333","6500300","中和區"
"235042","KEA-2878","2018/07/02 19:39:31","新北市中和區中和路262巷45號","121.5101","24.9997566666667","6500300","中和區"
"235050","4979-A6","2018/07/02 19:39:43","新北市中和區中正路589巷15號","121.485665","24.9935083333333","6500300","中和區"
"235070","558-UM","2018/07/02 19:39:31","新北市中和區景平路583號","121.497641666667","25.0002816666667","6500300","中和區"
"235045","565-BX","2018/07/02 19:39:33","新北市中和區景新街475號","121.513501666667","24.9878166666667","6500300","中和區"
"235054","640-BX","2018/07/02 19:39:36","新北市中和區國光街112巷20弄1-2號","121.470661666667","25.0020766666667","6500300","中和區"
"235060","647-TV","2018/07/02 19:39:42","新北市中和區員山路314巷7弄4號","121.482148333333","25.0030833333333","6500300","中和區"
"235046","733-UM","2018/07/02 19:39:45","新北市中和區景新街496巷22號","121.513303333333","24.986195","6500300","中和區"
"235071","783-BX","2018/07/02 19:39:36","新北市中和區中正路839巷29號","121.483678333333","25.002395","6500300","中和區"
"235057","801-TS","2018/07/02 19:39:46","新北市中和區員山路283號","121.481228333333","24.999755","6500300","中和區"
"235041","802-TS","2018/07/02 19:39:42","新北市永和區中和路593號","121.512283333333","25.0040716666667","6500300","中和區"
"235052","805-TS","2018/07/02 19:39:46","新北市中和區華新街192巷8號","121.506635","24.9826666666667","6500300","中和區"
"235048","896-TW","2018/07/02 19:39:34","新北市中和區忠孝街1巷2-1號","121.509176666667","24.9830533333333","6500300","中和區"
"235053","900-TW","2018/07/02 19:39:33","新北市中和區國光街205巷2號","121.46685","25.0019733333333","6500300","中和區"
"235051","157-BY","2018/07/02 19:39:30","新北市中和區南山路265號","121.503918333333","24.9926233333333","6500300","中和區"
"235037","AAC-213","2018/07/02 19:39:27","新北市中和區秀朗路三段52號","121.526421666667","24.9953716666667","6500300","中和區"
"235059","AAC-215","2018/07/02 19:39:37","新北市中和區錦和路358號","121.490631666667","24.9912966666667","6500300","中和區"
"220068","013-TV","2018/07/02 19:39:44","新北市板橋區萬安街12號","121.484726666667","25.022575","6500100","板橋區"
"220055","015-TV","2018/07/02 19:39:36","新北市板橋區國慶路149巷15號","121.460996666667","24.9971716666667","6500100","板橋區"
"220065","072-UY","2018/07/02 19:39:32","新北市板橋區國泰街39巷5弄9號","121.46868","25.00606","6500100","板橋區"
"220106","075-UY","2018/07/02 19:39:27","新北市板橋區文化路二段332號","121.472743333333","25.0302966666667","6500100","板橋區"
"247004","337-TH","2018/07/02 19:39:42","新北市蘆洲區長安街98巷22號","121.463093333333","25.0818933333333","6501400","蘆洲區"
"247008","056-VK","2018/07/02 19:39:42","新北市蘆洲區三民路1號","121.47588","25.0817066666667","6501400","蘆洲區"
"226004","312-R5","2018/07/02 19:39:39","新北市平溪區十分里十分街282號","121.779018333333","25.045405","6502400","平溪區"
"235047","251-BX","2018/07/02 19:39:43","新北市中和區南山路263巷13號","121.504275","24.992935","6500300","中和區"
"228003","097-TW","2018/07/02 19:39:45","新北市貢寮區真理里美艷山街15-3號","121.923753333333","25.0680116666667","6502600","貢寮區"
"228001","670-TC","2018/07/02 19:39:38","新北市貢寮區真理里大澳街7號","121.924765","25.0558016666667","6502600","貢寮區"
"224010","AGQ-8101","2018/07/02 19:38:57","新北市瑞芳區金光路334號","121.848658333333","25.1099983333333","6501200","瑞芳區"
"224002","639-TC","2018/07/02 19:39:36","新北市瑞芳區三爪子坑路13巷281-15號","121.81516","25.1062433333333","6501200","瑞芳區"
"224008","285-BY","2018/07/02 19:39:44","新北市瑞芳區一坑路285號","121.801065","25.1084566666667","6501200","瑞芳區"
"227008","642-TC","2018/07/02 19:39:29","新北市雙溪區新基里新基北街18號","121.867165","25.0388333333333","6502500","雙溪區"
"227001","400-TW","2018/07/02 19:39:43","新北市雙溪區雙溪里內挖路83號","121.863158333333","25.0369566666667","6502500","雙溪區"
"222001","KEA-2212","2018/07/02 19:39:28","新北市深坑區深坑街152號","121.612906666667","25.001415","6501800","深坑區"
"208002","KEA-2872","2018/07/02 19:39:44","新北市金山區仁愛路66號","121.63508","25.221045","6502700","金山區"
"208003","665-BX","2018/07/02 19:39:40","新北市金山區忠孝一路90號","121.636656666667","25.22124","6502700","金山區"
"208001","761-BX","2018/07/02 19:39:46","新北市金山區六股里下六股65號","121.614603333333","25.2229716666667","6502700","金山區"
"251005","010-UM","2018/07/02 19:39:46","新北市淡水區原德路108巷2號","121.443291666667","25.1735133333333","6501000","淡水區"
"251001","011-UM","2018/07/02 19:39:32","新北市淡水區民權路51號","121.459726666667","25.1390416666667","6501000","淡水區"
"251013","KEA-2871","2018/07/02 19:39:25","新北市淡水區店子後9號","121.459823333333","25.2186533333333","6501000","淡水區"
"251016","179-VK","2018/07/02 19:39:35","新北市淡水區下圭柔山119-51號","121.450681666667","25.208475","6501000","淡水區"
"251014","180-VK","2018/07/02 19:39:32","新北市淡水區北勢子12號","121.479216666667","25.2318266666667","6501000","淡水區"
"251015","181-VK","2018/07/02 19:39:30","新北市三芝區興華里車埕70-4號","121.493296666667","25.1937033333333","6501000","淡水區"
"251010","413-VK","2018/07/02 19:39:37","新北市淡水區崁頂三路113號","121.432333333333","25.2004933333333","6501000","淡水區"
"251012","441-VK","2018/07/02 19:39:37","新北市淡水區中山北路三段164號","121.445701666667","25.196475","6501000","淡水區"
"251007","442-VK","2018/07/02 19:39:34","新北市淡水區中正東路一段127巷21號","121.455955","25.1605983333333","6501000","淡水區"
"251008","443-VK","2018/07/02 19:39:32","新北市淡水區中正路32巷1號","121.430945","25.1753366666667","6501000","淡水區"
"251006","561-UM","2018/07/02 19:39:41","新北市淡水區中山北路一段207巷74號","121.44142","25.1794183333333","6501000","淡水區"
"251009","575-R6","2018/07/02 19:39:29","新北市淡水區中山北路一段198巷6號","121.445116666667","25.1792666666667","6501000","淡水區"
"251011","650-BX","2018/07/02 19:39:39","新北市淡水區八勢路20號","121.460438333333","25.1534016666667","6501000","淡水區"
"207003","550-UM","2018/07/02 19:39:45","新北市萬里區大鵬里下社17-7號","121.648741666667","25.2173516666667","6502800","萬里區"
"207004","225-TW","2018/07/02 19:39:41","新北市萬里區萬里里瑪鋉路33號","121.687506666667","25.17564","6502800","萬里區"
"252002","178-VK","2018/07/02 19:39:31","新北市三芝區中正路一段18巷50號","121.504091666667","25.25887","6502100","三芝區"
"252001","292-VK","2018/07/02 19:39:28","新北市三芝區長安街89號","121.499698333333","25.2574366666667","6502100","三芝區"
"237004","KEA-2597","2018/07/02 19:39:43","新北市三峽區有木2-2號","121.418698333333","24.8658583333333","6500900","三峽區"
"237007","153-BY","2018/07/02 19:39:33","新北市三峽區二鬮路136巷20弄1號","121.356263333333","24.9099183333333","6500900","三峽區"
"237010","572-TV","2018/07/02 19:39:45","新北市三峽區復興路181號","121.369053333333","24.9388483333333","6500900","三峽區"
"237009","210-TH","2018/07/02 19:39:40","新北市三峽區中園街18號","121.368138333333","24.9271533333333","6500900","三峽區"
"237013","252-BX","2018/07/02 19:39:32","新北市三峽區介壽路一段383號","121.383893333333","24.9310433333333","6500900","三峽區"
"237012","275-BY","2018/07/02 19:39:40","新北市三峽區光明路30號","121.373643333333","24.9307516666667","6500900","三峽區"
"237008","302-VK","2018/07/02 19:39:36","新北市三峽區中正路一段292巷12弄7號","121.370908333333","24.9262266666667","6500900","三峽區"
"237014","433-BY","2018/07/02 19:39:44","新北市三峽區嘉添68號","121.36867","24.9106416666667","6500900","三峽區"
"237006","5529-G3","2018/07/02 19:39:37","新北市三峽區中正路一段336巷15弄2號","121.36999","24.924965","6500900","三峽區"
"237011","KEA-2596","2018/07/02 19:39:46","新北市三峽區中正路一段474-4號","121.370378333333","24.9211616666667","6500900","三峽區"
"237015","649-BX","2018/07/02 19:39:27","新北市三峽區成福路128號","121.421475","24.9300466666667","6500900","三峽區"
"237005","AKY-6261","2018/07/02 19:39:29","新北市三峽區中山路196號","121.36343","24.93698","6500900","三峽區"
"236069","105-UM","2018/07/02 19:39:37","新北市土城區明德路一段385-1號","121.452613333333","24.9802233333333","6501300","土城區"
"236042","107-UM","2018/07/02 19:39:32","新北市土城區裕民路245號","121.45454","24.9830466666667","6501300","土城區"
"236078","166-UM","2018/07/02 19:39:37","新北市土城區中州路27巷78號","121.412505","24.9564716666667","6501300","土城區"
"236030","253-BX","2018/07/02 19:39:40","新北市土城區福祥街97號","121.441383333333","24.98139","6501300","土城區"
"236026","269-VK","2018/07/02 19:39:44","新北市土城區中央路二段61巷26號","121.443311666667","24.978635","6501300","土城區"
"236039","271-VK","2018/07/02 19:39:33","新北市土城區青雲路281巷13弄6號","121.459855","24.98044","6501300","土城區"
"236020","401-BY","2018/07/02 19:39:25","新北市土城區峰廷街10號","121.468701666667","24.98773","6501300","土城區"
"236059","912-UM","2018/07/02 19:39:36","新北市土城區中央路二段63號","121.442526666667","24.979055","6501300","土城區"
"236048","913-UM","2018/07/02 19:39:30","新北市土城區明德路一段107號","121.465688333333","24.982345","6501300","土城區"
"236063","915-UM","2018/07/02 19:39:30","新北市土城區延平街64號","121.467846666667","24.992795","6501300","土城區"
"236055","AAC-216","2018/07/02 19:39:36","新北市土城區學府路一段62號","121.457173333333","24.98834","6501300","土城區"
"242029","612-BX","2018/07/02 19:39:30","新北市新莊區新泰路357巷3弄57號","121.442203333333","25.0391766666667","6500500","新莊區"
"242046","497-BY","2018/07/02 19:39:42","新北市新莊區裕民街19巷2弄1號","121.41961","25.02523","6500500","新莊區"
"242036","415-TV","2018/07/02 19:39:39","新北市新莊區民安路207巷8號","121.4266","25.0226966666667","6500500","新莊區"
"242023","362-BY","2018/07/02 19:39:32","新北市新莊區復興路三段117號","121.464458333333","25.0445183333333","6500500","新莊區"
"242039","133-UY","2018/07/02 19:39:39","新北市新莊區建國二路83-20號","121.430885","25.0258666666667","6500500","新莊區"
"242031","135-UY","2018/07/02 19:39:38","新北市新莊區公園一路138號","121.44633","25.0381783333333","6500500","新莊區"
"242048","172-VK","2018/07/02 19:39:37","新北市新莊區民安路37巷10號","121.424166666667","25.0269433333333","6500500","新莊區"
"242011","173-VK","2018/07/02 19:39:44","新北市新莊區三和路12-21號","121.442115","25.03874","6500500","新莊區"
"242004","176-VK","2018/07/02 19:39:42","新北市新莊區化成路29巷67號","121.462253333333","25.043955","6500500","新莊區"
"242021","348-TH","2018/07/02 19:39:40","新北市新莊區新豐街63號","121.446535","25.0334816666667","6500500","新莊區"
"242013","351-TH","2018/07/02 19:39:26","新北市新莊區中誠街123號","121.449383333333","25.0475283333333","6500500","新莊區"
"238015","755-BX","2018/07/02 19:39:44","新北市樹林區日新街87號","121.421656666667","24.9903616666667","6500700","樹林區"
"238023","601-UM","2018/07/02 19:39:37","新北市樹林區三福街72號","121.4047","25.0161783333333","6500700","樹林區"
"238024","5061-A6","2018/07/02 19:39:44","新北市樹林區山佳街57-1號","121.392921666667","24.9724066666667","6500700","樹林區"
"238022","KEA-2213","2018/07/02 19:39:36","新北市樹林區名園街53號","121.419915","24.9783266666667","6500700","樹林區"
"238021","KEA-2539","2018/07/02 19:39:39","新北市樹林區佳園路三段151號","121.38564","24.94923","6500700","樹林區"
"238025","303-VK","2018/07/02 19:39:30","新北市樹林區中山路二段86號","121.414568333333","24.9836083333333","6500700","樹林區"
"238017","283-BY","2018/07/02 19:39:45","新北市樹林區保安街二段167巷11號","121.414693333333","25.00286","6500700","樹林區"
"238014","282-BY","2018/07/02 19:39:40","新北市樹林區千歲街30巷30弄2號","121.425938333333","24.9963316666667","6500700","樹林區"
"238020","268-VK","2018/07/02 19:39:34","新北市樹林區俊英街48號","121.428745","25.0025566666667","6500700","樹林區"
"238026","172-UY","2018/07/02 19:39:45","新北市樹林區佳園路二段15巷15號","121.394376666667","24.9628333333333","6500700","樹林區"
"239006","891-R6","2018/07/02 19:39:43","新北市鶯歌區永昌街136號","121.339918333333","24.95037","6500800","鶯歌區"
"239005","526-UM","2018/07/02 19:39:33","新北市鶯歌區中湖街57-15號","121.349225","24.9743133333333","6500800","鶯歌區"
"239001","417-VK","2018/07/02 19:39:36","新北市鶯歌區尖山埔路二段55號","121.341881666667","24.948575","6500800","鶯歌區"
"239007","292-BY","2018/07/02 19:39:31","新北市鶯歌區中山路171號","121.348411666667","24.9570316666667","6500800","鶯歌區"
"239004","193-VK","2018/07/02 19:39:27","新北市鶯歌區二甲路佳美巷13號","121.337363333333","24.9341183333333","6500800","鶯歌區"
"221008","489-VK","2018/07/02 19:39:46","新北市汐止區康寧街61巷48號","121.620431666667","25.06789","6501100","汐止區"
"221036","130-UY","2018/07/02 19:39:44","新北市汐止區康寧街901號","121.65077","25.0753016666667","6501100","汐止區"
"221015","131-UY","2018/07/02 19:39:29","新北市汐止區康寧街901號","121.65157","25.0749533333333","6501100","汐止區"
"221010","269-BY","2018/07/02 19:39:40","新北市汐止區汐萬路二段23巷1號","121.649503333333","25.0808166666667","6501100","汐止區"
"221012","278-VK","2018/07/02 19:39:43","新北市汐止區汐平路一段9號","121.680946666667","25.0713283333333","6501100","汐止區"
"221023","279-VK","2018/07/02 19:39:37","新北市汐止區中興路286巷1號","121.628188333333","25.069585","6501100","汐止區"
"221027","281-BY","2018/07/02 19:39:45","新北市汐止區忠孝東路9號","121.658348333333","25.06601","6501100","汐止區"
"221029","298-VK","2018/07/02 19:39:29","新北市汐止區康寧街901號","121.651408333333","25.0750533333333","6501100","汐止區"
"221021","299-VK","2018/07/02 19:39:35","新北市汐止區新台五路一段131號","121.652256666667","25.0618866666667","6501100","汐止區"
"221025","623-UM","2018/07/02 19:39:41","新北市汐止區福安街20巷2號","121.662498333333","25.0649633333333","6501100","汐止區"
"221038","646-BX","2018/07/02 19:39:41","新北市汐止區忠孝東路225號","121.662345","25.06694","6501100","汐止區"
"221033","647-BX","2018/07/02 19:39:37","新北市汐止區芳園街4號","121.624958333333","25.037855","6501100","汐止區"
"221002","707-TV","2018/07/02 19:39:39","新北市汐止區大同路一段219巷26號","121.633351666667","25.05848","6501100","汐止區"
"220079","145-BY","2018/07/02 19:39:32","新北市板橋區建國街105號","121.460051666667","25.0175716666667","6500100","板橋區"
"220080","200-UY","2018/07/02 19:39:46","新北市板橋區大觀路二段37巷252號","121.449866666667","25.0020966666667","6500100","板橋區"
"220082","610-BX","2018/07/02 19:39:29","新北市板橋區大觀路三段160巷34弄2號","121.430026666667","24.9939666666667","6500100","板橋區"
"220101","245-BX","2018/07/02 19:39:41","新北市板橋區縣民大道三段33巷15號","121.473808333333","25.0211483333333","6500100","板橋區"
"220056","276-BY","2018/07/02 19:39:39","新北市板橋區四川路二段47巷3弄2號","121.454208333333","24.9945933333333","6500100","板橋區"
"220072","277-BY","2018/07/02 19:39:40","新北市板橋區金門街215巷85弄5號","121.433925","24.98903","6500100","板橋區"
"220071","283-VK","2018/07/02 19:39:40","新北市板橋區信義路279巷15號","121.46406","24.9901683333333","6500100","板橋區"
"220094","285-UM","2018/07/02 19:39:38","新北市板橋區銘傳街96-3號","121.469591666667","25.0315983333333","6500100","板橋區"
"220053","285-VK","2018/07/02 19:39:37","新北市板橋區中山路二段176號","121.477285","25.0174183333333","6500100","板橋區"
"220083","286-VK","2018/07/02 19:39:31","新北市板橋區龍興街65巷46號","121.44269","25.0018216666667","6500100","板橋區"
"220081","287-VK","2018/07/02 19:39:35","新北市板橋區大觀路一段75巷3號","121.447415","25.0044966666667","6500100","板橋區"
"220090","288-VK","2018/07/02 19:39:26","新北市板橋區長江路一段52號","121.458785","25.0291416666667","6500100","板橋區"
"220061","293-UM","2018/07/02 19:39:36","新北市板橋區中山路一段275號","121.469146666667","25.0135816666667","6500100","板橋區"
"220010","295-UM","2018/07/02 19:29:17","新北市板橋區民生路二段22號","121.472765","25.0166016666667","6500100","板橋區"
"220084","296-UM","2018/07/02 19:39:32","新北市板橋區滿平二街1-3號","121.425466666667","24.9863533333333","6500100","板橋區"
"220075","303-R5","2018/07/02 19:39:36","新北市板橋區大勇街59號","121.453586666667","25.0168866666667","6500100","板橋區"
"220062","305-R5","2018/07/02 19:39:39","新北市板橋區三民路二段29巷8-1號","121.481685","25.0180666666667","6500100","板橋區"
"220092","307-R5","2018/07/02 19:39:38","新北市板橋區文化路一段387巷32號","121.465893333333","25.0223616666667","6500100","板橋區"
"220098","317-R6","2018/07/02 19:39:38","新北市板橋區四維路314號","121.46256","25.0300133333333","6500100","板橋區"
"220064","486-VK","2018/07/02 19:39:25","新北市板橋區縣民大道二段1號","121.462083333333","25.0115033333333","6500100","板橋區"
"220088","491-VK","2018/07/02 19:39:30","新北市板橋區仁化街191號","121.478433333333","25.0341683333333","6500100","板橋區"
"220035","560-BX","2018/07/02 19:39:40","新北市板橋區新生街98巷14號","121.458858333333","25.0217633333333","6500100","板橋區"
"220103","561-BX","2018/07/02 19:39:31","新北市板橋區文化路一段339號","121.466493333333","25.0207433333333","6500100","板橋區"
"220063","609-BX","2018/07/02 19:39:45","新北市板橋區中山路二段553巷14號","121.483428333333","25.022545","6500100","板橋區"
"220086","630-UY","2018/07/02 19:39:42","新北市板橋區國光路36號","121.457281666667","25.0175216666667","6500100","板橋區"
"220091","637-BX","2018/07/02 19:39:44","新北市板橋區懷德街168號","121.479126666667","25.030425","6500100","板橋區"
"220057","686-BX","2018/07/02 19:39:25","新北市板橋區國慶路158巷1-1號","121.462088333333","24.995965","6500100","板橋區"
"220093","689-BX","2018/07/02 19:39:40","新北市板橋區新海路452號","121.457831666667","25.0279183333333","6500100","板橋區"
"220054","741-BX","2018/07/02 19:39:45","新北市板橋區忠孝路239巷16號","121.466733333333","25.0033033333333","6500100","板橋區"
"220102","KEA-2699","2018/07/02 19:39:45","新北市板橋區文化路二段410巷23號","121.474601666667","25.03072","6500100","板橋區"
"220077","806-UM","2018/07/02 19:39:40","新北市板橋區僑中一街94號","121.446945","25.01161","6500100","板橋區"
"220067","829-TW","2018/07/02 19:39:45","新北市板橋區長安街138巷1弄23號","121.473555","25.0099033333333","6500100","板橋區"
"220096","830-TW","2018/07/02 19:39:46","新北市板橋區民生路二段226巷6弄9號","121.469901666667","25.02153","6500100","板橋區"
"220089","833-TW","2018/07/02 19:39:31","新北市板橋區英士路39號","121.461536666667","25.0249383333333","6500100","板橋區"
"220074","895-R6","2018/07/02 19:39:24","新北市板橋區府中路75號","121.45755","25.009455","6500100","板橋區"
"220073","985-R7","2018/07/02 19:39:43","新北市板橋區國光路1號","121.45661","25.017305","6500100","板橋區"
"220097","AAC-210","2018/07/02 19:39:13","新北市板橋區幸福路60巷8號","121.460618333333","25.02105","6500100","板橋區"
"220070","AAC-253","2018/07/02 19:39:39","新北市板橋區民族路83號","121.465688333333","25.008515","6500100","板橋區"
"235068","KEA-2873","2018/07/02 19:39:31","新北市中和區泰和街31號","121.499235","24.9998683333333","6500300","中和區"
"235061","KEA-2875","2018/07/02 19:39:24","新北市中和區民利街11號","121.480578333333","24.9990833333333","6500300","中和區"
