"lineid","car","time","location","longitude","latitude","cityid","cityname"
"234046","148-BY","2018/07/02 19:49:38","新北市永和區永元路122號","121.523008333333","25.0026583333333","6500400","永和區"
"234007","207-UY","2018/07/02 19:49:28","新北市中和區南工路2巷2號","121.505445","25.0001016666667","6500400","永和區"
"234081","298-R6","2018/07/02 19:49:39","新北市永和區永亨路98號","121.523056666667","25.0048266666667","6500400","永和區"
"234038","336-UY","2018/07/02 19:49:43","新北市永和區民樂街39巷18弄22號","121.528518333333","24.9993516666667","6500400","永和區"
"234064","337-UY","2018/07/02 19:49:28","新北市永和區中正路368巷8號","121.518073333333","25.0007316666667","6500400","永和區"
"234086","338-UY","2018/07/02 19:49:26","新北市永和區永亨路55號","121.520468333333","25.006255","6500400","永和區"
"234070","552-UM","2018/07/02 19:49:33","新北市永和區竹林路78號","121.519346666667","25.0127683333333","6500400","永和區"
"234017","745-BX","2018/07/02 19:49:42","新北市永和區永和路二段310號","121.516138333333","25.01612","6500400","永和區"
"234030","746-BX","2018/07/02 19:49:41","新北市永和區民生路67巷22號","121.52385","24.9971066666667","6500400","永和區"
"234054","KEA-2590","2018/07/02 19:49:38","新北市永和區竹林路75巷1-1號","121.519151666667","25.0133216666667","6500400","永和區"
"234012","KEA-2591","2018/07/02 19:49:34","新北市永和區仁愛路242號","121.508183333333","25.0115633333333","6500400","永和區"
"234061","AAD-866","2018/07/02 19:49:47","新北市永和區中正路49號","121.514491666667","24.9963183333333","6500400","永和區"
"234042","862-TW","2018/07/02 19:49:28","新北市永和區中和路389巷13號","121.508008333333","25.0010316666667","6500400","永和區"
"234050","863-TW","2018/07/02 19:49:46","新北市永和區環河西路一段105號","121.51103","25.0175533333333","6500400","永和區"
"234026","9371-KE","2018/07/02 19:49:27","新北市永和區雙和街7巷2號","121.509541666667","25.001665","6500400","永和區"
"249001","173-UM","2018/07/02 19:49:37","新北市八里區中華路二段252號","121.405413333333","25.149685","6502300","八里區"
"249004","303-UY","2018/07/02 19:49:45","新北市八里區仁愛路29號","121.412903333333","25.16062","6502300","八里區"
"249002","305-UY","2018/07/02 19:49:43","新北市八里區頂寮五街17號","121.451513333333","25.1259783333333","6502300","八里區"
"249003","759-BX","2018/07/02 19:49:33","新北市八里區中華路二段558號","121.398633333333","25.1453233333333","6502300","八里區"
"248016","026-BX","2018/07/02 19:49:26","新北市五股區成泰路四段24-6號","121.45378","25.1068333333333","6501500","五股區"
"248008","095-VK","2018/07/02 19:49:46","新北市蘆洲區中山一路417號","121.468463333333","25.076585","6501500","五股區"
"248018","225-UY","2018/07/02 19:26:06","新北市五股區壟路16號","121.415083333333","25.085385","6501500","五股區"
"248012","247-BX","2018/07/02 19:49:31","新北市五股區蓬萊路24號","121.433886666667","25.0799016666667","6501500","五股區"
"248014","261-SL","2018/07/02 19:49:46","新北市五股區五福路42巷7號","121.43413","25.08955","6501500","五股區"
"248004","677-BX","2018/07/02 19:49:38","新北市五股區成泰路一段110-7號","121.435585","25.0724983333333","6501500","五股區"
"248002","678-BX","2018/07/02 19:49:44","新北市五股區成泰路四段15-2號","121.453086666667","25.1067233333333","6501500","五股區"
"248010","682-TV","2018/07/02 19:49:36","新北市五股區登林路貿商巷3弄15號","121.429676666667","25.0699816666667","6501500","五股區"
"234077","969-R7","2018/07/02 19:49:34","新北市永和區民權路23號","121.520275","24.9977983333333","6500400","永和區"
"234074","AAC-211","2018/07/02 19:49:45","新北市永和區豫溪街136巷5號","121.521336666667","25.0099733333333","6500400","永和區"
"234067","AAC-212","2018/07/02 19:49:42","新北市永和區保平路236巷24弄7號","121.508348333333","25.00708","6500400","永和區"
"234003","AAC-295","2018/07/02 19:49:46","新北市永和區福和路328號","121.515468333333","25.0072433333333","6500400","永和區"
"243013","AAD-798","2018/07/02 19:49:38","新北市泰山區應化街13號","121.423841666667","25.04372","6501600","泰山區"
"243009","297-R6","2018/07/02 19:49:34","新北市泰山區美寧街68號","121.43104","25.0646183333333","6501600","泰山區"
"243016","380-SR","2018/07/02 19:49:33","新北市泰山區中山路三段114號","121.41792","25.0322216666667","6501600","泰山區"
"243015","421-VK","2018/07/02 19:49:36","新北市泰山區明志路二段214巷11號","121.426686666667","25.04885","6501600","泰山區"
"243011","KEA-2215","2018/07/02 19:49:39","新北市泰山區明志路三段204巷10弄16號","121.423068333333","25.0387316666667","6501600","泰山區"
"243010","KEA-2216","2018/07/02 19:49:35","新北市泰山區民生路33號","121.430806666667","25.0521866666667","6501600","泰山區"
"243012","646-TV","2018/07/02 19:49:46","新北市泰山區全興路13號","121.432221666667","25.0590083333333","6501600","泰山區"
"243014","680-BX","2018/07/02 19:49:35","新北市泰山區泰林路二段33-8號","121.435203333333","25.05651","6501600","泰山區"
"222003","436-BY","2018/07/02 19:49:38","新北市深坑區深南路51-1號","121.62129","25.0097833333333","6501800","深坑區"
"222002","659-BX","2018/07/02 19:49:33","新北市深坑區北深路一段288號","121.62813","25.0077266666667","6501800","深坑區"
"231041","002-UM","2018/07/02 19:49:36","新北市新店區中央路212號","121.529995","24.9735433333333","6500600","新店區"
"231059","046-UY","2018/07/02 19:49:32","新北市新店區安和路二段190號","121.518896666667","24.9743816666667","6500600","新店區"
"231040","047-UY","2018/07/02 19:49:33","新北市新店區中正路75巷71號","121.543173333333","24.968825","6500600","新店區"
"231044","106-UY","2018/07/02 19:49:35","新北市新店區復興路31號","121.538608333333","24.9864683333333","6500600","新店區"
"231052","108-UY","2018/07/02 19:49:33","新北市新店區新烏路三段101號","121.552443333333","24.903095","6500600","新店區"
"231047","187-VK","2018/07/02 19:49:38","新北市新店區中興路二段100巷1號","121.547588333333","24.9715166666667","6500600","新店區"
"231046","188-VK","2018/07/02 19:49:25","新北市新店區福園街10巷3號","121.532648333333","24.9728216666667","6500600","新店區"
"231054","KEA-2219","2018/07/02 19:49:35","新北市新店區光明街69號","121.53872","24.9605466666667","6500600","新店區"
"221018","KEA-2785","2018/07/02 19:49:35","新北市汐止區茄苳路3號","121.664541666667","25.070915","6501100","汐止區"
"231057","256-BX","2018/07/02 19:49:46","新北市新店區梅崗一路9號","121.556135","24.93133","6500600","新店區"
"231042","268-BY","2018/07/02 19:49:31","新北市新店區中興路一段269號","121.54514","24.9679683333333","6500600","新店區"
"231051","278-BY","2018/07/02 19:49:35","新北市新店區中央三街49號","121.527601666667","24.9747166666667","6500600","新店區"
"231050","AAD-862","2018/07/02 19:49:45","新北市新店區北宜路二段579巷2號","121.565458333333","24.95417","6500600","新店區"
"231066","4716-K9","2018/07/02 19:49:28","新北市新店區安康路二段341巷21號","121.497115","24.9545933333333","6500600","新店區"
"231056","4715-K9","2018/07/02 19:49:29","新北市新店區中央路13號","121.533293333333","24.9784816666667","6500600","新店區"
"231065","512-UM","2018/07/02 19:49:46","新北市新店區安祥路109巷137號","121.477178333333","24.9582433333333","6500600","新店區"
"231049","513-UM","2018/07/02 19:49:41","新北市新店區民權路108-2號","121.536108333333","24.9835066666667","6500600","新店區"
"231061","619-UM","2018/07/02 19:49:34","新北市新店區安民街150號","121.516638333333","24.969855","6500600","新店區"
"231063","641-BX","2018/07/02 19:49:34","新北市新店區車子路11號","121.503058333333","24.9520133333333","6500600","新店區"
"231068","718-UY","2018/07/02 19:49:35","新北市新店區安一路一段1-1號","121.519481666667","24.9612733333333","6500600","新店區"
"231064","719-UM","2018/07/02 19:49:34","新北市新店區安和路二段113巷1弄2號","121.518345","24.9701883333333","6500600","新店區"
"231062","720-UM","2018/07/02 19:49:28","新北市新店區永業路78號","121.531441666667","24.951955","6500600","新店區"
"231060","897-TW","2018/07/02 19:49:39","新北市新店區安康路二段223號","121.508608333333","24.9587583333333","6500600","新店區"
"231045","898-TW","2018/07/02 19:49:21","新北市新店區北宜路二段382號","121.564478333333","24.9529416666667","6500600","新店區"
"231043","899-TW","2018/07/02 19:49:39","新北市新店區中正路241號","121.539215","24.9732516666667","6500600","新店區"
"231055","AKT-0513","2018/07/02 19:49:34","新北市新店區力行路12號","121.539365","24.9646166666667","6500600","新店區"
"241011","013-R5","2018/07/02 19:49:38","新北市三重區介壽路43號","121.49873","25.0700633333333","6500200","三重區"
"241028","022-UY","2018/07/02 19:49:33","新北市三重區中正南路115號","121.494043333333","25.0575566666667","6500200","三重區"
"241008","059-VK","2018/07/02 19:49:44","新北市三重區永福街113號","121.479296666667","25.0773483333333","6500200","三重區"
"241022","060-VK","2018/07/02 19:49:40","新北市三重區新北大道一段9號","121.489068333333","25.061295","6500200","三重區"
"241031","061-VK","2018/07/02 19:49:36","新北市三重區重新路四段244巷10號","121.486213333333","25.0535733333333","6500200","三重區"
"241015","062-VK","2018/07/02 19:49:42","新北市三重區重新路一段1號","121.50372","25.0642633333333","6500200","三重區"
"241017","063-VK","2018/07/02 19:49:46","新北市三重區重陽路三段5巷8弄29號","121.489568333333","25.066575","6500200","三重區"
"241024","065-VK","2018/07/02 19:49:31","新北市三重區國道路一段70巷11號","121.48059","25.0722033333333","6500200","三重區"
"241026","066-VK","2018/07/02 19:49:27","新北市三重區光興街3號","121.500196666667","25.0605116666667","6500200","三重區"
"241003","091-VK","2018/07/02 19:49:41","新北市三重區五華街93巷12號","121.49238","25.0839633333333","6500200","三重區"
"241007","742-BX","2018/07/02 19:49:39","新北市三重區三和路四段135巷3號","121.485086666667","25.0780533333333","6500200","三重區"
"241020","265-UM","2018/07/02 19:49:32","新北市三重區後竹圍街89號","121.489558333333","25.0730266666667","6500200","三重區"
"241016","266-UM","2018/07/02 19:49:40","新北市三重區正義北路16巷30號","121.496516666667","25.0628333333333","6500200","三重區"
"241009","267-UM","2018/07/02 19:49:31","新北市三重區三和路四段396巷8號","121.480953333333","25.079055","6500200","三重區"
"241018","268-UM","2018/07/02 19:49:40","新北市三重區雙園街57巷25號","121.494566666667","25.068385","6500200","三重區"
"241013","270-UM","2018/07/02 19:49:43","新北市三重區仁愛街92巷13號","121.494781666667","25.0737766666667","6500200","三重區"
"241025","271-UM","2018/07/02 19:49:33","新北市三重區忠孝路三段52號","121.480675","25.065645","6500200","三重區"
"241035","462-BY","2018/07/02 19:49:30","新北市三重區大榮街53號","121.49919","25.063575","6500200","三重區"
"241004","475-VK","2018/07/02 19:49:32","新北市三重區五華街74號","121.493353333333","25.082055","6500200","三重區"
"241030","480-VK","2018/07/02 19:49:16","新北市三重區環河南路254巷22-1號","121.490351666667","25.05099","6500200","三重區"
"241014","543-UM","2018/07/02 19:49:37","新北市三重區長元街98巷18弄31號","121.501761666667","25.067435","6500200","三重區"
"241023","545-UM","2018/07/02 19:49:40","新北市三重區大有街1-1號","121.477565","25.0655866666667","6500200","三重區"
"241001","547-UM","2018/07/02 19:49:41","新北市三重區仁愛街327巷45-1號","121.493366666667","25.0801066666667","6500200","三重區"
"241019","KEA-2593","2018/07/02 19:49:29","新北市三重區自強路二段74巷23-1號","121.487793333333","25.0696966666667","6500200","三重區"
"241006","743-BX","2018/07/02 19:49:42","新北市三重區力行路二段90號","121.482055","25.0743466666667","6500200","三重區"
"241012","941-UM","2018/07/02 19:49:40","新北市三重區仁福街64巷22號","121.497656666667","25.0752816666667","6500200","三重區"
"241029","942-UM","2018/07/02 19:49:38","新北市三重區光明路19號","121.49108","25.0586466666667","6500200","三重區"
"235066","003-UY","2018/07/02 19:49:25","新北市中和區南工路60號","121.506133333333","25.00174","6500300","中和區"
"235064","005-UY","2018/07/02 19:49:29","新北市中和區圓通路1號","121.501816666667","24.997905","6500300","中和區"
"235063","006-UY","2018/07/02 19:49:35","新北市中和區連城路263巷22號","121.492656666667","24.9947","6500300","中和區"
"235056","096-UM","2018/07/02 19:49:46","新北市中和區中山路三段136巷10弄21號","121.473946666667","25.007805","6500300","中和區"
"235003","097-UM","2018/07/02 19:49:32","新北市中和區大勇街27巷25號","121.516348333333","24.9938266666667","6500300","中和區"
"235065","098-UM","2018/07/02 19:49:32","新北市中和區莊敬路17號","121.499946666667","25.0045316666667","6500300","中和區"
"235040","150-BY","2018/07/02 19:49:28","新北市中和區安和路39號","121.509656666667","24.99488","6500300","中和區"
"235058","151-BY","2018/07/02 19:49:25","新北市中和區員山路155號","121.481141666667","24.9964933333333","6500300","中和區"
"235055","183-VK","2018/07/02 19:49:30","新北市中和區德光路27巷1弄1號","121.470791666667","25.00403","6500300","中和區"
"235038","185-VK","2018/07/02 19:49:31","新北市中和區自立路6號","121.522441666667","24.9965183333333","6500300","中和區"
"235049","186-VK","2018/07/02 19:49:37","新北市中和區中興街5號","121.501328333333","24.995165","6500300","中和區"
"235067","255-BX","2018/07/02 19:49:32","新北市中和區新生街234號","121.483808333333","24.9980733333333","6500300","中和區"
"235044","293-VK","2018/07/02 19:49:43","新北市中和區南山路269號","121.50397","24.9925466666667","6500300","中和區"
"235043","352-BY","2018/07/02 19:49:34","新北市中和區興南路二段159巷7號","121.505251666667","24.9831533333333","6500300","中和區"
"235042","KEA-2878","2018/07/02 19:49:46","新北市中和區景安路79巷35號","121.507363333333","24.9963333333333","6500300","中和區"
"235050","4979-A6","2018/07/02 19:49:42","新北市中和區景平路241巷84弄54號","121.506088333333","24.9923566666667","6500300","中和區"
"235069","4980-A6","2018/07/02 19:49:41","新北市中和區員山路36巷16-2號","121.485378333333","24.9916566666667","6500300","中和區"
"235070","558-UM","2018/07/02 19:49:31","新北市中和區連勝街32號","121.498195","24.997795","6500300","中和區"
"235045","565-BX","2018/07/02 19:49:33","新北市中和區景平路400號","121.509265","24.9930766666667","6500300","中和區"
"235054","640-BX","2018/07/02 19:49:36","新北市中和區國光街107巷2弄29號","121.469315","24.9989116666667","6500300","中和區"
"235060","647-TV","2018/07/02 19:49:42","新北市中和區新生街16巷4號","121.482858333333","25.0043283333333","6500300","中和區"
"235046","733-UM","2018/07/02 19:49:45","新北市中和區仁愛街13號","121.510778333333","24.9892233333333","6500300","中和區"
"235071","783-BX","2018/07/02 19:49:36","新北市中和區中板路7-3號","121.48484","25.0111966666667","6500300","中和區"
"235057","801-TS","2018/07/02 19:49:26","新北市中和區員山路283號","121.48128","24.999765","6500300","中和區"
"235041","802-TS","2018/07/02 19:49:42","新北市中和區永貞路221號","121.513711666667","25.0035916666667","6500300","中和區"
"235052","805-TS","2018/07/02 19:49:26","新北市中和區忠孝街2-3號","121.508945","24.9829716666667","6500300","中和區"
"235048","896-TW","2018/07/02 19:49:34","新北市中和區興南路二段6號","121.507895","24.986205","6500300","中和區"
"235053","900-TW","2018/07/02 19:49:33","新北市中和區國光街171巷6號","121.467605","25.00136","6500300","中和區"
"235051","157-BY","2018/07/02 19:49:30","新北市中和區中興街123號","121.500038333333","24.9917716666667","6500300","中和區"
"235037","AAC-213","2018/07/02 19:49:28","新北市中和區自立路191號","121.524126666667","24.9913016666667","6500300","中和區"
"235059","AAC-215","2018/07/02 19:49:37","新北市中和區圓通路305巷13弄2號","121.494146666667","24.9897333333333","6500300","中和區"
"220068","013-TV","2018/07/02 19:49:32","新北市板橋區中山路二段416巷1弄4號","121.48331","25.0208233333333","6500100","板橋區"
"220055","015-TV","2018/07/02 19:49:30","新北市板橋區國慶路213巷13號","121.462978333333","24.9971583333333","6500100","板橋區"
"220065","072-UY","2018/07/02 19:49:32","新北市板橋區民族路69巷18弄22號","121.466478333333","25.0098316666667","6500100","板橋區"
"220106","075-UY","2018/07/02 19:49:31","新北市板橋區民治街57巷32-1號","121.480151666667","25.0343366666667","6500100","板橋區"
"220069","AAD-861","2018/07/02 19:49:36","新北市板橋區貴興路119巷4號","121.455613333333","25.002215","6500100","板橋區"
"247014","546-UM","2018/07/02 19:49:44","新北市蘆洲區復興路7號","121.471953333333","25.0852833333333","6501400","蘆洲區"
"247004","337-TH","2018/07/02 19:49:42","新北市蘆洲區中原路45號","121.459416666667","25.0822633333333","6501400","蘆洲區"
"247006","336-TH","2018/07/02 19:49:34","新北市蘆洲區永安南路二段14號","121.46734","25.0770316666667","6501400","蘆洲區"
"247008","056-VK","2018/07/02 19:49:42","新北市蘆洲區信義路111號","121.478373333333","25.080115","6501400","蘆洲區"
"247002","002-UY","2018/07/02 19:49:06","新北市蘆洲區永平街16號","121.459161666667","25.09054","6501400","蘆洲區"
"226004","312-R5","2018/07/02 19:49:39","新北市平溪區十分里十分街61號","121.77574","25.041605","6502400","平溪區"
"235047","251-BX","2018/07/02 19:49:43","新北市中和區興南路一段67號","121.510295","24.9893766666667","6500300","中和區"
"228003","097-TW","2018/07/02 19:49:45","新北市貢寮區真理里美艷山街3-1號","121.92567","25.0595716666667","6502600","貢寮區"
"228001","670-TC","2018/07/02 19:49:38","新北市貢寮區仁理村仁愛路95-1號","121.927555","25.0555516666667","6502600","貢寮區"
"224010","AGQ-8101","2018/07/02 19:47:37","新北市瑞芳區汽車路9-7號","121.84509","25.109855","6501200","瑞芳區"
"224002","639-TC","2018/07/02 19:49:36","新北市瑞芳區民享新村26號","121.817066666667","25.1057783333333","6501200","瑞芳區"
"227008","642-TC","2018/07/02 19:49:29","新北市雙溪區新基里中華路79號","121.865813333333","25.0384216666667","6502500","雙溪區"
"227001","400-TW","2018/07/02 19:49:43","新北市雙溪區雙溪里內挖路36號","121.86319","25.0367883333333","6502500","雙溪區"
"222001","KEA-2212","2018/07/02 19:49:28","新北市深坑區北深路三段71號","121.606731666667","25.0013466666667","6501800","深坑區"
"208002","KEA-2872","2018/07/02 19:49:44","新北市金山區四維路25號","121.634996666667","25.22284","6502700","金山區"
"208003","665-BX","2018/07/02 19:49:44","新北市金山區仁愛路23號","121.637331666667","25.219165","6502700","金山區"
"208001","761-BX","2018/07/02 19:49:33","新北市金山區重和里茅埔頭8號","121.603741666667","25.2163766666667","6502700","金山區"
"251005","010-UM","2018/07/02 19:49:26","新北市淡水區中正東路6號","121.447153333333","25.1672183333333","6501000","淡水區"
"251001","011-UM","2018/07/02 19:49:32","新北市淡水區中正東路二段19號","121.458883333333","25.1570783333333","6501000","淡水區"
"251013","KEA-2871","2018/07/02 19:49:45","新北市淡水區頂田寮路109號","121.457723333333","25.2160566666667","6501000","淡水區"
"251016","179-VK","2018/07/02 19:49:35","新北市淡水區三塊厝3-2號","121.456143333333","25.209145","6501000","淡水區"
"251014","180-VK","2018/07/02 19:49:32","新北市淡水區石頭厝17-2號","121.467933333333","25.2370833333333","6501000","淡水區"
"251015","181-VK","2018/07/02 19:49:30","新北市淡水區北新路三段37號","121.484145","25.18713","6501000","淡水區"
"251010","413-VK","2018/07/02 19:49:37","新北市淡水區下圭柔山91-3號","121.431008333333","25.209765","6501000","淡水區"
"251012","441-VK","2018/07/02 19:49:37","新北市淡水區淡金路三段66號","121.448191666667","25.19996","6501000","淡水區"
"251007","442-VK","2018/07/02 19:49:34","新北市淡水區中正東路一段75號","121.452815","25.16219","6501000","淡水區"
"251008","443-VK","2018/07/02 19:49:32","新北市淡水區中正路二段24巷2-1號","121.426785","25.1769883333333","6501000","淡水區"
"251006","561-UM","2018/07/02 19:49:41","新北市淡水區水碓街15號","121.443448333333","25.1769483333333","6501000","淡水區"
"251009","575-R6","2018/07/02 19:49:29","新北市淡水區中正路32號","121.443861666667","25.1692483333333","6501000","淡水區"
"251011","650-BX","2018/07/02 19:49:39","新北市淡水區淡金路二段108-1號","121.447891666667","25.1842266666667","6501000","淡水區"
"251003","766-UM","2018/07/02 19:49:28","新北市淡水區下圭柔山91-3號","121.430865","25.2099883333333","6501000","淡水區"
"207003","550-UM","2018/07/02 19:49:36","新北市萬里區大鵬里萬里加投68號","121.642426666667","25.214765","6502800","萬里區"
"207004","225-TW","2018/07/02 19:49:42","新北市萬里區萬里里瑪鋉路207號","121.690366666667","25.1793183333333","6502800","萬里區"
"252002","178-VK","2018/07/02 19:49:31","新北市三芝區三民街33-1號","121.504633333333","25.2585616666667","6502100","三芝區"
"252001","292-VK","2018/07/02 19:49:28","新北市三芝區公正街66號","121.499766666667","25.2574633333333","6502100","三芝區"
"237004","KEA-2597","2018/07/02 19:49:43","新北市三峽區添福289號","121.377141666667","24.88927","6500900","三峽區"
"237007","153-BY","2018/07/02 19:49:33","新北市三峽區二鬮路136巷22弄51號","121.357591666667","24.910335","6500900","三峽區"
"237010","572-TV","2018/07/02 19:49:45","新北市三峽區復興路36-6號","121.37398","24.936665","6500900","三峽區"
"237009","210-TH","2018/07/02 19:49:40","新北市三峽區中園街46號","121.36816","24.9261433333333","6500900","三峽區"
"237013","252-BX","2018/07/02 19:49:32","新北市三峽區溪北街78號","121.39776","24.9354366666667","6500900","三峽區"
"237012","275-BY","2018/07/02 19:49:40","新北市三峽區中華路5-1號","121.37441","24.9326583333333","6500900","三峽區"
"237008","302-VK","2018/07/02 19:49:36","新北市三峽區中正路一段108巷7弄5號","121.373623333333","24.9298933333333","6500900","三峽區"
"237014","433-BY","2018/07/02 19:49:44","新北市三峽區添福141號","121.375271666667","24.9009966666667","6500900","三峽區"
"237006","5529-G3","2018/07/02 19:49:37","新北市三峽區中正路一段323-1號","121.37118","24.9239933333333","6500900","三峽區"
"237015","649-BX","2018/07/02 19:49:27","新北市三峽區溪東路218巷25號","121.407063333333","24.9304783333333","6500900","三峽區"
"237005","AKY-6261","2018/07/02 19:49:28","新北市三峽區長泰街6巷32號","121.379356666667","24.9319966666667","6500900","三峽區"
"236069","105-UM","2018/07/02 19:49:37","新北市土城區水源街32巷8號","121.441011666667","24.9758183333333","6501300","土城區"
"236042","107-UM","2018/07/02 19:49:31","新北市土城區裕民路233巷1號","121.454936666667","24.98358","6501300","土城區"
"236078","166-UM","2018/07/02 19:49:28","新北市土城區溪頭路57號","121.411716666667","24.9547883333333","6501300","土城區"
"236030","253-BX","2018/07/02 19:49:40","新北市土城區中央路一段319號","121.443811666667","24.9832383333333","6501300","土城區"
"236026","269-VK","2018/07/02 19:49:44","新北市土城區中央路二段61巷26號","121.443336666667","24.9786733333333","6501300","土城區"
"236039","271-VK","2018/07/02 19:49:33","新北市土城區國際路158巷54號","121.467966666667","24.97489","6501300","土城區"
"236020","401-BY","2018/07/02 19:49:45","新北市土城區延吉街137巷2弄25號","121.470135","24.98554","6501300","土城區"
"236059","912-UM","2018/07/02 19:49:36","新北市土城區中央路一段186-2號","121.445381666667","24.98635","6501300","土城區"
"236048","913-UM","2018/07/02 19:49:46","新北市土城區青雲路212號","121.45895","24.9817583333333","6501300","土城區"
"236063","915-UM","2018/07/02 19:49:42","新北市土城區延和路103號","121.467636666667","24.9902566666667","6501300","土城區"
"236055","AAC-216","2018/07/02 19:49:47","新北市土城區延和路152號","121.467945","24.990275","6501300","土城區"
"242034","AAC-296","2018/07/02 19:49:36","新北市新莊區仁愛街54巷1號","121.445025","25.0372533333333","6500500","新莊區"
"242058","986-R7","2018/07/02 19:49:42","新北市新莊區中正路473-1號","121.441995","25.03306","6500500","新莊區"
"242053","751-BX","2018/07/02 19:49:32","新北市新莊區民安西路415巷2號","121.4309","25.0091633333333","6500500","新莊區"
"242029","612-BX","2018/07/02 19:49:30","新北市新莊區中平路301號","121.444718333333","25.0512733333333","6500500","新莊區"
"242046","497-BY","2018/07/02 19:49:42","新北市新莊區裕民街19巷4號","121.419701666667","25.0251533333333","6500500","新莊區"
"242036","415-TV","2018/07/02 19:49:27","新北市新莊區建安街97號","121.426831666667","25.0243116666667","6500500","新莊區"
"242007","413-TV","2018/07/02 19:49:44","新北市新莊區思源路593巷6弄17號","121.45815","25.059995","6500500","新莊區"
"242023","362-BY","2018/07/02 19:49:38","新北市新莊區化成路99號","121.465535","25.0468883333333","6500500","新莊區"
"242060","353-BY","2018/07/02 19:49:35","新北市新莊區中環路一段10號","121.442781666667","25.025815","6500500","新莊區"
"242039","133-UY","2018/07/02 19:49:39","新北市新莊區民安路299巷53號","121.429543333333","25.0237816666667","6500500","新莊區"
"242031","135-UY","2018/07/02 19:49:38","新北市新莊區忠孝街15號","121.443905","25.03496","6500500","新莊區"
"242048","172-VK","2018/07/02 19:49:35","新北市新莊區建安街76巷1弄15號","121.425923333333","25.0242583333333","6500500","新莊區"
"242011","173-VK","2018/07/02 19:49:44","新北市新莊區中信街74號","121.448076666667","25.0525016666667","6500500","新莊區"
"242017","175-VK","2018/07/02 19:49:35","新北市新莊區中華路一段230號","121.452626666667","25.0432533333333","6500500","新莊區"
"242004","176-VK","2018/07/02 19:49:42","新北市新莊區化成路63巷24弄16號","121.462141666667","25.0460066666667","6500500","新莊區"
"242021","348-TH","2018/07/02 19:49:40","新北市新莊區建中街24號","121.449196666667","25.0375","6500500","新莊區"
"242019","350-TH","2018/07/02 19:49:39","新北市新莊區中華路一段136巷18號","121.453173333333","25.0411783333333","6500500","新莊區"
"242013","351-TH","2018/07/02 19:49:46","新北市新莊區中誠街90號","121.450145","25.0478033333333","6500500","新莊區"
"238015","755-BX","2018/07/02 19:49:44","新北市樹林區中山路二段34號","121.417431666667","24.98504","6500700","樹林區"
"238023","601-UM","2018/07/02 19:49:31","新北市樹林區忠信街15號","121.407625","25.0150516666667","6500700","樹林區"
"238024","5061-A6","2018/07/02 19:49:44","新北市樹林區育德街78-1號","121.387468333333","24.96812","6500700","樹林區"
"238021","KEA-2539","2018/07/02 19:49:47","新北市樹林區佳園路三段101巷80弄7號","121.394201666667","24.9495683333333","6500700","樹林區"
"238017","283-BY","2018/07/02 19:49:45","新北市樹林區保安街二段45巷13弄8號","121.415328333333","24.9997116666667","6500700","樹林區"
"238014","282-BY","2018/07/02 19:49:40","新北市樹林區大慶街99號","121.427185","24.9997966666667","6500700","樹林區"
"239006","891-R6","2018/07/02 19:49:43","新北市鶯歌區中正二路34號","121.350955","24.952025","6500800","鶯歌區"
"239007","292-BY","2018/07/02 19:49:31","新北市鶯歌區大湖路185號","121.34465","24.9700166666667","6500800","鶯歌區"
"239004","193-VK","2018/07/02 19:49:27","新北市鶯歌區中正一路426號","121.361326666667","24.9570183333333","6500800","鶯歌區"
"221008","489-VK","2018/07/02 19:49:26","新北市汐止區康寧街83巷34號","121.620803333333","25.0674516666667","6501100","汐止區"
"221036","130-UY","2018/07/02 19:49:44","新北市汐止區汐萬路一段312號","121.650473333333","25.0752016666667","6501100","汐止區"
"221015","131-UY","2018/07/02 19:49:29","新北市汐止區忠孝東路401號","121.665821666667","25.0710133333333","6501100","汐止區"
"221010","269-BY","2018/07/02 19:49:40","新北市汐止區汐萬路一段333巷1號","121.64991","25.076245","6501100","汐止區"
"221012","278-VK","2018/07/02 19:49:40","新北市汐止區大同路三段408號","121.68206","25.0719333333333","6501100","汐止區"
"221023","279-VK","2018/07/02 19:49:37","新北市汐止區民族六街4巷1號","121.629515","25.07014","6501100","汐止區"
"221032","280-BY","2018/07/02 19:49:37","新北市汐止區汐萬路一段312號","121.65041","25.0750266666667","6501100","汐止區"
"221027","281-BY","2018/07/02 19:49:45","新北市汐止區中正路7號","121.663005","25.07009","6501100","汐止區"
"221029","298-VK","2018/07/02 19:49:28","新北市汐止區汐萬路一段312號","121.650665","25.07532","6501100","汐止區"
"221021","299-VK","2018/07/02 19:49:35","新北市汐止區新興路84巷2號","121.65787","25.06154","6501100","汐止區"
"221031","353-TW","2018/07/02 19:49:27","新北市汐止區福德三路127號","121.633735","25.0673766666667","6501100","汐止區"
"221035","622-UM","2018/07/02 19:49:37","新北市汐止區長江街13巷6弄1號","121.654688333333","25.0717316666667","6501100","汐止區"
"221025","623-UM","2018/07/02 19:49:41","新北市汐止區秀峰路81巷15弄4-1號","121.66071","25.0645883333333","6501100","汐止區"
"221038","646-BX","2018/07/02 19:49:35","新北市汐止區忠孝東路414號","121.665878333333","25.0712816666667","6501100","汐止區"
"221033","647-BX","2018/07/02 19:49:37","新北市汐止區東勢街76巷100-1號","121.6364","25.039005","6501100","汐止區"
"220079","145-BY","2018/07/02 19:49:27","新北市板橋區中正路183巷29號","121.454933333333","25.0159383333333","6500100","板橋區"
"220080","200-UY","2018/07/02 19:49:46","新北市板橋區大觀路二段37巷39號","121.448725","25.0027383333333","6500100","板橋區"
"220082","610-BX","2018/07/02 19:49:36","新北市板橋區溪北路45號","121.427596666667","24.9899466666667","6500100","板橋區"
"220101","245-BX","2018/07/02 19:49:34","新北市板橋區縣民大道三段93巷28號","121.47483","25.022525","6500100","板橋區"
"220056","276-BY","2018/07/02 19:49:39","新北市板橋區四川路二段99巷2弄2號","121.452636666667","24.9944883333333","6500100","板橋區"
"220072","277-BY","2018/07/02 19:49:39","新北市板橋區金門街127巷14號","121.433558333333","24.9910783333333","6500100","板橋區"
"220071","283-VK","2018/07/02 19:49:37","新北市板橋區五權街30巷26號","121.463826666667","24.9930966666667","6500100","板橋區"
"220094","285-UM","2018/07/02 19:49:38","新北市板橋區長江路一段135號","121.460563333333","25.0302233333333","6500100","板橋區"
"220053","285-VK","2018/07/02 19:49:37","新北市板橋區中山路二段60巷11號","121.474248333333","25.0152366666667","6500100","板橋區"
"220083","286-VK","2018/07/02 19:49:31","新北市板橋區僑中二街116巷1號","121.445613333333","25.0063233333333","6500100","板橋區"
"220081","287-VK","2018/07/02 19:49:35","新北市板橋區大觀路一段29巷131弄12號","121.450581666667","25.00506","6500100","板橋區"
"220090","288-VK","2018/07/02 19:49:46","新北市板橋區新海路431巷20號","121.45768","25.0269066666667","6500100","板橋區"
"220061","293-UM","2018/07/02 19:49:36","新北市板橋區板新路204號","121.46887","25.0159883333333","6500100","板橋區"
"220010","295-UM","2018/07/02 19:29:17","新北市板橋區民生路二段22號","121.472765","25.0166016666667","6500100","板橋區"
"220084","296-UM","2018/07/02 19:49:32","新北市板橋區滿平街2巷4號","121.425845","24.9900216666667","6500100","板橋區"
"220075","303-R5","2018/07/02 19:49:36","新北市板橋區金華街10巷5號","121.455998333333","25.0200816666667","6500100","板橋區"
"220062","305-R5","2018/07/02 19:49:43","新北市板橋區光復街33巷25號","121.482295","25.0189783333333","6500100","板橋區"
"220092","307-R5","2018/07/02 19:49:38","新北市板橋區四維路108號","121.465563333333","25.0246466666667","6500100","板橋區"
"220098","317-R6","2018/07/02 19:49:38","新北市板橋區裕民街98-1號","121.460068333333","25.027965","6500100","板橋區"
"220064","486-VK","2018/07/02 19:49:44","新北市板橋區館前東路98-3號","121.462661666667","25.007385","6500100","板橋區"
"220088","491-VK","2018/07/02 19:49:37","新北市板橋區文聖街83號","121.477486666667","25.0301","6500100","板橋區"
"220035","560-BX","2018/07/02 19:49:40","新北市板橋區金華街88號","121.458086666667","25.0207266666667","6500100","板橋區"
"220103","561-BX","2018/07/02 19:49:31","新北市板橋區陽明街29巷2號","121.465121666667","25.02176","6500100","板橋區"
"220063","609-BX","2018/07/02 19:49:45","新北市板橋區三民路一段3巷2號","121.479008333333","25.0234466666667","6500100","板橋區"
"220086","630-UY","2018/07/02 19:49:36","新北市板橋區林園街7-1號","121.453925","25.0091133333333","6500100","板橋區"
"220091","637-BX","2018/07/02 19:49:44","新北市板橋區文聖街149巷15號","121.479036666667","25.0283633333333","6500100","板橋區"
"220057","686-BX","2018/07/02 19:49:25","新北市板橋區廣權路23號","121.462051666667","24.9914033333333","6500100","板橋區"
"220093","689-BX","2018/07/02 19:49:40","新北市板橋區長江路二段223號","121.468261666667","25.0324433333333","6500100","板橋區"
"220054","741-BX","2018/07/02 19:49:25","新北市板橋區忠孝路忠義巷15弄25號","121.46564","25.0042616666667","6500100","板橋區"
"220102","KEA-2699","2018/07/02 19:49:24","新北市板橋區雙十路二段46巷35號","121.47617","25.0289833333333","6500100","板橋區"
"220077","806-UM","2018/07/02 19:49:40","新北市板橋區僑中一街102巷3弄20號","121.44595","25.0125066666667","6500100","板橋區"
"220067","829-TW","2018/07/02 19:49:45","新北市板橋區長安街138巷1弄79號","121.47477","25.01101","6500100","板橋區"
"220096","830-TW","2018/07/02 19:49:46","新北市板橋區民生路二段234巷24弄1號","121.470291666667","25.0224516666667","6500100","板橋區"
"220089","833-TW","2018/07/02 19:49:31","新北市板橋區龍泉街77-3號","121.456655","25.0251833333333","6500100","板橋區"
"220074","895-R6","2018/07/02 19:49:43","新北市板橋區文化路一段52巷29號","121.461553333333","25.01107","6500100","板橋區"
"220073","985-R7","2018/07/02 19:49:43","新北市板橋區南雅西路二段255號","121.451626666667","25.0147216666667","6500100","板橋區"
"220097","AAC-210","2018/07/02 19:49:33","新北市板橋區漢生西路93號","121.462546666667","25.0198116666667","6500100","板橋區"
"220070","AAC-253","2018/07/02 19:49:43","新北市板橋區成都街22號","121.460891666667","25.0047766666667","6500100","板橋區"
"235068","KEA-2873","2018/07/02 19:49:35","新北市中和區莊敬路16巷15弄9號","121.500461666667","25.0039266666667","6500300","中和區"
"235061","KEA-2875","2018/07/02 19:49:24","新北市中和區員山路174巷11號","121.482073333333","24.999935","6500300","中和區"
