"lineid","car","time","location","longitude","latitude","cityid","cityname"
"234046","148-BY","2018/07/02 20:09:37","新北市永和區成功路一段20號","121.527015","25.0050833333333","6500400","永和區"
"234007","207-UY","2018/07/02 20:09:08","新北市永和區保順路11號","121.50456","25.0094533333333","6500400","永和區"
"234081","298-R6","2018/07/02 20:09:39","新北市永和區國中路98號","121.52433","25.006345","6500400","永和區"
"234038","336-UY","2018/07/02 20:09:43","新北市永和區成功路二段2號","121.526685","25.0012783333333","6500400","永和區"
"234064","337-UY","2018/07/02 20:09:28","新北市永和區永元路114號","121.522668333333","25.0024166666667","6500400","永和區"
"234086","338-UY","2018/07/02 20:09:46","新北市永和區福和路267號","121.517735","25.0073816666667","6500400","永和區"
"234070","552-UM","2018/07/02 20:09:33","新北市永和區中正路636號","121.51701","25.008195","6500400","永和區"
"234017","745-BX","2018/07/02 20:09:40","新北市永和區文化路82號","121.51402","25.01514","6500400","永和區"
"234030","746-BX","2018/07/02 20:09:37","新北市永和區民權路51號","121.520131666667","24.99704","6500400","永和區"
"234054","KEA-2590","2018/07/02 20:09:38","新北市永和區博愛街15號","121.517208333333","25.015825","6500400","永和區"
"234012","KEA-2591","2018/07/02 20:09:34","新北市永和區仁愛路277號","121.505876666667","25.0096533333333","6500400","永和區"
"234061","AAD-866","2018/07/02 20:09:47","新北市永和區中正路151巷5弄2-1號","121.515631666667","24.998735","6500400","永和區"
"234042","862-TW","2018/07/02 20:09:28","新北市永和區雙和街41號","121.508785","25.0026766666667","6500400","永和區"
"234050","863-TW","2018/07/02 20:09:26","新北市永和區保安路292號","121.50515","25.0119066666667","6500400","永和區"
"234026","9371-KE","2018/07/02 20:09:27","新北市永和區保平路203巷1號","121.509065","25.004755","6500400","永和區"
"234011","9373-KE","2018/07/02 20:09:31","新北市永和區仁愛路352巷124號","121.50022","25.0085583333333","6500400","永和區"
"249005","172-UM","2018/07/02 20:09:35","新北市八里區下罟子50-1號","121.382988333333","25.1387166666667","6502300","八里區"
"249001","173-UM","2018/07/02 20:09:37","新北市八里區中華路二段326號","121.40326","25.1479916666667","6502300","八里區"
"249004","303-UY","2018/07/02 20:09:45","新北市八里區中山路一段398巷52號","121.41121","25.159005","6502300","八里區"
"249002","305-UY","2018/07/02 20:09:42","新北市八里區龍米路一段3-6號","121.457078333333","25.117625","6502300","八里區"
"249003","759-BX","2018/07/02 20:09:33","新北市八里區中山路二段538號","121.397456666667","25.1465866666667","6502300","八里區"
"248016","026-BX","2018/07/02 20:09:31","新北市五股區天乙路67號","121.44812","25.1047666666667","6501500","五股區"
"248008","095-VK","2018/07/02 20:09:46","新北市五股區中興路一段1巷12弄13號","121.469321666667","25.0710066666667","6501500","五股區"
"248012","247-BX","2018/07/02 20:09:31","新北市五股區六合街118號","121.430258333333","25.09081","6501500","五股區"
"248014","261-SL","2018/07/02 20:09:30","新北市五股區成泰路二段147巷22號","121.438606666667","25.0867683333333","6501500","五股區"
"248004","677-BX","2018/07/02 20:09:38","新北市五股區成泰路一段179號","121.434996666667","25.0762383333333","6501500","五股區"
"248002","678-BX","2018/07/02 20:09:44","新北市五股區成泰路三段271號","121.447073333333","25.0939466666667","6501500","五股區"
"248010","682-TV","2018/07/02 20:09:36","新北市五股區成泰路一段7巷50號","121.432405","25.06732","6501500","五股區"
"234023","9380-KE","2018/07/02 20:09:35","新北市永和區中正路654巷32號","121.517808333333","25.008515","6500400","永和區"
"234077","969-R7","2018/07/02 20:09:34","新北市永和區智光街107巷8號","121.51573","24.996","6500400","永和區"
"234074","AAC-211","2018/07/02 20:09:45","新北市永和區豫溪街136巷1號","121.521315","25.010375","6500400","永和區"
"234067","AAC-212","2018/07/02 20:09:42","新北市永和區保平路214巷1弄2號","121.509423333333","25.0062233333333","6500400","永和區"
"234003","AAC-295","2018/07/02 20:09:48","新北市永和區自強街37號","121.515946666667","25.0080333333333","6500400","永和區"
"243013","AAD-798","2018/07/02 20:09:38","新北市泰山區明志路三段74巷7號","121.424476666667","25.041665","6501600","泰山區"
"243009","297-R6","2018/07/02 20:09:34","新北市泰山區泰林路二段127號","121.434193333333","25.059735","6501600","泰山區"
"243016","380-SR","2018/07/02 20:09:43","新北市泰山區新北大道六段301號","121.424073333333","25.03388","6501600","泰山區"
"243015","421-VK","2018/07/02 20:09:42","新北市泰山區明志路一段326號","121.431361666667","25.0591083333333","6501600","泰山區"
"243011","KEA-2215","2018/07/02 20:09:35","新北市泰山區明志路三段440號","121.420981666667","25.0327983333333","6501600","泰山區"
"243010","KEA-2216","2018/07/02 20:09:35","新北市泰山區明志路二段136巷11號","121.426481666667","25.051595","6501600","泰山區"
"243012","646-TV","2018/07/02 20:09:46","新北市泰山區楓江路81號","121.436768333333","25.0635","6501600","泰山區"
"243014","680-BX","2018/07/02 20:09:43","新北市泰山區明志路一段98號","121.433343333333","25.0640283333333","6501600","泰山區"
"222003","436-BY","2018/07/02 20:09:38","新北市深坑區埔新街66號","121.619951666667","25.00239","6501800","深坑區"
"222002","659-BX","2018/07/02 20:09:33","新北市深坑區北深路三段22號","121.609356666667","25.00103","6501800","深坑區"
"231041","002-UM","2018/07/02 20:09:36","新北市新店區中正路468號","121.533918333333","24.979415","6500600","新店區"
"231059","046-UY","2018/07/02 20:09:32","新北市新店區安成街27號","121.510056666667","24.9608916666667","6500600","新店區"
"231040","047-UY","2018/07/02 20:09:33","新北市新店區中正路106號","121.543176666667","24.97065","6500600","新店區"
"231044","106-UY","2018/07/02 20:09:35","新北市新店區寶慶街66號","121.54199","24.98681","6500600","新店區"
"231052","108-UY","2018/07/02 20:09:33","新北市新店區新烏路三段寶島巷2弄3號","121.55201","24.8986683333333","6500600","新店區"
"231047","187-VK","2018/07/02 20:09:38","新北市新店區永華街44號","121.545046666667","24.9751","6500600","新店區"
"231054","KEA-2219","2018/07/02 20:09:35","新北市新店區檳榔路21號","121.541575","24.963785","6500600","新店區"
"221018","KEA-2785","2018/07/02 20:09:35","新北市汐止區招商街145號","121.670545","25.06764","6501100","汐止區"
"231057","256-BX","2018/07/02 20:09:46","新北市新店區花園一路一段2號","121.553088333333","24.9324483333333","6500600","新店區"
"231042","268-BY","2018/07/02 20:09:31","新北市新店區中興路二段89號","121.547036666667","24.9714333333333","6500600","新店區"
"231051","278-BY","2018/07/02 20:09:35","新北市新店區中央六街5號","121.530311666667","24.9744733333333","6500600","新店區"
"231050","AAD-862","2018/07/02 20:09:25","新北市新店區北新路一段96巷23號","121.542823333333","24.9687083333333","6500600","新店區"
"231058","3713-VJ","2018/07/02 20:09:38","新北市新店區柴埕路116號","121.50425","24.959685","6500600","新店區"
"231066","4716-K9","2018/07/02 20:09:28","新北市新店區安民街35巷15號","121.514996666667","24.9658083333333","6500600","新店區"
"231056","4715-K9","2018/07/02 20:09:29","新北市新店區北新路二段29巷3弄1號","121.542276666667","24.9729783333333","6500600","新店區"
"231067","4772-VM","2018/07/02 20:09:36","新北市新店區秀山路45巷10號","121.531021666667","24.96022","6500600","新店區"
"231065","512-UM","2018/07/02 20:09:26","新北市新店區安祥路106巷272號","121.472925","24.95863","6500600","新店區"
"231049","513-UM","2018/07/02 20:09:41","新北市新店區明德路11號","121.542226666667","24.9767633333333","6500600","新店區"
"231061","619-UM","2018/07/02 20:09:34","新北市新店區安興路83-8號","121.515315","24.975605","6500600","新店區"
"231063","641-BX","2018/07/02 20:09:34","新北市新店區黎明路54巷2號","121.502341666667","24.9483616666667","6500600","新店區"
"231068","718-UY","2018/07/02 20:09:35","新北市新店區寶中路45-3號","121.545216666667","24.9789433333333","6500600","新店區"
"231064","719-UM","2018/07/02 20:09:42","新北市新店區安康路二段100巷5號","121.513163333333","24.9636316666667","6500600","新店區"
"231062","720-UM","2018/07/02 20:09:28","新北市新店區安康路二段130-1號","121.51262","24.9622716666667","6500600","新店區"
"231060","897-TW","2018/07/02 20:09:34","新北市新店區安康路三段349號","121.485118333333","24.9513933333333","6500600","新店區"
"231045","898-TW","2018/07/02 20:09:41","新北市新店區北宜路一段144-3號","121.54017","24.9540366666667","6500600","新店區"
"231043","899-TW","2018/07/02 20:09:39","新北市新店區民族路190號","121.536343333333","24.97559","6500600","新店區"
"231055","AKT-0513","2018/07/02 20:09:34","新北市新店區中華路42巷10號","121.540378333333","24.9684633333333","6500600","新店區"
"241011","013-R5","2018/07/02 20:09:38","新北市三重區秀江街243號","121.496168333333","25.0716683333333","6500200","三重區"
"241028","022-UY","2018/07/02 20:09:33","新北市三重區仁化街125號","121.494613333333","25.057525","6500200","三重區"
"241008","059-VK","2018/07/02 20:09:44","新北市三重區永福街197巷37弄8號","121.478098333333","25.0741116666667","6500200","三重區"
"241022","060-VK","2018/07/02 20:09:40","新北市三重區重陽路二段7號","121.486891666667","25.0619683333333","6500200","三重區"
"241031","061-VK","2018/07/02 20:09:36","新北市三重區過圳街9-1號","121.488671666667","25.06011","6500200","三重區"
"241015","062-VK","2018/07/02 20:09:43","新北市三重區福德北路43號","121.502338333333","25.064925","6500200","三重區"
"241017","063-VK","2018/07/02 20:09:46","新北市三重區自強路一段248號","121.492793333333","25.0674283333333","6500200","三重區"
"241024","065-VK","2018/07/02 20:09:31","新北市三重區中正北路328號","121.478765","25.0692716666667","6500200","三重區"
"241026","066-VK","2018/07/02 20:09:27","新北市三重區福德南路69號","121.502101666667","25.060295","6500200","三重區"
"241002","090-VK","2018/07/02 20:09:43","新北市三重區五華街35巷52號","121.495565","25.0817433333333","6500200","三重區"
"241003","091-VK","2018/07/02 20:09:41","新北市三重區仁愛街476號","121.489623333333","25.0824066666667","6500200","三重區"
"241007","742-BX","2018/07/02 20:09:39","新北市三重區三和路四段111-27號","121.487075","25.0776416666667","6500200","三重區"
"241005","262-UM","2018/07/02 20:09:39","新北市三重區溪尾街332號","121.488196666667","25.0851233333333","6500200","三重區"
"241020","265-UM","2018/07/02 20:09:32","新北市三重區大智街197號","121.489165","25.0734866666667","6500200","三重區"
"241016","266-UM","2018/07/02 20:09:34","新北市三重區大同北路63號","121.4951","25.0634916666667","6500200","三重區"
"241009","267-UM","2018/07/02 20:09:31","新北市三重區力行路二段206號","121.483531666667","25.07798","6500200","三重區"
"241018","268-UM","2018/07/02 20:09:40","新北市三重區正義北路256巷126號","121.493296666667","25.067795","6500200","三重區"
"241013","270-UM","2018/07/02 20:09:43","新北市三重區三和路三段151巷39號","121.493693333333","25.0742466666667","6500200","三重區"
"241025","271-UM","2018/07/02 20:09:44","新北市三重區中正北路253號","121.475323333333","25.0707166666667","6500200","三重區"
"241035","462-BY","2018/07/02 20:09:40","新北市三重區文化北路33-5號","121.499233333333","25.0644083333333","6500200","三重區"
"241004","475-VK","2018/07/02 20:09:32","新北市三重區自強路四段107號","121.491575","25.0799333333333","6500200","三重區"
"241030","480-VK","2018/07/02 20:09:36","新北市三重區成功路145巷36號","121.487641666667","25.0532533333333","6500200","三重區"
"241014","543-UM","2018/07/02 20:09:37","新北市三重區安和路39號","121.501088333333","25.06938","6500200","三重區"
"241023","545-UM","2018/07/02 20:09:40","新北市三重區頂崁街209號","121.477216666667","25.0677133333333","6500200","三重區"
"241001","547-UM","2018/07/02 20:09:41","新北市三重區溪尾街16號","121.491276666667","25.07548","6500200","三重區"
"241019","KEA-2593","2018/07/02 20:09:40","新北市三重區自強路二段33巷21-1號","121.49024","25.069675","6500200","三重區"
"241006","743-BX","2018/07/02 20:06:22","新北市三重區力行路二段109號","121.482836666667","25.0762516666667","6500200","三重區"
"241012","941-UM","2018/07/02 20:09:40","新北市三重區仁福街64巷23號","121.49766","25.0754466666667","6500200","三重區"
"241029","942-UM","2018/07/02 20:09:28","新北市三重區光明路32巷34弄2號","121.491956666667","25.0588216666667","6500200","三重區"
"235066","003-UY","2018/07/02 20:09:45","新北市中和區水源路127巷2弄2號","121.508081666667","25.0040516666667","6500300","中和區"
"235003","097-UM","2018/07/02 20:09:32","新北市中和區大勇街25巷9弄1號","121.516765","24.9932366666667","6500300","中和區"
"235065","098-UM","2018/07/02 20:09:32","新北市中和區永和路90巷2弄1號","121.497366666667","25.0058233333333","6500300","中和區"
"235040","150-BY","2018/07/02 20:09:43","新北市中和區保健路10巷21弄20號","121.508388333333","24.9974283333333","6500300","中和區"
"235058","151-BY","2018/07/02 20:09:45","新北市中和區員山路146-4號","121.481333333333","24.9970683333333","6500300","中和區"
"235050","4979-A6","2018/07/02 20:09:42","新北市中和區安樂路58號","121.51207","24.9932433333333","6500300","中和區"
"235069","4980-A6","2018/07/02 20:09:41","新北市中和區景新街64巷7弄9號","121.504401666667","24.9985866666667","6500300","中和區"
"235070","558-UM","2018/07/02 20:09:31","新北市中和區中正路434號","121.491345","24.9942366666667","6500300","中和區"
"235054","640-BX","2018/07/02 20:09:37","新北市中和區莒光路118號","121.472465","25.0018883333333","6500300","中和區"
"235048","896-TW","2018/07/02 20:09:34","新北市中和區景新街475號","121.513466666667","24.987795","6500300","中和區"
"235051","157-BY","2018/07/02 20:09:30","新北市中和區景安路220巷20號","121.502775","24.9914683333333","6500300","中和區"
"235037","AAC-213","2018/07/02 20:09:47","新北市中和區自立路137號","121.52211","24.9938183333333","6500300","中和區"
"235059","AAC-215","2018/07/02 20:09:37","新北市中和區圓通路335巷33弄17號","121.493151666667","24.9889333333333","6500300","中和區"
"220068","013-TV","2018/07/02 20:09:32","新北市板橋區中山路二段318巷4號","121.48022","25.01914","6500100","板橋區"
"220055","015-TV","2018/07/02 20:09:32","新北市板橋區仁愛路86巷4-1號","121.460985","24.999385","6500100","板橋區"
"220106","075-UY","2018/07/02 20:09:27","新北市板橋區文聖街13號","121.475483333333","25.03231","6500100","板橋區"
"220069","AAD-861","2018/07/02 20:09:35","新北市板橋區貴興路113號","121.455826666667","25.0025116666667","6500100","板橋區"
"247024","893-R6","2018/07/02 20:09:38","新北市蘆洲區光明路100號","121.46326","25.0881066666667","6501400","蘆洲區"
"247014","546-UM","2018/07/02 20:09:44","新北市蘆洲區中山二路218號","121.469963333333","25.0799366666667","6501400","蘆洲區"
"247010","341-TH","2018/07/02 20:09:37","新北市蘆洲區信義路159號","121.479855","25.0818016666667","6501400","蘆洲區"
"247012","339-TH","2018/07/02 20:09:41","新北市蘆洲區民族路252號","121.479036666667","25.0887616666667","6501400","蘆洲區"
"247004","337-TH","2018/07/02 20:09:42","新北市蘆洲區長安街267巷13-2號","121.45764","25.0830883333333","6501400","蘆洲區"
"247006","336-TH","2018/07/02 20:09:34","新北市蘆洲區中山二路301號","121.469071666667","25.0784866666667","6501400","蘆洲區"
"247018","057-VK","2018/07/02 20:09:44","新北市蘆洲區民族路314巷3弄6號","121.477631666667","25.09054","6501400","蘆洲區"
"247002","002-UY","2018/07/02 20:09:45","新北市蘆洲區永康街2巷27號","121.458951666667","25.086385","6501400","蘆洲區"
"247020","001-UY","2018/07/02 20:09:41","新北市蘆洲區民權路106巷5弄7號","121.474188333333","25.0891366666667","6501400","蘆洲區"
"224010","AGQ-8101","2018/07/02 20:09:37","新北市瑞芳區輕便路95號","121.844911666667","25.108745","6501200","瑞芳區"
"224002","639-TC","2018/07/02 20:09:38","新北市瑞芳區蛇子形路7號","121.82571","25.1047483333333","6501200","瑞芳區"
"222001","KEA-2212","2018/07/02 20:09:28","新北市深坑區北深路三段191號","121.601163333333","25.0035783333333","6501800","深坑區"
"208002","KEA-2872","2018/07/02 20:09:28","新北市金山區環金路91號","121.636535","25.2171883333333","6502700","金山區"
"208003","665-BX","2018/07/02 20:09:40","新北市金山區海興路93號","121.633458333333","25.2412766666667","6502700","金山區"
"251004","009-UM","2018/07/02 20:09:41","新北市淡水區民族路31巷25號","121.462153333333","25.136495","6501000","淡水區"
"251005","010-UM","2018/07/02 20:09:26","新北市淡水區學府路114號","121.450116666667","25.1723083333333","6501000","淡水區"
"251001","011-UM","2018/07/02 20:09:32","新北市淡水區新市二路四段265號","121.445753333333","25.1924583333333","6501000","淡水區"
"251013","KEA-2871","2018/07/02 20:09:45","新北市淡水區奎柔山路307號","121.460743333333","25.2047416666667","6501000","淡水區"
"251016","179-VK","2018/07/02 20:09:35","新北市淡水區番子田21號","121.458305","25.2280616666667","6501000","淡水區"
"251014","180-VK","2018/07/02 20:09:32","新北市淡水區石頭厝1號","121.458731666667","25.2355283333333","6501000","淡水區"
"251015","181-VK","2018/07/02 20:09:30","新北市淡水區埤島79號","121.449501666667","25.1902716666667","6501000","淡水區"
"251010","413-VK","2018/07/02 20:09:37","新北市淡水區新市二路二段2號","121.426385","25.1958983333333","6501000","淡水區"
"251012","441-VK","2018/07/02 20:09:37","新北市淡水區淡金路三段347號","121.448806666667","25.2067616666667","6501000","淡水區"
"251008","443-VK","2018/07/02 20:09:32","新北市淡水區淡海路72巷30弄1號","121.424381666667","25.18256","6501000","淡水區"
"251006","561-UM","2018/07/02 20:09:41","新北市淡水區北新路141巷29號","121.448208333333","25.1795916666667","6501000","淡水區"
"251009","575-R6","2018/07/02 20:09:29","新北市淡水區清水街38號","121.444791666667","25.1704","6501000","淡水區"
"251003","766-UM","2018/07/02 20:09:28","新北市淡水區新市一路二段255號","121.44376","25.1833383333333","6501000","淡水區"
"207003","550-UM","2018/07/02 20:09:45","新北市萬里區大鵬里萬里加投166號","121.643351666667","25.2157083333333","6502800","萬里區"
"207004","225-TW","2018/07/02 20:09:41","新北市萬里區北基里愛二街2號","121.682433333333","25.1767116666667","6502800","萬里區"
"252002","178-VK","2018/07/02 20:09:31","新北市三芝區三民街5號","121.504086666667","25.257945","6502100","三芝區"
"252001","292-VK","2018/07/02 20:09:28","新北市三芝區公正街9號","121.499668333333","25.2575633333333","6502100","三芝區"
"237009","210-TH","2018/07/02 20:09:40","新北市三峽區民族街24號","121.36917","24.931085","6500900","三峽區"
"237006","5529-G3","2018/07/02 20:09:37","新北市三峽區嘉添181-4號","121.370541666667","24.9112733333333","6500900","三峽區"
"237015","649-BX","2018/07/02 20:09:27","新北市三峽區介壽路二段138巷1弄62-3號","121.396906666667","24.933265","6500900","三峽區"
"237005","AKY-6261","2018/07/02 20:09:29","新北市三峽區三樹路44巷2-1號","121.378011666667","24.9376166666667","6500900","三峽區"
"236069","105-UM","2018/07/02 20:09:37","新北市土城區中央路三段185-6號","121.431778333333","24.9648533333333","6501300","土城區"
"236042","107-UM","2018/07/02 20:09:31","新北市土城區學成路27號","121.452905","24.9868733333333","6501300","土城區"
"236078","166-UM","2018/07/02 20:09:43","新北市土城區三民路49巷6號","121.419331666667","24.9639916666667","6501300","土城區"
"236030","253-BX","2018/07/02 20:09:40","新北市土城區中央路一段145號","121.446723333333","24.9879633333333","6501300","土城區"
"236026","269-VK","2018/07/02 20:09:44","新北市土城區裕生路71-1號","121.446998333333","24.984565","6501300","土城區"
"236014","270-VK","2018/07/02 20:09:39","新北市土城區廣明街1號","121.455973333333","24.99173","6501300","土城區"
"236039","271-VK","2018/07/02 20:09:33","新北市土城區延吉街355號","121.464558333333","24.983975","6501300","土城區"
"236020","401-BY","2018/07/02 20:09:32","新北市土城區延吉街41號","121.472343333333","24.988","6501300","土城區"
"236059","912-UM","2018/07/02 20:09:36","新北市土城區中央路二段207號","121.441658333333","24.97446","6501300","土城區"
"236048","913-UM","2018/07/02 20:09:30","新北市土城區清水路148號","121.459255","24.9814516666667","6501300","土城區"
"236063","915-UM","2018/07/02 20:09:30","新北市土城區金城路三段73巷9弄13號","121.465883333333","24.9874983333333","6501300","土城區"
"236055","AAC-216","2018/07/02 20:09:30","新北市土城區中華路一段166號","121.441448333333","24.9831533333333","6501300","土城區"
"242034","AAC-296","2018/07/02 20:09:31","新北市新莊區建中街81巷10弄8號","121.447055","25.0360133333333","6500500","新莊區"
"242058","986-R7","2018/07/02 20:09:42","新北市新莊區八德街110號","121.424098333333","25.0210916666667","6500500","新莊區"
"242053","751-BX","2018/07/02 20:09:32","新北市新莊區西盛街387巷11號","121.428471666667","25.0130433333333","6500500","新莊區"
"242027","615-BX","2018/07/02 20:09:43","新北市新莊區幸福路733號","121.449076666667","25.049145","6500500","新莊區"
"242025","613-BX","2018/07/02 20:09:19","新北市新莊區五工三路79號","121.458673333333","25.064955","6500500","新莊區"
"242029","612-BX","2018/07/02 20:09:30","新北市新莊區中原路305號","121.447303333333","25.05446","6500500","新莊區"
"242042","566-BX","2018/07/02 20:09:32","新北市新莊區青山路一段224號","121.399036666667","25.0309233333333","6500500","新莊區"
"242046","497-BY","2018/07/02 20:09:42","新北市新莊區裕民街103巷11號","121.419063333333","25.0229083333333","6500500","新莊區"
"242050","442-UM","2018/07/02 20:09:36","新北市新莊區民安西路175號","121.426058333333","25.01595","6500500","新莊區"
"242036","415-TV","2018/07/02 20:09:27","新北市新莊區建安街35巷20號","121.429905","25.0259183333333","6500500","新莊區"
"242007","413-TV","2018/07/02 20:09:46","新北市新莊區福壽街164巷20號","121.459325","25.052695","6500500","新莊區"
"242044","400-BY","2018/07/02 20:09:40","新北市新莊區中正路895-46號","121.412233333333","25.0214166666667","6500500","新莊區"
"242023","362-BY","2018/07/02 20:09:32","新北市新莊區化成路283號","121.466113333333","25.0547216666667","6500500","新莊區"
"242060","353-BY","2018/07/02 20:09:35","新北市新莊區瓊林路100巷1號","121.443458333333","25.0264316666667","6500500","新莊區"
"242009","132-UY","2018/07/02 20:09:45","新北市新莊區昌盛街35巷3弄1號","121.454071666667","25.0505233333333","6500500","新莊區"
"242039","133-UY","2018/07/02 20:09:39","新北市新莊區民安西路107號","121.426898333333","25.01845","6500500","新莊區"
"242031","135-UY","2018/07/02 20:09:43","新北市新莊區中正路483號","121.44119","25.0337716666667","6500500","新莊區"
"242048","172-VK","2018/07/02 20:09:35","新北市新莊區四維路152巷32號","121.421911666667","25.0224766666667","6500500","新莊區"
"242011","173-VK","2018/07/02 20:09:44","新北市新莊區中信街67巷1號","121.448943333333","25.0507083333333","6500500","新莊區"
"242017","175-VK","2018/07/02 20:09:34","新北市新莊區中港一街20號","121.451406666667","25.04565","6500500","新莊區"
"242004","176-VK","2018/07/02 20:09:42","新北市新莊區化成路554巷22號","121.467266666667","25.0539633333333","6500500","新莊區"
"242015","346-TH","2018/07/02 20:09:39","新北市新莊區中平路26巷46號","121.446901666667","25.04327","6500500","新莊區"
"242056","347-TH","2018/07/02 20:09:47","新北市新莊區新莊路649巷15弄18-1號","121.44538","25.0314933333333","6500500","新莊區"
"242021","348-TH","2018/07/02 20:09:40","新北市新莊區中興街45號","121.449228333333","25.036955","6500500","新莊區"
"242002","349-TH","2018/07/02 20:09:36","新北市新莊區中正路147-8號","121.457598333333","25.0370566666667","6500500","新莊區"
"242019","350-TH","2018/07/02 20:09:39","新北市新莊區博愛路1巷2號","121.456525","25.0427516666667","6500500","新莊區"
"242013","351-TH","2018/07/02 20:09:26","新北市新莊區幸福路678巷2號","121.450696666667","25.04968","6500500","新莊區"
"221008","489-VK","2018/07/02 20:09:26","新北市汐止區忠二街1號","121.623028333333","25.0777716666667","6501100","汐止區"
"221036","130-UY","2018/07/02 20:09:44","新北市汐止區新台五路二段41巷1號","121.663055","25.066585","6501100","汐止區"
"221015","131-UY","2018/07/02 20:09:40","新北市汐止區建成路35號","121.663828333333","25.072745","6501100","汐止區"
"221010","269-BY","2018/07/02 20:09:40","新北市汐止區八連路一段198巷2號","121.642845","25.0825366666667","6501100","汐止區"
"221012","278-VK","2018/07/02 20:09:41","新北市汐止區汐平路二段36-1號","121.69484","25.0653366666667","6501100","汐止區"
"221023","279-VK","2018/07/02 20:09:37","新北市汐止區明峰街298巷7弄2號","121.624816666667","25.0690916666667","6501100","汐止區"
"221032","280-BY","2018/07/02 20:09:37","新北市汐止區橫科路18巷32弄10號","121.617406666667","25.0498283333333","6501100","汐止區"
"221027","281-BY","2018/07/02 20:09:45","新北市汐止區中正路129號","121.660195","25.069215","6501100","汐止區"
"221029","298-VK","2018/07/02 20:09:28","新北市汐止區樟樹一路123巷20號","121.641336666667","25.0647433333333","6501100","汐止區"
"221021","299-VK","2018/07/02 20:09:35","新北市汐止區連興街144號","121.65405","25.0614533333333","6501100","汐止區"
"221031","353-TW","2018/07/02 20:09:27","新北市汐止區原興路76巷2號","121.63201","25.06641","6501100","汐止區"
"221035","622-UM","2018/07/02 20:09:37","新北市汐止區長江街67巷2弄1號","121.656645","25.0722366666667","6501100","汐止區"
"221025","623-UM","2018/07/02 20:09:41","新北市汐止區秀峰路68號","121.65979","25.06446","6501100","汐止區"
"221038","646-BX","2018/07/02 20:09:35","新北市汐止區大同路三段66號","121.668011666667","25.0771233333333","6501100","汐止區"
"221033","647-BX","2018/07/02 20:09:37","新北市汐止區東勢街201巷100號","121.633648333333","25.0430966666667","6501100","汐止區"
"221002","707-TV","2018/07/02 20:09:39","新北市汐止區中興路62號","121.63524","25.0612116666667","6501100","汐止區"
"220080","200-UY","2018/07/02 20:09:26","新北市板橋區大觀路二段179巷25號","121.44598","24.9997383333333","6500100","板橋區"
"220101","245-BX","2018/07/02 20:09:34","新北市板橋區莒光路165巷28號","121.474316666667","25.0246533333333","6500100","板橋區"
"220053","285-VK","2018/07/02 20:09:37","新北市板橋區懷仁街64號","121.47708","25.01871","6500100","板橋區"
"220083","286-VK","2018/07/02 20:09:37","新北市板橋區僑中二街90巷33號","121.444635","25.0093583333333","6500100","板橋區"
"220081","287-VK","2018/07/02 20:09:35","新北市板橋區僑中一街124巷20弄20號","121.446973333333","25.0139333333333","6500100","板橋區"
"220090","288-VK","2018/07/02 20:09:26","新北市板橋區幸福路32巷4弄5-3號","121.461095","25.0214216666667","6500100","板橋區"
"220061","293-UM","2018/07/02 20:09:36","新北市板橋區縣民大道二段200巷32號","121.470305","25.0173516666667","6500100","板橋區"
"220010","295-UM","2018/07/02 19:52:51","新北市板橋區民生路二段36-1號","121.472485","25.016745","6500100","板橋區"
"220092","307-R5","2018/07/02 20:09:38","新北市板橋區文化路一段45巷10號","121.460168333333","25.013715","6500100","板橋區"
"220098","317-R6","2018/07/02 20:09:38","新北市板橋區新海路72巷61號","121.461651666667","25.0236933333333","6500100","板橋區"
"220064","486-VK","2018/07/02 20:09:38","新北市板橋區中山路一段206巷80號","121.472698333333","25.0131216666667","6500100","板橋區"
"220088","491-VK","2018/07/02 20:09:34","新北市板橋區民治街65號","121.479593333333","25.0330066666667","6500100","板橋區"
"220035","560-BX","2018/07/02 20:09:40","新北市板橋區新生街46號","121.456755","25.0210716666667","6500100","板橋區"
"220103","561-BX","2018/07/02 20:09:31","新北市板橋區陽明街71號","121.464238333333","25.0229116666667","6500100","板橋區"
"220086","630-UY","2018/07/02 20:09:36","新北市五股區凌雲路三段24巷21-26號","121.433241666667","25.107745","6500100","板橋區"
"220093","689-BX","2018/07/02 20:09:40","新北市板橋區長江路二段57號","121.464561666667","25.0313666666667","6500100","板橋區"
"220102","KEA-2699","2018/07/02 20:09:45","新北市板橋區懷德街66巷17號","121.477071666667","25.0319516666667","6500100","板橋區"
"220067","829-TW","2018/07/02 20:09:25","新北市板橋區中山路一段206巷77號","121.471853333333","25.0131683333333","6500100","板橋區"
"220096","830-TW","2018/07/02 20:09:46","新北市板橋區莒光路79巷9-2號","121.471891666667","25.0245233333333","6500100","板橋區"
"220089","833-TW","2018/07/02 20:09:39","新北市板橋區互助街54號","121.461473333333","25.0268516666667","6500100","板橋區"
"220073","985-R7","2018/07/02 20:09:43","新北市五股區新五路二段66-1號","121.436941666667","25.0729116666667","6500100","板橋區"
"220097","AAC-210","2018/07/02 20:09:33","新北市板橋區光正街40號","121.461813333333","25.017275","6500100","板橋區"
"220070","AAC-253","2018/07/02 20:09:48","新北市板橋區四川路二段245巷10-1號","121.450595","24.99325","6500100","板橋區"
"235068","KEA-2873","2018/07/02 20:09:31","新北市中和區福祥路72號","121.499268333333","25.00534","6500300","中和區"
