"lineid","car","time","location","longitude","latitude","cityid","cityname"
"232002","290-BY","2018/07/03 06:49:28","新北市坪林區坪林街16-1號","121.712956666667","24.9356433333333","6502000","坪林區"
"232013","291-BY","2018/07/03 06:49:20","新北市坪林區水柳腳39號","121.70969","24.9351333333333","6502000","坪林區"
"232006","758-BX","2018/07/03 06:49:13","新北市坪林區石46號","121.728028333333","24.894385","6502000","坪林區"
"244002","248-BX","2018/07/03 06:49:17","新北市林口區粉寮路二段66-1號","121.403983333333","25.0876716666667","6501700","林口區"
"235001","611-BX","2018/07/03 06:49:23","新北市中和區圓通路367巷4號","121.491333333333","24.98928","6500300","中和區"
"235001","157-BY","2018/07/03 06:49:20","新北市中和區興南路一段55-2號","121.510698333333","24.9900616666667","6500300","中和區"
"223006","022-BY","2018/07/03 06:49:20","新北市石碇區楓子林1-2號","121.642626666667","25.0086166666667","6501900","石碇區"
"223002","KEA-2673","2018/07/03 06:48:57","新北市石碇區員山子1號","121.652303333333","24.96722","6501900","石碇區"
"223003","205-TH","2018/07/03 06:49:27","新北市石碇區湳窟37-1號","121.662558333333","24.994605","6501900","石碇區"
"223008","406-TH","2018/07/03 06:49:10","新北市石碇區雙溪84-1號","121.661273333333","25.0089616666667","6501900","石碇區"
"223001","592-UM","2018/07/03 06:49:17","新北市石碇區湳窟37-1號","121.662901666667","24.9949616666667","6501900","石碇區"
"223004","660-BX","2018/07/03 06:49:13","新北市石碇區石碇東街8號","121.66216","24.99051","6501900","石碇區"
"223007","661-BX","2018/07/03 06:49:07","新北市深坑區文山路一段8號","121.644276666667","25.0088066666667","6501900","石碇區"
"223005","677-TV","2018/07/03 06:49:13","新北市石碇區碇坪路一段89號","121.662151666667","24.9903383333333","6501900","石碇區"
"227006","282-VK","2018/07/03 06:49:12","新北市雙溪區新基里自強路5-1號","121.866383333333","25.0391","6502500","雙溪區"
