"lineid","car","time","location","longitude","latitude","cityid","cityname"
"234044","148-BY","2018/03/16 12:59:33","新北市永和區永元路52巷43號","121.524416666667","25.0008133333333","6500400","永和區"
"234005","207-UY","2018/03/16 12:59:35","新北市永和區中山路一段56號","121.513","25.0106433333333","6500400","永和區"
"234078","298-R6","2018/03/16 12:59:25","新北市永和區永貞路19號","121.52097","25.0070833333333","6500400","永和區"
"234036","336-UY","2018/03/16 12:59:29","新北市永和區成功路二段207號","121.52661","24.9959566666667","6500400","永和區"
"234062","337-UY","2018/03/16 12:59:21","新北市永和區秀朗路一段144號","121.51812","25.003345","6500400","永和區"
"234084","338-UY","2018/03/16 12:59:22","新北市永和區永寧街129巷2號","121.518081666667","25.00541","6500400","永和區"
"234068","552-UM","2018/03/16 12:59:23","新北市永和區中興街84巷9號","121.518593333333","25.011655","6500400","永和區"
"234015","745-BX","2018/03/16 12:59:24","新北市永和區永和路二段310號","121.516236666667","25.0160933333333","6500400","永和區"
"234028","746-BX","2018/03/16 12:59:37","新北市永和區四維街67號","121.525761666667","24.9979616666667","6500400","永和區"
"234052","KEA-2590","2018/03/16 12:59:38","新北市永和區竹林路64號","121.51829","25.01361","6500400","永和區"
"234012","KEA-2591","2018/03/16 12:59:36","新北市永和區信義路15號","121.514321666667","25.012","6500400","永和區"
"234060","AAD-866","2018/03/16 12:59:26","新北市永和區福和路297號","121.516518333333","25.0071316666667","6500400","永和區"
"234040","862-TW","2018/03/16 12:59:37","新北市永和區永貞路271號","121.511763333333","25.0048716666667","6500400","永和區"
"234048","863-TW","2018/03/16 12:59:22","新北市永和區文化路208號","121.51022","25.0165466666667","6500400","永和區"
"234025","9371-KE","2018/03/16 12:59:29","新北市永和區永和路一段45-1號","121.512765","25.0062833333333","6500400","永和區"
"234010","9373-KE","2018/03/16 12:59:29","新北市永和區文化路113巷21弄2號","121.513276666667","25.0140333333333","6500400","永和區"
"248019","225-UY","2018/03/16 12:59:31","新北市五股區中興路二段83巷26-6號","121.460051666667","25.0751216666667","6501500","五股區"
"234022","9380-KE","2018/03/16 12:59:21","新北市永和區中興街133巷10號","121.518665","25.0130666666667","6500400","永和區"
"234076","969-R7","2018/03/16 12:59:28","新北市永和區民享街3號","121.515106666667","24.9956016666667","6500400","永和區"
"234072","AAC-211","2018/03/16 12:59:29","新北市永和區環河東路二段98號","121.524131666667","25.0103716666667","6500400","永和區"
"234066","AAC-212","2018/03/16 12:59:31","新北市永和區中和路625號","121.512943333333","25.0049733333333","6500400","永和區"
"234001","AAC-295","2018/03/16 12:59:37","新北市永和區永平路2號","121.513791666667","25.0087083333333","6500400","永和區"
"231002","002-UM","2018/03/16 12:59:35","新北市新店區安華路28-1號","121.519818333333","24.9607233333333","6500600","新店區"
"231028","046-UY","2018/03/16 12:59:39","新北市新店區安華路28-1號","121.519471666667","24.9609133333333","6500600","新店區"
"231030","047-UY","2018/03/16 12:59:39","新北市新店區安華路28-1號","121.519101666667","24.961065","6500600","新店區"
"231029","106-UY","2018/03/16 12:59:24","新北市新店區安華路28-1號","121.519686666667","24.9606166666667","6500600","新店區"
"231018","107-UY","2018/03/16 12:59:27","新北市新店區安華路28-1號","121.519315","24.9614016666667","6500600","新店區"
"231012","108-UY","2018/03/16 12:59:35","新北市新店區安華路28-1號","121.519475","24.9607616666667","6500600","新店區"
"231022","187-VK","2018/03/16 12:59:34","新北市新店區安華路28-1號","121.519513333333","24.9611783333333","6500600","新店區"
"231016","KEA-2219","2018/03/16 12:59:22","新北市新店區安華路28-1號","121.520086666667","24.961115","6500600","新店區"
"231023","AAD-862","2018/03/16 12:59:33","新北市新店區安華路28-1號","121.519916666667","24.9609933333333","6500600","新店區"
"231027","3712-VJ","2018/03/16 12:59:40","新北市新店區安華路28-1號","121.519175","24.9605916666667","6500600","新店區"
"231024","4716-K9","2018/03/16 12:59:26","新北市新店區安華路28-1號","121.519275","24.9611566666667","6500600","新店區"
"231038","4715-K9","2018/03/16 12:59:35","新北市新店區安華路28-1號","121.519296666667","24.960685","6500600","新店區"
"231036","512-UM","2018/03/16 12:59:22","新北市新店區安華路28-1號","121.519108333333","24.9612416666667","6500600","新店區"
"231013","513-UM","2018/03/16 12:59:27","新北市新店區安華路28-1號","121.519565","24.961075","6500600","新店區"
"231035","515-UM","2018/03/16 12:59:21","新北市新店區安華路28-1號","121.519638333333","24.9605283333333","6500600","新店區"
"231001","619-UM","2018/03/16 12:59:35","新北市新店區安華路28-1號","121.519475","24.960785","6500600","新店區"
"231003","641-BX","2018/03/16 12:59:32","新北市新店區安華路1-1號","121.519516666667","24.960455","6500600","新店區"
"231034","645-TV","2018/03/16 12:59:36","新北市新店區安華路28-1號","121.519215","24.961015","6500600","新店區"
"231032","720-UM","2018/03/16 12:59:29","新北市新店區安華路28-1號","121.51907","24.9611866666667","6500600","新店區"
"231005","897-TW","2018/03/16 12:59:28","新北市新店區檳榔路70號","121.542038333333","24.962725","6500600","新店區"
"231004","899-TW","2018/03/16 12:59:30","新北市新店區安華路28-1號","121.519488333333","24.9609216666667","6500600","新店區"
"231037","AKT-0513","2018/03/16 12:59:20","新北市新店區安華路1-1號","121.519416666667","24.9604816666667","6500600","新店區"
"235030","003-UY","2018/03/16 12:59:17","新北市中和區員山路36巷16-3號","121.48505","24.99131","6500300","中和區"
"235028","005-UY","2018/03/16 12:59:19","新北市中和區員山路36巷16-3號","121.48508","24.9912666666667","6500300","中和區"
"235027","006-UY","2018/03/16 12:59:37","新北市中和區員山路36巷16-3號","121.484948333333","24.9912166666667","6500300","中和區"
"235029","098-UM","2018/03/16 12:59:24","新北市中和區錦和路95號","121.490008333333","24.9956516666667","6500300","中和區"
"235004","150-BY","2018/03/16 12:59:21","新北市中和區員山路36巷16-2號","121.4853","24.9917283333333","6500300","中和區"
"235022","151-BY","2018/03/16 12:59:26","新北市中和區員山路36巷16-2號","121.485135","24.9917266666667","6500300","中和區"
"235002","185-VK","2018/03/16 12:59:24","新北市中和區景平路155號","121.513485","24.9921983333333","6500300","中和區"
"235031","255-BX","2018/03/16 12:41:10","新北市中和區新生街40號","121.483186666667","25.0035116666667","6500300","中和區"
"235007","352-BY","2018/03/16 12:59:20","新北市中和區員山路36巷16-3號","121.484766666667","24.9917966666667","6500300","中和區"
"235018","640-BX","2018/03/16 12:59:26","新北市中和區員山路36巷16-2號","121.485018333333","24.9917966666667","6500300","中和區"
"235024","647-TV","2018/03/16 12:59:37","新北市中和區員山路36巷16-3號","121.484775","24.991725","6500300","中和區"
"235026","800-TS","2018/03/16 12:59:33","新北市中和區錦和路101號","121.49017","24.995435","6500300","中和區"
"235005","802-TS","2018/03/16 12:59:29","新北市中和區中正路748號","121.485501666667","24.99842","6500300","中和區"
"235016","805-TS","2018/03/16 12:59:17","新北市中和區員山路36巷13號","121.484358333333","24.9914316666667","6500300","中和區"
"235015","157-BY","2018/03/16 12:59:22","新北市中和區員山路36巷16-2號","121.485118333333","24.9916183333333","6500300","中和區"
"235001","AAC-213","2018/03/16 12:59:28","新北市中和區中正路273號","121.495581666667","24.9936883333333","6500300","中和區"
"207002","749-BX","2018/03/16 12:59:21","新北市萬里區雙興里大坪路52-1號","121.623453333333","25.17337","6502800","萬里區"
"207001","662-BX","2018/03/16 12:59:18","新北市萬里區萬里里獅頭路22-1號","121.693001666667","25.178245","6502800","萬里區"
"236006","498-BY","2018/03/16 12:59:26","新北市土城區亞洲路10號","121.436663333333","24.9748316666667","6501300","土城區"
"221032","280-BY","2018/03/16 12:59:29","新北市汐止區建成路57巷22號","121.66231","25.0726583333333","6501100","汐止區"
"221027","281-BY","2018/03/16 12:59:25","新北市汐止區茄苳路55號","121.666385","25.0708866666667","6501100","汐止區"
