"lineid","car","time","location","longitude","latitude","cityid","cityname"
"234044","148-BY","2018/03/16 13:49:33","新北市永和區永利路214號","121.523155","25.0025883333333","6500400","永和區"
"234005","207-UY","2018/03/16 13:49:35","新北市中和區中和路446號","121.511956666667","25.0036266666667","6500400","永和區"
"234078","298-R6","2018/03/16 13:49:25","新北市永和區永亨路100號","121.523285","25.0047","6500400","永和區"
"234036","336-UY","2018/03/16 13:49:29","新北市永和區成功路二段80號","121.526628333333","24.9990316666667","6500400","永和區"
"234062","337-UY","2018/03/16 13:49:21","新北市永和區中正路368巷4號","121.517981666667","25.000845","6500400","永和區"
"234084","338-UY","2018/03/16 13:49:36","新北市永和區福和路290號","121.517405","25.0075066666667","6500400","永和區"
"234068","552-UM","2018/03/16 13:49:23","新北市永和區竹林路86號","121.519341666667","25.0125916666667","6500400","永和區"
"234015","745-BX","2018/03/16 13:49:24","新北市永和區文化路39號","121.514661666667","25.0150383333333","6500400","永和區"
"234028","746-BX","2018/03/16 13:49:37","新北市永和區民生路45號","121.522881666667","24.9978916666667","6500400","永和區"
"234052","KEA-2590","2018/03/16 13:49:38","新北市永和區竹林路75巷25弄7號","121.520086666667","25.014455","6500400","永和區"
"234012","KEA-2591","2018/03/16 13:49:36","新北市永和區保安路292號","121.505023333333","25.0117716666667","6500400","永和區"
"234060","AAD-866","2018/03/16 13:49:36","新北市永和區中正路281號","121.517596666667","25.0011383333333","6500400","永和區"
"234040","862-TW","2018/03/16 13:49:35","新北市永和區中和路389巷2-1號","121.508395","25.0004133333333","6500400","永和區"
"234048","863-TW","2018/03/16 13:49:22","新北市永和區保安路75號","121.508743333333","25.0148416666667","6500400","永和區"
"234025","9371-KE","2018/03/16 13:49:29","新北市永和區自由街58號","121.513848333333","25.0059683333333","6500400","永和區"
"234010","9373-KE","2018/03/16 13:49:24","新北市永和區保安路282號","121.505408333333","25.0120166666667","6500400","永和區"
"248019","225-UY","2018/03/16 13:49:31","新北市五股區凌雲路三段41-2號","121.43005","25.11784","6501500","五股區"
"234022","9380-KE","2018/03/16 13:49:21","新北市永和區復興街2巷4號","121.515698333333","25.0125833333333","6500400","永和區"
"234076","969-R7","2018/03/16 13:49:34","新北市永和區民族街27巷17號","121.519908333333","24.999515","6500400","永和區"
"234072","AAC-211","2018/03/16 13:49:29","新北市永和區豫溪街207巷4號","121.523743333333","25.00958","6500400","永和區"
"234066","AAC-212","2018/03/16 13:49:31","新北市永和區保平路236巷48號","121.507646666667","25.006895","6500400","永和區"
"234001","AAC-295","2018/03/16 13:49:26","新北市永和區永和路一段107號","121.513936666667","25.0079383333333","6500400","永和區"
"244004","248-BX","2018/03/16 13:49:35","新北市林口區南勢里10鄰34-2號","121.352428333333","25.0708533333333","6501700","林口區"
"231002","002-UM","2018/03/16 13:49:35","新北市新店區溪園路87號","121.528193333333","24.9857416666667","6500600","新店區"
"231025","0293-UT","2018/03/16 13:49:36","新北市新店區中央五街9號","121.52995","24.974195","6500600","新店區"
"231028","046-UY","2018/03/16 13:49:19","新北市新店區安和路二段232號","121.51668","24.977475","6500600","新店區"
"231030","047-UY","2018/03/16 13:49:19","新北市新店區安康路一段266巷4號","121.520025","24.9641016666667","6500600","新店區"
"231029","106-UY","2018/03/16 13:49:24","新北市新店區安康路二段128號","121.512693333333","24.9624083333333","6500600","新店區"
"231018","107-UY","2018/03/16 13:49:27","新北市新店區中正路399巷22號","121.533931666667","24.9767866666667","6500600","新店區"
"231012","108-UY","2018/03/16 13:49:35","新北市新店區中興路二段59號","121.546493333333","24.970505","6500600","新店區"
"231022","187-VK","2018/03/16 13:49:34","新北市新店區自強路74巷8號","121.545291666667","24.9251316666667","6500600","新店區"
"231016","KEA-2219","2018/03/16 13:49:22","新北市新店區北宜路二段82巷9弄2號","121.553768333333","24.9523266666667","6500600","新店區"
"231026","256-BX","2018/03/16 13:49:36","新北市新店區三民路159巷19弄7號","121.532765","24.97401","6500600","新店區"
"231010","278-BY","2018/03/16 13:49:24","新北市新店區平等街48巷19號","121.535286666667","24.973485","6500600","新店區"
"231023","AAD-862","2018/03/16 13:49:33","新北市新店區國校路1號","121.53804","24.95695","6500600","新店區"
"231027","3712-VJ","2018/03/16 13:49:40","新北市新店區北宜路一段39巷20號","121.538738333333","24.9584283333333","6500600","新店區"
"231024","4716-K9","2018/03/16 13:49:26","新北市新店區力行路88號","121.538743333333","24.966915","6500600","新店區"
"231038","4715-K9","2018/03/16 13:49:35","新北市新店區安康路一段222-1號","121.522848333333","24.963705","6500600","新店區"
"231036","512-UM","2018/03/16 13:49:22","新北市新店區安祥路110巷2號","121.474818333333","24.95695","6500600","新店區"
"231013","513-UM","2018/03/16 13:49:28","新北市新店區二十張路33巷15號","121.539341666667","24.981005","6500600","新店區"
"231035","515-UM","2018/03/16 13:49:22","新北市新店區安康路二段85巷1號","121.513621666667","24.9624666666667","6500600","新店區"
"231006","617-UM","2018/03/16 13:49:36","新北市新店區北宜路一段260號","121.54566","24.9527716666667","6500600","新店區"
"231001","619-UM","2018/03/16 13:49:35","新北市新店區三民路24號","121.53706","24.9710783333333","6500600","新店區"
"231003","641-BX","2018/03/16 13:49:32","新北市新店區中興路一段115號","121.541476666667","24.962755","6500600","新店區"
"231034","645-TV","2018/03/16 13:49:36","新北市新店區達觀路16號","121.503313333333","24.9405016666667","6500600","新店區"
"231032","720-UM","2018/03/16 13:49:29","新北市新店區莒光路44巷21弄11-3號","121.518581666667","24.9521366666667","6500600","新店區"
"231005","897-TW","2018/03/16 13:49:28","新北市新店區寶中路94-5號","121.54936","24.979625","6500600","新店區"
"231004","899-TW","2018/03/16 13:49:30","新北市新店區寶橋路69-1號","121.545518333333","24.9750133333333","6500600","新店區"
"231037","AKT-0513","2018/03/16 13:49:40","新北市新店區安康路三段355巷10號","121.484791666667","24.95026","6500600","新店區"
"235030","003-UY","2018/03/16 13:49:37","新北市中和區廣福路56巷1弄19號","121.502803333333","25.0016916666667","6500300","中和區"
"235028","005-UY","2018/03/16 13:49:39","新北市中和區連城路75巷13號","121.498555","24.9983733333333","6500300","中和區"
"235027","006-UY","2018/03/16 13:49:37","新北市中和區連城路319巷3弄1號","121.489226666667","24.9956933333333","6500300","中和區"
"235020","096-UM","2018/03/16 13:49:31","新北市中和區員山路466巷17弄22號","121.480483333333","25.0075183333333","6500300","中和區"
"235003","097-UM","2018/03/16 13:49:33","新北市中和區大勇街25巷30號","121.516171666667","24.9935866666667","6500300","中和區"
"235029","098-UM","2018/03/16 13:49:24","新北市中和區勝利路35巷3弄17號","121.499716666667","25.0073616666667","6500300","中和區"
"235004","150-BY","2018/03/16 13:49:41","新北市中和區保健路69號","121.50985","24.9971116666667","6500300","中和區"
"235022","151-BY","2018/03/16 13:49:26","新北市土城區金城路三段287巷34號","121.475006666667","24.9923016666667","6500300","中和區"
"235019","183-VK","2018/03/16 13:49:40","新北市中和區民生街91號","121.46859","25.00474","6500300","中和區"
"235002","185-VK","2018/03/16 13:49:24","新北市中和區立人街24-4號","121.518865","24.9942733333333","6500300","中和區"
"235013","186-VK","2018/03/16 13:49:26","新北市中和區景安路177巷27號","121.506603333333","24.9945966666667","6500300","中和區"
"235008","293-VK","2018/03/16 13:49:26","新北市中和區復興路348號","121.500011666667","24.9904583333333","6500300","中和區"
"235036","301-VK","2018/03/16 13:49:28","新北市中和區中山路二段69號","121.503975","25.00451","6500300","中和區"
"235007","352-BY","2018/03/16 13:49:20","新北市中和區成功路25號","121.526193333333","24.99355","6500300","中和區"
"235032","377-QA","2018/03/16 13:49:39","新北市中和區圓通路229號","121.496318333333","24.9942933333333","6500300","中和區"
"235025","378-QA","2018/03/16 13:49:33","新北市中和區民享街34號","121.473978333333","25.0032066666667","6500300","中和區"
"235035","269-TV","2018/03/16 13:49:31","新北市中和區中山路二段482巷31號","121.489978333333","25.00666","6500300","中和區"
"235014","4979-A6","2018/03/16 13:49:35","新北市中和區忠孝街62巷9弄1號","121.513101666667","24.983895","6500300","中和區"
"235033","4980-A6","2018/03/16 13:49:25","新北市中和區南山路20號","121.502071666667","24.9983833333333","6500300","中和區"
"235006","551-UM","2018/03/16 13:49:39","新北市中和區秀朗路三段80號","121.525881666667","24.9940216666667","6500300","中和區"
"235034","558-UM","2018/03/16 13:49:32","新北市中和區南山路20號","121.502051666667","24.99841","6500300","中和區"
"235009","565-BX","2018/03/16 13:49:36","新北市中和區景安路218號","121.503786666667","24.9906166666667","6500300","中和區"
"235018","640-BX","2018/03/16 13:49:26","新北市中和區民享街65號","121.474121666667","25.0022433333333","6500300","中和區"
"235024","647-TV","2018/03/16 13:49:37","新北市中和區中山路三段26號","121.479181666667","25.0060633333333","6500300","中和區"
"235011","732-UM","2018/03/16 13:49:29","新北市中和區興南路二段34巷26弄1號","121.505218333333","24.9864766666667","6500300","中和區"
"235010","733-UM","2018/03/16 13:49:38","新北市中和區仁愛街36巷45號","121.511251666667","24.9866466666667","6500300","中和區"
"235026","800-TS","2018/03/16 13:49:33","新北市中和區橋安街18號","121.492625","25.004895","6500300","中和區"
"235021","801-TS","2018/03/16 13:49:26","新北市中和區民安街4號","121.480953333333","25.00108","6500300","中和區"
"235005","802-TS","2018/03/16 13:49:35","新北市中和區永貞路272號","121.513531666667","25.0038566666667","6500300","中和區"
"235016","805-TS","2018/03/16 13:49:37","新北市中和區興南路二段399巷66號","121.499841666667","24.978535","6500300","中和區"
"235012","896-TW","2018/03/16 13:49:34","新北市中和區南山路299號","121.504665","24.9917216666667","6500300","中和區"
"235017","911-UM","2018/03/16 13:49:32","新北市中和區民德路298巷20號","121.466591666667","24.9957983333333","6500300","中和區"
"235015","157-BY","2018/03/16 13:49:22","新北市中和區忠孝街106巷45號","121.513826666667","24.9844166666667","6500300","中和區"
"235001","AAC-213","2018/03/16 13:49:28","新北市中和區秀朗路三段128巷13號","121.524471666667","24.993365","6500300","中和區"
"235023","AAC-215","2018/03/16 13:49:35","新北市中和區圓通路391-4號","121.489836666667","24.9891983333333","6500300","中和區"
"220016","013-TV","2018/03/16 13:49:30","新北市板橋區民生路二段89-6號","121.470661666667","25.0188266666667","6500100","板橋區"
"220013","072-UY","2018/03/16 13:49:36","新北市板橋區漢生東路282號","121.471255","25.0090133333333","6500100","板橋區"
"220034","073-UY","2018/03/16 13:49:38","新北市板橋區大智街26號","121.455506666667","25.0149666666667","6500100","板橋區"
"220017","AAD-861","2018/03/16 13:49:28","新北市板橋區館前西路49號","121.457896666667","25.0067116666667","6500100","板橋區"
"247003","337-TH","2018/03/16 13:49:30","新北市蘆洲區中原路32號","121.459955","25.0827966666667","6501400","蘆洲區"
"247005","336-TH","2018/03/16 13:49:31","新北市蘆洲區中山二路256號","121.469251666667","25.078985","6501400","蘆洲區"
"247007","056-VK","2018/03/16 13:49:40","新北市三重區三和路四段420號","121.480698333333","25.0801683333333","6501400","蘆洲區"
"247019","053-VK","2018/03/16 13:49:28","新北市蘆洲區民族路422巷48弄24號","121.474758333333","25.0931583333333","6501400","蘆洲區"
"207002","749-BX","2018/03/16 13:49:39","新北市萬里區崁腳里崁腳路166號","121.64505","25.1559083333333","6502800","萬里區"
"207001","662-BX","2018/03/16 13:49:38","新北市萬里區磺潭里清水2-2號","121.641925","25.2012366666667","6502800","萬里區"
"236067","105-UM","2018/03/16 13:49:30","新北市土城區中華路一段301號","121.439886666667","24.9794216666667","6501300","土城區"
"236041","107-UM","2018/03/16 13:49:27","新北市土城區員福街50號","121.440683333333","24.9790633333333","6501300","土城區"
"236029","253-BX","2018/03/16 13:49:25","新北市土城區中央路二段223號","121.440663333333","24.9736083333333","6501300","土城區"
"236024","269-VK","2018/03/16 13:49:28","新北市土城區城林路6巷80號","121.43819","24.9796966666667","6501300","土城區"
"236013","270-VK","2018/03/16 13:49:33","新北市土城區員福街24號","121.44142","24.9787","6501300","土城區"
"236035","271-VK","2018/03/16 13:49:30","新北市土城區自強街33號","121.432683333333","24.9731983333333","6501300","土城區"
"236006","498-BY","2018/03/16 13:49:26","新北市土城區中華路二段1號","121.439611666667","24.978975","6501300","土城區"
"236061","752-BX","2018/03/16 13:49:28","新北市土城區城林路6巷80號","121.438155","24.9796383333333","6501300","土城區"
"236057","912-UM","2018/03/16 13:49:33","新北市土城區中華路二段168-1號","121.43747","24.9722366666667","6501300","土城區"
"236046","913-UM","2018/03/16 13:49:24","新北市土城區亞洲路46巷22號","121.434023333333","24.9747283333333","6501300","土城區"
"221027","281-BY","2018/03/16 13:49:25","新北市汐止區大同路三段369巷40號","121.676126666667","25.073815","6501100","汐止區"
"220027","145-BY","2018/03/16 13:49:30","新北市板橋區民權路186號","121.45931","25.013625","6500100","板橋區"
"220028","200-UY","2018/03/16 13:49:37","新北市板橋區大觀路二段265巷60弄2號","121.442751666667","24.9980783333333","6500100","板橋區"
"220105","KEA-2550","2018/03/16 13:49:28","新北市板橋區民生路二段161巷1號","121.470116666667","25.02006","6500100","板橋區"
"220030","610-BX","2018/03/16 13:49:28","新北市板橋區篤行路三段玉平巷68弄3號","121.427863333333","24.9860533333333","6500100","板橋區"
"220050","245-BX","2018/03/16 13:49:40","新北市板橋區民生路二段161巷3號","121.470263333333","25.0198066666667","6500100","板橋區"
"220004","276-BY","2018/03/16 13:49:35","新北市土城區四川路2號","121.455773333333","24.9962583333333","6500100","板橋區"
"220020","277-BY","2018/03/16 13:49:27","新北市板橋區金門街13號","121.433486666667","24.9948816666667","6500100","板橋區"
"220043","280-UM","2018/03/16 13:49:39","新北市板橋區民生路二段161巷1號","121.470103333333","25.0198433333333","6500100","板橋區"
"220012","282-UM","2018/03/16 13:49:37","新北市板橋區民生路二段36-1號","121.472133333333","25.016775","6500100","板橋區"
"220019","283-VK","2018/03/16 13:49:28","新北市板橋區忠孝路176巷5弄2號","121.464718333333","25.0019666666667","6500100","板橋區"
"220001","285-VK","2018/03/16 13:49:23","新北市板橋區民生路二段123號","121.470705","25.0186133333333","6500100","板橋區"
"220031","286-VK","2018/03/16 13:49:38","新北市板橋區僑中三街40號","121.445331666667","25.0051333333333","6500100","板橋區"
"220029","287-VK","2018/03/16 13:49:34","新北市板橋區光華街13巷24號","121.453566666667","25.0114433333333","6500100","板橋區"
"220039","288-VK","2018/03/16 13:49:22","新北市板橋區民生路二段161巷9號","121.470348333333","25.0195316666667","6500100","板橋區"
"220009","293-UM","2018/03/16 13:49:40","新北市板橋區太和街4巷7號","121.4741","25.0199083333333","6500100","板橋區"
"220010","295-UM","2018/03/16 13:49:26","新北市板橋區民生路一段135號","121.473501666667","25.0150516666667","6500100","板橋區"
"220032","296-UM","2018/03/16 13:49:34","新北市板橋區大觀路二段156巷13號","121.441386666667","24.999145","6500100","板橋區"
"220023","303-R5","2018/03/16 13:49:27","新北市板橋區南雅東路79-1號","121.453265","25.0079183333333","6500100","板橋區"
"220047","317-R6","2018/03/16 13:49:39","新北市板橋區民生路二段161巷7號","121.470276666667","25.0197183333333","6500100","板橋區"
"220038","487-VK","2018/03/16 13:49:28","新北市板橋區民生路二段161巷1號","121.470291666667","25.02006","6500100","板橋區"
"220037","491-VK","2018/03/16 13:49:25","新北市板橋區民生路二段161巷1號","121.470228333333","25.0199283333333","6500100","板橋區"
"220104","560-BX","2018/03/16 13:49:27","新北市板橋區中正路275巷62弄4-3號","121.453005","25.01804","6500100","板橋區"
"220052","561-BX","2018/03/16 13:49:32","新北市板橋區民生路二段161巷3號","121.470173333333","25.019775","6500100","板橋區"
"220011","609-BX","2018/03/16 13:49:32","新北市板橋區民生路二段56-6號","121.470933333333","25.0185783333333","6500100","板橋區"
"220005","686-BX","2018/03/16 13:49:19","新北市板橋區大觀路二段266號","121.449248333333","24.996585","6500100","板橋區"
"220025","687-BX","2018/03/16 13:49:36","新北市板橋區大觀路二段443-2號","121.4395","24.995025","6500100","板橋區"
"220042","689-BX","2018/03/16 13:49:31","新北市板橋區民生路二段161巷1號","121.47012","25.0200733333333","6500100","板橋區"
"220002","741-BX","2018/03/16 13:49:22","新北市板橋區館前西路46巷2號","121.458823333333","25.00704","6500100","板橋區"
"220051","KEA-2699","2018/03/16 13:49:29","新北市板橋區民生路二段120號","121.470313333333","25.0199566666667","6500100","板橋區"
"220003","827-TW","2018/03/16 13:49:26","新北市板橋區中山路一段19號","121.459645","25.00867","6500100","板橋區"
"220014","830-TW","2018/03/16 13:49:35","新北市板橋區民生路二段121號","121.470798333333","25.0183383333333","6500100","板橋區"
"220045","831-TW","2018/03/16 13:49:34","新北市板橋區民生路二段161巷9號","121.470168333333","25.0195833333333","6500100","板橋區"
"220022","895-R6","2018/03/16 13:49:33","新北市板橋區南門街1號","121.45796","25.0095383333333","6500100","板橋區"
"220021","985-R7","2018/03/16 13:49:39","新北市板橋區府中路67號","121.458163333333","25.0093883333333","6500100","板橋區"
"220018","AAC-253","2018/03/16 13:49:41","新北市板橋區華興街91巷4號","121.456485","25.005145","6500100","板橋區"
