"lineid","car","time","location","longitude","latitude","cityid","cityname"
"234044","148-BY","2018/03/16 14:09:33","新北市永和區永元路33號","121.522173333333","25.0009166666667","6500400","永和區"
"234005","207-UY","2018/03/16 14:09:35","新北市中和區保平路342號","121.506666666667","25.0041233333333","6500400","永和區"
"234078","298-R6","2018/03/16 14:09:25","新北市永和區永亨路107號","121.523393333333","25.0049166666667","6500400","永和區"
"234036","336-UY","2018/03/16 14:09:29","新北市永和區環河東路三段96號","121.528163333333","25.0041033333333","6500400","永和區"
"234062","337-UY","2018/03/16 14:09:21","新北市永和區永利路154號","121.522286666667","25.0025","6500400","永和區"
"234084","338-UY","2018/03/16 14:09:22","新北市永和區中正路575-1號","121.5168","25.0086783333333","6500400","永和區"
"234068","552-UM","2018/03/16 14:09:23","新北市永和區福和路171號","121.520078333333","25.007455","6500400","永和區"
"234015","745-BX","2018/03/16 14:09:36","新北市永和區仁愛路60-1號","121.513483333333","25.0133","6500400","永和區"
"234028","746-BX","2018/03/16 14:09:37","新北市永和區民權路53號","121.520371666667","24.9969133333333","6500400","永和區"
"234052","KEA-2590","2018/03/16 14:09:38","新北市永和區博愛街23號","121.517823333333","25.0158566666667","6500400","永和區"
"234012","KEA-2591","2018/03/16 14:09:36","新北市永和區保生路5巷1號","121.506086666667","25.007315","6500400","永和區"
"234060","AAD-866","2018/03/16 14:09:37","新北市永和區得和路55號","121.517016666667","25.000175","6500400","永和區"
"234040","862-TW","2018/03/16 14:09:35","新北市永和區雙和街4號","121.509838333333","25.0018116666667","6500400","永和區"
"234048","863-TW","2018/03/16 14:09:42","新北市永和區環河西路二段21號","121.507696666667","25.01596","6500400","永和區"
"234025","9371-KE","2018/03/16 14:09:29","新北市永和區安樂路270號","121.514516666667","25.004105","6500400","永和區"
"234010","9373-KE","2018/03/16 14:09:24","新北市永和區仁愛路352巷122弄13號","121.500676666667","25.008885","6500400","永和區"
"248019","225-UY","2018/03/16 14:00:07","新北市五股區凌雲路三段57號","121.425346666667","25.125035","6501500","五股區"
"234022","9380-KE","2018/03/16 14:09:21","新北市永和區竹林路37號","121.517936666667","25.0142333333333","6500400","永和區"
"234076","969-R7","2018/03/16 14:09:28","新北市永和區民族街67巷27弄3號","121.519526666667","24.9972866666667","6500400","永和區"
"234072","AAC-211","2018/03/16 14:09:29","新北市永和區豫溪街160巷2號","121.523165","25.009565","6500400","永和區"
"234066","AAC-212","2018/03/16 14:09:31","新北市永和區保平路214巷3弄9號","121.508911666667","25.0059816666667","6500400","永和區"
"234001","AAC-295","2018/03/16 14:09:26","新北市永和區中正路706號","121.51616","25.009985","6500400","永和區"
"244004","248-BX","2018/03/16 14:09:35","新北市林口區林口路76號","121.389695","25.080705","6501700","林口區"
"231002","002-UM","2018/03/16 14:09:35","新北市新店區中正路487號","121.533861666667","24.9820833333333","6500600","新店區"
"231025","0293-UT","2018/03/16 14:09:36","新北市新店區中正路348號","121.536276666667","24.9752566666667","6500600","新店區"
"231028","046-UY","2018/03/16 14:09:19","新北市新店區安和路二段238號","121.516535","24.97814","6500600","新店區"
"231030","047-UY","2018/03/16 14:09:39","新北市新店區安民街65巷21-2號","121.515351666667","24.9674516666667","6500600","新店區"
"231029","106-UY","2018/03/16 14:09:24","新北市新店區安康路二段204號","121.5103","24.9595466666667","6500600","新店區"
"231018","107-UY","2018/03/16 14:09:27","新北市新店區中央路133巷15弄31號","121.531891666667","24.9747083333333","6500600","新店區"
"231012","108-UY","2018/03/16 14:09:35","新北市新店區五峰路63巷8弄1號","121.54686","24.96898","6500600","新店區"
"231022","187-VK","2018/03/16 14:09:34","新北市新店區桂山路37號","121.560313333333","24.90317","6500600","新店區"
"231016","KEA-2219","2018/03/16 14:09:22","新北市新店區中生路22巷4弄1號","121.56151","24.952755","6500600","新店區"
"231023","AAD-862","2018/03/16 13:55:09","新北市新店區文中路45號","121.539511666667","24.95684","6500600","新店區"
"231027","3712-VJ","2018/03/16 14:09:40","新北市新店區光明街138巷13弄9號","121.540123333333","24.9615016666667","6500600","新店區"
"231038","4715-K9","2018/03/16 14:09:35","新北市新店區溪洲路121號","121.531215","24.962815","6500600","新店區"
"231036","512-UM","2018/03/16 14:09:22","新北市新店區安祥路109巷90弄26號","121.47729","24.9594133333333","6500600","新店區"
"231013","513-UM","2018/03/16 14:09:27","新北市新店區北新路三段65巷18號","121.54064","24.98111","6500600","新店區"
"231035","515-UM","2018/03/16 14:09:22","新北市新店區安和路一段49號","121.517578333333","24.9658316666667","6500600","新店區"
"231006","617-UM","2018/03/16 14:09:36","新北市新店區北宜路二段150-1號","121.557841666667","24.95401","6500600","新店區"
"231001","619-UM","2018/03/16 14:09:35","新北市新店區中華路52號","121.539565","24.9685666666667","6500600","新店區"
"231003","641-BX","2018/03/16 14:09:33","新北市新店區中興路一段201號","121.54349","24.9653866666667","6500600","新店區"
"231034","645-TV","2018/03/16 14:09:36","新北市新店區黎明路3號","121.503518333333","24.9524766666667","6500600","新店區"
"231032","720-UM","2018/03/16 14:09:29","新北市新店區安康路一段11號","121.533475","24.960405","6500600","新店區"
"231005","897-TW","2018/03/16 14:09:28","新北市新店區中興路三段233號","121.542885","24.9834666666667","6500600","新店區"
"231004","899-TW","2018/03/16 14:09:30","新北市新店區北新路二段108號","121.543181666667","24.974355","6500600","新店區"
"231037","AKT-0513","2018/03/16 14:09:28","新北市新店區車子路27號","121.504366666667","24.9522683333333","6500600","新店區"
"235030","003-UY","2018/03/16 14:09:37","新北市中和區中和路102號","121.502678333333","24.9997016666667","6500300","中和區"
"235028","005-UY","2018/03/16 14:09:39","新北市中和區泰和街20號","121.499743333333","25.0007816666667","6500300","中和區"
"235027","006-UY","2018/03/16 14:09:37","新北市中和區連城路249巷26弄12號","121.494146666667","24.995595","6500300","中和區"
"235020","096-UM","2018/03/16 14:09:31","新北市中和區員山路518號","121.479058333333","25.0096133333333","6500300","中和區"
"235003","097-UM","2018/03/16 14:09:33","新北市中和區秀峰街50號","121.52125","24.990335","6500300","中和區"
"235029","098-UM","2018/03/16 14:09:24","新北市中和區中山路二段64巷12弄9號","121.504","25.0054616666667","6500300","中和區"
"235004","150-BY","2018/03/16 14:07:41","新北市中和區宜安路127號","121.509718333333","24.9979683333333","6500300","中和區"
"235022","151-BY","2018/03/16 14:09:26","新北市中和區連城路469巷23號","121.483583333333","24.9950183333333","6500300","中和區"
"235019","183-VK","2018/03/16 14:09:20","新北市中和區中山路三段205號","121.472131666667","25.00645","6500300","中和區"
"235002","185-VK","2018/03/16 14:09:24","新北市中和區大仁街10巷27弄1號","121.519093333333","24.9924983333333","6500300","中和區"
"235013","186-VK","2018/03/16 14:09:26","新北市中和區景新街141號","121.506143333333","24.996655","6500300","中和區"
"235008","293-VK","2018/03/16 14:09:26","新北市中和區復興路348號","121.499896666667","24.9903983333333","6500300","中和區"
"235036","301-VK","2018/03/16 14:09:28","新北市中和區中山路二段3巷22弄38號","121.505765","25.0040616666667","6500300","中和區"
"235007","352-BY","2018/03/16 14:09:40","新北市中和區景平路92號","121.52084","24.99125","6500300","中和區"
"235032","377-QA","2018/03/16 14:09:19","新北市中和區圓通路158巷3-1號","121.497666666667","24.9961766666667","6500300","中和區"
"235025","378-QA","2018/03/16 14:09:33","新北市中和區中山路三段44號","121.478606666667","25.0058983333333","6500300","中和區"
"235035","269-TV","2018/03/16 14:09:31","新北市中和區中山路二段482巷11弄1號","121.48852","25.006315","6500300","中和區"
"235014","4979-A6","2018/03/16 14:09:35","新北市中和區復興路249巷11弄3號","121.503598333333","24.989785","6500300","中和區"
"235033","4980-A6","2018/03/16 14:09:25","新北市中和區中和路217巷1弄9號","121.503756666667","25.00043","6500300","中和區"
"235006","551-UM","2018/03/16 14:09:25","新北市中和區自立路117巷2弄2號","121.522331666667","24.9944683333333","6500300","中和區"
"235034","558-UM","2018/03/16 14:09:32","新北市中和區枋寮街2號","121.502521666667","24.9998383333333","6500300","中和區"
"235009","565-BX","2018/03/16 14:09:35","新北市中和區景新街467巷35弄4號","121.514615","24.9891166666667","6500300","中和區"
"235018","640-BX","2018/03/16 14:09:26","新北市中和區國光街109巷31號","121.469221666667","24.9990783333333","6500300","中和區"
"235024","647-TV","2018/03/16 14:09:36","新北市中和區民享街91號","121.4743","25.0014233333333","6500300","中和區"
"235011","732-UM","2018/03/16 14:09:29","新北市中和區興南路一段104號","121.509831666667","24.9889833333333","6500300","中和區"
"235010","733-UM","2018/03/16 14:09:31","新北市中和區忠孝街1號","121.508821666667","24.9829933333333","6500300","中和區"
"235026","800-TS","2018/03/16 14:09:33","新北市中和區橋安街2號","121.492838333333","25.0033883333333","6500300","中和區"
"235021","801-TS","2018/03/16 14:09:26","新北市中和區民利街50號","121.479341666667","24.9987733333333","6500300","中和區"
"235005","802-TS","2018/03/16 14:09:29","新北市中和區中安街178巷13弄3號","121.510318333333","24.9987183333333","6500300","中和區"
"235016","805-TS","2018/03/16 14:09:37","新北市中和區興南路二段142巷25弄4號","121.503021666667","24.983785","6500300","中和區"
"235012","896-TW","2018/03/16 14:09:40","新北市中和區華新街143巷71弄13號","121.50832","24.9788816666667","6500300","中和區"
"235017","911-UM","2018/03/16 14:09:32","新北市中和區華福街71巷7-2號","121.467235","24.9969783333333","6500300","中和區"
"235015","157-BY","2018/03/16 14:09:22","新北市中和區興南路一段25號","121.511275","24.9907766666667","6500300","中和區"
"235001","AAC-213","2018/03/16 14:09:31","新北市中和區秀朗路三段56號","121.526383333333","24.995235","6500300","中和區"
"235023","AAC-215","2018/03/16 14:09:33","新北市中和區圓通路294巷17-5號","121.488631666667","24.9904666666667","6500300","中和區"
"220016","013-TV","2018/03/16 14:09:33","新北市板橋區翠華街6巷29號","121.481441666667","25.0244666666667","6500100","板橋區"
"220013","072-UY","2018/03/16 14:09:36","新北市板橋區民族路219巷7號","121.469351666667","25.0079666666667","6500100","板橋區"
"220034","073-UY","2018/03/16 14:09:28","新北市板橋區中正路216巷95號","121.458743333333","25.0193033333333","6500100","板橋區"
"220017","AAD-861","2018/03/16 14:09:28","新北市板橋區四川路一段131號","121.45982","25.0046066666667","6500100","板橋區"
"247023","893-R6","2018/03/16 14:09:26","新北市蘆洲區光榮路118-2號","121.46503","25.08905","6501400","蘆洲區"
"247013","546-UM","2018/03/16 14:09:36","新北市蘆洲區忠孝路74號","121.471576666667","25.08543","6501400","蘆洲區"
"247021","500-BY","2018/03/16 14:09:24","新北市蘆洲區三民路169號","121.4712","25.087125","6501400","蘆洲區"
"247011","339-TH","2018/03/16 14:09:23","新北市蘆洲區信義路256號","121.478266666667","25.086655","6501400","蘆洲區"
"247003","337-TH","2018/03/16 14:09:30","新北市蘆洲區長榮路1號","121.463918333333","25.0818733333333","6501400","蘆洲區"
"247005","336-TH","2018/03/16 14:09:31","新北市蘆洲區九芎街15巷12號","121.467896666667","25.0778083333333","6501400","蘆洲區"
"247017","057-VK","2018/03/16 14:09:23","新北市蘆洲區復興路105巷9號","121.476353333333","25.0883","6501400","蘆洲區"
"247007","056-VK","2018/03/16 14:09:20","新北市蘆洲區中山一路308號","121.469841666667","25.0775883333333","6501400","蘆洲區"
"247019","053-VK","2018/03/16 14:09:28","新北市蘆洲區民族路422巷15弄23號","121.473058333333","25.0929316666667","6501400","蘆洲區"
"247015","007-UY","2018/03/16 14:09:26","新北市蘆洲區光華路46巷24號","121.46824","25.0839133333333","6501400","蘆洲區"
"247001","002-UY","2018/03/16 14:09:28","新北市蘆洲區永平街37號","121.458261666667","25.0910783333333","6501400","蘆洲區"
"207002","749-BX","2018/03/16 14:08:59","新北市萬里區溪底里瑞泉路23號","121.602963333333","25.1495916666667","6502800","萬里區"
"207001","662-BX","2018/03/16 14:09:38","新北市萬里區磺潭里清水18號","121.637851666667","25.197725","6502800","萬里區"
"236067","105-UM","2018/03/16 14:09:30","新北市土城區金城路二段54號","121.451826666667","24.9793783333333","6501300","土城區"
"236041","107-UM","2018/03/16 14:09:27","新北市土城區裕生路85號","121.4468","24.9839466666667","6501300","土城區"
"236077","166-UM","2018/03/16 14:09:37","新北市土城區永和街5號","121.43457","24.9651283333333","6501300","土城區"
"236029","253-BX","2018/03/16 14:09:25","新北市土城區興城路112號","121.44007","24.9708583333333","6501300","土城區"
"236024","269-VK","2018/03/16 14:09:28","新北市土城區承天路18號","121.439505","24.9634316666667","6501300","土城區"
"236013","270-VK","2018/03/16 14:09:33","新北市土城區青雲路39巷7號","121.460313333333","24.9876","6501300","土城區"
"236035","271-VK","2018/03/16 14:09:30","新北市土城區青雲路449-1號","121.458886666667","24.9747083333333","6501300","土城區"
"236019","401-BY","2018/03/16 14:09:39","新北市土城區中正路82-1號","121.44508","24.975715","6501300","土城區"
"236006","498-BY","2018/03/16 14:09:26","新北市土城區中央路一段14號","121.448876666667","24.99166","6501300","土城區"
"236061","752-BX","2018/03/16 14:09:28","新北市土城區金城路三段202-3號","121.469536666667","24.98864","6501300","土城區"
"236057","912-UM","2018/03/16 14:09:33","新北市土城區中央路四段84號","121.418786666667","24.9593816666667","6501300","土城區"
"236046","913-UM","2018/03/16 14:09:24","新北市土城區明德路一段365-1號","121.453538333333","24.97908","6501300","土城區"
"236054","AAC-216","2018/03/16 14:09:41","新北市土城區中華路二段26號","121.439256666667","24.97835","6501300","土城區"
"221027","281-BY","2018/03/16 14:09:25","新北市汐止區橫科路403巷18號","121.625445","25.0476266666667","6501100","汐止區"
"220027","145-BY","2018/03/16 14:09:30","新北市板橋區民權路260巷15號","121.45855","25.0153733333333","6500100","板橋區"
"220028","200-UY","2018/03/16 14:09:39","新北市板橋區大觀路二段3巷97號","121.450406666667","25.0032","6500100","板橋區"
"220105","KEA-2550","2018/03/16 14:09:28","新北市板橋區雙十路三段14號","121.47164","25.0305316666667","6500100","板橋區"
"220030","610-BX","2018/03/16 14:09:28","新北市板橋區溪崑二街108號","121.426468333333","24.9886933333333","6500100","板橋區"
"220050","245-BX","2018/03/16 14:09:40","新北市板橋區民生路二段169號","121.469748333333","25.020025","6500100","板橋區"
"220004","276-BY","2018/03/16 14:09:35","新北市板橋區信義路189號","121.45911","24.9917916666667","6500100","板橋區"
"220020","277-BY","2018/03/16 14:09:27","新北市板橋區金門街372巷2號","121.427106666667","24.983975","6500100","板橋區"
"220043","280-UM","2018/03/16 14:09:39","新北市板橋區光武街133號","121.465631666667","25.029165","6500100","板橋區"
"220012","282-UM","2018/03/16 14:09:37","新北市板橋區板新路2號","121.474981666667","25.0129583333333","6500100","板橋區"
"220019","283-VK","2018/03/16 14:09:39","新北市板橋區重慶路275號","121.4636","24.999855","6500100","板橋區"
"220001","285-VK","2018/03/16 14:09:23","新北市板橋區懷仁街14巷22號","121.475521666667","25.0195833333333","6500100","板橋區"
"220031","286-VK","2018/03/16 14:09:38","新北市板橋區大觀路二段174巷173弄12號","121.441126666667","25.0039466666667","6500100","板橋區"
"220029","287-VK","2018/03/16 14:09:37","新北市板橋區南雅東路87號","121.45309","25.0084366666667","6500100","板橋區"
"220039","288-VK","2018/03/16 14:09:42","新北市板橋區裕民街45巷3-1號","121.461563333333","25.0284083333333","6500100","板橋區"
"220009","293-UM","2018/03/16 14:09:40","新北市板橋區三民路二段21巷47號","121.480655","25.01826","6500100","板橋區"
"220010","295-UM","2018/03/16 14:09:26","新北市板橋區三民路二段居仁巷2弄25號","121.479968333333","25.0130266666667","6500100","板橋區"
"220032","296-UM","2018/03/16 14:09:29","新北市板橋區溪崑二街66巷4號","121.427808333333","24.9907383333333","6500100","板橋區"
"220023","303-R5","2018/03/16 14:09:27","新北市板橋區西門街10號","121.455616666667","25.0118133333333","6500100","板橋區"
"220041","307-R5","2018/03/16 14:09:22","新北市板橋區文化路二段225巷60弄50號","121.469135","25.029595","6500100","板橋區"
"220047","317-R6","2018/03/16 14:09:39","新北市板橋區自由路51巷6號","121.46517","25.02359","6500100","板橋區"
"220038","487-VK","2018/03/16 14:09:34","新北市板橋區文化路二段389號","121.473608333333","25.0314966666667","6500100","板橋區"
"220037","491-VK","2018/03/16 14:09:25","新北市板橋區莊敬路38號","121.472776666667","25.0270116666667","6500100","板橋區"
"220104","560-BX","2018/03/16 14:09:27","新北市板橋區瑞安街31巷5號","121.455941666667","25.0227283333333","6500100","板橋區"
"220052","561-BX","2018/03/16 14:09:32","新北市板橋區文化路一段188巷9弄37號","121.469141666667","25.019185","6500100","板橋區"
"220011","609-BX","2018/03/16 14:09:32","新北市板橋區三民路二段202-5號","121.479083333333","25.014505","6500100","板橋區"
"220040","637-BX","2018/03/16 14:09:34","新北市板橋區縣民大道247巷80號","121.482166666667","25.0269583333333","6500100","板橋區"
"220005","686-BX","2018/03/16 14:09:39","新北市板橋區重慶路265號","121.463393333333","25.0000266666667","6500100","板橋區"
"220025","687-BX","2018/03/16 14:09:36","新北市板橋區大觀路二段146號","121.442238333333","24.998835","6500100","板橋區"
"220042","689-BX","2018/03/16 14:09:31","新北市板橋區民生路三段203號","121.465185","25.0278033333333","6500100","板橋區"
"220002","741-BX","2018/03/16 14:09:33","新北市板橋區重慶路69巷5-2號","121.462231666667","25.0069783333333","6500100","板橋區"
"220051","KEA-2699","2018/03/16 14:09:29","新北市板橋區田單街49巷1弄13號","121.482663333333","25.0286816666667","6500100","板橋區"
"220003","827-TW","2018/03/16 14:09:38","新北市板橋區新民街4巷1號","121.464178333333","25.0103166666667","6500100","板橋區"
"220014","830-TW","2018/03/16 14:09:35","新北市板橋區中山路二段90巷43弄23號","121.477181666667","25.0153683333333","6500100","板橋區"
"220045","831-TW","2018/03/16 14:09:37","新北市板橋區雙十路二段6-12號","121.476671666667","25.0265333333333","6500100","板橋區"
"220022","895-R6","2018/03/16 14:09:35","新北市板橋區府中路126-9號","121.4547","25.00934","6500100","板橋區"
"220021","985-R7","2018/03/16 14:09:39","新北市板橋區民權路259號","121.456925","25.015915","6500100","板橋區"
"220046","AAC-210","2018/03/16 14:09:33","新北市板橋區新海路135巷2號","121.459971666667","25.0230183333333","6500100","板橋區"
"220018","AAC-253","2018/03/16 14:09:21","新北市板橋區忠孝路19號","121.460326666667","25.0019166666667","6500100","板橋區"
