"lineid","car","time","location","longitude","latitude","cityid","cityname"
"234062","337-UY","2018/03/16 14:49:41","新北市永和區福和路1號","121.526251666667","25.0095233333333","6500400","永和區"
"234025","9371-KE","2018/03/16 14:49:29","新北市永和區水源街62號","121.509253333333","25.0040733333333","6500400","永和區"
"248019","225-UY","2018/03/16 14:49:42","新北市五股區中直路35號","121.419816666667","25.1155183333333","6501500","五股區"
"244004","248-BX","2018/03/16 14:49:35","新北市林口區竹林路265號","121.389631666667","25.0807783333333","6501700","林口區"
"231002","002-UM","2018/03/16 14:49:35","新北市新店區民權路83號","121.538241666667","24.9829283333333","6500600","新店區"
"231025","0293-UT","2018/03/16 14:49:36","新北市新店區建國路198巷2號","121.538078333333","24.9803933333333","6500600","新店區"
"231028","046-UY","2018/03/16 14:49:39","新北市新店區安康路二段266號","121.508591666667","24.9587833333333","6500600","新店區"
"231030","047-UY","2018/03/16 14:49:39","新北市新店區安民街339號","121.516908333333","24.9748766666667","6500600","新店區"
"231029","106-UY","2018/03/16 14:49:24","新北市新店區錦秀路11巷92弄2號","121.48028","24.9428083333333","6500600","新店區"
"231018","107-UY","2018/03/16 14:49:27","新北市新店區中央六街6號","121.53023","24.9744533333333","6500600","新店區"
"231012","108-UY","2018/03/16 14:49:37","新北市新店區永華街65號","121.544843333333","24.9753683333333","6500600","新店區"
"231022","187-VK","2018/03/16 14:49:34","新北市新店區永福路42號","121.554901666667","24.9285","6500600","新店區"
"231016","KEA-2219","2018/03/16 14:49:22","新北市新店區北宜路三段335巷15號","121.6099","24.9587383333333","6500600","新店區"
"231026","256-BX","2018/03/16 14:49:40","新北市新店區安康路一段35-5號","121.531903333333","24.9606766666667","6500600","新店區"
"231023","AAD-862","2018/03/16 14:49:41","新北市新店區檳榔路109號","121.544315","24.9617333333333","6500600","新店區"
"231027","3712-VJ","2018/03/16 14:49:40","新北市新店區安興路112號","121.515023333333","24.9776133333333","6500600","新店區"
"231024","4716-K9","2018/03/16 14:49:26","新北市新店區新生街1號","121.540361666667","24.9656566666667","6500600","新店區"
"231036","512-UM","2018/03/16 14:49:42","新北市新店區安祥路104巷6弄36號","121.483061666667","24.962995","6500600","新店區"
"231035","515-UM","2018/03/16 14:49:42","新北市新店區安樂街16號","121.520808333333","24.97332","6500600","新店區"
"231006","617-UM","2018/03/16 14:49:36","新北市新店區北宜路一段109巷2號","121.539848333333","24.9548166666667","6500600","新店區"
"231001","619-UM","2018/03/16 14:49:35","新北市新店區三民路125號","121.534626666667","24.9723933333333","6500600","新店區"
"231003","641-BX","2018/03/16 14:49:32","新北市新店區中正路2號","121.545881666667","24.9694983333333","6500600","新店區"
"231034","645-TV","2018/03/16 14:49:36","新北市新店區玫瑰路4-1號","121.493368333333","24.9515666666667","6500600","新店區"
"231039","718-UY","2018/03/16 14:49:22","新北市新店區安康路一段355號","121.519875","24.96377","6500600","新店區"
"231032","720-UM","2018/03/16 14:49:29","新北市新店區安泰路22號","121.485388333333","24.9484133333333","6500600","新店區"
"231005","897-TW","2018/03/16 14:49:28","新北市新店區復興路2號","121.532356666667","24.9882516666667","6500600","新店區"
"231004","899-TW","2018/03/16 14:49:30","新北市新店區建國路133號","121.539336666667","24.9782766666667","6500600","新店區"
"231037","AKT-0513","2018/03/16 14:49:40","新北市新店區安興路56號","121.516491666667","24.9750166666667","6500600","新店區"
"235030","003-UY","2018/03/16 14:49:37","新北市中和區光華街33號","121.505011666667","25.0040016666667","6500300","中和區"
"235020","096-UM","2018/03/16 14:49:31","新北市中和區中山路三段116號","121.476138333333","25.0061483333333","6500300","中和區"
"235003","097-UM","2018/03/16 14:49:33","新北市中和區安平路186號","121.513025","24.99904","6500300","中和區"
"235029","098-UM","2018/03/16 14:49:37","新北市中和區永和路120-1號","121.496523333333","25.0065183333333","6500300","中和區"
"235004","150-BY","2018/03/16 14:49:21","新北市中和區安和路39號","121.509715","24.99486","6500300","中和區"
"235022","151-BY","2018/03/16 14:49:26","新北市中和區員山路150巷2弄39號","121.481715","24.99741","6500300","中和區"
"235002","185-VK","2018/03/16 14:49:24","新北市中和區自強路10號","121.520298333333","24.9958066666667","6500300","中和區"
"235013","186-VK","2018/03/16 14:49:37","新北市中和區中正路2-1號","121.503216666667","24.9937216666667","6500300","中和區"
"235008","293-VK","2018/03/16 14:49:26","新北市中和區南山路231號","121.503565","24.9934","6500300","中和區"
"235007","352-BY","2018/03/16 14:49:40","新北市中和區安和路65號","121.508518333333","24.99501","6500300","中和區"
"235032","377-QA","2018/03/16 14:49:39","新北市中和區福祥路83號","121.499045","25.00583","6500300","中和區"
"235025","378-QA","2018/03/16 14:49:33","新北市中和區新生街148巷19弄6-2號","121.482536666667","25.000435","6500300","中和區"
"235035","269-TV","2018/03/16 14:49:31","新北市中和區建康路81號","121.48736","25.0002283333333","6500300","中和區"
"235014","4979-A6","2018/03/16 14:49:35","新北市中和區景平路241巷82弄40號","121.506201666667","24.9926333333333","6500300","中和區"
"235033","4980-A6","2018/03/16 14:49:25","新北市中和區和城路一段271巷1號","121.48538","24.992025","6500300","中和區"
"235034","558-UM","2018/03/16 14:49:32","新北市中和區連城路127巷35號","121.497416666667","24.997085","6500300","中和區"
"235018","640-BX","2018/03/16 14:49:39","新北市中和區民享街86巷31號","121.472748333333","25.0003283333333","6500300","中和區"
"235024","647-TV","2018/03/16 14:49:36","新北市中和區中山路二段481號","121.482876666667","25.00495","6500300","中和區"
"235011","732-UM","2018/03/16 14:49:29","新北市中和區和平街74號","121.50782","24.9911116666667","6500300","中和區"
"235010","733-UM","2018/03/16 14:49:37","新北市中和區仁愛街5號","121.510598333333","24.989405","6500300","中和區"
"235021","801-TS","2018/03/16 14:49:25","新北市中和區員山路130號","121.481195","24.9963033333333","6500300","中和區"
"235016","805-TS","2018/03/16 14:49:37","新北市中和區華新街30巷14號","121.50694","24.9843233333333","6500300","中和區"
"235012","896-TW","2018/03/16 14:49:34","新北市中和區信義街111號","121.512066666667","24.986955","6500300","中和區"
"235017","911-UM","2018/03/16 14:49:32","新北市中和區國光街193號","121.467275","25.0017833333333","6500300","中和區"
"235015","157-BY","2018/03/16 14:49:35","新北市中和區復興路301巷18號","121.501208333333","24.9896333333333","6500300","中和區"
"235001","AAC-213","2018/03/16 14:49:27","新北市中和區自立路58巷2號","121.52357","24.9915633333333","6500300","中和區"
"235023","AAC-215","2018/03/16 14:49:33","新北市中和區圓通路335巷33弄17號","121.493016666667","24.988935","6500300","中和區"
"220016","013-TV","2018/03/16 14:49:35","新北市板橋區光復街133巷1號","121.485155","25.019775","6500100","板橋區"
"220013","072-UY","2018/03/16 14:49:36","新北市板橋區民族路278號","121.469958333333","25.0068483333333","6500100","板橋區"
"220017","AAD-861","2018/03/16 14:49:28","新北市板橋區大明街21號","121.458748333333","25.00259","6500100","板橋區"
"247023","893-R6","2018/03/16 14:49:26","新北市蘆洲區和平路90號","121.469286666667","25.0792433333333","6501400","蘆洲區"
"247006","336-TH","2018/03/16 14:48:35","新北市五股區中興路三段163號","121.449253333333","25.08063","6501400","蘆洲區"
"247001","002-UY","2018/03/16 14:49:28","新北市蘆洲區永康街54號","121.45916","25.086225","6501400","蘆洲區"
"207002","749-BX","2018/03/16 14:49:39","新北市萬里區崁腳里崁腳路73號","121.64754","25.1596","6502800","萬里區"
"207001","662-BX","2018/03/16 14:49:38","新北市萬里區雙興里二坪路5-1號","121.649728333333","25.1759966666667","6502800","萬里區"
"236067","105-UM","2018/03/16 14:49:29","新北市土城區金城路二段237號","121.455696666667","24.9824566666667","6501300","土城區"
"236041","107-UM","2018/03/16 14:49:27","新北市土城區裕民路136巷29號","121.450678333333","24.9851266666667","6501300","土城區"
"236077","166-UM","2018/03/16 14:49:37","新北市土城區中州路14號","121.414726666667","24.957265","6501300","土城區"
"236029","253-BX","2018/03/16 14:49:25","新北市土城區忠義路26巷10號","121.439828333333","24.969945","6501300","土城區"
"236024","269-VK","2018/03/16 14:49:28","新北市土城區慶安街58號","121.440905","24.9731733333333","6501300","土城區"
"236013","270-VK","2018/03/16 14:49:33","新北市土城區金城路二段356號","121.461548333333","24.9850683333333","6501300","土城區"
"236035","271-VK","2018/03/16 14:49:40","新北市土城區仁愛路48號","121.461813333333","24.97924","6501300","土城區"
"236019","401-BY","2018/03/16 14:49:40","新北市土城區明峰街37號","121.466406666667","24.986125","6501300","土城區"
"236061","752-BX","2018/03/16 14:49:32","新北市土城區金城路三段139巷10號","121.468038333333","24.9887183333333","6501300","土城區"
"236057","912-UM","2018/03/16 14:49:33","新北市土城區中央路三段93號","121.437578333333","24.9677216666667","6501300","土城區"
"236046","913-UM","2018/03/16 14:49:24","新北市土城區青雲路52號","121.459803333333","24.9879566666667","6501300","土城區"
"236054","AAC-216","2018/03/16 14:49:23","新北市土城區裕民路202號","121.4533","24.984725","6501300","土城區"
"221027","281-BY","2018/03/16 14:49:25","新北市汐止區樟樹二路353-1號","121.643905","25.07181","6501100","汐止區"
"221002","707-TV","2018/03/16 14:49:25","新北市汐止區青山路41-1號","121.656448333333","25.0613416666667","6501100","汐止區"
"220027","145-BY","2018/03/16 14:49:30","新北市板橋區南雅西路二段291號","121.452016666667","25.0155033333333","6500100","板橋區"
"220028","200-UY","2018/03/16 14:49:37","新北市板橋區大觀路二段187巷13號","121.445541666667","24.99951","6500100","板橋區"
"220105","KEA-2550","2018/03/16 14:49:28","新北市板橋區民治街61巷24號","121.480558333333","25.0333966666667","6500100","板橋區"
"220030","610-BX","2018/03/16 14:49:28","新北市板橋區金門街153號","121.432688333333","24.990485","6500100","板橋區"
"220050","245-BX","2018/03/16 14:49:40","新北市板橋區萬板路172號","121.475843333333","25.0229183333333","6500100","板橋區"
"220004","276-BY","2018/03/16 14:49:35","新北市板橋區南雅南路二段15號","121.45412","24.9995733333333","6500100","板橋區"
"220020","277-BY","2018/03/16 14:49:27","新北市板橋區篤行路二段65號","121.431701666667","24.9922166666667","6500100","板橋區"
"220043","280-UM","2018/03/16 14:49:39","新北市板橋區溪頭街2號","121.457511666667","25.0289166666667","6500100","板橋區"
"220012","282-UM","2018/03/16 14:49:37","新北市板橋區實踐路81號","121.463935","25.005755","6500100","板橋區"
"220019","283-VK","2018/03/16 14:49:28","新北市板橋區和平路178號","121.463425","24.995555","6500100","板橋區"
"220001","285-VK","2018/03/16 14:49:43","新北市板橋區中山路二段60巷1弄5號","121.474518333333","25.01546","6500100","板橋區"
"220031","286-VK","2018/03/16 14:49:37","新北市板橋區僑中二街12巷36號","121.445275","25.0109366666667","6500100","板橋區"
"220029","287-VK","2018/03/16 14:49:34","新北市板橋區僑中一街124巷20弄43號","121.447921666667","25.0138733333333","6500100","板橋區"
"220039","288-VK","2018/03/16 14:49:42","新北市板橋區綠堤街33-4號","121.455758333333","25.0265183333333","6500100","板橋區"
"220009","293-UM","2018/03/16 14:49:39","新北市板橋區板新路168號","121.470056666667","25.015825","6500100","板橋區"
"220010","295-UM","2018/03/16 14:49:26","新北市板橋區光復街33巷7號","121.481851666667","25.0189883333333","6500100","板橋區"
"220032","296-UM","2018/03/16 14:49:24","新北市板橋區溪崑二街110號","121.426363333333","24.98854","6500100","板橋區"
"220023","303-R5","2018/03/16 14:49:27","新北市板橋區金華街1號","121.455456666667","25.020085","6500100","板橋區"
"220041","307-R5","2018/03/16 14:49:39","新北市板橋區四維路259巷75號","121.460473333333","25.0266166666667","6500100","板橋區"
"220047","317-R6","2018/03/16 14:49:19","新北市板橋區新海路385巷8號","121.458598333333","25.0258583333333","6500100","板橋區"
"220038","487-VK","2018/03/16 14:49:28","新北市板橋區龍泉街116號","121.457003333333","25.0243733333333","6500100","板橋區"
"220037","491-VK","2018/03/16 14:49:28","新北市板橋區仁化街76號","121.476078333333","25.0318116666667","6500100","板橋區"
"220052","561-BX","2018/03/16 14:49:38","新北市板橋區陽明街29巷15號","121.464656666667","25.0220566666667","6500100","板橋區"
"220011","609-BX","2018/03/16 14:49:33","新北市板橋區中山路二段531巷17弄1號","121.482791666667","25.0222383333333","6500100","板橋區"
"220040","637-BX","2018/03/16 14:49:24","新北市板橋區懷德街127巷26號","121.479781666667","25.0311283333333","6500100","板橋區"
"220005","686-BX","2018/03/16 14:49:38","新北市板橋區信義路243號","121.460258333333","24.990985","6500100","板橋區"
"220025","687-BX","2018/03/16 14:49:38","新北市板橋區僑中一街124巷18弄1號","121.446148333333","25.0138766666667","6500100","板橋區"
"220042","689-BX","2018/03/16 14:49:33","新北市板橋區長江路二段143號","121.465636666667","25.0317016666667","6500100","板橋區"
"220002","741-BX","2018/03/16 14:49:22","新北市板橋區國泰街75巷28弄66號","121.467116666667","25.00461","6500100","板橋區"
"220051","KEA-2699","2018/03/16 14:49:29","新北市板橋區松柏街35號","121.475213333333","25.0303183333333","6500100","板橋區"
"220003","827-TW","2018/03/16 14:49:25","新北市板橋區仁愛路62巷15弄1號","121.459983333333","24.9985116666667","6500100","板橋區"
"220014","830-TW","2018/03/16 14:49:35","新北市板橋區長安街331巷14號","121.474186666667","25.0124333333333","6500100","板橋區"
"220045","831-TW","2018/03/16 14:49:34","新北市板橋區莊敬路100號","121.47114","25.024325","6500100","板橋區"
"220022","895-R6","2018/03/16 14:49:33","新北市板橋區府中路9號","121.459801666667","25.0096016666667","6500100","板橋區"
"220021","985-R7","2018/03/16 14:49:27","新北市板橋區南雅西路二段2-1號","121.453155","25.0089","6500100","板橋區"
"220046","AAC-210","2018/03/16 14:49:33","新北市板橋區文化路一段201號","121.463238333333","25.016725","6500100","板橋區"
"220018","AAC-253","2018/03/16 14:49:21","新北市板橋區民族路83號","121.465685","25.00863","6500100","板橋區"
