"lineid","car","time","location","longitude","latitude","cityid","cityname"
"248019","225-UY","2018/03/16 15:36:54","新北市五股區中興路二段83巷26-6號","121.460016666667","25.07523","6501500","五股區"
"231030","047-UY","2018/03/16 15:59:39","新北市新店區光華街38巷11號","121.515795","24.9702116666667","6500600","新店區"
"231018","107-UY","2018/03/16 15:59:27","新北市新店區中正路663巷7弄15號","121.532965","24.9901233333333","6500600","新店區"
"231012","108-UY","2018/03/16 15:59:35","新北市新店區安民街133巷26號","121.515443333333","24.9696516666667","6500600","新店區"
"231022","187-VK","2018/03/16 15:59:34","新北市新店區安華路1-1號","121.519466666667","24.9600933333333","6500600","新店區"
"231016","KEA-2219","2018/03/16 15:59:22","新北市新店區中正路267號","121.53787","24.9742616666667","6500600","新店區"
"231046","278-BY","2018/03/16 15:59:28","新北市新店區安康路一段231號","121.525346666667","24.9632016666667","6500600","新店區"
"231038","4715-K9","2018/03/16 15:59:35","新北市新店區安康路二段205巷3號","121.50922","24.958605","6500600","新店區"
"231013","513-UM","2018/03/16 15:59:34","新北市新店區薏仁坑路自強巷6號","121.496611666667","24.958455","6500600","新店區"
"231035","515-UM","2018/03/16 15:59:42","新北市新店區安民街251巷6號","121.516921666667","24.9725083333333","6500600","新店區"
"231034","645-TV","2018/03/16 15:59:36","新北市新店區吉祥街3巷1號","121.497161666667","24.9481033333333","6500600","新店區"
"231037","AKT-0513","2018/03/16 15:59:40","新北市新店區薏仁坑路自強巷1號","121.497886666667","24.9576283333333","6500600","新店區"
"241011","013-R5","2018/03/16 15:59:30","新北市三重區雙園街1巷7號","121.497168333333","25.0683616666667","6500200","三重區"
"241028","022-UY","2018/03/16 15:59:23","新北市三重區大同南路128-2號","121.496518333333","25.0582433333333","6500200","三重區"
"241015","062-VK","2018/03/16 15:59:35","新北市三重區重新路四段121號","121.484978333333","25.0519983333333","6500200","三重區"
"241017","063-VK","2018/03/16 15:59:08","新北市三重區大仁街48巷69號","121.490283333333","25.0643566666667","6500200","三重區"
"241024","065-VK","2018/03/16 15:59:30","新北市三重區力行路一段38巷2號","121.485363333333","25.0667983333333","6500200","三重區"
"241026","066-VK","2018/03/16 15:59:26","新北市三重區重新路二段91號","121.496086666667","25.06168","6500200","三重區"
"241005","262-UM","2018/03/16 15:59:37","新北市三重區集賢路110-3號","121.49152","25.0893633333333","6500200","三重區"
"241016","265-UM","2018/03/16 15:59:33","新北市三重區重新路四段121號","121.484795","25.0517383333333","6500200","三重區"
"241022","267-UM","2018/03/16 15:59:34","新北市三重區中正北路176巷16號","121.482735","25.0658683333333","6500200","三重區"
"241018","268-UM","2018/03/16 15:59:41","新北市三重區中正北路71巷34號","121.491241666667","25.063635","6500200","三重區"
"241013","270-UM","2018/03/16 15:59:35","新北市三重區安慶街7號","121.497108333333","25.0695016666667","6500200","三重區"
"241025","271-UM","2018/03/16 15:59:33","新北市三重區三民街195號","121.482158333333","25.0657083333333","6500200","三重區"
"241007","398-BY","2018/03/16 15:59:10","新北市三重區力行路一段277號","121.482111666667","25.0715016666667","6500200","三重區"
"241020","413-TH","2018/03/16 15:59:28","新北市三重區忠孝路二段76號","121.4844","25.06984","6500200","三重區"
"241001","478-VK","2018/03/16 15:59:25","新北市三重區自強路四段32-2號","121.488946666667","25.077115","6500200","三重區"
"241014","543-UM","2018/03/16 15:59:31","新北市三重區重新路四段121號","121.484865","25.0519783333333","6500200","三重區"
"241023","545-UM","2018/03/16 15:59:30","新北市三重區中正北路123號","121.483231666667","25.06699","6500200","三重區"
"241006","AAD-863","2018/03/16 15:59:35","新北市三重區重新路四段121號","121.484656666667","25.0521416666667","6500200","三重區"
"241012","941-UM","2018/03/16 15:59:25","新北市三重區文化北路118巷31號","121.497828333333","25.0663266666667","6500200","三重區"
"241029","942-UM","2018/03/16 15:59:42","新北市三重區大同南路212巷23號","121.4975","25.0566166666667","6500200","三重區"
"241033","AAC-255","2018/03/16 15:59:41","新北市三重區重新路五段506號","121.473061666667","25.0467816666667","6500200","三重區"
"235026","800-TS","2018/03/16 15:59:32","新北市中和區永和路171巷1弄1號","121.492328333333","25.0071333333333","6500300","中和區"
"224007","275-VK","2018/03/16 15:59:19","新北市瑞芳區大寮路101-6號","121.777945","25.0995","6501200","瑞芳區"
"227011","642-TC","2018/03/16 15:59:43","新北市雙溪區三港里雙澳路38號","121.872023333333","25.0511033333333","6502500","雙溪區"
"227003","400-TW","2018/03/16 15:59:26","新北市雙溪區平林里外平林71號","121.842003333333","25.0349116666667","6502500","雙溪區"
"252003","249-BX","2018/03/16 15:59:40","新北市三芝區淡金路一段37號","121.5011","25.25904","6502100","三芝區"
"236057","912-UM","2018/03/16 15:59:33","新北市土城區中央路三段73-2號","121.438685","24.9691216666667","6501300","土城區"
