"lineid","car","time","location","longitude","latitude","cityid","cityname"
"249005","172-UM","2018/03/16 16:59:37","新北市八里區渡船頭1-1號","121.434015","25.1518983333333","6502300","八里區"
"249001","173-UM","2018/03/16 16:59:42","新北市八里區商港路48號","121.395756666667","25.1454466666667","6502300","八里區"
"249004","303-UY","2018/03/16 16:59:35","新北市八里區挖子尾街46號","121.415633333333","25.16611","6502300","八里區"
"249002","305-UY","2018/03/16 16:59:03","新北市八里區牛寮埔22號","121.432501666667","25.1425766666667","6502300","八里區"
"249003","593-UM","2018/03/16 16:59:44","新北市八里區中山路二段301號","121.401056666667","25.1481","6502300","八里區"
"244007","080-UY","2018/03/16 16:59:28","新北市林口區中湖43-5號","121.381775","25.0923966666667","6501700","林口區"
"244019","657-BX","2018/03/16 16:59:39","新北市林口區林口路41號","121.390125","25.0789166666667","6501700","林口區"
"231046","278-BY","2018/03/16 16:59:28","新北市新店區永業路121號","121.529343333333","24.945625","6500600","新店區"
"241011","013-R5","2018/03/16 16:59:28","新北市三重區仁愛街55巷108號","121.498516666667","25.07274","6500200","三重區"
"241028","022-UY","2018/03/16 16:59:23","新北市三重區中正南路46號","121.493848333333","25.05997","6500200","三重區"
"241008","059-VK","2018/03/16 16:59:38","新北市三重區永福街179巷1號","121.478753333333","25.0750783333333","6500200","三重區"
"241009","060-VK","2018/03/16 16:59:41","新北市三重區三和路四段215巷64號","121.483961666667","25.0804083333333","6500200","三重區"
"241031","061-VK","2018/03/16 16:59:36","新北市三重區三寧街38號","121.48996","25.06016","6500200","三重區"
"241015","062-VK","2018/03/16 16:59:35","新北市三重區三和路二段2號","121.501576666667","25.06645","6500200","三重區"
"241017","063-VK","2018/03/16 16:59:28","新北市三重區明志街39號","121.491853333333","25.06415","6500200","三重區"
"241024","065-VK","2018/03/16 16:59:29","新北市三重區國道路一段70巷12號","121.480115","25.0723133333333","6500200","三重區"
"241026","066-VK","2018/03/16 16:59:26","新北市三重區文化南路42號","121.50037","25.060285","6500200","三重區"
"241003","091-VK","2018/03/16 16:59:40","新北市三重區五華街141巷58號","121.493393333333","25.08672","6500200","三重區"
"241002","156-TC","2018/03/16 16:59:33","新北市三重區仁義街101巷44號","121.499271666667","25.0807266666667","6500200","三重區"
"241005","262-UM","2018/03/16 16:59:37","新北市三重區碧華街104號","121.484296666667","25.081655","6500200","三重區"
"241016","265-UM","2018/03/16 16:59:32","新北市三重區大同北路121巷3號","121.493776666667","25.0642","6500200","三重區"
"241022","267-UM","2018/03/16 16:59:41","新北市三重區中華路125號","121.48362","25.06404","6500200","三重區"
"241018","268-UM","2018/03/16 16:59:41","新北市三重區六張街90巷8號","121.493173333333","25.0696366666667","6500200","三重區"
"241032","269-UM","2018/03/16 16:59:28","新北市三重區新北大道一段57巷9號","121.485516666667","25.0609233333333","6500200","三重區"
"241013","270-UM","2018/03/16 16:59:35","新北市三重區仁愛街96號","121.495465","25.073925","6500200","三重區"
"241025","271-UM","2018/03/16 16:59:33","新北市三重區中正北路510號","121.472653333333","25.0715483333333","6500200","三重區"
"241007","398-BY","2018/03/16 16:59:30","新北市三重區三和路四段145巷225號","121.489015","25.0795016666667","6500200","三重區"
"241020","413-TH","2018/03/16 16:59:28","新北市三重區國道路一段6號","121.486243333333","25.07346","6500200","三重區"
"241004","475-VK","2018/03/16 16:59:38","新北市三重區五華街106號","121.492456666667","25.08251","6500200","三重區"
"241001","478-VK","2018/03/16 16:59:25","新北市三重區仁政街11號","121.493363333333","25.07643","6500200","三重區"
"241030","480-VK","2018/03/16 16:59:33","新北市三重區昌隆街70號","121.49096","25.0508633333333","6500200","三重區"
"241014","543-UM","2018/03/16 16:59:31","新北市三重區三和路二段173巷149號","121.501186666667","25.0707483333333","6500200","三重區"
"241023","545-UM","2018/03/16 16:59:30","新北市三重區新北大道一段252號","121.479918333333","25.06174","6500200","三重區"
"241019","KEA-2593","2018/03/16 16:59:30","新北市三重區三張街149巷15號","121.486661666667","25.0700783333333","6500200","三重區"
"241006","AAD-863","2018/03/16 16:59:35","新北市三重區車路頭街131巷28號","121.485615","25.07585","6500200","三重區"
"241012","941-UM","2018/03/16 16:59:45","新北市三重區仁和街82號","121.499195","25.074645","6500200","三重區"
"241029","942-UM","2018/03/16 16:59:41","新北市三重區泉州街72號","121.49491","25.0548583333333","6500200","三重區"
"241033","AAC-255","2018/03/16 16:59:30","新北市三重區中興北街271號","121.469173333333","25.0605766666667","6500200","三重區"
"235062","800-TS","2018/03/16 16:39:40","新北市中和區員山路36巷16-3號","121.484955","24.9915533333333","6500300","中和區"
"247024","893-R6","2018/03/16 16:59:32","新北市蘆洲區長興路202號","121.460566666667","25.0874233333333","6501400","蘆洲區"
"247014","546-UM","2018/03/16 16:59:25","新北市蘆洲區中央路20巷13號","121.47405","25.0829266666667","6501400","蘆洲區"
"247010","341-TH","2018/03/16 16:59:37","新北市蘆洲區信義路172號","121.479383333333","25.083935","6501400","蘆洲區"
"247004","337-TH","2018/03/16 16:59:35","新北市蘆洲區長安街110號","121.460903333333","25.0815266666667","6501400","蘆洲區"
"247006","336-TH","2018/03/16 16:59:40","新北市蘆洲區長安街111巷10號","121.460893333333","25.0805933333333","6501400","蘆洲區"
"247018","057-VK","2018/03/16 16:59:38","新北市蘆洲區民族路306號","121.477405","25.0900483333333","6501400","蘆洲區"
"247008","056-VK","2018/03/16 16:59:45","新北市蘆洲區民生街2巷5號","121.475561666667","25.07954","6501400","蘆洲區"
"247020","053-VK","2018/03/16 16:59:27","新北市蘆洲區民族路422巷82弄14號","121.474021666667","25.0938566666667","6501400","蘆洲區"
"247016","007-UY","2018/03/16 16:59:31","新北市蘆洲區正和街7號","121.470355","25.082645","6501400","蘆洲區"
"228002","663-BX","2018/03/16 16:59:36","新北市貢寮區貢寮里朝陽街86號","121.908831666667","25.02215","6502600","貢寮區"
"228001","670-TC","2018/03/16 16:59:38","新北市貢寮區貢寮里朝陽街1-2號","121.912246666667","25.0213233333333","6502600","貢寮區"
"228003","828-UM","2018/03/16 16:59:40","新北市貢寮區福隆里裕隆街16-1號","121.945763333333","25.0168616666667","6502600","貢寮區"
"224006","676-BX","2018/03/16 16:59:18","新北市瑞芳區大寮路58號","121.781975","25.0983316666667","6501200","瑞芳區"
"224008","285-BY","2018/03/16 16:59:26","新北市瑞芳區明燈路一段6號","121.823208333333","25.1074466666667","6501200","瑞芳區"
"224007","275-VK","2018/03/16 16:59:39","新北市瑞芳區粗坑口路66號","121.761241666667","25.0989766666667","6501200","瑞芳區"
"224009","273-VK","2018/03/16 16:59:46","新北市瑞芳區明燈路一段1號","121.832251666667","25.1119283333333","6501200","瑞芳區"
"224005","271-BY","2018/03/16 16:59:33","新北市瑞芳區鼻頭路247號","121.905891666667","25.121145","6501200","瑞芳區"
"227011","642-TC","2018/03/16 16:59:27","新北市雙溪區牡丹里聖南31-1號","121.856333333333","25.0535383333333","6502500","雙溪區"
"227003","400-TW","2018/03/16 16:59:37","新北市雙溪區長源里柑腳8號","121.804656666667","25.0146133333333","6502500","雙溪區"
"251004","009-UM","2018/03/16 16:59:32","新北市淡水區中正路二段31號","121.419211666667","25.1817783333333","6501000","淡水區"
"251008","181-VK","2018/03/16 16:59:31","新北市淡水區樹梅坑9號","121.47259","25.1427366666667","6501000","淡水區"
"251010","413-VK","2018/03/16 16:59:37","新北市淡水區沙崙路228號","121.425391666667","25.1844966666667","6501000","淡水區"
"251012","441-VK","2018/03/16 16:59:27","新北市淡水區沙崙路200號","121.424736666667","25.1839933333333","6501000","淡水區"
"251005","443-VK","2018/03/16 16:59:28","新北市淡水區中正路二段16號","121.420193333333","25.1809333333333","6501000","淡水區"
"251006","561-UM","2018/03/16 16:59:43","新北市淡水區中正路二段31號","121.419045","25.1820716666667","6501000","淡水區"
"251009","575-R6","2018/03/16 16:59:25","新北市淡水區中正路261號","121.43149","25.174945","6501000","淡水區"
"251007","577-R6","2018/03/16 16:59:40","新北市淡水區真理街1號","121.438136666667","25.1729633333333","6501000","淡水區"
"251011","650-BX","2018/03/16 16:59:25","新北市淡水區中山路42號","121.444208333333","25.1700116666667","6501000","淡水區"
"252002","178-VK","2018/03/16 16:59:31","新北市三芝區忠孝街175號","121.505373333333","25.261415","6502100","三芝區"
"252001","292-VK","2018/03/16 16:59:41","新北市三芝區淡金路二段47-2號","121.50352","25.26062","6502100","三芝區"
"242054","751-BX","2018/03/16 16:59:38","新北市新莊區新泰路357巷3弄57號","121.442048333333","25.0391833333333","6500500","新莊區"
"242029","705-TV","2018/03/16 16:59:42","新北市新莊區三和路12-12號","121.442181666667","25.03703","6500500","新莊區"
"242041","566-BX","2018/03/16 16:59:28","新北市新莊區新泰路357巷3弄57號","121.441995","25.03907","6500500","新莊區"
"242046","497-BY","2018/03/16 16:59:31","新北市新莊區新泰路357巷3弄57號","121.441738333333","25.03953","6500500","新莊區"
"242050","441-UM","2018/03/16 16:59:33","新北市新莊區三和路12-21號","121.44199","25.0383483333333","6500500","新莊區"
"242037","415-TV","2018/03/16 16:59:29","新北市新莊區新泰路357巷3弄57號","121.44197","25.0393816666667","6500500","新莊區"
"242007","413-TV","2018/03/16 16:59:36","新北市新莊區新泰路357巷3弄57號","121.441771666667","25.0395766666667","6500500","新莊區"
"242044","400-BY","2018/03/16 16:59:38","新北市新莊區新泰路357巷3弄57號","121.442415","25.0395833333333","6500500","新莊區"
"242023","362-BY","2018/03/16 16:59:39","新北市新莊區三和路12-21號","121.44208","25.0387633333333","6500500","新莊區"
"242060","353-BY","2018/03/16 16:59:37","新北市新莊區新泰路255巷83號","121.44216","25.0387783333333","6500500","新莊區"
"242039","133-UY","2018/03/16 16:59:41","新北市新莊區新泰路255巷83號","121.442026666667","25.0388666666667","6500500","新莊區"
"242048","172-VK","2018/03/16 16:56:30","新北市新莊區三和路12-21號","121.442088333333","25.0387166666667","6500500","新莊區"
"242017","175-VK","2018/03/16 16:59:26","新北市新莊區三和路12-21號","121.441991666667","25.0386333333333","6500500","新莊區"
"242005","176-VK","2018/03/16 16:59:42","新北市新莊區三和路12-21號","121.442015","25.0385916666667","6500500","新莊區"
"242015","346-TH","2018/03/16 16:59:29","新北市新莊區三和路12-17號","121.441995","25.0375266666667","6500500","新莊區"
"242013","351-TH","2018/03/16 16:59:35","新北市新莊區新泰路357巷3弄57號","121.441938333333","25.0395483333333","6500500","新莊區"
"238019","599-UM","2018/03/16 16:59:40","新北市樹林區育德街78號","121.387551666667","24.9683383333333","6500700","樹林區"
"238018","571-TV","2018/03/16 16:59:33","新北市樹林區育德街78-1號","121.388265","24.9681133333333","6500700","樹林區"
"238025","303-VK","2018/03/16 16:59:30","新北市樹林區育德街78-1號","121.388276666667","24.96822","6500700","樹林區"
"238017","283-BY","2018/03/16 16:59:42","新北市樹林區育德街78號","121.388188333333","24.9682916666667","6500700","樹林區"
"238020","268-VK","2018/03/16 16:59:48","新北市樹林區育德街78-1號","121.38769","24.9681533333333","6500700","樹林區"
"239006","891-R6","2018/03/16 16:59:26","新北市鶯歌區環河路177-3號","121.345983333333","24.935285","6500800","鶯歌區"
"239008","527-UM","2018/03/16 16:46:00","新北市鶯歌區二甲路13-16號","121.345153333333","24.9351533333333","6500800","鶯歌區"
"239001","417-VK","2018/03/16 16:57:01","新北市鶯歌區二甲路12-2號","121.345738333333","24.935045","6500800","鶯歌區"
