"lineid","car","time","location","longitude","latitude","cityid","cityname"
"234026","9371-KE","2018/03/16 17:39:30","新北市永和區中正路748號","121.514985","25.0103083333333","6500400","永和區"
"249005","172-UM","2018/03/16 17:39:37","新北市八里區荖阡坑路34號","121.402756666667","25.1297983333333","6502300","八里區"
"249001","173-UM","2018/03/16 17:39:42","新北市八里區龍米路二段157-2號","121.43984","25.1536866666667","6502300","八里區"
"249004","303-UY","2018/03/16 17:39:35","新北市八里區大崁一街15號","121.41985","25.15866","6502300","八里區"
"249002","305-UY","2018/03/16 17:39:33","新北市八里區龍形一街16號","121.44988","25.1305033333333","6502300","八里區"
"249003","593-UM","2018/03/16 17:39:43","新北市八里區中山路二段135號","121.405413333333","25.1515016666667","6502300","八里區"
"232011","375-UM","2018/03/16 17:39:35","新北市坪林區北宜路八段163號","121.707391666667","24.9346033333333","6502000","坪林區"
"244013","069-UM","2018/03/16 17:39:30","新北市林口區中正路559號","121.381101666667","25.076885","6501700","林口區"
"244007","080-UY","2018/03/16 17:39:28","新北市林口區林口路272巷19號","121.386733333333","25.0846033333333","6501700","林口區"
"244025","742-UY","2018/03/16 17:39:44","新北市林口區文化三路一段389號","121.365793333333","25.0734533333333","6501700","林口區"
"244023","483-VK","2018/03/16 17:39:38","新北市林口區東明二街92號","121.389583333333","25.0701983333333","6501700","林口區"
"244009","656-BX","2018/03/16 17:39:46","新北市林口區中北三街280號","121.382261666667","25.0825716666667","6501700","林口區"
"244019","657-BX","2018/03/16 17:39:39","新北市林口區文化一路一段83巷14弄68號","121.372706666667","25.0717116666667","6501700","林口區"
"244021","838-TS","2018/03/16 17:39:39","新北市林口區仁愛路一段221號","121.398061666667","25.07489","6501700","林口區"
"221015","KEA-2785","2018/03/16 17:39:37","新北市汐止區康寧街901號","121.651728333333","25.0749166666667","6501100","汐止區"
"231046","278-BY","2018/03/16 17:39:28","新北市新店區直潭路92號","121.530918333333","24.9376116666667","6500600","新店區"
"241017","063-VK","2018/03/16 17:39:28","新北市三重區重新路二段99號","121.4956","25.0618166666667","6500200","三重區"
"241024","065-VK","2018/03/16 17:39:29","新北市三重區大勇街1號","121.483798333333","25.0714616666667","6500200","三重區"
"241005","262-UM","2018/03/16 17:39:37","新北市三重區集賢路87-1號","121.493728333333","25.0868616666667","6500200","三重區"
"241016","265-UM","2018/03/16 17:39:32","新北市三重區重新路二段19號","121.498073333333","25.06232","6500200","三重區"
"241018","268-UM","2018/03/16 17:39:41","新北市三重區光復路二段175號","121.472606666667","25.0619816666667","6500200","三重區"
"241007","398-BY","2018/03/16 17:39:30","新北市蘆洲區永安南路一段144號","121.471663333333","25.0756916666667","6500200","三重區"
"241014","543-UM","2018/03/16 17:39:31","新北市三重區龍濱路118號","121.502151666667","25.070375","6500200","三重區"
"241023","545-UM","2018/03/16 17:39:30","新北市三重區中華路95號","121.483581666667","25.0630516666667","6500200","三重區"
"241019","KEA-2593","2018/03/16 17:39:30","新北市三重區六張街241號","121.487806666667","25.0684316666667","6500200","三重區"
"241012","941-UM","2018/03/16 17:39:45","新北市三重區龍濱路285號","121.501071666667","25.0733466666667","6500200","三重區"
"241033","AAC-255","2018/03/16 17:39:30","新北市三重區光復路一段51號","121.472095","25.0488633333333","6500200","三重區"
"235062","800-TS","2018/03/16 17:39:37","新北市中和區員山路36巷16-3號","121.48494","24.9916466666667","6500300","中和區"
"247024","893-R6","2018/03/16 17:39:32","新北市蘆洲區長樂路159號","121.462085","25.0881183333333","6501400","蘆洲區"
"247014","546-UM","2018/03/16 17:39:45","新北市蘆洲區中正路33號","121.471131666667","25.08228","6501400","蘆洲區"
"247022","500-BY","2018/03/16 17:39:38","新北市蘆洲區三民路291-1號","121.466736666667","25.0903383333333","6501400","蘆洲區"
"247010","341-TH","2018/03/16 17:39:37","新北市蘆洲區集賢路416號","121.479876666667","25.0812783333333","6501400","蘆洲區"
"247012","339-TH","2018/03/16 17:39:38","新北市蘆洲區民權路3巷14弄3號","121.47566","25.085485","6501400","蘆洲區"
"247004","337-TH","2018/03/16 17:39:35","新北市蘆洲區長安街172巷10號","121.459573333333","25.0835316666667","6501400","蘆洲區"
"247006","336-TH","2018/03/16 17:39:40","新北市蘆洲區長安街22巷8號","121.46455","25.0795483333333","6501400","蘆洲區"
"247018","057-VK","2018/03/16 17:39:36","新北市蘆洲區民權路61巷4弄2號","121.473541666667","25.0879516666667","6501400","蘆洲區"
"247008","056-VK","2018/03/16 17:39:45","新北市蘆洲區和平路16號","121.472375","25.0794166666667","6501400","蘆洲區"
"247020","053-VK","2018/03/16 17:39:27","新北市蘆洲區民族路448號","121.472568333333","25.0919916666667","6501400","蘆洲區"
"247016","007-UY","2018/03/16 17:39:31","新北市蘆洲區光華路70巷2號","121.467958333333","25.0830116666667","6501400","蘆洲區"
"247002","002-UY","2018/03/16 17:39:27","新北市蘆洲區永平街62號","121.457491666667","25.0915916666667","6501400","蘆洲區"
"228002","663-BX","2018/03/16 17:39:36","新北市貢寮區福隆里外隆林街14-1號","121.959141666667","25.0036733333333","6502600","貢寮區"
"228001","670-TC","2018/03/16 17:39:38","新北市貢寮區仁理村仁愛路95-1號","121.927668333333","25.055455","6502600","貢寮區"
"228003","828-UM","2018/03/16 17:39:40","新北市貢寮區真理里延平街27號","121.924478333333","25.0550333333333","6502600","貢寮區"
"224010","AGQ-8101","2018/03/16 17:39:19","新北市瑞芳區岳王路68號","121.8093","25.1111383333333","6501200","瑞芳區"
"224006","676-BX","2018/03/16 17:39:38","新北市瑞芳區傑魚坑路240-2號","121.790213333333","25.1097366666667","6501200","瑞芳區"
"224008","285-BY","2018/03/16 17:39:26","新北市瑞芳區明燈路一段15號","121.824143333333","25.107155","6501200","瑞芳區"
"224007","275-VK","2018/03/16 17:20:28","新北市瑞芳區大寮路356-1號","121.785005","25.1033583333333","6501200","瑞芳區"
"224009","273-VK","2018/03/16 17:39:30","新北市瑞芳區金光路372號","121.849776666667","25.110495","6501200","瑞芳區"
"224005","271-BY","2018/03/16 17:39:33","新北市瑞芳區籠山路15-1號","121.83175","25.12403","6501200","瑞芳區"
"227003","400-TW","2018/03/16 17:39:46","新北市雙溪區三貂里政光路3號","121.851543333333","25.06322","6502500","雙溪區"
"251004","009-UM","2018/03/16 17:39:32","新北市淡水區中正東路二段88巷37-26號","121.459166666667","25.1434766666667","6501000","淡水區"
"251002","012-UM","2018/03/16 17:39:30","新北市淡水區清水街250號","121.440468333333","25.17226","6501000","淡水區"
"251008","181-VK","2018/03/16 17:39:39","新北市淡水區八勢路一段98-3號","121.467578333333","25.1555716666667","6501000","淡水區"
"251010","413-VK","2018/03/16 17:39:37","新北市淡水區淡海路280巷33弄34-2號","121.418716666667","25.1886533333333","6501000","淡水區"
"251012","441-VK","2018/03/16 17:39:27","新北市淡水區北新路200巷6號","121.451688333333","25.1797366666667","6501000","淡水區"
"251005","443-VK","2018/03/16 17:39:28","新北市淡水區鄧公路33巷7號","121.451743333333","25.1711033333333","6501000","淡水區"
"251006","561-UM","2018/03/16 17:39:43","新北市淡水區大信街15巷13號","121.441185","25.1766483333333","6501000","淡水區"
"251009","575-R6","2018/03/16 17:39:25","新北市淡水區中正路38-1號","121.443686666667","25.1693083333333","6501000","淡水區"
"251007","577-R6","2018/03/16 17:39:39","新北市淡水區民生路124巷2號","121.463898333333","25.1381333333333","6501000","淡水區"
"251011","650-BX","2018/03/16 17:39:44","新北市淡水區小坪頂13-3號","121.486586666667","25.156205","6501000","淡水區"
"251003","673-BX","2018/03/16 17:39:28","新北市淡水區中山北路一段42號","121.441781666667","25.175535","6501000","淡水區"
"207003","550-UM","2018/03/16 17:39:30","新北市萬里區龜吼里漁澳路63-1號","121.687415","25.1954533333333","6502800","萬里區"
"207004","225-TW","2018/03/16 17:39:36","新北市萬里區中幅里中福路8-1號","121.685565","25.16486","6502800","萬里區"
"252002","178-VK","2018/03/16 17:39:31","新北市三芝區中正路二段11號","121.50446","25.2555966666667","6502100","三芝區"
"252001","292-VK","2018/03/16 17:39:41","新北市三芝區淡金路一段87號","121.502288333333","25.2590316666667","6502100","三芝區"
"237013","252-BX","2018/03/16 17:39:35","新北市三峽區介壽路一段21-1號","121.375416666667","24.9332816666667","6500900","三峽區"
"237010","706-TV","2018/03/16 17:39:38","新北市三峽區中山路128號","121.365486666667","24.9361316666667","6500900","三峽區"
"236079","166-UM","2018/03/16 17:39:32","新北市土城區自強街37號","121.433251666667","24.9737466666667","6501300","土城區"
"242034","AAC-296","2018/03/16 17:39:34","新北市新莊區新莊路637號","121.44526","25.0329366666667","6500500","新莊區"
"242058","986-R7","2018/03/16 17:39:41","新北市新莊區中正路715-1號","121.424341666667","25.0295816666667","6500500","新莊區"
"242054","751-BX","2018/03/16 17:39:38","新北市新莊區新樹路699巷9號","121.43254","25.001925","6500500","新莊區"
"242029","705-TV","2018/03/16 17:39:41","新北市新莊區復興路一段141號","121.450181666667","25.0432833333333","6500500","新莊區"
"242027","615-BX","2018/03/16 17:39:30","新北市新莊區福壽街79號","121.458143333333","25.0498766666667","6500500","新莊區"
"242041","566-BX","2018/03/16 17:39:38","新北市新莊區中正路514巷43號","121.432383333333","25.0334666666667","6500500","新莊區"
"242046","497-BY","2018/03/16 17:39:32","新北市新莊區建國一路19號","121.433893333333","25.0316116666667","6500500","新莊區"
"242002","442-UM","2018/03/16 17:39:42","新北市新莊區新莊路312號","121.45083","25.0336766666667","6500500","新莊區"
"242050","441-UM","2018/03/16 17:39:33","新北市新莊區西盛街171號","121.428056666667","25.0174233333333","6500500","新莊區"
"242056","440-UM","2018/03/16 17:39:40","新北市新莊區泰豐街18巷21號","121.449003333333","25.0317416666667","6500500","新莊區"
"242037","415-TV","2018/03/16 17:39:40","新北市新莊區建福路69巷44號","121.428815","25.0275066666667","6500500","新莊區"
"242007","413-TV","2018/03/16 17:39:36","新北市新莊區自信街57號","121.455068333333","25.04825","6500500","新莊區"
"242044","400-BY","2018/03/16 17:39:38","新北市新莊區富國路65巷7號","121.41991","25.026515","6500500","新莊區"
"242023","362-BY","2018/03/16 17:39:39","新北市新莊區公園路238號","121.457495","25.0407966666667","6500500","新莊區"
"242060","353-BY","2018/03/16 17:39:39","新北市新莊區瓊林南路48號","121.435833333333","25.0175383333333","6500500","新莊區"
"242009","132-UY","2018/03/16 17:39:43","新北市新莊區昌明街14巷16號","121.457425","25.0533733333333","6500500","新莊區"
"242039","133-UY","2018/03/16 17:39:40","新北市新莊區民全街2號","121.429046666667","25.0210683333333","6500500","新莊區"
"242032","135-UY","2018/03/16 17:39:29","新北市新莊區新泰路380號","121.444096666667","25.0432216666667","6500500","新莊區"
"242048","172-VK","2018/03/16 17:39:31","新北市新莊區萬安街120號","121.42034","25.0219116666667","6500500","新莊區"
"242017","175-VK","2018/03/16 17:39:26","新北市新莊區復興路一段149巷22弄2號","121.450286666667","25.0441433333333","6500500","新莊區"
"242005","176-VK","2018/03/16 17:39:42","新北市新莊區自立街216號","121.45718","25.0453966666667","6500500","新莊區"
"242015","346-TH","2018/03/16 17:39:29","新北市新莊區新泰路336號","121.444805","25.042045","6500500","新莊區"
"242021","348-TH","2018/03/16 17:39:40","新北市新莊區中華路一段158號","121.452733333333","25.0413016666667","6500500","新莊區"
"242013","351-TH","2018/03/16 17:39:35","新北市新莊區中誠街123號","121.449355","25.0475433333333","6500500","新莊區"
"238015","755-BX","2018/03/16 17:39:28","新北市樹林區啟智街25號","121.420898333333","24.993365","6500700","樹林區"
"238023","601-UM","2018/03/16 17:39:37","新北市樹林區三福街114號","121.406466666667","25.0163466666667","6500700","樹林區"
"238019","599-UM","2018/03/16 17:39:40","新北市樹林區太順街13號","121.419646666667","24.98014","6500700","樹林區"
"238018","571-TV","2018/03/16 17:39:33","新北市樹林區鎮前街124號","121.42489","24.9910366666667","6500700","樹林區"
"238024","5061-A6","2018/03/16 17:39:38","新北市樹林區八德街369-1號","121.416113333333","24.9716166666667","6500700","樹林區"
"238022","KEA-2213","2018/03/16 17:39:36","新北市樹林區中華路187巷4號","121.420468333333","24.9815866666667","6500700","樹林區"
"238021","KEA-2539","2018/03/16 17:39:43","新北市樹林區柑園街一段218號","121.393073333333","24.9563216666667","6500700","樹林區"
"238025","303-VK","2018/03/16 17:39:30","新北市樹林區保安街二段48號","121.415413333333","25.00222","6500700","樹林區"
"238017","283-BY","2018/03/16 17:39:42","新北市樹林區三德街30巷16弄25號","121.413646666667","25.0123583333333","6500700","樹林區"
"238014","282-BY","2018/03/16 17:39:33","新北市樹林區保安街一段313巷28號","121.416978333333","24.9974283333333","6500700","樹林區"
"238020","268-VK","2018/03/16 17:39:28","新北市樹林區俊英街123巷2號","121.424561666667","25.010695","6500700","樹林區"
"238026","172-UY","2018/03/16 17:39:41","新北市樹林區新興街19巷13號","121.40086","24.97329","6500700","樹林區"
"238016","169-UY","2018/03/16 17:39:27","新北市樹林區育英街65號","121.420598333333","24.9893083333333","6500700","樹林區"
"239007","AAC-297","2018/03/16 17:39:28","新北市鶯歌區國光街72號","121.341446666667","24.9580683333333","6500800","鶯歌區"
"239006","891-R6","2018/03/16 17:39:42","新北市鶯歌區永和街34巷10弄4號","121.333353333333","24.9672116666667","6500800","鶯歌區"
"239008","527-UM","2018/03/16 17:39:40","新北市鶯歌區大湖路732巷33號","121.333268333333","24.9781233333333","6500800","鶯歌區"
"239005","526-UM","2018/03/16 17:39:34","新北市鶯歌區福隆二街7號","121.325365","24.9720133333333","6500800","鶯歌區"
"239001","417-VK","2018/03/16 17:39:42","新北市鶯歌區中正三路307號","121.32899","24.9359483333333","6500800","鶯歌區"
"239003","360-BY","2018/03/16 17:39:31","新北市鶯歌區鶯桃路206巷20號","121.337663333333","24.959535","6500800","鶯歌區"
"239002","359-BY","2018/03/16 17:39:26","新北市鶯歌區育智路22號","121.344953333333","24.9551883333333","6500800","鶯歌區"
"239004","193-VK","2018/03/16 17:39:26","新北市鶯歌區文化路525號","121.352886666667","24.9482216666667","6500800","鶯歌區"
"221008","489-VK","2018/03/16 17:39:28","新北市汐止區康寧街901號","121.651383333333","25.0750933333333","6501100","汐止區"
"221010","269-BY","2018/03/16 17:39:39","新北市汐止區汐萬路一段418巷41號","121.651058333333","25.0789666666667","6501100","汐止區"
"221023","279-VK","2018/03/16 17:39:32","新北市汐止區康寧街901號","121.651596666667","25.07494","6501100","汐止區"
"221033","647-BX","2018/03/16 17:39:42","新北市汐止區橫科路407巷99號","121.630066666667","25.052195","6501100","汐止區"
"221018","753-BX","2018/03/16 17:39:39","新北市汐止區汐萬路一段312號","121.650385","25.07516","6501100","汐止區"
"242011","281-VK","2018/03/16 17:39:29","新北市新莊區中華路二段237號","121.451491666667","25.0531983333333","6500500","新莊區"
"242019","280-VK","2018/03/16 17:39:40","新北市新莊區中港路205號","121.454831666667","25.0419566666667","6500500","新莊區"
