"lineid","car","time","location","longitude","latitude","cityid","cityname"
"234026","9371-KE","2018/03/16 17:49:30","新北市永和區中山路一段125號","121.510825","25.01003","6500400","永和區"
"249005","172-UM","2018/03/16 17:49:37","新北市八里區荖阡坑路41-10號","121.402391666667","25.13314","6502300","八里區"
"249001","173-UM","2018/03/16 17:49:22","新北市八里區龍米路二段133-1號","121.444935","25.1478783333333","6502300","八里區"
"249004","303-UY","2018/03/16 17:49:35","新北市八里區中華路一段309巷19-2號","121.416591666667","25.1540283333333","6502300","八里區"
"249002","305-UY","2018/03/16 17:49:43","新北市八里區龍形二街17號","121.450558333333","25.131635","6502300","八里區"
"249003","593-UM","2018/03/16 17:49:44","新北市八里區中山路二段56巷1號","121.4075","25.1543883333333","6502300","八里區"
"248018","225-UY","2018/03/16 17:49:44","新北市五股區中興路二段83巷26-6號","121.46006","25.0752333333333","6501500","五股區"
"232011","375-UM","2018/03/16 17:49:33","新北市坪林區北宜路八段101號","121.70605","24.9348266666667","6502000","坪林區"
"244013","069-UM","2018/03/16 17:49:30","新北市林口區中正路507號","121.383133333333","25.0774816666667","6501700","林口區"
"244007","080-UY","2018/03/16 17:49:28","新北市林口區林口路147號","121.388331666667","25.081565","6501700","林口區"
"244025","742-UY","2018/03/16 17:49:24","新北市林口區忠孝三路42號","121.360091666667","25.0700333333333","6501700","林口區"
"244023","483-VK","2018/03/16 17:49:38","新北市林口區東湖路88號","121.38637","25.07395","6501700","林口區"
"244017","485-VK","2018/03/16 17:49:39","新北市林口區文化二路一段230巷5號","121.37066","25.0721583333333","6501700","林口區"
"244009","656-BX","2018/03/16 17:49:26","新北市林口區文化一路二段197巷5號","121.383836666667","25.082065","6501700","林口區"
"244019","657-BX","2018/03/16 17:49:39","新北市林口區忠孝路563-6號","121.37332","25.068075","6501700","林口區"
"244021","838-TS","2018/03/16 17:49:43","新北市林口區新寮27-1號","121.397366666667","25.068115","6501700","林口區"
"222003","436-BY","2018/03/16 17:49:28","新北市深坑區阿柔洋60-1號","121.608613333333","24.9985366666667","6501800","深坑區"
"221015","KEA-2785","2018/03/16 17:49:37","新北市汐止區長江街75號","121.657145","25.0721783333333","6501100","汐止區"
"231046","278-BY","2018/03/16 17:49:35","新北市新店區下石厝路21號","121.532326666667","24.9274483333333","6500600","新店區"
"241024","065-VK","2018/03/16 17:49:29","新北市三重區國道路一段39巷7號","121.483788333333","25.07308","6500200","三重區"
"241016","265-UM","2018/03/16 17:49:32","新北市三重區新北大道一段7號","121.489631666667","25.0615416666667","6500200","三重區"
"241033","AAC-255","2018/03/16 17:49:30","新北市三重區光復路一段9號","121.472241666667","25.0471283333333","6500200","三重區"
"235038","185-VK","2018/03/16 17:49:45","新北市中和區中正路589巷15號","121.485741666667","24.99359","6500300","中和區"
"235062","800-TS","2018/03/16 17:49:37","新北市中和區員山路36巷16-3號","121.484878333333","24.991605","6500300","中和區"
"247024","893-R6","2018/03/16 17:49:32","新北市蘆洲區光榮路67號","121.461308333333","25.0887016666667","6501400","蘆洲區"
"247014","546-UM","2018/03/16 17:49:45","新北市蘆洲區保和街69巷2弄1號","121.469475","25.0858016666667","6501400","蘆洲區"
"247022","500-BY","2018/03/16 17:49:38","新北市蘆洲區中正路377號","121.464585","25.090735","6501400","蘆洲區"
"247010","341-TH","2018/03/16 17:49:37","新北市蘆洲區民族路37號","121.478113333333","25.08533","6501400","蘆洲區"
"247012","339-TH","2018/03/16 17:49:38","新北市蘆洲區復興路170號","121.477638333333","25.0883483333333","6501400","蘆洲區"
"247004","337-TH","2018/03/16 17:49:36","新北市蘆洲區環堤大道8號","121.455943333333","25.0832","6501400","蘆洲區"
"247006","336-TH","2018/03/16 17:49:40","新北市蘆洲區永安南路二段168號","121.46101","25.0792016666667","6501400","蘆洲區"
"247018","057-VK","2018/03/16 17:49:06","新北市蘆洲區復興路227巷2弄1號","121.479828333333","25.0903366666667","6501400","蘆洲區"
"247008","056-VK","2018/03/16 17:49:45","新北市蘆洲區中山一路223巷10號","121.473991666667","25.08056","6501400","蘆洲區"
"247020","053-VK","2018/03/16 17:49:27","新北市蘆洲區民義街71巷19號","121.472486666667","25.0906783333333","6501400","蘆洲區"
"247016","007-UY","2018/03/16 17:49:30","新北市蘆洲區中正路185巷25弄23號","121.467223333333","25.0838666666667","6501400","蘆洲區"
"247002","002-UY","2018/03/16 17:49:27","新北市蘆洲區永平街32巷21弄34號","121.457813333333","25.09247","6501400","蘆洲區"
"228002","663-BX","2018/03/16 17:49:36","新北市貢寮區福隆里龜壽谷街26號","121.95351","25.007345","6502600","貢寮區"
"228001","670-TC","2018/03/16 17:49:38","新北市貢寮區仁理村仁愛路95-1號","121.927696666667","25.055445","6502600","貢寮區"
"228003","828-UM","2018/03/16 17:49:40","新北市貢寮區真理里美艷山街6-2號","121.928773333333","25.060785","6502600","貢寮區"
"224010","AGQ-8101","2018/03/16 17:49:39","新北市瑞芳區濱二路31號","121.83542","25.1110066666667","6501200","瑞芳區"
"224006","676-BX","2018/03/16 17:49:38","新北市瑞芳區傑魚坑路183號","121.788473333333","25.1082866666667","6501200","瑞芳區"
"224008","285-BY","2018/03/16 17:49:46","新北市瑞芳區明燈路一段50號","121.82012","25.1070533333333","6501200","瑞芳區"
"224007","275-VK","2018/03/16 17:20:28","新北市瑞芳區大寮路356-1號","121.785005","25.1033583333333","6501200","瑞芳區"
"224009","273-VK","2018/03/16 17:49:46","新北市瑞芳區山尖路2號","121.854708333333","25.1161533333333","6501200","瑞芳區"
"224005","271-BY","2018/03/16 17:49:33","新北市瑞芳區建基路一段54號","121.817431666667","25.12739","6501200","瑞芳區"
"227003","400-TW","2018/03/16 17:40:37","新北市雙溪區三貂里定福路1-2號","121.850741666667","25.06345","6502500","雙溪區"
"253006","295-VK","2018/03/16 17:49:45","新北市石門區中央路3-1號","121.566033333333","25.2915183333333","6502200","石門區"
"208002","KEA-2872","2018/03/16 17:49:30","新北市金山區磺清路121號","121.63985","25.22822","6502700","金山區"
"208003","665-BX","2018/03/16 17:49:42","新北市金山區磺清路135號","121.63933","25.2274883333333","6502700","金山區"
"251004","009-UM","2018/03/16 17:49:32","新北市淡水區民權一街24號","121.457708333333","25.1366733333333","6501000","淡水區"
"251002","012-UM","2018/03/16 17:49:30","新北市淡水區中山路27號","121.444133333333","25.170095","6501000","淡水區"
"251008","181-VK","2018/03/16 17:49:31","新北市淡水區八勢路一段128號","121.46737","25.1575016666667","6501000","淡水區"
"251010","413-VK","2018/03/16 17:49:37","新北市淡水區中正路二段114號","121.419658333333","25.186845","6501000","淡水區"
"251012","441-VK","2018/03/16 17:49:27","新北市淡水區水頭43-1號","121.476788333333","25.1857216666667","6501000","淡水區"
"251005","443-VK","2018/03/16 17:49:28","新北市淡水區學府路102巷10號","121.450646666667","25.1718616666667","6501000","淡水區"
"251006","561-UM","2018/03/16 17:49:43","新北市淡水區中山北路一段47號","121.441468333333","25.175565","6501000","淡水區"
"251009","575-R6","2018/03/16 17:49:38","新北市淡水區長興街42號","121.444186666667","25.1714833333333","6501000","淡水區"
"251007","577-R6","2018/03/16 17:49:39","新北市淡水區民生路48號","121.461811666667","25.1379083333333","6501000","淡水區"
"251011","650-BX","2018/03/16 17:44:04","新北市淡水區吳(仔)厝7-1號","121.48071","25.147585","6501000","淡水區"
"251003","673-BX","2018/03/16 17:49:28","新北市淡水區大忠街5巷1號","121.443111666667","25.1764116666667","6501000","淡水區"
"207003","550-UM","2018/03/16 17:49:30","新北市萬里區野柳里東澳路66號","121.692698333333","25.20096","6502800","萬里區"
"207004","225-TW","2018/03/16 17:49:36","新北市萬里區萬里里瑪鋉頂街61號","121.688156666667","25.1805716666667","6502800","萬里區"
"252002","178-VK","2018/03/16 17:49:31","新北市三芝區中山路一段88巷15號","121.50287","25.2566566666667","6502100","三芝區"
"252001","292-VK","2018/03/16 17:49:41","新北市三芝區中興街一段28號","121.497683333333","25.2578533333333","6502100","三芝區"
"237004","KEA-2597","2018/03/16 17:49:30","新北市三峽區中山路194號","121.363568333333","24.9369833333333","6500900","三峽區"
"237009","210-TH","2018/03/16 17:49:44","新北市三峽區大勇路3巷26號","121.36784","24.9368233333333","6500900","三峽區"
"237013","252-BX","2018/03/16 17:49:37","新北市三峽區中華路8號","121.375298333333","24.9330366666667","6500900","三峽區"
"237012","275-BY","2018/03/16 17:49:44","新北市三峽區和平街57號","121.370096666667","24.93627","6500900","三峽區"
"237008","302-VK","2018/03/16 17:49:43","新北市三峽區民權街229號","121.367796666667","24.9279783333333","6500900","三峽區"
"237014","433-BY","2018/03/16 17:49:33","新北市三峽區文化路120巷6號","121.371065","24.9365033333333","6500900","三峽區"
"237006","5529-G3","2018/03/16 17:49:33","新北市三峽區介壽路二段56號","121.391581666667","24.935085","6500900","三峽區"
"237010","706-TV","2018/03/16 17:49:39","新北市三峽區中山路81號","121.36676","24.93518","6500900","三峽區"
"237005","AKY-6261","2018/03/16 17:49:35","新北市三峽區中山路459巷137號","121.349925","24.9336416666667","6500900","三峽區"
"236072","105-UM","2018/03/16 17:49:27","新北市土城區亞洲路46巷22號","121.434376666667","24.97465","6501300","土城區"
"236043","107-UM","2018/03/16 17:49:43","新北市土城區城林路6巷80號","121.438526666667","24.9800166666667","6501300","土城區"
"236079","166-UM","2018/03/16 17:49:32","新北市土城區溪頭路110號","121.408526666667","24.950705","6501300","土城區"
"236031","253-BX","2018/03/16 17:49:27","新北市土城區亞洲路32巷23號","121.434888333333","24.9750933333333","6501300","土城區"
"236026","269-VK","2018/03/16 17:49:34","新北市土城區城林路6巷80號","121.438216666667","24.979785","6501300","土城區"
"236015","270-VK","2018/03/16 17:49:32","新北市土城區自強街33號","121.432398333333","24.973025","6501300","土城區"
"236022","401-BY","2018/03/16 17:49:43","新北市土城區亞洲路32巷23號","121.435023333333","24.97518","6501300","土城區"
"236063","752-BX","2018/03/16 17:49:33","新北市土城區亞洲路58巷5弄8號","121.433721666667","24.974315","6501300","土城區"
"236059","912-UM","2018/03/16 17:49:28","新北市土城區自強街33號","121.432665","24.9731116666667","6501300","土城區"
"236050","913-UM","2018/03/16 17:49:35","新北市土城區亞洲路58巷5弄2號","121.433881666667","24.9743933333333","6501300","土城區"
"236055","AAC-216","2018/03/16 17:49:29","新北市土城區城林路6巷80號","121.4384","24.979565","6501300","土城區"
"242034","AAC-296","2018/03/16 17:49:34","新北市新莊區新樹路6號","121.440618333333","25.0327266666667","6500500","新莊區"
"242058","986-R7","2018/03/16 17:49:41","新北市新莊區中正路700-24號","121.417798333333","25.0268333333333","6500500","新莊區"
"242054","751-BX","2018/03/16 17:49:38","新北市新莊區民安西路468-1號","121.431638333333","25.007915","6500500","新莊區"
"242029","705-TV","2018/03/16 17:49:41","新北市新莊區新泰路325號","121.444996666667","25.041565","6500500","新莊區"
"242027","615-BX","2018/03/16 17:49:41","新北市新莊區福壽街172號","121.458088333333","25.0530266666667","6500500","新莊區"
"242025","613-BX","2018/03/16 17:49:28","新北市三重區新北大道二段39號","121.470728333333","25.0613466666667","6500500","新莊區"
"242041","566-BX","2018/03/16 17:49:48","新北市泰山區新北大道六段369號","121.422361666667","25.0327866666667","6500500","新莊區"
"242046","497-BY","2018/03/16 17:49:32","新北市新莊區福營路127號","121.433068333333","25.0316666666667","6500500","新莊區"
"242002","442-UM","2018/03/16 17:49:36","新北市新莊區景德路93號","121.45188","25.034705","6500500","新莊區"
"242050","441-UM","2018/03/16 17:49:33","新北市新莊區西盛街311巷21號","121.428828333333","25.01538","6500500","新莊區"
"242056","440-UM","2018/03/16 17:49:38","新北市新莊區瓊林路40巷32號","121.446713333333","25.03024","6500500","新莊區"
"242037","415-TV","2018/03/16 17:49:29","新北市新莊區建福路57號","121.426753333333","25.027355","6500500","新莊區"
"242007","413-TV","2018/03/16 17:49:36","新北市新莊區福樂街118巷6號","121.45736","25.04806","6500500","新莊區"
"242044","400-BY","2018/03/16 17:49:38","新北市新莊區中正路857號","121.41959","25.0279216666667","6500500","新莊區"
"242023","362-BY","2018/03/16 17:49:39","新北市新莊區福樂街35號","121.457698333333","25.04693","6500500","新莊區"
"242060","353-BY","2018/03/16 17:49:37","新北市新莊區瓊林南路259號","121.43465","25.0077183333333","6500500","新莊區"
"242009","132-UY","2018/03/16 17:49:43","新北市新莊區昌明街70號","121.455368333333","25.0522683333333","6500500","新莊區"
"242039","133-UY","2018/03/16 17:49:40","新北市新莊區富國路131號","121.424516666667","25.0245033333333","6500500","新莊區"
"242032","135-UY","2018/03/16 17:49:36","新北市新莊區新泰路357巷3弄17號","121.442376666667","25.040815","6500500","新莊區"
"242048","172-VK","2018/03/16 17:49:30","新北市新莊區萬安街102巷16號","121.420418333333","25.0228916666667","6500500","新莊區"
"242017","175-VK","2018/03/16 17:49:46","新北市新莊區永安街9號","121.452235","25.0448183333333","6500500","新莊區"
"242005","176-VK","2018/03/16 17:49:42","新北市新莊區福樂街58號","121.457966666667","25.046095","6500500","新莊區"
"242015","346-TH","2018/03/16 17:49:42","新北市新莊區中平路103號","121.444628333333","25.046225","6500500","新莊區"
"242021","348-TH","2018/03/16 17:49:40","新北市新莊區永寧街32巷2號","121.452893333333","25.0392133333333","6500500","新莊區"
"242013","351-TH","2018/03/16 17:49:35","新北市新莊區中泰街104巷5弄8號","121.448336666667","25.0469333333333","6500500","新莊區"
"238015","755-BX","2018/03/16 17:49:28","新北市樹林區長壽街70巷1弄1號","121.421538333333","24.99426","6500700","樹林區"
"238023","601-UM","2018/03/16 17:49:37","新北市樹林區龍興街13巷9號","121.403445","25.0164766666667","6500700","樹林區"
"238019","599-UM","2018/03/16 17:49:40","新北市樹林區太平路206號","121.418818333333","24.9750016666667","6500700","樹林區"
"238018","571-TV","2018/03/16 17:49:33","新北市樹林區博愛街75號","121.427088333333","24.9920066666667","6500700","樹林區"
"238024","5061-A6","2018/03/16 17:48:57","新北市樹林區中山路三段214號","121.380038333333","24.9679183333333","6500700","樹林區"
"238022","KEA-2213","2018/03/16 17:49:36","新北市樹林區太順街62巷3弄29號","121.416718333333","24.9791783333333","6500700","樹林區"
"238021","KEA-2539","2018/03/16 17:49:34","新北市樹林區柑園街一段43號","121.403465","24.9601966666667","6500700","樹林區"
"238025","303-VK","2018/03/16 17:49:30","新北市樹林區三俊街30號","121.41161","25.0154733333333","6500700","樹林區"
"238017","283-BY","2018/03/16 17:49:42","新北市樹林區三德街30巷3號","121.414541666667","25.0130283333333","6500700","樹林區"
"238014","282-BY","2018/03/16 17:49:33","新北市樹林區大安路161號","121.421518333333","24.9965883333333","6500700","樹林區"
"238020","268-VK","2018/03/16 17:49:28","新北市樹林區三俊街199巷10-9號","121.420146666667","25.01647","6500700","樹林區"
"238026","172-UY","2018/03/16 17:49:41","新北市樹林區中洲街30巷6弄10號","121.397173333333","24.97124","6500700","樹林區"
"238016","169-UY","2018/03/16 17:49:27","新北市樹林區文化街52號","121.418438333333","24.988395","6500700","樹林區"
"239007","AAC-297","2018/03/16 17:49:28","新北市鶯歌區永利街16號","121.33893","24.95474","6500800","鶯歌區"
"239006","891-R6","2018/03/16 17:49:26","新北市鶯歌區鳳鳴路11號","121.333326666667","24.9649916666667","6500800","鶯歌區"
"239008","527-UM","2018/03/16 17:49:40","新北市鶯歌區香賓街7巷2號","121.336621666667","24.979185","6500800","鶯歌區"
"239005","526-UM","2018/03/16 17:49:34","新北市鶯歌區鳳吉四街32號","121.327256666667","24.9728583333333","6500800","鶯歌區"
"239001","417-VK","2018/03/16 17:49:42","新北市鶯歌區中正三路297號","121.329285","24.9361566666667","6500800","鶯歌區"
"239003","360-BY","2018/03/16 17:49:31","新北市鶯歌區德昌二街61號","121.33387","24.9583383333333","6500800","鶯歌區"
"239002","359-BY","2018/03/16 17:49:26","新北市鶯歌區國華路71-1號","121.34298","24.9544533333333","6500800","鶯歌區"
"239004","193-VK","2018/03/16 17:49:26","新北市鶯歌區文化路152號","121.351975","24.9505683333333","6500800","鶯歌區"
"221008","489-VK","2018/03/16 17:49:28","新北市汐止區康寧街901號","121.65136","25.075105","6501100","汐止區"
"221036","130-UY","2018/03/16 17:49:31","新北市汐止區汐萬路一段310號","121.650278333333","25.0747533333333","6501100","汐止區"
"221010","269-BY","2018/03/16 17:49:43","新北市汐止區汐萬路二段119號","121.648241666667","25.0838366666667","6501100","汐止區"
"221012","278-VK","2018/03/16 17:49:32","新北市汐止區汐萬路一段265巷2號","121.650716666667","25.0742516666667","6501100","汐止區"
"221023","279-VK","2018/03/16 17:49:32","新北市汐止區民族一街18號","121.635018333333","25.071125","6501100","汐止區"
"221032","280-BY","2018/03/16 17:49:25","新北市汐止區大同路一段149號","121.632033333333","25.05611","6501100","汐止區"
"221027","281-BY","2018/03/16 17:49:37","新北市汐止區汐萬路一段312號","121.650676666667","25.07536","6501100","汐止區"
"221029","298-VK","2018/03/16 17:49:29","新北市汐止區康寧街901號","121.651608333333","25.0749483333333","6501100","汐止區"
"221031","353-TW","2018/03/16 17:49:30","新北市汐止區工建路161-5號","121.637283333333","25.0630216666667","6501100","汐止區"
"221035","622-UM","2018/03/16 17:49:38","新北市汐止區汐萬路一段312號","121.650441666667","25.0752816666667","6501100","汐止區"
"221025","623-UM","2018/03/16 17:49:43","新北市汐止區新台五路一段131號","121.652231666667","25.061965","6501100","汐止區"
"221038","646-BX","2018/03/16 17:49:30","新北市汐止區汐萬路一段312號","121.65064","25.075305","6501100","汐止區"
"221033","647-BX","2018/03/16 17:48:02","新北市汐止區林森街132巷6弄6號","121.624426666667","25.04053","6501100","汐止區"
"221018","753-BX","2018/03/16 17:49:39","新北市汐止區汐萬路一段39-3號","121.65479","25.0696716666667","6501100","汐止區"
"242011","281-VK","2018/03/16 17:49:29","新北市新莊區中港路684號","121.450783333333","25.056685","6500500","新莊區"
"242019","280-VK","2018/03/16 17:49:40","新北市新莊區民樂街82號","121.457978333333","25.04381","6500500","新莊區"
