"lineid","car","time","location","longitude","latitude","cityid","cityname"
"234046","148-BY","2018/03/16 19:19:44","新北市永和區永元路25號","121.522091666667","25.0007","6500400","永和區"
"234007","207-UY","2018/03/16 19:19:42","新北市永和區永貞路389巷9號","121.507916666667","25.0082416666667","6500400","永和區"
"234081","298-R6","2018/03/16 19:19:45","新北市永和區福和路7巷11弄2號","121.525498333333","25.0071383333333","6500400","永和區"
"234038","336-UY","2018/03/16 19:19:39","新北市永和區民樂街70號","121.527391666667","24.99845","6500400","永和區"
"234064","337-UY","2018/03/16 19:19:37","新北市永和區永元路17巷6弄2號","121.521421666667","25.0006916666667","6500400","永和區"
"234086","338-UY","2018/03/16 19:19:39","新北市永和區永利路74號","121.52037","25.004305","6500400","永和區"
"234070","552-UM","2018/03/16 19:19:46","新北市永和區豫溪街45號","121.516926666667","25.0098933333333","6500400","永和區"
"234017","745-BX","2018/03/16 19:19:48","新北市永和區環河西路一段85巷4弄20號","121.512001666667","25.0169466666667","6500400","永和區"
"234030","746-BX","2018/03/16 19:19:42","新北市永和區厚德街60號","121.524381666667","24.9987883333333","6500400","永和區"
"234054","KEA-2590","2018/03/16 19:19:38","新北市永和區中興街18號","121.515995","25.011845","6500400","永和區"
"234013","KEA-2591","2018/03/16 19:19:43","新北市永和區信義路39號","121.513335","25.0123466666667","6500400","永和區"
"234061","AAD-866","2018/03/16 19:19:27","新北市永和區秀朗路一段175號","121.517035","25.0037066666667","6500400","永和區"
"234042","862-TW","2018/03/16 19:19:41","新北市永和區永貞路285號","121.511148333333","25.005345","6500400","永和區"
"234050","863-TW","2018/03/16 19:19:39","新北市永和區仁愛路104巷4號","121.512048333333","25.0133833333333","6500400","永和區"
"234026","9371-KE","2018/03/16 19:19:30","新北市永和區安樂路144巷31號","121.515233333333","24.9998516666667","6500400","永和區"
"234011","9373-KE","2018/03/16 19:19:27","新北市永和區永平路218巷23號","121.510018333333","25.0111883333333","6500400","永和區"
"249001","173-UM","2018/03/16 19:17:02","新北市八里區中山路一段217巷38號","121.411386666667","25.1558933333333","6502300","八里區"
"249003","593-UM","2018/03/16 19:19:46","新北市八里區中山路二段462號","121.399061666667","25.1472216666667","6502300","八里區"
"248018","225-UY","2018/03/16 19:19:44","新北市五股區壟路7-2號","121.416268333333","25.089685","6501500","五股區"
"248012","247-BX","2018/03/16 19:19:45","新北市五股區中興路四段48巷16號","121.4386","25.0834966666667","6501500","五股區"
"248004","677-BX","2018/03/16 19:19:26","新北市五股區五福路62號","121.433268333333","25.089835","6501500","五股區"
"248002","678-BX","2018/03/16 19:19:34","新北市五股區凌雲路一段158巷14-1號","121.447818333333","25.103525","6501500","五股區"
"234023","9380-KE","2018/03/16 19:19:41","新北市永和區竹林路101號","121.519811666667","25.0119266666667","6500400","永和區"
"234077","969-R7","2018/03/16 19:19:39","新北市永和區民族街37巷1弄2號","121.518873333333","24.9991016666667","6500400","永和區"
"234074","AAC-211","2018/03/16 19:19:37","新北市永和區竹林路81號","121.519516666667","25.0124016666667","6500400","永和區"
"234067","AAC-212","2018/03/16 19:19:36","新北市永和區保平路50巷3號","121.511205","25.0073033333333","6500400","永和區"
"234003","AAC-295","2018/03/16 19:19:44","新北市永和區中山路一段106號","121.511033333333","25.010475","6500400","永和區"
"244013","069-UM","2018/03/16 19:19:38","新北市林口區麗園一街6巷1-1號","121.376635","25.0705883333333","6501700","林口區"
"244023","483-VK","2018/03/16 19:19:38","新北市林口區仁愛路二段265號","121.373601666667","25.0773116666667","6501700","林口區"
"244019","657-BX","2018/03/16 19:19:39","新北市林口區麗園二街1巷1-2號","121.376943333333","25.0695283333333","6501700","林口區"
"244011","701-TV","2018/03/16 19:19:29","新北市林口區中山路202-1號","121.38759","25.0791933333333","6501700","林口區"
"243012","AAD-798","2018/03/16 19:19:45","新北市泰山區仁愛路100巷29號","121.433573333333","25.055025","6501600","泰山區"
"243011","297-R6","2018/03/16 19:19:42","新北市泰山區中央路36巷2號","121.426261666667","25.04294","6501600","泰山區"
"243015","380-SR","2018/03/16 19:19:38","新北市泰山區公園路25號","121.428891666667","25.054165","6501600","泰山區"
"243014","421-VK","2018/03/16 19:19:45","新北市泰山區泰林路二段222號","121.432598333333","25.06185","6501600","泰山區"
"243010","KEA-2215","2018/03/16 19:19:44","新北市泰山區明志路二段34號","121.429528333333","25.053415","6501600","泰山區"
"243009","KEA-2216","2018/03/16 19:19:45","新北市泰山區和平街13巷19號","121.434375","25.0654","6501600","泰山區"
"243013","646-TV","2018/03/16 19:19:29","新北市泰山區明志路三段145巷2弄2號","121.42528","25.0398783333333","6501600","泰山區"
"243016","680-BX","2018/03/16 19:19:36","新北市泰山區明志路三段150號","121.424288333333","25.0398083333333","6501600","泰山區"
"222003","436-BY","2018/03/16 19:19:28","新北市深坑區深南路204號","121.626598333333","25.0160166666667","6501800","深坑區"
"222002","659-BX","2018/03/16 19:19:39","新北市深坑區北深路一段177號","121.632535","25.0108916666667","6501800","深坑區"
"231041","002-UM","2018/03/16 19:19:29","新北市新店區溪園路245-6號","121.525461666667","24.9833616666667","6500600","新店區"
"231059","046-UY","2018/03/16 19:19:40","新北市新店區安和路二段240號","121.516696666667","24.9786433333333","6500600","新店區"
"231061","047-UY","2018/03/16 19:19:36","新北市新店區安康路一段302號","121.518178333333","24.9641366666667","6500600","新店區"
"231060","106-UY","2018/03/16 19:19:47","新北市新店區安康路二段112號","121.513181666667","24.9629916666667","6500600","新店區"
"231051","107-UY","2018/03/16 19:19:30","新北市新店區中央路116號","121.531081666667","24.97512","6500600","新店區"
"231048","108-UY","2018/03/16 19:19:40","新北市新店區中興路一段282-3號","121.546043333333","24.9682533333333","6500600","新店區"
"231053","187-VK","2018/03/16 19:19:35","新北市新店區自強路251號","121.548135","24.919605","6500600","新店區"
"231050","KEA-2219","2018/03/16 19:19:45","新北市新店區竹林路94號","121.55375","24.9499183333333","6500600","新店區"
"221015","KEA-2785","2018/03/16 19:19:37","新北市汐止區康寧街901號","121.651485","25.0749533333333","6501100","汐止區"
"231046","278-BY","2018/03/16 19:19:28","新北市新店區華城路36巷1-1號","121.528458333333","24.9553433333333","6500600","新店區"
"231054","AAD-862","2018/03/16 19:19:33","新北市新店區北宜路一段20號","121.537975","24.9571133333333","6500600","新店區"
"231058","3712-VJ","2018/03/16 19:19:41","新北市新店區北新路二段51號","121.542891666667","24.9730666666667","6500600","新店區"
"231056","3713-VJ","2018/03/16 19:19:45","新北市新店區光華街38巷11號","121.51574","24.9701266666667","6500600","新店區"
"231065","512-UM","2018/03/16 19:19:41","新北市新店區安祥路109巷3弄98號","121.479121666667","24.9606283333333","6500600","新店區"
"231049","513-UM","2018/03/16 19:19:36","新北市新店區明德路111號","121.54149","24.9795133333333","6500600","新店區"
"231064","515-UM","2018/03/16 19:19:45","新北市新店區安忠路57巷26弄36號","121.512151666667","24.95801","6500600","新店區"
"231045","617-UM","2018/03/16 19:19:39","新北市新店區北宜路二段6號","121.547735","24.9519","6500600","新店區"
"231040","619-UM","2018/03/16 19:19:30","新北市新店區中華路68號","121.53913","24.9691116666667","6500600","新店區"
"231042","641-BX","2018/03/16 19:19:38","新北市新店區北宜路一段3號","121.53822","24.9584","6500600","新店區"
"231063","645-TV","2018/03/16 19:19:37","新北市新店區達觀路14巷8號","121.503211666667","24.9432583333333","6500600","新店區"
"231062","720-UM","2018/03/16 19:19:38","新北市新店區莒光路59號","121.523425","24.958855","6500600","新店區"
"231044","897-TW","2018/03/16 19:19:33","新北市新店區中興路三段324號","121.542065","24.986195","6500600","新店區"
"231043","899-TW","2018/03/16 19:19:37","新北市新店區北新路二段99號","121.542933333333","24.9743666666667","6500600","新店區"
"231066","AKT-0513","2018/03/16 19:19:31","新北市新店區安康路三段355巷47號","121.48498","24.9492866666667","6500600","新店區"
"241009","060-VK","2018/03/16 19:19:29","新北市三重區溪尾街230巷69號","121.486086666667","25.0811583333333","6500200","三重區"
"241031","061-VK","2018/03/16 19:19:36","新北市三重區重新路四段242-1號","121.485681666667","25.0537633333333","6500200","三重區"
"241017","063-VK","2018/03/16 19:19:28","新北市三重區大同北路182號","121.491666666667","25.0658883333333","6500200","三重區"
"241026","066-VK","2018/03/16 19:19:36","新北市三重區同安東街52號","121.498025","25.0573033333333","6500200","三重區"
"241022","267-UM","2018/03/16 19:19:36","新北市三重區中正北路56號","121.486986666667","25.0643216666667","6500200","三重區"
"241032","269-UM","2018/03/16 19:19:43","新北市三重區新生街96號","121.48331","25.0593","6500200","三重區"
"241007","398-BY","2018/03/16 19:19:30","新北市三重區慈愛街50號","121.485845","25.079135","6500200","三重區"
"241020","413-TH","2018/03/16 19:19:32","新北市三重區永德街21號","121.489076666667","25.07285","6500200","三重區"
"241030","480-VK","2018/03/16 19:19:40","新北市三重區成功路41巷72號","121.491281666667","25.0532166666667","6500200","三重區"
"241006","AAD-863","2018/03/16 19:19:46","新北市三重區車路頭街182號","121.483626666667","25.0772633333333","6500200","三重區"
"241035","743-BX","2018/03/16 19:19:27","新北市三重區信義西街118號","121.495805","25.064445","6500200","三重區"
"241029","942-UM","2018/03/16 19:19:41","新北市三重區重安街27號","121.491198333333","25.0570366666667","6500200","三重區"
"235066","003-UY","2018/03/16 19:19:48","新北市中和區中和路102號","121.502726666667","24.99981","6500300","中和區"
"235064","005-UY","2018/03/16 19:19:43","新北市中和區泰和街38巷36號","121.498486666667","25.001495","6500300","中和區"
"235063","006-UY","2018/03/16 19:19:36","新北市中和區中正路262號","121.49534","24.9944033333333","6500300","中和區"
"235056","096-UM","2018/03/16 19:19:44","新北市中和區員山路513號","121.479755","25.00669","6500300","中和區"
"235039","097-UM","2018/03/16 19:19:30","新北市中和區自立路58巷16號","121.522955","24.9913766666667","6500300","中和區"
"235065","098-UM","2018/03/16 19:19:28","新北市中和區中山路二段64巷3號","121.503675","25.004935","6500300","中和區"
"235040","150-BY","2018/03/16 19:19:35","新北市中和區保健路50巷2號","121.510335","24.9968833333333","6500300","中和區"
"235058","151-BY","2018/03/16 19:19:44","新北市中和區連城路523巷11弄9號","121.481871666667","24.9942166666667","6500300","中和區"
"235055","183-VK","2018/03/16 19:19:41","新北市中和區莒光路18號","121.472135","25.004275","6500300","中和區"
"235038","185-VK","2018/03/16 19:19:44","新北市中和區景平路126巷2弄13號","121.519705","24.992335","6500300","中和區"
"235049","186-VK","2018/03/16 19:19:33","新北市中和區景新街237號","121.508245","24.9945283333333","6500300","中和區"
"235067","255-BX","2018/03/16 19:19:17","新北市中和區中正路803號","121.48475","25.0010166666667","6500300","中和區"
"235044","293-VK","2018/03/16 19:19:38","新北市中和區復興路308號","121.501181666667","24.9903666666667","6500300","中和區"
"235072","301-VK","2018/03/16 19:19:28","新北市中和區連城路207號","121.494588333333","24.9979516666667","6500300","中和區"
"235043","352-BY","2018/03/16 19:19:35","新北市中和區景平路406號","121.508813333333","24.9930866666667","6500300","中和區"
"235068","377-QA","2018/03/16 19:19:28","新北市中和區景平路545巷9號","121.498095","24.99904","6500300","中和區"
"235071","269-TV","2018/03/16 19:19:34","新北市中和區中正路637巷52弄1號","121.485353333333","24.9938166666667","6500300","中和區"
"235050","4979-A6","2018/03/16 19:19:42","新北市中和區景安路208巷11號","121.503426666667","24.9912166666667","6500300","中和區"
"235069","4980-A6","2018/03/16 19:19:42","新北市中和區中山路二段181巷7號","121.501185","25.0019333333333","6500300","中和區"
"235042","551-UM","2018/03/16 19:19:42","新北市中和區大勇街60巷14弄2號","121.518621666667","24.9944783333333","6500300","中和區"
"235070","558-UM","2018/03/16 19:19:34","新北市中和區連城路63號","121.49768","25.0013683333333","6500300","中和區"
"235045","565-BX","2018/03/16 19:19:45","新北市中和區景新街423巷35弄16號","121.514058333333","24.9900566666667","6500300","中和區"
"235054","640-BX","2018/03/16 19:19:45","新北市中和區國光街107巷2弄5-4號","121.469995","24.9998633333333","6500300","中和區"
"235060","647-TV","2018/03/16 19:19:42","新北市中和區民有街39號","121.47587","25.0049416666667","6500300","中和區"
"235047","732-UM","2018/03/16 19:19:34","新北市中和區和平街38巷5號","121.509298333333","24.9908383333333","6500300","中和區"
"235046","733-UM","2018/03/16 19:19:48","新北市中和區忠孝街2巷11弄2號","121.510386666667","24.9820033333333","6500300","中和區"
"235057","801-TS","2018/03/16 19:19:27","新北市中和區員山路325-2號","121.481235","25.0006933333333","6500300","中和區"
"235041","802-TS","2018/03/16 19:19:40","新北市中和區景安路2號","121.507901666667","24.999185","6500300","中和區"
"235052","805-TS","2018/03/16 19:19:30","新北市中和區華新街143巷55弄2號","121.506358333333","24.9800733333333","6500300","中和區"
"235048","896-TW","2018/03/16 19:19:28","新北市中和區忠孝街128號","121.51201","24.986515","6500300","中和區"
"235053","911-UM","2018/03/16 19:19:26","新北市中和區民德路258號","121.468053333333","24.997135","6500300","中和區"
"235051","157-BY","2018/03/16 19:19:29","新北市中和區興南路一段56巷9號","121.51033","24.9912233333333","6500300","中和區"
"235037","AAC-213","2018/03/16 19:19:27","新北市中和區秀朗路三段10巷37弄4號","121.524023333333","24.995865","6500300","中和區"
"235059","AAC-215","2018/03/16 19:19:38","新北市中和區圓通路286巷7號","121.491513333333","24.9914033333333","6500300","中和區"
"220068","013-TV","2018/03/16 19:19:32","新北市板橋區翠華街6巷63號","121.481146666667","25.0249666666667","6500100","板橋區"
"220065","072-UY","2018/03/16 19:19:36","新北市板橋區國泰街74號","121.467411666667","25.0066283333333","6500100","板橋區"
"220086","073-UY","2018/03/16 19:19:30","新北市板橋區中正路216巷20號","121.456731666667","25.01847","6500100","板橋區"
"220069","AAD-861","2018/03/16 19:19:42","新北市板橋區貴興路49號","121.457335","25.0031766666667","6500100","板橋區"
"226004","205-ST","2018/03/16 19:19:35","新北市平溪區靜安路三段392巷3號","121.784361666667","25.0495733333333","6502400","平溪區"
"228002","663-BX","2018/03/16 19:19:36","新北市貢寮區龍門里復興街8-1號","121.926653333333","25.02666","6502600","貢寮區"
"228001","670-TC","2018/03/16 19:19:37","新北市貢寮區真理里新港街10號","121.925526666667","25.0543916666667","6502600","貢寮區"
"228003","828-UM","2018/03/16 19:19:40","新北市貢寮區和美里和美街19-2號","121.912731666667","25.0826316666667","6502600","貢寮區"
"224010","AGQ-8101","2018/03/16 19:19:39","新北市瑞芳區九份中山巷16號","121.843643333333","25.1080033333333","6501200","瑞芳區"
"224006","676-BX","2018/03/16 19:19:38","新北市瑞芳區中山路22號","121.804146666667","25.106235","6501200","瑞芳區"
"224008","285-BY","2018/03/16 19:19:46","新北市瑞芳區一坑路162-2號","121.801586666667","25.1092183333333","6501200","瑞芳區"
"224007","275-VK","2018/03/16 19:19:32","新北市瑞芳區傑魚坑路78號","121.792841666667","25.1105066666667","6501200","瑞芳區"
"224005","271-BY","2018/03/16 19:19:33","新北市瑞芳區蛇子形路3-5號","121.8242","25.1033766666667","6501200","瑞芳區"
"227011","642-TC","2018/03/16 19:19:27","新北市雙溪區新基里新基北街40號","121.86855","25.0380733333333","6502500","雙溪區"
"227003","400-TW","2018/03/16 19:19:44","新北市雙溪區平林里梅竹蹊36號","121.861455","25.0359916666667","6502500","雙溪區"
"253005","032-BX","2018/03/16 19:19:46","新北市石門區阿里荖41-1號","121.605706666667","25.282645","6502200","石門區"
"253006","295-VK","2018/03/16 19:19:25","新北市石門區楓林23-14號","121.537421666667","25.29084","6502200","石門區"
"222001","KEA-2212","2018/03/16 19:19:36","新北市深坑區北深路二段103號","121.61744","25.0032933333333","6501800","深坑區"
"208002","KEA-2872","2018/03/16 19:19:30","新北市金山區中正路73號","121.63385","25.2217466666667","6502700","金山區"
"208003","665-BX","2018/03/16 19:19:42","新北市金山區忠孝一路5號","121.63934","25.2190483333333","6502700","金山區"
"208001","761-BX","2018/03/16 19:19:39","新北市金山區慈護街35號","121.639425","25.2198133333333","6502700","金山區"
"251001","011-UM","2018/03/16 19:19:44","新北市淡水區自強路201巷39號","121.462058333333","25.1268316666667","6501000","淡水區"
"251010","413-VK","2018/03/16 19:19:37","新北市淡水區沙崙路27號","121.421476666667","25.1815583333333","6501000","淡水區"
"251005","443-VK","2018/03/16 19:19:28","新北市淡水區水源街一段29號","121.443166666667","25.1722666666667","6501000","淡水區"
"251006","561-UM","2018/03/16 19:19:43","新北市淡水區大信街33號","121.441991666667","25.1773633333333","6501000","淡水區"
"251009","575-R6","2018/03/16 19:19:44","新北市淡水區大忠街5巷8號","121.443311666667","25.1765483333333","6501000","淡水區"
"251007","577-R6","2018/03/16 19:19:39","新北市淡水區民生路117巷10號","121.46496","25.1390233333333","6501000","淡水區"
"251003","673-BX","2018/03/16 19:19:48","新北市淡水區中山北路一段64號","121.44195","25.175765","6501000","淡水區"
"207003","550-UM","2018/03/16 19:19:29","新北市萬里區大鵬里萬里加投79-3號","121.647323333333","25.21238","6502800","萬里區"
"207004","225-TW","2018/03/16 19:19:36","新北市萬里區萬里里成功新村44號","121.687656666667","25.1746633333333","6502800","萬里區"
"252002","178-VK","2018/03/16 19:19:31","新北市三芝區淡金路二段18-1號","121.502655","25.2595916666667","6502100","三芝區"
"252001","292-VK","2018/03/16 19:19:40","新北市三芝區長勤街9巷11弄1號","121.501763333333","25.2548766666667","6502100","三芝區"
"237004","KEA-2597","2018/03/16 19:19:29","新北市三峽區有木205號","121.439061666667","24.8520416666667","6500900","三峽區"
"237007","153-BY","2018/03/16 19:19:42","新北市三峽區二鬮路81巷1號","121.359583333333","24.9070016666667","6500900","三峽區"
"237009","210-TH","2018/03/16 19:19:44","新北市三峽區和平街19號","121.370435","24.9352033333333","6500900","三峽區"
"237013","252-BX","2018/03/16 19:19:35","新北市三峽區大同路39巷23號","121.377545","24.9274783333333","6500900","三峽區"
"237012","275-BY","2018/03/16 19:19:44","新北市三峽區三樹路222巷236弄8-1號","121.391315","24.9429883333333","6500900","三峽區"
"237008","302-VK","2018/03/16 19:19:43","新北市三峽區中正路一段148號","121.37335","24.9288933333333","6500900","三峽區"
"237014","433-BY","2018/03/16 19:19:33","新北市三峽區中山路63巷8號","121.366921666667","24.9343583333333","6500900","三峽區"
"237006","5529-G3","2018/03/16 19:19:33","新北市三峽區溪北街109號","121.398343333333","24.9354916666667","6500900","三峽區"
"237011","KEA-2596","2018/03/16 19:19:27","新北市三峽區中正路一段406巷1號","121.3708","24.9227933333333","6500900","三峽區"
"237015","649-BX","2018/03/16 18:55:48","新北市三峽區建安85號","121.453073333333","24.9218116666667","6500900","三峽區"
"237010","706-TV","2018/03/16 19:19:38","新北市三峽區復興路19號","121.374038333333","24.9363083333333","6500900","三峽區"
"237005","AKY-6261","2018/03/16 19:19:35","新北市三峽區中山路459巷52-1號","121.356731666667","24.9370933333333","6500900","三峽區"
"236072","105-UM","2018/03/16 19:19:27","新北市土城區學成路148號","121.448615","24.9895","6501300","土城區"
"236079","166-UM","2018/03/16 19:19:46","新北市土城區中州路3巷11弄4號","121.414025","24.9569433333333","6501300","土城區"
"236026","269-VK","2018/03/16 19:19:34","新北市土城區中央路二段61巷22號","121.443271666667","24.978815","6501300","土城區"
"236015","270-VK","2018/03/16 19:19:32","新北市土城區學府路一段23巷21-2號","121.458016666667","24.9873466666667","6501300","土城區"
"236022","401-BY","2018/03/16 19:19:43","新北市土城區峰廷街3號","121.469023333333","24.98741","6501300","土城區"
"236059","912-UM","2018/03/16 19:19:28","新北市土城區金城路一段72號","121.443698333333","24.97258","6501300","土城區"
"236050","913-UM","2018/03/16 19:19:35","新北市土城區明德路一段398-1號","121.453711666667","24.9790583333333","6501300","土城區"
"238015","755-BX","2018/03/16 19:19:32","新北市樹林區大安路523號","121.414045","24.986115","6500700","樹林區"
"238023","601-UM","2018/03/16 19:19:36","桃園市龜山區萬壽路一段350號","121.401643333333","25.0169916666667","6500700","樹林區"
"238019","599-UM","2018/03/16 19:19:41","新北市樹林區鎮前街327-5號","121.416816666667","24.984435","6500700","樹林區"
"238018","571-TV","2018/03/16 19:19:39","新北市樹林區中華路177號","121.420715","24.981925","6500700","樹林區"
"238024","5061-A6","2018/03/16 19:19:37","新北市樹林區福德街3號","121.401616666667","24.9759266666667","6500700","樹林區"
"238021","KEA-2539","2018/03/16 19:19:39","新北市樹林區柑園街二段386巷14號","121.367501666667","24.9493683333333","6500700","樹林區"
"238025","303-VK","2018/03/16 19:19:44","新北市樹林區中山路三段96號","121.39289","24.9722383333333","6500700","樹林區"
"238017","283-BY","2018/03/16 19:19:42","新北市樹林區光興街18號","121.412368333333","25.002965","6500700","樹林區"
"238014","282-BY","2018/03/16 19:19:33","新北市樹林區保安二街12號","121.42497","24.9938316666667","6500700","樹林區"
"238020","268-VK","2018/03/16 19:19:28","新北市樹林區俊英街123巷38號","121.423525","25.0104866666667","6500700","樹林區"
"238026","172-UY","2018/03/16 19:19:41","新北市樹林區佳園路三段77號","121.387736666667","24.9526266666667","6500700","樹林區"
"238016","169-UY","2018/03/16 19:19:27","新北市樹林區大安路537巷5號","121.413255","24.984435","6500700","樹林區"
"239007","AAC-297","2018/03/16 19:19:48","新北市鶯歌區大湖路余厝巷11號","121.341943333333","24.9612783333333","6500800","鶯歌區"
"239006","891-R6","2018/03/16 19:19:45","新北市鶯歌區重慶街10巷2號","121.351896666667","24.9527166666667","6500800","鶯歌區"
"239008","527-UM","2018/03/16 19:19:40","新北市鶯歌區大湖路460巷5號","121.339913333333","24.9724916666667","6500800","鶯歌區"
"239005","526-UM","2018/03/16 19:19:33","新北市鶯歌區中湖街319號","121.348916666667","24.9754766666667","6500800","鶯歌區"
"239001","417-VK","2018/03/16 19:19:42","新北市鶯歌區建國路489號","121.340408333333","24.952845","6500800","鶯歌區"
"239003","360-BY","2018/03/16 19:19:31","新北市鶯歌區建國路278號","121.346976666667","24.9534266666667","6500800","鶯歌區"
"239002","359-BY","2018/03/16 19:19:26","新北市鶯歌區大湖路185巷20號","121.342846666667","24.9698566666667","6500800","鶯歌區"
"239004","193-VK","2018/03/16 19:19:46","新北市鶯歌區二甲路61號","121.33543","24.9333133333333","6500800","鶯歌區"
"221008","489-VK","2018/03/16 19:19:42","新北市汐止區康寧街306號","121.62651","25.0672233333333","6501100","汐止區"
"221036","130-UY","2018/03/16 19:19:31","新北市汐止區康寧街901號","121.651663333333","25.0749083333333","6501100","汐止區"
"221010","269-BY","2018/03/16 19:19:39","新北市汐止區康寧街901號","121.651408333333","25.0750516666667","6501100","汐止區"
"221012","278-VK","2018/03/16 19:19:32","新北市汐止區汐萬路一段312號","121.65056","25.07535","6501100","汐止區"
"221023","279-VK","2018/03/16 19:19:32","新北市汐止區康寧街901號","121.650956666667","25.0751916666667","6501100","汐止區"
"221027","281-BY","2018/03/16 19:19:37","新北市汐止區汐萬路一段312號","121.650396666667","25.0750466666667","6501100","汐止區"
"221029","298-VK","2018/03/16 19:19:29","新北市汐止區康寧街901號","121.651651666667","25.0749266666667","6501100","汐止區"
"221031","353-TW","2018/03/16 19:19:30","新北市汐止區康寧街901號","121.650816666667","25.07524","6501100","汐止區"
"221025","623-UM","2018/03/16 19:19:43","新北市汐止區汐萬路一段273號","121.650473333333","25.0744666666667","6501100","汐止區"
"221038","646-BX","2018/03/16 19:19:29","新北市汐止區汐萬路一段312號","121.650658333333","25.0752766666667","6501100","汐止區"
"221033","647-BX","2018/03/16 19:19:42","新北市汐止區南勢街1巷1號","121.627045","25.03741","6501100","汐止區"
"221002","707-TV","2018/03/16 19:19:43","新北市汐止區大同路一段312號","121.637175","25.0587283333333","6501100","汐止區"
"220079","145-BY","2018/03/16 19:19:41","新北市板橋區民權路202巷16弄1號","121.460705","25.016265","6500100","板橋區"
"220080","200-UY","2018/03/16 19:19:37","新北市板橋區大觀路二段3巷25號","121.448263333333","25.0037116666667","6500100","板橋區"
"220106","KEA-2550","2018/03/16 19:19:37","新北市板橋區雙十路三段60號","121.470778333333","25.031655","6500100","板橋區"
"220082","610-BX","2018/03/16 19:19:26","新北市板橋區金門街316號","121.428688333333","24.9851033333333","6500100","板橋區"
"220101","245-BX","2018/03/16 19:19:36","新北市板橋區莊敬路25巷30號","121.474176666667","25.0270016666667","6500100","板橋區"
"220056","276-BY","2018/03/16 19:19:27","新北市板橋區干城路157號","121.460555","24.9922433333333","6500100","板橋區"
"220072","277-BY","2018/03/16 19:19:31","新北市板橋區金門街339-2號","121.429235","24.9856133333333","6500100","板橋區"
"220094","280-UM","2018/03/16 19:19:45","新北市板橋區吳鳳路23號","121.466983333333","25.031155","6500100","板橋區"
"220064","282-UM","2018/03/16 19:19:26","新北市板橋區縣民大道二段62號","121.462881666667","25.012555","6500100","板橋區"
"220071","283-VK","2018/03/16 19:19:48","新北市板橋區忠孝路48巷7弄11號","121.461496666667","25.0005616666667","6500100","板橋區"
"220053","285-VK","2018/03/16 19:19:41","新北市板橋區永豐街146號","121.478096666667","25.0212233333333","6500100","板橋區"
"220083","286-VK","2018/03/16 19:19:31","新北市板橋區龍興街73巷22號","121.443085","25.0025","6500100","板橋區"
"220081","287-VK","2018/03/16 19:19:28","新北市板橋區南雅西路一段10巷7弄17號","121.454006666667","25.0043716666667","6500100","板橋區"
"220090","288-VK","2018/03/16 19:19:39","新北市板橋區長江路一段106巷13弄28號","121.461101666667","25.0295883333333","6500100","板橋區"
"220061","293-UM","2018/03/16 19:19:36","新北市板橋區中山路二段318巷20弄13號","121.480763333333","25.018815","6500100","板橋區"
"220062","295-UM","2018/03/16 19:19:39","新北市板橋區三民路二段153巷36弄2號","121.481131666667","25.0141383333333","6500100","板橋區"
"220084","296-UM","2018/03/16 19:19:47","新北市板橋區滿平街110巷20號","121.427755","24.9880766666667","6500100","板橋區"
"220075","303-R5","2018/03/16 19:19:42","新北市板橋區南雅西路一段23號","121.453981666667","25.00426","6500100","板橋區"
"220092","307-R5","2018/03/16 19:19:35","新北市板橋區松江街57號","121.468541666667","25.0277016666667","6500100","板橋區"
"220098","317-R6","2018/03/16 19:19:42","新北市板橋區民有街90號","121.464948333333","25.0275283333333","6500100","板橋區"
"220089","487-VK","2018/03/16 19:19:34","新北市板橋區文化路一段479巷44號","121.467798333333","25.0227066666667","6500100","板橋區"
"220088","491-VK","2018/03/16 19:19:32","新北市板橋區縣民大道三段153號","121.478471666667","25.023905","6500100","板橋區"
"220035","560-BX","2018/03/16 19:19:32","新北市板橋區中正路413巷2弄18號","121.453423333333","25.0231833333333","6500100","板橋區"
"220103","561-BX","2018/03/16 19:19:29","新北市板橋區文化路一段188巷7弄14號","121.467585","25.019665","6500100","板橋區"
"220063","609-BX","2018/03/16 19:19:40","新北市板橋區三民路二段13號","121.479323333333","25.0183866666667","6500100","板橋區"
"220091","637-BX","2018/03/16 19:19:28","新北市板橋區萬板路478號","121.479873333333","25.0261066666667","6500100","板橋區"
"220057","686-BX","2018/03/16 19:19:34","新北市中和區和平路200巷1-8號","121.464453333333","24.99546","6500100","板橋區"
"220077","687-BX","2018/03/16 19:19:44","新北市板橋區僑中二街50號","121.446751666667","25.0105116666667","6500100","板橋區"
"220093","689-BX","2018/03/16 19:19:36","新北市板橋區文化路一段309-1號","121.465885","25.02001","6500100","板橋區"
"220054","741-BX","2018/03/16 19:19:32","新北市板橋區重慶路182號","121.462363333333","25.003535","6500100","板橋區"
"220102","KEA-2699","2018/03/16 19:19:34","新北市板橋區文聖街207-1號","121.479896666667","25.0263633333333","6500100","板橋區"
"220055","827-TW","2018/03/16 19:19:30","新北市板橋區實踐路65巷17號","121.464418333333","25.0065583333333","6500100","板橋區"
"220067","830-TW","2018/03/16 19:19:30","新北市板橋區長安街138巷5弄62號","121.473993333333","25.0096333333333","6500100","板橋區"
"220096","831-TW","2018/03/16 19:19:45","新北市板橋區大同街26巷9號","121.47822","25.0269616666667","6500100","板橋區"
"220074","895-R6","2018/03/16 19:19:31","新北市板橋區中正路25巷16號","121.454856666667","25.01284","6500100","板橋區"
"220073","985-R7","2018/03/16 19:19:42","新北市板橋區新生街89巷2號","121.458345","25.0221266666667","6500100","板橋區"
"220097","AAC-210","2018/03/16 19:19:46","新北市板橋區幸福路60巷4號","121.460721666667","25.0208933333333","6500100","板橋區"
"220070","AAC-253","2018/03/16 19:19:43","新北市板橋區忠孝路46號","121.460685","25.0018516666667","6500100","板橋區"
