"lineid","car","time","location","longitude","latitude","cityid","cityname"
"234046","148-BY","2018/03/16 19:29:44","新北市永和區秀朗路二段257號","121.526323333333","24.9992516666667","6500400","永和區"
"234007","207-UY","2018/03/16 19:29:42","新北市永和區永和路一段155-3號","121.51426","25.0094316666667","6500400","永和區"
"234081","298-R6","2018/03/16 19:29:30","新北市永和區林森路10巷18弄17號","121.526286666667","25.0071633333333","6500400","永和區"
"234038","336-UY","2018/03/16 19:29:39","新北市永和區民樂街35巷1號","121.52758","25.0010383333333","6500400","永和區"
"234064","337-UY","2018/03/16 19:29:37","新北市永和區中正路368巷1弄75號","121.52047","25.0007983333333","6500400","永和區"
"234086","338-UY","2018/03/16 19:29:39","新北市永和區林森路105號","121.523113333333","25.0034533333333","6500400","永和區"
"234070","552-UM","2018/03/16 19:29:46","新北市永和區警光街14號","121.51967","25.0095233333333","6500400","永和區"
"234017","745-BX","2018/03/16 19:29:43","新北市永和區環河西路一段79號","121.513101666667","25.01817","6500400","永和區"
"234030","746-BX","2018/03/16 19:29:42","新北市永和區民生路69號","121.522625","24.99726","6500400","永和區"
"234054","KEA-2590","2018/03/16 19:29:38","新北市永和區復興街19巷5號","121.516046666667","25.013105","6500400","永和區"
"234013","KEA-2591","2018/03/16 19:29:43","新北市永和區中山路一段184巷9弄1號","121.508511666667","25.0093316666667","6500400","永和區"
"234061","AAD-866","2018/03/16 19:29:27","新北市永和區中正路570號","121.517151666667","25.0062316666667","6500400","永和區"
"234042","862-TW","2018/03/16 19:29:41","新北市永和區水源街34號","121.511013333333","25.0045216666667","6500400","永和區"
"234050","863-TW","2018/03/16 19:29:39","新北市永和區保福路二段116號","121.509963333333","25.0138916666667","6500400","永和區"
"234026","9371-KE","2018/03/16 19:29:30","新北市中和區安樂路245號","121.514141666667","24.99961","6500400","永和區"
"234011","9373-KE","2018/03/16 19:29:47","新北市永和區保福路二段102號","121.510093333333","25.0136316666667","6500400","永和區"
"249003","593-UM","2018/03/16 19:29:46","新北市八里區中山路二段339號","121.399738333333","25.147155","6502300","八里區"
"248008","095-VK","2018/03/16 19:29:43","新北市五股區中興路一段93號","121.466701666667","25.0728016666667","6501500","五股區"
"248018","225-UY","2018/03/16 19:23:44","新北市五股區壟路16-1號","121.41496","25.08542","6501500","五股區"
"248012","247-BX","2018/03/16 19:29:45","新北市五股區成泰路二段97號","121.437931666667","25.0843266666667","6501500","五股區"
"248014","261-SL","2018/03/16 19:29:40","新北市五股區民義路一段185-20號","121.431103333333","25.0873666666667","6501500","五股區"
"248004","677-BX","2018/03/16 19:29:26","新北市五股區五福路56號","121.433508333333","25.0897466666667","6501500","五股區"
"248002","678-BX","2018/03/16 19:29:34","新北市五股區凌雲路一段158巷14-1號","121.447808333333","25.1034916666667","6501500","五股區"
"234023","9380-KE","2018/03/16 19:29:41","新北市永和區竹林路91巷43弄2號","121.521276666667","25.0128333333333","6500400","永和區"
"234077","969-R7","2018/03/16 19:29:29","新北市永和區民治街29號","121.519616666667","24.9977133333333","6500400","永和區"
"234074","AAC-211","2018/03/16 19:29:37","新北市永和區環河東路一段122號","121.520543333333","25.0156766666667","6500400","永和區"
"234067","AAC-212","2018/03/16 19:29:36","新北市永和區保平路176號","121.510868333333","25.0066866666667","6500400","永和區"
"234003","AAC-295","2018/03/16 19:29:44","新北市永和區福和路379號","121.514373333333","25.0075233333333","6500400","永和區"
"244023","483-VK","2018/03/16 19:29:38","新北市林口區文化北路二段228號","121.372508333333","25.0850533333333","6501700","林口區"
"244011","701-TV","2018/03/16 19:29:29","新北市林口區寶林路106-1號","121.374081666667","25.0908416666667","6501700","林口區"
"243012","AAD-798","2018/03/16 19:29:45","新北市泰山區明志路一段501巷19號","121.431381666667","25.0545933333333","6501600","泰山區"
"243011","297-R6","2018/03/16 19:29:42","新北市泰山區貴子路140號","121.428863333333","25.040355","6501600","泰山區"
"243015","380-SR","2018/03/16 19:29:38","新北市泰山區明志路二段104號","121.428108333333","25.051805","6501600","泰山區"
"243014","421-VK","2018/03/16 19:29:45","新北市泰山區中港西路420號","121.433803333333","25.0539566666667","6501600","泰山區"
"243010","KEA-2215","2018/03/16 19:29:37","新北市泰山區民生路17巷48號","121.42935","25.05132","6501600","泰山區"
"243009","KEA-2216","2018/03/16 19:29:45","新北市五股區成泰路一段7巷3號","121.433405","25.066635","6501600","泰山區"
"243013","646-TV","2018/03/16 19:29:38","新北市泰山區貴子路36巷16號","121.425841666667","25.0411","6501600","泰山區"
"243016","680-BX","2018/03/16 19:29:36","新北市泰山區工專路5-4號","121.423876666667","25.0393783333333","6501600","泰山區"
"222003","436-BY","2018/03/16 19:29:28","新北市深坑區深南路51-1號","121.621315","25.009685","6501800","深坑區"
"222002","659-BX","2018/03/16 19:29:39","新北市深坑區北深路一段177號","121.632471666667","25.0109","6501800","深坑區"
"231041","002-UM","2018/03/16 19:29:29","新北市新店區中正路543-3號","121.533606666667","24.987355","6500600","新店區"
"231059","046-UY","2018/03/16 19:29:40","新北市新店區安和路三段61號","121.518011666667","24.98324","6500600","新店區"
"231061","047-UY","2018/03/16 19:29:36","新北市新店區碧安街9巷22號","121.516351666667","24.96846","6500600","新店區"
"231060","106-UY","2018/03/16 19:29:27","新北市新店區安康路二段65號","121.513956666667","24.96318","6500600","新店區"
"231051","107-UY","2018/03/16 19:29:30","新北市新店區中央五街75號","121.526873333333","24.976055","6500600","新店區"
"231048","108-UY","2018/03/16 19:29:40","新北市新店區中興路一段264號","121.544771666667","24.9672766666667","6500600","新店區"
"231053","187-VK","2018/03/16 19:29:35","新北市新店區廣興路15號","121.542013333333","24.91218","6500600","新店區"
"231050","KEA-2219","2018/03/16 19:28:45","新北市新店區秀水路7號","121.554808333333","24.9544866666667","6500600","新店區"
"221015","KEA-2785","2018/03/16 19:29:37","新北市汐止區康寧街901號","121.651435","25.07499","6501100","汐止區"
"231046","278-BY","2018/03/16 19:29:28","新北市新店區光明街139號","121.539305","24.9621333333333","6500600","新店區"
"231054","AAD-862","2018/03/16 19:29:33","新北市新店區文中路51號","121.539741666667","24.9566316666667","6500600","新店區"
"231058","3712-VJ","2018/03/16 19:29:41","新北市新店區寶橋路75號","121.545713333333","24.975165","6500600","新店區"
"231067","4772-VM","2018/03/16 19:29:34","新北市新店區安康路一段351-1號","121.519271666667","24.9639733333333","6500600","新店區"
"231065","512-UM","2018/03/16 19:29:41","新北市新店區安祥路109巷6弄49號","121.475515","24.95728","6500600","新店區"
"231049","513-UM","2018/03/16 19:29:36","新北市新店區北新路三段65巷34弄1號","121.540021666667","24.9813116666667","6500600","新店區"
"231064","515-UM","2018/03/16 19:29:45","新北市新店區安康路二段74號","121.514431666667","24.963515","6500600","新店區"
"231045","617-UM","2018/03/16 19:29:39","新北市新店區北宜路二段213號","121.553215","24.953485","6500600","新店區"
"231040","619-UM","2018/03/16 19:29:30","新北市新店區北新路一段62號","121.54108","24.96659","6500600","新店區"
"231042","641-BX","2018/03/16 19:29:38","新北市新店區中興路一段202號","121.543656666667","24.9652816666667","6500600","新店區"
"231063","645-TV","2018/03/16 19:29:37","新北市新店區達觀路16號","121.503251666667","24.9405183333333","6500600","新店區"
"231062","720-UM","2018/03/16 19:29:39","新北市新店區安康路一段33-1號","121.532213333333","24.9604666666667","6500600","新店區"
"231044","897-TW","2018/03/16 19:29:42","新北市新店區中興路三段197號","121.543886666667","24.9814816666667","6500600","新店區"
"231043","899-TW","2018/03/16 19:29:28","新北市新店區北新路二段173-3號","121.54285","24.97692","6500600","新店區"
"231066","AKT-0513","2018/03/16 19:29:31","新北市新店區安康路三段165巷5號","121.489696666667","24.9513116666667","6500600","新店區"
"241028","022-UY","2018/03/16 19:29:41","新北市三重區中寮街90號","121.493256666667","25.0580066666667","6500200","三重區"
"241008","059-VK","2018/03/16 19:29:35","新北市三重區永福街135巷30號","121.47748","25.07705","6500200","三重區"
"241009","060-VK","2018/03/16 19:29:29","新北市三重區溪尾街242巷66號","121.486211666667","25.0814416666667","6500200","三重區"
"241031","061-VK","2018/03/16 19:29:36","新北市三重區集美街100號","121.488546666667","25.05416","6500200","三重區"
"241017","063-VK","2018/03/16 19:29:48","新北市三重區中正北路25巷2號","121.493218333333","25.06269","6500200","三重區"
"241026","066-VK","2018/03/16 19:29:36","新北市三重區文化南路47巷2弄1號","121.499938333333","25.06124","6500200","三重區"
"241022","267-UM","2018/03/16 19:29:36","新北市三重區三民街173號","121.483296666667","25.0648883333333","6500200","三重區"
"241032","269-UM","2018/03/16 19:29:43","新北市三重區三陽路39號","121.485125","25.0588166666667","6500200","三重區"
"241013","270-UM","2018/03/16 19:29:40","新北市三重區仁愛街129巷3號","121.495725","25.0749866666667","6500200","三重區"
"241025","271-UM","2018/03/16 19:29:33","新北市三重區頂崁街210巷36號","121.475728333333","25.06782","6500200","三重區"
"241007","398-BY","2018/03/16 19:29:30","新北市三重區溪尾街124-2號","121.489416666667","25.07941","6500200","三重區"
"241020","413-TH","2018/03/16 19:29:32","新北市三重區三和路四段44巷10號","121.489905","25.0743766666667","6500200","三重區"
"241030","480-VK","2018/03/16 19:29:32","新北市三重區環河南路254巷32號","121.490088333333","25.0510466666667","6500200","三重區"
"241014","543-UM","2018/03/16 19:29:43","新北市三重區長興街35號","121.500508333333","25.0686683333333","6500200","三重區"
"241023","545-UM","2018/03/16 19:29:30","新北市三重區頂崁街99號","121.478013333333","25.06382","6500200","三重區"
"241006","AAD-863","2018/03/16 19:29:26","新北市三重區自強路三段75號","121.486846666667","25.073755","6500200","三重區"
"241035","743-BX","2018/03/16 19:29:48","新北市三重區信義西街1巷3號","121.498066666667","25.0649233333333","6500200","三重區"
"241029","942-UM","2018/03/16 19:29:41","新北市三重區重安街103號","121.493926666667","25.0551166666667","6500200","三重區"
"235066","003-UY","2018/03/16 19:29:44","新北市中和區景新街77號","121.505136666667","24.9985433333333","6500300","中和區"
"235064","005-UY","2018/03/16 19:29:43","新北市中和區南山路127巷34弄2號","121.504285","24.9976766666667","6500300","中和區"
"235063","006-UY","2018/03/16 19:29:36","新北市中和區連城路219巷15號","121.494903333333","24.99636","6500300","中和區"
"235056","096-UM","2018/03/16 19:29:31","新北市中和區民富街13號","121.476545","25.0073483333333","6500300","中和區"
"235039","097-UM","2018/03/16 19:29:30","新北市中和區秀峰街52號","121.521078333333","24.990355","6500300","中和區"
"235065","098-UM","2018/03/16 19:29:28","新北市中和區中山路二段2巷13弄9號","121.503623333333","25.0065966666667","6500300","中和區"
"235040","150-BY","2018/03/16 19:29:35","新北市中和區保健路46巷26弄10號","121.508085","24.9955766666667","6500300","中和區"
"235058","151-BY","2018/03/16 19:29:44","新北市中和區員山路36巷16-2號","121.485206666667","24.9915466666667","6500300","中和區"
"235055","183-VK","2018/03/16 19:29:41","新北市中和區國光街102巷40號","121.471091666667","25.0005416666667","6500300","中和區"
"235038","185-VK","2018/03/16 19:29:45","新北市中和區自立路35號","121.52215","24.9953983333333","6500300","中和區"
"235049","186-VK","2018/03/16 19:29:33","新北市中和區景新街285巷21號","121.51055","24.9936766666667","6500300","中和區"
"235067","255-BX","2018/03/16 19:19:17","新北市中和區中正路803號","121.48475","25.0010166666667","6500300","中和區"
"235044","293-VK","2018/03/16 19:29:38","新北市中和區捷運路185號","121.505458333333","24.9914616666667","6500300","中和區"
"235072","301-VK","2018/03/16 19:29:28","新北市中和區連城路263巷4弄12號","121.491755","24.9952416666667","6500300","中和區"
"235043","352-BY","2018/03/16 19:29:36","新北市中和區景新街157號","121.506468333333","24.9963716666667","6500300","中和區"
"235068","377-QA","2018/03/16 19:29:48","新北市中和區景平路493巷2弄10號","121.499131666667","24.9972416666667","6500300","中和區"
"235071","269-TV","2018/03/16 19:29:34","新北市中和區中正路637巷18弄20號","121.484346666667","24.995155","6500300","中和區"
"235050","4979-A6","2018/03/16 19:29:42","新北市中和區中正路450號","121.490848333333","24.9942316666667","6500300","中和區"
"235042","551-UM","2018/03/16 19:29:42","新北市中和區安平路156巷7號","121.512921666667","24.9981533333333","6500300","中和區"
"235070","558-UM","2018/03/16 19:29:31","新北市中和區中和路86號","121.501166666667","25.0005333333333","6500300","中和區"
"235045","565-BX","2018/03/16 19:29:45","新北市中和區景新街399巷9號","121.51293","24.989895","6500300","中和區"
"235054","640-BX","2018/03/16 19:29:45","新北市中和區國光街112巷15號","121.469651666667","25.0019483333333","6500300","中和區"
"235060","647-TV","2018/03/16 19:29:42","新北市中和區員山路268巷5弄8號","121.481915","25.00235","6500300","中和區"
"235047","732-UM","2018/03/16 19:29:34","新北市中和區景平路243-3號","121.5092","24.992625","6500300","中和區"
"235046","733-UM","2018/03/16 19:29:47","新北市中和區興南路一段105巷20弄35號","121.51053","24.9848183333333","6500300","中和區"
"235057","801-TS","2018/03/16 19:29:27","新北市中和區台新街35號","121.479368333333","25.0053083333333","6500300","中和區"
"235041","802-TS","2018/03/16 19:29:40","新北市中和區中安街132號","121.510851666667","25.0004133333333","6500300","中和區"
"235052","805-TS","2018/03/16 19:29:30","新北市中和區華新街143巷63弄2號","121.506498333333","24.9792833333333","6500300","中和區"
"235048","896-TW","2018/03/16 19:29:28","新北市中和區忠孝街105號","121.511945","24.98647","6500300","中和區"
"235053","911-UM","2018/03/16 19:29:46","新北市中和區華順街6號","121.467436666667","24.9987966666667","6500300","中和區"
"235051","157-BY","2018/03/16 19:29:29","新北市中和區景新街174號","121.506118333333","24.99647","6500300","中和區"
"235037","AAC-213","2018/03/16 19:29:27","新北市中和區秀朗路三段10巷14弄18號","121.524923333333","24.996635","6500300","中和區"
"235059","AAC-215","2018/03/16 19:29:38","新北市中和區圓通路252-4號","121.493715","24.99145","6500300","中和區"
"220068","013-TV","2018/03/16 19:29:32","新北市板橋區翠華街6巷68號","121.481756666667","25.0250466666667","6500100","板橋區"
"220065","072-UY","2018/03/16 19:29:47","新北市板橋區國泰街111巷1號","121.465835","25.0063383333333","6500100","板橋區"
"220086","073-UY","2018/03/16 19:29:30","新北市板橋區中正路236巷61號","121.458383333333","25.0195083333333","6500100","板橋區"
"220069","AAD-861","2018/03/16 19:29:41","新北市板橋區稚暉街18號","121.455903333333","25.00451","6500100","板橋區"
"226004","205-ST","2018/03/16 19:29:35","新北市平溪區十分里十分街76號","121.776293333333","25.0421666666667","6502400","平溪區"
"228001","670-TC","2018/03/16 19:29:37","新北市貢寮區真理里延平街68-1號","121.925388333333","25.057445","6502600","貢寮區"
"228003","828-UM","2018/03/16 19:29:40","新北市貢寮區和美里和美街28-2號","121.913135","25.0826766666667","6502600","貢寮區"
"224010","AGQ-8101","2018/03/16 19:29:39","新北市瑞芳區基山街212號","121.842041666667","25.1071516666667","6501200","瑞芳區"
"224002","639-TC","2018/03/16 19:29:42","新北市瑞芳區三爪子坑路13巷12號","121.814026666667","25.1070233333333","6501200","瑞芳區"
"224007","275-VK","2018/03/16 19:27:05","新北市瑞芳區民權街3-1號","121.809378333333","25.1083533333333","6501200","瑞芳區"
"224005","271-BY","2018/03/16 19:29:33","新北市瑞芳區傑魚坑路128號","121.791708333333","25.110315","6501200","瑞芳區"
"227011","642-TC","2018/03/16 19:29:47","新北市雙溪區新基里新基北街43號","121.86812","25.039735","6502500","雙溪區"
"227003","400-TW","2018/03/16 19:29:44","新北市雙溪區雙溪里光復街20號","121.865146666667","25.03545","6502500","雙溪區"
"253005","032-BX","2018/03/16 19:29:46","新北市石門區小坑9號","121.594375","25.2884366666667","6502200","石門區"
"222001","KEA-2212","2018/03/16 19:29:36","新北市深坑區北深路二段123巷17號","121.616548333333","25.0030283333333","6501800","深坑區"
"208002","KEA-2872","2018/03/16 19:29:29","新北市金山區仁愛路87巷1號","121.634608333333","25.2215533333333","6502700","金山區"
"208003","665-BX","2018/03/16 19:29:42","新北市金山區中山路263巷14號","121.636401666667","25.221585","6502700","金山區"
"208001","761-BX","2018/03/16 19:29:39","新北市金山區金包里街129號","121.636958333333","25.222535","6502700","金山區"
"251001","011-UM","2018/03/16 19:29:44","新北市淡水區民權路141號","121.459983333333","25.1364516666667","6501000","淡水區"
"251010","413-VK","2018/03/16 19:29:37","新北市淡水區中正路二段214號","121.426458333333","25.190015","6501000","淡水區"
"251005","443-VK","2018/03/16 19:29:48","新北市淡水區水源街一段71巷18號","121.444375","25.1729416666667","6501000","淡水區"
"251006","561-UM","2018/03/16 19:29:43","新北市淡水區大義街28-1號","121.442823333333","25.1785633333333","6501000","淡水區"
"251009","575-R6","2018/03/16 19:29:44","新北市淡水區大忠街5巷9號","121.443416666667","25.1766166666667","6501000","淡水區"
"251007","577-R6","2018/03/16 19:29:39","新北市淡水區八勢一街7-19號","121.460685","25.15776","6501000","淡水區"
"251011","650-BX","2018/03/16 19:29:39","新北市淡水區中正東路二段161巷2弄1號","121.460768333333","25.1455016666667","6501000","淡水區"
"251003","673-BX","2018/03/16 19:29:28","新北市淡水區中山北路二段200號","121.444298333333","25.1868783333333","6501000","淡水區"
"207003","550-UM","2018/03/16 19:29:32","新北市萬里區大鵬里萬里加投249號","121.644283333333","25.2155866666667","6502800","萬里區"
"207004","225-TW","2018/03/16 19:29:36","新北市萬里區萬里里瑪鋉路121號","121.688998333333","25.1781066666667","6502800","萬里區"
"252002","178-VK","2018/03/16 19:29:11","新北市三芝區淡金路二段18-1號","121.50268","25.2595316666667","6502100","三芝區"
"252001","292-VK","2018/03/16 19:29:41","新北市三芝區長勤街63-5號","121.500048333333","25.2559833333333","6502100","三芝區"
"237004","KEA-2597","2018/03/16 19:29:29","新北市三峽區有木205號","121.439043333333","24.8520233333333","6500900","三峽區"
"237007","153-BY","2018/03/16 19:29:42","新北市三峽區二鬮路136巷20弄83號","121.35808","24.9090783333333","6500900","三峽區"
"237009","210-TH","2018/03/16 19:29:44","新北市三峽區民權街229號","121.36783","24.92798","6500900","三峽區"
"237013","252-BX","2018/03/16 19:29:35","新北市三峽區介壽路一段318巷9號","121.380956666667","24.9296683333333","6500900","三峽區"
"237012","275-BY","2018/03/16 19:29:44","新北市三峽區三樹路98巷169號","121.384483333333","24.9394066666667","6500900","三峽區"
"237008","302-VK","2018/03/16 19:29:43","新北市三峽區永安街202號","121.373131666667","24.927345","6500900","三峽區"
"237014","433-BY","2018/03/16 19:29:32","新北市三峽區嘉添1-1號","121.368498333333","24.9119933333333","6500900","三峽區"
"237006","5529-G3","2018/03/16 19:29:33","新北市三峽區中正路一段336巷15弄2號","121.370055","24.9249816666667","6500900","三峽區"
"237005","AKY-6261","2018/03/16 19:29:35","新北市三峽區中山路184巷19號","121.364358333333","24.9374133333333","6500900","三峽區"
"236072","105-UM","2018/03/16 19:29:27","新北市土城區學府路一段192號","121.45318","24.98603","6501300","土城區"
"236079","166-UM","2018/03/16 19:29:32","新北市土城區中州路27巷64-1號","121.41279","24.9566383333333","6501300","土城區"
"236031","253-BX","2018/03/16 19:29:27","新北市土城區中央路一段320號","121.443031666667","24.9817533333333","6501300","土城區"
"236026","269-VK","2018/03/16 19:29:34","新北市土城區中央路二段61巷26號","121.4433","24.978815","6501300","土城區"
"236022","401-BY","2018/03/16 19:29:42","新北市土城區峰廷街3號","121.469041666667","24.9873783333333","6501300","土城區"
"236059","912-UM","2018/03/16 19:29:48","新北市土城區中央路二段274號","121.441196666667","24.97424","6501300","土城區"
"236050","913-UM","2018/03/16 19:29:44","新北市土城區清水路201號","121.45997","24.9817","6501300","土城區"
"242023","362-BY","2018/03/16 19:29:44","新北市新莊區新泰路255巷83號","121.442416666667","25.0388366666667","6500500","新莊區"
"242032","135-UY","2018/03/16 19:29:30","新北市新莊區新泰路225巷24號","121.445178333333","25.0391033333333","6500500","新莊區"
"242013","351-TH","2018/03/16 19:29:31","新北市新莊區新泰路500號","121.44243","25.0459533333333","6500500","新莊區"
"238015","755-BX","2018/03/16 19:29:33","新北市樹林區復興路189號","121.420781666667","24.9919816666667","6500700","樹林區"
"238023","601-UM","2018/03/16 19:29:37","新北市樹林區三福街44號","121.40785","25.0164566666667","6500700","樹林區"
"238018","571-TV","2018/03/16 19:29:33","新北市樹林區八德街367-1號","121.416881666667","24.9718716666667","6500700","樹林區"
"238024","5061-A6","2018/03/16 19:29:37","新北市樹林區中山路三段34號","121.395211666667","24.9727666666667","6500700","樹林區"
"238021","KEA-2539","2018/03/16 19:29:36","新北市三峽區大義路388號","121.377206666667","24.9486666666667","6500700","樹林區"
"238025","303-VK","2018/03/16 19:29:30","新北市樹林區東興街2號","121.408921666667","24.9801883333333","6500700","樹林區"
"238017","283-BY","2018/03/16 19:29:42","新北市樹林區保安街二段111號","121.415235","25.001265","6500700","樹林區"
"238014","282-BY","2018/03/16 19:29:33","新北市樹林區保安二街64巷19號","121.424426666667","24.996555","6500700","樹林區"
"238020","268-VK","2018/03/16 19:29:48","新北市樹林區俊保路60號","121.425031666667","25.0096233333333","6500700","樹林區"
"238026","172-UY","2018/03/16 19:29:41","新北市樹林區佳園路二段30號","121.391583333333","24.962555","6500700","樹林區"
"238016","169-UY","2018/03/16 19:29:47","新北市樹林區中山路二段64號","121.415978333333","24.9843433333333","6500700","樹林區"
"239007","AAC-297","2018/03/16 19:29:28","新北市鶯歌區大湖路326巷46號","121.345918333333","24.9692833333333","6500800","鶯歌區"
"239006","891-R6","2018/03/16 19:29:45","新北市鶯歌區文化路145巷4號","121.356656666667","24.9540383333333","6500800","鶯歌區"
"239001","417-VK","2018/03/16 19:29:42","新北市鶯歌區國華路37號","121.342875","24.9554916666667","6500800","鶯歌區"
"239003","360-BY","2018/03/16 19:29:31","新北市鶯歌區中正一路478號","121.366723333333","24.95695","6500800","鶯歌區"
"239002","359-BY","2018/03/16 19:29:46","新北市鶯歌區國華路1-1號","121.34322","24.9569383333333","6500800","鶯歌區"
"221008","489-VK","2018/03/16 19:29:42","新北市汐止區康寧街145號","121.622058333333","25.0666733333333","6501100","汐止區"
"221036","130-UY","2018/03/16 19:29:31","新北市汐止區康寧街901號","121.651716666667","25.07494","6501100","汐止區"
"221010","269-BY","2018/03/16 19:29:39","新北市汐止區連峰街5巷1號","121.646628333333","25.076785","6501100","汐止區"
"221012","278-VK","2018/03/16 19:29:32","新北市汐止區保長路147巷1號","121.67593","25.0772316666667","6501100","汐止區"
"221023","279-VK","2018/03/16 19:29:32","新北市汐止區康寧街613號","121.636241666667","25.0710533333333","6501100","汐止區"
"221027","281-BY","2018/03/16 19:29:37","新北市汐止區忠孝東路9號","121.658271666667","25.0660066666667","6501100","汐止區"
"221029","298-VK","2018/03/16 19:29:29","新北市汐止區康寧街901號","121.651571666667","25.0749216666667","6501100","汐止區"
"221031","353-TW","2018/03/16 19:29:30","新北市汐止區康寧街901號","121.650808333333","25.075255","6501100","汐止區"
"221025","623-UM","2018/03/16 19:29:43","新北市汐止區新台五路二段10號","121.660296666667","25.0650616666667","6501100","汐止區"
"221038","646-BX","2018/03/16 19:29:29","新北市汐止區汐萬路一段37號","121.655546666667","25.068285","6501100","汐止區"
"221033","647-BX","2018/03/16 19:29:42","新北市汐止區南勢街3號","121.627066666667","25.03741","6501100","汐止區"
"221002","707-TV","2018/03/16 19:29:43","新北市汐止區大同路一段337巷17弄1號","121.63731","25.0599233333333","6501100","汐止區"
"220079","145-BY","2018/03/16 19:29:42","新北市板橋區復興街44號","121.458471666667","25.017465","6500100","板橋區"
"220080","200-UY","2018/03/16 19:29:43","新北市板橋區大觀路二段37巷154號","121.449216666667","25.0010816666667","6500100","板橋區"
"220106","KEA-2550","2018/03/16 19:29:37","新北市板橋區長江路三段58號","121.47359","25.0339783333333","6500100","板橋區"
"220082","610-BX","2018/03/16 19:29:41","新北市板橋區大觀路三段133巷12號","121.433251666667","24.9939083333333","6500100","板橋區"
"220101","245-BX","2018/03/16 19:29:42","新北市板橋區縣民大道三段133巷10號","121.477478333333","25.0235366666667","6500100","板橋區"
"220056","276-BY","2018/03/16 19:29:47","新北市板橋區信義路1巷26弄33號","121.458716666667","24.9967116666667","6500100","板橋區"
"220072","277-BY","2018/03/16 19:29:31","新北市板橋區篤行路二段136號","121.429798333333","24.9884883333333","6500100","板橋區"
"220094","280-UM","2018/03/16 19:29:45","新北市板橋區吳鳳路50巷77號","121.469978333333","25.0303583333333","6500100","板橋區"
"220064","282-UM","2018/03/16 19:29:26","新北市板橋區中山路一段26號","121.460506666667","25.0083216666667","6500100","板橋區"
"220071","283-VK","2018/03/16 19:29:37","新北市板橋區四川路一段283巷21號","121.459478333333","25.00071","6500100","板橋區"
"220053","285-VK","2018/03/16 19:29:41","新北市板橋區永豐街205號","121.476548333333","25.02102","6500100","板橋區"
"220083","286-VK","2018/03/16 19:29:31","新北市板橋區龍興街71巷18號","121.442961666667","25.0022083333333","6500100","板橋區"
"220081","287-VK","2018/03/16 19:29:28","新北市板橋區大觀路一段75巷37號","121.448908333333","25.0041383333333","6500100","板橋區"
"220090","288-VK","2018/03/16 19:29:39","新北市板橋區裕民街92號","121.460298333333","25.0280483333333","6500100","板橋區"
"220061","293-UM","2018/03/16 19:29:36","新北市板橋區中山路二段253號","121.477481666667","25.0176483333333","6500100","板橋區"
"220062","295-UM","2018/03/16 19:29:39","新北市板橋區三民路二段153巷4弄2號","121.479596666667","25.0146583333333","6500100","板橋區"
"220084","296-UM","2018/03/16 19:29:39","新北市板橋區滿平街84巷120弄27號","121.426248333333","24.98549","6500100","板橋區"
"220075","303-R5","2018/03/16 19:29:42","新北市板橋區中正路305巷20號","121.454648333333","25.0190816666667","6500100","板橋區"
"220092","307-R5","2018/03/16 19:29:31","新北市板橋區光武街2巷20號","121.468563333333","25.025265","6500100","板橋區"
"220098","317-R6","2018/03/16 19:29:42","新北市板橋區四維路266巷5弄16號","121.463615","25.0290033333333","6500100","板橋區"
"220089","487-VK","2018/03/16 19:29:41","新北市板橋區文化路一段115號","121.461735","25.014875","6500100","板橋區"
"220088","491-VK","2018/03/16 19:29:32","新北市板橋區文化路二段318號","121.472663333333","25.0296733333333","6500100","板橋區"
"220035","560-BX","2018/03/16 19:29:32","新北市板橋區中正路413巷2弄2號","121.454013333333","25.0226233333333","6500100","板橋區"
"220103","561-BX","2018/03/16 19:29:30","新北市板橋區文化路一段266號","121.46726","25.0205816666667","6500100","板橋區"
"220063","609-BX","2018/03/16 19:29:40","新北市板橋區三民路一段31巷87弄13號","121.481443333333","25.0234166666667","6500100","板橋區"
"220091","637-BX","2018/03/16 19:29:48","新北市板橋區文聖街135巷25號","121.478991666667","25.0290183333333","6500100","板橋區"
"220057","686-BX","2018/03/16 19:29:34","新北市中和區和平路250號","121.464701666667","24.9968716666667","6500100","板橋區"
"220077","687-BX","2018/03/16 19:29:38","新北市板橋區僑中二街124巷2號","121.445373333333","25.0053083333333","6500100","板橋區"
"220093","689-BX","2018/03/16 19:29:36","新北市板橋區新海路135巷1號","121.460773333333","25.0233833333333","6500100","板橋區"
"220054","741-BX","2018/03/16 19:29:28","新北市板橋區光明街4號","121.459966666667","25.0024466666667","6500100","板橋區"
"220102","KEA-2699","2018/03/16 19:29:34","新北市板橋區雙十路二段130巷2弄23號","121.474703333333","25.0287916666667","6500100","板橋區"
"220055","827-TW","2018/03/16 19:29:30","新北市板橋區重慶路278巷16號","121.462431666667","24.9996316666667","6500100","板橋區"
"220067","830-TW","2018/03/16 19:29:30","新北市板橋區漢生東路313巷21號","121.472486666667","25.0084483333333","6500100","板橋區"
"220096","831-TW","2018/03/16 19:29:44","新北市板橋區大同街21巷5號","121.47727","25.027055","6500100","板橋區"
"220074","895-R6","2018/03/16 19:29:31","新北市板橋區民權路182號","121.459163333333","25.0134283333333","6500100","板橋區"
"220073","985-R7","2018/03/16 19:29:38","新北市板橋區瑞安街4號","121.454618333333","25.0233633333333","6500100","板橋區"
"220097","AAC-210","2018/03/16 19:29:44","新北市板橋區幸福路32巷4弄15號","121.46144","25.021685","6500100","板橋區"
"220070","AAC-253","2018/03/16 19:29:43","新北市板橋區民族路168號","121.467011666667","25.0080233333333","6500100","板橋區"
