"lineid","car","time","location","longitude","latitude","cityid","cityname"
"234064","337-UY","2018/03/16 20:45:36","新北市板橋區文化路二段656號","121.480471666667","25.0413283333333","6500400","永和區"
"234074","AAC-211","2018/03/16 20:49:42","新北市永和區環河東路二段30號","121.522545","25.0127066666667","6500400","永和區"
"222003","436-BY","2018/03/16 20:49:38","新北市深坑區文山路三段48-1號","121.609985","24.99851","6501800","深坑區"
"222002","659-BX","2018/03/16 20:49:45","新北市深坑區北深路三段93巷47號","121.604368333333","25.0004583333333","6501800","深坑區"
"231041","002-UM","2018/03/16 20:49:49","台北市文山區景文街146巷36號","121.532226666667","24.9906516666667","6500600","新店區"
"231059","046-UY","2018/03/16 20:49:40","新北市新店區僑信路120巷40號","121.499293333333","24.9459583333333","6500600","新店區"
"231061","047-UY","2018/03/16 20:49:36","新北市新店區新和街97號","121.521145","24.9866","6500600","新店區"
"231060","106-UY","2018/03/16 20:49:47","新北市新店區安康路三段635-1號","121.470923333333","24.9398333333333","6500600","新店區"
"231051","107-UY","2018/03/16 20:49:30","新北市新店區民生路156巷53號","121.527856666667","24.9815983333333","6500600","新店區"
"231048","108-UY","2018/03/16 20:49:39","新北市新店區寶元路一段109號","121.545758333333","24.9831233333333","6500600","新店區"
"231053","187-VK","2018/03/16 20:49:35","新北市新店區新烏路一段193號","121.548013333333","24.9313216666667","6500600","新店區"
"231050","KEA-2219","2018/03/16 20:49:45","新北市新店區三民路117巷1弄2號","121.53463","24.9717583333333","6500600","新店區"
"231057","256-BX","2018/03/16 20:49:41","新北市新店區新烏路一段65號","121.546188333333","24.9450316666667","6500600","新店區"
"231054","AAD-862","2018/03/16 20:49:33","新北市新店區中正路75巷61號","121.54343","24.9694116666667","6500600","新店區"
"231058","3712-VJ","2018/03/16 20:49:41","新北市新店區中央路133巷15弄62號","121.532156666667","24.97456","6500600","新店區"
"231056","3713-VJ","2018/03/16 20:49:45","新北市新店區中央六街57號","121.527926666667","24.9758833333333","6500600","新店區"
"231067","4772-VM","2018/03/16 20:49:34","新北市新店區安華路28-1號","121.519713333333","24.96079","6500600","新店區"
"231065","512-UM","2018/03/16 20:49:41","新北市新店區安祥路69巷17號","121.481918333333","24.9613416666667","6500600","新店區"
"231049","513-UM","2018/03/16 20:49:35","新北市新店區安康路二段52號","121.515196666667","24.9637333333333","6500600","新店區"
"231064","515-UM","2018/03/16 20:49:45","新北市新店區安民街365巷10弄20號","121.516023333333","24.976045","6500600","新店區"
"231040","619-UM","2018/03/16 20:49:29","新北市新店區中正路272號","121.53896","24.973625","6500600","新店區"
"231042","641-BX","2018/03/16 20:49:38","新北市新店區寶興路60巷4號","121.549811666667","24.97182","6500600","新店區"
"231063","645-TV","2018/03/16 20:49:42","新北市新店區如意街8號","121.49473","24.9482516666667","6500600","新店區"
"231068","718-UY","2018/03/16 20:49:43","新北市新店區寶元路二段16巷1號","121.54609","24.9823166666667","6500600","新店區"
"231062","720-UM","2018/03/16 20:49:38","新北市新店區裕合街25號","121.489236666667","24.9499483333333","6500600","新店區"
"231044","897-TW","2018/03/16 20:49:33","新北市新店區民族路161號","121.537608333333","24.97673","6500600","新店區"
"231043","899-TW","2018/03/16 20:49:28","新北市新店區建國路85號","121.54047","24.9764433333333","6500600","新店區"
"231066","AKT-0513","2018/03/16 20:49:31","新北市新店區安民街166號","121.516835","24.9706166666667","6500600","新店區"
"241011","013-R5","2018/03/16 20:49:44","新北市三重區龍濱路249號","121.5015","25.0724366666667","6500200","三重區"
"241028","022-UY","2018/03/16 20:49:41","新北市三重區中正南路41巷1號","121.493878333333","25.05989","6500200","三重區"
"241008","059-VK","2018/03/16 20:49:35","新北市三重區永福街72巷11號","121.479411666667","25.0767766666667","6500200","三重區"
"241009","060-VK","2018/03/16 20:49:49","新北市三重區三和路四段388-2號","121.4821","25.079145","6500200","三重區"
"241031","061-VK","2018/03/16 20:49:36","新北市三重區重陽路一段113巷2弄2號","121.487525","25.05991","6500200","三重區"
"241015","062-VK","2018/03/16 20:49:29","新北市三重區自強路一段10號","121.498988333333","25.0682566666667","6500200","三重區"
"241017","063-VK","2018/03/16 20:49:47","新北市三重區自強路一段179號","121.492393333333","25.0677433333333","6500200","三重區"
"241024","065-VK","2018/03/16 20:49:29","新北市三重區大勇街51號","121.481278333333","25.07194","6500200","三重區"
"241026","066-VK","2018/03/16 20:49:36","新北市三重區文化南路3號","121.500078333333","25.0624283333333","6500200","三重區"
"241003","091-VK","2018/03/16 20:49:35","新北市三重區五華街141巷58號","121.493461666667","25.08657","6500200","三重區"
"241002","156-TC","2018/03/16 20:49:33","新北市三重區仁義街167巷38弄2號","121.498703333333","25.08271","6500200","三重區"
"241005","262-UM","2018/03/16 20:49:37","新北市三重區五華街145號","121.490966666667","25.0847266666667","6500200","三重區"
"241016","265-UM","2018/03/16 20:49:34","新北市三重區自強路一段222號","121.493845","25.0667","6500200","三重區"
"241022","267-UM","2018/03/16 20:49:35","新北市三重區過圳街27-5號","121.48793","25.0623633333333","6500200","三重區"
"241018","268-UM","2018/03/16 20:49:40","新北市三重區自強路一段155-1號","121.493676666667","25.0672133333333","6500200","三重區"
"241032","269-UM","2018/03/16 20:49:42","新北市三重區重陽路一段120巷46號","121.485081666667","25.0601366666667","6500200","三重區"
"241013","270-UM","2018/03/16 20:49:40","新北市三重區仁賢街12-1號","121.495636666667","25.0748516666667","6500200","三重區"
"241025","271-UM","2018/03/16 20:49:33","新北市三重區新北大道一段148號","121.484258333333","25.06185","6500200","三重區"
"241007","398-BY","2018/03/16 20:49:50","新北市三重區三和路四段143-1號","121.484516666667","25.0783616666667","6500200","三重區"
"241020","413-TH","2018/03/16 20:49:32","新北市三重區忠孝路一段70號","121.489545","25.0720366666667","6500200","三重區"
"241004","475-VK","2018/03/16 20:49:38","新北市三重區分子尾街50號","121.489265","25.0814383333333","6500200","三重區"
"241001","478-VK","2018/03/16 20:49:30","新北市三重區自強路三段80號","121.487108333333","25.07438","6500200","三重區"
"241030","480-VK","2018/03/16 20:49:32","新北市三重區昌隆街26號","121.492028333333","25.0522116666667","6500200","三重區"
"241014","543-UM","2018/03/16 20:49:42","新北市三重區長壽街120巷60號","121.501775","25.0703483333333","6500200","三重區"
"241023","545-UM","2018/03/16 20:49:30","新北市三重區忠孝路三段84巷1號","121.480256666667","25.064465","6500200","三重區"
"241019","KEA-2593","2018/03/16 20:49:28","新北市三重區三張街43號","121.49138","25.07113","6500200","三重區"
"241006","AAD-863","2018/03/16 20:49:46","新北市三重區車路頭街139巷12號","121.484266666667","25.0762333333333","6500200","三重區"
"241035","743-BX","2018/03/16 20:49:47","新北市三重區三和路三段18號","121.496721666667","25.0703116666667","6500200","三重區"
"241012","941-UM","2018/03/16 20:49:45","新北市三重區仁信街27號","121.501271666667","25.0755533333333","6500200","三重區"
"241029","942-UM","2018/03/16 20:49:41","新北市三重區重安街14號","121.490313333333","25.0582066666667","6500200","三重區"
"241033","AAC-255","2018/03/16 20:49:46","新北市三重區光復路二段1號","121.472428333333","25.0532833333333","6500200","三重區"
"235061","378-QA","2018/03/16 20:49:41","新北市中和區員山路36巷13號","121.48422","24.9906966666667","6500300","中和區"
"235069","4980-A6","2018/03/16 20:49:42","新北市中和區新生街182號","121.483773333333","24.9998","6500300","中和區"
"235026","800-TS","2018/03/16 20:29:00","新北市中和區員山路36巷16-3號","121.48476","24.99175","6500300","中和區"
"247024","893-R6","2018/03/16 20:49:45","新北市蘆洲區長樂路140號","121.462075","25.0902","6501400","蘆洲區"
"247014","546-UM","2018/03/16 20:49:35","新北市蘆洲區三民路97號","121.473561666667","25.0852183333333","6501400","蘆洲區"
"247022","500-BY","2018/03/16 20:49:46","新北市蘆洲區民義街9巷2號","121.47125","25.0887483333333","6501400","蘆洲區"
"247010","341-TH","2018/03/16 20:49:36","新北市蘆洲區鷺江街93號","121.47685","25.0838483333333","6501400","蘆洲區"
"247012","339-TH","2018/03/16 20:49:43","新北市蘆洲區集賢路224巷19號","121.481683333333","25.0868583333333","6501400","蘆洲區"
"247004","337-TH","2018/03/16 20:49:35","新北市蘆洲區長安街101號","121.46158","25.0807866666667","6501400","蘆洲區"
"247006","336-TH","2018/03/16 20:49:44","新北市蘆洲區永安南路二段16巷8號","121.467796666667","25.0772883333333","6501400","蘆洲區"
"247020","053-VK","2018/03/16 20:49:33","新北市蘆洲區仁愛街64號","121.471453333333","25.093875","6501400","蘆洲區"
"247016","007-UY","2018/03/16 20:49:45","新北市蘆洲區中山二路144號","121.471351666667","25.0813416666667","6501400","蘆洲區"
"247002","002-UY","2018/03/16 20:49:30","新北市蘆洲區長安街222號","121.4582","25.085355","6501400","蘆洲區"
"222001","KEA-2212","2018/03/16 20:49:36","新北市深坑區北深路三段133號","121.603956666667","25.0024683333333","6501800","深坑區"
"251001","011-UM","2018/03/16 20:49:44","新北市淡水區淡金路218號","121.460513333333","25.1672016666667","6501000","淡水區"
"251002","012-UM","2018/03/16 20:49:30","新北市淡水區英專路36號","121.445593333333","25.1701583333333","6501000","淡水區"
"251010","413-VK","2018/03/16 20:49:37","新北市淡水區沙崙路141-1號","121.42335","25.1829216666667","6501000","淡水區"
"251012","441-VK","2018/03/16 20:49:46","新北市淡水區淡金路四段526-5號","121.451983333333","25.2263483333333","6501000","淡水區"
"251005","443-VK","2018/03/16 20:49:47","新北市淡水區水源街二段160-10號","121.454513333333","25.17513","6501000","淡水區"
"251011","650-BX","2018/03/16 20:49:39","新北市淡水區新民街一段13-1號","121.433075","25.1845666666667","6501000","淡水區"
"251003","673-BX","2018/03/16 20:49:48","新北市淡水區中山北路一段247巷118號","121.441525","25.1795183333333","6501000","淡水區"
"252002","178-VK","2018/03/16 20:49:31","新北市三芝區淡金路二段91號","121.50409","25.26086","6502100","三芝區"
"242029","705-TV","2018/03/16 20:49:34","新北市新莊區化成路163號","121.465718333333","25.0493866666667","6500500","新莊區"
"242027","615-BX","2018/03/16 20:49:36","新北市三重區後埔街82-1號","121.478441666667","25.0464366666667","6500500","新莊區"
"242041","566-BX","2018/03/16 20:49:47","新北市新莊區天祥街10號","121.417291666667","25.0270583333333","6500500","新莊區"
"242050","441-UM","2018/03/16 20:49:32","新北市新莊區新樹路206巷4號","121.433601666667","25.0203966666667","6500500","新莊區"
"242023","362-BY","2018/03/16 20:49:44","新北市三重區光復路二段25號","121.472161666667","25.0549633333333","6500500","新莊區"
"242009","132-UY","2018/03/16 20:49:43","新北市新莊區思源路123號","121.459805","25.042735","6500500","新莊區"
"242048","172-VK","2018/03/16 20:49:30","新北市五股區新五路二段119-10號","121.438408333333","25.078565","6500500","新莊區"
"242005","176-VK","2018/03/16 20:48:07","新北市五股區中直路21號","121.421761666667","25.1117483333333","6500500","新莊區"
"242013","351-TH","2018/03/16 20:49:31","新北市五股區成泰路三段2巷6號","121.442141666667","25.0845683333333","6500500","新莊區"
"221036","130-UY","2018/03/16 20:49:31","新北市汐止區新台五路二段71號","121.66396","25.0667266666667","6501100","汐止區"
"221027","281-BY","2018/03/16 20:49:37","新北市汐止區大同路二段364號","121.657443333333","25.06711","6501100","汐止區"
"221029","298-VK","2018/03/16 20:49:29","新北市汐止區汐萬路一段312號","121.6505","25.0754","6501100","汐止區"
"221021","299-VK","2018/03/16 20:49:45","新北市汐止區大同路二段271號","121.652291666667","25.0670083333333","6501100","汐止區"
"221035","622-UM","2018/03/16 20:49:34","新北市汐止區康寧街901號","121.650916666667","25.0752383333333","6501100","汐止區"
"221038","646-BX","2018/03/16 20:49:29","新北市汐止區汐萬路一段256巷3號","121.652085","25.0748133333333","6501100","汐止區"
"221033","647-BX","2018/03/16 20:49:42","新北市汐止區合順街18巷8弄5號","121.620301666667","25.04188","6501100","汐止區"
"221018","753-BX","2018/03/16 20:49:38","新北市汐止區汐萬路一段256巷1號","121.651751666667","25.0748866666667","6501100","汐止區"
"220097","AAC-210","2018/03/16 20:49:35","新北市八里區下罟子30-35號","121.367915","25.135185","6500100","板橋區"
