"lineid","car","time","location","longitude","latitude","cityid","cityname"
"231059","046-UY","2018/03/16 21:09:40","新北市新店區僑義路19號","121.500351666667","24.9513383333333","6500600","新店區"
"231061","047-UY","2018/03/16 21:09:36","新北市新店區永平街51巷1號","121.516158333333","24.9840516666667","6500600","新店區"
"231060","106-UY","2018/03/16 21:09:47","新北市新店區薏仁坑路自強巷6號","121.496678333333","24.9584566666667","6500600","新店區"
"231051","107-UY","2018/03/16 21:09:30","新北市新店區中正路618巷7弄14號","121.53462","24.9894733333333","6500600","新店區"
"231048","108-UY","2018/03/16 21:09:39","新北市新店區民族路105號","121.538353333333","24.97733","6500600","新店區"
"231053","187-VK","2018/03/16 21:09:35","新北市新店區薏仁坑路6號","121.500513333333","24.9580516666667","6500600","新店區"
"231050","KEA-2219","2018/03/16 21:08:25","新北市新店區中華路83巷4弄20號","121.53831","24.9689333333333","6500600","新店區"
"231054","AAD-862","2018/03/16 21:09:33","新北市新店區大新街7巷13號","121.543885","24.9681216666667","6500600","新店區"
"231067","4772-VM","2018/03/16 21:09:34","新北市新店區薏仁坑路自強巷6號","121.49677","24.9584933333333","6500600","新店區"
"231065","512-UM","2018/03/16 21:09:43","新北市新店區安祥路69巷89弄1號","121.483528333333","24.9592916666667","6500600","新店區"
"231040","619-UM","2018/03/16 21:09:29","新北市新店區北新路一段353號","121.541911666667","24.9695583333333","6500600","新店區"
"231063","645-TV","2018/03/16 21:09:37","新北市新店區玫瑰路58巷2號","121.49545","24.9466466666667","6500600","新店區"
"241011","013-R5","2018/03/16 21:09:46","新北市三重區龍濱路191號","121.502008333333","25.0710683333333","6500200","三重區"
"241028","022-UY","2018/03/16 21:09:41","新北市三重區正義南路54號","121.498295","25.060705","6500200","三重區"
"241008","059-VK","2018/03/16 21:09:35","新北市三重區長壽街1號","121.498185","25.067555","6500200","三重區"
"241009","060-VK","2018/03/16 21:09:29","新北市三重區忠孝路二段122號","121.483018333333","25.0688083333333","6500200","三重區"
"241031","061-VK","2018/03/16 21:09:36","新北市三重區重新路五段328號","121.476966666667","25.0479716666667","6500200","三重區"
"241015","062-VK","2018/03/16 21:09:49","新北市三重區長元街67號","121.502863333333","25.0665983333333","6500200","三重區"
"241017","063-VK","2018/03/16 21:09:47","新北市三重區國隆路30號","121.49232","25.064395","6500200","三重區"
"241024","065-VK","2018/03/16 21:09:29","新北市三重區大勇街49號","121.481328333333","25.072005","6500200","三重區"
"241026","066-VK","2018/03/16 21:09:36","新北市三重區中央南路141巷32-2號","121.500486666667","25.0587533333333","6500200","三重區"
"241003","091-VK","2018/03/16 21:09:36","新北市三重區仁義街248號","121.493943333333","25.08588","6500200","三重區"
"241002","156-TC","2018/03/16 21:09:33","新北市三重區五華街14號","121.494926666667","25.0802583333333","6500200","三重區"
"241005","262-UM","2018/03/16 21:09:37","新北市三重區三信路182號","121.488028333333","25.08618","6500200","三重區"
"241016","265-UM","2018/03/16 21:09:34","新北市三重區信義西街138號","121.495353333333","25.064405","6500200","三重區"
"241022","267-UM","2018/03/16 21:09:35","新北市三重區中正北路64巷19號","121.486056666667","25.06387","6500200","三重區"
"241018","268-UM","2018/03/16 21:09:40","新北市三重區正義北路332-1號","121.494421666667","25.0704783333333","6500200","三重區"
"241032","269-UM","2018/03/16 21:09:42","新北市三重區新北大道二段65號","121.46935","25.0616083333333","6500200","三重區"
"241013","270-UM","2018/03/16 21:09:43","新北市三重區仁愛街139號","121.49511","25.0751066666667","6500200","三重區"
"241025","271-UM","2018/03/16 21:09:33","新北市三重區中正北路208巷10弄4號","121.482378333333","25.0668783333333","6500200","三重區"
"241007","398-BY","2018/03/16 21:09:50","新北市三重區三和路四段145巷85號","121.486431666667","25.0787","6500200","三重區"
"241020","413-TH","2018/03/16 21:09:31","新北市三重區忠孝路二段35號","121.485928333333","25.0710516666667","6500200","三重區"
"241004","475-VK","2018/03/16 21:09:38","新北市三重區仁愛街423-1號","121.490378333333","25.0814683333333","6500200","三重區"
"241001","478-VK","2018/03/16 21:09:50","新北市三重區福隆路10號","121.490135","25.0773716666667","6500200","三重區"
"241030","480-VK","2018/03/16 21:06:52","新北市三重區重新路四段121號","121.482915","25.0510266666667","6500200","三重區"
"241014","543-UM","2018/03/16 21:09:42","新北市三重區三和路二段37-8號","121.501351666667","25.06749","6500200","三重區"
"241023","545-UM","2018/03/16 21:09:50","新北市三重區忠孝路三段50巷41弄64號","121.482418333333","25.0638483333333","6500200","三重區"
"241019","KEA-2593","2018/03/16 21:09:28","新北市三重區三張街104號","121.487885","25.06991","6500200","三重區"
"241006","AAD-863","2018/03/16 21:09:46","新北市三重區明志街135號","121.489185","25.0632233333333","6500200","三重區"
"241012","941-UM","2018/03/16 21:09:45","新北市三重區河邊北街238-1號","121.501708333333","25.075635","6500200","三重區"
"241029","942-UM","2018/03/16 21:09:41","新北市三重區正義南路107號","121.49821","25.05855","6500200","三重區"
"241033","AAC-255","2018/03/16 21:09:46","新北市三重區重光街97號","121.46672","25.064785","6500200","三重區"
"247024","893-R6","2018/03/16 21:09:45","新北市蘆洲區長興路50巷1號","121.463766666667","25.0837916666667","6501400","蘆洲區"
"247014","546-UM","2018/03/16 21:09:35","新北市蘆洲區中央路155號","121.472655","25.0846983333333","6501400","蘆洲區"
"247022","500-BY","2018/03/16 21:09:45","新北市蘆洲區三民路251號","121.468321666667","25.089355","6501400","蘆洲區"
"247010","341-TH","2018/03/16 21:09:36","新北市蘆洲區鷺江街71號","121.477176666667","25.08309","6501400","蘆洲區"
"247012","339-TH","2018/03/16 21:09:43","新北市蘆洲區民權路6-1號","121.476863333333","25.085665","6501400","蘆洲區"
"247004","337-TH","2018/03/16 21:09:35","新北市蘆洲區永安南路二段268號","121.458466666667","25.0807933333333","6501400","蘆洲區"
"247006","336-TH","2018/03/16 21:09:44","新北市蘆洲區永安南路二段16巷18號","121.468086666667","25.0777366666667","6501400","蘆洲區"
"247018","057-VK","2018/03/16 21:09:36","新北市蘆洲區民族路408巷8弄1號","121.474983333333","25.0917216666667","6501400","蘆洲區"
"247008","056-VK","2018/03/16 21:09:31","新北市蘆洲區民生街74號","121.472868333333","25.079045","6501400","蘆洲區"
"247020","053-VK","2018/03/16 21:09:33","新北市蘆洲區民族路436巷5號","121.472873333333","25.09284","6501400","蘆洲區"
"247016","007-UY","2018/03/16 21:09:45","新北市蘆洲區中正路185巷98號","121.465176666667","25.0837316666667","6501400","蘆洲區"
"247002","002-UY","2018/03/16 21:09:31","新北市蘆洲區永樂街38巷42弄6號","121.458788333333","25.08994","6501400","蘆洲區"
"251004","009-UM","2018/03/16 21:09:36","新北市淡水區中正東路二段143巷2弄1號","121.46087","25.1473066666667","6501000","淡水區"
"251001","011-UM","2018/03/16 21:09:44","新北市淡水區新市一路三段101巷16弄3號","121.446561666667","25.18383","6501000","淡水區"
"251002","012-UM","2018/03/16 21:09:18","新北市淡水區學府路172巷21號","121.448241666667","25.174865","6501000","淡水區"
"251010","413-VK","2018/03/16 21:09:37","新北市淡水區中正路一段63巷11號","121.422405","25.1770433333333","6501000","淡水區"
"251012","441-VK","2018/03/16 21:09:46","新北市淡水區淡金路五段57號","121.454588333333","25.233815","6501000","淡水區"
"251005","443-VK","2018/03/16 21:09:47","新北市淡水區博愛街47號","121.446673333333","25.1691366666667","6501000","淡水區"
"251009","575-R6","2018/03/16 21:09:44","新北市淡水區民權路187巷74弄9號","121.46204","25.1344183333333","6501000","淡水區"
"251011","650-BX","2018/03/16 21:09:39","新北市淡水區新民街178巷42弄8-1號","121.438458333333","25.1796466666667","6501000","淡水區"
"251003","673-BX","2018/03/16 21:09:48","新北市淡水區新春街95-3號","121.439686666667","25.1825683333333","6501000","淡水區"
"242027","615-BX","2018/03/16 21:09:36","新北市八里區中山路三段382號","121.368528333333","25.13596","6500500","新莊區"
"242048","172-VK","2018/03/16 21:09:50","新北市林口區汕頭32號","121.36631","25.1347716666667","6500500","新莊區"
