"lineid","car","time","location","longitude","latitude","cityid","cityname"
"235010","733-UM","2018/03/16 21:51:27","新北市中和區員山路36巷13號","121.484151666667","24.9908016666667","6500300","中和區"
"247010","341-TH","2018/03/16 22:09:36","新北市林口區太平里180號","121.367133333333","25.1337133333333","6501400","蘆洲區"
"251008","181-VK","2018/03/16 22:09:30","新北市淡水區學府路104號","121.449878333333","25.1718266666667","6501000","淡水區"
"251010","413-VK","2018/03/16 22:09:37","新北市淡水區沙崙路200號","121.42469","25.183975","6501000","淡水區"
"251007","577-R6","2018/03/16 22:09:39","新北市淡水區北新路180號","121.449281666667","25.1787583333333","6501000","淡水區"
"251011","650-BX","2018/03/16 22:09:39","新北市淡水區中山北路一段151號","121.44316","25.17728","6501000","淡水區"
"242027","615-BX","2018/03/16 22:09:36","新北市五股區新五路二段97號","121.437065","25.0753116666667","6500500","新莊區"
