"lineid","car","time","location","longitude","latitude","cityid","cityname"
"232004","290-BY","2018/03/17 06:49:25","新北市坪林區水聳淒坑25號","121.711528333333","24.9341816666667","6502000","坪林區"
"232016","291-BY","2018/03/17 06:49:10","新北市坪林區北宜路八段61號","121.704911666667","24.9353816666667","6502000","坪林區"
"232010","375-UM","2018/03/17 06:49:20","新北市坪林區北宜路八段558號","121.717293333333","24.90946","6502000","坪林區"
"232009","758-BX","2018/03/17 06:49:15","新北市坪林區九芎林28-1號","121.70237","24.923825","6502000","坪林區"
"244005","248-BX","2018/03/17 06:49:15","新北市林口區粉寮69號","121.404763333333","25.09081","6501700","林口區"
"223006","022-BY","2018/03/17 06:49:14","新北市石碇區八分寮55-5號","121.645135","25.01665","6501900","石碇區"
"223008","406-TH","2018/03/17 06:49:14","新北市石碇區靜安路一段75號","121.651251666667","25.00741","6501900","石碇區"
"223001","592-UM","2018/03/17 06:49:11","新北市石碇區湳窟37-1號","121.663103333333","24.99568","6501900","石碇區"
"223004","660-BX","2018/03/17 06:49:08","新北市石碇區碇坪路一段109號","121.663986666667","24.9886166666667","6501900","石碇區"
"223007","661-BX","2018/03/17 06:49:23","新北市石碇區雙溪36號","121.650225","25.0089816666667","6501900","石碇區"
"223005","677-TV","2018/03/17 06:49:26","新北市石碇區碇坪路一段107號","121.663668333333","24.98924","6501900","石碇區"
"227006","282-VK","2018/03/17 06:49:24","新北市雙溪區新基里自強路5號","121.866328333333","25.0390266666667","6502500","雙溪區"
"252007","AAC-283","2018/03/17 06:49:22","新北市三芝區埔坪里埔頭坑41號","121.504498333333","25.2644483333333","6502100","三芝區"
"236011","165-UM","2018/03/17 06:49:14","新北市土城區永平街51號","121.428031666667","24.9591433333333","6501300","土城區"
