"lineid","car","time","location","longitude","latitude","cityid","cityname"
"248005","653-BX","2018/03/17 06:59:09","新北市五股區中興路二段83巷26-6號","121.459865","25.0752316666667","6501500","五股區"
"232004","290-BY","2018/03/17 06:59:25","新北市坪林區九芎坑13號","121.735331666667","24.9512566666667","6502000","坪林區"
"232016","291-BY","2018/03/17 06:59:30","新北市坪林區仁里13號","121.68688","24.9289116666667","6502000","坪林區"
"232010","375-UM","2018/03/17 06:59:20","新北市坪林區水聳淒坑18號","121.713335","24.93197","6502000","坪林區"
"232009","758-BX","2018/03/17 06:59:15","新北市坪林區魚堀55-8號","121.706508333333","24.9285716666667","6502000","坪林區"
"244005","248-BX","2018/03/17 06:59:15","新北市林口區中山路500號","121.379408333333","25.0827916666667","6501700","林口區"
"226002","7418-A5","2018/03/17 06:59:26","新北市平溪區石底里公園街18-3號","121.733483333333","25.0256366666667","6502400","平溪區"
"223006","022-BY","2018/03/17 06:59:14","新北市石碇區新興坑19號","121.653731666667","25.0205566666667","6501900","石碇區"
"223008","406-TH","2018/03/17 06:59:16","新北市石碇區靜安路一段97號","121.661233333333","25.008795","6501900","石碇區"
"223001","592-UM","2018/03/17 06:59:11","新北市石碇區石崁39號","121.658823333333","24.9936233333333","6501900","石碇區"
"223004","660-BX","2018/03/17 06:59:08","新北市石碇區碇坪路一段52號","121.65699","24.9915416666667","6501900","石碇區"
"223007","661-BX","2018/03/17 06:59:12","新北市石碇區雙溪33-7號","121.650465","25.0079083333333","6501900","石碇區"
"223005","677-TV","2018/03/17 06:59:07","新北市石碇區碇坪路一段60號","121.657105","24.9915316666667","6501900","石碇區"
"227006","282-VK","2018/03/17 06:59:24","新北市雙溪區新基里自強路5號","121.866363333333","25.0390216666667","6502500","雙溪區"
"252004","249-BX","2018/03/17 06:59:24","新北市三芝區埔坪里埔頭坑44號","121.504646666667","25.261825","6502100","三芝區"
"252007","AAC-283","2018/03/17 06:59:22","新北市三芝區中興街一段31號","121.497385","25.25829","6502100","三芝區"
"236011","165-UM","2018/03/17 06:59:14","新北市土城區永平街51號","121.427968333333","24.95918","6501300","土城區"
