"lineid","car","time","location","longitude","latitude","cityid","cityname"
"248005","653-BX","2018/03/17 07:10:56","新北市五股區明德路12巷6號","121.43335","25.0718383333333","6501500","五股區"
"232004","290-BY","2018/03/17 07:19:25","新北市坪林區坪雙路一段117號","121.73334","24.95153","6502000","坪林區"
"232016","291-BY","2018/03/17 07:19:10","新北市坪林區金瓜寮23-5號","121.679476666667","24.9110133333333","6502000","坪林區"
"232010","375-UM","2018/03/17 07:19:20","新北市坪林區水聳淒坑17號","121.716773333333","24.9305233333333","6502000","坪林區"
"232009","758-BX","2018/03/17 07:19:15","新北市坪林區魚堀51號","121.704046666667","24.93212","6502000","坪林區"
"244005","248-BX","2018/03/17 07:19:15","新北市林口區南勢里59-18號","121.361195","25.0792416666667","6501700","林口區"
"226005","5620-A6","2018/03/17 07:17:11","新北市平溪區菁桐里二坑路18號","121.721271666667","25.0245566666667","6502400","平溪區"
"226002","7418-A5","2018/03/17 07:19:26","新北市平溪區望古里灰3號","121.760731666667","25.0314283333333","6502400","平溪區"
"226003","AGD-0702","2018/03/17 07:19:13","新北市平溪區望古里望古坑6號","121.748555","25.0307266666667","6502400","平溪區"
"223006","022-BY","2018/03/17 07:19:14","新北市石碇區靜安路一段74號","121.646921666667","25.01126","6501900","石碇區"
"223001","205-TH","2018/03/17 07:15:47","新北市石碇區烏塗窟29號","121.655688333333","24.9748816666667","6501900","石碇區"
"223008","406-TH","2018/03/17 07:19:16","新北市石碇區番子坑17號","121.673733333333","25.0012316666667","6501900","石碇區"
"223001","592-UM","2018/03/17 07:19:21","新北市石碇區烏塗窟23號","121.657078333333","24.9750883333333","6501900","石碇區"
"223004","660-BX","2018/03/17 07:19:28","新北市石碇區新興坑3號","121.654025","25.0172683333333","6501900","石碇區"
"223007","661-BX","2018/03/17 07:19:12","新北市石碇區番子坑9-2號","121.681636666667","25.0005116666667","6501900","石碇區"
"223005","677-TV","2018/03/17 07:19:07","新北市石碇區新興坑4-1號","121.653956666667","25.01667","6501900","石碇區"
"227006","282-VK","2018/03/17 07:19:24","新北市雙溪區新基里自強路5號","121.866305","25.039065","6502500","雙溪區"
"252004","249-BX","2018/03/17 07:19:24","新北市三芝區店子里龜子山4-1號","121.502433333333","25.2201083333333","6502100","三芝區"
"252007","AAC-283","2018/03/17 07:19:22","新北市三芝區錫板里海尾13-3號","121.478768333333","25.2575733333333","6502100","三芝區"
"236011","165-UM","2018/03/17 07:19:14","新北市土城區中華路一段18號","121.447691666667","24.9903233333333","6501300","土城區"
"236002","339-SR","2018/03/17 07:19:24","新北市土城區南天母路111巷20號","121.44845","24.95568","6501300","土城區"
