"lineid","car","time","location","longitude","latitude","cityid","cityname"
"248005","653-BX","2018/03/17 07:46:40","新北市五股區明德路12巷3號","121.433213333333","25.0718533333333","6501500","五股區"
"232010","375-UM","2018/03/17 07:49:00","新北市坪林區厚德岡坑8-5號","121.733148333333","24.94096","6502000","坪林區"
"244005","248-BX","2018/03/17 07:49:15","新北市林口區下福2號","121.317791666667","25.1068466666667","6501700","林口區"
"226005","5620-A6","2018/03/17 07:49:11","新北市平溪區石底里公園街18-3號","121.7333","25.0258316666667","6502400","平溪區"
"226002","7418-A5","2018/03/17 07:49:26","新北市平溪區平湖里大湖9號","121.780631666667","25.0264983333333","6502400","平溪區"
"226003","AGD-0702","2018/03/17 07:49:13","新北市平溪區望古里石灼坑13-1號","121.763986666667","25.0496533333333","6502400","平溪區"
"223006","022-BY","2018/03/17 07:49:14","新北市石碇區碇格路二段16-5號","121.640618333333","24.9539933333333","6501900","石碇區"
"223001","205-TH","2018/03/17 07:48:42","新北市石碇區蛇舌子3號","121.66497","24.9679966666667","6501900","石碇區"
"223008","406-TH","2018/03/17 07:49:16","新北市石碇區靜安路一段337號","121.698916666667","25.0147216666667","6501900","石碇區"
"223001","592-UM","2018/03/17 07:48:31","新北市石碇區蛇舌子6號","121.66493","24.9683316666667","6501900","石碇區"
"223004","660-BX","2018/03/17 07:49:28","新北市石碇區楓子林1-2號","121.642558333333","25.0087583333333","6501900","石碇區"
"223007","661-BX","2018/03/17 07:45:21","新北市石碇區靜安路一段337號","121.698793333333","25.0146433333333","6501900","石碇區"
"223005","677-TV","2018/03/17 07:49:26","新北市石碇區楓子林1-2號","121.642483333333","25.0089616666667","6501900","石碇區"
"227006","282-VK","2018/03/17 07:49:24","新北市雙溪區雙溪里太平路54號","121.864785","25.0355266666667","6502500","雙溪區"
"252004","249-BX","2018/03/17 07:49:24","新北市三芝區店子里菜公坑78號","121.50908","25.2040633333333","6502100","三芝區"
"252007","AAC-283","2018/03/17 07:49:22","新北市三芝區海景一街1號","121.4697","25.24892","6502100","三芝區"
"237001","159-UY","2018/03/17 07:49:12","新北市三峽區學成路220巷22號","121.374835","24.9405116666667","6500900","三峽區"
"236011","165-UM","2018/03/17 07:49:14","新北市土城區延吉街331號","121.465345","24.98407","6501300","土城區"
"236002","339-SR","2018/03/17 07:49:24","新北市土城區龍泉路89-2號","121.445663333333","24.942245","6501300","土城區"
"220027","461-BY","2018/03/17 07:49:25","新北市板橋區南雅南路一段73號","121.45563","25.005745","6500100","板橋區"
