"lineid","car","time","location","longitude","latitude","cityid","cityname"
"232001","290-BY","2018/12/24 06:59:10","新北市坪林區下坑子口15-1號","121.717195","24.94933","6502000","坪林區"
"232012","291-BY","2018/12/24 06:59:06","新北市坪林區黃舉皮寮4-5號","121.688371666667","24.941775","6502000","坪林區"
"232017","705-BZ","2018/12/24 06:59:05","新北市坪林區坪雙路一段67號","121.714928333333","24.94346","6502000","坪林區"
"232005","758-BX","2018/12/24 06:59:09","新北市坪林區魚堀17-8號","121.702996666667","24.9181216666667","6502000","坪林區"
"244001","248-BX","2018/12/24 06:59:16","新北市林口區寶林路106-1號","121.374106666667","25.0908066666667","6501700","林口區"
"235001","611-BX","2018/12/24 06:59:03","新北市中和區圓通路369巷36弄6號","121.489883333333","24.9840683333333","6500300","中和區"
"226003","AGD-0702","2018/12/24 06:59:07","新北市平溪區石底里公園街18-3號","121.733518333333","25.0259466666667","6502400","平溪區"
"223006","022-BY","2018/12/24 06:58:46","新北市石碇區八分寮56-2號","121.644995","25.0177566666667","6501900","石碇區"
"223002","KEA-2673","2018/12/24 06:59:10","新北市石碇區員山子1-1號","121.652265","24.9687516666667","6501900","石碇區"
"223003","205-TH","2018/12/24 06:59:01","新北市石碇區石崁33-2號","121.659241666667","24.99274","6501900","石碇區"
"223008","406-TH","2018/12/24 06:59:03","新北市石碇區十八重溪61號","121.67489","25.01398","6501900","石碇區"
"223004","437-BY","2018/12/24 06:59:03","新北市石碇區碇坪路一段56號","121.656998333333","24.99146","6501900","石碇區"
"223001","592-UM","2018/12/24 06:59:11","新北市石碇區石崁33-3號","121.65973","24.992915","6501900","石碇區"
"223007","661-BX","2018/12/24 06:59:13","新北市石碇區十八重溪6號","121.678133333333","25.0111866666667","6501900","石碇區"
"223005","677-TV","2018/12/24 06:59:20","新北市石碇區碇坪路一段58號","121.65708","24.9915216666667","6501900","石碇區"
"227005","282-VK","2018/12/24 06:59:15","新北市雙溪區新基里自強路5號","121.866348333333","25.0390616666667","6502500","雙溪區"
"252006","073-UM","2018/12/24 06:59:17","新北市三芝區埔坪里埔頭坑43號","121.504593333333","25.2617483333333","6502100","三芝區"
"252004","249-BX","2018/12/24 06:59:14","新北市三芝區埔坪里埔頭坑41號","121.504493333333","25.2644533333333","6502100","三芝區"
