"lineid","car","time","location","longitude","latitude","cityid","cityname"
"232001","290-BY","2018/12/24 07:49:10","新北市坪林區上坑子口19-1號","121.705881666667","24.94793","6502000","坪林區"
"232012","291-BY","2018/12/24 07:49:06","新北市坪林區金瓜寮22-1號","121.679823333333","24.912395","6502000","坪林區"
"232010","375-UM","2018/12/24 07:49:10","新北市坪林區磨壁潭1號","121.71847","24.9409116666667","6502000","坪林區"
"232017","705-BZ","2018/12/24 07:49:05","新北市坪林區乾溪3號","121.740351666667","24.9746433333333","6502000","坪林區"
"232005","758-BX","2018/12/24 07:49:09","新北市坪林區九芎林32號","121.702543333333","24.921755","6502000","坪林區"
"244001","248-BX","2018/12/24 07:49:16","新北市林口區頂福里50號","121.343106666667","25.0959116666667","6501700","林口區"
"222005","289-BY","2018/12/24 07:49:16","新北市深坑區文化街45號","121.616885","25.00177","6501800","深坑區"
"231007","189-VK","2018/12/24 07:49:12","新北市新店區安一路一段1-1號","121.519791666667","24.962125","6500600","新店區"
"231008","192-VK","2018/12/24 07:49:05","新北市新店區安一路一段1-1號","121.519236666667","24.9613016666667","6500600","新店區"
"235001","611-BX","2018/12/24 07:49:03","新北市中和區圓通路367巷6號","121.49147","24.9892633333333","6500300","中和區"
"226005","5620-A6","2018/12/24 07:49:11","新北市平溪區嶺腳里中華街61號","121.739396666667","25.0250383333333","6502400","平溪區"
"226001","7418-A5","2018/12/24 07:49:10","新北市平溪區平湖里坑頭3號","121.782415","25.026305","6502400","平溪區"
"226003","AGD-0702","2018/12/24 07:35:27","新北市平溪區嶺腳里嶺腳寮83-2號","121.750601666667","25.035115","6502400","平溪區"
"223006","022-BY","2018/12/24 07:48:09","新北市石碇區番子坑17號","121.673746666667","25.0012766666667","6501900","石碇區"
"223002","KEA-2673","2018/12/24 07:49:10","新北市石碇區北宜路五段潭腰巷15-3號","121.636793333333","24.9373633333333","6501900","石碇區"
"223003","205-TH","2018/12/24 07:49:16","新北市石碇區烏塗窟1-1號","121.655298333333","24.97603","6501900","石碇區"
"223008","406-TH","2018/12/24 07:24:04","新北市石碇區靜安路一段337號","121.698848333333","25.014645","6501900","石碇區"
"223004","437-BY","2018/12/24 07:49:03","新北市石碇區楓子林30號","121.64229","25.0095516666667","6501900","石碇區"
"223001","592-UM","2018/12/24 07:49:11","新北市石碇區烏塗窟8號","121.655896666667","24.97502","6501900","石碇區"
"223007","661-BX","2018/12/24 07:36:12","新北市石碇區靜安路一段337號","121.699","25.0144833333333","6501900","石碇區"
"223005","677-TV","2018/12/24 07:49:20","新北市石碇區楓子林30號","121.642223333333","25.0096566666667","6501900","石碇區"
"227005","282-VK","2018/12/24 07:49:15","新北市雙溪區雙溪里太平路56號","121.864931666667","25.035625","6502500","雙溪區"
"252006","073-UM","2018/12/24 07:49:17","新北市三芝區古庄里四棧橋41號","121.481895","25.2637816666667","6502100","三芝區"
"252004","249-BX","2018/12/24 07:49:14","新北市三芝區店子里菜公坑99-3號","121.512255","25.2058283333333","6502100","三芝區"
"237001","361-BY","2018/12/24 07:49:06","新北市三峽區國慶路132號","121.376056666667","24.939695","6500900","三峽區"
"242055","751-BX","2018/12/24 07:49:03","新北市新莊區新莊路664-2號","121.442341666667","25.0328716666667","6500500","新莊區"
"242026","615-BX","2018/12/24 07:49:04","新北市新莊區中港一街161號","121.447141666667","25.0449483333333","6500500","新莊區"
"242043","566-BX","2018/12/24 07:49:13","新北市新莊區中正路384號","121.441975","25.034605","6500500","新莊區"
"242047","497-BY","2018/12/24 07:49:21","新北市新莊區中正路659號","121.427886666667","25.0305933333333","6500500","新莊區"
"242020","442-UM","2018/12/24 07:49:01","新北市新莊區新泰路225號","121.446493333333","25.0391533333333","6500500","新莊區"
"242052","441-UM","2018/12/24 07:49:12","新北市新莊區環河路506號","121.438666666667","25.0165916666667","6500500","新莊區"
"242001","440-UM","2018/12/24 07:49:04","新北市新莊區瓊林路118號","121.442346666667","25.0256233333333","6500500","新莊區"
"242038","415-TV","2018/12/24 07:49:04","新北市新莊區新樹路215號","121.435558333333","25.0233733333333","6500500","新莊區"
"242008","413-TV","2018/12/24 07:49:10","新北市新莊區新泰路500號","121.442465","25.0459083333333","6500500","新莊區"
"242045","400-BY","2018/12/24 07:49:04","新北市新莊區新泰路357巷2號","121.442141666667","25.04155","6500500","新莊區"
"242022","362-BY","2018/12/24 07:49:07","新北市新莊區中港一街161號","121.44707","25.044935","6500500","新莊區"
"242059","353-BY","2018/12/24 07:49:02","新北市新莊區三和路10號","121.442005","25.03561","6500500","新莊區"
"242033","135-UY","2018/12/24 07:49:17","新北市新莊區中正路473-1號","121.442026666667","25.0330133333333","6500500","新莊區"
"242049","172-VK","2018/12/24 07:49:02","新北市新莊區瓊林路190-2號","121.439486666667","25.0208633333333","6500500","新莊區"
"242012","173-VK","2018/12/24 07:49:15","新北市新莊區三和路12-21號","121.442045","25.0386916666667","6500500","新莊區"
"242016","KED-0687","2018/12/24 07:49:03","新北市新莊區新泰路357巷3弄57號","121.442273333333","25.0395433333333","6500500","新莊區"
"242006","346-TH","2018/12/24 07:49:05","新北市新莊區中和街59巷16號","121.446686666667","25.0467783333333","6500500","新莊區"
"242030","348-TH","2018/12/24 07:49:02","新北市新莊區新泰路255巷83號","121.442235","25.0387633333333","6500500","新莊區"
"242003","349-TH","2018/12/24 07:49:15","新北市新莊區復興路一段13號","121.445841666667","25.041595","6500500","新莊區"
"242014","351-TH","2018/12/24 07:49:09","新北市新莊區中環路二段392-1號","121.442395","25.0457166666667","6500500","新莊區"
"242040","281-VK","2018/12/24 07:49:05","新北市新莊區中正路473-1號","121.441983333333","25.03311","6500500","新莊區"
"242018","280-VK","2018/12/24 07:49:05","新北市新莊區公園路22號","121.448343333333","25.0390833333333","6500500","新莊區"
