"lineid","car","time","location","longitude","latitude","cityid","cityname"
"248018","225-UY","2018/07/28 09:49:40","新北市五股區中興路二段57-6號","121.46048","25.07536","6501500","五股區"
"248005","653-BX","2018/07/28 09:49:46","新北市五股區成泰路一段116號","121.435415","25.0735633333333","6501500","五股區"
"244011","657-BX","2018/07/28 09:49:39","新北市林口區公園路52號","121.368845","25.069445","6501700","林口區"
"231007","188-VK","2018/07/28 09:49:37","新北市新店區新潭路三段215巷25號","121.50815","24.9040883333333","6500600","新店區"
"231008","192-VK","2018/07/28 09:37:04","新北市新店區平廣路一段256號","121.507923333333","24.88822","6500600","新店區"
"235001","611-BX","2018/07/28 09:49:45","新北市中和區錦和路408號","121.491051666667","24.98982","6500300","中和區"
"223006","022-BY","2018/07/28 09:20:03","新北市石碇區小粗坑(潭邊里)9-2號","121.67857","24.985605","6501900","石碇區"
"228002","663-BX","2018/07/28 09:49:42","新北市貢寮區福隆里興隆街22號","121.944665","25.0167133333333","6502600","貢寮區"
"227006","030-BX","2018/07/28 09:47:29","新北市雙溪區長源里盤山坑6號","121.782833333333","25.0020383333333","6502500","雙溪區"
"252004","249-BX","2018/07/28 09:49:48","新北市三芝區福德里大水堀21號","121.512403333333","25.22016","6502100","三芝區"
"252007","AAC-283","2018/07/28 09:49:43","新北市三芝區新庄里新庄子113-8號","121.516541666667","25.2664583333333","6502100","三芝區"
