"lineid","car","time","location","longitude","latitude","cityid","cityname"
"248018","225-UY","2018/07/28 09:59:40","新北市五股區中興路二段37巷24號","121.460741666667","25.0751083333333","6501500","五股區"
"248005","653-BX","2018/07/28 09:59:46","新北市五股區成泰路一段241巷20號","121.435686666667","25.0811566666667","6501500","五股區"
"244011","657-BX","2018/07/28 09:59:39","新北市林口區公園路52號","121.368836666667","25.0694666666667","6501700","林口區"
"231007","188-VK","2018/07/28 09:59:36","新北市新店區新潭路三段215巷25號","121.508148333333","24.9040633333333","6500600","新店區"
"231008","192-VK","2018/07/28 09:59:50","新北市新店區廣興路122號","121.535773333333","24.9113566666667","6500600","新店區"
"235001","611-BX","2018/07/28 09:59:45","新北市中和區中正路525號","121.488066666667","24.9938316666667","6500300","中和區"
"227006","030-BX","2018/07/28 09:59:49","新北市雙溪區長源里柑腳18號","121.80467","25.0141533333333","6502500","雙溪區"
"252004","249-BX","2018/07/28 09:59:48","新北市三芝區福德里土地公埔39號","121.510426666667","25.2348283333333","6502100","三芝區"
"252007","AAC-283","2018/07/28 09:59:43","新北市三芝區新庄里新庄子73號","121.50785","25.2736983333333","6502100","三芝區"
