"lineid","car","time","location","longitude","latitude","cityid","cityname"
"248018","225-UY","2018/07/28 10:29:39","新北市五股區中興路二段83巷26-6號","121.46004","25.075195","6501500","五股區"
"248005","653-BX","2018/07/28 10:29:46","新北市五股區中興路二段37巷24號","121.4607","25.07508","6501500","五股區"
"244011","657-BX","2018/07/28 10:29:39","新北市林口區公園路52號","121.368701666667","25.0693683333333","6501700","林口區"
"231007","188-VK","2018/07/28 10:29:42","新北市新店區小坑三路51-2號","121.516931666667","24.9084933333333","6500600","新店區"
"231008","192-VK","2018/07/28 10:29:50","新北市新店區松林路16巷41號","121.54604","24.9071866666667","6500600","新店區"
"227006","030-BX","2018/07/28 10:29:49","新北市雙溪區平林里外平林17號","121.856816666667","25.0373783333333","6502500","雙溪區"
"252007","AAC-283","2018/07/28 10:29:43","新北市三芝區新庄里番社后33號","121.500998333333","25.274285","6502100","三芝區"
