"lineid","car","time","location","longitude","latitude","cityid","cityname"
"248018","225-UY","2018/07/28 10:49:39","新北市五股區中興路二段83巷26-6號","121.460058333333","25.0751833333333","6501500","五股區"
"248005","653-BX","2018/07/28 10:49:46","新北市五股區中興路二段83巷26-6號","121.459941666667","25.0752066666667","6501500","五股區"
"244011","657-BX","2018/07/28 10:49:39","新北市林口區文化一路一段15巷8-1號","121.368743333333","25.0693483333333","6501700","林口區"
"231007","188-VK","2018/07/28 10:49:39","新北市新店區新潭路二段186號","121.509663333333","24.9187733333333","6500600","新店區"
"231008","192-VK","2018/07/28 10:49:50","新北市新店區成功路80巷1號","121.538198333333","24.8952483333333","6500600","新店區"
"227006","030-BX","2018/07/28 10:48:49","新北市雙溪區魚行里坤溪11-6號","121.870066666667","25.0225233333333","6502500","雙溪區"
