"lineid","car","time","location","longitude","latitude","cityid","cityname"
"248005","653-BX","2018/07/28 11:00:29","新北市五股區中興路二段83巷26-6號","121.459925","25.0752533333333","6501500","五股區"
"244011","657-BX","2018/07/28 11:19:39","新北市林口區粉寮69號","121.404851666667","25.0909566666667","6501700","林口區"
"231007","188-VK","2018/07/28 11:19:36","新北市新店區新潭路一段52號","121.523795","24.9410933333333","6500600","新店區"
"231008","192-VK","2018/07/28 11:19:50","新北市新店區成功路80巷1號","121.538205","24.895245","6500600","新店區"
"227006","030-BX","2018/07/28 11:19:49","新北市雙溪區魚行里坤溪3-5號","121.876265","25.0208216666667","6502500","雙溪區"
