"lineid","car","time","location","longitude","latitude","cityid","cityname"
"234044","148-BY","2018/07/28 12:29:52","新北市永和區福和路1號","121.526433333333","25.0100266666667","6500400","永和區"
"234070","149-BY","2018/07/28 12:29:43","新北市永和區福和路1號","121.526348333333","25.0098716666667","6500400","永和區"
"234078","298-R6","2018/07/28 12:29:52","新北市永和區豫溪街217巷29號","121.524556666667","25.01047","6500400","永和區"
"234036","336-UY","2018/07/28 12:29:51","新北市永和區福和路1號","121.526588333333","25.0102316666667","6500400","永和區"
"234084","338-UY","2018/07/28 12:29:53","新北市永和區福和路1號","121.526455","25.0096833333333","6500400","永和區"
"234076","969-R7","2018/07/28 12:29:53","新北市永和區福和路1號","121.526443333333","25.0098833333333","6500400","永和區"
"243006","680-BX","2018/07/28 12:24:57","新北市泰山區黎明路25號","121.422273333333","25.0607283333333","6501600","泰山區"
"235029","098-UM","2018/07/28 12:29:41","新北市中和區員山路36巷16-3號","121.484985","24.9913416666667","6500300","中和區"
"228005","097-TW","2018/07/28 12:29:43","新北市貢寮區福連里蓬萊街16號","121.984821666667","24.99577","6502600","貢寮區"
"228004","212-TW","2018/07/28 12:29:37","新北市貢寮區龍崗里嵩陽街2-1號","121.903088333333","25.0162883333333","6502600","貢寮區"
"207002","749-BX","2018/07/28 12:29:54","新北市萬里區雙興里太和路7-2號","121.658595","25.174135","6502800","萬里區"
