"lineid","car","time","location","longitude","latitude","cityid","cityname"
"234044","148-BY","2018/07/28 12:49:12","新北市永和區秀朗路二段148巷12弄15號","121.52469","25.0008633333333","6500400","永和區"
"234070","149-BY","2018/07/28 12:49:24","新北市永和區豫溪街217巷1號","121.52489","25.0092933333333","6500400","永和區"
"234005","207-UY","2018/07/28 12:49:17","新北市永和區文化路170號","121.512035","25.015355","6500400","永和區"
"234078","298-R6","2018/07/28 12:49:12","新北市永和區永利路138號","121.522081666667","25.0029183333333","6500400","永和區"
"234036","336-UY","2018/07/28 12:49:11","新北市永和區豫溪街217巷15號","121.524506666667","25.0098516666667","6500400","永和區"
"234062","337-UY","2018/07/28 12:49:12","新北市永和區福和路1號","121.526558333333","25.010145","6500400","永和區"
"234084","338-UY","2018/07/28 12:49:25","新北市永和區中正路63號","121.514786666667","24.996595","6500400","永和區"
"234015","745-BX","2018/07/28 12:49:25","新北市永和區忠孝街26巷27弄1號","121.515226666667","25.0169283333333","6500400","永和區"
"234028","746-BX","2018/07/28 12:49:17","新北市永和區得和路328號","121.52335","24.9994766666667","6500400","永和區"
"234012","KEA-2591","2018/07/28 12:49:24","新北市永和區保福路二段133巷26號","121.509075","25.0135133333333","6500400","永和區"
"234060","AAD-866","2018/07/28 12:49:24","新北市永和區福和路307號","121.516241666667","25.0071383333333","6500400","永和區"
"234025","9371-KE","2018/07/28 12:49:05","新北市永和區豫溪街76-1號","121.517553333333","25.009885","6500400","永和區"
"234010","9373-KE","2018/07/28 12:49:04","新北市永和區保福路二段156號","121.509121666667","25.0149716666667","6500400","永和區"
"248017","225-UY","2018/07/28 12:49:14","新北市五股區中興路二段83巷26-6號","121.46013","25.07519","6501500","五股區"
"234022","9380-KE","2018/07/28 12:49:21","新北市永和區竹林路119巷27號","121.521126666667","25.0118733333333","6500400","永和區"
"234076","969-R7","2018/07/28 12:49:13","新北市永和區中正路32號","121.512923333333","24.9941716666667","6500400","永和區"
"234066","AAC-212","2018/07/28 12:49:26","新北市永和區中和路625號","121.512873333333","25.0048483333333","6500400","永和區"
"234001","AAC-295","2018/07/28 12:49:23","新北市永和區福和路271號","121.517671666667","25.00744","6500400","永和區"
"243006","680-BX","2018/07/28 12:24:57","新北市泰山區黎明路25號","121.422273333333","25.0607283333333","6501600","泰山區"
"231005","001-UM","2018/07/28 12:49:24","新北市新店區安華路28-1號","121.520308333333","24.9609383333333","6500600","新店區"
"231028","046-UY","2018/07/28 12:49:22","新北市新店區安華路28-1號","121.519681666667","24.9608966666667","6500600","新店區"
"231010","107-UY","2018/07/28 12:49:17","新北市新店區安一路一段1-1號","121.519516666667","24.9612433333333","6500600","新店區"
"231023","KEA-2219","2018/07/28 12:49:18","新北市新店區安一路一段1-1號","121.520171666667","24.961275","6500600","新店區"
"231003","268-BY","2018/07/28 12:49:15","新北市新店區安華路28-1號","121.519431666667","24.9605683333333","6500600","新店區"
"231017","AAD-862","2018/07/28 12:49:23","新北市新店區安一路一段1-1號","121.519806666667","24.9612516666667","6500600","新店區"
"231063","616-UM","2018/07/28 12:49:08","新北市新店區安華路28-1號","121.519556666667","24.960695","6500600","新店區"
"231030","619-UM","2018/07/28 12:49:22","新北市新店區安華路28-1號","121.519556666667","24.96091","6500600","新店區"
"231035","719-UM","2018/07/28 12:49:10","新北市新店區安一路一段1-1號","121.519638333333","24.96144","6500600","新店區"
"231033","720-UM","2018/07/28 12:49:18","新北市新店區安一路一段1-1號","121.519338333333","24.9611666666667","6500600","新店區"
"231024","AKT-0513","2018/07/28 12:49:06","新北市新店區安華路28-1號","121.519516666667","24.9605466666667","6500600","新店區"
"235027","006-UY","2018/07/28 12:49:12","新北市中和區員山路36巷16-3號","121.484973333333","24.9912883333333","6500300","中和區"
"235029","098-UM","2018/07/28 12:49:20","新北市中和區員山路36巷16-3號","121.485016666667","24.9913116666667","6500300","中和區"
"235002","185-VK","2018/07/28 12:49:15","新北市中和區員山路36巷13號","121.484263333333","24.990855","6500300","中和區"
"235031","255-BX","2018/07/28 12:49:20","新北市中和區新生街8號","121.483146666667","25.0045566666667","6500300","中和區"
"235001","611-BX","2018/07/28 12:49:26","新北市中和區中山路三段136巷81號","121.473763333333","25.0078333333333","6500300","中和區"
"235035","783-BX","2018/07/28 12:49:22","新北市中和區員山路36巷16-3號","121.485056666667","24.99152","6500300","中和區"
"235016","805-TS","2018/07/28 12:49:24","新北市中和區員山路36巷16號","121.484441666667","24.9915016666667","6500300","中和區"
"228005","097-TW","2018/07/28 12:49:23","新北市貢寮區福連里福連街34-1號","121.98867","25.01111","6502600","貢寮區"
"228004","212-TW","2018/07/28 12:49:17","新北市貢寮區吉林里內寮街20-1號","121.88988","24.99473","6502600","貢寮區"
"207002","749-BX","2018/07/28 12:49:14","新北市萬里區雙興里二坪路32號","121.644686666667","25.168685","6502800","萬里區"
"207001","662-BX","2018/07/28 12:49:17","新北市萬里區萬里里瑪鋉路102-1號","121.690715","25.178505","6502800","萬里區"
"236006","498-BY","2018/07/28 12:49:18","新北市土城區永寧路29號","121.430446666667","24.96322","6501300","土城區"
"221032","280-BY","2018/07/28 12:49:25","新北市汐止區大同路二段533號","121.661893333333","25.0690266666667","6501100","汐止區"
"235025","KEA-2875","2018/07/28 12:49:04","新北市中和區和城路一段271巷1號","121.485515","24.99145","6500300","中和區"
