"lineid","car","time","location","longitude","latitude","cityid","cityname"
"234070","149-BY","2018/07/28 14:19:23","新北市永和區光復街60巷31號","121.51819","25.017285","6500400","永和區"
"234005","207-UY","2018/07/28 14:19:17","新北市永和區永貞路361巷2號","121.50893","25.007825","6500400","永和區"
"234078","298-R6","2018/07/28 14:19:12","新北市永和區國中路132巷6弄1號","121.52378","25.007335","6500400","永和區"
"234036","336-UY","2018/07/28 14:19:11","新北市永和區成功路一段1號","121.52727","25.00542","6500400","永和區"
"234062","337-UY","2018/07/28 14:19:12","新北市永和區得和路111號","121.51848","25.000305","6500400","永和區"
"234084","338-UY","2018/07/28 14:19:13","新北市永和區永和路二段55號","121.514646666667","25.0107516666667","6500400","永和區"
"234068","552-UM","2018/07/28 14:19:12","新北市永和區福和路263巷22號","121.517898333333","25.0064416666667","6500400","永和區"
"234015","745-BX","2018/07/28 14:19:24","新北市永和區仁愛路85號","121.513191666667","25.0131633333333","6500400","永和區"
"234028","746-BX","2018/07/28 14:19:17","新北市永和區民權路49巷29號","121.521538333333","24.9975566666667","6500400","永和區"
"234052","KEA-2590","2018/07/28 14:19:20","新北市永和區光復街2巷24號","121.51756","25.0165416666667","6500400","永和區"
"234012","KEA-2591","2018/07/28 14:19:24","新北市永和區保生路5巷1號","121.506258333333","25.0071783333333","6500400","永和區"
"234060","AAD-866","2018/07/28 14:19:28","新北市永和區安樂路194巷5號","121.515341666667","25.0012483333333","6500400","永和區"
"234040","862-TW","2018/07/28 14:19:22","新北市中和區中安街188號","121.511286666667","24.99944","6500400","永和區"
"234048","863-TW","2018/07/28 14:19:25","新北市永和區文化路234號","121.509685","25.017055","6500400","永和區"
"234025","9371-KE","2018/07/28 14:19:25","新北市永和區安樂路144巷19號","121.514715","25.0001283333333","6500400","永和區"
"248017","225-UY","2018/07/28 14:16:54","新北市五股區壟路16-1號","121.414896666667","25.08543","6501500","五股區"
"234022","9380-KE","2018/07/28 14:19:21","新北市永和區竹林路41號","121.518023333333","25.0142433333333","6500400","永和區"
"234076","969-R7","2018/07/28 14:19:14","新北市永和區民族街81巷58號","121.52011","24.9965833333333","6500400","永和區"
"234072","AAC-211","2018/07/28 14:19:12","新北市永和區竹林路119巷32號","121.522293333333","25.011705","6500400","永和區"
"234066","AAC-212","2018/07/28 14:19:26","新北市永和區保平路268巷18號","121.507916666667","25.00615","6500400","永和區"
"234001","AAC-295","2018/07/28 14:19:23","新北市永和區自強街32巷10號","121.51611","25.0077283333333","6500400","永和區"
"231005","001-UM","2018/07/28 14:19:24","新北市新店區中興路三段197號","121.54383","24.9814266666667","6500600","新店區"
"231002","002-UM","2018/07/28 14:19:14","新北市新店區中央路145號","121.530095","24.9734833333333","6500600","新店區"
"231028","046-UY","2018/07/28 14:19:22","新北市新店區安和路二段208號","121.518065","24.97516","6500600","新店區"
"231001","047-UY","2018/07/28 14:19:08","新北市新店區中正路75巷71號","121.5432","24.9688983333333","6500600","新店區"
"231020","108-UY","2018/07/28 14:19:20","新北市新店區櫻花街150號","121.547703333333","24.9209166666667","6500600","新店區"
"231036","110-UY","2018/07/28 14:19:15","新北市新店區安祥路109巷108號","121.477346666667","24.9587783333333","6500600","新店區"
"231012","187-VK","2018/07/28 14:19:24","新北市新店區五峰路61巷2-1號","121.547243333333","24.9702033333333","6500600","新店區"
"231023","KEA-2219","2018/07/28 14:19:18","新北市新店區光明街80號","121.538723333333","24.9600483333333","6500600","新店區"
"231003","268-BY","2018/07/28 14:19:14","新北市新店區中興路一段201號","121.543561666667","24.9653566666667","6500600","新店區"
"231018","278-BY","2018/07/28 14:19:13","新北市新店區中央三街87號","121.525763333333","24.9756933333333","6500600","新店區"
"231017","AAD-862","2018/07/28 14:19:23","新北市新店區北宜路二段458號","121.570528333333","24.95659","6500600","新店區"
"231038","3712-VJ","2018/07/28 14:19:15","新北市新店區溪洲路6巷124-1號","121.533315","24.9634866666667","6500600","新店區"
"231027","3713-VJ","2018/07/28 14:19:21","新北市新店區北新路二段96號","121.542926666667","24.9730833333333","6500600","新店區"
"231037","4716-K9","2018/07/28 14:19:18","新北市新店區車子路67號","121.503621666667","24.9513066666667","6500600","新店區"
"231025","4715-K9","2018/07/28 14:19:12","新北市新店區民族路161號","121.537718333333","24.9767683333333","6500600","新店區"
"231013","513-UM","2018/07/28 14:19:18","新北市新店區大豐路62號","121.539456666667","24.97962","6500600","新店區"
"231034","616-UM","2018/07/28 14:19:08","新北市新店區黎明路3號","121.503235","24.9522","6500600","新店區"
"231006","617-UM","2018/07/28 14:19:28","新北市新店區北宜路二段599號","121.56817","24.9555583333333","6500600","新店區"
"231030","619-UM","2018/07/28 14:19:24","新北市新店區安民街5號","121.515148333333","24.9642783333333","6500600","新店區"
"231035","719-UM","2018/07/28 14:19:28","新北市新店區安和路二段113巷3弄5號","121.517975","24.9699433333333","6500600","新店區"
"231033","720-UM","2018/07/28 14:19:18","新北市新店區溪洲路201-3號","121.528883333333","24.9682683333333","6500600","新店區"
"231029","897-TW","2018/07/28 14:19:26","新北市新店區安康路二段296-3號","121.506246666667","24.9581483333333","6500600","新店區"
"231004","899-TW","2018/07/28 14:19:12","新北市新店區中正路148號","121.541656666667","24.9716466666667","6500600","新店區"
"235030","003-UY","2018/07/28 14:19:20","新北市中和區中和路102號","121.502661666667","24.9996883333333","6500300","中和區"
"235028","005-UY","2018/07/28 14:19:23","新北市中和區中和路2號","121.499438333333","25.002485","6500300","中和區"
"235027","006-UY","2018/07/28 14:19:12","新北市中和區連勝街122號","121.494496666667","24.99632","6500300","中和區"
"235020","096-UM","2018/07/28 14:19:21","新北市中和區員山路507號","121.479888333333","25.0063916666667","6500300","中和區"
"235003","097-UM","2018/07/28 14:19:18","新北市中和區秀峰街103巷8弄10號","121.5198","24.9896733333333","6500300","中和區"
"235029","098-UM","2018/07/28 14:19:20","新北市中和區福美路238號","121.498878333333","25.0052966666667","6500300","中和區"
"235040","150-BY","2018/07/28 14:18:47","新北市中和區安平路76號","121.511053333333","24.99655","6500300","中和區"
"235022","151-BY","2018/07/28 14:19:12","新北市中和區連城路378號","121.48093","24.995185","6500300","中和區"
"235019","183-VK","2018/07/28 14:19:10","新北市中和區中山路三段181巷2號","121.472806666667","25.0059516666667","6500300","中和區"
"235002","185-VK","2018/07/28 14:19:15","新北市中和區大仁街108號","121.520613333333","24.9928133333333","6500300","中和區"
"235013","186-VK","2018/07/28 14:19:11","新北市中和區景新街228-6號","121.508205","24.9941583333333","6500300","中和區"
"235031","255-BX","2018/07/28 14:19:20","新北市中和區中正路711號","121.484511666667","24.9985516666667","6500300","中和區"
"235008","293-VK","2018/07/28 14:19:11","新北市中和區中興街266巷2號","121.498615","24.9875866666667","6500300","中和區"
"235036","301-VK","2018/07/28 14:19:16","新北市中和區福祥路90巷1號","121.499311666667","25.0056983333333","6500300","中和區"
"235007","352-BY","2018/07/28 14:19:30","新北市中和區景平路296號","121.513168333333","24.9926383333333","6500300","中和區"
"235006","KEA-2878","2018/07/28 14:19:21","新北市中和區安樂路143巷7號","121.514111666667","24.99709","6500300","中和區"
"247009","KEA-2869","2018/07/28 14:19:19","新北市蘆洲區三民路26巷49弄1號","121.477806666667","25.08313","6501400","蘆洲區"
"235014","4979-A6","2018/07/28 14:19:16","新北市中和區景安路208巷19號","121.503106666667","24.99144","6500300","中和區"
"235033","4980-A6","2018/07/28 14:19:16","新北市中和區景平路736巷3弄2號","121.497183333333","25.0036316666667","6500300","中和區"
"235034","558-UM","2018/07/28 14:19:15","新北市中和區中和路51號","121.500448333333","25.001165","6500300","中和區"
"235009","565-BX","2018/07/28 14:19:27","新北市中和區景新街467巷37號","121.51494","24.989495","6500300","中和區"
"235018","640-BX","2018/07/28 14:19:07","新北市中和區國光街114號","121.469913333333","25.0006466666667","6500300","中和區"
"235024","647-TV","2018/07/28 14:19:07","新北市中和區員山路384號","121.480615","25.0042733333333","6500300","中和區"
"235011","732-UM","2018/07/28 14:19:24","新北市中和區和平街54巷6弄2號","121.508728333333","24.99095","6500300","中和區"
"235010","733-UM","2018/07/28 14:19:24","新北市中和區忠孝街2巷11弄2號","121.510421666667","24.9820083333333","6500300","中和區"
"235035","783-BX","2018/07/28 14:19:22","新北市中和區中板路47巷8號","121.48211","25.0111033333333","6500300","中和區"
"235026","800-TS","2018/07/28 14:19:23","新北市中和區中山路二段488-1號","121.487471666667","25.0048783333333","6500300","中和區"
"235021","801-TS","2018/07/28 14:19:25","新北市中和區員山路423巷12弄1號","121.480423333333","25.0030833333333","6500300","中和區"
"235005","802-TS","2018/07/28 14:19:11","新北市中和區中安街218號","121.511921666667","24.9988966666667","6500300","中和區"
"235016","805-TS","2018/07/28 14:19:24","新北市中和區華新街143巷19號","121.506638333333","24.9809616666667","6500300","中和區"
"235012","896-TW","2018/07/28 14:19:25","新北市中和區華新街111號","121.508808333333","24.98169","6500300","中和區"
"235017","900-TW","2018/07/28 14:19:20","新北市中和區華安街17巷17號","121.467035","24.998255","6500300","中和區"
"235015","157-BY","2018/07/28 14:19:27","新北市中和區興南路一段85巷39號","121.510523333333","24.988065","6500300","中和區"
"235001","AAC-213","2018/07/28 14:19:23","新北市中和區秀朗路三段10巷37弄4號","121.524025","24.99584","6500300","中和區"
"235023","AAC-215","2018/07/28 14:19:25","新北市中和區圓通路252巷5弄38號","121.49224","24.9916266666667","6500300","中和區"
"220013","072-UY","2018/07/28 14:19:21","新北市板橋區國泰街83號","121.467216666667","25.0065216666667","6500100","板橋區"
"220034","073-UY","2018/07/28 14:19:29","新北市板橋區中正路216巷22號","121.456745","25.0185466666667","6500100","板橋區"
"220105","075-UY","2018/07/28 14:19:14","新北市板橋區雙十路三段168號","121.470056666667","25.03278","6500100","板橋區"
"220017","AAD-861","2018/07/28 14:19:28","新北市板橋區貴興路41號","121.45748","25.0036983333333","6500100","板橋區"
"247013","546-UM","2018/07/28 14:19:19","新北市蘆洲區中山一路236號","121.472641666667","25.080235","6501400","蘆洲區"
"247021","500-BY","2018/07/28 14:19:09","新北市蘆洲區仁愛街212巷36號","121.464301666667","25.0942916666667","6501400","蘆洲區"
"247011","339-TH","2018/07/28 14:19:10","新北市蘆洲區民權路3巷26號","121.47515","25.0855633333333","6501400","蘆洲區"
"247003","337-TH","2018/07/28 14:19:17","新北市蘆洲區中原路12巷20號","121.460943333333","25.0838316666667","6501400","蘆洲區"
"247005","336-TH","2018/07/28 14:19:20","新北市蘆洲區永安南路二段108-1號","121.462846666667","25.07819","6501400","蘆洲區"
"247017","057-VK","2018/07/28 14:19:15","新北市蘆洲區民權路63號","121.473726666667","25.0882383333333","6501400","蘆洲區"
"247023","053-VK","2018/07/28 14:19:28","新北市蘆洲區長榮路673號","121.46027","25.0917783333333","6501400","蘆洲區"
"247015","007-UY","2018/07/28 14:19:17","新北市蘆洲區中正路185巷31弄2號","121.466291666667","25.0842183333333","6501400","蘆洲區"
"247001","002-UY","2018/07/28 14:19:11","新北市蘆洲區永樂街64號","121.457181666667","25.0885216666667","6501400","蘆洲區"
"247019","001-UY","2018/07/28 14:19:11","新北市蘆洲區仁愛街35巷10號","121.471683333333","25.0928416666667","6501400","蘆洲區"
"228005","097-TW","2018/07/28 14:19:23","新北市貢寮區美豐里土地公嶺54號","121.894523333333","25.06498","6502600","貢寮區"
"228004","212-TW","2018/07/28 14:19:19","新北市貢寮區雙玉里田寮洋街39-3號","121.925478333333","25.0139683333333","6502600","貢寮區"
"253003","6232-TK","2018/07/28 14:19:10","新北市石門區內石門62號","121.577983333333","25.265805","6502200","石門區"
"253001","6251-TK","2018/07/28 14:19:15","新北市石門區八甲27-2號","121.526671666667","25.2766266666667","6502200","石門區"
"253002","637-UY","2018/07/28 14:19:21","新北市石門區大溪墘3號","121.551901666667","25.2821266666667","6502200","石門區"
"253004","8270-PC","2018/07/28 14:19:23","新北市石門區內阿里磅1號","121.591968333333","25.2549166666667","6502200","石門區"
"207002","749-BX","2018/07/28 14:19:14","新北市萬里區溪底里瑞泉路8-2號","121.606293333333","25.1444616666667","6502800","萬里區"
"252005","073-UM","2018/07/28 14:19:18","新北市三芝區橫山里橫山45-1號","121.537518333333","25.257955","6502100","三芝區"
"207001","662-BX","2018/07/28 14:19:17","新北市萬里區磺潭里清水18號","121.637875","25.1976483333333","6502800","萬里區"
"236068","105-UM","2018/07/28 14:19:25","新北市土城區明德路一段153號","121.464936666667","24.9798916666667","6501300","土城區"
"236040","107-UM","2018/07/28 14:19:23","新北市土城區裕生路21巷6弄21號","121.448805","24.98687","6501300","土城區"
"236074","166-UM","2018/07/28 14:19:25","新北市土城區中央路三段281巷9-2號","121.42658","24.9629483333333","6501300","土城區"
"236029","253-BX","2018/07/28 14:19:19","新北市土城區順風路44號","121.440451666667","24.9771166666667","6501300","土城區"
"236024","269-VK","2018/07/28 14:19:18","新北市土城區承天路18號","121.439488333333","24.96332","6501300","土城區"
"236013","270-VK","2018/07/28 14:19:14","新北市土城區青雲路39巷7號","121.460301666667","24.9875516666667","6501300","土城區"
"236032","271-VK","2018/07/28 14:19:23","新北市土城區青雲路451巷8弄2號","121.45956","24.97445","6501300","土城區"
"236017","401-BY","2018/07/28 14:19:13","新北市土城區明德路二段69號","121.45145","24.981105","6501300","土城區"
"236006","498-BY","2018/07/28 14:19:18","新北市土城區中華路一段236號","121.439721666667","24.9797483333333","6501300","土城區"
"236057","912-UM","2018/07/28 14:19:26","新北市土城區中央路四段273-1號","121.412815","24.9542966666667","6501300","土城區"
"236045","913-UM","2018/07/28 14:19:12","新北市土城區明德路一段361-1號","121.456656666667","24.9776316666667","6501300","土城區"
"236060","915-UM","2018/07/28 14:19:22","新北市土城區延壽路44巷15號","121.471493333333","24.99299","6501300","土城區"
"236054","AAC-216","2018/07/28 14:19:29","新北市土城區中華路二段199號","121.438118333333","24.9742283333333","6501300","土城區"
"220028","200-UY","2018/07/28 14:19:23","新北市板橋區大觀路二段19巷19號","121.447611666667","25.0031816666667","6500100","板橋區"
"220050","245-BX","2018/07/28 14:19:11","新北市板橋區莊敬路21號","121.4739","25.0280833333333","6500100","板橋區"
"220027","256-TC","2018/07/28 14:19:25","新北市板橋區民權路260巷65號","121.46035","25.0150033333333","6500100","板橋區"
"220004","276-BY","2018/07/28 14:19:27","新北市板橋區干城路18號","121.459473333333","24.9935233333333","6500100","板橋區"
"220020","277-BY","2018/07/28 14:19:25","新北市板橋區金門街289號","121.4309","24.9873783333333","6500100","板橋區"
"220019","283-VK","2018/07/28 14:19:26","新北市板橋區忠孝路48巷9弄14號","121.461641666667","25.0001616666667","6500100","板橋區"
"220043","285-UM","2018/07/28 14:19:17","新北市板橋區吳鳳路19-5號","121.467083333333","25.0309933333333","6500100","板橋區"
"220001","285-VK","2018/07/28 14:19:20","新北市板橋區富山街18巷18-4號","121.47851","25.0227133333333","6500100","板橋區"
"220031","286-VK","2018/07/28 14:19:26","新北市板橋區龍興街71巷28號","121.442625","25.0025016666667","6500100","板橋區"
"220029","287-VK","2018/07/28 14:19:16","新北市板橋區南雅西路一段10巷7弄17號","121.45398","25.004345","6500100","板橋區"
"220039","288-VK","2018/07/28 14:19:20","新北市板橋區長江路一段106巷13弄11號","121.46054","25.0293266666667","6500100","板橋區"
"220009","293-UM","2018/07/28 14:19:27","新北市板橋區成功路6巷15號","121.476048333333","25.0171566666667","6500100","板橋區"
"220032","296-UM","2018/07/28 14:19:20","新北市板橋區滿平街136巷6弄12號","121.427721666667","24.9879233333333","6500100","板橋區"
"220023","303-R5","2018/07/28 14:17:51","新北市板橋區南雅南路一段60-1號","121.455395","25.005435","6500100","板橋區"
"220010","305-R5","2018/07/28 14:19:22","新北市板橋區三民路二段153巷5弄16號","121.480121666667","25.0150916666667","6500100","板橋區"
"220041","307-R5","2018/07/28 14:19:23","新北市板橋區松江街53號","121.468518333333","25.0275416666667","6500100","板橋區"
"220047","317-R6","2018/07/28 14:19:26","新北市板橋區四維路266巷2弄20號","121.464048333333","25.02807","6500100","板橋區"
"220012","486-VK","2018/07/28 14:19:24","新北市板橋區中山路一段30號","121.460391666667","25.008515","6500100","板橋區"
"220037","491-VK","2018/07/28 14:19:23","新北市板橋區莊敬路25巷9-1號","121.474833333333","25.027685","6500100","板橋區"
"220104","560-BX","2018/07/28 14:19:15","新北市板橋區中正路433巷1弄12號","121.453545","25.023145","6500100","板橋區"
"220052","561-BX","2018/07/28 14:19:21","新北市板橋區介壽街30-2號","121.468035","25.02005","6500100","板橋區"
"220011","609-BX","2018/07/28 14:19:09","新北市板橋區三民路二段204-4號","121.478888333333","25.0125166666667","6500100","板橋區"
"220040","637-BX","2018/07/28 14:19:21","新北市板橋區文聖街210號","121.480431666667","25.025595","6500100","板橋區"
"220005","686-BX","2018/07/28 14:19:12","新北市板橋區國慶路183-1號","121.462796666667","24.9963483333333","6500100","板橋區"
"220025","687-BX","2018/07/28 14:19:27","新北市板橋區大觀路二段91號","121.44637","25.0019983333333","6500100","板橋區"
"220042","689-BX","2018/07/28 14:19:24","新北市板橋區漢生西路95號","121.46251","25.01982","6500100","板橋區"
"220002","741-BX","2018/07/28 14:19:11","新北市板橋區光明街71號","121.461931666667","25.00282","6500100","板橋區"
"220051","KEA-2699","2018/07/28 14:19:07","新北市板橋區萬板路572號","121.48118","25.0272533333333","6500100","板橋區"
"220018","806-UM","2018/07/28 14:19:23","新北市板橋區四川路一段281號","121.459505","25.00182","6500100","板橋區"
"220003","827-TW","2018/07/28 14:19:22","新北市板橋區館前東路156巷44號","121.464508333333","25.00657","6500100","板橋區"
"220014","829-TW","2018/07/28 14:19:19","新北市板橋區長安街138巷1弄71號","121.474576666667","25.0107866666667","6500100","板橋區"
"220016","830-TW","2018/07/28 14:19:24","新北市板橋區翠華街6巷94號","121.481888333333","25.0243416666667","6500100","板橋區"
"220045","831-TW","2018/07/28 14:19:21","新北市板橋區大同街35巷16號","121.477541666667","25.0277483333333","6500100","板橋區"
"220038","833-TW","2018/07/28 14:19:25","新北市板橋區文化路一段295號","121.464978333333","25.0186633333333","6500100","板橋區"
"220022","895-R6","2018/07/28 14:19:19","新北市板橋區府中路44號","121.457168333333","25.0095816666667","6500100","板橋區"
"220021","985-R7","2018/07/28 14:19:10","新北市板橋區新生街89巷4號","121.458133333333","25.02219","6500100","板橋區"
"220046","AAC-210","2018/07/28 14:19:18","新北市板橋區幸福路60巷49號","121.460366666667","25.0213933333333","6500100","板橋區"
"220030","AAC-253","2018/07/28 14:19:24","新北市板橋區溪城路123號","121.427673333333","24.9821183333333","6500100","板橋區"
"235032","KEA-2873","2018/07/28 14:19:26","新北市中和區南山路33號","121.502056666667","24.9988883333333","6500300","中和區"
"235025","KEA-2875","2018/07/28 14:19:04","新北市中和區民利街69號","121.478733333333","24.9983","6500300","中和區"
