"lineid","car","time","location","longitude","latitude","cityid","cityname"
"234070","149-BY","2018/07/28 14:49:23","新北市林口區太平里180號","121.368393333333","25.1342766666667","6500400","永和區"
"234060","AAD-866","2018/07/28 14:48:04","新北市三重區重新路五段326巷25-1號","121.478868333333","25.0442083333333","6500400","永和區"
"234025","9371-KE","2018/07/28 14:49:25","新北市永和區雙和街20巷1號","121.509173333333","25.0022116666667","6500400","永和區"
"231005","001-UM","2018/07/28 14:49:24","新北市新店區復興路2號","121.532461666667","24.9882433333333","6500600","新店區"
"231002","002-UM","2018/07/28 14:49:14","新北市新店區民權路45號","121.53996","24.9827716666667","6500600","新店區"
"231028","046-UY","2018/07/28 14:49:22","新北市新店區安德街120巷6號","121.509013333333","24.9608266666667","6500600","新店區"
"231001","047-UY","2018/07/28 14:49:28","新北市新店區三民路185號","121.535266666667","24.975405","6500600","新店區"
"231020","108-UY","2018/07/28 14:49:20","新北市新店區桂山路51巷6-1號","121.563205","24.90438","6500600","新店區"
"231036","110-UY","2018/07/28 14:49:15","新北市新店區安祥路104巷6弄34號","121.48305","24.9628983333333","6500600","新店區"
"231012","187-VK","2018/07/28 14:49:23","新北市新店區永華街63號","121.544743333333","24.9754533333333","6500600","新店區"
"231023","KEA-2219","2018/07/28 14:49:18","新北市新店區檳榔路105號","121.54453","24.9618483333333","6500600","新店區"
"231026","256-BX","2018/07/28 14:49:12","新北市新店區安康路一段355號","121.519801666667","24.96292","6500600","新店區"
"231003","268-BY","2018/07/28 14:49:14","新北市新店區中興路二段55-1號","121.546513333333","24.97032","6500600","新店區"
"231018","278-BY","2018/07/28 14:49:13","新北市新店區中央路109號","121.531026666667","24.9746216666667","6500600","新店區"
"231017","AAD-862","2018/07/28 14:49:23","新北市新店區銀河路21號","121.573153333333","24.9571616666667","6500600","新店區"
"231038","3712-VJ","2018/07/28 14:49:14","新北市新店區安華路28-1號","121.519696666667","24.960855","6500600","新店區"
"231027","3713-VJ","2018/07/28 14:49:21","新北市新店區柴埕路116號","121.504645","24.95986","6500600","新店區"
"231025","4715-K9","2018/07/28 14:49:12","新北市新店區民族路163號","121.53761","24.97668","6500600","新店區"
"231013","513-UM","2018/07/28 14:49:14","新北市新店區北新路二段59巷3號","121.542498333333","24.9732216666667","6500600","新店區"
"231034","616-UM","2018/07/28 14:49:08","新北市新店區安康路三段31巷2弄15號","121.493078333333","24.9518016666667","6500600","新店區"
"231006","617-UM","2018/07/28 14:49:28","新北市新店區北宜路一段121-3號","121.540386666667","24.95384","6500600","新店區"
"231030","619-UM","2018/07/28 14:49:21","新北市新店區安民街382號","121.51627","24.9765583333333","6500600","新店區"
"231035","719-UM","2018/07/28 14:49:15","新北市新店區安利街32號","121.519085","24.9748333333333","6500600","新店區"
"231033","720-UM","2018/07/28 14:49:18","新北市新店區安泰路22號","121.485468333333","24.9483666666667","6500600","新店區"
"231029","897-TW","2018/07/28 14:49:26","新北市新店區錦秀路72巷1號","121.478845","24.9419166666667","6500600","新店區"
"231004","899-TW","2018/07/28 14:49:28","新北市新店區民族路104號","121.53915","24.9780233333333","6500600","新店區"
"231024","AKT-0513","2018/07/28 14:49:19","新北市新店區北新路一段235號","121.540581666667","24.96578","6500600","新店區"
"235030","003-UY","2018/07/28 14:49:20","新北市中和區南工路28號","121.505596666667","25.0009416666667","6500300","中和區"
"235020","096-UM","2018/07/28 14:49:10","新北市中和區民富街37號","121.476363333333","25.0081466666667","6500300","中和區"
"235003","097-UM","2018/07/28 14:49:18","新北市中和區安樂路137號","121.514413333333","24.9966333333333","6500300","中和區"
"235029","098-UM","2018/07/28 14:49:20","新北市中和區永和路106號","121.496588333333","25.005645","6500300","中和區"
"235040","150-BY","2018/07/28 14:49:07","新北市中和區安平路38號","121.509731666667","24.9949066666667","6500300","中和區"
"235022","151-BY","2018/07/28 14:49:12","新北市中和區員山路146巷14號","121.482046666667","24.996775","6500300","中和區"
"235019","183-VK","2018/07/28 14:49:30","新北市中和區民德路12號","121.468793333333","25.0027216666667","6500300","中和區"
"235002","185-VK","2018/07/28 14:49:15","新北市中和區更生街1號","121.521481666667","24.996075","6500300","中和區"
"235013","186-VK","2018/07/28 14:49:11","新北市中和區景平路572號","121.501656666667","24.9954183333333","6500300","中和區"
"235031","255-BX","2018/07/28 14:49:20","新北市中和區新生街186巷1弄20號","121.483371666667","24.99889","6500300","中和區"
"235008","293-VK","2018/07/28 14:49:11","新北市中和區南山路399巷1號","121.506846666667","24.9901366666667","6500300","中和區"
"235036","301-VK","2018/07/28 14:49:16","新北市中和區中山路二段3巷22弄19號","121.50601","25.004435","6500300","中和區"
"235007","352-BY","2018/07/28 14:49:30","新北市中和區景平路334號","121.512045","24.9927583333333","6500300","中和區"
"235006","KEA-2878","2018/07/28 14:49:21","新北市中和區連勝街135號","121.494826666667","24.9955183333333","6500300","中和區"
"247009","KEA-2869","2018/07/28 14:49:18","新北市蘆洲區中山一路355號","121.470268333333","25.077905","6501400","蘆洲區"
"235014","4979-A6","2018/07/28 14:49:16","新北市中和區景平路241巷84弄54號","121.506076666667","24.9924583333333","6500300","中和區"
"235034","558-UM","2018/07/28 14:49:15","新北市中和區圓通路111號","121.499448333333","24.9964933333333","6500300","中和區"
"235018","640-BX","2018/07/28 14:49:27","新北市中和區莒光路41號","121.472013333333","25.004825","6500300","中和區"
"235024","647-TV","2018/07/28 14:49:27","新北市中和區新生街30巷7號","121.482828333333","25.0038233333333","6500300","中和區"
"235011","732-UM","2018/07/28 14:49:24","新北市中和區和平街74號","121.507813333333","24.9910866666667","6500300","中和區"
"235010","733-UM","2018/07/28 14:49:22","新北市中和區仁愛街35號","121.510981666667","24.98867","6500300","中和區"
"235026","800-TS","2018/07/28 14:49:23","新北市中和區中山路二段365號","121.48767","25.0047583333333","6500300","中和區"
"235016","805-TS","2018/07/28 14:49:24","新北市中和區華新街144巷20號","121.507553333333","24.98323","6500300","中和區"
"235012","896-TW","2018/07/28 14:49:25","新北市中和區忠孝街117號","121.512635","24.9876983333333","6500300","中和區"
"235017","900-TW","2018/07/28 14:49:29","新北市中和區國光街205巷20號","121.467586666667","25.0005116666667","6500300","中和區"
"235015","157-BY","2018/07/28 14:49:07","新北市中和區中興街148號","121.499015","24.9916616666667","6500300","中和區"
"235001","AAC-213","2018/07/28 14:49:24","新北市中和區自立路76號","121.523968333333","24.99122","6500300","中和區"
"235023","AAC-215","2018/07/28 14:49:25","新北市中和區圓通路367巷6號","121.491585","24.989345","6500300","中和區"
"220013","072-UY","2018/07/28 14:49:21","新北市板橋區國泰街39巷7弄3號","121.46874","25.0057733333333","6500100","板橋區"
"220034","073-UY","2018/07/28 14:49:29","新北市板橋區中正路84號","121.456558333333","25.0148866666667","6500100","板橋區"
"220105","075-UY","2018/07/28 14:49:14","新北市板橋區民治街71巷36號","121.480435","25.0327783333333","6500100","板橋區"
"220017","AAD-861","2018/07/28 14:49:28","新北市板橋區貴興路119巷1弄3號","121.455876666667","25.0023083333333","6500100","板橋區"
"247015","007-UY","2018/07/28 14:49:17","新北市蘆洲區和平路200號","121.465941666667","25.0818433333333","6501400","蘆洲區"
"247001","002-UY","2018/07/28 14:49:11","新北市蘆洲區永康街2巷10號","121.459241666667","25.0862216666667","6501400","蘆洲區"
"228005","097-TW","2018/07/28 14:49:23","新北市貢寮區美豐里丹裡街69號","121.90592","25.0559733333333","6502600","貢寮區"
"228004","212-TW","2018/07/28 14:49:17","新北市貢寮區雙玉里田寮洋街33-1號","121.93405","25.0154616666667","6502600","貢寮區"
"253003","6232-TK","2018/07/28 14:49:10","新北市石門區尖子鹿90號","121.580298333333","25.2889366666667","6502200","石門區"
"253001","6251-TK","2018/07/28 14:49:15","新北市石門區崁子腳57-1號","121.536771666667","25.2753783333333","6502200","石門區"
"253002","637-UY","2018/07/28 14:49:21","新北市石門區楓林47號","121.540363333333","25.278235","6502200","石門區"
"253004","8270-PC","2018/07/28 14:49:23","新北市石門區茂林社區227-1號","121.591635","25.2704","6502200","石門區"
"207002","749-BX","2018/07/28 14:49:14","新北市萬里區崁腳里崁腳路73號","121.647636666667","25.15962","6502800","萬里區"
"252005","073-UM","2018/07/28 14:49:18","新北市三芝區茂長里陳厝坑15號","121.516918333333","25.2554116666667","6502100","三芝區"
"207001","662-BX","2018/07/28 14:49:17","新北市萬里區雙興里二坪路1號","121.649353333333","25.1779566666667","6502800","萬里區"
"236068","105-UM","2018/07/28 14:49:25","新北市土城區明德路一段385-1號","121.452668333333","24.9802466666667","6501300","土城區"
"236040","107-UM","2018/07/28 14:49:22","新北市土城區裕民路114巷11號","121.450595","24.9860933333333","6501300","土城區"
"236074","166-UM","2018/07/28 14:49:25","新北市土城區中央路四段125巷2弄17-1號","121.416338333333","24.9567366666667","6501300","土城區"
"236029","253-BX","2018/07/28 14:49:19","新北市土城區千歲路1號","121.440831666667","24.9701783333333","6501300","土城區"
"236024","269-VK","2018/07/28 14:49:29","新北市土城區慶安街37號","121.441341666667","24.973245","6501300","土城區"
"236013","270-VK","2018/07/28 14:49:14","新北市土城區金城路二段354巷4號","121.460915","24.98468","6501300","土城區"
"236032","271-VK","2018/07/28 14:49:28","新北市土城區明德路一段239號","121.46274","24.9782866666667","6501300","土城區"
"236017","401-BY","2018/07/28 14:49:13","新北市土城區延安街40號","121.467376666667","24.9857066666667","6501300","土城區"
"236057","912-UM","2018/07/28 14:49:26","新北市土城區金城路一段141號","121.445376666667","24.9741966666667","6501300","土城區"
"236045","913-UM","2018/07/28 14:49:16","新北市土城區青雲路99號","121.459175","24.9856733333333","6501300","土城區"
"236060","915-UM","2018/07/28 14:49:22","新北市土城區延和路252號","121.469851666667","24.98955","6501300","土城區"
"236054","AAC-216","2018/07/28 14:49:29","新北市土城區裕民路187號","121.453565","24.9844","6501300","土城區"
"220028","200-UY","2018/07/28 14:49:25","新北市板橋區大觀路二段153巷6號","121.445956666667","25.0005866666667","6500100","板橋區"
"220050","245-BX","2018/07/28 14:49:18","新北市板橋區莒光路237-1號","121.474378333333","25.022185","6500100","板橋區"
"220027","256-TC","2018/07/28 14:49:25","新北市板橋區幸福路70巷3號","121.460606666667","25.0201316666667","6500100","板橋區"
"220004","276-BY","2018/07/28 14:49:24","新北市板橋區南雅南路二段21號","121.45398","24.99792","6500100","板橋區"
"220020","277-BY","2018/07/28 14:49:28","新北市板橋區金門街113-3號","121.433115","24.9919233333333","6500100","板橋區"
"220019","283-VK","2018/07/28 14:49:20","新北市板橋區和平路153號","121.463348333333","24.9955483333333","6500100","板橋區"
"220043","285-UM","2018/07/28 14:49:17","新北市板橋區溪頭街82號","121.458905","25.0298366666667","6500100","板橋區"
"220001","285-VK","2018/07/28 14:49:20","新北市板橋區中山路二段60巷17號","121.474355","25.0151216666667","6500100","板橋區"
"220031","286-VK","2018/07/28 14:49:26","新北市板橋區僑中二街48巷26號","121.445256666667","25.01045","6500100","板橋區"
"220029","287-VK","2018/07/28 14:49:16","新北市板橋區僑中一街124巷20弄46號","121.448183333333","25.0137333333333","6500100","板橋區"
"220039","288-VK","2018/07/28 14:49:00","新北市板橋區龍泉街90巷3號","121.45616","25.0248883333333","6500100","板橋區"
"220009","293-UM","2018/07/28 14:49:13","新北市板橋區民生路二段107號","121.471276666667","25.0179066666667","6500100","板橋區"
"220032","296-UM","2018/07/28 14:49:28","新北市板橋區板林路182號","121.42453","24.9881533333333","6500100","板橋區"
"220023","303-R5","2018/07/28 14:49:09","新北市板橋區金華街10巷48弄44-3號","121.458538333333","25.0200916666667","6500100","板橋區"
"220010","305-R5","2018/07/28 14:49:22","新北市板橋區光復街28號","121.48172","25.018725","6500100","板橋區"
"220041","307-R5","2018/07/28 14:49:23","新北市板橋區四維路259巷20-1號","121.46248","25.0277733333333","6500100","板橋區"
"220047","317-R6","2018/07/28 14:49:26","新北市板橋區英士路199號","121.458596666667","25.023475","6500100","板橋區"
"220012","486-VK","2018/07/28 14:49:11","新北市板橋區館前東路98-2號","121.462548333333","25.0075533333333","6500100","板橋區"
"220037","491-VK","2018/07/28 14:49:20","新北市板橋區仁化街162號","121.478098333333","25.0335883333333","6500100","板橋區"
"220104","560-BX","2018/07/28 14:49:15","新北市板橋區新生街89巷18號","121.45743","25.0222466666667","6500100","板橋區"
"220052","561-BX","2018/07/28 14:49:20","新北市板橋區陽明街29巷37號","121.463566666667","25.022665","6500100","板橋區"
"220011","609-BX","2018/07/28 14:49:21","新北市板橋區萬安街53巷24號","121.48321","25.0236733333333","6500100","板橋區"
"220040","637-BX","2018/07/28 14:49:20","新北市板橋區民治街81巷15號","121.480333333333","25.032235","6500100","板橋區"
"220005","686-BX","2018/07/28 14:49:12","新北市板橋區信義路243號","121.460288333333","24.99103","6500100","板橋區"
"220025","687-BX","2018/07/28 14:49:18","新北市板橋區僑中一街132號","121.445561666667","25.0117633333333","6500100","板橋區"
"220042","689-BX","2018/07/28 14:49:24","新北市板橋區長江路二段30號","121.464973333333","25.031425","6500100","板橋區"
"220002","741-BX","2018/07/28 14:49:11","新北市板橋區實踐路93巷9-2號","121.464565","25.00549","6500100","板橋區"
"220051","KEA-2699","2018/07/28 14:49:27","新北市板橋區文化路二段410巷1弄21號","121.474823333333","25.03095","6500100","板橋區"
"220018","806-UM","2018/07/28 14:49:21","新北市板橋區館前東路124號","121.463811666667","25.0078583333333","6500100","板橋區"
"220003","827-TW","2018/07/28 14:49:25","新北市板橋區仁愛路76巷5弄1號","121.460671666667","24.998825","6500100","板橋區"
"220014","829-TW","2018/07/28 14:49:19","新北市板橋區民生路一段21號","121.47499","25.0115166666667","6500100","板橋區"
"220016","830-TW","2018/07/28 14:49:22","新北市板橋區光復街147號","121.48545","25.0199683333333","6500100","板橋區"
"220045","831-TW","2018/07/28 14:49:25","新北市板橋區莒光路40巷18號","121.470028333333","25.0236116666667","6500100","板橋區"
"220038","833-TW","2018/07/28 14:49:25","新北市板橋區龍泉街99-3號","121.457016666667","25.0244683333333","6500100","板橋區"
"220022","895-R6","2018/07/28 14:49:19","新北市板橋區南門街63號","121.457031666667","25.0081566666667","6500100","板橋區"
"220021","985-R7","2018/07/28 14:49:30","新北市板橋區南雅西路二段2-1號","121.45324","25.0087683333333","6500100","板橋區"
"220046","AAC-210","2018/07/28 14:49:18","新北市板橋區光正街45巷17號","121.461771666667","25.0166516666667","6500100","板橋區"
"220030","AAC-253","2018/07/28 14:49:20","新北市板橋區溪北路55號","121.427933333333","24.9898983333333","6500100","板橋區"
"235032","KEA-2873","2018/07/28 14:49:26","新北市中和區景平路750號","121.496438333333","25.004355","6500300","中和區"
