"lineid","car","time","location","longitude","latitude","cityid","cityname"
"234070","149-BY","2018/07/28 15:19:23","新北市中和區永和路103巷21號","121.494801666667","25.00688","6500400","永和區"
"231005","001-UM","2018/07/28 15:19:24","新北市新店區建國路221號","121.537648333333","24.98143","6500600","新店區"
"231002","002-UM","2018/07/28 15:19:14","台北市文山區景文街146巷26號","121.533443333333","24.99178","6500600","新店區"
"231028","046-UY","2018/07/28 15:19:22","新北市新店區僑信路114巷42號","121.499145","24.9461966666667","6500600","新店區"
"231001","047-UY","2018/07/28 15:19:08","新北市新店區北新路一段90號","121.541883333333","24.968545","6500600","新店區"
"231020","108-UY","2018/07/28 15:19:20","新北市新店區湖興路128-18號","121.562308333333","24.93067","6500600","新店區"
"231036","110-UY","2018/07/28 15:19:15","新北市新店區安祥路69巷17號","121.481911666667","24.9613716666667","6500600","新店區"
"231012","187-VK","2018/07/28 15:19:27","新北市新店區寶慶街76號","121.54158","24.9867933333333","6500600","新店區"
"231023","KEA-2219","2018/07/28 15:19:18","新北市新店區北新路一段64巷43號","121.54223","24.965645","6500600","新店區"
"231026","256-BX","2018/07/28 15:19:12","新北市新店區中正路263巷2號","121.538398333333","24.973515","6500600","新店區"
"231003","268-BY","2018/07/28 15:19:14","新北市新店區寶橋路218號","121.551123333333","24.9786083333333","6500600","新店區"
"231018","278-BY","2018/07/28 15:19:13","新北市新店區中央六街57號","121.527933333333","24.97593","6500600","新店區"
"231017","AAD-862","2018/07/28 15:19:23","新北市新店區明山路45號","121.563851666667","24.9558866666667","6500600","新店區"
"231038","3712-VJ","2018/07/28 15:19:14","新北市新店區安華路28-1號","121.519656666667","24.9609333333333","6500600","新店區"
"231037","4716-K9","2018/07/28 15:19:18","新北市新店區安民街341-1號","121.516691666667","24.9751216666667","6500600","新店區"
"231025","4715-K9","2018/07/28 15:19:12","新北市新店區中央路153號","121.529793333333","24.9728933333333","6500600","新店區"
"231034","616-UM","2018/07/28 15:19:28","新北市新店區如意街5巷2號","121.495401666667","24.9489233333333","6500600","新店區"
"231006","617-UM","2018/07/28 15:19:28","新北市新店區環河路29巷1號","121.536166666667","24.961245","6500600","新店區"
"231030","619-UM","2018/07/28 15:19:21","新北市新店區安民街341-1號","121.51683","24.9749","6500600","新店區"
"231039","718-UY","2018/07/28 15:19:22","新北市新店區寶元路一段65號","121.542288333333","24.98576","6500600","新店區"
"231035","719-UM","2018/07/28 15:19:15","新北市新店區永平街6號","121.517433333333","24.9835533333333","6500600","新店區"
"231033","720-UM","2018/07/28 15:19:18","新北市新店區裕合街86號","121.490471666667","24.9486416666667","6500600","新店區"
"231029","897-TW","2018/07/28 15:19:26","新北市新店區安康路三段555號","121.476411666667","24.944335","6500600","新店區"
"231004","899-TW","2018/07/28 15:19:12","新北市新店區博愛街13巷24號","121.540258333333","24.9740133333333","6500600","新店區"
"231024","AKT-0513","2018/07/28 15:19:19","新北市新店區光明街129號","121.539108333333","24.9619583333333","6500600","新店區"
"241028","022-UY","2018/07/28 15:19:21","新北市三重區重新路四段121號","121.48473","25.0525416666667","6500200","三重區"
"241022","060-VK","2018/07/28 15:19:17","新北市三重區重新路四段121號","121.484698333333","25.05256","6500200","三重區"
"241016","266-UM","2018/07/28 15:19:11","新北市三重區重新路四段121號","121.484951666667","25.0520766666667","6500200","三重區"
"241013","270-UM","2018/07/28 15:19:28","新北市三重區重新路四段121號","121.484788333333","25.0525066666667","6500200","三重區"
"241023","887-TS","2018/07/28 15:19:19","新北市三重區重新路四段121號","121.484868333333","25.0526083333333","6500200","三重區"
"235030","003-UY","2018/07/28 15:19:20","新北市中和區光華街31巷49號","121.505976666667","25.0049766666667","6500300","中和區"
"235014","4979-A6","2018/07/28 15:19:20","新北市中和區景平路464巷2弄2號","121.505793333333","24.9937866666667","6500300","中和區"
"235033","4980-A6","2018/07/28 15:19:18","新北市中和區圓通路217號","121.496708333333","24.9943583333333","6500300","中和區"
"235026","800-TS","2018/07/28 15:19:23","新北市中和區中山路二段332巷5號","121.494335","25.0026","6500300","中和區"
"235012","896-TW","2018/07/28 15:19:25","新北市中和區興南路一段64巷2號","121.510808333333","24.9903866666667","6500300","中和區"
"235015","157-BY","2018/07/28 15:19:27","新北市中和區復興路280巷42號","121.501223333333","24.991885","6500300","中和區"
"235023","AAC-215","2018/07/28 15:19:25","新北市中和區圓通路316號","121.486075","24.9880683333333","6500300","中和區"
"253003","6232-TK","2018/07/28 15:19:10","新北市石門區小坑9號","121.59429","25.2886966666667","6502200","石門區"
"253001","6251-TK","2018/07/28 15:19:15","新北市石門區小坑9號","121.594203333333","25.2888616666667","6502200","石門區"
"253002","637-UY","2018/07/28 15:19:21","新北市石門區小坑9號","121.594501666667","25.2891516666667","6502200","石門區"
"253004","8270-PC","2018/07/28 15:19:26","新北市石門區小坑33號","121.59797","25.269545","6502200","石門區"
"207002","749-BX","2018/07/28 15:19:14","新北市萬里區崁腳里內中福路31-2號","121.659845","25.1648333333333","6502800","萬里區"
"207001","662-BX","2018/07/28 15:19:17","新北市萬里區大鵬里萬里加投27-5號","121.648048333333","25.2059466666667","6502800","萬里區"
"236068","105-UM","2018/07/28 15:19:25","新北市土城區裕民路185巷36弄10號","121.454371666667","24.9845333333333","6501300","土城區"
"236040","107-UM","2018/07/28 15:19:22","新北市土城區裕民路259巷12號","121.454925","24.9833666666667","6501300","土城區"
"236074","166-UM","2018/07/28 15:19:25","新北市土城區溪頭路155號","121.40915","24.9506766666667","6501300","土城區"
"236029","253-BX","2018/07/28 15:19:19","新北市土城區中央路一段252-1號","121.44431","24.984555","6501300","土城區"
"236024","269-VK","2018/07/28 15:19:17","新北市土城區員林街61巷1弄1號","121.444075","24.9777633333333","6501300","土城區"
"236013","270-VK","2018/07/28 15:19:14","新北市土城區廣福街68巷5-1號","121.45717","24.9900716666667","6501300","土城區"
"236032","271-VK","2018/07/28 15:19:28","新北市土城區國際路139巷52號","121.468421666667","24.9774883333333","6501300","土城區"
"236017","401-BY","2018/07/28 15:19:25","新北市土城區峰廷街2號","121.468648333333","24.9878","6501300","土城區"
"236057","912-UM","2018/07/28 15:19:26","新北市土城區光明街4號","121.441796666667","24.974475","6501300","土城區"
"236045","913-UM","2018/07/28 15:19:12","新北市土城區明德路一段137號","121.465225","24.980385","6501300","土城區"
"236060","915-UM","2018/07/28 15:19:22","新北市土城區延和路146巷20號","121.468281666667","24.9894283333333","6501300","土城區"
"236054","AAC-216","2018/07/28 15:19:29","新北市土城區延和路14號","121.464063333333","24.9879733333333","6501300","土城區"
"238024","5061-A6","2018/07/28 15:03:43","新北市樹林區育德街78-1號","121.387948333333","24.96811","6500700","樹林區"
"220050","245-BX","2018/07/28 15:19:31","新北市板橋區莊敬路45號","121.47323","25.02695","6500100","板橋區"
"220027","256-TC","2018/07/28 15:19:25","新北市板橋區金門街369巷63號","121.431318333333","24.9821033333333","6500100","板橋區"
"220020","277-BY","2018/07/28 15:19:23","新北市八里區中山路三段386號","121.368508333333","25.1358083333333","6500100","板橋區"
"220031","286-VK","2018/07/28 15:19:26","新北市板橋區僑中二街112巷1號","121.44579","25.007055","6500100","板橋區"
"220041","307-R5","2018/07/28 15:19:28","新北市板橋區民權路182號","121.459211666667","25.0134733333333","6500100","板橋區"
"220052","561-BX","2018/07/28 15:19:20","新北市板橋區漢生西路31號","121.46315","25.0183666666667","6500100","板橋區"
"220025","687-BX","2018/07/28 15:19:18","新北市新莊區中環路一段262號","121.44231","25.0319166666667","6500100","板橋區"
"220051","KEA-2699","2018/07/28 15:19:27","新北市板橋區漢生東路83巷4號","121.467151666667","25.01581","6500100","板橋區"
"220038","833-TW","2018/07/28 15:19:25","新北市板橋區四維路156號","121.464826666667","25.0258833333333","6500100","板橋區"
