"lineid","car","time","location","longitude","latitude","cityid","cityname"
"234070","149-BY","2018/07/28 15:39:23","新北市永和區福和路1號","121.526185","25.009455","6500400","永和區"
"231005","001-UM","2018/07/28 15:39:24","新北市新店區中正路373號","121.534843333333","24.97667","6500600","新店區"
"231028","046-UY","2018/07/28 15:39:22","新北市新店區僑信路4巷2號","121.499691666667","24.9530916666667","6500600","新店區"
"231020","108-UY","2018/07/28 15:39:20","新北市新店區花園六路三段10號","121.55725","24.9323533333333","6500600","新店區"
"231036","110-UY","2018/07/28 15:39:15","新北市新店區安康路二段458號","121.493911666667","24.95419","6500600","新店區"
"231012","187-VK","2018/07/28 15:39:18","新北市新店區寶元路一段109號","121.54569","24.98312","6500600","新店區"
"231023","KEA-2219","2018/07/28 15:39:18","新北市新店區中興路一段285-1號","121.545488333333","24.968545","6500600","新店區"
"231026","256-BX","2018/07/28 15:39:12","新北市新店區三民路77號","121.536043333333","24.9715216666667","6500600","新店區"
"231003","268-BY","2018/07/28 15:39:14","新北市新店區寶橋路132號","121.547166666667","24.9761183333333","6500600","新店區"
"231018","278-BY","2018/07/28 15:39:13","新北市新店區民生路156巷81號","121.5274","24.98196","6500600","新店區"
"231017","AAD-862","2018/07/28 15:39:23","新北市新店區北宜路二段30號","121.548306666667","24.9514716666667","6500600","新店區"
"231038","3712-VJ","2018/07/28 15:39:14","新北市新店區安和路一段6-6號","121.517326666667","24.9654116666667","6500600","新店區"
"231037","4716-K9","2018/07/28 15:39:18","新北市新店區安興路56號","121.516361666667","24.9747416666667","6500600","新店區"
"231025","4715-K9","2018/07/28 15:39:12","新北市新店區薏仁坑路6號","121.500315","24.9579666666667","6500600","新店區"
"231013","513-UM","2018/07/28 15:39:26","新北市新店區永業路81巷5弄1號","121.530065","24.9490266666667","6500600","新店區"
"231034","616-UM","2018/07/28 15:39:28","新北市新店區玫瑰路66巷1號","121.495953333333","24.9452633333333","6500600","新店區"
"231030","619-UM","2018/07/28 15:39:21","新北市新店區新和街93巷2號","121.52106","24.9864766666667","6500600","新店區"
"231039","718-UY","2018/07/28 15:39:29","新北市新店區寶元路二段31巷2號","121.546721666667","24.9816933333333","6500600","新店區"
"231035","719-UM","2018/07/28 15:39:15","新北市新店區安興路83-5號","121.515178333333","24.9754966666667","6500600","新店區"
"231033","720-UM","2018/07/28 15:39:18","新北市新店區雙城路133號","121.497918333333","24.9387816666667","6500600","新店區"
"231029","897-TW","2018/07/28 15:39:26","新北市新店區安豐路54-1號","121.499845","24.9539833333333","6500600","新店區"
"241011","013-R5","2018/07/28 15:39:09","新北市三重區文化北路248號","121.4974","25.0698716666667","6500200","三重區"
"241028","022-UY","2018/07/28 15:39:21","新北市三重區成功路106-1號","121.487615","25.0516066666667","6500200","三重區"
"241008","059-VK","2018/07/28 15:39:18","新北市三重區重新路四段121號","121.485183333333","25.0523516666667","6500200","三重區"
"241022","060-VK","2018/07/28 15:39:17","新北市三重區重新路四段121號","121.484396666667","25.0524266666667","6500200","三重區"
"241015","062-VK","2018/07/28 15:39:31","新北市三重區重新路四段121號","121.485093333333","25.0525666666667","6500200","三重區"
"241017","063-VK","2018/07/28 15:39:09","新北市三重區大仁街1號","121.491633333333","25.0634916666667","6500200","三重區"
"241003","091-VK","2018/07/28 15:39:28","新北市三重區自強路四段33號","121.488968333333","25.0767083333333","6500200","三重區"
"241019","742-BX","2018/07/28 15:39:27","新北市三重區集美街178號","121.49056","25.0533466666667","6500200","三重區"
"241016","266-UM","2018/07/28 15:32:14","新北市三重區重新路四段121號","121.484895","25.0520983333333","6500200","三重區"
"241018","268-UM","2018/07/28 15:39:26","新北市三重區重新路四段121號","121.484765","25.0525016666667","6500200","三重區"
"241013","270-UM","2018/07/28 15:39:27","新北市三重區忠孝路一段2-1號","121.492425","25.07171","6500200","三重區"
"241025","271-UM","2018/07/28 15:39:31","新北市三重區重新路四段121號","121.484825","25.052595","6500200","三重區"
"241007","398-BY","2018/07/28 15:39:24","新北市三重區重新路四段121號","121.485073333333","25.0524283333333","6500200","三重區"
"241004","475-VK","2018/07/28 15:39:20","新北市三重區重新路四段121號","121.484848333333","25.0524633333333","6500200","三重區"
"241020","478-VK","2018/07/28 15:39:29","新北市三重區忠孝路二段54號","121.484993333333","25.0704483333333","6500200","三重區"
"241014","543-UM","2018/07/28 15:39:26","新北市三重區重新路四段121號","121.484916666667","25.0523716666667","6500200","三重區"
"241006","AAD-863","2018/07/28 15:39:20","新北市三重區車路頭街135-1號","121.484286666667","25.07616","6500200","三重區"
"241023","887-TS","2018/07/28 15:39:20","新北市三重區重新路四段121號","121.484836666667","25.0526166666667","6500200","三重區"
"241012","941-UM","2018/07/28 15:39:15","新北市三重區自強路一段64號","121.497226666667","25.0666683333333","6500200","三重區"
"241029","942-UM","2018/07/28 15:39:21","新北市三重區環河南路220-8號","121.493391666667","25.0526733333333","6500200","三重區"
"241033","AAC-255","2018/07/28 15:39:27","新北市三重區重新路五段447號","121.474411666667","25.04738","6500200","三重區"
"235033","4980-A6","2018/07/28 15:39:18","新北市中和區員山路375號","121.480933333333","25.0023033333333","6500300","中和區"
"235026","800-TS","2018/07/28 15:39:23","新北市中和區中正路592號","121.48576","24.9950866666667","6500300","中和區"
"235023","AAC-215","2018/07/28 15:39:25","新北市中和區員山路66-4號","121.481981666667","24.9917633333333","6500300","中和區"
"227002","400-TW","2018/07/28 15:39:15","新北市雙溪區牡丹里中正路54號","121.865418333333","25.0401083333333","6502500","雙溪區"
"253003","6232-TK","2018/07/28 15:39:30","新北市石門區小坑9號","121.59439","25.2883766666667","6502200","石門區"
"236068","105-UM","2018/07/28 15:39:25","新北市土城區中央路三段73-2號","121.43864","24.969055","6501300","土城區"
"236040","107-UM","2018/07/28 15:39:23","新北市土城區學享街30號","121.451715","24.987115","6501300","土城區"
"236074","166-UM","2018/07/28 15:39:28","新北市土城區福安街104號","121.417381666667","24.9639566666667","6501300","土城區"
"236029","253-BX","2018/07/28 15:39:19","新北市土城區中央路一段45巷2弄2號","121.448453333333","24.9903183333333","6501300","土城區"
"236024","269-VK","2018/07/28 15:39:17","新北市土城區裕生路83巷29弄2號","121.44822","24.9838266666667","6501300","土城區"
"236013","270-VK","2018/07/28 15:39:19","新北市土城區四川路1號","121.456193333333","24.9957683333333","6501300","土城區"
"236017","401-BY","2018/07/28 15:39:31","新北市土城區延吉街43號","121.472358333333","24.9878566666667","6501300","土城區"
"236057","912-UM","2018/07/28 15:39:26","新北市土城區中央路一段237號","121.445466666667","24.9861633333333","6501300","土城區"
"236045","913-UM","2018/07/28 15:39:11","新北市土城區金城路三段205-1號","121.470388333333","24.9891916666667","6501300","土城區"
"236054","AAC-216","2018/07/28 15:39:20","新北市土城區中華路一段14號","121.44791","24.9905116666667","6501300","土城區"
"238024","5061-A6","2018/07/28 15:22:20","新北市樹林區育德街78-1號","121.387995","24.9680316666667","6500700","樹林區"
"220050","245-BX","2018/07/28 15:39:11","新北市板橋區民生路二段56-6號","121.470958333333","25.0190266666667","6500100","板橋區"
"220020","277-BY","2018/07/28 15:39:23","新北市八里區荖阡坑路20-9號","121.398458333333","25.1378466666667","6500100","板橋區"
"220052","561-BX","2018/07/28 15:39:20","新北市板橋區漢生東路63巷1號","121.465826666667","25.0163183333333","6500100","板橋區"
"220025","687-BX","2018/07/28 15:39:18","新北市八里區中山路三段383號","121.37207","25.1377416666667","6500100","板橋區"
"220038","833-TW","2018/07/28 15:39:25","新北市板橋區文化路一段479巷42號","121.467673333333","25.02324","6500100","板橋區"
