"lineid","car","time","location","longitude","latitude","cityid","cityname"
"231046","107-UY","2018/07/28 16:09:27","新北市新店區灣潭路4-1號","121.536676666667","24.9479266666667","6500600","新店區"
"231012","187-VK","2018/07/28 16:09:18","新北市新店區安德街148巷37號","121.507295","24.9613333333333","6500600","新店區"
"231018","278-BY","2018/07/28 16:09:13","新北市新店區中正路694巷15號","121.535366666667","24.99089","6500600","新店區"
"231034","616-UM","2018/07/28 16:09:28","新北市新店區薏仁坑路自強巷1號","121.496815","24.958125","6500600","新店區"
"241011","013-R5","2018/07/28 16:09:29","新北市三重區正義北路378號","121.493355","25.071525","6500200","三重區"
"241028","022-UY","2018/07/28 16:09:21","新北市三重區正義南路111號","121.49823","25.058545","6500200","三重區"
"241008","059-VK","2018/07/28 16:09:18","新北市三重區忠孝路三段2號","121.482073333333","25.0677666666667","6500200","三重區"
"241022","060-VK","2018/07/28 16:09:17","新北市三重區新北大道一段7號","121.489648333333","25.0612116666667","6500200","三重區"
"241031","061-VK","2018/07/28 16:09:26","新北市三重區重新路四段121號","121.484618333333","25.0521666666667","6500200","三重區"
"241015","062-VK","2018/07/28 16:09:31","新北市三重區三和路一段2號","121.503918333333","25.0642433333333","6500200","三重區"
"241017","063-VK","2018/07/28 16:09:29","新北市三重區民生街80號","121.490521666667","25.064705","6500200","三重區"
"241024","065-VK","2018/07/28 16:09:20","新北市三重區力行路一段38巷13號","121.48579","25.0675433333333","6500200","三重區"
"241026","066-VK","2018/07/28 16:09:30","新北市三重區正義南路15-2號","121.497943333333","25.061435","6500200","三重區"
"241002","090-VK","2018/07/28 16:09:16","新北市三重區仁義街91號","121.499871666667","25.07939","6500200","三重區"
"241003","091-VK","2018/07/28 16:09:19","新北市三重區仁義街218-2號","121.495601666667","25.0836916666667","6500200","三重區"
"241019","742-BX","2018/07/28 16:09:27","新北市三重區重陽路三段97號","121.490261666667","25.06803","6500200","三重區"
"241005","262-UM","2018/07/28 16:09:17","新北市三重區溪尾街300-2號","121.487501666667","25.0837133333333","6500200","三重區"
"241016","266-UM","2018/07/28 16:09:17","新北市三重區新北大道一段7號","121.48982","25.06134","6500200","三重區"
"241009","267-UM","2018/07/28 16:09:26","新北市三重區車路頭街4巷14號","121.48339","25.0700633333333","6500200","三重區"
"241018","268-UM","2018/07/28 16:09:16","新北市三重區明志街65號","121.491181666667","25.0639083333333","6500200","三重區"
"241013","270-UM","2018/07/28 16:09:27","新北市三重區三和路三段71號","121.49482","25.0718366666667","6500200","三重區"
"241025","271-UM","2018/07/28 16:09:15","新北市三重區中正北路178號","121.483273333333","25.0669016666667","6500200","三重區"
"241007","398-BY","2018/07/28 16:09:24","新北市三重區慈愛街8號","121.484496666667","25.0783666666667","6500200","三重區"
"241004","475-VK","2018/07/28 16:09:20","新北市三重區五華街74號","121.49346","25.0819533333333","6500200","三重區"
"241020","478-VK","2018/07/28 16:09:29","新北市三重區後竹圍街267號","121.48302","25.0711783333333","6500200","三重區"
"241014","543-UM","2018/07/28 16:09:26","新北市三重區河邊北街23號","121.504505","25.06555","6500200","三重區"
"241001","547-UM","2018/07/28 16:09:18","新北市三重區忠孝路二段60號","121.484813333333","25.07034","6500200","三重區"
"241006","AAD-863","2018/07/28 16:09:20","新北市三重區永福街58巷3弄20號","121.4807","25.0773183333333","6500200","三重區"
"241023","887-TS","2018/07/28 16:09:19","新北市三重區力行路1段60-6號","121.483868333333","25.0689416666667","6500200","三重區"
"241012","941-UM","2018/07/28 16:09:15","新北市三重區文化北路132巷47號","121.497506666667","25.0665666666667","6500200","三重區"
"241029","942-UM","2018/07/28 16:09:21","新北市三重區同安街76號","121.495278333333","25.05661","6500200","三重區"
"241033","AAC-255","2018/07/28 16:09:27","新北市三重區重新路五段408巷30號","121.476293333333","25.0453383333333","6500200","三重區"
"224007","275-VK","2018/07/28 16:09:15","新北市瑞芳區粗坑口路24號","121.761376666667","25.0989233333333","6501200","瑞芳區"
"227010","642-TC","2018/07/28 16:09:18","新北市雙溪區三港里雙澳路71號","121.880838333333","25.05356","6502500","雙溪區"
"227002","400-TW","2018/07/28 16:09:15","新北市雙溪區上林里內平林47號","121.833308333333","25.0304266666667","6502500","雙溪區"
"251008","181-VK","2018/07/28 16:09:26","新北市淡水區馬偕街28-9號","121.437586666667","25.172985","6501000","淡水區"
"220025","687-BX","2018/07/28 16:07:58","新北市五股區凌雲路三段24巷10號","121.435775","25.1069966666667","6500100","板橋區"
