"lineid","car","time","location","longitude","latitude","cityid","cityname"
"231046","107-UY","2018/07/28 16:19:27","新北市新店區灣潭路3-3號","121.538246666667","24.9507983333333","6500600","新店區"
"231018","278-BY","2018/07/28 16:19:13","新北市新店區安和路三段4巷3號","121.520268333333","24.9808183333333","6500600","新店區"
"241011","013-R5","2018/07/28 16:19:29","新北市三重區龍濱路285號","121.501121666667","25.0733466666667","6500200","三重區"
"241028","022-UY","2018/07/28 16:19:21","新北市三重區正義南路181巷1號","121.498975","25.0571816666667","6500200","三重區"
"241008","059-VK","2018/07/28 16:19:18","新北市三重區力行路二段136巷45弄12號","121.479033333333","25.0753233333333","6500200","三重區"
"241022","060-VK","2018/07/28 16:19:17","新北市三重區新北大道一段11號","121.488038333333","25.0608816666667","6500200","三重區"
"241031","061-VK","2018/07/28 16:19:25","新北市三重區重陽路一段49號","121.48675","25.0581983333333","6500200","三重區"
"241015","062-VK","2018/07/28 16:19:11","新北市三重區福德北路75號","121.501971666667","25.065775","6500200","三重區"
"241017","063-VK","2018/07/28 16:19:29","新北市三重區大同北路91號","121.49478","25.0636416666667","6500200","三重區"
"241024","065-VK","2018/07/28 16:19:20","新北市三重區中正北路145巷1弄1號","121.483046666667","25.0675433333333","6500200","三重區"
"241026","066-VK","2018/07/28 16:19:10","新北市三重區正義南路38號","121.498188333333","25.0608666666667","6500200","三重區"
"241002","090-VK","2018/07/28 16:19:16","新北市三重區仁義街91號","121.499853333333","25.07939","6500200","三重區"
"241003","091-VK","2018/07/28 16:19:19","新北市三重區五華街92巷9-1號","121.492868333333","25.0824383333333","6500200","三重區"
"241019","742-BX","2018/07/28 16:19:27","新北市三重區重陽路三段176號","121.489886666667","25.0680983333333","6500200","三重區"
"241005","262-UM","2018/07/28 16:19:17","新北市三重區溪尾街300-2號","121.487455","25.0836733333333","6500200","三重區"
"241016","266-UM","2018/07/28 16:19:17","新北市三重區大仁街96號","121.492921666667","25.0656116666667","6500200","三重區"
"241009","267-UM","2018/07/28 16:19:26","新北市三重區溪尾街244號","121.487616666667","25.0820083333333","6500200","三重區"
"241018","268-UM","2018/07/28 16:19:16","新北市三重區重陽路三段142-1號","121.489291666667","25.06717","6500200","三重區"
"241032","269-UM","2018/07/28 16:19:31","新北市三重區三陽路100巷3弄13號","121.483005","25.0581616666667","6500200","三重區"
"241013","270-UM","2018/07/28 16:19:27","新北市三重區龍門路76號","121.49692","25.0728133333333","6500200","三重區"
"241025","271-UM","2018/07/28 16:19:11","新北市三重區中正北路560巷100弄2號","121.472648333333","25.0682233333333","6500200","三重區"
"241007","398-BY","2018/07/28 16:19:24","新北市三重區仁美街83號","121.486161666667","25.07951","6500200","三重區"
"241004","475-VK","2018/07/28 16:19:20","新北市三重區五華街74號","121.49349","25.0819666666667","6500200","三重區"
"241020","478-VK","2018/07/28 16:19:29","新北市三重區力行路一段257號","121.482473333333","25.0707833333333","6500200","三重區"
"241014","543-UM","2018/07/28 16:19:26","新北市三重區河邊北街96-1號","121.503945","25.0698583333333","6500200","三重區"
"241001","547-UM","2018/07/28 16:19:32","新北市三重區自強路四段87號","121.491063333333","25.0792966666667","6500200","三重區"
"241006","AAD-863","2018/07/28 16:19:20","新北市三重區永福街46巷31弄14號","121.481816666667","25.0774666666667","6500200","三重區"
"241023","887-TS","2018/07/28 16:19:19","新北市三重區忠孝路三段84巷1號","121.480258333333","25.0645116666667","6500200","三重區"
"241012","941-UM","2018/07/28 16:19:15","新北市三重區河邊北街313號","121.502446666667","25.0748666666667","6500200","三重區"
"241029","942-UM","2018/07/28 16:19:21","新北市三重區環河南路220-8號","121.49334","25.0526916666667","6500200","三重區"
"241033","AAC-255","2018/07/28 16:19:27","新北市三重區重新路五段442號","121.474901666667","25.0471633333333","6500200","三重區"
"224007","275-VK","2018/07/28 16:19:15","新北市瑞芳區大埔路180-3號","121.76223","25.101925","6501200","瑞芳區"
"224005","271-BY","2018/07/28 16:19:16","新北市瑞芳區中山路207號","121.801285","25.1066783333333","6501200","瑞芳區"
"227010","642-TC","2018/07/28 16:19:18","新北市雙溪區三港里雙澳路80號","121.883795","25.05386","6502500","雙溪區"
"227002","400-TW","2018/07/28 16:19:15","新北市雙溪區上林里內平林80號","121.828338333333","25.02796","6502500","雙溪區"
"251013","KEA-2871","2018/07/28 16:19:26","新北市淡水區北新路三段112-1號","121.485921666667","25.1880716666667","6501000","淡水區"
"251014","180-VK","2018/07/28 16:19:16","新北市淡水區沙崙路20號","121.421176666667","25.18116","6501000","淡水區"
"251008","181-VK","2018/07/28 16:19:13","新北市淡水區中正東路一段105巷5號","121.453155","25.1607916666667","6501000","淡水區"
"220025","687-BX","2018/07/28 16:19:18","新北市板橋區僑中一街124巷92-1號","121.447561666667","25.0185016666667","6500100","板橋區"
