"lineid","car","time","location","longitude","latitude","cityid","cityname"
"249005","172-UM","2018/07/28 16:39:30","新北市八里區仁愛路10號","121.413288333333","25.16237","6502300","八里區"
"231046","107-UY","2018/07/28 16:39:30","新北市新店區灣潭路46-1號","121.542535","24.9455833333333","6500600","新店區"
"241011","013-R5","2018/07/28 16:39:29","新北市三重區仁愛街45號","121.496711666667","25.0717366666667","6500200","三重區"
"241028","022-UY","2018/07/28 16:39:21","新北市三重區重新路三段7號","121.495353333333","25.0617183333333","6500200","三重區"
"241008","059-VK","2018/07/28 16:39:18","新北市三重區永安北路一段27巷24號","121.477248333333","25.07558","6500200","三重區"
"241022","060-VK","2018/07/28 16:39:17","新北市三重區新北大道一段92巷6號","121.48574","25.0617383333333","6500200","三重區"
"241031","061-VK","2018/07/28 16:39:25","新北市三重區重新路四段41巷24號","121.487438333333","25.0585033333333","6500200","三重區"
"241015","062-VK","2018/07/28 16:39:11","新北市三重區信義西街4號","121.499","25.0648033333333","6500200","三重區"
"241017","063-VK","2018/07/28 16:39:29","新北市三重區中正北路25巷2號","121.493293333333","25.062695","6500200","三重區"
"241024","065-VK","2018/07/28 16:39:20","新北市三重區中正北路315巷6弄20號","121.475861666667","25.0721266666667","6500200","三重區"
"241026","066-VK","2018/07/28 16:39:30","新北市三重區和平街34號","121.501825","25.0626316666667","6500200","三重區"
"241002","090-VK","2018/07/28 16:39:23","新北市三重區仁義街245號","121.496203333333","25.0826233333333","6500200","三重區"
"241003","091-VK","2018/07/28 16:39:19","新北市三重區五華街87巷3號","121.492346666667","25.0834683333333","6500200","三重區"
"241019","742-BX","2018/07/28 16:39:27","新北市三重區安慶街316號","121.488708333333","25.067135","6500200","三重區"
"241005","262-UM","2018/07/28 16:39:17","新北市三重區仁華街122號","121.486226666667","25.08322","6500200","三重區"
"241016","266-UM","2018/07/28 16:39:17","新北市三重區大智街9號","121.494576666667","25.0651566666667","6500200","三重區"
"241009","267-UM","2018/07/28 16:39:26","新北市三重區三和路四段203巷82號","121.483825","25.0799683333333","6500200","三重區"
"241018","268-UM","2018/07/28 16:39:16","新北市三重區六張街71號","121.49362","25.0702183333333","6500200","三重區"
"241032","269-UM","2018/07/28 16:39:31","新北市三重區新北大道一段168號","121.483585","25.061405","6500200","三重區"
"241013","270-UM","2018/07/28 16:39:27","新北市三重區三和路三段101巷64號","121.496255","25.0730116666667","6500200","三重區"
"241025","271-UM","2018/07/28 16:39:11","新北市三重區中正北路331巷8號","121.473606666667","25.071965","6500200","三重區"
"241007","398-BY","2018/07/28 16:39:24","新北市三重區仁美街86號","121.485905","25.079775","6500200","三重區"
"241030","413-TH","2018/07/28 16:39:23","新北市三重區環河南路286號","121.488968333333","25.0489366666667","6500200","三重區"
"241004","475-VK","2018/07/28 16:39:20","新北市三重區五福街13號","121.49273","25.0815016666667","6500200","三重區"
"241020","478-VK","2018/07/28 16:39:29","新北市三重區車路頭街53號","121.483998333333","25.0723483333333","6500200","三重區"
"241014","543-UM","2018/07/28 16:39:26","新北市三重區龍濱路32號","121.502898333333","25.0681133333333","6500200","三重區"
"241001","547-UM","2018/07/28 16:39:18","新北市三重區仁愛街202號","121.493835","25.0773916666667","6500200","三重區"
"241006","AAD-863","2018/07/28 16:39:20","新北市三重區力行路二段91巷21弄5號","121.483473333333","25.07554","6500200","三重區"
"241023","887-TS","2018/07/28 16:39:20","新北市三重區中華路134號","121.483523333333","25.0641633333333","6500200","三重區"
"241012","941-UM","2018/07/28 16:39:15","新北市三重區仁興街6號","121.499758333333","25.073785","6500200","三重區"
"241029","942-UM","2018/07/28 16:39:21","新北市三重區集美街112巷13號","121.489486666667","25.054095","6500200","三重區"
"241033","AAC-255","2018/07/28 16:39:27","新北市三重區光復路二段45號","121.472336666667","25.0555066666667","6500200","三重區"
"235046","733-UM","2018/07/28 16:27:19","新北市中和區員山路36巷13號","121.484188333333","24.9908933333333","6500300","中和區"
"247006","336-TH","2018/07/28 16:39:21","新北市五股區中興路三段173號","121.445025","25.08084","6501400","蘆洲區"
"247008","056-VK","2018/07/28 16:39:17","新北市五股區中興路三段165號","121.446278333333","25.0806133333333","6501400","蘆洲區"
"247020","001-UY","2018/07/28 16:39:23","新北市五股區成洲一路25號","121.44973","25.0948716666667","6501400","蘆洲區"
"228002","663-BX","2018/07/28 16:39:21","新北市貢寮區貢寮里朝陽街24號","121.911368333333","25.0216216666667","6502600","貢寮區"
"224008","285-BY","2018/07/28 16:39:32","新北市瑞芳區傑魚坑路183號","121.788421666667","25.1080283333333","6501200","瑞芳區"
"224007","275-VK","2018/07/28 16:39:30","新北市瑞芳區瑞竹路129號","121.761583333333","25.103995","6501200","瑞芳區"
"224009","273-VK","2018/07/28 16:39:16","新北市瑞芳區大寮路356-1號","121.784743333333","25.10331","6501200","瑞芳區"
"224005","271-BY","2018/07/28 16:39:16","新北市瑞芳區洞頂路136號","121.86233","25.1242566666667","6501200","瑞芳區"
"227010","642-TC","2018/07/28 16:39:18","新北市雙溪區牡丹里中正路54號","121.865406666667","25.0400233333333","6502500","雙溪區"
"227002","400-TW","2018/07/28 16:39:15","新北市雙溪區外柑里外柑腳58號","121.807888333333","25.0178383333333","6502500","雙溪區"
"251013","KEA-2871","2018/07/28 16:39:26","新北市淡水區楓樹湖12-1號","121.498603333333","25.187635","6501000","淡水區"
"251016","179-VK","2018/07/28 16:39:15","新北市淡水區新市一路三段57號","121.445876666667","25.1830566666667","6501000","淡水區"
"251014","180-VK","2018/07/28 16:39:16","新北市淡水區淡金路四段476號","121.45244","25.2239016666667","6501000","淡水區"
"251008","181-VK","2018/07/28 16:39:33","台北市北投區中央北路四段30巷150-3號","121.473573333333","25.1398283333333","6501000","淡水區"
"252002","178-VK","2018/07/28 16:39:28","新北市三芝區晴光街1號","121.51037","25.2578916666667","6502100","三芝區"
"238024","5061-A6","2018/07/28 16:39:22","新北市樹林區育德街78-1號","121.388048333333","24.9680916666667","6500700","樹林區"
"220054","741-BX","2018/07/28 16:33:43","新北市板橋區華東街1-9號","121.448053333333","24.9949466666667","6500100","板橋區"
