"lineid","car","time","location","longitude","latitude","cityid","cityname"
"249005","172-UM","2018/07/28 17:09:10","新北市八里區華富山5-1號","121.419023333333","25.1428133333333","6502300","八里區"
"249001","173-UM","2018/07/28 17:09:20","新北市八里區中華路二段316號","121.40378","25.1481366666667","6502300","八里區"
"249002","305-UY","2018/07/28 17:09:25","新北市八里區龍米路二段147巷6-1號","121.441146666667","25.1495916666667","6502300","八里區"
"249003","593-UM","2018/07/28 17:09:24","新北市八里區中山路二段548號","121.397338333333","25.1464866666667","6502300","八里區"
"249004","759-BX","2018/07/28 17:09:30","新北市八里區忠孝路258號","121.420928333333","25.161065","6502300","八里區"
"244007","080-UY","2018/07/28 17:09:21","新北市林口區菁埔路39號","121.375431666667","25.0973383333333","6501700","林口區"
"244019","403-UM","2018/07/28 17:08:57","新北市林口區四維路156號","121.38052","25.0755916666667","6501700","林口區"
"244017","485-VK","2018/07/28 17:09:12","新北市林口區粉寮69號","121.405108333333","25.0908183333333","6501700","林口區"
"244025","837-TS","2018/07/28 17:09:18","新北市林口區中山路61號","121.39399","25.0785716666667","6501700","林口區"
"244021","838-TS","2018/07/28 17:09:12","新北市林口區粉寮路二段46-1號","121.403501666667","25.087015","6501700","林口區"
"231046","107-UY","2018/07/28 17:09:27","新北市新店區直潭七街60號","121.532391666667","24.9396233333333","6500600","新店區"
"241011","013-R5","2018/07/28 17:09:29","新北市三重區龍濱路285號","121.501105","25.0733616666667","6500200","三重區"
"241028","022-UY","2018/07/28 17:09:21","新北市三重區重新路三段108號","121.492231666667","25.0604233333333","6500200","三重區"
"241008","059-VK","2018/07/28 17:09:18","新北市三重區力行路二段136巷17弄2號","121.481676666667","25.0756733333333","6500200","三重區"
"241022","060-VK","2018/07/28 17:09:17","新北市三重區重陽路二段18巷3號","121.486541666667","25.06245","6500200","三重區"
"241015","062-VK","2018/07/28 17:09:31","新北市三重區長生街20號","121.499391666667","25.0664133333333","6500200","三重區"
"241017","063-VK","2018/07/28 17:09:29","新北市三重區中正北路25巷25弄3號","121.493273333333","25.062675","6500200","三重區"
"241024","065-VK","2018/07/28 17:09:20","新北市三重區中正北路201號","121.477101666667","25.06989","6500200","三重區"
"241026","066-VK","2018/07/28 17:09:30","新北市三重區重新路一段103號","121.50074","25.06331","6500200","三重區"
"241002","090-VK","2018/07/28 17:09:15","新北市三重區五華街35巷32號","121.495271666667","25.0814033333333","6500200","三重區"
"241003","091-VK","2018/07/28 17:09:19","新北市三重區富福街106號","121.493328333333","25.0855266666667","6500200","三重區"
"241019","742-BX","2018/07/28 17:09:27","新北市三重區力行路一段153巷19弄3號","121.485848333333","25.0687516666667","6500200","三重區"
"241005","262-UM","2018/07/28 17:09:17","新北市三重區仁愛街715號","121.482075","25.0806516666667","6500200","三重區"
"241016","266-UM","2018/07/28 17:09:17","新北市三重區大同北路132巷6號","121.492465","25.0647583333333","6500200","三重區"
"241009","267-UM","2018/07/28 17:09:26","新北市三重區三和路四段215巷12號","121.482221666667","25.07992","6500200","三重區"
"241018","268-UM","2018/07/28 17:09:16","新北市三重區正義北路332-1號","121.494383333333","25.0704116666667","6500200","三重區"
"241032","269-UM","2018/07/28 17:09:31","新北市三重區三陽路13巷1號","121.48605","25.0594883333333","6500200","三重區"
"241013","270-UM","2018/07/28 17:09:27","新北市三重區仁昌街16號","121.49633","25.0740366666667","6500200","三重區"
"241025","271-UM","2018/07/28 17:09:30","新北市三重區中正北路560巷89號","121.470888333333","25.068695","6500200","三重區"
"241007","398-BY","2018/07/28 17:09:23","新北市三重區三和路四段163巷18號","121.4847","25.0791216666667","6500200","三重區"
"241030","413-TH","2018/07/28 17:09:23","新北市三重區集成路3號","121.488311666667","25.0517033333333","6500200","三重區"
"241004","475-VK","2018/07/28 17:09:20","新北市三重區五華街122巷1號","121.491733333333","25.0831333333333","6500200","三重區"
"241020","478-VK","2018/07/28 17:09:29","新北市三重區自強路三段36號","121.486873333333","25.07251","6500200","三重區"
"241014","543-UM","2018/07/28 17:09:26","新北市三重區龍濱路120-1號","121.501938333333","25.0710133333333","6500200","三重區"
"241001","547-UM","2018/07/28 17:09:18","新北市三重區仁愛街255巷14號","121.49353","25.07858","6500200","三重區"
"241006","AAD-863","2018/07/28 17:09:20","新北市三重區三和路四段218巷5號","121.486015","25.0764783333333","6500200","三重區"
"241023","887-TS","2018/07/28 17:09:19","新北市三重區忠孝路三段84巷1號","121.480313333333","25.0646533333333","6500200","三重區"
"241012","941-UM","2018/07/28 17:09:15","新北市三重區仁壽街186號","121.500626666667","25.074665","6500200","三重區"
"241029","942-UM","2018/07/28 17:09:21","新北市三重區重新路四段65-10號","121.487071666667","25.0568666666667","6500200","三重區"
"241033","AAC-255","2018/07/28 17:09:27","新北市三重區中興北街275號","121.469111666667","25.0607366666667","6500200","三重區"
"247010","KEA-2869","2018/07/28 17:09:12","新北市蘆洲區民族路14號","121.475875","25.084085","6501400","蘆洲區"
"247014","546-UM","2018/07/28 17:09:18","新北市蘆洲區中央路8號","121.473551666667","25.0824683333333","6501400","蘆洲區"
"247022","500-BY","2018/07/28 17:09:19","新北市蘆洲區三民路247號","121.468766666667","25.08916","6501400","蘆洲區"
"247012","339-TH","2018/07/28 17:09:25","新北市蘆洲區信義路294號","121.477841666667","25.08766","6501400","蘆洲區"
"247004","337-TH","2018/07/28 17:09:21","新北市蘆洲區長安街138號","121.460285","25.0820383333333","6501400","蘆洲區"
"247006","336-TH","2018/07/28 17:09:24","新北市蘆洲區中華街6巷5號","121.462315","25.08247","6501400","蘆洲區"
"247018","057-VK","2018/07/28 17:09:21","新北市蘆洲區復興路87巷6號","121.476326666667","25.0877","6501400","蘆洲區"
"247008","056-VK","2018/07/28 17:09:17","新北市蘆洲區信義路30巷81號","121.475025","25.0775883333333","6501400","蘆洲區"
"247024","053-VK","2018/07/28 17:09:28","新北市蘆洲區長興路25號","121.463705","25.08338","6501400","蘆洲區"
"247016","007-UY","2018/07/28 17:09:21","新北市蘆洲區光華路73巷27-1號","121.468646666667","25.08217","6501400","蘆洲區"
"247002","002-UY","2018/07/28 17:09:10","新北市蘆洲區永樂街90號","121.456635","25.0887166666667","6501400","蘆洲區"
"247020","001-UY","2018/07/28 17:09:23","新北市蘆洲區仁愛街62巷10號","121.472013333333","25.09421","6501400","蘆洲區"
"228002","663-BX","2018/07/28 17:09:18","新北市平溪區平湖里坑頭2號","121.910763333333","25.0173416666667","6502600","貢寮區"
"228001","670-TC","2018/07/28 17:09:14","新北市貢寮區仁理村研海街29號","121.929538333333","25.0326183333333","6502600","貢寮區"
"224006","676-BX","2018/07/28 17:09:15","新北市瑞芳區大寮路91號","121.780573333333","25.0976183333333","6501200","瑞芳區"
"224008","285-BY","2018/07/28 17:09:28","新北市瑞芳區侯硐路282號","121.830955","25.089495","6501200","瑞芳區"
"224007","275-VK","2018/07/28 17:09:15","新北市瑞芳區粗坑口路48號","121.762118333333","25.0986566666667","6501200","瑞芳區"
"224009","273-VK","2018/07/28 17:09:16","新北市瑞芳區街頂巷36號","121.843583333333","25.1105866666667","6501200","瑞芳區"
"224005","271-BY","2018/07/28 17:09:17","新北市瑞芳區鼻頭路245-1號","121.913243333333","25.1239816666667","6501200","瑞芳區"
"227010","642-TC","2018/07/28 17:09:18","新北市雙溪區牡丹里下坑29號","121.850085","25.0568383333333","6502500","雙溪區"
"227002","400-TW","2018/07/28 17:09:15","新北市雙溪區外柑里外柑腳35號","121.810686666667","25.0186983333333","6502500","雙溪區"
"251009","008-UM","2018/07/28 17:09:28","新北市淡水區三民街20號","121.43898","25.1717133333333","6501000","淡水區"
"251004","009-UM","2018/07/28 17:09:17","新北市淡水區中正東路36-1號","121.449025","25.1657666666667","6501000","淡水區"
"251005","010-UM","2018/07/28 17:09:31","新北市淡水區學府路88號","121.449056666667","25.1710966666667","6501000","淡水區"
"251002","012-UM","2018/07/28 17:09:12","新北市淡水區中正路二段18號","121.41989","25.1809066666667","6501000","淡水區"
"251013","KEA-2871","2018/07/28 17:09:26","新北市淡水區大埤頭4號","121.487721666667","25.19564","6501000","淡水區"
"251016","179-VK","2018/07/28 17:09:29","新北市淡水區社厝坑3-6號","121.474928333333","25.18845","6501000","淡水區"
"251014","180-VK","2018/07/28 17:09:16","新北市淡水區八里堆7-5號","121.460206666667","25.22525","6501000","淡水區"
"251008","181-VK","2018/07/28 17:09:26","新北市淡水區民生路169號","121.470086666667","25.14249","6501000","淡水區"
"251015","182-VK","2018/07/28 17:09:16","新北市淡水區樹林口42-8號","121.467261666667","25.1684266666667","6501000","淡水區"
"251010","413-VK","2018/07/28 17:09:30","新北市淡水區新市五路二段75號","121.431276666667","25.198295","6501000","淡水區"
"251012","441-VK","2018/07/28 17:09:30","新北市淡水區中山北路一段156號","121.444186666667","25.1779083333333","6501000","淡水區"
"251007","442-VK","2018/07/28 17:09:31","新北市淡水區民權路77號","121.459678333333","25.1386283333333","6501000","淡水區"
"251006","561-UM","2018/07/28 17:09:16","新北市淡水區真理街6號","121.438441666667","25.1745683333333","6501000","淡水區"
"251011","650-BX","2018/07/28 17:09:25","新北市淡水區坪頂路52巷10號","121.457813333333","25.1624816666667","6501000","淡水區"
"252002","178-VK","2018/07/28 17:09:28","新北市三芝區忠孝街1-19號","121.505846666667","25.2532316666667","6502100","三芝區"
"252001","292-VK","2018/07/28 17:09:14","新北市三芝區埔頭里埔頭17-2號","121.494843333333","25.2602","6502100","三芝區"
"242034","AAC-296","2018/07/28 17:09:16","新北市新莊區三和路12-21號","121.442355","25.0380383333333","6500500","新莊區"
"242053","751-BX","2018/07/28 17:09:21","新北市新莊區三和路12-21號","121.441976666667","25.0379016666667","6500500","新莊區"
"242025","613-BX","2018/07/28 17:09:20","新北市新莊區新泰路357巷3弄57號","121.442108333333","25.0391016666667","6500500","新莊區"
"242029","612-BX","2018/07/28 17:09:28","新北市新莊區新泰路357巷3弄57號","121.442171666667","25.0392783333333","6500500","新莊區"
"242042","566-BX","2018/07/28 17:09:23","新北市新莊區新泰路255巷83號","121.44213","25.0390566666667","6500500","新莊區"
"242046","497-BY","2018/07/28 17:09:27","新北市新莊區新泰路415-1號","121.442046666667","25.0442533333333","6500500","新莊區"
"242015","442-UM","2018/07/28 17:09:26","新北市新莊區新泰路255巷83號","121.442041666667","25.0388816666667","6500500","新莊區"
"242051","441-UM","2018/07/28 17:09:16","新北市新莊區中正路487號","121.441036666667","25.0336433333333","6500500","新莊區"
"242056","440-UM","2018/07/28 17:09:27","新北市新莊區新泰路357巷3弄57號","121.441918333333","25.03918","6500500","新莊區"
"242036","415-TV","2018/07/28 17:09:22","新北市新莊區新泰路357巷3弄57號","121.442008333333","25.03932","6500500","新莊區"
"242007","413-TV","2018/07/28 17:09:20","新北市新莊區新泰路357巷3弄57號","121.442096666667","25.03942","6500500","新莊區"
"242044","400-BY","2018/07/28 17:09:13","新北市泰山區磚雅厝3號","121.442095","25.0416133333333","6500500","新莊區"
"242023","362-BY","2018/07/28 17:09:15","新北市新莊區三和路12-21號","121.442143333333","25.03864","6500500","新莊區"
"242061","353-BY","2018/07/28 17:09:32","新北市新莊區新泰路255巷83號","121.442158333333","25.0387916666667","6500500","新莊區"
"242039","133-UY","2018/07/28 17:09:17","新北市新莊區中正路481號","121.441365","25.0337233333333","6500500","新莊區"
"242048","172-VK","2018/07/28 17:09:25","新北市新莊區中正路424號","121.44079","25.0336766666667","6500500","新莊區"
"242017","175-VK","2018/07/28 17:09:28","新北市新莊區三和路12-21號","121.441961666667","25.0386683333333","6500500","新莊區"
"242004","176-VK","2018/07/28 17:09:19","新北市新莊區三和路12-21號","121.442068333333","25.0386533333333","6500500","新莊區"
"242021","348-TH","2018/07/28 17:09:15","新北市新莊區三和路12-11號","121.442193333333","25.0369","6500500","新莊區"
"242002","349-TH","2018/07/28 17:09:17","新北市新莊區三和路12-17號","121.441995","25.03751","6500500","新莊區"
"242019","350-TH","2018/07/28 17:09:12","新北市新莊區新泰路357巷3弄57號","121.442001666667","25.0390383333333","6500500","新莊區"
"242013","351-TH","2018/07/28 17:09:28","新北市新莊區新泰路357巷3弄57號","121.442085","25.039475","6500500","新莊區"
"238023","601-UM","2018/07/28 17:09:27","新北市樹林區長壽街37號","121.420178333333","24.995355","6500700","樹林區"
"238019","599-UM","2018/07/28 17:09:14","新北市樹林區八德街253號","121.421685","24.9784116666667","6500700","樹林區"
"238018","571-TV","2018/07/28 17:09:27","新北市樹林區博愛街215號","121.424071666667","24.9868983333333","6500700","樹林區"
"238024","5061-A6","2018/07/28 17:09:20","新北市樹林區鎮前街160號","121.424458333333","24.9900466666667","6500700","樹林區"
"238022","KEA-2213","2018/07/28 17:09:13","新北市樹林區忠孝街26號","121.42362","24.9820516666667","6500700","樹林區"
"238017","283-BY","2018/07/28 17:09:23","新北市樹林區大安路259號","121.419145","24.9939933333333","6500700","樹林區"
"238014","282-BY","2018/07/28 17:09:17","新北市樹林區大安路626號","121.411275","24.9825766666667","6500700","樹林區"
"238020","268-VK","2018/07/28 17:09:29","新北市樹林區大安路251號","121.419365","24.9941666666667","6500700","樹林區"
"238016","169-UY","2018/07/28 17:09:29","新北市樹林區八德街1號","121.417638333333","24.9848016666667","6500700","樹林區"
"239007","AAC-297","2018/07/28 17:09:22","新北市鶯歌區信義街58號","121.353423333333","24.95504","6500800","鶯歌區"
"239006","891-R6","2018/07/28 17:09:33","新北市鶯歌區八德路2巷20弄2號","121.336335","24.9466166666667","6500800","鶯歌區"
"239008","527-UM","2018/07/28 17:09:15","新北市鶯歌區尖山路68號","121.349231666667","24.9496066666667","6500800","鶯歌區"
"239005","526-UM","2018/07/28 17:09:22","新北市鶯歌區鶯桃路298號","121.33406","24.961165","6500800","鶯歌區"
"239001","417-VK","2018/07/28 17:09:19","新北市鶯歌區尖山路140巷12弄1號","121.346311666667","24.9494516666667","6500800","鶯歌區"
"239002","359-BY","2018/07/28 17:09:19","新北市鶯歌區建國路200號","121.349458333333","24.9535166666667","6500800","鶯歌區"
"239004","193-VK","2018/07/28 17:09:17","新北市鶯歌區文化路324巷11弄3號","121.350576666667","24.9450183333333","6500800","鶯歌區"
"220054","741-BX","2018/07/28 16:46:43","新北市板橋區華東街1-9號","121.448061666667","24.9948933333333","6500100","板橋區"
