"lineid","car","time","location","longitude","latitude","cityid","cityname"
"234026","9371-KE","2018/07/28 17:59:18","新北市永和區永和路一段45-1號","121.512715","25.0062516666667","6500400","永和區"
"249005","172-UM","2018/07/28 17:59:10","新北市八里區荖阡坑路20-9號","121.398411666667","25.1373366666667","6502300","八里區"
"249001","173-UM","2018/07/28 17:59:20","新北市八里區龍米路二段35號","121.448413333333","25.1400366666667","6502300","八里區"
"249002","305-UY","2018/07/28 17:59:25","新北市八里區龍米路一段259號","121.450606666667","25.133735","6502300","八里區"
"249003","593-UM","2018/07/28 17:59:24","新北市八里區中華路二段258巷1號","121.40479","25.1499533333333","6502300","八里區"
"249004","759-BX","2018/07/28 17:59:30","新北市八里區龍米路三段41號","121.424823333333","25.159055","6502300","八里區"
"248006","077-UY","2018/07/28 17:59:30","新北市五股區中興路二段83巷26號","121.459103333333","25.075755","6501500","五股區"
"248008","095-VK","2018/07/28 17:59:18","新北市五股區更洲路10號","121.458291666667","25.0788433333333","6501500","五股區"
"248020","225-UY","2018/07/28 17:59:21","新北市五股區中興路二段83巷26-6號","121.459876666667","25.075275","6501500","五股區"
"248004","677-BX","2018/07/28 17:59:24","新北市五股區中興路二段161號","121.457928333333","25.077305","6501500","五股區"
"232011","375-UM","2018/07/28 17:59:18","新北市坪林區北宜路八段373號","121.709148333333","24.9321983333333","6502000","坪林區"
"244007","080-UY","2018/07/28 17:59:21","新北市林口區林口路82號","121.389028333333","25.080755","6501700","林口區"
"244019","403-UM","2018/07/28 17:59:17","新北市林口區文化一路一段122號","121.374641666667","25.072125","6501700","林口區"
"244009","410-SL","2018/07/28 17:59:16","新北市林口區佳林路56巷43號","121.38507","25.0807883333333","6501700","林口區"
"244023","483-VK","2018/07/28 17:59:22","新北市林口區東湖路41巷12號","121.386191666667","25.0733983333333","6501700","林口區"
"244017","485-VK","2018/07/28 17:59:12","新北市林口區文化二路一段232號","121.36964","25.07265","6501700","林口區"
"244011","657-BX","2018/07/28 17:59:28","新北市林口區中正路136號","121.392971666667","25.0772683333333","6501700","林口區"
"244025","837-TS","2018/07/28 17:59:20","新北市林口區八德路408號","121.358481666667","25.0663983333333","6501700","林口區"
"244021","838-TS","2018/07/28 17:59:12","新北市林口區新寮27-5號","121.396493333333","25.0666783333333","6501700","林口區"
"222003","436-BY","2018/07/28 17:59:20","新北市深坑區炮子崙24-1號","121.606068333333","24.9882733333333","6501800","深坑區"
"222002","659-BX","2018/07/28 17:59:18","新北市深坑區深坑街35號","121.61598","25.001825","6501800","深坑區"
"231046","107-UY","2018/07/28 17:59:27","新北市新店區下石厝路31號","121.53379","24.9311066666667","6500600","新店區"
"231055","AKT-0513","2018/07/28 17:59:31","新北市新店區安華路28-1號","121.51972","24.9607116666667","6500600","新店區"
"241024","065-VK","2018/07/28 17:59:20","新北市三重區中正北路193巷35弄73號","121.478778333333","25.0714633333333","6500200","三重區"
"241016","266-UM","2018/07/28 17:59:17","新北市三重區光復路二段143巷8-3號","121.476281666667","25.0616033333333","6500200","三重區"
"241006","AAD-863","2018/07/28 17:59:19","新北市三重區車路頭街135-1號","121.484236666667","25.07616","6500200","三重區"
"241033","AAC-255","2018/07/28 17:59:27","新北市三重區光復路一段57號","121.472071666667","25.0491966666667","6500200","三重區"
"235066","003-UY","2018/07/28 17:59:15","新北市中和區中正路637巷52弄1號","121.485515","24.9933466666667","6500300","中和區"
"235064","005-UY","2018/07/28 17:59:28","新北市中和區員山路36巷16-2號","121.485245","24.9914083333333","6500300","中和區"
"235063","006-UY","2018/07/28 17:59:21","新北市中和區員山路36巷16-3號","121.485031666667","24.9913066666667","6500300","中和區"
"235065","098-UM","2018/07/28 17:59:33","新北市中和區中正路637巷60弄61號","121.48537","24.99271","6500300","中和區"
"235058","151-BY","2018/07/28 17:59:34","新北市中和區錦和路197號","121.49069","24.990615","6500300","中和區"
"235038","185-VK","2018/07/28 17:59:19","新北市中和區錦和路216號","121.490271666667","24.9941533333333","6500300","中和區"
"247010","KEA-2869","2018/07/28 17:59:32","新北市蘆洲區三民路26巷75號","121.478943333333","25.08324","6501400","蘆洲區"
"235054","640-BX","2018/07/28 17:59:29","新北市中和區連城路569巷9弄22號","121.479838333333","24.993485","6500300","中和區"
"235071","783-BX","2018/07/28 17:59:17","新北市中和區員山路36巷16-3號","121.485253333333","24.991145","6500300","中和區"
"235052","805-TS","2018/07/28 17:59:18","新北市中和區員山路36巷16號","121.484453333333","24.9912933333333","6500300","中和區"
"235053","900-TW","2018/07/28 17:59:31","新北市中和區員山路36巷16-2號","121.485073333333","24.9919716666667","6500300","中和區"
"235051","157-BY","2018/07/28 17:59:25","新北市中和區中正路637巷52弄1號","121.485455","24.993405","6500300","中和區"
"235037","AAC-213","2018/07/28 17:59:23","新北市中和區中正路224號","121.496341666667","24.993915","6500300","中和區"
"247014","546-UM","2018/07/28 17:59:28","新北市蘆洲區復興路5號","121.471881666667","25.0852816666667","6501400","蘆洲區"
"247022","500-BY","2018/07/28 17:59:18","新北市蘆洲區永樂街38巷19弄63-1號","121.455911666667","25.08934","6501400","蘆洲區"
"247012","339-TH","2018/07/28 17:59:31","新北市蘆洲區民族路123號","121.479733333333","25.0871183333333","6501400","蘆洲區"
"247006","336-TH","2018/07/28 17:59:21","新北市蘆洲區中華街6號","121.463565","25.081685","6501400","蘆洲區"
"247018","057-VK","2018/07/28 17:59:21","新北市蘆洲區復興路226號","121.47913","25.0893316666667","6501400","蘆洲區"
"247016","007-UY","2018/07/28 17:59:21","新北市蘆洲區中正路185巷78弄17號","121.46574","25.0847683333333","6501400","蘆洲區"
"247002","002-UY","2018/07/28 17:59:30","新北市蘆洲區永平街32巷57弄18號","121.459211666667","25.0932083333333","6501400","蘆洲區"
"247020","001-UY","2018/07/28 17:59:23","新北市蘆洲區民權路131巷8號","121.471443333333","25.0899316666667","6501400","蘆洲區"
"226004","312-R5","2018/07/28 17:59:12","新北市平溪區石底里公園街18-3號","121.733393333333","25.0258083333333","6502400","平溪區"
"228003","097-TW","2018/07/28 17:59:29","新北市貢寮區真理里美艷山街6-2號","121.928811666667","25.06078","6502600","貢寮區"
"228002","663-BX","2018/07/28 17:59:18","新北市貢寮區福隆里桂安街17號","121.967101666667","25.0230983333333","6502600","貢寮區"
"228001","670-TC","2018/07/28 17:59:34","新北市貢寮區仁理村仁愛路106巷36號","121.929396666667","25.054175","6502600","貢寮區"
"224010","AGQ-8101","2018/07/28 17:59:07","新北市瑞芳區汽車路89號","121.843686666667","25.1099233333333","6501200","瑞芳區"
"224006","676-BX","2018/07/28 17:59:35","新北市瑞芳區大寮路356-1號","121.784875","25.1031816666667","6501200","瑞芳區"
"224002","639-TC","2018/07/28 17:59:31","新北市瑞芳區三爪子坑路32巷1號","121.810243333333","25.106045","6501200","瑞芳區"
"224008","285-BY","2018/07/28 17:59:21","新北市瑞芳區明燈路一段118號","121.81867","25.1089916666667","6501200","瑞芳區"
"224009","273-VK","2018/07/28 17:59:16","新北市瑞芳區山尖路110號","121.852061666667","25.1134933333333","6501200","瑞芳區"
"224005","271-BY","2018/07/28 17:59:16","新北市瑞芳區建基路一段50巷51號","121.817951666667","25.1280983333333","6501200","瑞芳區"
"227010","642-TC","2018/07/28 17:59:18","新北市雙溪區三貂里定福路1-2號","121.85075","25.0634566666667","6502500","雙溪區"
"253005","032-BX","2018/07/28 17:59:19","新北市石門區中山路62-7號","121.567351666667","25.290215","6502200","石門區"
"253006","295-VK","2018/07/28 17:59:33","新北市石門區大丘田45-2號","121.549816666667","25.2748683333333","6502200","石門區"
"222001","KEA-2212","2018/07/28 17:59:21","新北市深坑區北深路二段189號","121.612191666667","25.0011083333333","6501800","深坑區"
"208002","KEA-2872","2018/07/28 17:59:15","新北市金山區清泉里清水路2號","121.6302","25.2273716666667","6502700","金山區"
"208003","665-BX","2018/07/28 17:59:30","新北市金山區磺港里磺港路308號","121.643921666667","25.227395","6502700","金山區"
"208001","761-BX","2018/07/28 17:59:22","新北市金山區磺港里社寮16-1號","121.639271666667","25.2260866666667","6502700","金山區"
"251009","008-UM","2018/07/28 17:59:28","新北市淡水區大仁街8號","121.44237","25.1746133333333","6501000","淡水區"
"251004","009-UM","2018/07/28 17:59:32","新北市淡水區民權路187號","121.459538333333","25.133595","6501000","淡水區"
"251005","010-UM","2018/07/28 17:59:31","新北市淡水區英專路135號","121.446495","25.1727333333333","6501000","淡水區"
"251001","011-UM","2018/07/28 17:59:32","新北市淡水區民權路14號","121.46305","25.124575","6501000","淡水區"
"251002","012-UM","2018/07/28 17:59:32","新北市淡水區中正東路81巷1號","121.447658333333","25.1670633333333","6501000","淡水區"
"251013","KEA-2871","2018/07/28 17:59:26","新北市淡水區泉洲厝31號","121.479601666667","25.19107","6501000","淡水區"
"251016","179-VK","2018/07/28 17:59:33","新北市淡水區埤島30-15號","121.448301666667","25.19791","6501000","淡水區"
"251014","180-VK","2018/07/28 17:59:16","新北市淡水區公埔子16-6號","121.480608333333","25.2241983333333","6501000","淡水區"
"251008","181-VK","2018/07/28 17:59:13","新北市淡水區八勢一街23號","121.461708333333","25.15644","6501000","淡水區"
"251015","182-VK","2018/07/28 17:59:16","新北市淡水區興福寮27號","121.492441666667","25.1639466666667","6501000","淡水區"
"251010","413-VK","2018/07/28 17:59:30","新北市淡水區中正路一段87巷1號","121.421523333333","25.1790233333333","6501000","淡水區"
"251012","441-VK","2018/07/28 17:59:30","新北市淡水區北新路三段38巷7號","121.484488333333","25.187005","6501000","淡水區"
"251007","442-VK","2018/07/28 17:59:31","新北市淡水區中正東路二段143巷2弄1號","121.46058","25.147315","6501000","淡水區"
"251006","561-UM","2018/07/28 17:59:16","新北市淡水區真理街2號","121.438853333333","25.1730966666667","6501000","淡水區"
"251011","650-BX","2018/07/28 17:59:25","新北市淡水區三空泉9號","121.475295","25.16285","6501000","淡水區"
"251003","673-BX","2018/07/28 17:59:30","新北市淡水區大忠街90號","121.444823333333","25.1763566666667","6501000","淡水區"
"207003","550-UM","2018/07/28 17:59:26","新北市萬里區港東路野柳風景區攤販68號","121.69128","25.205835","6502800","萬里區"
"207004","225-TW","2018/07/28 17:59:24","新北市萬里區中幅里中福路48號","121.68323","25.1740666666667","6502800","萬里區"
"252002","178-VK","2018/07/28 17:59:28","新北市三芝區中山路二段45號","121.502963333333","25.254815","6502100","三芝區"
"252001","292-VK","2018/07/28 17:59:33","新北市三芝區中興街二段2號","121.498391666667","25.2566183333333","6502100","三芝區"
"237007","153-BY","2018/07/28 17:59:25","新北市三峽區中正路二段66號","121.366505","24.91834","6500900","三峽區"
"237011","572-TV","2018/07/28 17:59:13","新北市三峽區大同路50號","121.37702","24.9285883333333","6500900","三峽區"
"237009","210-TH","2018/07/28 17:59:24","新北市三峽區中山路106巷16-2號","121.366085","24.9363766666667","6500900","三峽區"
"237013","252-BX","2018/07/28 17:59:25","新北市三峽區介壽路一段199號","121.378228333333","24.9305783333333","6500900","三峽區"
"237012","275-BY","2018/07/28 17:59:25","新北市三峽區民生街17號","121.37622","24.9366083333333","6500900","三峽區"
"237008","302-VK","2018/07/28 17:59:30","新北市三峽區白雞38-21號","121.373603333333","24.911675","6500900","三峽區"
"237014","433-BY","2018/07/28 17:59:24","新北市三峽區復興路101巷1弄79號","121.370951666667","24.9376566666667","6500900","三峽區"
"237006","5529-G3","2018/07/28 17:59:23","新北市三峽區介壽路二段138巷1弄112號","121.398085","24.930705","6500900","三峽區"
"237016","649-BX","2018/07/28 17:59:26","新北市三峽區紫微路109號","121.408591666667","24.9111816666667","6500900","三峽區"
"237010","706-TV","2018/07/28 17:59:24","新北市三峽區民權街200號","121.367675","24.929325","6500900","三峽區"
"237005","AKY-6261","2018/07/28 17:59:24","新北市三峽區復興路239-1號","121.368143333333","24.9385466666667","6500900","三峽區"
"236070","105-UM","2018/07/28 17:59:13","新北市土城區青雲路643號","121.461278333333","24.9675266666667","6501300","土城區"
"236042","107-UM","2018/07/28 17:59:15","新北市土城區城林路6巷80號","121.438545","24.9795633333333","6501300","土城區"
"236079","166-UM","2018/07/28 17:59:30","新北市土城區永寧路32巷10弄37號","121.428363333333","24.9611616666667","6501300","土城區"
"236030","253-BX","2018/07/28 17:59:30","新北市土城區城林路6巷80號","121.43856","24.97957","6501300","土城區"
"236026","269-VK","2018/07/28 17:59:26","新北市土城區承天路43巷2號","121.438876666667","24.9639733333333","6501300","土城區"
"236014","270-VK","2018/07/28 17:59:32","新北市土城區城林路6巷80號","121.438468333333","24.9795816666667","6501300","土城區"
"236038","271-VK","2018/07/28 17:59:20","新北市土城區中正路55號","121.444273333333","24.9755333333333","6501300","土城區"
"236021","401-BY","2018/07/28 17:59:29","新北市土城區城林路6巷80號","121.438823333333","24.9796666666667","6501300","土城區"
"236059","912-UM","2018/07/28 17:59:14","新北市土城區永寧路1號","121.430456666667","24.9648466666667","6501300","土城區"
"236049","913-UM","2018/07/28 17:59:28","新北市土城區城林路6巷80號","121.438748333333","24.979615","6501300","土城區"
"236063","915-UM","2018/07/28 17:59:22","新北市土城區城林路6巷80號","121.438556666667","24.9799583333333","6501300","土城區"
"236055","AAC-216","2018/07/28 17:59:25","新北市土城區城林路6巷80號","121.438566666667","24.9795583333333","6501300","土城區"
"242034","AAC-296","2018/07/28 17:59:16","新北市新莊區景德路414號","121.444616666667","25.0334466666667","6500500","新莊區"
"242058","986-R7","2018/07/28 17:59:32","新北市新莊區新北大道七段323號","121.412425","25.0283333333333","6500500","新莊區"
"242053","751-BX","2018/07/28 17:59:21","新北市新莊區民安西路327巷4弄19號","121.428738333333","25.0112766666667","6500500","新莊區"
"242027","705-TV","2018/07/28 17:59:21","新北市新莊區思源路383號","121.45972","25.0513316666667","6500500","新莊區"
"242025","613-BX","2018/07/28 17:59:20","新北市新莊區新北大道二段370號","121.462121666667","25.0613333333333","6500500","新莊區"
"242029","612-BX","2018/07/28 17:59:28","新北市新莊區中平路110巷13號","121.445775","25.045985","6500500","新莊區"
"242042","566-BX","2018/07/28 17:59:22","新北市泰山區壽山路48號","121.420338333333","25.029115","6500500","新莊區"
"242046","497-BY","2018/07/28 17:59:27","新北市新莊區福營路197號","121.431175","25.0304316666667","6500500","新莊區"
"242015","442-UM","2018/07/28 17:59:26","新北市新莊區中平路87巷3號","121.444425","25.045825","6500500","新莊區"
"242051","441-UM","2018/07/28 17:59:16","新北市新莊區民本街53巷13號","121.428613333333","25.018115","6500500","新莊區"
"242056","440-UM","2018/07/28 17:59:27","新北市新莊區豐年街124巷22號","121.445436666667","25.0299183333333","6500500","新莊區"
"242036","415-TV","2018/07/28 17:59:22","新北市新莊區建福路22號","121.4263","25.028825","6500500","新莊區"
"242007","413-TV","2018/07/28 17:59:20","新北市新莊區自由街2號","121.455755","25.0481633333333","6500500","新莊區"
"242044","400-BY","2018/07/28 17:59:33","新北市新莊區雙鳳路163巷2號","121.412741666667","25.0268366666667","6500500","新莊區"
"242023","362-BY","2018/07/28 17:59:15","新北市新莊區幸福路505號","121.455955","25.0492883333333","6500500","新莊區"
"242061","353-BY","2018/07/28 17:59:31","新北市新莊區新樹路194號","121.434118333333","25.0209566666667","6500500","新莊區"
"242009","132-UY","2018/07/28 17:59:25","新北市新莊區中華路二段252號","121.45283","25.05296","6500500","新莊區"
"242039","133-UY","2018/07/28 17:59:17","新北市新莊區民安西路24巷12弄2號","121.426335","25.021025","6500500","新莊區"
"242048","172-VK","2018/07/28 17:59:25","新北市新莊區萬安街28號","121.421401666667","25.0243833333333","6500500","新莊區"
"242011","173-VK","2018/07/28 17:58:53","新北市新莊區中港路621號","121.451146666667","25.053645","6500500","新莊區"
"242017","175-VK","2018/07/28 17:59:35","新北市新莊區中和街60巷9號","121.448346666667","25.0447766666667","6500500","新莊區"
"242004","176-VK","2018/07/28 17:59:18","新北市新莊區福樂街72巷14號","121.458658333333","25.0465883333333","6500500","新莊區"
"242031","347-TH","2018/07/28 17:59:11","新北市新莊區新泰路305巷15號","121.44478","25.0409466666667","6500500","新莊區"
"242021","348-TH","2018/07/28 17:59:15","新北市新莊區中華路一段6號","121.451956666667","25.0366766666667","6500500","新莊區"
"242002","349-TH","2018/07/28 17:59:16","新北市新莊區大觀街42巷5號","121.454265","25.0357783333333","6500500","新莊區"
"242019","350-TH","2018/07/28 17:59:32","新北市新莊區明中街43巷9號","121.457551666667","25.038935","6500500","新莊區"
"242013","351-TH","2018/07/28 17:59:28","新北市新莊區中和街125巷2號","121.447216666667","25.0486183333333","6500500","新莊區"
"238015","755-BX","2018/07/28 17:59:20","新北市樹林區大安路307巷1弄11號","121.418463333333","24.9925416666667","6500700","樹林區"
"238023","601-UM","2018/07/28 17:59:27","新北市樹林區龍興街59巷2弄1號","121.40353","25.015265","6500700","樹林區"
"238019","599-UM","2018/07/28 17:59:34","新北市樹林區忠孝街101巷1號","121.424601666667","24.98105","6500700","樹林區"
"238018","571-TV","2018/07/28 17:59:27","新北市樹林區樹新路221號","121.431073333333","25.000445","6500700","樹林區"
"238022","KEA-2213","2018/07/28 17:59:13","新北市樹林區國凱街21-1號","121.419026666667","24.9783366666667","6500700","樹林區"
"238021","KEA-2539","2018/07/28 17:59:25","新北市樹林區柑園街一段140號","121.398745","24.95679","6500700","樹林區"
"238025","303-VK","2018/07/28 17:59:19","新北市樹林區三俊街25號","121.412061666667","25.01553","6500700","樹林區"
"238017","283-BY","2018/07/28 17:59:23","新北市樹林區中正路837號","121.40914","25.01761","6500700","樹林區"
"238014","282-BY","2018/07/28 17:59:17","新北市樹林區中正路55巷9號","121.426443333333","24.9992783333333","6500700","樹林區"
"238020","268-VK","2018/07/28 17:59:29","新北市樹林區俊興街286號","121.418625","25.017045","6500700","樹林區"
"238026","172-UY","2018/07/28 17:59:13","新北市樹林區佳園路一段43號","121.393181666667","24.97062","6500700","樹林區"
"238016","169-UY","2018/07/28 17:59:29","新北市樹林區育英街135巷5弄2號","121.419576666667","24.9887233333333","6500700","樹林區"
"239007","AAC-297","2018/07/28 17:59:21","新北市鶯歌區尖山埔路193號","121.34538","24.9505616666667","6500800","鶯歌區"
"239006","891-R6","2018/07/28 17:59:22","新北市鶯歌區鶯桃路455巷10弄12號","121.331108333333","24.9641216666667","6500800","鶯歌區"
"239008","527-UM","2018/07/28 17:59:15","新北市鶯歌區朝陽街48巷10號","121.337133333333","24.978125","6500800","鶯歌區"
"239005","526-UM","2018/07/28 17:59:22","新北市鶯歌區鶯桃路668巷73號","121.32988","24.9717483333333","6500800","鶯歌區"
"239001","417-VK","2018/07/28 17:59:19","新北市鶯歌區中正三路33號","121.339051666667","24.9422083333333","6500800","鶯歌區"
"239003","360-BY","2018/07/28 17:59:13","新北市鶯歌區鶯桃路336號","121.333933333333","24.9622033333333","6500800","鶯歌區"
"239002","359-BY","2018/07/28 17:59:19","新北市鶯歌區光明街24號","121.348875","24.9559516666667","6500800","鶯歌區"
"239004","193-VK","2018/07/28 17:59:16","新北市鶯歌區尖山路101巷1-7號","121.347185","24.9457333333333","6500800","鶯歌區"
"221008","489-VK","2018/07/28 17:59:24","新北市汐止區明峰街27號","121.634258333333","25.071385","6501100","汐止區"
"221036","130-UY","2018/07/28 17:59:27","新北市汐止區大同路三段153號","121.669818333333","25.07752","6501100","汐止區"
"221015","131-UY","2018/07/28 17:59:25","新北市汐止區長江街349號","121.66754","25.0821183333333","6501100","汐止區"
"221010","269-BY","2018/07/28 17:59:28","新北市汐止區汐萬路二段265號","121.646145","25.0887233333333","6501100","汐止區"
"221012","278-VK","2018/07/28 17:59:27","新北市汐止區長興街二段50巷7號","121.674185","25.081555","6501100","汐止區"
"221023","279-VK","2018/07/28 17:59:30","新北市汐止區民族六街2巷2號","121.629068333333","25.0707833333333","6501100","汐止區"
"221032","280-BY","2018/07/28 17:59:31","新北市汐止區橫科路73巷2-2號","121.619571666667","25.0506333333333","6501100","汐止區"
"221027","281-BY","2018/07/28 17:59:30","新北市汐止區大同路二段370號","121.657768333333","25.0671516666667","6501100","汐止區"
"221033","297-VK","2018/07/28 17:59:13","新北市汐止區合順街35號","121.620556666667","25.043295","6501100","汐止區"
"221029","298-VK","2018/07/28 17:59:31","新北市汐止區樟樹二路299號","121.64126","25.069935","6501100","汐止區"
"221021","299-VK","2018/07/28 17:59:19","新北市汐止區新興路14號","121.656416666667","25.06473","6501100","汐止區"
"221031","353-TW","2018/07/28 17:59:29","新北市汐止區中興路179-3號","121.630538333333","25.0666333333333","6501100","汐止區"
"221008","129-UY","2018/07/28 17:59:25","新北市汐止區中興路31號","121.634791666667","25.06178","6501100","汐止區"
"221035","622-UM","2018/07/28 17:59:22","新北市汐止區新江北路30巷22弄7號","121.65122","25.0697366666667","6501100","汐止區"
"221025","623-UM","2018/07/28 17:59:20","新北市汐止區仁愛路10號","121.659375","25.06354","6501100","汐止區"
"221038","646-BX","2018/07/28 17:59:29","新北市汐止區水源路一段235號","121.654315","25.0603733333333","6501100","汐止區"
