"lineid","car","time","location","longitude","latitude","cityid","cityname"
"234081","298-R6","2018/07/28 20:19:18","新北市永和區國中路104巷13弄2號","121.524716666667","25.0072183333333","6500400","永和區"
"234038","336-UY","2018/07/28 20:19:27","新北市永和區成功路一段93巷11-1號","121.527655","25.0027566666667","6500400","永和區"
"234064","337-UY","2018/07/28 20:19:36","新北市永和區得和路124號","121.518718333333","25.0002166666667","6500400","永和區"
"234086","338-UY","2018/07/28 20:19:33","新北市永和區永和路二段182號","121.515493333333","25.0134483333333","6500400","永和區"
"234070","552-UM","2018/07/28 20:19:35","新北市永和區福和路256號","121.518483333333","25.0075483333333","6500400","永和區"
"234017","745-BX","2018/07/28 20:19:30","新北市永和區仁愛路46號","121.514116666667","25.0134116666667","6500400","永和區"
"234030","746-BX","2018/07/28 20:19:20","新北市永和區民有街25巷4號","121.517251666667","24.9962233333333","6500400","永和區"
"234054","KEA-2590","2018/07/28 20:19:20","新北市永和區光復街2巷16弄9號","121.51758","25.0163616666667","6500400","永和區"
"234013","KEA-2591","2018/07/28 20:19:30","新北市永和區保生路5巷1號","121.506005","25.0072316666667","6500400","永和區"
"234061","AAD-866","2018/07/28 20:19:30","新北市永和區得和路35號","121.516033333333","25.0003066666667","6500400","永和區"
"234042","862-TW","2018/07/28 20:19:32","新北市中和區中安街166號","121.51084","25.00009","6500400","永和區"
"234050","863-TW","2018/07/28 20:19:24","新北市永和區保安路28號","121.510525","25.0170566666667","6500400","永和區"
"234026","9371-KE","2018/07/28 20:19:18","新北市永和區保生路55-8號","121.504106666667","25.0106183333333","6500400","永和區"
"249005","172-UM","2018/07/28 20:19:29","新北市八里區下罟子5號","121.387365","25.141535","6502300","八里區"
"249001","173-UM","2018/07/28 20:19:25","新北市八里區中華路二段538號","121.39908","25.1450383333333","6502300","八里區"
"249002","305-UY","2018/07/28 20:19:25","新北市八里區龍米路二段2-1號","121.44936","25.13833","6502300","八里區"
"249003","593-UM","2018/07/28 20:19:16","新北市八里區訊埔路20號","121.397535","25.1453183333333","6502300","八里區"
"249004","759-BX","2018/07/28 20:19:31","新北市八里區中山路一段129巷19-1號","121.413941666667","25.1586066666667","6502300","八里區"
"248016","026-BX","2018/07/28 20:19:17","新北市五股區凌雲路一段158巷34號","121.447455","25.1038083333333","6501500","五股區"
"248008","095-VK","2018/07/28 20:19:18","新北市五股區中興路二段37巷24號","121.46067","25.07506","6501500","五股區"
"248012","247-BX","2018/07/28 20:19:27","新北市五股區民義路一段208號","121.430573333333","25.0892616666667","6501500","五股區"
"248010","272-BY","2018/07/28 20:19:31","新北市五股區新五路二段2巷26-1號","121.43989","25.0678933333333","6501500","五股區"
"248004","677-BX","2018/07/28 20:19:28","新北市五股區中興路四段17-4號","121.439371666667","25.08249","6501500","五股區"
"248002","678-BX","2018/07/28 20:19:18","新北市五股區成泰路三段165號","121.445241666667","25.0918066666667","6501500","五股區"
"234023","9380-KE","2018/07/28 20:19:30","新北市永和區復興街7號","121.515858333333","25.0129383333333","6500400","永和區"
"234077","969-R7","2018/07/28 20:19:26","新北市永和區民享街4號","121.515073333333","24.9955016666667","6500400","永和區"
"234074","AAC-211","2018/07/28 20:19:34","新北市永和區竹林路201巷22弄2號","121.522186666667","25.0092483333333","6500400","永和區"
"234067","AAC-212","2018/07/28 20:19:28","新北市永和區保平路266號","121.508788333333","25.00513","6500400","永和區"
"234003","AAC-295","2018/07/28 20:19:24","新北市永和區自強街6巷1弄9號","121.514665","25.0080066666667","6500400","永和區"
"243013","AAD-798","2018/07/28 20:19:17","新北市泰山區新民路14巷3號","121.426406666667","25.04457","6501600","泰山區"
"243009","297-R6","2018/07/28 20:19:20","新北市泰山區泰林路二段123號","121.43411","25.0595416666667","6501600","泰山區"
"243016","380-SR","2018/07/28 20:19:35","新北市泰山區明志路二段420號","121.424926666667","25.0437466666667","6501600","泰山區"
"243015","421-VK","2018/07/28 20:19:35","新北市泰山區仁德路52號","121.434116666667","25.05676","6501600","泰山區"
"243011","KEA-2215","2018/07/28 20:19:19","新北市泰山區德安街2號","121.41946","25.0319533333333","6501600","泰山區"
"243010","KEA-2216","2018/07/28 20:19:21","新北市泰山區明志路二段254巷16弄4號","121.426338333333","25.0481","6501600","泰山區"
"243012","646-TV","2018/07/28 20:19:24","新北市泰山區楓江路181號","121.440916666667","25.0673033333333","6501600","泰山區"
"243014","680-BX","2018/07/28 20:19:20","新北市泰山區明志路一段177號","121.43312","25.0621833333333","6501600","泰山區"
"222003","436-BY","2018/07/28 20:19:20","新北市深坑區文化街88號","121.617576666667","25.0019183333333","6501800","深坑區"
"222002","659-BX","2018/07/28 20:19:17","新北市深坑區萬福路75巷46號","121.598335","25.0098033333333","6501800","深坑區"
"231044","001-UM","2018/07/28 20:19:19","新北市新店區北新路三段190號","121.541488333333","24.9831516666667","6500600","新店區"
"231041","002-UM","2018/07/28 20:19:28","新北市新店區民權路42-1號","121.540341666667","24.98296","6500600","新店區"
"231059","046-UY","2018/07/28 20:19:32","新北市新店區安成街38號","121.509886666667","24.9612566666667","6500600","新店區"
"231040","047-UY","2018/07/28 20:19:17","新北市新店區中正路186號","121.540898333333","24.972215","6500600","新店區"
"231052","108-UY","2018/07/28 20:19:24","新北市新店區松林路1號","121.547013333333","24.9121583333333","6500600","新店區"
"231065","110-UY","2018/07/28 20:19:19","新北市新店區安祥路106巷94號","121.474336666667","24.9595583333333","6500600","新店區"
"231048","187-VK","2018/07/28 20:19:27","新北市新店區中興路三段216號","121.543656666667","24.9825466666667","6500600","新店區"
"231054","KEA-2219","2018/07/28 20:19:23","新北市新店區檳榔路109號","121.544491666667","24.9616633333333","6500600","新店區"
"231057","256-BX","2018/07/28 20:19:28","新北市新店區花園十二路1號","121.55483","24.9347416666667","6500600","新店區"
"231042","268-BY","2018/07/28 20:19:24","新北市新店區中興路二段100巷1號","121.547538333333","24.9717","6500600","新店區"
"231051","278-BY","2018/07/28 20:19:36","新北市新店區中央六街27號","121.529316666667","24.975155","6500600","新店區"
"231050","AAD-862","2018/07/28 20:19:15","新北市新店區中正路126號","121.542038333333","24.9712883333333","6500600","新店區"
"231058","3713-VJ","2018/07/28 20:19:17","新北市新店區中正路347號","121.535488333333","24.975775","6500600","新店區"
"231066","4716-K9","2018/07/28 20:19:16","新北市新店區安興路56號","121.516481666667","24.97497","6500600","新店區"
"231056","4715-K9","2018/07/28 20:19:31","新北市新店區建安街33巷28號","121.53833","24.9754316666667","6500600","新店區"
"231067","4772-VM","2018/07/28 20:19:22","新北市新店區溪洲路8巷66號","121.5333","24.9625033333333","6500600","新店區"
"231049","513-UM","2018/07/28 20:19:20","新北市新店區北新路一段323號","121.54169","24.96828","6500600","新店區"
"231063","616-UM","2018/07/28 20:19:20","新北市新店區薏仁坑路自強巷6號","121.496455","24.9583333333333","6500600","新店區"
"231045","617-UM","2018/07/28 20:19:36","新北市新店區新坡一街80-3號","121.547298333333","24.9642183333333","6500600","新店區"
"231061","619-UM","2018/07/28 20:19:34","新北市新店區安興路112號","121.515233333333","24.97735","6500600","新店區"
"231068","718-UY","2018/07/28 20:19:34","新北市新店區寶安街6巷2號","121.542246666667","24.9812616666667","6500600","新店區"
"231064","719-UM","2018/07/28 20:19:23","新北市新店區安利街30號","121.519078333333","24.97479","6500600","新店區"
"231062","720-UM","2018/07/28 20:19:23","新北市新店區安泰路7巷16號","121.485681666667","24.950985","6500600","新店區"
"231060","897-TW","2018/07/28 20:19:31","新北市新店區錦秀路11巷94弄2號","121.480218333333","24.942415","6500600","新店區"
"231043","899-TW","2018/07/28 20:19:30","新北市新店區建國路133號","121.53931","24.978245","6500600","新店區"
"231055","AKT-0513","2018/07/28 20:19:31","新北市新店區北新路一段91號","121.538881666667","24.9618683333333","6500600","新店區"
"241011","013-R5","2018/07/28 20:19:22","新北市三重區龍門路205號","121.499995","25.0732966666667","6500200","三重區"
"241028","022-UY","2018/07/28 20:19:27","新北市三重區大同南路128號","121.496341666667","25.0582583333333","6500200","三重區"
"241008","059-VK","2018/07/28 20:19:17","新北市三重區永福街211巷19號","121.479178333333","25.0740483333333","6500200","三重區"
"241022","060-VK","2018/07/28 20:19:18","新北市三重區民生街61巷1號","121.489203333333","25.062495","6500200","三重區"
"241031","061-VK","2018/07/28 20:19:25","新北市三重區新北大道一段1號","121.491986666667","25.0612933333333","6500200","三重區"
"241015","062-VK","2018/07/28 20:19:33","新北市三重區重新路一段140號","121.500266666667","25.0627266666667","6500200","三重區"
"241017","063-VK","2018/07/28 20:19:29","新北市三重區自強路一段236號","121.493361666667","25.06713","6500200","三重區"
"241024","065-VK","2018/07/28 20:19:29","新北市三重區忠孝路三段4號","121.481896666667","25.06747","6500200","三重區"
"241026","066-VK","2018/07/28 20:19:32","新北市三重區中央南路26號","121.50134","25.0625233333333","6500200","三重區"
"241002","090-VK","2018/07/28 20:19:22","新北市三重區五華街5號","121.495413333333","25.0799016666667","6500200","三重區"
"241003","091-VK","2018/07/28 20:19:30","新北市三重區富華街64號","121.490461666667","25.083095","6500200","三重區"
"241019","742-BX","2018/07/28 20:19:25","新北市三重區自強路二段67巷15號","121.489343333333","25.070155","6500200","三重區"
"241005","262-UM","2018/07/28 20:19:37","新北市三重區碧華街233號","121.48906","25.0828633333333","6500200","三重區"
"241016","266-UM","2018/07/28 20:19:17","新北市三重區大同北路97-2號","121.494488333333","25.0635916666667","6500200","三重區"
"241009","267-UM","2018/07/28 20:19:26","新北市三重區三和路四段382巷2號","121.481836666667","25.0785183333333","6500200","三重區"
"241018","268-UM","2018/07/28 20:19:31","新北市三重區自強路一段157號","121.49344","25.0671533333333","6500200","三重區"
"241032","269-UM","2018/07/28 20:19:31","新北市三重區捷運路19巷8弄19號","121.484175","25.0572066666667","6500200","三重區"
"241013","270-UM","2018/07/28 20:19:32","新北市三重區三和路三段167巷7號","121.49229","25.0741","6500200","三重區"
"241025","271-UM","2018/07/28 20:19:36","新北市三重區頂崁街210巷11號","121.476516666667","25.06783","6500200","三重區"
"241007","398-BY","2018/07/28 20:19:23","新北市三重區溪尾街108巷42-1號","121.487826666667","25.07818","6500200","三重區"
"241030","413-TH","2018/07/28 20:19:23","新北市三重區環河南路254巷63號","121.487718333333","25.052525","6500200","三重區"
"241035","462-BY","2018/07/28 20:19:25","新北市三重區正義北路33巷55號","121.499153333333","25.06393","6500200","三重區"
"241004","475-VK","2018/07/28 20:19:19","新北市三重區自強路四段110號","121.491553333333","25.079935","6500200","三重區"
"241020","478-VK","2018/07/28 20:19:29","新北市三重區忠孝路一段21巷11-1號","121.491746666667","25.0727733333333","6500200","三重區"
"241014","543-UM","2018/07/28 20:19:25","新北市三重區河邊北街98號","121.50384","25.0698933333333","6500200","三重區"
"241001","547-UM","2018/07/28 20:19:30","新北市三重區溪尾街32-1號","121.490888333333","25.076705","6500200","三重區"
"241006","AAD-863","2018/07/28 20:19:19","新北市三重區車路頭街139巷14號","121.484298333333","25.0761683333333","6500200","三重區"
"241023","887-TS","2018/07/28 20:19:18","新北市三重區忠孝路三段84巷5號","121.480255","25.06443","6500200","三重區"
"241012","941-UM","2018/07/28 20:19:35","新北市三重區河邊北街379-1號","121.501735","25.076495","6500200","三重區"
"241029","942-UM","2018/07/28 20:19:34","新北市三重區光明路116號","121.492726666667","25.05607","6500200","三重區"
"241033","AAC-255","2018/07/28 20:19:33","新北市三重區五谷王北街50巷34號","121.475271666667","25.0514116666667","6500200","三重區"
"235066","003-UY","2018/07/28 20:19:35","新北市中和區保平路326巷31號","121.506346666667","25.004785","6500300","中和區"
"235039","097-UM","2018/07/28 20:19:34","新北市中和區大勇街27巷20號","121.516558333333","24.9940733333333","6500300","中和區"
"235065","098-UM","2018/07/28 20:19:33","新北市中和區永和路74號","121.497826666667","25.0050866666667","6500300","中和區"
"247010","KEA-2869","2018/07/28 20:19:32","新北市蘆洲區信義路188巷23號","121.480161666667","25.0845583333333","6501400","蘆洲區"
"235050","4979-A6","2018/07/28 20:19:20","新北市中和區景平路464巷2弄1-4號","121.505818333333","24.993965","6500300","中和區"
"235069","4980-A6","2018/07/28 20:19:32","新北市中和區圓通路198巷2號","121.496195","24.99444","6500300","中和區"
"235051","157-BY","2018/07/28 20:19:25","新北市中和區中興街115巷11號","121.500545","24.9920333333333","6500300","中和區"
"235059","AAC-215","2018/07/28 20:19:16","新北市中和區員山路30-1號","121.483445","24.987895","6500300","中和區"
"247014","546-UM","2018/07/28 20:19:27","新北市蘆洲區中山二路137巷12號","121.472101666667","25.0812166666667","6501400","蘆洲區"
"247022","500-BY","2018/07/28 20:19:26","新北市蘆洲區民族路568號","121.46735","25.0887333333333","6501400","蘆洲區"
"247012","339-TH","2018/07/28 20:19:23","新北市蘆洲區中興街47號","121.481216666667","25.0871816666667","6501400","蘆洲區"
"247004","337-TH","2018/07/28 20:19:34","新北市蘆洲區長安街220巷21弄4號","121.459508333333","25.08577","6501400","蘆洲區"
"247006","336-TH","2018/07/28 20:19:27","新北市蘆洲區九芎街167巷6號","121.464951666667","25.0785733333333","6501400","蘆洲區"
"247018","057-VK","2018/07/28 20:19:18","新北市蘆洲區民族路408巷13號","121.474945","25.092185","6501400","蘆洲區"
"247008","056-VK","2018/07/28 20:19:20","新北市蘆洲區集賢路209號","121.483458333333","25.0872783333333","6501400","蘆洲區"
"247024","053-VK","2018/07/28 20:19:20","新北市蘆洲區光榮路120巷8弄41號","121.46446","25.0879416666667","6501400","蘆洲區"
"247016","007-UY","2018/07/28 20:19:34","新北市蘆洲區光華路132巷19號","121.465783333333","25.0832916666667","6501400","蘆洲區"
"247002","002-UY","2018/07/28 20:19:26","新北市蘆洲區長安街331巷32號","121.456031666667","25.0867","6501400","蘆洲區"
"247020","001-UY","2018/07/28 20:19:15","新北市蘆洲區仁愛街59號","121.471825","25.0933683333333","6501400","蘆洲區"
"226004","312-R5","2018/07/28 20:19:32","新北市平溪區靜安路三段52巷16號","121.763273333333","25.0334366666667","6502400","平溪區"
"224010","AGQ-8101","2018/07/28 20:19:27","新北市瑞芳區輕便路286號","121.84377","25.1092","6501200","瑞芳區"
"222001","KEA-2212","2018/07/28 20:19:21","新北市深坑區北深路三段269號","121.598435","25.0037883333333","6501800","深坑區"
"208002","KEA-2872","2018/07/28 20:19:35","新北市金山區環金路462號","121.63015","25.224795","6502700","金山區"
"251009","008-UM","2018/07/28 20:19:27","新北市淡水區中正路38-1號","121.443726666667","25.169275","6501000","淡水區"
"251004","009-UM","2018/07/28 20:19:31","新北市淡水區民生路117巷52弄1號","121.464691666667","25.1403266666667","6501000","淡水區"
"251001","011-UM","2018/07/28 20:19:32","新北市淡水區新市二路四段265號","121.445898333333","25.1924816666667","6501000","淡水區"
"251013","KEA-2871","2018/07/28 20:19:26","新北市淡水區相公山1號","121.475091666667","25.2065016666667","6501000","淡水區"
"251016","179-VK","2018/07/28 20:19:34","新北市淡水區淡金路五段20號","121.452913333333","25.2322983333333","6501000","淡水區"
"251014","180-VK","2018/07/28 20:19:15","新北市淡水區石頭厝1號","121.458716666667","25.2355283333333","6501000","淡水區"
"251008","181-VK","2018/07/28 20:19:33","新北市淡水區淡海路180巷20號","121.42145","25.1845866666667","6501000","淡水區"
"251015","182-VK","2018/07/28 20:19:36","新北市淡水區下圭柔山431-1號","121.450115","25.2106516666667","6501000","淡水區"
"251010","413-VK","2018/07/28 20:19:29","新北市淡水區新民街一段153號","121.427501666667","25.1888166666667","6501000","淡水區"
"251012","441-VK","2018/07/28 20:19:30","新北市淡水區淡金路三段426號","121.450488333333","25.2118283333333","6501000","淡水區"
"251007","442-VK","2018/07/28 20:19:15","新北市淡水區淡金路一段69號","121.458136666667","25.17349","6501000","淡水區"
"251006","561-UM","2018/07/28 20:19:36","新北市淡水區北新路169巷2號","121.450316666667","25.1794666666667","6501000","淡水區"
"251003","673-BX","2018/07/28 20:19:30","新北市淡水區中山北路一段229號","121.444473333333","25.1794783333333","6501000","淡水區"
"207004","225-TW","2018/07/28 20:19:24","新北市萬里區北基里仁六街2-1號","121.681548333333","25.1750416666667","6502800","萬里區"
"252002","178-VK","2018/07/28 20:19:28","新北市三芝區中正路一段37號","121.50314","25.2583333333333","6502100","三芝區"
"252001","292-VK","2018/07/28 20:19:33","新北市三芝區中山路一段14號","121.500626666667","25.2580916666667","6502100","三芝區"
"237006","5529-G3","2018/07/28 20:19:23","新北市三峽區大利路12號","121.366571666667","24.9116066666667","6500900","三峽區"
"236070","105-UM","2018/07/28 20:19:32","新北市土城區三民路25號","121.420088333333","24.963725","6501300","土城區"
"236030","253-BX","2018/07/28 20:19:30","新北市土城區中央路一段45巷2弄1號","121.448485","24.9902733333333","6501300","土城區"
"236026","269-VK","2018/07/28 20:19:34","新北市土城區裕生路86巷7號","121.446656666667","24.985285","6501300","土城區"
"236014","270-VK","2018/07/28 20:19:31","新北市土城區廣明街90巷18號","121.455415","24.994505","6501300","土城區"
"236021","401-BY","2018/07/28 20:19:29","新北市土城區延吉街7巷1號","121.47208","24.9891883333333","6501300","土城區"
"236059","912-UM","2018/07/28 20:19:14","新北市土城區中央路三段96-1號","121.435606666667","24.9665216666667","6501300","土城區"
"242034","AAC-296","2018/07/28 20:19:32","新北市新莊區建中街116巷3弄2號","121.44515","25.0371083333333","6500500","新莊區"
"242058","986-R7","2018/07/28 20:19:35","新北市新莊區龍安路333號","121.422443333333","25.019175","6500500","新莊區"
"242053","751-BX","2018/07/28 20:19:21","新北市新莊區民安西路263號","121.42629","25.01308","6500500","新莊區"
"242027","705-TV","2018/07/28 20:19:21","新北市新莊區幸福路557號","121.45444","25.0493066666667","6500500","新莊區"
"242025","613-BX","2018/07/28 20:19:32","新北市新莊區五工二路70巷21號","121.4609","25.0664666666667","6500500","新莊區"
"242029","612-BX","2018/07/28 20:19:21","新北市新莊區中原路108號","121.450675","25.0543416666667","6500500","新莊區"
"242042","566-BX","2018/07/28 20:19:15","新北市新莊區壽山路69號","121.410018333333","25.0327116666667","6500500","新莊區"
"242046","497-BY","2018/07/28 20:19:31","新北市新莊區中正路新生巷6號","121.416943333333","25.0240116666667","6500500","新莊區"
"242015","442-UM","2018/07/28 20:19:30","新北市新莊區永樂街223號","121.447223333333","25.04438","6500500","新莊區"
"242056","440-UM","2018/07/28 20:19:26","新北市新莊區新莊路649巷22號","121.444933333333","25.032285","6500500","新莊區"
"242036","415-TV","2018/07/28 20:19:22","新北市新莊區建安街76巷5弄1號","121.426176666667","25.0250116666667","6500500","新莊區"
"242007","413-TV","2018/07/28 20:19:20","新北市新莊區福壽街124巷34弄15號","121.459375","25.0506116666667","6500500","新莊區"
"242044","400-BY","2018/07/28 20:19:26","新北市新莊區中正路新建巷28弄2號","121.414173333333","25.0217283333333","6500500","新莊區"
"242023","362-BY","2018/07/28 20:19:22","新北市新莊區化成路463-1號","121.464735","25.0623033333333","6500500","新莊區"
"242061","353-BY","2018/07/28 20:19:24","新北市新莊區新樹路172-13號","121.434643333333","25.021745","6500500","新莊區"
"242009","132-UY","2018/07/28 20:19:29","新北市新莊區昌隆街58巷1弄1號","121.454888333333","25.05047","6500500","新莊區"
"242039","133-UY","2018/07/28 20:19:31","新北市新莊區成功街54號","121.424586666667","25.019885","6500500","新莊區"
"242048","172-VK","2018/07/28 20:19:25","新北市新莊區龍安路226號","121.420396666667","25.0198316666667","6500500","新莊區"
"242011","173-VK","2018/07/28 20:12:12","新北市新莊區中和街204巷1號","121.44795","25.0504283333333","6500500","新莊區"
"242017","175-VK","2018/07/28 20:19:28","新北市新莊區中港二街96號","121.449223333333","25.0457716666667","6500500","新莊區"
"242004","176-VK","2018/07/28 20:19:29","新北市新莊區化成路728號","121.465658333333","25.05723","6500500","新莊區"
"242031","347-TH","2018/07/28 20:19:32","新北市新莊區中正路508巷152號","121.438833333333","25.0358683333333","6500500","新莊區"
"242021","348-TH","2018/07/28 20:19:20","新北市新莊區和興街49號","121.446543333333","25.04063","6500500","新莊區"
"242002","349-TH","2018/07/28 20:19:16","新北市新莊區中正路42號","121.464693333333","25.041615","6500500","新莊區"
"242019","350-TH","2018/07/28 20:19:27","新北市新莊區博愛路7巷2號","121.456101666667","25.043935","6500500","新莊區"
"242013","351-TH","2018/07/28 20:19:28","新北市新莊區中和街155巷24弄28號","121.446691666667","25.0509266666667","6500500","新莊區"
"221008","489-VK","2018/07/28 20:19:24","新北市汐止區康寧街362號","121.628626666667","25.0676883333333","6501100","汐止區"
"221036","130-UY","2018/07/28 20:19:35","新北市汐止區仁愛路136-2號","121.663373333333","25.0641533333333","6501100","汐止區"
"221015","131-UY","2018/07/28 20:19:25","新北市汐止區建成路142巷19弄9號","121.662045","25.0737883333333","6501100","汐止區"
"221010","269-BY","2018/07/28 20:19:17","新北市汐止區八連路二段450號","121.628608333333","25.1051466666667","6501100","汐止區"
"221012","278-VK","2018/07/28 20:19:27","新北市汐止區保新街135號","121.688103333333","25.070195","6501100","汐止區"
"221023","279-VK","2018/07/28 20:19:24","新北市汐止區湖前街110巷2弄20號","121.63231","25.0718933333333","6501100","汐止區"
"221032","280-BY","2018/07/28 20:19:31","新北市汐止區民權街二段30號","121.61946","25.0498","6501100","汐止區"
"221027","281-BY","2018/07/28 20:19:33","新北市汐止區大同路二段361號","121.657198333333","25.0672683333333","6501100","汐止區"
"221033","297-VK","2018/07/28 20:19:32","新北市汐止區東勢街80-1號","121.633268333333","25.0407766666667","6501100","汐止區"
"221029","298-VK","2018/07/28 20:19:31","新北市汐止區樟樹一路99巷7弄3號","121.641236666667","25.06356","6501100","汐止區"
"221021","299-VK","2018/07/28 20:19:18","新北市汐止區水源路一段284號","121.654173333333","25.0582883333333","6501100","汐止區"
"221031","353-TW","2018/07/28 20:19:29","新北市汐止區中興路150巷13號","121.632958333333","25.0649783333333","6501100","汐止區"
"221002","129-UY","2018/07/28 20:19:25","新北市汐止區福德三路95號","121.636173333333","25.0691233333333","6501100","汐止區"
"221035","622-UM","2018/07/28 20:19:22","新北市汐止區長江街101-5號","121.658678333333","25.0732083333333","6501100","汐止區"
"221025","623-UM","2018/07/28 20:19:20","新北市汐止區水源路二段32號","121.654798333333","25.0572416666667","6501100","汐止區"
"221038","646-BX","2018/07/28 20:19:29","新北市汐止區忠孝東路436號","121.666163333333","25.0722933333333","6501100","汐止區"
"221018","753-BX","2018/07/28 20:19:31","新北市汐止區茄安路21號","121.673061666667","25.0679133333333","6501100","汐止區"
"220101","245-BX","2018/07/28 20:19:35","新北市板橋區雙十路一段42號","121.47755","25.0248216666667","6500100","板橋區"
"220103","257-TC","2018/07/28 20:19:17","新北市板橋區新海路135巷1號","121.460705","25.023385","6500100","板橋區"
"220083","286-VK","2018/07/28 20:19:38","新北市板橋區僑中二街100巷8號","121.445646666667","25.0085383333333","6500100","板橋區"
"220061","293-UM","2018/07/28 20:19:36","新北市板橋區四川路一段274巷4號","121.458141666667","25.00138","6500100","板橋區"
"220088","491-VK","2018/07/28 20:19:33","新北市五股區成泰路三段362號","121.451521666667","25.098655","6500100","板橋區"
"220102","KEA-2699","2018/07/28 20:19:25","新北市板橋區縣民大道三段203號","121.479965","25.02496","6500100","板橋區"
"220070","806-UM","2018/07/28 20:19:30","新北市板橋區華東街328號","121.452815","25.0032883333333","6500100","板橋區"
"220055","827-TW","2018/07/28 20:19:25","新北市板橋區仁愛路23號","121.45892","24.9994883333333","6500100","板橋區"
"220089","833-TW","2018/07/28 20:19:20","新北市板橋區四維路137巷17號","121.464313333333","25.0248416666667","6500100","板橋區"
"235068","KEA-2873","2018/07/28 20:19:22","新北市中和區勝利路35巷1弄36號","121.500341666667","25.007895","6500300","中和區"
