"lineid","car","time","location","longitude","latitude","cityid","cityname"
"248005","653-BX","2018/10/13 09:59:39","新北市五股區成泰路一段110-3號","121.435675","25.072225","6501500","五股區"
"231007","189-VK","2018/10/13 09:59:45","新北市新店區新潭路三段215巷25號","121.508145","24.90407","6500600","新店區"
"231008","192-VK","2018/10/13 09:59:51","新北市新店區小坑一路22號","121.53139","24.9136983333333","6500600","新店區"
"227006","282-VK","2018/10/13 09:59:52","新北市雙溪區長源里柑腳18號","121.80473","25.0140966666667","6502500","雙溪區"
"252004","249-BX","2018/10/13 09:59:50","新北市三芝區福德里土地公埔56號","121.516058333333","25.22486","6502100","三芝區"
"252006","AAC-283","2018/10/13 09:59:42","新北市三芝區新庄里新庄子57號","121.504871666667","25.276245","6502100","三芝區"
"237001","159-UY","2018/10/13 09:45:58","新北市三峽區中山路459巷163-1號","121.349293333333","24.933395","6500900","三峽區"
"238025","303-VK","2018/10/13 09:59:45","新北市樹林區中正路815號","121.409518333333","25.0169833333333","6500700","樹林區"
