"lineid","car","time","location","longitude","latitude","cityid","cityname"
"234044","148-BY","2018/10/13 12:29:38","新北市永和區福和路1號","121.525058333333","25.0090766666667","6500400","永和區"
"234078","298-R6","2018/10/13 12:29:54","新北市永和區環河東路二段92號","121.524495","25.0106666666667","6500400","永和區"
"234036","336-UY","2018/10/13 12:29:47","新北市永和區福和路1號","121.526013333333","25.0091766666667","6500400","永和區"
"234084","338-UY","2018/10/13 12:29:39","新北市永和區永貞路8號","121.520908333333","25.00719","6500400","永和區"
"234068","552-UM","2018/10/13 12:29:50","新北市永和區福和路1號","121.525635","25.0095183333333","6500400","永和區"
"234015","745-BX","2018/10/13 12:29:46","新北市永和區福和路1號","121.526441666667","25.0096783333333","6500400","永和區"
"234076","969-R7","2018/10/13 12:29:41","新北市永和區福和路8巷1號","121.5248","25.008805","6500400","永和區"
"228005","097-TW","2018/10/13 12:29:52","新北市貢寮區福連里蓬萊街16號","121.985056666667","24.9960733333333","6502600","貢寮區"
"228004","212-TW","2018/10/13 12:29:38","新北市貢寮區龍崗里嵩陽街2-1號","121.903488333333","25.01668","6502600","貢寮區"
"207002","749-BX","2018/10/13 12:29:50","新北市萬里區雙興里太和路7-2號","121.658588333333","25.174175","6502800","萬里區"
"237001","159-UY","2018/10/13 12:11:49","新北市三峽區中山路459巷163-1號","121.349311666667","24.93355","6500900","三峽區"
"235025","KEA-2875","2018/10/13 12:23:02","新北市中和區員山路36巷16-2號","121.485278333333","24.991785","6500300","中和區"
