"lineid","car","time","location","longitude","latitude","cityid","cityname"
"234044","148-BY","2018/10/13 14:09:18","新北市永和區成功路一段46號","121.52699","25.0042266666667","6500400","永和區"
"234005","207-UY","2018/10/13 14:09:21","新北市中和區保平路372號","121.50631","25.0034666666667","6500400","永和區"
"234078","298-R6","2018/10/13 14:09:14","新北市永和區國中路23號","121.524325","25.005075","6500400","永和區"
"234036","336-UY","2018/10/13 14:09:26","新北市永和區成功路一段47巷8號","121.527565","25.0039866666667","6500400","永和區"
"234062","337-UY","2018/10/13 14:09:10","新北市永和區永元路116號","121.52275","25.002445","6500400","永和區"
"234084","338-UY","2018/10/13 14:09:19","新北市永和區福和路232號","121.519048333333","25.0075916666667","6500400","永和區"
"234068","552-UM","2018/10/13 14:09:10","新北市永和區福和路202號","121.519838333333","25.0077316666667","6500400","永和區"
"234015","745-BX","2018/10/13 14:09:27","新北市永和區仁愛路54號","121.513675","25.0134","6500400","永和區"
"234028","746-BX","2018/10/13 14:09:29","新北市永和區民生路22巷30號","121.5211","24.9970383333333","6500400","永和區"
"234052","KEA-2590","2018/10/13 14:09:21","新北市永和區博愛街5號","121.516803333333","25.01585","6500400","永和區"
"234012","KEA-2591","2018/10/13 14:09:27","新北市永和區仁愛路279號","121.505755","25.0097416666667","6500400","永和區"
"234060","AAD-866","2018/10/13 14:09:25","新北市永和區得和路6號","121.51498","25.0006716666667","6500400","永和區"
"234040","862-TW","2018/10/13 14:09:15","新北市永和區雙和街64巷3號","121.509241666667","25.00346","6500400","永和區"
"234048","863-TW","2018/10/13 14:09:19","新北市永和區新生路206號","121.50558","25.0132383333333","6500400","永和區"
"234025","9371-KE","2018/10/13 14:09:23","新北市永和區安樂路272巷9弄7號","121.515053333333","25.0046166666667","6500400","永和區"
"234010","9373-KE","2018/10/13 14:09:20","新北市永和區仁愛路352巷92弄16號","121.501268333333","25.0081133333333","6500400","永和區"
"248017","225-UY","2018/10/13 14:09:23","新北市五股區民義路一段220巷17-13號","121.427576666667","25.096185","6501500","五股區"
"234022","9380-KE","2018/10/13 14:09:11","新北市永和區博愛街32巷17-1號","121.518875","25.0152583333333","6500400","永和區"
"234076","969-R7","2018/10/13 14:09:21","新北市永和區民治街59巷8號","121.518343333333","24.997495","6500400","永和區"
"234072","AAC-211","2018/10/13 14:09:14","新北市永和區竹林路201巷22弄11號","121.522556666667","25.00945","6500400","永和區"
"234066","AAC-212","2018/10/13 14:09:25","新北市永和區保平路266號","121.508703333333","25.0052166666667","6500400","永和區"
"234001","AAC-295","2018/10/13 14:09:13","新北市永和區中正路674號","121.516973333333","25.0092066666667","6500400","永和區"
"231028","001-UM","2018/10/13 14:09:22","新北市新店區安和路三段109號","121.517718333333","24.984595","6500600","新店區"
"231002","002-UM","2018/10/13 14:09:27","新北市新店區中正路487號","121.533856666667","24.9821083333333","6500600","新店區"
"231027","0293-UT","2018/10/13 14:09:10","新北市新店區光明街138巷13弄7號","121.5402","24.9614983333333","6500600","新店區"
"231001","047-UY","2018/10/13 14:09:31","新北市新店區中華路53號","121.53997","24.968","6500600","新店區"
"231005","106-UY","2018/10/13 14:09:27","新北市新店區中興路三段297號","121.542178333333","24.985145","6500600","新店區"
"231012","187-VK","2018/10/13 14:09:31","新北市新店區五峰路68號","121.546086666667","24.968135","6500600","新店區"
"231033","188-VK","2018/10/13 14:09:23","新北市新店區碧潭路37號","121.533908333333","24.95637","6500600","新店區"
"231020","189-VK","2018/10/13 14:09:09","新北市新店區屈尺路83號","121.545091666667","24.9226216666667","6500600","新店區"
"231023","KEA-2219","2018/10/13 14:09:23","新北市新店區文中路45號","121.53953","24.9566283333333","6500600","新店區"
"231003","268-BY","2018/10/13 14:09:19","新北市新店區中興路一段49號","121.539535","24.96019","6500600","新店區"
"231018","278-BY","2018/10/13 14:09:27","新北市新店區中央五街86號","121.526221666667","24.9762733333333","6500600","新店區"
"231017","AAD-862","2018/10/13 14:09:10","新北市新店區中生路171號","121.577143333333","24.9495733333333","6500600","新店區"
"231030","355-BY","2018/10/13 14:09:20","新北市新店區安興路7-1號","121.515015","24.9685383333333","6500600","新店區"
"231038","3712-VJ","2018/10/13 14:09:14","新北市新店區安華路30巷1號","121.519681666667","24.959575","6500600","新店區"
"231037","4716-K9","2018/10/13 14:09:20","新北市新店區安康路三段165巷2弄6號","121.4894","24.951395","6500600","新店區"
"231025","4715-K9","2018/10/13 14:09:27","新北市新店區二十張路105巷22號","121.53696","24.9790316666667","6500600","新店區"
"231036","512-UM","2018/10/13 14:09:11","新北市新店區安祥路109巷6弄47號","121.475581666667","24.9573283333333","6500600","新店區"
"231013","513-UM","2018/10/13 14:09:23","新北市新店區北新路三段65巷34弄18號","121.540066666667","24.98163","6500600","新店區"
"231034","616-UM","2018/10/13 14:09:13","新北市新店區車子路11號","121.503023333333","24.9519616666667","6500600","新店區"
"231035","719-UM","2018/10/13 14:09:24","新北市新店區安和路二段115號","121.518781666667","24.970335","6500600","新店區"
"231029","897-TW","2018/10/13 14:09:14","新北市新店區安康路二段156號","121.512313333333","24.960865","6500600","新店區"
"231006","898-TW","2018/10/13 14:09:23","新北市新店區北宜路二段329號","121.557408333333","24.9540383333333","6500600","新店區"
"231004","899-TW","2018/10/13 14:09:29","新北市新店區北新路二段172號","121.54301","24.9758433333333","6500600","新店區"
"235030","003-UY","2018/10/13 14:09:15","新北市中和區廣福路64號","121.503561666667","25.0017933333333","6500300","中和區"
"235028","005-UY","2018/10/13 14:09:32","新北市中和區中和路33號","121.500033333333","25.0016166666667","6500300","中和區"
"235027","006-UY","2018/10/13 14:09:24","新北市中和區連城路403號","121.486178333333","24.99615","6500300","中和區"
"235020","096-UM","2018/10/13 14:09:26","新北市中和區中正路1191號","121.480671666667","25.0099383333333","6500300","中和區"
"235003","097-UM","2018/10/13 14:09:26","新北市中和區秀峰街119巷4弄2號","121.519836666667","24.990335","6500300","中和區"
"235029","098-UM","2018/10/13 14:09:25","新北市中和區中山路二段64巷12號","121.503606666667","25.0051933333333","6500300","中和區"
"235004","150-BY","2018/10/13 14:08:57","新北市中和區保健路10巷25弄10號","121.50873","24.9968266666667","6500300","中和區"
"235022","151-BY","2018/10/13 14:09:14","新北市中和區員山路143巷14-3號","121.480336666667","24.9961416666667","6500300","中和區"
"235019","183-VK","2018/10/13 14:09:16","新北市中和區德光路40號","121.470051666667","25.00428","6500300","中和區"
"235002","185-VK","2018/10/13 14:09:24","新北市中和區大仁街10巷27弄6號","121.519275","24.992725","6500300","中和區"
"235013","186-VK","2018/10/13 14:09:14","新北市中和區明仁街1號","121.50564","24.9956566666667","6500300","中和區"
"235031","255-BX","2018/10/13 14:09:29","新北市中和區新生街266號","121.483451666667","24.9972116666667","6500300","中和區"
"235008","293-VK","2018/10/13 14:09:30","新北市中和區中興街202巷6號","121.499323333333","24.9904516666667","6500300","中和區"
"235036","301-VK","2018/10/13 14:09:19","新北市中和區中山路二段248號","121.497671666667","25.0025183333333","6500300","中和區"
"235007","352-BY","2018/10/13 14:09:14","新北市中和區景平路148號","121.518348333333","24.991925","6500300","中和區"
"247011","KEA-2869","2018/10/13 14:09:09","新北市蘆洲區信義路311號","121.4784","25.086215","6501400","蘆洲區"
"235014","4979-A6","2018/10/13 14:09:17","新北市中和區復興路249巷11弄3號","121.503566666667","24.9897233333333","6500300","中和區"
"235033","4980-A6","2018/10/13 14:09:25","新北市中和區廣福路112號","121.502338333333","25.0011016666667","6500300","中和區"
"235034","558-UM","2018/10/13 14:09:26","新北市中和區中和路10號","121.499593333333","25.0021933333333","6500300","中和區"
"235009","565-BX","2018/10/13 14:09:25","新北市中和區景新街447-1號","121.513071666667","24.9886666666667","6500300","中和區"
"235018","640-BX","2018/10/13 14:09:20","新北市中和區國光街107巷2弄32號","121.469281666667","24.9989766666667","6500300","中和區"
"235011","732-UM","2018/10/13 14:09:16","新北市中和區興南路二段5號","121.50803","24.98636","6500300","中和區"
"235010","733-UM","2018/10/13 14:09:22","新北市中和區忠孝街1巷42號","121.508513333333","24.984125","6500300","中和區"
"235035","783-BX","2018/10/13 14:09:22","新北市中和區中正路928號","121.48307","25.0081166666667","6500300","中和區"
"235026","800-TS","2018/10/13 14:09:24","新北市中和區中山路二段414號","121.489991666667","25.0039766666667","6500300","中和區"
"235021","801-TS","2018/10/13 14:09:10","新北市中和區民利街50號","121.479281666667","24.9988483333333","6500300","中和區"
"235005","802-TS","2018/10/13 14:09:26","新北市中和區中安街178巷13弄6號","121.510328333333","24.9986033333333","6500300","中和區"
"235016","805-TS","2018/10/13 14:09:11","新北市中和區興南路二段142巷19弄38號","121.50266","24.98352","6500300","中和區"
"235012","896-TW","2018/10/13 14:09:20","新北市中和區工專路139號","121.508448333333","24.9789616666667","6500300","中和區"
"235017","900-TW","2018/10/13 14:09:27","新北市中和區華福街63號","121.466871666667","24.9966283333333","6500300","中和區"
"235024","911-UM","2018/10/13 14:09:10","新北市中和區民治街20號","121.475093333333","25.0043416666667","6500300","中和區"
"235015","157-BY","2018/10/13 14:09:21","新北市中和區興南路一段67號","121.510201666667","24.98943","6500300","中和區"
"235001","AAC-213","2018/10/13 14:09:09","新北市中和區秀朗路三段60巷34號","121.525158333333","24.9950366666667","6500300","中和區"
"235023","AAC-215","2018/10/13 14:09:22","新北市中和區圓通路367巷2號","121.491188333333","24.98926","6500300","中和區"
"220016","013-TV","2018/10/13 14:09:25","新北市板橋區翠華街6巷29號","121.48142","25.0244666666667","6500100","板橋區"
"220104","015-TV","2018/10/13 14:09:23","新北市板橋區中正路381號","121.45409","25.0215166666667","6500100","板橋區"
"220013","072-UY","2018/10/13 14:09:29","新北市板橋區民族路219巷77號","121.468911666667","25.00891","6500100","板橋區"
"220034","073-UY","2018/10/13 14:09:20","新北市板橋區中正路236巷37號","121.457448333333","25.019425","6500100","板橋區"
"220105","075-UY","2018/10/13 14:09:24","新北市板橋區雙十路三段9號","121.471473333333","25.030185","6500100","板橋區"
"220017","AAD-861","2018/10/13 14:09:11","新北市板橋區貴興路25號","121.457715","25.00428","6500100","板橋區"
"247001","893-R6","2018/10/13 14:09:20","新北市蘆洲區永平街55號","121.457643333333","25.091415","6501400","蘆洲區"
"247015","546-UM","2018/10/13 14:09:24","新北市蘆洲區光華路46巷35號","121.46783","25.0842216666667","6501400","蘆洲區"
"247023","500-BY","2018/10/13 14:09:21","新北市蘆洲區光榮路122號","121.46473","25.0894583333333","6501400","蘆洲區"
"247013","339-TH","2018/10/13 14:09:24","新北市蘆洲區三民路151號","121.471425","25.086615","6501400","蘆洲區"
"247005","337-TH","2018/10/13 14:09:16","新北市蘆洲區永安南路二段16巷12-1號","121.468153333333","25.077475","6501400","蘆洲區"
"247007","336-TH","2018/10/13 14:09:13","新北市蘆洲區和平路28號","121.471106666667","25.0792433333333","6501400","蘆洲區"
"247019","057-VK","2018/10/13 14:09:27","新北市蘆洲區仁愛街36巷18號","121.472828333333","25.0935466666667","6501400","蘆洲區"
"247009","056-VK","2018/10/13 14:09:15","新北市蘆洲區民族路42號","121.476725","25.0845","6501400","蘆洲區"
"247003","053-VK","2018/10/13 14:09:17","新北市蘆洲區中華街6巷3號","121.462455","25.082345","6501400","蘆洲區"
"247017","007-UY","2018/10/13 14:09:16","新北市蘆洲區民族路203-2號","121.477888333333","25.0891383333333","6501400","蘆洲區"
"247021","001-UY","2018/10/13 14:09:11","新北市蘆洲區三民路165號","121.471393333333","25.0869983333333","6501400","蘆洲區"
"228005","097-TW","2018/10/13 14:09:12","新北市貢寮區美豐里土地公嶺23號","121.889066666667","25.059985","6502600","貢寮區"
"228004","212-TW","2018/10/13 14:09:18","新北市貢寮區雙玉里下雙溪街8號","121.916193333333","25.01595","6502600","貢寮區"
"253003","6232-TK","2018/10/13 14:09:21","新北市石門區尖子鹿53-2號","121.580825","25.2705","6502200","石門區"
"253004","6251-TK","2018/10/13 14:09:11","新北市石門區茂林社區227-1號","121.590686666667","25.27025","6502200","石門區"
"253002","637-UY","2018/10/13 14:09:22","新北市石門區七股31號","121.551725","25.2637666666667","6502200","石門區"
"253001","KEC-0718","2018/10/13 14:09:22","新北市石門區下員坑49號","121.518361666667","25.2736133333333","6502200","石門區"
"207002","749-BX","2018/10/13 14:09:29","新北市萬里區溪底里瑞泉路8-2號","121.606751666667","25.1447383333333","6502800","萬里區"
"252005","073-UM","2018/10/13 14:09:16","新北市三芝區橫山里橫山2號","121.532381666667","25.26124","6502100","三芝區"
"207001","662-BX","2018/10/13 14:09:09","新北市萬里區磺潭里清水18號","121.637786666667","25.1977516666667","6502800","萬里區"
"236068","105-UM","2018/10/13 14:09:16","新北市土城區明德路一段130號","121.463605","24.9791033333333","6501300","土城區"
"236040","107-UM","2018/10/13 14:09:31","新北市土城區中華路一段301號","121.439896666667","24.979555","6501300","土城區"
"236074","166-UM","2018/10/13 14:09:15","新北市土城區永寧路18號","121.430391666667","24.9626083333333","6501300","土城區"
"236029","253-BX","2018/10/13 14:09:16","新北市土城區城林路6巷80號","121.438456666667","24.979795","6501300","土城區"
"236024","269-VK","2018/10/13 14:09:11","新北市土城區承天路35號","121.437385","24.9648483333333","6501300","土城區"
"236013","270-VK","2018/10/13 14:09:09","新北市土城區學府路一段12號","121.459293333333","24.9884583333333","6501300","土城區"
"236032","271-VK","2018/10/13 14:09:14","新北市土城區明德路一段375-1號","121.45482","24.9781816666667","6501300","土城區"
"236017","401-BY","2018/10/13 14:09:18","新北市土城區中央路二段280號","121.440781666667","24.97423","6501300","土城區"
"236054","752-BX","2018/10/13 14:09:12","新北市土城區中華路二段2號","121.439563333333","24.979265","6501300","土城區"
"236057","912-UM","2018/10/13 14:09:15","新北市土城區中央路四段123號","121.41635","24.9576583333333","6501300","土城區"
"236045","913-UM","2018/10/13 14:09:14","新北市土城區明德路一段365-1號","121.453545","24.97907","6501300","土城區"
"236060","915-UM","2018/10/13 14:09:20","新北市土城區中正路75號","121.445061666667","24.9757233333333","6501300","土城區"
"221010","269-BY","2018/10/13 14:09:12","新北市汐止區八連路三段196號","121.614368333333","25.119","6501100","汐止區"
"220027","145-BY","2018/10/13 14:09:30","新北市板橋區民權路260巷32號","121.458981666667","25.015215","6500100","板橋區"
"220028","200-UY","2018/10/13 14:09:23","新北市板橋區大觀路二段5號","121.447086666667","25.003875","6500100","板橋區"
"220030","610-BX","2018/10/13 14:09:28","新北市板橋區滿平街84巷98號","121.426468333333","24.9868333333333","6500100","板橋區"
"220050","245-BX","2018/10/13 14:09:15","新北市板橋區民生路二段188號","121.470013333333","25.0207616666667","6500100","板橋區"
"220052","257-TC","2018/10/13 14:09:22","新北市板橋區文化路一段188巷9弄126號","121.469196666667","25.01902","6500100","板橋區"
"220040","267-BY","2018/10/13 14:09:12","新北市板橋區萬板路558號","121.48092","25.0267","6500100","板橋區"
"220004","276-BY","2018/10/13 14:09:18","新北市板橋區信義路110巷1弄7-2號","121.458101666667","24.9921566666667","6500100","板橋區"
"220020","277-BY","2018/10/13 14:09:19","新北市板橋區金門街282號","121.429233333333","24.9860783333333","6500100","板橋區"
"220043","283-UM","2018/10/13 14:09:24","新北市板橋區光武街112號","121.465621666667","25.0293366666667","6500100","板橋區"
"220019","283-VK","2018/10/13 14:09:26","新北市板橋區重慶路265號","121.463355","24.9998516666667","6500100","板橋區"
"220001","285-VK","2018/10/13 14:09:29","新北市板橋區懷仁街32號","121.476308333333","25.01936","6500100","板橋區"
"220031","286-VK","2018/10/13 14:09:21","新北市板橋區大觀路二段174巷173弄4號","121.441698333333","25.0037566666667","6500100","板橋區"
"220029","287-VK","2018/10/13 14:09:13","新北市板橋區南雅西路二段156巷2號","121.451723333333","25.01342","6500100","板橋區"
"220039","288-VK","2018/10/13 14:09:17","新北市板橋區裕民街38號","121.461898333333","25.0290133333333","6500100","板橋區"
"220009","293-UM","2018/10/13 14:09:10","新北市板橋區三民路二段21巷39號","121.480423333333","25.0182816666667","6500100","板橋區"
"220032","296-UM","2018/10/13 14:09:29","新北市板橋區溪崑一街28號","121.430045","24.99105","6500100","板橋區"
"220023","303-R5","2018/10/13 14:09:11","新北市板橋區光華街2號","121.454341666667","25.0111766666667","6500100","板橋區"
"220010","305-R5","2018/10/13 14:09:14","新北市板橋區三民路二段居仁巷1弄27號","121.480028333333","25.01363","6500100","板橋區"
"220041","307-R5","2018/10/13 14:09:31","新北市板橋區文化路二段225巷72弄20號","121.468981666667","25.0288983333333","6500100","板橋區"
"220047","317-R6","2018/10/13 14:09:25","新北市板橋區自由路51巷12號","121.4649","25.0234033333333","6500100","板橋區"
"220012","486-VK","2018/10/13 14:09:24","新北市板橋區中山路二段18號","121.47242","25.015085","6500100","板橋區"
"220038","487-VK","2018/10/13 14:09:14","新北市板橋區文化路二段516號","121.475721666667","25.0336416666667","6500100","板橋區"
"220037","491-VK","2018/10/13 14:09:20","新北市板橋區文化路二段182巷3弄25號","121.471971666667","25.0279933333333","6500100","板橋區"
"220011","609-BX","2018/10/13 14:09:13","新北市板橋區三民路二段169號","121.47925","25.0144033333333","6500100","板橋區"
"220005","686-BX","2018/10/13 14:09:14","新北市板橋區國慶路210號","121.46368","24.99703","6500100","板橋區"
"220025","687-BX","2018/10/13 14:09:17","新北市板橋區龍興街69號","121.443653333333","25.0016266666667","6500100","板橋區"
"220042","689-BX","2018/10/13 14:09:15","新北市板橋區民生路三段179號","121.46556","25.0273166666667","6500100","板橋區"
"220002","741-BX","2018/10/13 14:09:11","新北市板橋區重慶路64號","121.461773333333","25.0068016666667","6500100","板橋區"
"220051","KEA-2699","2018/10/13 14:09:19","新北市板橋區田單街51號","121.482655","25.0279033333333","6500100","板橋區"
"220055","827-TW","2018/10/13 14:09:22","新北市板橋區新民街7巷29號","121.463788333333","25.010635","6500100","板橋區"
"220014","829-TW","2018/10/13 14:09:26","新北市板橋區民享街116巷2號","121.47792","25.0157683333333","6500100","板橋區"
"220045","831-TW","2018/10/13 14:09:28","新北市板橋區大同街7號","121.476896666667","25.0268383333333","6500100","板橋區"
"220022","895-R6","2018/10/13 14:09:28","新北市板橋區西門街59號","121.45439","25.0092466666667","6500100","板橋區"
"220021","985-R7","2018/10/13 14:09:12","新北市板橋區民權路282號","121.457458333333","25.015685","6500100","板橋區"
"220046","AAC-210","2018/10/13 14:09:13","新北市板橋區幸福路70巷30號","121.46023","25.0209783333333","6500100","板橋區"
"220018","AAC-253","2018/10/13 14:09:23","新北市板橋區忠孝路99號","121.462401666667","25.0024483333333","6500100","板橋區"
"235032","KEA-2873","2018/10/13 14:09:02","新北市中和區連勝街22號","121.498533333333","24.9981966666667","6500300","中和區"
"235025","KEA-2875","2018/10/13 14:09:07","新北市中和區員山路150-14號","121.481375","24.9977216666667","6500300","中和區"
