"lineid","car","time","location","longitude","latitude","cityid","cityname"
"234044","148-BY","2018/10/13 14:19:18","新北市永和區得和路326號","121.523243333333","24.99955","6500400","永和區"
"234005","207-UY","2018/10/13 14:19:21","新北市永和區中正路682號","121.516746666667","25.0094233333333","6500400","永和區"
"234078","298-R6","2018/10/13 14:19:19","新北市永和區福和路7巷14弄11號","121.52487","25.0073883333333","6500400","永和區"
"234036","336-UY","2018/10/13 14:19:26","新北市永和區成功路一段91號","121.526885","25.0027666666667","6500400","永和區"
"234062","337-UY","2018/10/13 14:19:31","新北市永和區中正路342號","121.517911666667","25.0001883333333","6500400","永和區"
"234084","338-UY","2018/10/13 14:19:19","新北市永和區中正路629號","121.515536666667","25.0098716666667","6500400","永和區"
"234068","552-UM","2018/10/13 14:19:10","新北市永和區福和路263巷7弄1號","121.517948333333","25.00694","6500400","永和區"
"234028","746-BX","2018/10/13 14:19:28","新北市永和區民權路49巷5弄32號","121.522035","24.997805","6500400","永和區"
"234052","KEA-2590","2018/10/13 14:19:21","新北市永和區光復街42號","121.516646666667","25.0175666666667","6500400","永和區"
"234012","KEA-2591","2018/10/13 14:19:19","新北市永和區保生路25-1號","121.505683333333","25.0076483333333","6500400","永和區"
"234060","AAD-866","2018/10/13 14:19:25","新北市永和區安樂路194巷39弄2號","121.516548333333","25.0012683333333","6500400","永和區"
"234040","862-TW","2018/10/13 14:19:15","新北市中和區安平路161號","121.512355","24.99862","6500400","永和區"
"234048","863-TW","2018/10/13 14:19:19","新北市永和區保安路36號","121.510435","25.0169866666667","6500400","永和區"
"234025","9371-KE","2018/10/13 14:19:23","新北市永和區安樂路144巷29號","121.515166666667","24.9997633333333","6500400","永和區"
"234010","9373-KE","2018/10/13 14:19:20","新北市永和區仁愛路352巷122弄11號","121.500618333333","25.00896","6500400","永和區"
"248017","225-UY","2018/10/13 14:19:23","新北市五股區壟路8號","121.417143333333","25.0920666666667","6501500","五股區"
"234076","969-R7","2018/10/13 14:19:19","新北市永和區民有街75巷14號","121.51836","24.9965883333333","6500400","永和區"
"234072","AAC-211","2018/10/13 14:19:14","新北市永和區豫溪街191巷7弄10號","121.523521666667","25.0107616666667","6500400","永和區"
"234066","AAC-212","2018/10/13 14:19:25","新北市永和區保平路292巷42號","121.507625","25.0052716666667","6500400","永和區"
"234001","AAC-295","2018/10/13 14:19:13","新北市永和區自強街32巷10號","121.516145","25.00779","6500400","永和區"
"231028","001-UM","2018/10/13 14:19:23","新北市新店區安和路二段173號","121.518626666667","24.9745783333333","6500600","新店區"
"231002","002-UM","2018/10/13 14:19:27","新北市新店區中央路153號","121.529896666667","24.97311","6500600","新店區"
"231027","0293-UT","2018/10/13 14:19:10","新北市新店區北新路二段2號","121.54263","24.9706383333333","6500600","新店區"
"231001","047-UY","2018/10/13 14:19:11","新北市新店區中正路75巷71號","121.543101666667","24.9688233333333","6500600","新店區"
"231005","106-UY","2018/10/13 14:19:27","新北市新店區中興路三段210號","121.543665","24.9822583333333","6500600","新店區"
"231012","187-VK","2018/10/13 14:19:11","新北市新店區五峰路63巷8弄42號","121.547791666667","24.9686983333333","6500600","新店區"
"231033","188-VK","2018/10/13 14:19:23","新北市新店區溪洲路101-1號","121.53212","24.96246","6500600","新店區"
"231020","189-VK","2018/10/13 14:19:09","新北市新店區屈尺路22號","121.548666666667","24.92264","6500600","新店區"
"231023","KEA-2219","2018/10/13 14:19:23","新北市新店區光明街73號","121.538925","24.9605966666667","6500600","新店區"
"231003","268-BY","2018/10/13 14:19:13","新北市新店區中興路一段191號","121.543243333333","24.9649883333333","6500600","新店區"
"231018","278-BY","2018/10/13 14:19:27","新北市新店區中央路131號","121.530425","24.9739633333333","6500600","新店區"
"231017","AAD-862","2018/10/13 14:19:10","新北市新店區北宜路三段51號","121.572436666667","24.95062","6500600","新店區"
"231030","355-BY","2018/10/13 14:19:20","新北市新店區安光路10-1號","121.513655","24.9640066666667","6500600","新店區"
"231038","3712-VJ","2018/10/13 14:19:14","新北市新店區溪洲路101-1號","121.532256666667","24.9623066666667","6500600","新店區"
"231037","4716-K9","2018/10/13 14:19:20","新北市新店區安豐路25號","121.501118333333","24.9572233333333","6500600","新店區"
"231025","4715-K9","2018/10/13 14:19:27","新北市新店區民族路161號","121.537678333333","24.976795","6500600","新店區"
"231036","512-UM","2018/10/13 14:19:11","新北市新店區安祥路109巷90弄2號","121.477935","24.9598033333333","6500600","新店區"
"231013","513-UM","2018/10/13 14:19:23","新北市新店區建國路154號","121.538706666667","24.9793616666667","6500600","新店區"
"231034","616-UM","2018/10/13 14:19:13","新北市新店區車子路11號","121.503023333333","24.9519683333333","6500600","新店區"
"231035","719-UM","2018/10/13 14:18:44","新北市新店區安和路二段113巷3弄5號","121.518063333333","24.9699083333333","6500600","新店區"
"231029","897-TW","2018/10/13 14:19:21","新北市新店區安康路二段237號","121.508175","24.9585933333333","6500600","新店區"
"231006","898-TW","2018/10/13 14:19:22","新北市新店區北宜路二段599號","121.568135","24.9556233333333","6500600","新店區"
"231004","899-TW","2018/10/13 14:19:26","新北市新店區中正路147號","121.541403333333","24.9717033333333","6500600","新店區"
"235030","003-UY","2018/10/13 14:19:15","新北市中和區中和路153號","121.502651666667","24.9998466666667","6500300","中和區"
"235028","005-UY","2018/10/13 14:19:11","新北市中和區中和路71號","121.50055","25.0010116666667","6500300","中和區"
"235027","006-UY","2018/10/13 14:19:24","新北市中和區連勝街121巷16號","121.494978333333","24.994475","6500300","中和區"
"235020","096-UM","2018/10/13 14:19:22","新北市中和區民富街4號","121.477015","25.0059333333333","6500300","中和區"
"235003","097-UM","2018/10/13 14:19:26","新北市中和區秀峰街105號","121.520691666667","24.9903633333333","6500300","中和區"
"235029","098-UM","2018/10/13 14:19:25","新北市中和區中山路二段2巷13弄20號","121.502841666667","25.0065266666667","6500300","中和區"
"235004","150-BY","2018/10/13 14:19:17","新北市中和區安平路36巷37號","121.510835","24.9953333333333","6500300","中和區"
"235022","151-BY","2018/10/13 14:19:15","新北市中和區中正路637巷60弄61號","121.485473333333","24.99318","6500300","中和區"
"235019","183-VK","2018/10/13 14:19:16","新北市中和區中山路三段209號","121.471918333333","25.006375","6500300","中和區"
"235002","185-VK","2018/10/13 14:19:24","新北市中和區大仁街10巷53號","121.520003333333","24.99255","6500300","中和區"
"235013","186-VK","2018/10/13 14:19:14","新北市中和區景新街228-6號","121.50815","24.99417","6500300","中和區"
"235031","255-BX","2018/10/13 14:19:29","新北市中和區連城路286號","121.484268333333","24.9962366666667","6500300","中和區"
"235008","293-VK","2018/10/13 14:19:10","新北市中和區中興街241號","121.500421666667","24.9890216666667","6500300","中和區"
"235036","301-VK","2018/10/13 14:19:19","新北市中和區莊敬路33巷18號","121.500271666667","25.0054283333333","6500300","中和區"
"235007","352-BY","2018/10/13 14:19:14","新北市中和區景平路159巷16號","121.51256","24.9920116666667","6500300","中和區"
"247011","KEA-2869","2018/10/13 14:19:09","新北市蘆洲區信義路351巷18號","121.476731666667","25.086795","6501400","蘆洲區"
"235014","4979-A6","2018/10/13 14:19:17","新北市中和區景安路208巷2號","121.50383","24.9910616666667","6500300","中和區"
"235033","4980-A6","2018/10/13 14:19:25","新北市中和區景平路736巷1弄5號","121.497215","25.0040166666667","6500300","中和區"
"235034","558-UM","2018/10/13 14:19:26","新北市中和區中山路二段225號","121.498438333333","25.0026083333333","6500300","中和區"
"235009","565-BX","2018/10/13 14:19:31","新北市中和區景新街383巷49號","121.513441666667","24.9907183333333","6500300","中和區"
"235018","640-BX","2018/10/13 14:19:20","新北市中和區國光街107巷2弄1號","121.470176666667","24.9999733333333","6500300","中和區"
"235011","732-UM","2018/10/13 14:19:16","新北市中和區和平街56號","121.508561666667","24.9908316666667","6500300","中和區"
"235010","733-UM","2018/10/13 14:19:25","新北市中和區忠孝街2巷11弄2號","121.5104","24.9820116666667","6500300","中和區"
"235035","783-BX","2018/10/13 14:19:22","新北市中和區建一路16號","121.487988333333","25.00406","6500300","中和區"
"235026","800-TS","2018/10/13 14:19:24","新北市中和區中山路二段488-2號","121.487368333333","25.0049783333333","6500300","中和區"
"235021","801-TS","2018/10/13 14:19:10","新北市中和區員山路423巷14弄1-1號","121.480295","25.0028483333333","6500300","中和區"
"235005","802-TS","2018/10/13 14:19:26","新北市中和區安平路124號","121.512031666667","24.997655","6500300","中和區"
"235016","805-TS","2018/10/13 14:19:11","新北市中和區興南路二段159巷31號","121.505528333333","24.9827266666667","6500300","中和區"
"235012","896-TW","2018/10/13 14:19:20","新北市中和區華新街109巷5號","121.509158333333","24.9821316666667","6500300","中和區"
"235017","900-TW","2018/10/13 14:19:26","新北市中和區華安街21巷6號","121.467573333333","24.9973516666667","6500300","中和區"
"235024","911-UM","2018/10/13 14:19:30","新北市中和區新生街114巷2號","121.483256666667","25.0024833333333","6500300","中和區"
"235015","157-BY","2018/10/13 14:19:21","新北市中和區和平街54巷2號","121.508811666667","24.9908","6500300","中和區"
"235001","AAC-213","2018/10/13 14:19:29","新北市中和區秀朗路三段10巷37弄6號","121.524003333333","24.9958633333333","6500300","中和區"
"235023","AAC-215","2018/10/13 14:19:02","新北市中和區圓通路252巷18弄1號","121.492398333333","24.9924166666667","6500300","中和區"
"220016","013-TV","2018/10/13 14:19:19","新北市板橋區林森街1巷1號","121.482031666667","25.0241766666667","6500100","板橋區"
"220104","015-TV","2018/10/13 14:19:27","新北市板橋區中正路360巷15號","121.455095","25.0236866666667","6500100","板橋區"
"220013","072-UY","2018/10/13 14:19:29","新北市板橋區國泰街75巷2弄1號","121.467501666667","25.0062683333333","6500100","板橋區"
"220034","073-UY","2018/10/13 14:19:20","新北市板橋區中正路216巷93號","121.458675","25.0192383333333","6500100","板橋區"
"220105","075-UY","2018/10/13 14:19:12","新北市板橋區雙十路三段66巷1號","121.470606666667","25.031935","6500100","板橋區"
"220017","AAD-861","2018/10/13 14:19:11","新北市板橋區華興街27號","121.458495","25.0046033333333","6500100","板橋區"
"247001","893-R6","2018/10/13 14:19:20","新北市蘆洲區永樂街75號","121.456251666667","25.0885816666667","6501400","蘆洲區"
"247015","546-UM","2018/10/13 14:19:24","新北市蘆洲區中正路185巷31弄13號","121.466648333333","25.0839383333333","6501400","蘆洲區"
"247023","500-BY","2018/10/13 14:19:21","新北市蘆洲區三民路535號","121.462841666667","25.091905","6501400","蘆洲區"
"247013","339-TH","2018/10/13 14:19:24","新北市蘆洲區成功路75號","121.472955","25.0808316666667","6501400","蘆洲區"
"247005","337-TH","2018/10/13 14:19:16","新北市蘆洲區長安街16號","121.46408","25.079185","6501400","蘆洲區"
"247007","336-TH","2018/10/13 14:19:13","新北市蘆洲區民生街20號","121.475195","25.0790266666667","6501400","蘆洲區"
"247019","057-VK","2018/10/13 14:19:27","新北市蘆洲區仁愛街35巷15弄2號","121.471463333333","25.0926083333333","6501400","蘆洲區"
"247009","056-VK","2018/10/13 14:19:15","新北市蘆洲區三民路26巷20弄1號","121.47749","25.0827783333333","6501400","蘆洲區"
"247003","053-VK","2018/10/13 14:19:17","新北市蘆洲區中原路12巷38號","121.460533333333","25.0842983333333","6501400","蘆洲區"
"247017","007-UY","2018/10/13 14:19:16","新北市蘆洲區民權路140號","121.472893333333","25.0891166666667","6501400","蘆洲區"
"247021","001-UY","2018/10/13 14:19:08","新北市蘆洲區中正路472號","121.462273333333","25.0953916666667","6501400","蘆洲區"
"228005","097-TW","2018/10/13 14:19:27","新北市貢寮區美豐里土地公嶺54號","121.894858333333","25.0652583333333","6502600","貢寮區"
"228004","212-TW","2018/10/13 14:19:18","新北市貢寮區雙玉里田寮洋街45號","121.925816666667","25.0139016666667","6502600","貢寮區"
"253003","6232-TK","2018/10/13 14:19:21","新北市石門區尖子鹿31-1號","121.579378333333","25.2669633333333","6502200","石門區"
"253004","6251-TK","2018/10/13 14:19:11","新北市石門區內阿里磅7號","121.590216666667","25.2539033333333","6502200","石門區"
"253002","637-UY","2018/10/13 14:19:22","新北市石門區大溪墘6-2號","121.551325","25.2784116666667","6502200","石門區"
"253001","KEC-0718","2018/10/13 14:19:22","新北市石門區八甲74號","121.529785","25.2644216666667","6502200","石門區"
"207002","749-BX","2018/10/13 14:19:09","新北市萬里區溪底里瑞泉路9號","121.604903333333","25.1446816666667","6502800","萬里區"
"252005","073-UM","2018/10/13 14:19:16","新北市三芝區橫山里大坑26號","121.525635","25.2545666666667","6502100","三芝區"
"207001","662-BX","2018/10/13 14:19:09","新北市萬里區磺潭里清水18號","121.637815","25.1976666666667","6502800","萬里區"
"236068","105-UM","2018/10/13 14:19:16","新北市土城區明德路一段101號","121.465613333333","24.9827816666667","6501300","土城區"
"236040","107-UM","2018/10/13 14:19:28","新北市土城區樂利街3巷11號","121.448448333333","24.986375","6501300","土城區"
"236074","166-UM","2018/10/13 14:19:26","新北市土城區中央路三段281巷23弄19號","121.426373333333","24.9615433333333","6501300","土城區"
"236029","253-BX","2018/10/13 14:19:17","新北市土城區順風路27號","121.440346666667","24.9769266666667","6501300","土城區"
"236024","269-VK","2018/10/13 14:19:11","新北市土城區承天路67號","121.439563333333","24.963595","6501300","土城區"
"236013","270-VK","2018/10/13 14:19:29","新北市土城區青雲路39巷7號","121.460295","24.98746","6501300","土城區"
"236032","271-VK","2018/10/13 14:19:16","新北市土城區青雲路483巷3號","121.459438333333","24.97395","6501300","土城區"
"236017","401-BY","2018/10/13 14:19:18","新北市土城區金城路二段200號","121.454955","24.98187","6501300","土城區"
"236054","752-BX","2018/10/13 14:19:12","新北市土城區中華路二段102號","121.438066666667","24.974315","6501300","土城區"
"236057","912-UM","2018/10/13 14:19:14","新北市土城區中央路四段466號","121.409975","24.9506166666667","6501300","土城區"
"236045","913-UM","2018/10/13 14:19:25","新北市土城區明德路一段375-3號","121.454423333333","24.978395","6501300","土城區"
"236060","915-UM","2018/10/13 14:19:20","新北市土城區金城路三段143號","121.468316666667","24.9882066666667","6501300","土城區"
"221010","269-BY","2018/10/13 14:19:12","新北市汐止區八連路二段616號","121.623986666667","25.1100133333333","6501100","汐止區"
"220027","145-BY","2018/10/13 14:19:30","新北市板橋區民權路202巷17弄8號","121.460415","25.0166516666667","6500100","板橋區"
"220028","200-UY","2018/10/13 14:17:43","新北市板橋區大觀路二段8號","121.446675","25.003775","6500100","板橋區"
"220030","610-BX","2018/10/13 14:19:28","新北市板橋區金門街298號","121.429093333333","24.98557","6500100","板橋區"
"220050","245-BX","2018/10/13 14:19:22","新北市板橋區莊敬路25巷26號","121.47432","25.027175","6500100","板橋區"
"220052","257-TC","2018/10/13 14:19:23","新北市板橋區文化路一段188巷7弄20號","121.467746666667","25.019635","6500100","板橋區"
"220040","267-BY","2018/10/13 14:19:12","新北市板橋區文聖街219號","121.480358333333","25.0258166666667","6500100","板橋區"
"220004","276-BY","2018/10/13 14:19:29","新北市板橋區干城路18號","121.459448333333","24.9935766666667","6500100","板橋區"
"220020","277-BY","2018/10/13 14:19:25","新北市板橋區金門街230號","121.43078","24.9875766666667","6500100","板橋區"
"220043","283-UM","2018/10/13 14:19:12","新北市板橋區吳鳳路23號","121.467005","25.0310816666667","6500100","板橋區"
"220019","283-VK","2018/10/13 14:19:26","新北市板橋區大豐街115號","121.46114","25.001065","6500100","板橋區"
"220001","285-VK","2018/10/13 14:19:27","新北市板橋區富山街18巷16號","121.478558333333","25.0226666666667","6500100","板橋區"
"220031","286-VK","2018/10/13 14:19:18","新北市板橋區龍興街97巷15號","121.443368333333","25.00283","6500100","板橋區"
"220029","287-VK","2018/10/13 14:19:13","新北市板橋區南雅西路一段10巷7弄17號","121.454021666667","25.004265","6500100","板橋區"
"220039","288-VK","2018/10/13 14:19:09","新北市板橋區長江路一段106巷13弄3號","121.460206666667","25.0291666666667","6500100","板橋區"
"220009","293-UM","2018/10/13 14:19:30","新北市板橋區中山路二段255巷7號","121.477006666667","25.0179466666667","6500100","板橋區"
"220032","296-UM","2018/10/13 14:19:29","新北市板橋區滿平街136巷10弄12號","121.427291666667","24.9873616666667","6500100","板橋區"
"220023","303-R5","2018/10/13 14:19:31","新北市板橋區南雅南路一段7巷5號","121.4559","25.0053933333333","6500100","板橋區"
"220010","305-R5","2018/10/13 14:19:14","新北市板橋區三民路二段153巷30弄33號","121.481133333333","25.0147033333333","6500100","板橋區"
"220041","307-R5","2018/10/13 14:19:25","新北市板橋區松江街68號","121.468718333333","25.0277116666667","6500100","板橋區"
"220047","317-R6","2018/10/13 14:19:25","新北市板橋區民有街89巷6號","121.464336666667","25.0274533333333","6500100","板橋區"
"220012","486-VK","2018/10/13 14:19:24","新北市板橋區民權路45號","121.462051666667","25.01148","6500100","板橋區"
"220038","487-VK","2018/10/13 14:19:14","新北市板橋區文化路一段362-1號","121.468675","25.02352","6500100","板橋區"
"220037","491-VK","2018/10/13 14:19:29","新北市板橋區雙十路二段79號","121.47607","25.0271983333333","6500100","板橋區"
"220011","609-BX","2018/10/13 14:19:13","新北市板橋區三民路二段204號","121.478895","25.0121766666667","6500100","板橋區"
"220005","686-BX","2018/10/13 14:19:14","新北市中和區民德路394號","121.46612","24.99363","6500100","板橋區"
"220025","687-BX","2018/10/13 14:19:17","新北市板橋區大觀路二段158號","121.441513333333","24.9986366666667","6500100","板橋區"
"220042","689-BX","2018/10/13 14:19:15","新北市板橋區漢生西路89巷4-2號","121.462588333333","25.0196116666667","6500100","板橋區"
"220002","741-BX","2018/10/13 14:19:11","新北市板橋區實踐路147號","121.464278333333","25.0044416666667","6500100","板橋區"
"220051","KEA-2699","2018/10/13 14:19:19","新北市板橋區文聖街207-3號","121.479735","25.0266533333333","6500100","板橋區"
"220055","827-TW","2018/10/13 14:19:17","新北市板橋區館前東路156巷31號","121.464621666667","25.0067683333333","6500100","板橋區"
"220014","829-TW","2018/10/13 14:19:26","新北市板橋區長安街138巷1弄69號","121.474501666667","25.010785","6500100","板橋區"
"220045","831-TW","2018/10/13 14:19:28","新北市板橋區大同街38號","121.478578333333","25.0274433333333","6500100","板橋區"
"220022","895-R6","2018/10/13 14:19:23","新北市板橋區後菜園街54號","121.456075","25.0100666666667","6500100","板橋區"
"220021","985-R7","2018/10/13 14:19:31","新北市板橋區中正路362號","121.454281666667","25.023905","6500100","板橋區"
"220046","AAC-210","2018/10/13 14:19:23","新北市板橋區幸福路60巷36號","121.460166666667","25.0217716666667","6500100","板橋區"
"220018","AAC-253","2018/10/13 14:19:23","新北市板橋區四川路一段159號","121.459931666667","25.00407","6500100","板橋區"
"235032","KEA-2873","2018/10/13 14:19:02","新北市中和區景平路493巷3-1號","121.499798333333","24.99753","6500300","中和區"
"235025","KEA-2875","2018/10/13 14:19:07","新北市中和區民利街73號","121.478601666667","24.998225","6500300","中和區"
