"lineid","car","time","location","longitude","latitude","cityid","cityname"
"248017","225-UY","2018/10/13 15:19:15","新北市五股區成泰路一段157號","121.43524","25.07409","6501500","五股區"
"231028","001-UM","2018/10/13 15:19:29","新北市新店區僑愛二路1號","121.4999","24.9451516666667","6500600","新店區"
"231002","002-UM","2018/10/13 15:19:27","新北市新店區中正路700巷3號","121.533856666667","24.99133","6500600","新店區"
"231001","047-UY","2018/10/13 15:19:31","新北市新店區北新路一段309號","121.541526666667","24.96787","6500600","新店區"
"231005","106-UY","2018/10/13 15:19:27","新北市新店區建國路187號","121.538013333333","24.97962","6500600","新店區"
"231012","187-VK","2018/10/13 15:19:31","新北市新店區寶慶街82號","121.541381666667","24.986795","6500600","新店區"
"231033","188-VK","2018/10/13 15:19:23","新北市新店區安泰路125-1號","121.487465","24.9400266666667","6500600","新店區"
"231020","189-VK","2018/10/13 15:19:29","新北市新店區湖興路128-15號","121.566378333333","24.93136","6500600","新店區"
"231023","KEA-2219","2018/10/13 15:19:23","新北市新店區北新路一段64巷35號","121.542243333333","24.9656866666667","6500600","新店區"
"231026","256-BX","2018/10/13 15:19:12","新北市新店區中正路263號","121.538558333333","24.9735666666667","6500600","新店區"
"231003","268-BY","2018/10/13 15:19:13","新北市新店區寶橋路238號","121.551551666667","24.9789283333333","6500600","新店區"
"231018","278-BY","2018/10/13 15:19:27","新北市新店區中央六街57號","121.527948333333","24.975875","6500600","新店區"
"231017","AAD-862","2018/10/13 15:19:10","新北市新店區明山路45號","121.563865","24.9559166666667","6500600","新店區"
"231030","355-BY","2018/10/13 15:19:20","新北市新店區安民街341-1號","121.516856666667","24.974915","6500600","新店區"
"231038","3712-VJ","2018/10/13 15:19:14","新北市新店區安華路28-1號","121.519823333333","24.9609666666667","6500600","新店區"
"231037","4716-K9","2018/10/13 15:19:20","新北市新店區安興路56號","121.516648333333","24.9748716666667","6500600","新店區"
"231025","4715-K9","2018/10/13 15:19:27","新北市新店區環河路105-11號","121.531915","24.96998","6500600","新店區"
"231036","512-UM","2018/10/13 15:19:11","新北市新店區安祥路69巷67號","121.482603333333","24.9596733333333","6500600","新店區"
"231034","616-UM","2018/10/13 15:19:16","新北市新店區如意街4巷2號","121.495613333333","24.94931","6500600","新店區"
"231035","719-UM","2018/10/13 15:17:44","新北市新店區永平街16巷22號","121.51718","24.9842866666667","6500600","新店區"
"231039","719-UY","2018/10/13 15:19:32","新北市新店區寶元路一段61號","121.542231666667","24.9859866666667","6500600","新店區"
"231029","897-TW","2018/10/13 15:19:14","新北市新店區安康路三段738號","121.473901666667","24.94193","6500600","新店區"
"231006","898-TW","2018/10/13 15:19:22","新北市新店區北新路一段193號","121.540365","24.96473","6500600","新店區"
"231004","899-TW","2018/10/13 15:19:26","新北市新店區博愛街13巷24號","121.540265","24.974055","6500600","新店區"
"231024","AKT-0513","2018/10/13 15:19:23","新北市新店區安康路一段302-2號","121.517401666667","24.9640066666667","6500600","新店區"
"241011","013-R5","2018/10/13 15:19:24","新北市三重區重新路四段121號","121.48475","25.0521483333333","6500200","三重區"
"241028","022-UY","2018/10/13 15:19:30","新北市三重區重新路四段121號","121.485026666667","25.05254","6500200","三重區"
"241017","063-VK","2018/10/13 15:19:16","新北市三重區重新路四段121號","121.484716666667","25.0521216666667","6500200","三重區"
"241020","478-VK","2018/10/13 15:19:17","新北市三重區重新路四段121號","121.485038333333","25.0524566666667","6500200","三重區"
"235030","003-UY","2018/10/13 15:19:15","新北市中和區南工路116巷1號","121.507383333333","25.0035933333333","6500300","中和區"
"235004","150-BY","2018/10/13 15:19:17","新北市中和區保健路10巷13號","121.507558333333","24.9972633333333","6500300","中和區"
"247011","KEA-2869","2018/10/13 15:19:09","新北市林口區太平里180號","121.368151666667","25.134435","6501400","蘆洲區"
"235014","4979-A6","2018/10/13 15:19:17","新北市中和區景平路464巷2弄1-4號","121.505865","24.9939916666667","6500300","中和區"
"235033","4980-A6","2018/10/13 15:19:25","新北市中和區圓通路192號","121.496373333333","24.9945816666667","6500300","中和區"
"235018","640-BX","2018/10/13 15:19:20","新北市中和區員山路36巷13號","121.484103333333","24.9910133333333","6500300","中和區"
"235026","800-TS","2018/10/13 15:19:24","新北市中和區建康路200號","121.491278333333","25.00014","6500300","中和區"
"235012","896-TW","2018/10/13 15:19:20","新北市中和區景新街379號","121.512371666667","24.9903016666667","6500300","中和區"
"235023","AAC-215","2018/10/13 15:19:22","新北市中和區員山路36號","121.482835","24.9878083333333","6500300","中和區"
"253003","6232-TK","2018/10/13 15:19:21","新北市石門區小坑9號","121.594978333333","25.2863966666667","6502200","石門區"
"253004","6251-TK","2018/10/13 15:19:20","新北市石門區小坑32號","121.598053333333","25.2695566666667","6502200","石門區"
"253002","637-UY","2018/10/13 15:19:22","新北市石門區小坑9號","121.594516666667","25.2859133333333","6502200","石門區"
"253001","KEC-0718","2018/10/13 15:19:21","新北市石門區中央路37-5號","121.569758333333","25.2965166666667","6502200","石門區"
"207002","749-BX","2018/10/13 15:19:29","新北市萬里區崁腳里內中福路4-2號","121.667561666667","25.1648166666667","6502800","萬里區"
"207001","662-BX","2018/10/13 15:19:24","新北市萬里區磺潭里員潭路1-1號","121.646508333333","25.2024416666667","6502800","萬里區"
"236068","105-UM","2018/10/13 15:19:18","新北市土城區裕民路185巷36弄10號","121.454231666667","24.98449","6501300","土城區"
"236040","107-UM","2018/10/13 15:19:28","新北市土城區裕民路185巷20號","121.454146666667","24.98489","6501300","土城區"
"236074","166-UM","2018/10/13 15:19:15","新北市土城區中州路27巷59號","121.412966666667","24.956855","6501300","土城區"
"236029","253-BX","2018/10/13 15:19:32","新北市土城區中華路一段215號","121.442508333333","24.9843366666667","6501300","土城區"
"236024","269-VK","2018/10/13 15:19:31","新北市土城區中央路二段61巷30號","121.44349","24.9786133333333","6501300","土城區"
"236013","270-VK","2018/10/13 15:19:29","新北市土城區學府路一段26號","121.458255","24.988555","6501300","土城區"
"236032","271-VK","2018/10/13 15:19:14","新北市土城區國際路86號","121.467075","24.9759983333333","6501300","土城區"
"236017","401-BY","2018/10/13 15:19:18","新北市土城區峰廷街8號","121.468673333333","24.9877266666667","6501300","土城區"
"236054","752-BX","2018/10/13 15:19:12","新北市土城區青雲路42號","121.459751666667","24.9883616666667","6501300","土城區"
"236057","912-UM","2018/10/13 15:19:15","新北市土城區中央路二段235號","121.440365","24.9722883333333","6501300","土城區"
"236045","913-UM","2018/10/13 15:19:13","新北市土城區明德路一段137號","121.465265","24.980385","6501300","土城區"
"236060","915-UM","2018/10/13 15:19:20","新北市土城區延平街72號","121.467755","24.9929866666667","6501300","土城區"
"220050","245-BX","2018/10/13 15:19:15","新北市板橋區莊敬路160號","121.471386666667","25.022625","6500100","板橋區"
"220052","257-TC","2018/10/13 15:19:22","新北市板橋區漢生西路20號","121.463723333333","25.0181416666667","6500100","板橋區"
"220031","286-VK","2018/10/13 15:19:15","新北市板橋區僑中二街102巷48號","121.444331666667","25.0085416666667","6500100","板橋區"
"220009","293-UM","2018/10/13 15:19:29","新北市板橋區四川路一段286巷2號","121.458605","25.0009066666667","6500100","板橋區"
"220038","487-VK","2018/10/13 15:19:16","新北市板橋區四維路227號","121.463875","25.027365","6500100","板橋區"
"220025","687-BX","2018/10/13 15:19:17","新北市板橋區僑中一街124巷70-5號","121.44867","25.016375","6500100","板橋區"
"220042","689-BX","2018/10/13 15:19:21","新北市板橋區長江路一段142號","121.460745","25.0301","6500100","板橋區"
"220051","KEA-2699","2018/10/13 15:19:19","新北市板橋區文化路一段132號","121.465181666667","25.0187566666667","6500100","板橋區"
"220003","827-TW","2018/10/13 15:19:17","新北市板橋區四川路二段39號","121.454145","24.995495","6500100","板橋區"
"220018","AAC-253","2018/10/13 15:19:23","新北市板橋區南雅南路二段29號","121.451423333333","24.994985","6500100","板橋區"
