"lineid","car","time","location","longitude","latitude","cityid","cityname"
"234046","148-BY","2018/10/13 19:39:23","新北市永和區永元路94號","121.522493333333","25.0018133333333","6500400","永和區"
"234007","207-UY","2018/10/13 19:39:20","新北市永和區中和路477號","121.510323333333","25.0018283333333","6500400","永和區"
"234081","298-R6","2018/10/13 19:39:22","新北市永和區國中路104巷10號","121.524768333333","25.006945","6500400","永和區"
"234038","336-UY","2018/10/13 19:39:34","新北市永和區民樂街33巷6號","121.527915","25.00113","6500400","永和區"
"234064","337-UY","2018/10/13 19:39:33","新北市永和區秀朗路二段24巷28弄2號","121.519926666667","25.0018233333333","6500400","永和區"
"234086","338-UY","2018/10/13 19:39:17","新北市永和區成功路一段18巷15號","121.526268333333","25.0049833333333","6500400","永和區"
"234070","552-UM","2018/10/13 19:39:35","新北市永和區永和路二段217號","121.515463333333","25.0141183333333","6500400","永和區"
"234017","745-BX","2018/10/13 19:39:33","新北市永和區永和路二段425巷57弄7號","121.513578333333","25.0170816666667","6500400","永和區"
"234030","746-BX","2018/10/13 19:39:18","新北市永和區四維街117號","121.523343333333","24.9981583333333","6500400","永和區"
"234054","KEA-2590","2018/10/13 19:39:27","新北市永和區竹林路39巷8號","121.518263333333","25.014435","6500400","永和區"
"234013","KEA-2591","2018/10/13 19:39:22","新北市永和區永平路246號","121.508663333333","25.011005","6500400","永和區"
"234061","AAD-866","2018/10/13 19:39:35","新北市永和區永貞路184號","121.516121666667","25.0041866666667","6500400","永和區"
"234042","862-TW","2018/10/13 19:39:34","新北市永和區永貞路261號","121.512026666667","25.0046466666667","6500400","永和區"
"234050","863-TW","2018/10/13 19:39:23","新北市永和區保安路35號","121.509791666667","25.0161566666667","6500400","永和區"
"234026","9371-KE","2018/10/13 19:39:27","新北市永和區中和路499號","121.51058","25.00234","6500400","永和區"
"249002","305-UY","2018/10/13 19:39:35","新北市八里區頂寮二街33-1號","121.450356666667","25.1250916666667","6502300","八里區"
"249003","593-UM","2018/10/13 19:39:33","新北市八里區華峰三街27號","121.3994","25.14595","6502300","八里區"
"248016","026-BX","2018/10/13 19:39:28","新北市五股區成泰路三段514號","121.45222","25.102285","6501500","五股區"
"248008","095-VK","2018/10/13 19:39:27","新北市五股區四維路118巷13號","121.469248333333","25.07423","6501500","五股區"
"248020","225-UY","2018/10/13 19:39:20","新北市五股區中直路37-1號","121.419858333333","25.1141883333333","6501500","五股區"
"248012","247-BX","2018/10/13 19:39:31","新北市五股區成泰路一段241巷5號","121.436126666667","25.0809416666667","6501500","五股區"
"248014","261-SL","2018/10/13 19:39:19","新北市五股區五福路60號","121.433241666667","25.089725","6501500","五股區"
"248010","272-BY","2018/10/13 19:39:33","新北市五股區明德路32號","121.432455","25.0716716666667","6501500","五股區"
"248002","678-BX","2018/10/13 19:39:36","新北市五股區成泰路三段577巷77號","121.44969","25.1036633333333","6501500","五股區"
"248004","682-TV","2018/10/13 19:39:26","新北市五股區成泰路二段116號","121.438021666667","25.0834116666667","6501500","五股區"
"234077","969-R7","2018/10/13 19:39:22","新北市永和區民族街67巷25號","121.51946","24.997145","6500400","永和區"
"234074","AAC-211","2018/10/13 19:39:35","新北市永和區竹林路225巷23號","121.522023333333","25.0086716666667","6500400","永和區"
"234067","AAC-212","2018/10/13 19:39:24","新北市永和區中山路一段191巷7弄2號","121.50958","25.00826","6500400","永和區"
"234003","AAC-295","2018/10/13 19:39:34","新北市永和區福和路346號","121.51498","25.0072083333333","6500400","永和區"
"244023","069-UM","2018/10/13 19:39:17","新北市林口區民有街30號","121.372175","25.0766316666667","6501700","林口區"
"243013","AAD-798","2018/10/13 19:36:51","新北市泰山區應化街7號","121.423855","25.0437283333333","6501600","泰山區"
"243009","297-R6","2018/10/13 19:39:24","新北市泰山區美寧街60號","121.43098","25.0646633333333","6501600","泰山區"
"243016","KEA-2801","2018/10/13 19:39:25","新北市泰山區明志路三段427號","121.42082","25.0332933333333","6501600","泰山區"
"243015","421-VK","2018/10/13 19:39:26","新北市泰山區民權街99號","121.428536666667","25.0494133333333","6501600","泰山區"
"243011","KEA-2215","2018/10/13 19:39:18","新北市泰山區貴子路41-1號","121.429618333333","25.0399766666667","6501600","泰山區"
"243010","KEA-2216","2018/10/13 19:39:34","新北市泰山區明志路二段7巷4號","121.430441666667","25.0534716666667","6501600","泰山區"
"243012","646-TV","2018/10/13 19:39:33","新北市泰山區仁愛路100巷58號","121.433848333333","25.0544333333333","6501600","泰山區"
"243014","680-BX","2018/10/13 19:39:28","新北市泰山區泰林路二段33-7號","121.435181666667","25.056425","6501600","泰山區"
"222003","436-BY","2018/10/13 19:39:34","新北市深坑區深南路51-1號","121.621251666667","25.0098016666667","6501800","深坑區"
"222002","659-BX","2018/10/13 19:39:28","新北市深坑區北深路一段177號","121.63254","25.010905","6501800","深坑區"
"231059","001-UM","2018/10/13 19:39:35","新北市新店區安和路三段83號","121.517795","24.98379","6500600","新店區"
"231041","002-UM","2018/10/13 19:39:37","新北市新店區中正路500-1號","121.534155","24.9819133333333","6500600","新店區"
"231040","047-UY","2018/10/13 19:39:31","新北市新店區中正路75巷71號","121.543063333333","24.96881","6500600","新店區"
"231046","107-UY","2018/10/13 19:39:20","新北市新店區中正路329巷1弄2號","121.535591666667","24.9748683333333","6500600","新店區"
"231048","187-VK","2018/10/13 19:39:17","新北市新店區五峰路63巷8弄6號","121.54677","24.96865","6500600","新店區"
"231062","188-VK","2018/10/13 19:39:24","新北市新店區秀山路11巷8號","121.531921666667","24.9594066666667","6500600","新店區"
"231052","189-VK","2018/10/13 19:39:34","新北市新店區新烏路三段72-1號","121.554051666667","24.9041266666667","6500600","新店區"
"231054","KEA-2219","2018/10/13 19:39:27","新北市新店區文中路45號","121.539631666667","24.956655","6500600","新店區"
"231057","256-BX","2018/10/13 19:39:37","新北市新店區橘園一路11號","121.547916666667","24.9340166666667","6500600","新店區"
"231042","268-BY","2018/10/13 19:39:26","新北市新店區中興路一段191號","121.543241666667","24.9650133333333","6500600","新店區"
"231051","278-BY","2018/10/13 19:39:20","新北市新店區中央四街30號","121.528591666667","24.97426","6500600","新店區"
"231050","AAD-862","2018/10/13 19:39:18","新北市新店區秀水路19號","121.554825","24.9549183333333","6500600","新店區"
"231061","355-BY","2018/10/13 19:39:23","新北市新店區安民街42號","121.515963333333","24.9653933333333","6500600","新店區"
"231058","3713-VJ","2018/10/13 19:39:26","新北市新店區中正路102巷8弄2號","121.543336666667","24.9710683333333","6500600","新店區"
"231066","4716-K9","2018/10/13 19:39:20","新北市新店區安康路三段207巷5號","121.48797","24.9509933333333","6500600","新店區"
"231056","4715-K9","2018/10/13 19:39:18","新北市新店區中央路93號","121.531661666667","24.9757","6500600","新店區"
"231065","512-UM","2018/10/13 19:39:27","新北市新店區安祥路109巷75號","121.477596666667","24.9601083333333","6500600","新店區"
"231049","513-UM","2018/10/13 19:39:19","新北市新店區大豐路53號","121.539938333333","24.9797283333333","6500600","新店區"
"231063","616-UM","2018/10/13 19:39:19","新北市新店區達觀路16號","121.502935","24.9402616666667","6500600","新店區"
"231044","618-UM","2018/10/13 19:39:25","新北市新店區北新路三段179號","121.541005","24.984325","6500600","新店區"
"231064","719-UM","2018/10/13 19:39:00","新北市新店區安和路一段52巷2-1號","121.517663333333","24.9663266666667","6500600","新店區"
"231060","897-TW","2018/10/13 19:39:20","新北市新店區安康路二段208號","121.510196666667","24.9594883333333","6500600","新店區"
"231045","898-TW","2018/10/13 19:39:23","新北市新店區北宜路二段234號","121.559956666667","24.9544316666667","6500600","新店區"
"231043","899-TW","2018/10/13 19:39:31","新北市新店區北新路二段1號","121.542711666667","24.9710983333333","6500600","新店區"
"231055","AKT-0513","2018/10/13 19:39:18","新北市新店區新生街1號","121.540483333333","24.9656616666667","6500600","新店區"
"241011","013-R5","2018/10/13 19:39:35","新北市三重區秀江街167號","121.498361666667","25.071775","6500200","三重區"
"241028","022-UY","2018/10/13 19:39:36","新北市三重區中正南路169號","121.493791666667","25.0557866666667","6500200","三重區"
"241008","059-VK","2018/10/13 19:39:34","新北市三重區永福街68號","121.4791","25.0768533333333","6500200","三重區"
"241022","060-VK","2018/10/13 19:39:34","新北市三重區中正北路66號","121.4866","25.0645833333333","6500200","三重區"
"241031","061-VK","2018/10/13 19:39:22","新北市三重區重新路四段248-1號","121.486208333333","25.0534183333333","6500200","三重區"
"241015","062-VK","2018/10/13 19:39:18","新北市三重區福德北路26-3號","121.502158333333","25.0649166666667","6500200","三重區"
"241017","063-VK","2018/10/13 19:39:36","新北市三重區大同北路184巷10號","121.491425","25.0656666666667","6500200","三重區"
"241026","066-VK","2018/10/13 19:39:30","新北市三重區文化南路65巷19號","121.499466666667","25.060795","6500200","三重區"
"241003","091-VK","2018/10/13 19:39:31","新北市三重區五華街93巷89號","121.493883333333","25.084965","6500200","三重區"
"251014","742-BX","2018/10/13 19:39:29","新北市淡水區北勢子14-2號","121.475933333333","25.2309066666667","6501000","淡水區"
"241009","265-UM","2018/10/13 19:39:24","新北市三重區三和路四段404號","121.480975","25.0796116666667","6500200","三重區"
"241032","269-UM","2018/10/13 19:39:19","新北市三重區重陽路一段60巷72號","121.484371666667","25.0581766666667","6500200","三重區"
"241013","270-UM","2018/10/13 19:39:30","新北市三重區仁賢街5號","121.495815","25.0745866666667","6500200","三重區"
"241025","271-UM","2018/10/13 19:39:22","新北市三重區忠孝路三段99巷13號","121.479753333333","25.0646466666667","6500200","三重區"
"241007","398-BY","2018/10/13 19:39:24","新北市三重區仁美街64號","121.486531666667","25.0783266666667","6500200","三重區"
"241035","KEA-2210","2018/10/13 19:39:36","新北市三重區正義北路99號","121.497011666667","25.0653466666667","6500200","三重區"
"241020","478-VK","2018/10/13 19:39:28","新北市三重區自強路三段78號","121.487015","25.0742233333333","6500200","三重區"
"241030","480-VK","2018/10/13 19:39:22","新北市三重區新興路28巷11號","121.491715","25.05291","6500200","三重區"
"241014","543-UM","2018/10/13 19:39:33","新北市三重區河邊北街82號","121.504206666667","25.0689633333333","6500200","三重區"
"241023","545-UM","2018/10/13 19:39:33","新北市三重區忠孝路三段99巷16號","121.479583333333","25.0642516666667","6500200","三重區"
"241001","547-UM","2018/10/13 19:39:27","新北市三重區仁愛街315巷21號","121.493645","25.07984","6500200","三重區"
"241019","KEA-2593","2018/10/13 19:39:36","新北市三重區六張街194巷1弄2號","121.488555","25.068045","6500200","三重區"
"241006","AAD-863","2018/10/13 19:39:36","新北市三重區永福街295號","121.483715","25.074565","6500200","三重區"
"241012","941-UM","2018/10/13 19:39:23","新北市三重區仁義街6號","121.499963333333","25.075715","6500200","三重區"
"241029","942-UM","2018/10/13 19:39:24","新北市三重區光明路122號","121.492858333333","25.055935","6500200","三重區"
"235066","003-UY","2018/10/13 19:39:31","新北市中和區南華路89號","121.505611666667","24.9973716666667","6500300","中和區"
"235064","005-UY","2018/10/13 19:39:18","新北市中和區南山路127巷27弄28號","121.503375","24.9982833333333","6500300","中和區"
"235063","006-UY","2018/10/13 19:39:23","新北市中和區連城路139巷64號","121.496711666667","24.9968466666667","6500300","中和區"
"235020","096-UM","2018/10/13 19:39:21","新北市中和區員山路581巷2-10號","121.477618333333","25.0091883333333","6500300","中和區"
"235039","097-UM","2018/10/13 19:39:19","新北市中和區景平路148號","121.518298333333","24.9919033333333","6500300","中和區"
"235065","098-UM","2018/10/13 19:39:38","新北市中和區福祥路68號","121.499258333333","25.005245","6500300","中和區"
"235040","150-BY","2018/10/13 19:39:29","新北市中和區宜安路121號","121.51007","24.9979483333333","6500300","中和區"
"235058","151-BY","2018/10/13 19:39:26","新北市中和區員山路124巷17號","121.482133333333","24.9960466666667","6500300","中和區"
"235055","183-VK","2018/10/13 19:39:28","新北市中和區中山路三段181巷2號","121.472803333333","25.0059916666667","6500300","中和區"
"235038","185-VK","2018/10/13 19:39:32","新北市中和區自立路20巷5號","121.522005","24.9934033333333","6500300","中和區"
"235049","186-VK","2018/10/13 19:39:38","新北市中和區明禮街1號","121.505293333333","24.9956616666667","6500300","中和區"
"235067","255-BX","2018/10/13 19:39:23","新北市中和區新生街200號","121.483798333333","24.9991866666667","6500300","中和區"
"235044","293-VK","2018/10/13 19:39:28","新北市中和區興南路一段103號","121.50948","24.9882716666667","6500300","中和區"
"235072","301-VK","2018/10/13 19:39:24","新北市中和區中正路432巷11號","121.49067","24.995785","6500300","中和區"
"235043","352-BY","2018/10/13 19:39:22","新北市中和區興南路一段83號","121.509918333333","24.9890433333333","6500300","中和區"
"235042","KEA-2878","2018/10/13 19:39:30","新北市中和區保健路29巷2號","121.50901","24.9981783333333","6500300","中和區"
"235050","4979-A6","2018/10/13 19:39:17","新北市中和區錦和路350-1號","121.49047","24.9935833333333","6500300","中和區"
"235070","558-UM","2018/10/13 19:39:24","新北市中和區連城路75巷13號","121.4987","24.9982916666667","6500300","中和區"
"235045","565-BX","2018/10/13 19:39:28","新北市中和區景新街442號","121.513261666667","24.9881866666667","6500300","中和區"
"235054","640-BX","2018/10/13 19:39:17","新北市中和區國光街107巷4弄24號","121.470046666667","24.9990633333333","6500300","中和區"
"235047","732-UM","2018/10/13 19:39:29","新北市中和區景安路203巷5號","121.505251666667","24.992945","6500300","中和區"
"235046","733-UM","2018/10/13 19:39:24","新北市中和區仁愛街95號","121.512011666667","24.9867716666667","6500300","中和區"
"235071","783-BX","2018/10/13 19:39:34","新北市中和區民樂路81號","121.484608333333","25.0012783333333","6500300","中和區"
"235057","801-TS","2018/10/13 19:39:32","新北市中和區員山路220號","121.481298333333","25.0011416666667","6500300","中和區"
"235041","802-TS","2018/10/13 19:39:26","新北市中和區永貞路292號","121.512785","25.0042233333333","6500300","中和區"
"235052","805-TS","2018/10/13 19:39:26","新北市中和區華新街206巷19號","121.506195","24.98265","6500300","中和區"
"235048","896-TW","2018/10/13 19:39:29","新北市中和區忠孝街1巷2-1號","121.50909","24.9830116666667","6500300","中和區"
"235053","900-TW","2018/10/13 19:39:16","新北市中和區國光街205巷2號","121.466798333333","25.0019483333333","6500300","中和區"
"235060","911-UM","2018/10/13 19:39:29","新北市中和區中山路二段523巷22號","121.481623333333","25.0041166666667","6500300","中和區"
"235051","157-BY","2018/10/13 19:39:37","新北市中和區板南路190-1號","121.500098333333","24.9929283333333","6500300","中和區"
"235037","AAC-213","2018/10/13 19:39:18","新北市中和區秀朗路三段10巷29弄5號","121.525075","24.99601","6500300","中和區"
"235059","AAC-215","2018/10/13 19:39:21","新北市中和區錦和路203巷13號","121.491411666667","24.9906166666667","6500300","中和區"
"220068","013-TV","2018/10/13 19:39:16","新北市板橋區萬安街12號","121.484718333333","25.0225516666667","6500100","板橋區"
"220035","015-TV","2018/10/13 19:39:22","新北市板橋區新生街89巷22號","121.457311666667","25.02256","6500100","板橋區"
"220065","072-UY","2018/10/13 19:39:34","新北市板橋區國泰街39巷7弄3號","121.468768333333","25.0057166666667","6500100","板橋區"
"220086","073-UY","2018/10/13 19:39:28","新北市板橋區西門街18-5號","121.454415","25.0112383333333","6500100","板橋區"
"220106","075-UY","2018/10/13 19:39:30","新北市板橋區雙十路三段54號","121.471006666667","25.03157","6500100","板橋區"
"220069","AAD-861","2018/10/13 19:39:30","新北市板橋區南雅南路二段18號","121.45466","25.0036433333333","6500100","板橋區"
"247008","336-TH","2018/10/13 19:39:29","新北市蘆洲區中山二路45巷30號","121.474271666667","25.0812066666667","6501400","蘆洲區"
"247004","053-VK","2018/10/13 19:39:33","新北市蘆洲區中華街6巷40號","121.46261","25.08247","6501400","蘆洲區"
"226004","312-R5","2018/10/13 19:39:22","新北市平溪區靜安路三段392巷3號","121.78444","25.0495783333333","6502400","平溪區"
"228003","097-TW","2018/10/13 19:39:20","新北市貢寮區真理里美艷山街19-1號","121.923525","25.0683483333333","6502600","貢寮區"
"228001","212-TW","2018/10/13 19:39:24","新北市貢寮區真理里延平街61號","121.924546666667","25.055645","6502600","貢寮區"
"224010","AGQ-8101","2018/10/13 19:39:22","新北市瑞芳區基山街171號","121.843226666667","25.1080633333333","6501200","瑞芳區"
"224002","639-TC","2018/10/13 19:39:19","新北市瑞芳區三爪子坑路13巷161號","121.815381666667","25.106205","6501200","瑞芳區"
"227002","642-TC","2018/10/13 19:39:27","新北市雙溪區雙溪里太平路77號","121.865191666667","25.035975","6502500","雙溪區"
"227010","400-TW","2018/10/13 19:39:22","新北市雙溪區新基里新基北街20號","121.867203333333","25.0388766666667","6502500","雙溪區"
"253006","032-BX","2018/10/13 19:39:19","新北市石門區小坑12號","121.592885","25.2875816666667","6502200","石門區"
"222001","KEA-2212","2018/10/13 19:39:20","新北市深坑區深坑街146號","121.613025","25.0015316666667","6501800","深坑區"
"208002","KEA-2872","2018/10/13 19:39:30","新北市金山區四維路19號","121.63524","25.22272","6502700","金山區"
"208003","665-BX","2018/10/13 19:39:18","新北市金山區仁愛路1巷1號","121.638596666667","25.2200566666667","6502700","金山區"
"208001","761-BX","2018/10/13 19:39:17","新北市金山區重和里牛埔仔1-4號","121.607548333333","25.2230116666667","6502700","金山區"
"251009","008-UM","2018/10/13 19:39:15","新北市淡水區中山北路一段186巷8號","121.445356666667","25.1788066666667","6501000","淡水區"
"251005","010-UM","2018/10/13 19:39:23","新北市淡水區原德路108巷2號","121.443333333333","25.1735116666667","6501000","淡水區"
"251001","011-UM","2018/10/13 19:39:30","新北市淡水區民權路13-5號","121.459761666667","25.1414183333333","6501000","淡水區"
"251013","KEA-2871","2018/10/13 19:39:29","新北市淡水區店子後9號","121.460378333333","25.218155","6501000","淡水區"
"251016","179-VK","2018/10/13 19:39:22","新北市淡水區下圭柔山119-51號","121.45067","25.2084883333333","6501000","淡水區"
"251015","180-VK","2018/10/13 19:39:24","新北市淡水區北新路三段162號","121.49249","25.19202","6501000","淡水區"
"251010","413-VK","2018/10/13 19:39:25","新北市淡水區濱海路二段202巷65弄31號","121.435058333333","25.1935816666667","6501000","淡水區"
"251012","441-VK","2018/10/13 19:39:28","新北市淡水區淡金路二段605號","121.446181666667","25.19344","6501000","淡水區"
"251006","561-UM","2018/10/13 19:39:15","新北市淡水區中山北路一段247巷114號","121.441758333333","25.1795383333333","6501000","淡水區"
"251007","577-R6","2018/10/13 19:39:17","新北市淡水區淡金路51號","121.455825","25.1608366666667","6501000","淡水區"
"251011","650-BX","2018/10/13 19:39:27","新北市淡水區紅樹林路151號","121.46069","25.1579466666667","6501000","淡水區"
"207003","550-UM","2018/10/13 19:39:29","新北市萬里區大鵬里下社27號","121.648965","25.21721","6502800","萬里區"
"207004","225-TW","2018/10/13 19:39:25","新北市萬里區萬里里瑪鋉路21號","121.687261666667","25.175385","6502800","萬里區"
"252002","178-VK","2018/10/13 19:39:36","新北市三芝區中正路一段18巷54號","121.504206666667","25.2587516666667","6502100","三芝區"
"252001","292-VK","2018/10/13 19:39:33","新北市三芝區公正街9號","121.499771666667","25.257495","6502100","三芝區"
"237004","KEA-2597","2018/10/13 19:39:19","新北市三峽區有木2-2號","121.41717","24.8657183333333","6500900","三峽區"
"237007","153-BY","2018/10/13 19:39:36","新北市三峽區二鬮路136巷20弄9號","121.356545","24.9098683333333","6500900","三峽區"
"237009","210-TH","2018/10/13 19:39:34","新北市三峽區中園街64號","121.36804","24.9255216666667","6500900","三峽區"
"237013","252-BX","2018/10/13 19:39:24","新北市三峽區橫溪路44號","121.396583333333","24.935455","6500900","三峽區"
"237012","275-BY","2018/10/13 19:39:34","新北市三峽區中華路31號","121.372998333333","24.9312783333333","6500900","三峽區"
"237008","302-VK","2018/10/13 19:39:33","新北市三峽區光明路39-1號","121.374575","24.9297883333333","6500900","三峽區"
"237014","433-BY","2018/10/13 19:39:34","新北市三峽區嘉添105號","121.369925","24.90957","6500900","三峽區"
"237006","5529-G3","2018/10/13 19:39:35","新北市三峽區中正路一段336巷15弄2號","121.369933333333","24.92494","6500900","三峽區"
"237016","649-BX","2018/10/13 19:39:21","新北市三峽區橫溪路140號","121.399106666667","24.9352983333333","6500900","三峽區"
"237005","AKY-6261","2018/10/13 19:39:29","新北市三峽區文化路137號","121.369798333333","24.9355316666667","6500900","三峽區"
"236070","105-UM","2018/10/13 19:39:19","新北市土城區金城路一段72號","121.443723333333","24.9725866666667","6501300","土城區"
"236042","107-UM","2018/10/13 19:39:19","新北市土城區學士路10號","121.453845","24.98321","6501300","土城區"
"236079","166-UM","2018/10/13 19:39:31","新北市土城區中州路27巷68-1號","121.41276","24.956545","6501300","土城區"
"236030","253-BX","2018/10/13 19:39:33","新北市土城區福祥街48號","121.441391666667","24.9810883333333","6501300","土城區"
"236026","269-VK","2018/10/13 19:39:19","新北市土城區中央路二段61巷22號","121.44324","24.9787183333333","6501300","土城區"
"236038","271-VK","2018/10/13 19:39:20","新北市土城區青雲路257巷1號","121.459311666667","24.9808533333333","6501300","土城區"
"236021","401-BY","2018/10/13 19:39:24","新北市土城區峰廷街18號","121.46902","24.9873083333333","6501300","土城區"
"236055","752-BX","2018/10/13 19:39:21","新北市土城區學府路一段8號","121.459613333333","24.9883833333333","6501300","土城區"
"236059","912-UM","2018/10/13 19:39:26","新北市土城區中央路二段63號","121.44268","24.97897","6501300","土城區"
"236049","913-UM","2018/10/13 19:39:31","新北市土城區明德路一段62號","121.46541","24.9834233333333","6501300","土城區"
"236063","915-UM","2018/10/13 19:39:20","新北市土城區延平街69巷4號","121.467476666667","24.992825","6501300","土城區"
"242029","612-BX","2018/10/13 19:39:26","新北市新莊區新泰路255巷83號","121.442253333333","25.0391683333333","6500500","新莊區"
"242048","497-BY","2018/10/13 19:39:31","新北市新莊區後港一路3號","121.424088333333","25.0263883333333","6500500","新莊區"
"242034","135-UY","2018/10/13 19:39:28","新北市新莊區仁愛街18號","121.444256666667","25.0356583333333","6500500","新莊區"
"242013","173-VK","2018/10/13 19:39:21","新北市新莊區中誠街149號","121.448755","25.0473083333333","6500500","新莊區"
"242007","176-VK","2018/10/13 19:39:32","新北市新莊區思源路593巷30號","121.457571666667","25.0597666666667","6500500","新莊區"
"242031","348-TH","2018/10/13 19:39:21","新北市新莊區公園一路140號","121.446421666667","25.0380583333333","6500500","新莊區"
"242004","349-TH","2018/10/13 19:39:24","新北市新莊區化成路29巷44號","121.463398333333","25.0439316666667","6500500","新莊區"
"242021","350-TH","2018/10/13 19:39:18","新北市新莊區新泰路357巷3弄1號","121.442436666667","25.0413883333333","6500500","新莊區"
"238015","755-BX","2018/10/13 19:39:21","新北市樹林區大安路531號","121.413616666667","24.985315","6500700","樹林區"
"238023","601-UM","2018/10/13 19:39:28","新北市樹林區三福街114號","121.406578333333","25.0163816666667","6500700","樹林區"
"238019","599-UM","2018/10/13 19:39:27","新北市樹林區鎮前街347巷1弄36號","121.417871666667","24.984255","6500700","樹林區"
"238024","5061-A6","2018/10/13 19:39:25","新北市樹林區佳園路一段72巷12號","121.392205","24.9698066666667","6500700","樹林區"
"238022","KEA-2213","2018/10/13 19:39:19","新北市樹林區國凱街50巷2號","121.420391666667","24.97863","6500700","樹林區"
"238021","KEA-2539","2018/10/13 19:39:25","新北市樹林區佳園路三段219巷41號","121.388416666667","24.946755","6500700","樹林區"
"238025","303-VK","2018/10/13 19:39:20","新北市樹林區中山路一段115-3號","121.422813333333","24.9903133333333","6500700","樹林區"
"238017","283-BY","2018/10/13 19:39:31","新北市樹林區保安二街二段6-1號","121.415975","25.0009516666667","6500700","樹林區"
"238014","282-BY","2018/10/13 19:39:33","新北市樹林區千歲街39號","121.425291666667","24.9960666666667","6500700","樹林區"
"238020","268-VK","2018/10/13 19:39:33","新北市板橋區金門街215巷91弄7號","121.434688333333","24.9884133333333","6500700","樹林區"
"238026","172-UY","2018/10/13 19:39:18","新北市樹林區佳園路三段93號","121.387671666667","24.95232","6500700","樹林區"
"238016","169-UY","2018/10/13 19:39:26","新北市樹林區東和街40號","121.401293333333","24.9828183333333","6500700","樹林區"
"239006","891-R6","2018/10/13 19:39:23","新北市鶯歌區文化路124號","121.351805","24.9519616666667","6500800","鶯歌區"
"239001","417-VK","2018/10/13 19:39:23","新北市鶯歌區文化路393巷2弄7號","121.354076666667","24.9505233333333","6500800","鶯歌區"
"239004","292-BY","2018/10/13 19:39:33","新北市鶯歌區中正一路434-1號","121.361776666667","24.9570633333333","6500800","鶯歌區"
"221008","489-VK","2018/10/13 19:39:27","新北市汐止區康寧街61巷65號","121.620175","25.0678316666667","6501100","汐止區"
"221036","130-UY","2018/10/13 19:39:24","新北市汐止區康寧街901號","121.651441666667","25.07501","6501100","汐止區"
"221015","131-UY","2018/10/13 19:39:19","新北市汐止區康寧街901號","121.651066666667","25.0751833333333","6501100","汐止區"
"221010","269-BY","2018/10/13 19:39:33","新北市汐止區汐萬路二段37巷1號","121.649508333333","25.0812733333333","6501100","汐止區"
"221012","278-VK","2018/10/13 19:39:34","新北市汐止區茄安路242-1號","121.679341666667","25.07082","6501100","汐止區"
"221023","279-VK","2018/10/13 19:39:26","新北市汐止區中興路201號","121.629196666667","25.0684583333333","6501100","汐止區"
"221032","280-BY","2018/10/13 19:39:25","新北市汐止區橫科路407巷25弄17-5號","121.62725","25.049915","6501100","汐止區"
"221027","281-BY","2018/10/13 19:39:26","新北市汐止區忠孝東路9號","121.658323333333","25.0659566666667","6501100","汐止區"
"221021","299-VK","2018/10/13 19:39:22","新北市汐止區新台五路一段131號","121.652208333333","25.0619016666667","6501100","汐止區"
"221031","353-TW","2018/10/13 19:39:31","新北市汐止區康寧街901號","121.650745","25.0752316666667","6501100","汐止區"
"221035","622-UM","2018/10/13 19:39:32","新北市汐止區康寧街901號","121.651061666667","25.07524","6501100","汐止區"
"221025","623-UM","2018/10/13 19:39:28","新北市汐止區福安街20巷1號","121.662583333333","25.064995","6501100","汐止區"
"221038","646-BX","2018/10/13 19:39:28","新北市汐止區忠孝東路266號","121.663271666667","25.0678316666667","6501100","汐止區"
"221033","647-BX","2018/10/13 19:39:27","新北市汐止區南勢街3號","121.627091666667","25.0374033333333","6501100","汐止區"
"221002","707-TV","2018/10/13 19:39:19","新北市汐止區工建路504號","121.633191666667","25.0583933333333","6501100","汐止區"
"221018","753-BX","2018/10/13 19:39:29","新北市汐止區汐萬路一段312號","121.650673333333","25.0752566666667","6501100","汐止區"
"220079","145-BY","2018/10/13 19:39:25","新北市板橋區復興街109號","121.460151666667","25.0178816666667","6500100","板橋區"
"220080","200-UY","2018/10/13 19:39:25","新北市板橋區大觀路二段19巷11號","121.447383333333","25.0033233333333","6500100","板橋區"
"220082","610-BX","2018/10/13 19:39:34","新北市板橋區篤行路一段22號","121.431943333333","24.994275","6500100","板橋區"
"220101","245-BX","2018/10/13 19:39:30","新北市板橋區莊敬路263巷22號","121.47314","25.02183","6500100","板橋區"
"220103","257-TC","2018/10/13 19:39:34","新北市板橋區文化路一段339號","121.466716666667","25.0207033333333","6500100","板橋區"
"220091","267-BY","2018/10/13 19:39:28","新北市板橋區懷德街139巷20弄2號","121.48001","25.0307816666667","6500100","板橋區"
"220056","276-BY","2018/10/13 19:39:27","新北市板橋區四川路二段47巷3弄2號","121.454231666667","24.9946016666667","6500100","板橋區"
"220072","277-BY","2018/10/13 19:39:24","新北市板橋區金門街151巷25號","121.434191666667","24.9901433333333","6500100","板橋區"
"220094","283-UM","2018/10/13 19:39:31","新北市板橋區銘傳街96-3號","121.469615","25.0316283333333","6500100","板橋區"
"220071","283-VK","2018/10/13 19:39:19","新北市板橋區信義路104號","121.458185","24.99277","6500100","板橋區"
"220053","285-VK","2018/10/13 19:39:31","新北市板橋區民享街31號","121.475403333333","25.0147466666667","6500100","板橋區"
"220083","286-VK","2018/10/13 19:39:32","新北市板橋區龍興街65巷57號","121.442198333333","25.0019716666667","6500100","板橋區"
"220081","287-VK","2018/10/13 19:39:24","新北市板橋區大觀路一段29巷179弄22號","121.449301666667","25.0046383333333","6500100","板橋區"
"220090","288-VK","2018/10/13 19:39:24","新北市板橋區裕民街110號","121.459588333333","25.0277133333333","6500100","板橋區"
"220061","293-UM","2018/10/13 19:39:36","新北市板橋區中山路一段265巷36弄1號","121.469086666667","25.015215","6500100","板橋區"
"220084","296-UM","2018/10/13 19:39:23","新北市板橋區滿平二街45號","121.424981666667","24.9879633333333","6500100","板橋區"
"242039","281-VK","2018/10/13 19:39:20","新北市新莊區建國二路83-14號","121.430876666667","25.0253783333333","6500500","新莊區"
"220075","303-R5","2018/10/13 19:39:18","新北市板橋區大勇街28號","121.454193333333","25.0171516666667","6500100","板橋區"
"220062","305-R5","2018/10/13 19:39:19","新北市板橋區三民路二段79號","121.479406666667","25.0167216666667","6500100","板橋區"
"220092","307-R5","2018/10/13 19:39:18","新北市板橋區文化路一段435巷31弄23號","121.466628333333","25.0226983333333","6500100","板橋區"
"220098","317-R6","2018/10/13 19:39:29","新北市板橋區四維路269巷57號","121.460848333333","25.0272066666667","6500100","板橋區"
"220064","486-VK","2018/10/13 19:39:36","新北市板橋區公園街64號","121.461938333333","25.0076233333333","6500100","板橋區"
"220089","487-VK","2018/10/13 19:39:20","新北市板橋區新海路154號","121.460751666667","25.0239566666667","6500100","板橋區"
"220088","491-VK","2018/10/13 19:39:32","新北市板橋區仁化街150-2號","121.477736666667","25.0332633333333","6500100","板橋區"
"220063","609-BX","2018/10/13 19:39:27","新北市板橋區中山路二段531巷17弄20號","121.482111666667","25.0220666666667","6500100","板橋區"
"220057","686-BX","2018/10/13 19:39:21","新北市板橋區和平路安樂巷31號","121.461795","24.99342","6500100","板橋區"
"220077","687-BX","2018/10/13 19:39:17","新北市板橋區僑中二街126巷2號","121.44525","25.005145","6500100","板橋區"
"220093","689-BX","2018/10/13 19:39:28","新北市板橋區長江路一段145號","121.460868333333","25.030285","6500100","板橋區"
"220054","741-BX","2018/10/13 19:39:27","新北市板橋區實踐路64號","121.46391","25.0058766666667","6500100","板橋區"
"220102","KEA-2699","2018/10/13 19:39:31","新北市板橋區文化路二段410巷40號","121.47461","25.0305633333333","6500100","板橋區"
"220055","827-TW","2018/10/13 19:39:21","新北市板橋區國慶路149巷11號","121.460995","24.9971683333333","6500100","板橋區"
"220067","829-TW","2018/10/13 19:39:15","新北市板橋區長安街138巷1弄23號","121.473531666667","25.0098983333333","6500100","板橋區"
"220096","831-TW","2018/10/13 19:39:20","新北市板橋區民生路二段250號","121.468563333333","25.0231666666667","6500100","板橋區"
"220074","895-R6","2018/10/13 19:39:32","新北市板橋區後菜園街1號","121.457806666667","25.0103433333333","6500100","板橋區"
"220073","985-R7","2018/10/13 19:39:35","新北市板橋區國光路49巷13號","121.458756666667","25.0186616666667","6500100","板橋區"
"220097","AAC-210","2018/10/13 19:39:20","新北市板橋區漢生西路89巷2弄12-2號","121.461823333333","25.0195616666667","6500100","板橋區"
"220070","AAC-253","2018/10/13 19:39:27","新北市板橋區民族路302號","121.470586666667","25.0067316666667","6500100","板橋區"
"235068","KEA-2873","2018/10/13 19:39:27","新北市中和區泰和街12號","121.499831666667","25.0009916666667","6500300","中和區"
"235061","KEA-2875","2018/10/13 19:39:07","新北市中和區民利街31巷2弄4號","121.479921666667","24.9986683333333","6500300","中和區"
