"lineid","car","time","location","longitude","latitude","cityid","cityname"
"234081","298-R6","2018/10/13 20:29:22","新北市永和區國中路132巷8號","121.523831666667","25.0073916666667","6500400","永和區"
"234038","336-UY","2018/10/13 20:29:28","新北市永和區民樂街31巷10弄12號","121.528918333333","25.00089","6500400","永和區"
"234064","337-UY","2018/10/13 20:29:23","新北市永和區中正路419號","121.517078333333","25.0049716666667","6500400","永和區"
"234086","338-UY","2018/10/13 20:29:37","新北市永和區永和路二段233號","121.515621666667","25.0141766666667","6500400","永和區"
"234070","552-UM","2018/10/13 20:29:34","新北市永和區永利路95號","121.52173","25.0031416666667","6500400","永和區"
"234030","746-BX","2018/10/13 20:29:18","新北市永和區民有街67巷8弄4號","121.518178333333","24.9961816666667","6500400","永和區"
"234054","KEA-2590","2018/10/13 20:29:27","新北市永和區環河東路一段82號","121.519685","25.0164433333333","6500400","永和區"
"234061","AAD-866","2018/10/13 20:29:35","新北市永和區安樂路194巷39弄6號","121.516388333333","25.0014216666667","6500400","永和區"
"234042","862-TW","2018/10/13 20:29:37","新北市永和區安樂路282號","121.51442","25.0044033333333","6500400","永和區"
"234050","863-TW","2018/10/13 20:29:23","新北市永和區新生路83號","121.50847","25.0159433333333","6500400","永和區"
"249001","173-UM","2018/10/13 20:29:28","新北市八里區下罟子5-11號","121.386926666667","25.1423333333333","6502300","八里區"
"249004","303-UY","2018/10/13 20:29:27","新北市八里區中山路一段282號","121.413713333333","25.1595483333333","6502300","八里區"
"249002","305-UY","2018/10/13 20:29:35","新北市八里區龍米路二段125巷2號","121.446136666667","25.14514","6502300","八里區"
"249003","593-UM","2018/10/13 20:29:33","新北市八里區華峰一街27-1號","121.399338333333","25.1464666666667","6502300","八里區"
"248014","261-SL","2018/10/13 20:29:19","新北市八里區中山路三段382號","121.368561666667","25.135995","6501500","五股區"
"248002","678-BX","2018/10/13 20:29:36","新北市五股區成泰路三段6號","121.441265","25.0876766666667","6501500","五股區"
"234023","9380-KE","2018/10/13 20:29:25","新北市永和區博愛街32巷15-1號","121.51904","25.0153116666667","6500400","永和區"
"234074","AAC-211","2018/10/13 20:29:35","新北市永和區竹林路201巷26弄8號","121.522668333333","25.0100433333333","6500400","永和區"
"234067","AAC-212","2018/10/13 20:29:24","新北市永和區保平路292巷42號","121.507655","25.00517","6500400","永和區"
"234003","AAC-295","2018/10/13 20:29:34","新北市永和區中正路636號","121.516928333333","25.0081683333333","6500400","永和區"
"244018","403-UM","2018/10/13 20:29:18","新北市林口區粉寮路二段88巷100-12號","121.409523333333","25.09021","6501700","林口區"
"243013","AAD-798","2018/10/13 20:29:31","新北市泰山區貴子路7號","121.425458333333","25.042155","6501600","泰山區"
"243009","297-R6","2018/10/13 20:29:24","新北市泰山區忠孝街43號","121.428753333333","25.0654716666667","6501600","泰山區"
"243016","KEA-2801","2018/10/13 20:29:25","新北市泰山區明志路二段220號","121.427263333333","25.04853","6501600","泰山區"
"243015","421-VK","2018/10/13 20:29:26","新北市泰山區泰林路二段280巷2號","121.431493333333","25.0624083333333","6501600","泰山區"
"243011","KEA-2215","2018/10/13 20:29:18","新北市泰山區台麗街26號","121.426966666667","25.0367383333333","6501600","泰山區"
"243010","KEA-2216","2018/10/13 20:29:34","新北市泰山區新生路31巷7號","121.427671666667","25.0459466666667","6501600","泰山區"
"243012","646-TV","2018/10/13 20:29:33","新北市泰山區憲訓路36號","121.42894","25.064745","6501600","泰山區"
"243014","680-BX","2018/10/13 20:29:28","新北市泰山區泰林路二段2-10號","121.419915","25.065025","6501600","泰山區"
"222003","436-BY","2018/10/13 20:29:34","新北市深坑區深坑街32號","121.615215","25.00177","6501800","深坑區"
"222002","659-BX","2018/10/13 20:29:28","新北市深坑區萬福路16巷3號","121.604061666667","25.0075733333333","6501800","深坑區"
"231059","001-UM","2018/10/13 20:29:35","新北市新店區安康路二段221號","121.508703333333","24.958765","6500600","新店區"
"231041","002-UM","2018/10/13 20:29:29","新北市新店區中正路493-2號","121.53371","24.9829633333333","6500600","新店區"
"231040","047-UY","2018/10/13 20:29:31","新北市新店區中正路348號","121.536331666667","24.9752033333333","6500600","新店區"
"231048","187-VK","2018/10/13 20:29:17","新北市新店區寶慶街58巷21-1號","121.542018333333","24.9873016666667","6500600","新店區"
"231062","188-VK","2018/10/13 20:29:29","新北市新店區安泰路7巷16號","121.485681666667","24.9509816666667","6500600","新店區"
"231052","189-VK","2018/10/13 20:29:34","新北市新店區松林路16巷31號","121.546285","24.9101916666667","6500600","新店區"
"231054","KEA-2219","2018/10/13 20:29:27","新北市新店區檳榔路109號","121.544501666667","24.9615466666667","6500600","新店區"
"231057","256-BX","2018/10/13 20:29:37","新北市新店區花園十路二段3號","121.554961666667","24.9340866666667","6500600","新店區"
"231042","268-BY","2018/10/13 20:29:26","新北市新店區寶橋路156-3號","121.548646666667","24.9769966666667","6500600","新店區"
"231051","278-BY","2018/10/13 20:29:20","新北市新店區中央七街11號","121.530256666667","24.9749033333333","6500600","新店區"
"231050","AAD-862","2018/10/13 20:29:37","新北市新店區建國路43號","121.54045","24.9752066666667","6500600","新店區"
"231061","355-BY","2018/10/13 20:29:23","新北市新店區新和街34號","121.519133333333","24.9847483333333","6500600","新店區"
"231058","3713-VJ","2018/10/13 20:29:26","新北市新店區自由街55號","121.534343333333","24.97355","6500600","新店區"
"231066","4716-K9","2018/10/13 20:29:20","新北市新店區安興路105號","121.514733333333","24.9777783333333","6500600","新店區"
"231056","4715-K9","2018/10/13 20:29:18","新北市新店區民生路75巷225-1號","121.533053333333","24.9814116666667","6500600","新店區"
"231067","4772-VM","2018/10/13 20:29:31","新北市新店區安華路28-1號","121.519771666667","24.9608383333333","6500600","新店區"
"231065","512-UM","2018/10/13 20:29:27","新北市新店區安祥路102巷42弄79號","121.486536666667","24.963155","6500600","新店區"
"231049","513-UM","2018/10/13 20:29:19","新北市新店區永業路81巷12號","121.531251666667","24.9480866666667","6500600","新店區"
"231063","616-UM","2018/10/13 20:29:19","新北市新店區玫瑰路4-1號","121.493581666667","24.9514116666667","6500600","新店區"
"231044","618-UM","2018/10/13 20:29:25","新北市新店區建國路215號","121.53765","24.980545","6500600","新店區"
"231064","719-UM","2018/10/13 20:28:00","新北市新店區新和街34號","121.51913","24.9847333333333","6500600","新店區"
"231068","719-UY","2018/10/13 20:29:36","新北市新店區中興路三段223號","121.543081666667","24.9828833333333","6500600","新店區"
"231060","897-TW","2018/10/13 20:29:20","新北市新店區錦秀路5號","121.47932","24.94492","6500600","新店區"
"231045","898-TW","2018/10/13 20:29:23","新北市新店區新坡一街6號","121.548713333333","24.9615133333333","6500600","新店區"
"231043","899-TW","2018/10/13 20:29:38","新北市新店區明德路67巷17號","121.540505","24.9770766666667","6500600","新店區"
"241011","013-R5","2018/10/13 20:29:35","新北市三重區龍門路43號","121.496106666667","25.0723466666667","6500200","三重區"
"241028","022-UY","2018/10/13 20:29:36","新北市三重區光興街93號","121.497338333333","25.05995","6500200","三重區"
"241008","059-VK","2018/10/13 20:29:34","新北市三重區下竹圍街42-1號","121.481045","25.0748833333333","6500200","三重區"
"241022","060-VK","2018/10/13 20:29:34","新北市三重區民生街61巷31弄1號","121.487775","25.0630666666667","6500200","三重區"
"241031","061-VK","2018/10/13 20:29:22","新北市三重區三寧街22號","121.48952","25.0598783333333","6500200","三重區"
"241015","062-VK","2018/10/13 20:29:38","新北市三重區長元街2-2號","121.498738333333","25.0658383333333","6500200","三重區"
"241017","063-VK","2018/10/13 20:29:36","新北市三重區自強路一段207號","121.491578333333","25.0683483333333","6500200","三重區"
"241026","066-VK","2018/10/13 20:29:29","新北市三重區福德南路24巷11號","121.503333333333","25.06319","6500200","三重區"
"241002","090-VK","2018/10/13 20:29:37","新北市三重區仁義街167巷40號","121.49877","25.08265","6500200","三重區"
"241003","091-VK","2018/10/13 20:29:31","新北市三重區富華街137號","121.492845","25.08472","6500200","三重區"
"251014","742-BX","2018/10/13 20:29:29","新北市淡水區石頭厝14-53號","121.464188333333","25.2366666666667","6501000","淡水區"
"241005","262-UM","2018/10/13 20:29:27","新北市三重區碧華街358號","121.490613333333","25.0841283333333","6500200","三重區"
"241009","265-UM","2018/10/13 20:29:23","新北市三重區永福街64-1號","121.480591666667","25.0777633333333","6500200","三重區"
"241016","266-UM","2018/10/13 20:29:28","新北市三重區正義北路120號","121.496826666667","25.065455","6500200","三重區"
"241018","268-UM","2018/10/13 20:29:37","新北市三重區雙園街134號","121.494113333333","25.0673066666667","6500200","三重區"
"241032","269-UM","2018/10/13 20:29:19","新北市三重區重陽路一段120巷35號","121.485068333333","25.0601916666667","6500200","三重區"
"241013","270-UM","2018/10/13 20:29:30","新北市三重區溪尾街2號","121.491541666667","25.0742583333333","6500200","三重區"
"241025","271-UM","2018/10/13 20:29:22","新北市三重區頂崁街210巷27號","121.475771666667","25.0682383333333","6500200","三重區"
"241007","398-BY","2018/10/13 20:29:24","新北市三重區自強路四段2號","121.488285","25.0760166666667","6500200","三重區"
"241035","KEA-2210","2018/10/13 20:29:36","新北市三重區重新路二段23號","121.497743333333","25.0626266666667","6500200","三重區"
"241004","475-VK","2018/10/13 20:29:24","新北市三重區溪尾街188號","121.488318333333","25.0809533333333","6500200","三重區"
"241020","478-VK","2018/10/13 20:29:28","新北市三重區忠孝路一段21號","121.49198","25.0719366666667","6500200","三重區"
"241030","480-VK","2018/10/13 20:29:22","新北市三重區成功路62號","121.488635","25.0509183333333","6500200","三重區"
"241014","543-UM","2018/10/13 20:29:33","新北市三重區長興街98號","121.501783333333","25.0692066666667","6500200","三重區"
"241023","545-UM","2018/10/13 20:29:25","新北市三重區自由街16號","121.479795","25.066545","6500200","三重區"
"241001","547-UM","2018/10/13 20:29:27","新北市三重區三和路四段95號","121.48824","25.0759116666667","6500200","三重區"
"241019","KEA-2593","2018/10/13 20:29:36","新北市三重區重陽路四段124號","121.492446666667","25.07101","6500200","三重區"
"241006","AAD-863","2018/10/13 20:29:36","新北市三重區力行路二段164號","121.48301","25.0767016666667","6500200","三重區"
"241024","887-TS","2018/10/13 20:29:31","新北市三重區三民街256號","121.479725","25.0674766666667","6500200","三重區"
"241012","941-UM","2018/10/13 20:29:23","新北市三重區龍濱路269號","121.50139","25.0730366666667","6500200","三重區"
"241029","942-UM","2018/10/13 20:29:24","新北市三重區集美街223號","121.491841666667","25.0549083333333","6500200","三重區"
"241033","AAC-255","2018/10/13 20:29:26","新北市三重區五谷王北街80巷39號","121.475191666667","25.0531483333333","6500200","三重區"
"235066","003-UY","2018/10/13 20:29:31","新北市中和區光華街69號","121.506683333333","25.0027966666667","6500300","中和區"
"235065","098-UM","2018/10/13 20:29:25","新北市中和區福美路312巷8號","121.496656666667","25.0052366666667","6500300","中和區"
"247012","KEA-2869","2018/10/13 20:29:33","新北市蘆洲區復興路231號","121.479958333333","25.08976","6501400","蘆洲區"
"235050","4979-A6","2018/10/13 20:29:37","新北市中和區景新街162號","121.505716666667","24.99713","6500300","中和區"
"235069","4980-A6","2018/10/13 20:29:34","新北市中和區連城路347巷18弄30號","121.487375","24.99472","6500300","中和區"
"235054","640-BX","2018/10/13 20:29:37","新北市樹林區佳園路三段64號","121.38734","24.9520416666667","6500300","中和區"
"235059","AAC-215","2018/10/13 20:29:21","新北市中和區員山路36巷1號","121.482421666667","24.9902416666667","6500300","中和區"
"247002","893-R6","2018/10/13 20:29:23","新北市蘆洲區長安街361巷28號","121.4559","25.0875833333333","6501400","蘆洲區"
"247016","546-UM","2018/10/13 20:29:21","新北市蘆洲區光華路57號","121.468453333333","25.082855","6501400","蘆洲區"
"247024","500-BY","2018/10/13 20:29:14","新北市蘆洲區光復路70巷21號","121.464748333333","25.0851233333333","6501400","蘆洲區"
"247014","339-TH","2018/10/13 20:29:24","新北市蘆洲區中山二路76號","121.473378333333","25.0820566666667","6501400","蘆洲區"
"247006","337-TH","2018/10/13 20:29:18","新北市蘆洲區和平路121巷8弄43號","121.465865","25.0808116666667","6501400","蘆洲區"
"247008","336-TH","2018/10/13 20:29:29","新北市蘆洲區重陽街91號","121.482338333333","25.08528","6501400","蘆洲區"
"247020","057-VK","2018/10/13 20:29:27","新北市蘆洲區仁愛街132號","121.46912","25.0944633333333","6501400","蘆洲區"
"247010","056-VK","2018/10/13 20:29:25","新北市蘆洲區信義路222巷6號","121.479476666667","25.0852916666667","6501400","蘆洲區"
"247004","053-VK","2018/10/13 20:29:33","新北市蘆洲區長安街222號","121.458135","25.0848766666667","6501400","蘆洲區"
"247018","007-UY","2018/10/13 20:29:25","新北市蘆洲區民族路336巷9號","121.47701","25.0907216666667","6501400","蘆洲區"
"247022","001-UY","2018/10/13 20:29:29","新北市蘆洲區中正路263巷2號","121.467253333333","25.0875683333333","6501400","蘆洲區"
"224010","AGQ-8101","2018/10/13 20:28:22","新北市瑞芳區烏勢巷145號","121.847815","25.10908","6501200","瑞芳區"
"222001","KEA-2212","2018/10/13 20:29:20","新北市深坑區北深路三段329號","121.597228333333","25.0050133333333","6501800","深坑區"
"251009","008-UM","2018/10/13 20:29:35","新北市淡水區中正東路二段81號","121.459373333333","25.1540716666667","6501000","淡水區"
"251001","011-UM","2018/10/13 20:29:25","新北市淡水區淡金路一段571號","121.452636666667","25.180815","6501000","淡水區"
"251013","KEA-2871","2018/10/13 20:29:29","新北市淡水區後坑子6號","121.46344","25.2066833333333","6501000","淡水區"
"251016","179-VK","2018/10/13 20:29:40","新北市淡水區新埔子11-7號","121.44746","25.2284983333333","6501000","淡水區"
"251015","180-VK","2018/10/13 20:29:23","新北市淡水區淡金路三段446號","121.450623333333","25.214345","6501000","淡水區"
"251008","181-VK","2018/10/13 20:29:38","新北市淡水區沙崙路131巷11號","121.422181666667","25.1831333333333","6501000","淡水區"
"251010","413-VK","2018/10/13 20:29:25","新北市淡水區沙崙路181巷1號","121.424005","25.1843066666667","6501000","淡水區"
"251012","441-VK","2018/10/13 20:29:28","新北市淡水區興仁路108號","121.451658333333","25.2181366666667","6501000","淡水區"
"251006","561-UM","2018/10/13 20:29:35","新北市淡水區商工路375號","121.471205","25.1849466666667","6501000","淡水區"
"251011","650-BX","2018/10/13 20:29:27","新北市淡水區崁頂76-1號","121.430955","25.2035966666667","6501000","淡水區"
"251002","672-BX","2018/10/13 20:29:33","新北市淡水區中正路51號","121.441876666667","25.16957","6501000","淡水區"
"251003","673-BX","2018/10/13 20:29:26","新北市淡水區新生街39號","121.440193333333","25.1747916666667","6501000","淡水區"
"252002","178-VK","2018/10/13 20:29:36","新北市三芝區淡金路二段47-2號","121.503676666667","25.26052","6502100","三芝區"
"252001","292-VK","2018/10/13 20:29:33","新北市三芝區中山路一段36號","121.500801666667","25.25751","6502100","三芝區"
"242036","AAC-296","2018/10/13 20:29:30","新北市新莊區後港一路76巷14弄4號","121.42722","25.0256416666667","6500500","新莊區"
"242058","986-R7","2018/10/13 20:29:30","新北市新莊區四維路159號","121.422531666667","25.0218416666667","6500500","新莊區"
"242056","751-BX","2018/10/13 20:29:19","新北市新莊區瓊泰路181號","121.443078333333","25.0315283333333","6500500","新莊區"
"242027","705-TV","2018/10/13 20:29:24","新北市新莊區思源路309號","121.459846666667","25.048985","6500500","新莊區"
"242025","613-BX","2018/10/13 20:29:21","新北市新莊區五工三路60號","121.459645","25.0645283333333","6500500","新莊區"
"242029","612-BX","2018/10/13 20:29:26","新北市新莊區昌平街19號","121.454305","25.05136","6500500","新莊區"
"242044","566-BX","2018/10/13 20:29:35","新北市新莊區中正路新建巷30號","121.4144","25.0217983333333","6500500","新莊區"
"242048","497-BY","2018/10/13 20:29:31","新北市新莊區成功街198號","121.422058333333","25.0173566666667","6500500","新莊區"
"242015","442-UM","2018/10/13 20:29:35","新北市新莊區中平路82巷16號","121.445523333333","25.0448916666667","6500500","新莊區"
"242053","441-UM","2018/10/13 20:29:30","新北市新莊區民安西路229巷24號","121.427216666667","25.0140816666667","6500500","新莊區"
"242046","400-BY","2018/10/13 20:29:27","新北市新莊區裕民街72巷27號","121.417483333333","25.024465","6500500","新莊區"
"242023","362-BY","2018/10/13 20:29:30","新北市新莊區化成路319號","121.465958333333","25.0557416666667","6500500","新莊區"
"242061","353-BY","2018/10/13 20:29:26","新北市新莊區新樹路244巷49號","121.431233333333","25.019135","6500500","新莊區"
"242011","132-UY","2018/10/13 20:29:33","新北市新莊區中義街14號","121.451081666667","25.0512116666667","6500500","新莊區"
"242042","133-UY","2018/10/13 20:29:38","新北市新莊區中正路694巷24號","121.418176666667","25.0288216666667","6500500","新莊區"
"242034","135-UY","2018/10/13 20:29:28","新北市新莊區中正路334巷7號","121.445715","25.035235","6500500","新莊區"
"242051","172-VK","2018/10/13 20:29:23","新北市新莊區民安西路189巷23號","121.42696","25.0153516666667","6500500","新莊區"
"242013","173-VK","2018/10/13 20:29:34","新北市新莊區中平路302巷12號","121.445391666667","25.0519783333333","6500500","新莊區"
"242019","175-VK","2018/10/13 20:29:28","新北市新莊區銘德街51號","121.457196666667","25.04368","6500500","新莊區"
"242007","176-VK","2018/10/13 20:29:32","新北市新莊區思源路275號","121.459765","25.047945","6500500","新莊區"
"242017","346-TH","2018/10/13 20:29:36","新北市新莊區中港三街13號","121.450915","25.0465116666667","6500500","新莊區"
"242002","347-TH","2018/10/13 20:29:26","新北市新莊區中正路育農巷1號","121.456943333333","25.037915","6500500","新莊區"
"242031","348-TH","2018/10/13 20:29:37","新北市新莊區三泰路23號","121.437301666667","25.035535","6500500","新莊區"
"242004","349-TH","2018/10/13 20:29:24","新北市新莊區化成路746巷41號","121.466895","25.0582433333333","6500500","新莊區"
"242021","350-TH","2018/10/13 20:29:38","新北市新莊區公園路82號","121.450216666667","25.0396816666667","6500500","新莊區"
"239004","292-BY","2018/10/13 20:23:52","新北市鶯歌區二甲路13號","121.34382","24.9353766666667","6500800","鶯歌區"
"221008","489-VK","2018/10/13 20:29:27","新北市汐止區康寧街702號","121.637251666667","25.0719033333333","6501100","汐止區"
"221036","130-UY","2018/10/13 20:29:24","新北市汐止區新昌路7號","121.662091666667","25.06725","6501100","汐止區"
"221015","131-UY","2018/10/13 20:29:39","新北市汐止區建成路142巷19弄17號","121.661781666667","25.0739383333333","6501100","汐止區"
"221010","269-BY","2018/10/13 20:29:33","新北市汐止區八連路二段610巷17號","121.624213333333","25.111545","6501100","汐止區"
"221012","278-VK","2018/10/13 20:29:33","新北市汐止區大同路三段279號","121.674201666667","25.0750183333333","6501100","汐止區"
"221023","279-VK","2018/10/13 20:29:25","新北市汐止區湖東街76巷1號","121.63584","25.0734916666667","6501100","汐止區"
"221032","280-BY","2018/10/13 20:29:25","新北市汐止區弘道街53巷19弄2號","121.618723333333","25.0495033333333","6501100","汐止區"
"221027","281-BY","2018/10/13 20:29:26","新北市汐止區中正路214號","121.658248333333","25.0688716666667","6501100","汐止區"
"221029","298-VK","2018/10/13 20:29:25","新北市汐止區樟樹一路129巷32號","121.640586666667","25.0651616666667","6501100","汐止區"
"221021","299-VK","2018/10/13 20:29:21","新北市汐止區水源路一段284號","121.654225","25.0583333333333","6501100","汐止區"
"221031","353-TW","2018/10/13 20:29:31","新北市汐止區中興路110巷36號","121.634356666667","25.0646616666667","6501100","汐止區"
"221035","622-UM","2018/10/13 20:29:32","新北市汐止區長江街101-5號","121.658603333333","25.0731933333333","6501100","汐止區"
"221025","623-UM","2018/10/13 20:29:37","新北市汐止區水源路二段88巷1弄4號","121.656266666667","25.0556933333333","6501100","汐止區"
"221038","646-BX","2018/10/13 20:29:28","新北市汐止區水源路一段56-1號","121.65713","25.0654316666667","6501100","汐止區"
"221033","647-BX","2018/10/13 20:29:27","新北市汐止區林森街73巷11號","121.623616666667","25.041125","6501100","汐止區"
"221002","707-TV","2018/10/13 20:29:19","新北市汐止區福德二路51號","121.634191666667","25.0672433333333","6501100","汐止區"
"221018","753-BX","2018/10/13 20:29:28","新北市汐止區茄苳路225巷2號","121.671056666667","25.0688133333333","6501100","汐止區"
"220103","257-TC","2018/10/13 20:29:34","新北市板橋區漢生東路53巷28號","121.466741666667","25.0173433333333","6500100","板橋區"
"220083","286-VK","2018/10/13 20:29:32","新北市板橋區僑中二街104巷16號","121.445326666667","25.0080016666667","6500100","板橋區"
"220061","293-UM","2018/10/13 20:29:35","新北市板橋區四川路一段353號","121.458271666667","24.9998016666667","6500100","板橋區"
"242039","281-VK","2018/10/13 20:29:40","新北市新莊區民安西路1號","121.426536666667","25.0218416666667","6500500","新莊區"
"220089","487-VK","2018/10/13 20:29:40","新北市板橋區四維路343號","121.462355","25.0297983333333","6500100","板橋區"
"242009","280-VK","2018/10/13 20:29:25","新北市新莊區昌盛街60號","121.455295","25.04988","6500500","新莊區"
"220070","AAC-253","2018/10/13 20:29:27","新北市泰山區楓里路25號","121.442245","25.0587483333333","6500100","板橋區"
