"lineid","car","time","location","longitude","latitude","cityid","cityname"
"251005","010-UM","2018/10/13 21:59:23","新北市淡水區鄧公路30巷2弄31號","121.453415","25.16917","6501000","淡水區"
"251008","181-VK","2018/10/13 21:59:37","新北市淡水區學府路104號","121.449891666667","25.17182","6501000","淡水區"
"251010","413-VK","2018/10/13 21:59:24","新北市淡水區中正路二段208號","121.426301666667","25.1893066666667","6501000","淡水區"
"251004","443-VK","2018/10/13 21:59:25","新北市淡水區民權路229號","121.460025","25.129835","6501000","淡水區"
"251006","561-UM","2018/10/13 21:59:35","新北市淡水區中正路11巷3號","121.437871666667","25.1707583333333","6501000","淡水區"
"251007","577-R6","2018/10/13 21:59:26","新北市淡水區北新路184巷31號","121.45039","25.1780166666667","6501000","淡水區"
"251011","650-BX","2018/10/13 21:59:27","新北市淡水區水碓街7號","121.443186666667","25.1770883333333","6501000","淡水區"
"251003","673-BX","2018/10/13 21:59:26","新北市淡水區新春街81號","121.438795","25.1823366666667","6501000","淡水區"
