"lineid","car","time","location","longitude","latitude","cityid","cityname"
"234040","862-TW","2018/10/13 22:00:55","新北市永和區福和路1號","121.52634","25.0096466666667","6500400","永和區"
"251008","181-VK","2018/10/13 22:19:37","新北市淡水區學府路104號","121.449841666667","25.1717633333333","6501000","淡水區"
"251010","413-VK","2018/10/13 22:19:25","新北市淡水區沙崙路200號","121.424673333333","25.1839033333333","6501000","淡水區"
"251004","443-VK","2018/10/13 22:19:25","新北市淡水區民族路33號","121.462243333333","25.13581","6501000","淡水區"
"251007","577-R6","2018/10/13 22:19:27","新北市淡水區北新路180號","121.449466666667","25.178725","6501000","淡水區"
"251011","650-BX","2018/10/13 22:19:27","新北市淡水區水碓街7號","121.4432","25.1771383333333","6501000","淡水區"
