"lineid","car","time","location","longitude","latitude","cityid","cityname"
"232008","758-BX","2018/12/21 07:59:09","新北市坪林區魚堀1-12號","121.714481666667","24.8945933333333","6502000","坪林區"
"244004","248-BX","2018/12/21 07:59:19","新北市林口區下福里13鄰157號","121.30242","25.114635","6501700","林口區"
"222005","289-BY","2018/12/21 07:59:17","新北市深坑區文化街98號","121.61704","25.00181","6501800","深坑區"
"231007","189-VK","2018/12/21 07:59:06","新北市新店區安康路一段323-1號","121.521695","24.9637566666667","6500600","新店區"
"231009","192-VK","2018/12/21 07:59:12","新北市新店區安康路一段3-1號","121.535288333333","24.9609566666667","6500600","新店區"
"235001","611-BX","2018/12/21 07:59:09","新北市中和區圓通路367巷4號","121.491428333333","24.9893266666667","6500300","中和區"
"226005","5620-A6","2018/12/21 07:59:20","新北市平溪區石底里公園街18-3號","121.733463333333","25.0255933333333","6502400","平溪區"
"226001","7418-A5","2018/12/21 07:59:21","新北市平溪區南山里乾坑11號","121.782695","25.0471883333333","6502400","平溪區"
"226006","AGD-0702","2018/12/21 07:59:14","新北市平溪區十分里十分街45號","121.774476666667","25.040785","6502400","平溪區"
"223006","022-BY","2018/12/21 07:53:52","新北市坪林區北宜路八段558號","121.717223333333","24.9095066666667","6501900","石碇區"
"223002","KEA-2673","2018/12/21 07:56:31","新北市石碇區大格門5號","121.666791666667","24.9567066666667","6501900","石碇區"
"223003","205-TH","2018/12/21 07:58:38","新北市石碇區樟空子10-2號","121.666941666667","24.962165","6501900","石碇區"
"223004","437-BY","2018/12/21 07:59:20","新北市石碇區外按18-2號","121.651255","24.9997366666667","6501900","石碇區"
"223001","592-UM","2018/12/21 07:59:27","新北市石碇區四分子6-9號","121.662565","24.9625566666667","6501900","石碇區"
"223007","661-BX","2018/12/21 07:34:53","新北市石碇區靜安路一段337號","121.698861666667","25.0145316666667","6501900","石碇區"
"223005","677-TV","2018/12/21 07:59:10","新北市石碇區外按6-1號","121.649228333333","24.9948733333333","6501900","石碇區"
"227005","282-VK","2018/12/21 07:59:21","新北市雙溪區平林里梅竹蹊16號","121.862028333333","25.0359583333333","6502500","雙溪區"
"252003","249-BX","2018/12/21 07:59:12","新北市三芝區中正路三段3號","121.503098333333","25.2542","6502100","三芝區"
"237001","361-BY","2018/12/21 07:59:21","新北市三峽區大學路83號","121.37599","24.941345","6500900","三峽區"
