"lineid","car","time","location","longitude","latitude","cityid","cityname"
"222005","289-BY","2018/12/21 08:49:17","新北市深坑區風格街31巷8號","121.628363333333","25.0169966666667","6501800","深坑區"
"231007","189-VK","2018/12/21 08:48:06","新北市新店區小坑二路19號","121.524363333333","24.9136866666667","6500600","新店區"
"231009","192-VK","2018/12/21 08:49:12","新北市新店區松林路81號","121.550771666667","24.9069733333333","6500600","新店區"
"235001","611-BX","2018/12/21 08:49:09","新北市中和區華順街109號","121.465291666667","24.9971233333333","6500300","中和區"
"226005","5620-A6","2018/12/21 08:49:17","新北市平溪區十分里十分街129號","121.776968333333","25.0431816666667","6502400","平溪區"
"226001","7418-A5","2018/12/21 08:45:21","新北市平溪區東勢里東勢格36-1號","121.760435","24.9907566666667","6502400","平溪區"
"226006","AGD-0702","2018/12/21 08:49:14","新北市平溪區十分里十分街193號","121.778396666667","25.0438433333333","6502400","平溪區"
"223006","022-BY","2018/12/21 08:49:14","新北市石碇區楓子林30號","121.642266666667","25.00977","6501900","石碇區"
"223002","KEA-2673","2018/12/21 08:48:06","新北市石碇區八分寮47-1號","121.643041666667","25.0133933333333","6501900","石碇區"
"223003","205-TH","2018/12/21 08:49:24","新北市石碇區北宜路六段直潭巷9號","121.661376666667","24.9358083333333","6501900","石碇區"
"223008","406-TH","2018/12/21 08:47:40","新北市石碇區光明路17-2號","121.685265","25.031875","6501900","石碇區"
"223004","437-BY","2018/12/21 08:49:20","新北市石碇區碇坪路二段71號","121.685453333333","24.9654133333333","6501900","石碇區"
"223001","592-UM","2018/12/21 08:49:27","新北市石碇區北宜路六段直潭巷1號","121.658745","24.9374783333333","6501900","石碇區"
"223005","677-TV","2018/12/21 08:49:10","新北市石碇區碇坪路二段71號","121.685553333333","24.9652366666667","6501900","石碇區"
"227005","282-VK","2018/12/21 08:49:21","新北市雙溪區泰平里泰平1-5號","121.847496666667","24.994155","6502500","雙溪區"
"237001","361-BY","2018/12/21 08:49:21","新北市三峽區中山路459巷163-3號","121.348678333333","24.9327283333333","6500900","三峽區"
