"lineid","car","time","location","longitude","latitude","cityid","cityname"
"234044","148-BY","2018/12/21 13:09:21","新北市永和區秀朗路二段124-3號","121.524845","25.0015566666667","6500400","永和區"
"234078","298-R6","2018/12/21 13:09:30","新北市永和區永亨路59號","121.52091","25.0062966666667","6500400","永和區"
"234036","336-UY","2018/12/21 13:09:29","新北市永和區民樂街69巷3號","121.527486666667","24.9978116666667","6500400","永和區"
"234062","337-UY","2018/12/21 13:09:31","新北市永和區秀朗路二段31號","121.521253333333","25.0024933333333","6500400","永和區"
"234068","552-UM","2018/12/21 13:09:07","新北市永和區豫溪街57巷10弄7號","121.517588333333","25.0108116666667","6500400","永和區"
"234015","745-BX","2018/12/21 13:09:17","新北市永和區文化路90巷17號","121.513716666667","25.0162016666667","6500400","永和區"
"234028","746-BX","2018/12/21 13:09:23","新北市永和區民生路21號","121.522858333333","24.9988566666667","6500400","永和區"
"234052","KEA-2590","2018/12/21 13:09:19","新北市永和區竹林路72巷2號","121.519261666667","25.0131366666667","6500400","永和區"
"234005","839-RS","2018/12/21 13:09:32","新北市永和區中山路一段211-1號","121.50866","25.00836","6500400","永和區"
"234012","KEA-2591","2018/12/21 13:09:21","新北市永和區保福路二段65號","121.510746666667","25.01236","6500400","永和區"
"234060","AAD-866","2018/12/21 13:09:24","新北市永和區安樂路467號","121.514335","25.005365","6500400","永和區"
"234084","748-BX","2018/12/21 13:09:18","新北市永和區永貞路47-1號","121.519641666667","25.0044883333333","6500400","永和區"
"234040","862-TW","2018/12/21 13:09:21","新北市永和區保平路131號","121.510455","25.00622","6500400","永和區"
"234048","863-TW","2018/12/21 13:09:29","新北市永和區仁愛路104巷7弄58號","121.510941666667","25.0141683333333","6500400","永和區"
"234025","9371-KE","2018/12/21 13:09:35","新北市永和區秀朗路一段10巷19號","121.51348","25.0061833333333","6500400","永和區"
"234010","9373-KE","2018/12/21 13:09:34","新北市永和區文化路9巷12號","121.5152","25.014745","6500400","永和區"
"248019","225-UY","2018/12/21 13:09:15","新北市五股區凌雲路一段21號","121.454271666667","25.0995683333333","6501500","五股區"
"234022","9380-KE","2018/12/21 13:09:15","新北市永和區中興街10巷17號","121.515841666667","25.0112783333333","6500400","永和區"
"234076","969-R7","2018/12/21 13:09:13","新北市永和區中正路164號","121.515008333333","24.9966533333333","6500400","永和區"
"234072","AAC-211","2018/12/21 13:09:22","新北市永和區福和路74號","121.523088333333","25.00805","6500400","永和區"
"234066","AAC-212","2018/12/21 13:09:31","新北市永和區保平路5號","121.513035","25.0076166666667","6500400","永和區"
"234001","AAC-295","2018/12/21 13:09:33","新北市永和區和平街2號","121.514263333333","25.010085","6500400","永和區"
"244004","248-BX","2018/12/21 13:09:23","新北市林口區頭湖74-3號","121.365233333333","25.0884766666667","6501700","林口區"
"231002","002-UM","2018/12/21 13:09:22","新北市新店區安華路28-1號","121.519843333333","24.9607383333333","6500600","新店區"
"231027","0291-UT","2018/12/21 13:09:18","新北市新店區安華路28-1號","121.519233333333","24.9606","6500600","新店區"
"231028","046-UY","2018/12/21 13:09:17","新北市新店區安華路28-1號","121.519575","24.96081","6500600","新店區"
"231005","106-UY","2018/12/21 13:09:26","新北市新店區安華路28-1號","121.519575","24.9607916666667","6500600","新店區"
"231010","107-UY","2018/12/21 13:09:34","新北市新店區安華路28-1號","121.519415","24.9609983333333","6500600","新店區"
"231022","108-UY","2018/12/21 13:09:29","新北市新店區安華路28-1號","121.519548333333","24.961005","6500600","新店區"
"231032","110-UY","2018/12/21 13:09:22","新北市新店區安華路28-1號","121.519686666667","24.9605416666667","6500600","新店區"
"231012","187-VK","2018/12/21 13:09:25","新北市新店區安一路一段1-1號","121.519563333333","24.9612416666667","6500600","新店區"
"231023","KEA-2219","2018/12/21 13:09:29","新北市新店區安華路3號","121.519411666667","24.9597916666667","6500600","新店區"
"231026","256-BX","2018/12/21 13:09:21","新北市新店區安一路一段1-1號","121.519608333333","24.9611783333333","6500600","新店區"
"231036","260-TV","2018/12/21 13:09:24","新北市新店區安一路一段1-1號","121.519308333333","24.9612616666667","6500600","新店區"
"231003","268-BY","2018/12/21 13:09:24","新北市新店區安華路28-1號","121.519465","24.9607","6500600","新店區"
"231018","278-BY","2018/12/21 13:09:22","新北市新店區安一路一段1-1號","121.519655","24.9611033333333","6500600","新店區"
"231016","AAD-862","2018/12/21 13:09:13","新北市新店區安華路28-1號","121.52011","24.9608433333333","6500600","新店區"
"231025","4715-K9","2018/12/21 13:09:23","新北市新店區安康路一段230-3號","121.522255","24.9637916666667","6500600","新店區"
"231006","617-UM","2018/12/21 13:09:32","新北市新店區安華路28-1號","121.519486666667","24.9609133333333","6500600","新店區"
"231030","619-UM","2018/12/21 13:09:32","新北市新店區安華路28-1號","121.519483333333","24.9609416666667","6500600","新店區"
"231034","641-BX","2018/12/21 13:09:18","新北市新店區安華路1-1號","121.519498333333","24.96046","6500600","新店區"
"231013","719-UM","2018/12/21 13:09:29","新北市新店區安一路一段1-1號","121.519486666667","24.9614633333333","6500600","新店區"
"231035","719-UY","2018/12/21 13:09:16","新北市新店區安一路一段1-1號","121.519698333333","24.9611716666667","6500600","新店區"
"231029","897-TW","2018/12/21 13:09:35","新北市新店區安華路28-1號","121.519806666667","24.9607083333333","6500600","新店區"
"231004","899-TW","2018/12/21 13:09:28","新北市新店區安華路28-1號","121.519333333333","24.9609","6500600","新店區"
"231024","AKT-0513","2018/12/21 13:09:29","新北市新店區安華路28-1號","121.519573333333","24.96061","6500600","新店區"
"235030","003-UY","2018/12/21 13:09:30","新北市中和區中和路115號","121.501535","25.0002833333333","6500300","中和區"
"235028","005-UY","2018/12/21 13:09:29","新北市中和區中正路169號","121.497945","24.9936566666667","6500300","中和區"
"235027","006-UY","2018/12/21 13:09:23","新北市中和區員山路36巷16-3號","121.484971666667","24.991365","6500300","中和區"
"235003","097-UM","2018/12/21 13:09:29","新北市中和區中正路521號","121.48835","24.993615","6500300","中和區"
"235022","151-BY","2018/12/21 13:09:20","新北市中和區圓通路367巷58號","121.492226666667","24.9847416666667","6500300","中和區"
"235002","185-VK","2018/12/21 13:09:19","新北市中和區大勇街27巷2號","121.517386666667","24.9938233333333","6500300","中和區"
"235031","255-BX","2018/12/21 13:09:22","新北市中和區新生街171號","121.483658333333","25.0008333333333","6500300","中和區"
"235006","KEA-2878","2018/12/21 13:09:20","新北市中和區景平路159巷56號","121.512795","24.9911233333333","6500300","中和區"
"235014","4979-A6","2018/12/21 13:09:28","新北市中和區中正路637巷52弄3號","121.48533","24.9933933333333","6500300","中和區"
"235009","565-BX","2018/12/21 13:09:27","新北市中和區中正路395號","121.48944","24.9936","6500300","中和區"
"235001","611-BX","2018/12/21 13:09:23","新北市中和區中山路三段63巷5號","121.477406666667","25.00436","6500300","中和區"
"235018","640-BX","2018/12/21 13:09:19","新北市中和區莒光路207號","121.469813333333","24.9956283333333","6500300","中和區"
"235035","783-BX","2018/12/21 13:09:20","新北市中和區中山路二段488-4號","121.48726","25.0049983333333","6500300","中和區"
"235026","800-TS","2018/12/21 13:09:12","新北市中和區錦和路47號","121.488158333333","25.00013","6500300","中和區"
"235021","801-TS","2018/12/21 13:09:24","新北市中和區員山路36巷16-3號","121.484826666667","24.991645","6500300","中和區"
"235005","802-TS","2018/12/21 13:09:26","新北市中和區中正路395號","121.489941666667","24.9935533333333","6500300","中和區"
"235016","805-TS","2018/12/21 13:09:17","新北市中和區中正路545巷1號","121.487348333333","24.993645","6500300","中和區"
"235017","900-TW","2018/12/21 13:09:20","新北市中和區員山路36巷16-2號","121.485031666667","24.9917483333333","6500300","中和區"
"235015","157-BY","2018/12/21 13:09:18","新北市中和區南山路146巷5號","121.503508333333","24.9924083333333","6500300","中和區"
"235001","AAC-213","2018/12/21 13:09:32","新北市中和區景平路149號","121.513751666667","24.99222","6500300","中和區"
"235023","AAC-215","2018/12/21 13:09:20","新北市中和區員山路36巷16-3號","121.484946666667","24.9914733333333","6500300","中和區"
"235029","251-BX","2018/12/21 13:09:27","新北市中和區莊敬路49巷20弄22號","121.50272","25.0058533333333","6500300","中和區"
"207002","749-BX","2018/12/21 13:09:23","新北市萬里區崁腳里內崁路10-1號","121.641616666667","25.1595366666667","6502800","萬里區"
"207001","662-BX","2018/12/21 13:09:17","新北市萬里區萬里里瑪鋉路102號","121.690478333333","25.1786883333333","6502800","萬里區"
"242051","172-VK","2018/12/21 13:09:30","新北市新莊區復興路一段47巷11號","121.446711666667","25.0427266666667","6500500","新莊區"
"221032","280-BY","2018/12/21 13:09:29","新北市汐止區龍安路202巷16號","121.652965","25.063245","6501100","汐止區"
"221033","647-BX","2018/12/21 13:09:22","新北市汐止區秀峰路137巷6號","121.660803333333","25.0624666666667","6501100","汐止區"
"220021","985-R7","2018/12/21 13:09:18","新北市板橋區華東街1-10號","121.448258333333","24.994985","6500100","板橋區"
"235032","KEA-2873","2018/12/21 13:09:13","新北市中和區員山路36巷16-3號","121.484975","24.9912766666667","6500300","中和區"
"235025","KEA-2875","2018/12/21 13:09:33","新北市中和區連城路607號","121.477793333333","24.99303","6500300","中和區"
