"lineid","car","time","location","longitude","latitude","cityid","cityname"
"234044","148-BY","2018/12/21 13:49:21","新北市永和區永利路107號","121.52344","25.0026683333333","6500400","永和區"
"234078","298-R6","2018/12/21 13:49:34","新北市永和區林森路66號","121.523878333333","25.0040616666667","6500400","永和區"
"234036","336-UY","2018/12/21 13:49:29","新北市永和區成功路二段117號","121.526671666667","24.998595","6500400","永和區"
"234062","337-UY","2018/12/21 13:49:31","新北市永和區中正路368巷8號","121.518105","25.0007416666667","6500400","永和區"
"234068","552-UM","2018/12/21 13:49:27","新北市永和區竹林路86號","121.519396666667","25.0126533333333","6500400","永和區"
"234015","745-BX","2018/12/21 13:49:17","新北市永和區文化路108號","121.513493333333","25.0152716666667","6500400","永和區"
"234028","746-BX","2018/12/21 13:49:23","新北市永和區民生路47巷3號","121.523063333333","24.9979066666667","6500400","永和區"
"234052","KEA-2590","2018/12/21 13:49:27","新北市永和區竹林路73號","121.518901666667","25.0133166666667","6500400","永和區"
"234005","839-RS","2018/12/21 13:49:32","新北市永和區永和路一段78號","121.512998333333","25.0062866666667","6500400","永和區"
"234012","KEA-2591","2018/12/21 13:49:21","新北市永和區保安路292號","121.505088333333","25.0119316666667","6500400","永和區"
"234060","AAD-866","2018/12/21 13:49:24","新北市永和區中正路334號","121.51759","24.99991","6500400","永和區"
"234084","748-BX","2018/12/21 13:49:21","新北市永和區福和路268號","121.518053333333","25.00765","6500400","永和區"
"234040","862-TW","2018/12/21 13:49:21","新北市永和區中和路421巷3弄21號","121.508583333333","25.0002433333333","6500400","永和區"
"234048","863-TW","2018/12/21 13:49:29","新北市永和區保安路168號","121.508001666667","25.0144083333333","6500400","永和區"
"234025","9371-KE","2018/12/21 13:49:15","新北市永和區自由街58號","121.513796666667","25.006015","6500400","永和區"
"234010","9373-KE","2018/12/21 13:49:34","新北市永和區保福路二段23巷19號","121.510086666667","25.011185","6500400","永和區"
"248019","225-UY","2018/12/21 13:49:15","新北市五股區凌雲路三段田埔巷3號","121.432795","25.11823","6501500","五股區"
"234022","9380-KE","2018/12/21 13:49:35","新北市永和區中正路662巷27號","121.517743333333","25.00886","6500400","永和區"
"234076","969-R7","2018/12/21 13:49:33","新北市永和區民族街42號","121.518475","24.9987633333333","6500400","永和區"
"234072","AAC-211","2018/12/21 13:49:22","新北市永和區豫溪街215巷15號","121.523818333333","25.0100183333333","6500400","永和區"
"234066","AAC-212","2018/12/21 13:49:30","新北市永和區保平路236巷15弄18號","121.507753333333","25.00689","6500400","永和區"
"234001","AAC-295","2018/12/21 13:49:30","新北市永和區永和路一段107號","121.513785","25.0080333333333","6500400","永和區"
"244004","248-BX","2018/12/21 13:49:23","新北市林口區南勢街72-3號","121.355366666667","25.0776133333333","6501700","林口區"
"231002","002-UM","2018/12/21 13:49:22","新北市新店區環河路550號","121.526908333333","24.98449","6500600","新店區"
"231027","0291-UT","2018/12/21 13:49:18","新北市新店區北宜路一段129號","121.540688333333","24.95333","6500600","新店區"
"231028","046-UY","2018/12/21 13:49:17","新北市新店區安和路二段155號","121.519016666667","24.9742266666667","6500600","新店區"
"231001","047-UY","2018/12/21 13:49:18","新北市新店區三民路139號","121.53426","24.9726183333333","6500600","新店區"
"231005","106-UY","2018/12/21 13:49:26","新北市新店區寶中路121-1號","121.549648333333","24.9794783333333","6500600","新店區"
"231010","107-UY","2018/12/21 13:49:34","新北市新店區平等街66號","121.535643333333","24.9723783333333","6500600","新店區"
"231022","108-UY","2018/12/21 13:49:29","新北市新店區新烏路一段130號","121.544613333333","24.9341583333333","6500600","新店區"
"231032","110-UY","2018/12/21 13:49:28","新北市新店區莒光路44巷21弄11-6號","121.518783333333","24.95244","6500600","新店區"
"231012","187-VK","2018/12/21 13:49:25","新北市新店區德正街23巷7號","121.544343333333","24.9721","6500600","新店區"
"231023","KEA-2219","2018/12/21 13:49:14","新北市新店區國校路44號","121.538261666667","24.9542016666667","6500600","新店區"
"231026","256-BX","2018/12/21 13:49:23","新北市新店區三民路145號","121.53419","24.9727966666667","6500600","新店區"
"231036","260-TV","2018/12/21 13:49:24","新北市新店區安祥路145巷1號","121.47455","24.9555183333333","6500600","新店區"
"231003","268-BY","2018/12/21 13:49:24","新北市新店區中興路一段203號","121.54352","24.9655733333333","6500600","新店區"
"231018","278-BY","2018/12/21 13:49:22","新北市新店區中正路399巷22號","121.533906666667","24.97672","6500600","新店區"
"231016","AAD-862","2018/12/21 13:49:13","新北市新店區北宜路二段295號","121.556098333333","24.9541233333333","6500600","新店區"
"231038","3712-VJ","2018/12/21 13:49:25","新北市新店區安華路30巷1號","121.519578333333","24.9592716666667","6500600","新店區"
"231037","4716-K9","2018/12/21 13:49:32","新北市新店區安康路三段359巷10弄1號","121.484383333333","24.950345","6500600","新店區"
"231025","4715-K9","2018/12/21 13:49:23","新北市新店區中正路347號","121.535428333333","24.9758133333333","6500600","新店區"
"231006","617-UM","2018/12/21 13:49:32","新北市新店區北宜路一段260號","121.5457","24.9527983333333","6500600","新店區"
"231030","619-UM","2018/12/21 13:49:32","新北市新店區安康路一段46巷4號","121.530663333333","24.9611183333333","6500600","新店區"
"231034","641-BX","2018/12/21 13:49:18","新北市新店區達觀路14巷2號","121.503385","24.9418383333333","6500600","新店區"
"231013","719-UM","2018/12/21 13:46:29","新北市新店區二十張路23號","121.538961666667","24.9823516666667","6500600","新店區"
"231035","719-UY","2018/12/21 13:49:17","新北市新店區安忠路38號","121.513035","24.959545","6500600","新店區"
"231029","897-TW","2018/12/21 13:49:35","新北市新店區安康路二段152-1號","121.512335","24.9609783333333","6500600","新店區"
"231004","899-TW","2018/12/21 13:49:28","新北市新店區寶橋路132號","121.547451666667","24.9760683333333","6500600","新店區"
"231024","AKT-0513","2018/12/21 13:49:29","新北市新店區新生街55號","121.538848333333","24.9669366666667","6500600","新店區"
"235030","003-UY","2018/12/21 13:49:30","新北市中和區中山路二段131巷25號","121.503656666667","25.0026483333333","6500300","中和區"
"235028","005-UY","2018/12/21 13:49:29","新北市中和區泰和街38號","121.499245","24.9999783333333","6500300","中和區"
"235027","006-UY","2018/12/21 13:49:23","新北市中和區連城路319巷5弄1號","121.489206666667","24.9953683333333","6500300","中和區"
"235020","096-UM","2018/12/21 13:49:14","新北市中和區中正路1196號","121.480326666667","25.0103483333333","6500300","中和區"
"235003","097-UM","2018/12/21 13:49:29","新北市中和區自強路11號","121.520186666667","24.993495","6500300","中和區"
"235004","150-BY","2018/12/21 13:49:17","新北市中和區宜安路112號","121.510418333333","24.9979083333333","6500300","中和區"
"235022","151-BY","2018/12/21 13:49:20","新北市中和區連城路573號","121.479083333333","24.99445","6500300","中和區"
"235019","183-VK","2018/12/21 13:49:15","新北市中和區民生街85巷1弄1號","121.468988333333","25.0046683333333","6500300","中和區"
"235002","185-VK","2018/12/21 13:49:19","新北市中和區大勇街60巷9號","121.518236666667","24.9948783333333","6500300","中和區"
"235013","186-VK","2018/12/21 13:49:28","新北市中和區景安路175-2號","121.505193333333","24.994225","6500300","中和區"
"235031","255-BX","2018/12/21 13:49:17","新北市中和區連城路340巷14弄2號","121.483321666667","24.9973933333333","6500300","中和區"
"235008","293-VK","2018/12/21 13:49:25","新北市中和區中興街141號","121.49998","24.9912966666667","6500300","中和區"
"235036","301-VK","2018/12/21 13:49:27","新北市中和區中山路二段86號","121.503423333333","25.004375","6500300","中和區"
"235006","KEA-2878","2018/12/21 13:49:20","新北市中和區成功路6號","121.526191666667","24.9939883333333","6500300","中和區"
"247005","KED-0682","2018/12/21 13:49:35","新北市蘆洲區和平路77號","121.469311666667","25.0791383333333","6501400","蘆洲區"
"235014","4979-A6","2018/12/21 13:49:28","新北市中和區忠孝街62巷9弄10號","121.513166666667","24.9839716666667","6500300","中和區"
"235033","4980-A6","2018/12/21 13:49:22","新北市中和區南山路81巷8弄12號","121.502566666667","24.9977566666667","6500300","中和區"
"235034","558-UM","2018/12/21 13:49:30","新北市中和區南山路6號","121.501953333333","24.9986533333333","6500300","中和區"
"235009","565-BX","2018/12/21 13:49:27","新北市中和區信義街46號","121.51126","24.9887383333333","6500300","中和區"
"235018","640-BX","2018/12/21 13:49:25","新北市中和區民享街11號","121.474018333333","25.00561","6500300","中和區"
"235024","647-TV","2018/12/21 13:49:21","新北市中和區中山路三段216號","121.471385","25.006515","6500300","中和區"
"235010","733-UM","2018/12/21 13:49:20","新北市中和區仁愛街36巷43號","121.511295","24.9867133333333","6500300","中和區"
"235035","783-BX","2018/12/21 13:49:20","新北市中和區立德街32號","121.489028333333","25.0071683333333","6500300","中和區"
"235026","800-TS","2018/12/21 13:49:32","新北市中和區中山路二段340巷28號","121.493451666667","25.0034966666667","6500300","中和區"
"235021","801-TS","2018/12/21 13:49:24","新北市中和區民安街4號","121.48078","25.0009733333333","6500300","中和區"
"235005","802-TS","2018/12/21 13:49:26","新北市中和區永貞路249巷8號","121.512546666667","25.00384","6500300","中和區"
"235016","805-TS","2018/12/21 13:49:17","新北市中和區興南路二段399巷35號","121.500356666667","24.9779066666667","6500300","中和區"
"235012","896-TW","2018/12/21 13:49:15","新北市中和區南山路417號","121.507125","24.98957","6500300","中和區"
"235017","900-TW","2018/12/21 13:49:20","新北市中和區民德路290巷22號","121.46693","24.9959433333333","6500300","中和區"
"235015","157-BY","2018/12/21 13:49:18","新北市中和區忠孝街106巷33號","121.51337","24.9844133333333","6500300","中和區"
"235001","AAC-213","2018/12/21 13:49:32","新北市中和區秀朗路三段175巷10號","121.524968333333","24.9914466666667","6500300","中和區"
"235023","AAC-215","2018/12/21 13:49:20","新北市中和區圓通路393巷9號","121.489826666667","24.98865","6500300","中和區"
"220017","015-TV","2018/12/21 13:49:26","新北市板橋區華興街59號","121.457331666667","25.00471","6500100","板橋區"
"220013","072-UY","2018/12/21 13:49:27","新北市板橋區重慶路40號","121.461505","25.007525","6500100","板橋區"
"220034","073-UY","2018/12/21 13:49:27","新北市板橋區大智街36號","121.455148333333","25.015035","6500100","板橋區"
"220105","075-UY","2018/12/21 13:49:34","新北市板橋區莒光路33號","121.47039","25.0245633333333","6500100","板橋區"
"247009","056-VK","2018/12/21 13:49:24","新北市蘆洲區中正路520巷9號","121.462285","25.0995233333333","6501400","蘆洲區"
"247003","002-UY","2018/12/21 13:49:29","新北市蘆洲區長安街108巷23號","121.46186","25.08238","6501400","蘆洲區"
"247021","001-UY","2018/12/21 13:49:21","新北市蘆洲區中正路284-1號","121.465165","25.090025","6501400","蘆洲區"
"235029","251-BX","2018/12/21 13:49:27","新北市中和區莊敬路33巷11號","121.500195","25.0067883333333","6500300","中和區"
"207002","749-BX","2018/12/21 13:49:23","新北市萬里區崁腳里崁腳路166號","121.645063333333","25.155825","6502800","萬里區"
"207001","662-BX","2018/12/21 13:49:17","新北市金山區月眉21-2號","121.637013333333","25.2152783333333","6502800","萬里區"
"236067","105-UM","2018/12/21 13:49:31","新北市土城區城林路6巷80號","121.438641666667","24.9797566666667","6501300","土城區"
"236040","KED-0685","2018/12/21 13:49:20","新北市土城區城林路6巷80號","121.438471666667","24.9798","6501300","土城區"
"236077","166-UM","2018/12/21 13:49:14","新北市土城區中華路二段6號","121.439335","24.9788283333333","6501300","土城區"
"236029","253-BX","2018/12/21 13:49:18","新北市土城區城林路6巷80號","121.438488333333","24.9797883333333","6501300","土城區"
"236013","270-VK","2018/12/21 13:49:21","新北市土城區城林路6巷80號","121.438606666667","24.9798216666667","6501300","土城區"
"236032","271-VK","2018/12/21 13:49:31","新北市土城區城林路6巷80號","121.438496666667","24.9798133333333","6501300","土城區"
"247007","KED-0683","2018/12/21 13:49:32","新北市蘆洲區重陽街42-1號","121.481001666667","25.08249","6501400","蘆洲區"
"236016","401-BY","2018/12/21 13:49:19","新北市土城區城林路6巷80號","121.438503333333","24.9798266666667","6501300","土城區"
"236057","912-UM","2018/12/21 13:49:24","新北市土城區中華路二段134號","121.437541666667","24.9731833333333","6501300","土城區"
"236045","913-UM","2018/12/21 13:49:16","新北市土城區城林路6巷80號","121.43845","24.979805","6501300","土城區"
"236060","915-UM","2018/12/21 13:49:20","新北市土城區城林路6巷80號","121.438413333333","24.979725","6501300","土城區"
"242051","172-VK","2018/12/21 13:49:30","新北市新莊區瓊林南路61-71號","121.439726666667","25.018245","6500500","新莊區"
"221033","647-BX","2018/12/21 13:49:22","新北市新店區薏仁坑路自強巷1號","121.4977","24.9577216666667","6501100","汐止區"
"220027","145-BY","2018/12/21 13:49:21","新北市板橋區大智街71巷28弄2號","121.453066666667","25.0145983333333","6500100","板橋區"
"220028","200-UY","2018/12/21 13:49:19","新北市板橋區大觀路二段265巷20弄43號","121.441426666667","24.9979466666667","6500100","板橋區"
"220030","610-BX","2018/12/21 13:49:20","新北市板橋區篤行路三段玉平巷68弄2號","121.427991666667","24.986215","6500100","板橋區"
"220040","267-BY","2018/12/21 13:49:33","新北市板橋區雙十路二段47巷52號","121.474805","25.02543","6500100","板橋區"
"220004","276-BY","2018/12/21 13:49:25","新北市板橋區信義路19號","121.456943333333","24.99664","6500100","板橋區"
"220020","277-BY","2018/12/21 13:49:16","新北市板橋區大觀路三段8-1號","121.434761666667","24.9955233333333","6500100","板橋區"
"220050","280-UM","2018/12/21 13:49:25","新北市板橋區文化路二段182巷5弄1號","121.471555","25.0270216666667","6500100","板橋區"
"220019","283-VK","2018/12/21 13:49:20","新北市板橋區四川路一段40號","121.459565","25.006065","6500100","板橋區"
"220043","285-UM","2018/12/21 13:49:21","新北市板橋區文化路二段76號","121.469413333333","25.025065","6500100","板橋區"
"220001","285-VK","2018/12/21 13:49:23","新北市板橋區永豐街73號","121.473666666667","25.01889","6500100","板橋區"
"220031","286-VK","2018/12/21 13:49:21","新北市板橋區大觀路一段38巷156弄141號","121.443661666667","25.0087633333333","6500100","板橋區"
"220029","287-VK","2018/12/21 13:49:16","新北市板橋區光華街12巷1號","121.454155","25.0116266666667","6500100","板橋區"
"220039","288-VK","2018/12/21 13:49:27","新北市板橋區四維路177巷2弄1號","121.464086666667","25.0263183333333","6500100","板橋區"
"220009","295-UM","2018/12/21 13:49:28","新北市板橋區富山街109巷16號","121.475885","25.0217783333333","6500100","板橋區"
"220032","296-UM","2018/12/21 13:49:34","新北市板橋區大觀路二段156巷54號","121.441285","25.0004633333333","6500100","板橋區"
"220023","303-R5","2018/12/21 13:49:32","新北市板橋區南雅東路114號","121.453403333333","25.0082483333333","6500100","板橋區"
"220010","305-R5","2018/12/21 13:49:24","新北市板橋區中山路二段26號","121.47258","25.01514","6500100","板橋區"
"220041","307-R5","2018/12/21 13:49:09","新北市板橋區漢生東路17號","121.464873333333","25.0173283333333","6500100","板橋區"
"220047","317-R6","2018/12/21 13:49:25","新北市板橋區民生路二段234巷26弄9號","121.47058","25.02223","6500100","板橋區"
"220037","491-VK","2018/12/21 13:49:32","新北市板橋區文化路二段28號","121.469135","25.0250066666667","6500100","板橋區"
"220104","560-BX","2018/12/21 13:49:26","新北市板橋區中正路325巷30-2號","121.452945","25.0187216666667","6500100","板橋區"
"220052","561-BX","2018/12/21 13:49:21","新北市板橋區介壽街84巷58號","121.468548333333","25.0181833333333","6500100","板橋區"
"220011","609-BX","2018/12/21 13:49:31","新北市板橋區中山路二段125號","121.475155","25.0164","6500100","板橋區"
"220003","630-UY","2018/12/21 13:49:35","新北市板橋區忠孝路138號","121.463693333333","25.0023466666667","6500100","板橋區"
"220005","686-BX","2018/12/21 13:49:34","新北市板橋區館前東路39號","121.460925","25.00737","6500100","板橋區"
"220025","687-BX","2018/12/21 13:49:33","新北市板橋區金門街53號","121.433281666667","24.993115","6500100","板橋區"
"220042","689-BX","2018/12/21 13:49:33","新北市板橋區民生路三段120-2號","121.466346666667","25.02661","6500100","板橋區"
"220002","741-BX","2018/12/21 13:49:29","新北市板橋區後埔街79號","121.460721666667","25.0054833333333","6500100","板橋區"
"220051","KEA-2699","2018/12/21 13:49:30","新北市板橋區雙十路一段44巷36號","121.477166666667","25.0248316666667","6500100","板橋區"
"220014","829-TW","2018/12/21 13:49:22","新北市板橋區三民路二段正隆巷62號","121.47651","25.0144666666667","6500100","板橋區"
"220016","830-TW","2018/12/21 13:49:24","新北市板橋區大同街35巷28號","121.477428333333","25.02785","6500100","板橋區"
"220038","833-TW","2018/12/21 13:49:23","新北市板橋區文化路二段313號","121.472015","25.0297333333333","6500100","板橋區"
"220022","895-R6","2018/12/21 13:49:32","新北市板橋區府中路65號","121.458198333333","25.0093066666667","6500100","板橋區"
"220021","985-R7","2018/12/21 13:49:32","新北市板橋區府中路41號","121.458721666667","25.0091966666667","6500100","板橋區"
"220046","AAC-210","2018/12/21 13:49:27","新北市板橋區四維路137巷12號","121.464391666667","25.025155","6500100","板橋區"
"220012","AAC-253","2018/12/21 13:49:19","新北市板橋區縣民大道二段106號","121.466906666667","25.0151416666667","6500100","板橋區"
"235032","KEA-2873","2018/12/21 13:49:13","新北市中和區圓通路162巷2弄1號","121.497096666667","24.9953633333333","6500300","中和區"
"235025","KEA-2875","2018/12/21 13:49:33","新北市中和區民享街40-3號","121.47401","25.0027883333333","6500300","中和區"
"235011","KEA-2876","2018/12/21 13:49:04","新北市中和區興南路二段34巷30弄1號","121.50481","24.9862633333333","6500300","中和區"
