"lineid","car","time","location","longitude","latitude","cityid","cityname"
"234044","148-BY","2018/12/21 14:09:21","新北市永和區得和路317號","121.523255","24.9996333333333","6500400","永和區"
"234078","298-R6","2018/12/21 14:09:30","新北市永和區永亨路107號","121.523293333333","25.0048066666667","6500400","永和區"
"234036","336-UY","2018/12/21 14:09:29","新北市永和區環河東路三段96號","121.528206666667","25.0042083333333","6500400","永和區"
"234062","337-UY","2018/12/21 14:09:31","新北市永和區永利路156號","121.52257","25.00285","6500400","永和區"
"234068","552-UM","2018/12/21 14:09:27","新北市永和區福和路171號","121.520096666667","25.0073716666667","6500400","永和區"
"234015","745-BX","2018/12/21 14:09:17","新北市永和區仁愛路71號","121.513223333333","25.01321","6500400","永和區"
"234028","746-BX","2018/12/21 14:09:31","新北市永和區民生路22巷30號","121.521076666667","24.99705","6500400","永和區"
"234052","KEA-2590","2018/12/21 14:09:23","新北市永和區博愛街19巷1號","121.517431666667","25.015925","6500400","永和區"
"234005","839-RS","2018/12/21 14:09:32","新北市中和區南工路40號","121.505808333333","25.0011883333333","6500400","永和區"
"234012","KEA-2591","2018/12/21 14:09:21","新北市永和區中山路一段214號","121.50836","25.0084083333333","6500400","永和區"
"234060","AAD-866","2018/12/21 14:09:24","新北市中和區安平路222號","121.514013333333","25.0000933333333","6500400","永和區"
"234084","748-BX","2018/12/21 14:09:18","新北市永和區中正路575-1號","121.51676","25.00862","6500400","永和區"
"234040","862-TW","2018/12/21 14:09:25","新北市永和區雙和街43號","121.508845","25.0028433333333","6500400","永和區"
"234048","863-TW","2018/12/21 14:09:29","新北市永和區文化路234號","121.509626666667","25.0171466666667","6500400","永和區"
"234025","9371-KE","2018/12/21 14:09:15","新北市永和區安樂路421號","121.51447","25.0040583333333","6500400","永和區"
"234010","9373-KE","2018/12/21 14:09:34","新北市永和區仁愛路352巷92弄2號","121.50121","25.0079933333333","6500400","永和區"
"248019","225-UY","2018/12/21 14:02:04","新北市五股區凌雲路三段57號","121.425296666667","25.1250483333333","6501500","五股區"
"234022","9380-KE","2018/12/21 14:09:15","新北市永和區博愛街37號","121.518638333333","25.0159066666667","6500400","永和區"
"234076","969-R7","2018/12/21 14:09:33","新北市永和區民族街81巷66號","121.520368333333","24.9962033333333","6500400","永和區"
"234072","AAC-211","2018/12/21 14:09:22","新北市永和區竹林路201巷25號","121.521863333333","25.0093866666667","6500400","永和區"
"234066","AAC-212","2018/12/21 14:09:30","新北市永和區保平路238號","121.509258333333","25.0055083333333","6500400","永和區"
"234001","AAC-295","2018/12/21 14:09:29","新北市永和區中正路579號","121.51672","25.0088666666667","6500400","永和區"
"244004","248-BX","2018/12/21 14:09:23","新北市林口區文化二路二段105號","121.377893333333","25.0806683333333","6501700","林口區"
"231002","002-UM","2018/12/21 14:09:22","新北市新店區中正路487號","121.533778333333","24.9821683333333","6500600","新店區"
"231027","0291-UT","2018/12/21 14:09:18","新北市新店區中興路一段24-2號","121.538525","24.95829","6500600","新店區"
"231028","046-UY","2018/12/21 14:09:17","新北市新店區安和路三段101號","121.517741666667","24.98442","6500600","新店區"
"231001","047-UY","2018/12/21 14:09:18","新北市新店區中華路64號","121.539243333333","24.969","6500600","新店區"
"231005","106-UY","2018/12/21 14:09:26","新北市新店區中興路三段229號","121.542938333333","24.9834333333333","6500600","新店區"
"231022","108-UY","2018/12/21 14:09:29","新北市新店區屈尺路75號","121.545806666667","24.9227566666667","6500600","新店區"
"231032","110-UY","2018/12/21 14:09:28","新北市新店區永業路28號","121.53288","24.9555666666667","6500600","新店區"
"231012","187-VK","2018/12/21 14:09:25","新北市新店區中興路一段222號","121.543973333333","24.9660416666667","6500600","新店區"
"231023","KEA-2219","2018/12/21 14:09:29","新北市新店區文中路45號","121.539596666667","24.9567883333333","6500600","新店區"
"231036","260-TV","2018/12/21 14:09:24","新北市新店區安祥路110巷27號","121.47352","24.956365","6500600","新店區"
"231003","268-BY","2018/12/21 14:09:23","新北市新店區中興路一段41號","121.539271666667","24.9598766666667","6500600","新店區"
"231018","278-BY","2018/12/21 14:09:22","新北市新店區中央五街45號","121.528148333333","24.9752483333333","6500600","新店區"
"231016","AAD-862","2018/12/21 14:09:33","新北市新店區玉山路22號","121.567771666667","24.9553683333333","6500600","新店區"
"231038","3712-VJ","2018/12/21 14:09:25","新北市新店區安華路30巷3號","121.519601666667","24.9592416666667","6500600","新店區"
"231037","4716-K9","2018/12/21 14:09:32","新北市新店區安康路三段165巷4號","121.489576666667","24.9513383333333","6500600","新店區"
"231025","4715-K9","2018/12/21 14:09:23","新北市新店區二十張路129巷1弄2號","121.53607","24.9790633333333","6500600","新店區"
"231006","617-UM","2018/12/21 14:09:32","新北市新店區北宜路二段417號","121.560035","24.9545333333333","6500600","新店區"
"231030","619-UM","2018/12/21 14:09:32","新北市新店區安民街115巷28號","121.515113333333","24.9675616666667","6500600","新店區"
"231034","641-BX","2018/12/21 14:09:19","新北市新店區車子路22-2號","121.504583333333","24.9536516666667","6500600","新店區"
"231013","719-UM","2018/12/21 14:06:08","新北市新店區二十張路1巷3弄3號","121.540636666667","24.9821883333333","6500600","新店區"
"231035","719-UY","2018/12/21 14:09:36","新北市新店區安和路一段49號","121.517493333333","24.9658366666667","6500600","新店區"
"231029","897-TW","2018/12/21 14:09:35","新北市新店區安康路二段161號","121.51017","24.9594166666667","6500600","新店區"
"231004","899-TW","2018/12/21 14:09:28","新北市新店區北新路二段150號","121.542988333333","24.9750283333333","6500600","新店區"
"231024","AKT-0513","2018/12/21 14:09:29","新北市新店區安光路10號","121.513908333333","24.9637466666667","6500600","新店區"
"235030","003-UY","2018/12/21 14:09:30","新北市中和區廣福路60號","121.503611666667","25.0018183333333","6500300","中和區"
"235028","005-UY","2018/12/21 14:09:29","新北市中和區泰和街42號","121.499158333333","24.9998216666667","6500300","中和區"
"235027","006-UY","2018/12/21 14:09:23","新北市中和區連勝街121巷9號","121.495473333333","24.994475","6500300","中和區"
"235020","096-UM","2018/12/21 14:09:34","新北市中和區中山路二段586-2號","121.482186666667","25.0052216666667","6500300","中和區"
"235003","097-UM","2018/12/21 14:09:29","新北市中和區秀峰街119巷4弄1號","121.519778333333","24.99014","6500300","中和區"
"235004","150-BY","2018/12/21 14:09:17","新北市中和區保健路44巷4號","121.509213333333","24.9970116666667","6500300","中和區"
"235022","151-BY","2018/12/21 14:09:20","新北市中和區員山路36巷16-2號","121.4852","24.99171","6500300","中和區"
"235019","183-VK","2018/12/21 14:09:15","新北市中和區德光路81號","121.469296666667","25.00368","6500300","中和區"
"235002","185-VK","2018/12/21 14:09:19","新北市中和區大仁街10巷27弄6號","121.519226666667","24.992785","6500300","中和區"
"235013","186-VK","2018/12/21 14:09:25","新北市中和區南華路46號","121.503975","24.9965333333333","6500300","中和區"
"235031","255-BX","2018/12/21 13:59:28","新北市中和區新生街233巷10號","121.484425","24.998585","6500300","中和區"
"235008","293-VK","2018/12/21 14:09:25","新北市中和區中興街202巷2號","121.499395","24.9899866666667","6500300","中和區"
"235036","301-VK","2018/12/21 14:09:27","新北市中和區景平路739號","121.496335","25.0044483333333","6500300","中和區"
"235006","KEA-2878","2018/12/21 14:09:20","新北市中和區自立路131號","121.521971666667","24.993985","6500300","中和區"
"247011","KEA-2869","2018/12/21 14:09:28","新北市蘆洲區信義路272號","121.478033333333","25.086985","6501400","蘆洲區"
"247005","KED-0682","2018/12/21 14:09:15","新北市蘆洲區永安南路二段16巷15號","121.467875","25.0777483333333","6501400","蘆洲區"
"235014","4979-A6","2018/12/21 14:09:32","新北市中和區復興路280巷20號","121.502081666667","24.9917683333333","6500300","中和區"
"235033","4980-A6","2018/12/21 14:09:22","新北市中和區廣福路63號","121.502376666667","25.001085","6500300","中和區"
"235034","558-UM","2018/12/21 14:09:30","新北市中和區中和路89號","121.501103333333","25.000735","6500300","中和區"
"235009","565-BX","2018/12/21 14:09:27","新北市中和區景新街435號","121.513201666667","24.989","6500300","中和區"
"235018","640-BX","2018/12/21 14:09:19","新北市中和區國光街109巷2弄2號","121.469635","25.000645","6500300","中和區"
"235024","647-TV","2018/12/21 14:09:21","新北市中和區民治街2巷2號","121.474835","25.005705","6500300","中和區"
"235010","733-UM","2018/12/21 14:09:21","新北市中和區忠孝街1巷7號","121.508641666667","24.983535","6500300","中和區"
"235035","783-BX","2018/12/21 14:09:20","新北市中和區立德街98巷89號","121.488641666667","25.0087433333333","6500300","中和區"
"235026","800-TS","2018/12/21 14:09:32","新北市中和區中山路二段380巷18號","121.490825","25.0051216666667","6500300","中和區"
"235021","801-TS","2018/12/21 14:09:24","新北市中和區民利街50號","121.479295","24.9987983333333","6500300","中和區"
"235005","802-TS","2018/12/21 14:09:26","新北市中和區中安街178巷13弄3號","121.51027","24.998655","6500300","中和區"
"235016","805-TS","2018/12/21 14:09:17","新北市中和區興南路二段114巷21弄6號","121.503511666667","24.98433","6500300","中和區"
"235012","896-TW","2018/12/21 14:09:35","新北市中和區工專路145號","121.508693333333","24.9790866666667","6500300","中和區"
"235017","900-TW","2018/12/21 14:09:25","新北市中和區華福街65號","121.466941666667","24.996615","6500300","中和區"
"235015","157-BY","2018/12/21 14:09:18","新北市中和區和平街24巷11號","121.510001666667","24.9906216666667","6500300","中和區"
"235001","AAC-213","2018/12/21 14:09:32","新北市中和區秀朗路三段60巷46號","121.524803333333","24.99486","6500300","中和區"
"235023","AAC-215","2018/12/21 14:09:20","新北市中和區圓通路294-7號","121.488556666667","24.9890433333333","6500300","中和區"
"220017","015-TV","2018/12/21 14:09:26","新北市板橋區華興街31巷7-2號","121.458405","25.0042083333333","6500100","板橋區"
"220013","072-UY","2018/12/21 14:09:27","新北市板橋區民族路219巷62號","121.469008333333","25.0085966666667","6500100","板橋區"
"220034","073-UY","2018/12/21 14:09:27","新北市板橋區中正路216巷95號","121.458755","25.0192516666667","6500100","板橋區"
"220105","075-UY","2018/12/21 14:09:33","新北市板橋區長江路三段24巷1號","121.472435","25.0333033333333","6500100","板橋區"
"247001","893-R6","2018/12/21 14:09:22","新北市蘆洲區永平街35號","121.458386666667","25.0909933333333","6501400","蘆洲區"
"247015","546-UM","2018/12/21 14:09:27","新北市蘆洲區光華路46巷43號","121.467575","25.08438","6501400","蘆洲區"
"247023","500-BY","2018/12/21 14:09:25","新北市蘆洲區光榮路68號","121.463115","25.088695","6501400","蘆洲區"
"247019","057-VK","2018/12/21 14:09:26","新北市蘆洲區仁愛街36巷15號","121.47275","25.093605","6501400","蘆洲區"
"247009","056-VK","2018/12/21 14:09:24","新北市蘆洲區民族路64號","121.477283333333","25.0847416666667","6501400","蘆洲區"
"247013","053-VK","2018/12/21 14:09:16","新北市蘆洲區復興路3號","121.471593333333","25.0852216666667","6501400","蘆洲區"
"247017","007-UY","2018/12/21 14:09:21","新北市蘆洲區民族路201巷26號","121.477631666667","25.08902","6501400","蘆洲區"
"247003","002-UY","2018/12/21 14:09:29","新北市蘆洲區長安街110號","121.460981666667","25.0816416666667","6501400","蘆洲區"
"247021","001-UY","2018/12/21 14:09:21","新北市蘆洲區保和街28號","121.470445","25.0865016666667","6501400","蘆洲區"
"235029","251-BX","2018/12/21 14:09:27","新北市中和區中山路二段2巷3弄1號","121.504921666667","25.0061066666667","6500300","中和區"
"207002","749-BX","2018/12/21 14:08:23","新北市萬里區溪底里瑞泉路21號","121.60461","25.1488566666667","6502800","萬里區"
"207001","662-BX","2018/12/21 14:09:17","新北市萬里區磺潭里清水18號","121.637801666667","25.1978483333333","6502800","萬里區"
"236067","105-UM","2018/12/21 14:09:31","新北市土城區明德路一段140號","121.463476666667","24.978775","6501300","土城區"
"236040","KED-0685","2018/12/21 14:09:20","新北市土城區城林路6巷80號","121.438453333333","24.9798266666667","6501300","土城區"
"236077","166-UM","2018/12/21 14:09:15","新北市土城區永安街6號","121.43429","24.9653483333333","6501300","土城區"
"236029","253-BX","2018/12/21 14:09:18","新北市土城區城林路6巷80號","121.438465","24.979685","6501300","土城區"
"236024","269-VK","2018/12/21 14:09:33","新北市土城區承天路18號","121.439438333333","24.9634583333333","6501300","土城區"
"236013","270-VK","2018/12/21 14:09:21","新北市土城區裕民路174號","121.452518333333","24.9853866666667","6501300","土城區"
"236032","271-VK","2018/12/21 14:09:31","新北市土城區青雲路451巷1號","121.45904","24.9746716666667","6501300","土城區"
"247007","KED-0683","2018/12/21 14:09:32","新北市蘆洲區中山一路339巷10號","121.471411666667","25.0778066666667","6501400","蘆洲區"
"236016","401-BY","2018/12/21 14:09:19","新北市土城區中央路二段276-1號","121.44096","24.97428","6501300","土城區"
"236057","912-UM","2018/12/21 14:09:23","新北市土城區中央路四段196-1號","121.416285","24.9577133333333","6501300","土城區"
"236045","913-UM","2018/12/21 14:09:16","新北市土城區明德路一段365-1號","121.453533333333","24.97907","6501300","土城區"
"236060","915-UM","2018/12/21 14:09:20","新北市土城區金城路二段206號","121.455118333333","24.9820516666667","6501300","土城區"
"236054","AAC-216","2018/12/21 14:09:19","新北市土城區城林路6巷80號","121.438503333333","24.9796933333333","6501300","土城區"
"221033","647-BX","2018/12/21 14:09:22","新北市新店區安華路30巷12-1號","121.517966666667","24.9577283333333","6501100","汐止區"
"220027","145-BY","2018/12/21 14:09:27","新北市板橋區民權路202巷7弄24號","121.459088333333","25.0150616666667","6500100","板橋區"
"220028","200-UY","2018/12/21 14:09:34","新北市板橋區大觀路二段7巷5號","121.447316666667","25.003585","6500100","板橋區"
"220030","610-BX","2018/12/21 14:09:20","新北市板橋區溪崑二街96巷1號","121.426721666667","24.9889666666667","6500100","板橋區"
"220040","267-BY","2018/12/21 14:09:13","新北市板橋區縣民大道三段203號","121.479978333333","25.02492","6500100","板橋區"
"220004","276-BY","2018/12/21 14:09:25","新北市板橋區信義路110巷3號","121.458088333333","24.9921333333333","6500100","板橋區"
"220020","277-BY","2018/12/21 14:09:16","新北市板橋區金門街372巷33號","121.427418333333","24.984955","6500100","板橋區"
"220050","280-UM","2018/12/21 14:09:25","新北市板橋區莊敬路25巷13-1號","121.474416666667","25.0274783333333","6500100","板橋區"
"220019","283-VK","2018/12/21 14:09:18","新北市板橋區和平路239號","121.465318333333","24.9986666666667","6500100","板橋區"
"220043","285-UM","2018/12/21 14:09:21","新北市板橋區吳鳳路19巷20號","121.46674","25.0308033333333","6500100","板橋區"
"220001","285-VK","2018/12/21 14:09:35","新北市板橋區懷仁街26-1號","121.476431666667","25.019625","6500100","板橋區"
"220031","286-VK","2018/12/21 14:09:20","新北市板橋區大觀路二段174巷196弄16號","121.443095","25.0035883333333","6500100","板橋區"
"220029","287-VK","2018/12/21 14:09:16","新北市板橋區南雅西路二段2-1號","121.453163333333","25.008875","6500100","板橋區"
"220039","288-VK","2018/12/21 14:09:30","新北市板橋區長江路一段106巷13弄18號","121.46075","25.02938","6500100","板橋區"
"220009","295-UM","2018/12/21 14:09:18","新北市板橋區中山路二段255巷7號","121.477033333333","25.0179616666667","6500100","板橋區"
"220032","296-UM","2018/12/21 14:09:34","新北市板橋區溪北路73巷5號","121.42834","24.9898866666667","6500100","板橋區"
"220023","303-R5","2018/12/21 14:09:32","新北市板橋區林園街2號","121.454346666667","25.0093366666667","6500100","板橋區"
"220010","305-R5","2018/12/21 14:09:22","新北市板橋區三民路二段居仁巷2號","121.479378333333","25.0131933333333","6500100","板橋區"
"220041","307-R5","2018/12/21 14:09:29","新北市板橋區光武街48巷49號","121.468401666667","25.02716","6500100","板橋區"
"220047","317-R6","2018/12/21 14:09:28","新北市板橋區民有街18號","121.466296666667","25.02497","6500100","板橋區"
"220037","491-VK","2018/12/21 14:09:32","新北市板橋區文化路二段182巷3弄63號","121.472656666667","25.0288966666667","6500100","板橋區"
"220104","560-BX","2018/12/21 14:09:27","新北市板橋區瑞安街31巷7號","121.456021666667","25.0226633333333","6500100","板橋區"
"220052","561-BX","2018/12/21 14:09:21","新北市板橋區文化路一段188巷7號","121.466406666667","25.0194183333333","6500100","板橋區"
"220011","609-BX","2018/12/21 14:09:34","新北市板橋區三民路二段209號","121.479015","25.0129566666667","6500100","板橋區"
"220003","630-UY","2018/12/21 14:09:15","新北市板橋區新民街9號","121.463733333333","25.0098633333333","6500100","板橋區"
"220005","686-BX","2018/12/21 14:09:27","新北市板橋區國慶路201號","121.463286666667","24.9968216666667","6500100","板橋區"
"220025","687-BX","2018/12/21 14:09:31","新北市板橋區龍興街43號","121.44308","25.000645","6500100","板橋區"
"220042","689-BX","2018/12/21 14:09:33","新北市板橋區新海路97號","121.461423333333","25.022355","6500100","板橋區"
"220002","741-BX","2018/12/21 14:09:29","新北市板橋區校前街15號","121.460536666667","25.003215","6500100","板橋區"
"220051","KEA-2699","2018/12/21 14:09:30","新北市板橋區大同街55號","121.478618333333","25.0276616666667","6500100","板橋區"
"220014","829-TW","2018/12/21 14:09:22","新北市板橋區三民路二段正隆巷75號","121.475846666667","25.0130133333333","6500100","板橋區"
"220016","830-TW","2018/12/21 14:09:24","新北市板橋區翠華街6巷12-2號","121.480888333333","25.0239316666667","6500100","板橋區"
"220038","833-TW","2018/12/21 14:09:23","新北市板橋區文化路一段311號","121.466218333333","25.020145","6500100","板橋區"
"220022","895-R6","2018/12/21 14:09:28","新北市板橋區府中路126-8號","121.454513333333","25.009405","6500100","板橋區"
"220021","985-R7","2018/12/21 14:09:18","新北市板橋區民權路258-8號","121.457893333333","25.0152133333333","6500100","板橋區"
"220046","AAC-210","2018/12/21 14:09:27","新北市板橋區幸福路60巷31號","121.460505","25.0209466666667","6500100","板橋區"
"220012","AAC-253","2018/12/21 14:09:19","新北市板橋區漢生東路83巷2號","121.466861666667","25.0157933333333","6500100","板橋區"
"235032","KEA-2873","2018/12/21 14:09:13","新北市中和區景平路493巷12弄21號","121.498681666667","24.9971216666667","6500300","中和區"
"235025","KEA-2875","2018/12/21 14:09:33","新北市中和區員山路396號","121.480591666667","25.004635","6500300","中和區"
"235011","KEA-2876","2018/12/21 14:09:04","新北市中和區興南路二段10-3號","121.507798333333","24.986025","6500300","中和區"
