"lineid","car","time","location","longitude","latitude","cityid","cityname"
"234078","298-R6","2018/12/21 14:29:30","新北市永和區永貞路78號","121.520181666667","25.0051366666667","6500400","永和區"
"234062","337-UY","2018/12/21 14:29:31","新北市永和區中正路403號","121.517175","25.0046333333333","6500400","永和區"
"234068","552-UM","2018/12/21 14:29:27","新北市永和區福和路170號","121.521051666667","25.0078866666667","6500400","永和區"
"234052","KEA-2590","2018/12/21 14:29:19","新北市永和區環河東路一段80號","121.519545","25.0164666666667","6500400","永和區"
"234060","AAD-866","2018/12/21 14:29:24","新北市永和區秀朗路一段175號","121.517036666667","25.003725","6500400","永和區"
"234084","748-BX","2018/12/21 14:29:18","新北市永和區光復街21號","121.516445","25.017445","6500400","永和區"
"234040","862-TW","2018/12/21 14:29:21","新北市永和區自由街20號","121.514393333333","25.00651","6500400","永和區"
"234048","863-TW","2018/12/21 14:29:29","新北市永和區永平路344號","121.50622","25.01341","6500400","永和區"
"234025","9371-KE","2018/12/21 14:29:15","新北市中和區安樂路161-1號","121.51474","24.9973583333333","6500400","永和區"
"248019","225-UY","2018/12/21 14:02:04","新北市五股區凌雲路三段57號","121.425296666667","25.1250483333333","6501500","五股區"
"234072","AAC-211","2018/12/21 14:29:22","新北市永和區環河東路一段124號","121.52066","25.01544","6500400","永和區"
"234001","AAC-295","2018/12/21 14:29:29","新北市永和區大新街50號","121.515916666667","25.0083733333333","6500400","永和區"
"244004","248-BX","2018/12/21 14:29:23","新北市林口區竹林路266號","121.389701666667","25.08083","6501700","林口區"
"231002","002-UM","2018/12/21 14:29:22","新北市新店區中正路349號","121.535345","24.97595","6500600","新店區"
"231027","0291-UT","2018/12/21 14:29:18","新北市新店區北新路二段228巷13號","121.5435","24.9771833333333","6500600","新店區"
"231028","046-UY","2018/12/21 14:29:17","新北市新店區安和路一段7號","121.51676","24.963985","6500600","新店區"
"231001","047-UY","2018/12/21 14:29:18","新北市新店區大新街7巷1號","121.54315","24.9686266666667","6500600","新店區"
"231005","106-UY","2018/12/21 14:29:26","新北市新店區北新路三段220號","121.54106","24.984425","6500600","新店區"
"231022","108-UY","2018/12/21 14:29:29","新北市新店區桂山路35號","121.559825","24.90273","6500600","新店區"
"231032","110-UY","2018/12/21 14:29:28","新北市新店區安樂街21號","121.526586666667","24.9693633333333","6500600","新店區"
"231012","187-VK","2018/12/21 14:29:25","新北市新店區寶興路42巷37號","121.547735","24.9717266666667","6500600","新店區"
"231023","KEA-2219","2018/12/21 14:29:29","新北市新店區中興路一段72號","121.539465","24.9598566666667","6500600","新店區"
"231036","260-TV","2018/12/21 14:29:24","新北市新店區安祥路109巷90弄96號","121.475851666667","24.9577033333333","6500600","新店區"
"231003","268-BY","2018/12/21 14:29:24","新北市新店區中興路一段267號","121.544918333333","24.96767","6500600","新店區"
"231018","278-BY","2018/12/21 14:29:22","新北市新店區中央路216號","121.529905","24.973305","6500600","新店區"
"231016","AAD-862","2018/12/21 14:29:33","新北市新店區北宜路三段262-1號","121.597855","24.95297","6500600","新店區"
"231038","3712-VJ","2018/12/21 14:29:30","新北市新店區溪洲路8巷2-2號","121.533525","24.9613483333333","6500600","新店區"
"231037","4716-K9","2018/12/21 14:29:32","新北市新店區車子路8-1號","121.504381666667","24.9529766666667","6500600","新店區"
"231006","617-UM","2018/12/21 14:29:32","新北市新店區北宜路二段483號","121.562301666667","24.953855","6500600","新店區"
"231030","619-UM","2018/12/21 14:29:32","新北市新店區安民街67-3號","121.516111666667","24.966715","6500600","新店區"
"231034","641-BX","2018/12/21 14:29:18","新北市新店區車子路11號","121.502948333333","24.95181","6500600","新店區"
"231013","719-UM","2018/12/21 14:29:28","新北市新店區民權路88-5號","121.536268333333","24.9835466666667","6500600","新店區"
"231035","719-UY","2018/12/21 14:29:16","新北市新店區吉安街28號","121.516161666667","24.9660716666667","6500600","新店區"
"231029","897-TW","2018/12/21 14:29:35","新北市新店區安康路二段402號","121.496863333333","24.9553533333333","6500600","新店區"
"231004","899-TW","2018/12/21 14:29:28","新北市新店區中正路263-3號","121.53833","24.9738116666667","6500600","新店區"
"235030","003-UY","2018/12/21 14:29:30","新北市中和區景新街59號","121.504555","24.9988783333333","6500300","中和區"
"235028","005-UY","2018/12/21 14:29:29","新北市中和區南山路125號","121.502421666667","24.9972483333333","6500300","中和區"
"235027","006-UY","2018/12/21 14:29:23","新北市中和區連城路174號","121.493253333333","24.9971283333333","6500300","中和區"
"235020","096-UM","2018/12/21 14:29:34","新北市中和區員山路514巷1號","121.479336666667","25.009565","6500300","中和區"
"235003","097-UM","2018/12/21 14:29:29","新北市中和區秀峰街119巷8弄1號","121.51943","24.989065","6500300","中和區"
"235004","150-BY","2018/12/21 14:29:17","新北市中和區安樂路81號","121.51262","24.9944216666667","6500300","中和區"
"235022","151-BY","2018/12/21 14:29:20","新北市中和區員山路142巷5號","121.481726666667","24.99654","6500300","中和區"
"235019","183-VK","2018/12/21 14:29:35","新北市中和區中山路三段181巷18弄11號","121.472698333333","25.00486","6500300","中和區"
"235002","185-VK","2018/12/21 14:29:19","新北市中和區自立路99巷1號","121.522058333333","24.9948666666667","6500300","中和區"
"235013","186-VK","2018/12/21 14:29:28","新北市中和區景平路396-2號","121.509755","24.9932933333333","6500300","中和區"
"235031","255-BX","2018/12/21 14:29:35","新北市中和區新生街186巷5弄7號","121.482885","24.99928","6500300","中和區"
"235008","293-VK","2018/12/21 14:29:25","新北市中和區捷運路177號","121.505826666667","24.9913783333333","6500300","中和區"
"235036","301-VK","2018/12/21 14:29:27","新北市中和區中和路74號","121.500521666667","25.00017","6500300","中和區"
"235006","KEA-2878","2018/12/21 14:29:20","新北市中和區中和路262巷49號","121.510143333333","25.0000283333333","6500300","中和區"
"247011","KEA-2869","2018/12/21 14:29:36","新北市蘆洲區中興街125號","121.482111666667","25.0895516666667","6501400","蘆洲區"
"247005","KED-0682","2018/12/21 14:29:15","新北市蘆洲區長安街76號","121.462445","25.0802766666667","6501400","蘆洲區"
"235014","4979-A6","2018/12/21 14:29:28","新北市中和區員山路36巷13號","121.48443","24.9912033333333","6500300","中和區"
"235033","4980-A6","2018/12/21 14:29:22","新北市中和區連城路134巷11號","121.495211666667","25.00001","6500300","中和區"
"235034","558-UM","2018/12/21 14:29:29","新北市中和區南山路6號","121.502001666667","24.99869","6500300","中和區"
"235009","565-BX","2018/12/21 14:29:27","新北市中和區景新街392-1號","121.51252","24.9897716666667","6500300","中和區"
"235018","640-BX","2018/12/21 14:29:35","新北市中和區莒光路51號","121.472163333333","25.0046","6500300","中和區"
"235024","647-TV","2018/12/21 14:29:21","新北市中和區員山路314巷7弄8號","121.482151666667","25.0032116666667","6500300","中和區"
"235010","733-UM","2018/12/21 14:29:20","新北市中和區忠孝街37巷52號","121.511116666667","24.9849933333333","6500300","中和區"
"235035","783-BX","2018/12/21 14:29:20","新北市中和區建康路5號","121.485603333333","25.0001633333333","6500300","中和區"
"235026","800-TS","2018/12/21 14:29:32","新北市中和區中山路二段411號","121.485898333333","25.0042783333333","6500300","中和區"
"235021","801-TS","2018/12/21 14:29:24","新北市中和區中山路三段37巷25號","121.479358333333","25.0050516666667","6500300","中和區"
"235005","802-TS","2018/12/21 14:29:26","新北市中和區中和路232號","121.506658333333","24.99946","6500300","中和區"
"235016","805-TS","2018/12/21 14:29:17","新北市中和區華新街143巷68號","121.50626","24.97926","6500300","中和區"
"235012","896-TW","2018/12/21 14:29:15","新北市中和區忠孝街60巷7號","121.511643333333","24.983795","6500300","中和區"
"235017","900-TW","2018/12/21 14:29:20","新北市中和區民德路197號","121.46901","24.9982933333333","6500300","中和區"
"235015","157-BY","2018/12/21 14:29:34","新北市中和區中興街178號","121.499681666667","24.9909716666667","6500300","中和區"
"235001","AAC-213","2018/12/21 14:29:32","新北市中和區秀朗路三段10巷14弄16號","121.524965","24.9966283333333","6500300","中和區"
"235023","AAC-215","2018/12/21 14:29:27","新北市中和區圓通路337號","121.491698333333","24.9906016666667","6500300","中和區"
"220017","015-TV","2018/12/21 14:29:29","新北市板橋區南雅南路二段11-24號","121.45386","25.00197","6500100","板橋區"
"220013","072-UY","2018/12/21 14:29:27","新北市板橋區國泰街111巷17號","121.466071666667","25.0059116666667","6500100","板橋區"
"220034","073-UY","2018/12/21 14:29:27","新北市板橋區漢生西路89巷4弄8號","121.461035","25.01891","6500100","板橋區"
"220105","075-UY","2018/12/21 14:29:33","新北市板橋區民治街26巷2號","121.477721666667","25.03398","6500100","板橋區"
"247001","893-R6","2018/12/21 14:29:22","新北市蘆洲區永樂街38巷33弄1號","121.457995","25.08945","6501400","蘆洲區"
"247015","546-UM","2018/12/21 14:29:27","新北市蘆洲區中正路185巷78弄21號","121.465491666667","25.0851266666667","6501400","蘆洲區"
"247023","500-BY","2018/12/21 14:29:25","新北市蘆洲區中正路263巷2號","121.467231666667","25.087645","6501400","蘆洲區"
"247019","057-VK","2018/12/21 14:29:26","新北市蘆洲區水湳街281號","121.46946","25.0929383333333","6501400","蘆洲區"
"247009","056-VK","2018/12/21 14:29:29","新北市蘆洲區鷺江街16-1號","121.478928333333","25.082525","6501400","蘆洲區"
"247013","053-VK","2018/12/21 14:29:36","新北市蘆洲區忠孝路22號","121.470923333333","25.0842783333333","6501400","蘆洲區"
"247017","007-UY","2018/12/21 14:29:35","新北市蘆洲區民族路314巷1號","121.47723","25.0901666666667","6501400","蘆洲區"
"247003","002-UY","2018/12/21 14:29:29","新北市蘆洲區長安街307號","121.457885","25.0852","6501400","蘆洲區"
"235029","251-BX","2018/12/21 14:29:27","新北市中和區中山路二段178巷15號","121.500725","25.0031183333333","6500300","中和區"
"207002","749-BX","2018/12/21 14:27:03","新北市萬里區溪底里福德坑路2號","121.625725","25.1564366666667","6502800","萬里區"
"207001","662-BX","2018/12/21 14:29:17","新北市萬里區磺潭里清水5-1號","121.641038333333","25.2004566666667","6502800","萬里區"
"236067","105-UM","2018/12/21 14:29:31","新北市土城區永豐路255巷27弄45號","121.477098333333","24.9737466666667","6501300","土城區"
"236040","KED-0685","2018/12/21 14:29:31","新北市土城區裕民路67巷14號","121.449801666667","24.9879483333333","6501300","土城區"
"236077","166-UM","2018/12/21 14:29:23","新北市土城區大暖路42號","121.423281666667","24.959455","6501300","土城區"
"236029","253-BX","2018/12/21 14:29:19","新北市土城區水源街18號","121.441183333333","24.9752633333333","6501300","土城區"
"236024","269-VK","2018/12/21 14:29:33","新北市土城區承天路18號","121.439493333333","24.9635083333333","6501300","土城區"
"236013","270-VK","2018/12/21 14:29:21","新北市土城區青雲路39巷7號","121.460345","24.9875916666667","6501300","土城區"
"236032","271-VK","2018/12/21 14:29:31","新北市土城區明德路一段297號","121.459985","24.977265","6501300","土城區"
"247007","KED-0683","2018/12/21 14:29:32","新北市蘆洲區民生街28號","121.474896666667","25.0788533333333","6501400","蘆洲區"
"236016","401-BY","2018/12/21 14:29:19","新北市土城區明德路一段65號","121.465305","24.98432","6501300","土城區"
"236057","912-UM","2018/12/21 14:29:23","新北市土城區中央路四段53-1號","121.417561666667","24.9584583333333","6501300","土城區"
"236045","913-UM","2018/12/21 14:29:16","新北市土城區青雲路388號","121.458765","24.97304","6501300","土城區"
"236060","915-UM","2018/12/21 14:29:20","新北市土城區延壽路109巷20號","121.46838","24.9933916666667","6501300","土城區"
"236054","AAC-216","2018/12/21 14:29:19","新北市土城區中華路二段1號","121.439686666667","24.9791766666667","6501300","土城區"
"221033","647-BX","2018/12/21 14:29:22","新北市汐止區橫科路407巷30弄29號","121.626311666667","25.0472283333333","6501100","汐止區"
"220027","145-BY","2018/12/21 14:29:26","新北市板橋區民權路202巷13弄38號","121.45851","25.016455","6500100","板橋區"
"220028","200-UY","2018/12/21 14:29:34","新北市板橋區大觀路二段37巷226號","121.449405","25.00105","6500100","板橋區"
"220030","610-BX","2018/12/21 14:29:27","新北市板橋區金門街370號","121.42714","24.9838183333333","6500100","板橋區"
"220040","267-BY","2018/12/21 14:29:13","新北市板橋區文聖街149巷23弄16號","121.479243333333","25.0289916666667","6500100","板橋區"
"220004","276-BY","2018/12/21 14:29:25","新北市板橋區信義路85號","121.457361666667","24.9941566666667","6500100","板橋區"
"220020","277-BY","2018/12/21 14:29:36","新北市板橋區金門街235巷1號","121.432508333333","24.98932","6500100","板橋區"
"220050","280-UM","2018/12/21 14:29:25","新北市板橋區莊敬路211號","121.471895","25.0220833333333","6500100","板橋區"
"220019","283-VK","2018/12/21 14:29:18","新北市板橋區忠孝路2號","121.45938","25.00171","6500100","板橋區"
"220043","285-UM","2018/12/21 14:29:21","新北市板橋區銘傳街41-2號","121.469078333333","25.031445","6500100","板橋區"
"220001","285-VK","2018/12/21 14:29:23","新北市板橋區富山街53巷1弄54號","121.477978333333","25.0206033333333","6500100","板橋區"
"220031","286-VK","2018/12/21 14:29:20","新北市板橋區龍興街65巷1號","121.443403333333","25.0014416666667","6500100","板橋區"
"220029","287-VK","2018/12/21 14:29:35","新北市板橋區大觀路一段75巷45號","121.44932","25.0041","6500100","板橋區"
"220039","288-VK","2018/12/21 14:29:27","新北市板橋區長江路一段48巷12號","121.45945","25.02795","6500100","板橋區"
"220009","295-UM","2018/12/21 14:29:18","新北市板橋區漢生東路117號","121.467201666667","25.0148816666667","6500100","板橋區"
"220032","296-UM","2018/12/21 14:29:34","新北市板橋區滿平街84巷100弄5號","121.42627","24.9864466666667","6500100","板橋區"
"220023","303-R5","2018/12/21 14:29:32","新北市板橋區中正路275巷93號","121.450843333333","25.0181316666667","6500100","板橋區"
"220010","305-R5","2018/12/21 14:29:33","新北市板橋區三民路二段109巷24號","121.480538333333","25.015835","6500100","板橋區"
"220041","307-R5","2018/12/21 14:29:29","新北市板橋區文化路一段383號","121.467213333333","25.0217783333333","6500100","板橋區"
"220047","317-R6","2018/12/21 14:29:27","新北市板橋區四維路266巷2弄20號","121.463908333333","25.028205","6500100","板橋區"
"220037","491-VK","2018/12/21 14:29:32","新北市板橋區文化路二段331號","121.47266","25.03034","6500100","板橋區"
"220104","560-BX","2018/12/21 14:29:26","新北市板橋區中正路360巷25號","121.455475","25.023705","6500100","板橋區"
"220052","561-BX","2018/12/21 14:29:31","新北市板橋區陽明街29巷10號","121.464841666667","25.02198","6500100","板橋區"
"220011","609-BX","2018/12/21 14:29:31","新北市板橋區三民路一段1巷28號","121.480163333333","25.0244366666667","6500100","板橋區"
"220003","630-UY","2018/12/21 14:29:33","新北市板橋區重慶路290巷22弄16號","121.46223","24.9995766666667","6500100","板橋區"
"220005","686-BX","2018/12/21 14:29:34","新北市板橋區國慶路49巷1號","121.45951","24.9956866666667","6500100","板橋區"
"220025","687-BX","2018/12/21 14:29:31","新北市板橋區大觀路一段28巷42號","121.44992","25.0098666666667","6500100","板橋區"
"220042","689-BX","2018/12/21 14:29:34","新北市板橋區民生路三段319號","121.462695","25.0310316666667","6500100","板橋區"
"220002","741-BX","2018/12/21 14:29:29","新北市板橋區忠孝路239巷39號","121.467233333333","25.0035883333333","6500100","板橋區"
"220051","KEA-2699","2018/12/21 14:29:30","新北市板橋區雙十路二段70巷35號","121.476196666667","25.028895","6500100","板橋區"
"220014","829-TW","2018/12/21 14:29:26","新北市板橋區長安街138巷1弄35號","121.473783333333","25.0101166666667","6500100","板橋區"
"220016","830-TW","2018/12/21 14:29:24","新北市板橋區中山路二段505巷2號","121.482641666667","25.0214366666667","6500100","板橋區"
"220038","833-TW","2018/12/21 14:29:23","新北市板橋區龍泉街135號","121.457666666667","25.0238766666667","6500100","板橋區"
"220022","895-R6","2018/12/21 14:29:28","新北市板橋區文化路一段24號","121.459021666667","25.0114216666667","6500100","板橋區"
"220021","985-R7","2018/12/21 14:29:32","新北市板橋區中正路360巷59號","121.456611666667","25.022945","6500100","板橋區"
"220046","AAC-210","2018/12/21 14:29:31","新北市板橋區漢生西路58巷10號","121.463571666667","25.0189666666667","6500100","板橋區"
"220012","AAC-253","2018/12/21 14:29:23","新北市板橋區民權路4號","121.463191666667","25.009565","6500100","板橋區"
"235032","KEA-2873","2018/12/21 14:29:13","新北市中和區福美路303號","121.497188333333","25.004745","6500300","中和區"
"235025","KEA-2875","2018/12/21 14:29:33","新北市中和區民利街31巷2弄10號","121.47972","24.9986566666667","6500300","中和區"
"235011","KEA-2876","2018/12/21 14:29:34","新北市中和區景平路241巷42號","121.508423333333","24.9924033333333","6500300","中和區"
