"lineid","car","time","location","longitude","latitude","cityid","cityname"
"234086","553-UM","2018/12/21 16:30:58","新北市永和區福和路1號","121.526353333333","25.009755","6500400","永和區"
"249004","303-UY","2018/12/21 16:49:35","新北市八里區博物館路202巷48號","121.407068333333","25.1612366666667","6502300","八里區"
"249003","593-UM","2018/12/21 16:49:25","新北市八里區中山路二段283號","121.401576666667","25.1487033333333","6502300","八里區"
"231046","107-UY","2018/12/21 16:49:31","新北市新店區永業路81巷12號","121.533461666667","24.9475666666667","6500600","新店區"
"241011","013-R5","2018/12/21 16:49:20","新北市三重區仁愛街53巷157號","121.499953333333","25.0727766666667","6500200","三重區"
"241028","022-UY","2018/12/21 16:49:30","新北市三重區光興街97號","121.497225","25.059885","6500200","三重區"
"241008","059-VK","2018/12/21 16:49:27","新北市三重區永福街179巷42號","121.477403333333","25.0747566666667","6500200","三重區"
"241022","060-VK","2018/12/21 16:49:39","新北市三重區貴陽街47巷4號","121.484976666667","25.0627633333333","6500200","三重區"
"241015","062-VK","2018/12/21 16:49:17","新北市三重區長元西街1號","121.498753333333","25.0657316666667","6500200","三重區"
"241017","063-VK","2018/12/21 16:49:26","新北市三重區大同北路56-3號","121.494116666667","25.063745","6500200","三重區"
"241024","065-VK","2018/12/21 16:49:33","新北市三重區中正北路317巷23號","121.475605","25.07296","6500200","三重區"
"241002","090-VK","2018/12/21 16:49:29","新北市三重區仁義街143巷48號","121.49816","25.0811133333333","6500200","三重區"
"241003","091-VK","2018/12/21 16:49:34","新北市三重區五華街141巷57號","121.493501666667","25.0864283333333","6500200","三重區"
"241005","262-UM","2018/12/21 16:49:26","新北市三重區仁安街51號","121.484316666667","25.08398","6500200","三重區"
"241016","266-UM","2018/12/21 16:49:30","新北市三重區大同北路135巷36號","121.49363","25.0648733333333","6500200","三重區"
"241009","267-UM","2018/12/21 16:49:23","新北市三重區三和路四段203巷259號","121.487553333333","25.0809966666667","6500200","三重區"
"241018","268-UM","2018/12/21 16:49:19","新北市三重區正義北路302巷38號","121.494215","25.069355","6500200","三重區"
"241032","269-UM","2018/12/21 16:49:35","新北市三重區重陽路一段120巷37號","121.485008333333","25.0603233333333","6500200","三重區"
"241013","270-UM","2018/12/21 16:49:29","新北市三重區仁愛街87號","121.496053333333","25.0734366666667","6500200","三重區"
"241025","271-UM","2018/12/21 16:49:36","新北市三重區中正北路361號","121.472626666667","25.0718383333333","6500200","三重區"
"241007","398-BY","2018/12/21 16:49:36","新北市三重區仁美街88號","121.48593","25.07989","6500200","三重區"
"241031","462-BY","2018/12/21 16:49:29","新北市三重區過圳街42-1號","121.488333333333","25.0597483333333","6500200","三重區"
"241004","475-VK","2018/12/21 16:49:36","新北市三重區仁愛街397巷9號","121.49176","25.0812466666667","6500200","三重區"
"241020","478-VK","2018/12/21 16:49:33","新北市三重區忠孝路二段34號","121.485758333333","25.0710333333333","6500200","三重區"
"241030","480-VK","2018/12/21 16:49:28","新北市三重區中正南路271號","121.492633333333","25.0526316666667","6500200","三重區"
"241014","543-UM","2018/12/21 16:49:29","新北市三重區長壽街120巷11號","121.502448333333","25.069145","6500200","三重區"
"241023","545-UM","2018/12/21 16:49:33","新北市三重區新北大道一段206巷38號","121.482535","25.062515","6500200","三重區"
"241001","547-UM","2018/12/21 16:49:32","新北市三重區仁愛街192巷15號","121.49361","25.0768883333333","6500200","三重區"
"241019","KEA-2593","2018/12/21 16:49:36","新北市三重區自強路二段84巷16號","121.487385","25.070175","6500200","三重區"
"241006","AAD-863","2018/12/21 16:49:24","新北市三重區車路頭街115號","121.48435","25.075325","6500200","三重區"
"241026","743-BX","2018/12/21 16:49:27","新北市三重區中央南路29號","121.501228333333","25.0621933333333","6500200","三重區"
"241012","941-UM","2018/12/21 16:49:24","新北市三重區仁壽街269號","121.501676666667","25.0750466666667","6500200","三重區"
"241029","942-UM","2018/12/21 16:49:23","新北市三重區新興路55號","121.491288333333","25.053875","6500200","三重區"
"247006","KED-0682","2018/12/21 16:49:28","新北市蘆洲區永安南路二段132-1號","121.462555","25.078575","6501400","蘆洲區"
"235062","800-TS","2018/12/21 16:36:19","新北市中和區員山路36巷16-3號","121.484911666667","24.9916433333333","6500300","中和區"
"247020","057-VK","2018/12/21 16:49:32","新北市蘆洲區民族路422巷8號","121.474158333333","25.092115","6501400","蘆洲區"
"247004","002-UY","2018/12/21 16:49:29","新北市蘆洲區長榮路106號","121.461795","25.0840166666667","6501400","蘆洲區"
"247022","001-UY","2018/12/21 16:49:33","新北市五股區凌雲路一段21號","121.455136666667","25.0977483333333","6501400","蘆洲區"
"228003","097-TW","2018/12/21 16:49:35","新北市貢寮區貢寮里朝陽街1-2號","121.91237","25.0213133333333","6502600","貢寮區"
"228002","663-BX","2018/12/21 16:49:26","新北市貢寮區貢寮里長泰路24-2號","121.904011666667","25.0238166666667","6502600","貢寮區"
"224006","676-BX","2018/12/21 16:49:17","新北市瑞芳區大寮路356-1號","121.784755","25.1031516666667","6501200","瑞芳區"
"224008","285-BY","2018/12/21 16:49:20","新北市瑞芳區中山路266號","121.799185","25.1079","6501200","瑞芳區"
"224007","275-VK","2018/12/21 16:49:33","新北市瑞芳區中央路48巷54號","121.760841666667","25.103445","6501200","瑞芳區"
"224009","273-VK","2018/12/21 16:49:27","新北市瑞芳區明燈路一段21號","121.823028333333","25.1073533333333","6501200","瑞芳區"
"224005","271-BY","2018/12/21 16:49:34","新北市瑞芳區洞頂路155-1號","121.86164","25.12152","6501200","瑞芳區"
"227003","642-TC","2018/12/21 16:49:22","新北市雙溪區外柑里外柑腳71號","121.807165","25.017595","6502500","雙溪區"
"227011","400-TW","2018/12/21 16:49:33","新北市雙溪區牡丹里石1號","121.864773333333","25.0526966666667","6502500","雙溪區"
"251008","KEA-2871","2018/12/21 16:49:20","新北市淡水區樹梅坑36號","121.474556666667","25.143945","6501000","淡水區"
"251012","441-VK","2018/12/21 16:49:21","新北市淡水區中正路二段31號","121.419683333333","25.1815566666667","6501000","淡水區"
"251006","561-UM","2018/12/21 16:49:30","新北市淡水區中正路二段31號","121.419348333333","25.181685","6501000","淡水區"
"251007","577-R6","2018/12/21 16:49:24","新北市淡水區中正路一段156巷1號","121.420873333333","25.1799416666667","6501000","淡水區"
"251011","650-BX","2018/12/21 16:49:20","新北市淡水區中正路二段31號","121.419383333333","25.18167","6501000","淡水區"
"252002","178-VK","2018/12/21 16:49:21","新北市三芝區忠孝街37號","121.506126666667","25.2557466666667","6502100","三芝區"
"252001","292-VK","2018/12/21 16:49:24","新北市三芝區淡金路二段89號","121.503956666667","25.2607733333333","6502100","三芝區"
"247008","KED-0683","2018/12/21 16:49:31","新北市蘆洲區永安南路二段2號","121.467703333333","25.076645","6501400","蘆洲區"
"242048","497-BY","2018/12/21 16:49:35","新北市新莊區新泰路357巷3弄57號","121.441961666667","25.0396183333333","6500500","新莊區"
"242023","362-BY","2018/12/21 16:49:27","新北市新莊區新泰路357巷3弄57號","121.442016666667","25.039035","6500500","新莊區"
"242007","176-VK","2018/12/21 16:49:25","新北市新莊區三和路12-21號","121.44191","25.0386766666667","6500500","新莊區"
"242017","KED-0687","2018/12/21 16:49:19","新北市新莊區三和路12-21號","121.442366666667","25.0380616666667","6500500","新莊區"
"242054","346-TH","2018/12/21 16:49:22","新北市新莊區三和路12-21號","121.441895","25.0382466666667","6500500","新莊區"
"239007","AAC-297","2018/12/21 16:49:26","新北市鶯歌區二甲路13-16號","121.344956666667","24.9351333333333","6500800","鶯歌區"
"242056","280-VK","2018/12/21 16:49:39","新北市新莊區三和路12-21號","121.441965","25.0382683333333","6500500","新莊區"
