"lineid","car","time","location","longitude","latitude","cityid","cityname"
"234086","553-UM","2018/12/21 18:09:42","新北市永和區福和路1號","121.526333333333","25.00976","6500400","永和區"
"234026","9371-KE","2018/12/21 18:09:30","新北市永和區永和路一段72巷4號","121.513426666667","25.0061333333333","6500400","永和區"
"249005","172-UM","2018/12/21 18:09:33","新北市八里區荖阡坑路15-40號","121.401621666667","25.1399366666667","6502300","八里區"
"249001","173-UM","2018/12/21 18:09:34","新北市八里區龍米路二段30號","121.448698333333","25.1399883333333","6502300","八里區"
"249004","303-UY","2018/12/21 18:09:35","新北市八里區龍米路二段166號","121.43485","25.1581033333333","6502300","八里區"
"249002","305-UY","2018/12/21 18:09:22","新北市八里區龍米路一段356巷46號","121.45217","25.13014","6502300","八里區"
"249003","593-UM","2018/12/21 18:09:25","新北市八里區中華路二段288號","121.404438333333","25.1488216666667","6502300","八里區"
"248014","025-BX","2018/12/21 18:09:32","新北市五股區成泰路一段171巷13號","121.434388333333","25.0744916666667","6501500","五股區"
"248016","026-BX","2018/12/21 18:09:29","新北市五股區成泰路三段221巷14號","121.445775","25.09342","6501500","五股區"
"248006","077-UY","2018/12/21 18:09:29","新北市五股區中興路二段61號","121.461406666667","25.0769","6501500","五股區"
"248008","095-VK","2018/12/21 18:09:38","新北市五股區更洲路32巷15弄9號","121.458386666667","25.0803983333333","6501500","五股區"
"248018","225-UY","2018/12/21 18:09:31","新北市五股區成泰路三段101-1號","121.444136666667","25.090365","6501500","五股區"
"248010","272-BY","2018/12/21 18:09:36","新北市五股區成泰路一段219-19號","121.434485","25.077755","6501500","五股區"
"248004","677-BX","2018/12/21 18:09:37","新北市五股區中興路四段49號","121.438236666667","25.0828733333333","6501500","五股區"
"232011","375-UM","2018/12/21 18:09:40","新北市坪林區坪雙路一段31號","121.711696666667","24.9424116666667","6502000","坪林區"
"244007","080-UY","2018/12/21 18:09:23","新北市林口區林口路124巷10弄7號","121.38921","25.081555","6501700","林口區"
"244019","402-UM","2018/12/21 18:09:26","新北市林口區忠孝路569巷16號","121.373905","25.0688483333333","6501700","林口區"
"244013","KEA-2802","2018/12/21 18:09:27","新北市林口區中山路160巷7號","121.391083333333","25.0793883333333","6501700","林口區"
"244023","483-VK","2018/12/21 18:09:41","新北市林口區東湖路105巷60號","121.384535","25.0714916666667","6501700","林口區"
"244017","485-VK","2018/12/21 18:09:35","新北市林口區八德路36號","121.367538333333","25.0665383333333","6501700","林口區"
"244009","656-BX","2018/12/21 18:09:32","新北市林口區民生路166號","121.379818333333","25.0876616666667","6501700","林口區"
"244011","701-TV","2018/12/21 18:09:35","新北市林口區中正路85號","121.39465","25.0773116666667","6501700","林口區"
"244025","837-TS","2018/12/21 18:09:26","新北市林口區南勢二街132號","121.358556666667","25.0727666666667","6501700","林口區"
"244021","838-TS","2018/12/21 18:09:28","新北市林口區自強五街25號","121.400335","25.0757066666667","6501700","林口區"
"243013","AAD-798","2018/12/21 18:09:25","新北市泰山區南林路99巷1-1號","121.415481666667","25.051125","6501600","泰山區"
"222003","436-BY","2018/12/21 18:09:25","新北市深坑區阿柔洋47號","121.6122","24.99787","6501800","深坑區"
"222002","659-BX","2018/12/21 18:09:04","新北市深坑區文化街52號","121.618976666667","25.00165","6501800","深坑區"
"231041","002-UM","2018/12/21 18:09:38","新北市新店區安華路28-1號","121.519608333333","24.9606","6500600","新店區"
"231059","046-UY","2018/12/21 18:09:39","新北市新店區安華路28-1號","121.519525","24.9607516666667","6500600","新店區"
"231040","047-UY","2018/12/21 18:09:27","新北市新店區安一路一段1-1號","121.519238333333","24.9610066666667","6500600","新店區"
"231044","106-UY","2018/12/21 18:09:21","新北市新店區安華路28-1號","121.519571666667","24.96079","6500600","新店區"
"231046","107-UY","2018/12/21 18:09:31","新北市新店區直潭七街60號","121.532265","24.93989","6500600","新店區"
"231062","110-UY","2018/12/21 18:09:37","新北市新店區安一路一段1-1號","121.51995","24.9612016666667","6500600","新店區"
"231048","187-VK","2018/12/21 18:09:35","新北市新店區安一路一段1-1號","121.519543333333","24.9610466666667","6500600","新店區"
"231054","KEA-2219","2018/12/21 18:09:23","新北市新店區安一路一段1-1號","121.519908333333","24.9611716666667","6500600","新店區"
"221035","KEA-2785","2018/12/21 18:09:31","新北市汐止區汐萬路一段4號","121.65619","25.067265","6501100","汐止區"
"231057","256-BX","2018/12/21 18:09:24","新北市新店區安一路一段1-1號","121.519721666667","24.9610766666667","6500600","新店區"
"231042","268-BY","2018/12/21 18:09:26","新北市新店區安一路一段1-1號","121.519718333333","24.9611533333333","6500600","新店區"
"231050","AAD-862","2018/12/21 18:09:35","新北市新店區安華路28-1號","121.519688333333","24.9610083333333","6500600","新店區"
"231058","3713-VJ","2018/12/21 18:09:20","新北市新店區安華路28-1號","121.519318333333","24.960685","6500600","新店區"
"231056","4715-K9","2018/12/21 18:09:24","新北市新店區安康路一段94-3號","121.527573333333","24.9621983333333","6500600","新店區"
"231063","641-BX","2018/12/21 18:09:33","新北市新店區安華路1-1號","121.51956","24.96032","6500600","新店區"
"231049","719-UM","2018/12/21 18:09:32","新北市新店區安一路一段1-1號","121.519611666667","24.9612033333333","6500600","新店區"
"231060","897-TW","2018/12/21 18:09:32","新北市新店區安華路1-1號","121.519378333333","24.960485","6500600","新店區"
"231043","899-TW","2018/12/21 18:09:41","新北市新店區安華路28-1號","121.519073333333","24.9609516666667","6500600","新店區"
"231055","AKT-0513","2018/12/21 18:09:31","新北市新店區安華路1-1號","121.519253333333","24.9604083333333","6500600","新店區"
"241024","065-VK","2018/12/21 18:09:33","新北市三重區中正北路193巷35弄20號","121.476685","25.070955","6500200","三重區"
"241033","557-UM","2018/12/21 18:04:54","新北市三重區光復路一段68巷19號","121.470411666667","25.0498116666667","6500200","三重區"
"235066","003-UY","2018/12/21 18:09:23","新北市中和區圓通路88號","121.4998","24.9969433333333","6500300","中和區"
"235064","005-UY","2018/12/21 18:09:31","新北市中和區中正路139號","121.49933","24.9935266666667","6500300","中和區"
"235063","006-UY","2018/12/21 18:09:26","新北市中和區員山路36巷16-3號","121.485085","24.99132","6500300","中和區"
"235039","097-UM","2018/12/21 18:09:26","新北市中和區中正路637巷52弄1號","121.485503333333","24.9934133333333","6500300","中和區"
"235058","151-BY","2018/12/21 18:09:28","新北市中和區圓通路367巷58號","121.492178333333","24.9847983333333","6500300","中和區"
"235038","185-VK","2018/12/21 18:09:31","新北市中和區景平路103號","121.517155","24.9919483333333","6500300","中和區"
"235067","255-BX","2018/12/21 18:09:38","新北市中和區和城路一段271巷1號","121.485786666667","24.9917016666667","6500300","中和區"
"235042","KEA-2878","2018/12/21 18:09:27","新北市中和區景平路280號","121.513681666667","24.9925166666667","6500300","中和區"
"247012","KEA-2869","2018/12/21 18:09:23","新北市蘆洲區中山一路160號","121.474758333333","25.0814016666667","6501400","蘆洲區"
"235050","4979-A6","2018/12/21 18:09:32","新北市中和區錦和路350-1號","121.490315","24.9935716666667","6500300","中和區"
"235070","558-UM","2018/12/21 18:09:36","新北市中和區中正路305號","121.492385","24.9939216666667","6500300","中和區"
"235045","565-BX","2018/12/21 18:09:23","新北市中和區中正路271-1號","121.495775","24.9936266666667","6500300","中和區"
"235054","640-BX","2018/12/21 18:09:28","新北市土城區延壽路118-4號","121.46909","24.9942916666667","6500300","中和區"
"235062","800-TS","2018/12/21 18:09:33","新北市中和區中山路二段385號","121.486918333333","25.0048616666667","6500300","中和區"
"235048","896-TW","2018/12/21 18:09:36","新北市中和區員山路36巷13號","121.484223333333","24.99065","6500300","中和區"
"235053","900-TW","2018/12/21 18:09:29","新北市中和區員山路36巷16-3號","121.484873333333","24.9917833333333","6500300","中和區"
"235051","157-BY","2018/12/21 18:09:22","新北市中和區復興路269號","121.502656666667","24.9903133333333","6500300","中和區"
"235037","AAC-213","2018/12/21 18:09:28","新北市中和區景平路149號","121.513835","24.992045","6500300","中和區"
"235059","AAC-215","2018/12/21 18:09:36","新北市中和區員山路36巷16-3號","121.484896666667","24.9914216666667","6500300","中和區"
"247010","056-VK","2018/12/21 18:09:25","新北市五股區中興路三段3-6號","121.450368333333","25.0794883333333","6501400","蘆洲區"
"226004","205-ST","2018/12/21 18:09:35","新北市平溪區白石里白石腳5號","121.721506666667","25.0214833333333","6502400","平溪區"
"235065","251-BX","2018/12/21 18:09:33","新北市中和區莊敬路49巷18號","121.501606666667","25.00616","6500300","中和區"
"228003","097-TW","2018/12/21 18:09:35","新北市貢寮區真理里美艷山街6-2號","121.928848333333","25.060735","6502600","貢寮區"
"228002","663-BX","2018/12/21 18:09:26","新北市貢寮區福連里福連街34號","121.98839","25.0114116666667","6502600","貢寮區"
"228001","670-TC","2018/12/21 18:09:38","新北市貢寮區真理里新港街26巷55弄2-1號","121.927398333333","25.0528333333333","6502600","貢寮區"
"224006","676-BX","2018/12/21 18:09:37","新北市瑞芳區中山路67號","121.804103333333","25.1061483333333","6501200","瑞芳區"
"224008","285-BY","2018/12/21 18:09:39","新北市瑞芳區國中新村19號","121.817411666667","25.1071616666667","6501200","瑞芳區"
"224007","275-VK","2018/12/21 18:09:20","新北市瑞芳區四腳亭坑路3-1號","121.777175","25.1094583333333","6501200","瑞芳區"
"224009","273-VK","2018/12/21 18:09:27","新北市瑞芳區金光路115號","121.853646666667","25.1062833333333","6501200","瑞芳區"
"224005","271-BY","2018/12/21 18:09:41","新北市瑞芳區建基路二段12-1號","121.815281666667","25.12859","6501200","瑞芳區"
"253006","032-BX","2018/12/21 18:09:40","新北市石門區老梅路52巷21號","121.546365","25.2883233333333","6502200","石門區"
"253005","295-VK","2018/12/21 18:09:28","新北市石門區福安街19號","121.568631666667","25.29254","6502200","石門區"
"222001","KEA-2212","2018/12/21 18:09:39","新北市深坑區北深路二段155-7號","121.613753333333","25.00206","6501800","深坑區"
"208002","KEA-2872","2018/12/21 18:09:33","新北市金山區三界壇路99巷1號","121.622428333333","25.2291366666667","6502700","金山區"
"208003","665-BX","2018/12/21 18:09:37","新北市金山區民生路2號","121.649918333333","25.22512","6502700","金山區"
"208001","761-BX","2018/12/21 18:09:27","新北市金山區磺港里磺港路63號","121.647238333333","25.226925","6502700","金山區"
"251004","009-UM","2018/12/21 18:09:36","新北市淡水區民族路102號","121.462455","25.135375","6501000","淡水區"
"251008","KEA-2871","2018/12/21 18:09:19","新北市淡水區坪頂路70巷41號","121.46069","25.16041","6501000","淡水區"
"251010","413-VK","2018/12/21 18:09:23","新北市淡水區中正路二段50巷10號","121.419921666667","25.1833433333333","6501000","淡水區"
"251012","441-VK","2018/12/21 18:09:28","新北市淡水區北新路三段162號","121.492285","25.1918033333333","6501000","淡水區"
"251005","443-VK","2018/12/21 18:08:36","新北市淡水區水源街一段154號","121.448426666667","25.1714666666667","6501000","淡水區"
"251001","559-UM","2018/12/21 18:09:29","新北市淡水區自立路8-2號","121.462893333333","25.1295983333333","6501000","淡水區"
"251006","561-UM","2018/12/21 18:09:32","新北市淡水區新民街79號","121.438085","25.17673","6501000","淡水區"
"251009","575-R6","2018/12/21 18:09:28","新北市淡水區大忠街34巷17號","121.444003333333","25.17574","6501000","淡水區"
"251011","650-BX","2018/12/21 18:09:20","新北市淡水區三空泉9-2號","121.474111666667","25.163495","6501000","淡水區"
"251002","672-BX","2018/12/21 18:09:39","新北市淡水區中正東路一段38號","121.452613333333","25.1622783333333","6501000","淡水區"
"251003","673-BX","2018/12/21 18:09:38","新北市淡水區大忠街113巷22號","121.447368333333","25.1775183333333","6501000","淡水區"
"207003","550-UM","2018/12/21 18:09:37","新北市萬里區野柳里港西路74號","121.685718333333","25.2050566666667","6502800","萬里區"
"207004","225-TW","2018/12/21 18:09:38","新北市萬里區中幅里中福路106號","121.676855","25.1693066666667","6502800","萬里區"
"252002","178-VK","2018/12/21 18:09:21","新北市三芝區中山路二段43號","121.502968333333","25.25505","6502100","三芝區"
"252003","249-BX","2018/12/21 18:09:38","新北市三芝區埔坪里埔頭坑107號","121.504551666667","25.261615","6502100","三芝區"
"252001","292-VK","2018/12/21 18:09:24","新北市三芝區中興街二段2號","121.498448333333","25.2566983333333","6502100","三芝區"
"237004","KEA-2597","2018/12/21 18:09:18","新北市三峽區圳頭40號","121.376221666667","24.8855883333333","6500900","三峽區"
"237007","153-BY","2018/12/21 18:09:35","新北市三峽區中正路二段375號","121.365358333333","24.9085933333333","6500900","三峽區"
"237009","210-TH","2018/12/21 18:09:23","新北市三峽區大仁路52號","121.365366666667","24.9374883333333","6500900","三峽區"
"237013","252-BX","2018/12/21 18:09:34","新北市三峽區長泰街70-2號","121.376741666667","24.9335","6500900","三峽區"
"237012","275-BY","2018/12/21 18:09:27","新北市三峽區民生街1巷3-2號","121.37766","24.9364866666667","6500900","三峽區"
"237014","433-BY","2018/12/21 18:09:22","新北市三峽區和平街60號","121.37033","24.9378983333333","6500900","三峽區"
"237006","5529-G3","2018/12/21 18:09:35","新北市三峽區溪東路178巷13弄12號","121.406226666667","24.9321616666667","6500900","三峽區"
"237011","KEA-2596","2018/12/21 18:09:20","新北市三峽區大同路9號","121.377513333333","24.9289333333333","6500900","三峽區"
"237015","649-BX","2018/12/21 18:09:29","新北市三峽區紫新路36巷2號","121.422221666667","24.9220883333333","6500900","三峽區"
"237010","706-TV","2018/12/21 18:09:26","新北市三峽區民族街154號","121.3691","24.9283633333333","6500900","三峽區"
"237005","AKY-6261","2018/12/21 18:09:27","新北市三峽區和平街24-4號","121.370271666667","24.9364216666667","6500900","三峽區"
"236069","105-UM","2018/12/21 18:09:33","新北市土城區明德路一段130號","121.463678333333","24.9791366666667","6501300","土城區"
"236042","KED-0685","2018/12/21 18:09:27","新北市土城區城林路6巷80號","121.438503333333","24.9797433333333","6501300","土城區"
"236079","166-UM","2018/12/21 18:09:21","新北市土城區永安街86巷1號","121.43126","24.963805","6501300","土城區"
"236030","253-BX","2018/12/21 18:09:33","新北市土城區城林路6巷80號","121.438543333333","24.97964","6501300","土城區"
"236026","269-VK","2018/12/21 18:09:19","新北市土城區承天路18號","121.43933","24.96376","6501300","土城區"
"236014","270-VK","2018/12/21 18:09:34","新北市土城區學府路一段200號","121.45279","24.9857583333333","6501300","土城區"
"236039","271-VK","2018/12/21 18:09:22","新北市土城區青雲路449號","121.458788333333","24.9748716666667","6501300","土城區"
"236020","401-BY","2018/12/21 18:09:40","新北市土城區城林路6巷80號","121.438776666667","24.97967","6501300","土城區"
"236059","912-UM","2018/12/21 18:09:26","新北市土城區中央路四段208號","121.415736666667","24.957335","6501300","土城區"
"236048","913-UM","2018/12/21 18:09:22","新北市土城區金城路二段26號","121.450031666667","24.9778566666667","6501300","土城區"
"236063","915-UM","2018/12/21 18:09:40","新北市土城區金城路二段200號","121.454776666667","24.9817116666667","6501300","土城區"
"236055","AAC-216","2018/12/21 18:09:37","新北市土城區中華路二段80號","121.43864","24.9755833333333","6501300","土城區"
"242037","AAC-296","2018/12/21 18:09:30","新北市新莊區後港一路65巷11弄11號","121.425806666667","25.0271283333333","6500500","新莊區"
"242058","986-R7","2018/12/21 18:09:27","新北市新莊區新北大道七段162-1號","121.415588333333","25.0313516666667","6500500","新莊區"
"242027","615-BX","2018/12/21 18:09:32","新北市新莊區幸福路577號","121.45393","25.0492316666667","6500500","新莊區"
"242025","613-BX","2018/12/21 18:09:30","新北市新莊區五權一路112號","121.45986","25.0679833333333","6500500","新莊區"
"242029","612-BX","2018/12/21 18:09:25","新北市新莊區幸福路860號","121.443775","25.04905","6500500","新莊區"
"242044","566-BX","2018/12/21 18:09:38","新北市新莊區中正路730號","121.414901666667","25.0237583333333","6500500","新莊區"
"242048","497-BY","2018/12/21 18:09:34","新北市新莊區富國路156號","121.42327","25.024935","6500500","新莊區"
"242021","442-UM","2018/12/21 18:09:25","新北市新莊區新興街64號","121.450756666667","25.037695","6500500","新莊區"
"242002","440-UM","2018/12/21 18:09:27","新北市新莊區新莊路58號","121.457806666667","25.0367916666667","6500500","新莊區"
"242039","415-TV","2018/12/21 18:09:20","新北市新莊區民安西路38巷2號","121.42716","25.020945","6500500","新莊區"
"242009","413-TV","2018/12/21 18:09:26","新北市新莊區中華路二段254號","121.45257","25.05303","6500500","新莊區"
"242046","400-BY","2018/12/21 18:09:29","新北市新莊區福營路227巷29號","121.430216666667","25.0291133333333","6500500","新莊區"
"242023","362-BY","2018/12/21 18:09:26","新北市新莊區幸福路910號","121.442805","25.0490033333333","6500500","新莊區"
"242060","353-BY","2018/12/21 18:09:19","新北市新莊區新樹路327號","121.433216666667","25.0189016666667","6500500","新莊區"
"242011","132-UY","2018/12/21 18:09:25","新北市新莊區中信街94巷12號","121.448463333333","25.053625","6500500","新莊區"
"242034","135-UY","2018/12/21 18:09:38","新北市新莊區景德路297號","121.447453333333","25.0335866666667","6500500","新莊區"
"242050","172-VK","2018/12/21 18:09:22","新北市新莊區民本街23巷19號","121.429131666667","25.0198183333333","6500500","新莊區"
"242019","175-VK","2018/12/21 18:09:31","新北市新莊區中港路132巷13號","121.455841666667","25.0408716666667","6500500","新莊區"
"242007","176-VK","2018/12/21 18:09:25","新北市新莊區自治街35號","121.45411","25.0479483333333","6500500","新莊區"
"242054","346-TH","2018/12/21 18:09:22","新北市新莊區民安西路366號","121.427556666667","25.011005","6500500","新莊區"
"242032","348-TH","2018/12/21 18:09:39","新北市新莊區新泰路277巷43弄3號","121.444121666667","25.0400933333333","6500500","新莊區"
"242005","349-TH","2018/12/21 18:09:40","新北市新莊區自立街76號","121.454366666667","25.0453633333333","6500500","新莊區"
"242015","351-TH","2018/12/21 18:09:35","新北市新莊區中平路152巷16號","121.446108333333","25.04729","6500500","新莊區"
"238015","755-BX","2018/12/21 18:09:36","新北市樹林區文德街1巷2號","121.419256666667","24.9914133333333","6500700","樹林區"
"238023","601-UM","2018/12/21 18:09:25","新北市樹林區三福街85巷11號","121.407293333333","25.0154","6500700","樹林區"
"238019","599-UM","2018/12/21 18:09:30","新北市樹林區太平路180號","121.4184","24.976625","6500700","樹林區"
"238018","571-TV","2018/12/21 18:09:26","新北市板橋區溪崑二街56巷23號","121.427305","24.9913083333333","6500700","樹林區"
"238022","KEA-2213","2018/12/21 18:09:25","新北市樹林區太平路174巷20號","121.41775","24.976675","6500700","樹林區"
"238021","KEA-2539","2018/12/21 18:09:39","新北市樹林區柑園街二段18號","121.38777","24.9557683333333","6500700","樹林區"
"238025","303-VK","2018/12/21 18:09:28","新北市樹林區保安街一段322號","121.418376666667","24.9975916666667","6500700","樹林區"
"238017","283-BY","2018/12/21 18:09:42","新北市樹林區中正路684號","121.409476666667","25.0171916666667","6500700","樹林區"
"238014","282-BY","2018/12/21 18:09:29","新北市樹林區潭興街91巷1弄1號","121.424428333333","24.9986583333333","6500700","樹林區"
"238020","268-VK","2018/12/21 18:09:38","新北市樹林區俊興街286號","121.418661666667","25.0169983333333","6500700","樹林區"
"238026","172-UY","2018/12/21 18:09:19","新北市樹林區佳園路一段13號","121.392813333333","24.9714883333333","6500700","樹林區"
"238016","169-UY","2018/12/21 18:09:39","新北市樹林區復興路295巷20弄5號","121.419281666667","24.9884733333333","6500700","樹林區"
"239007","AAC-297","2018/12/21 18:09:26","新北市鶯歌區重慶街84號","121.348823333333","24.9519583333333","6500800","鶯歌區"
"239006","891-R6","2018/12/21 18:09:25","新北市鶯歌區鶯桃路451-1號","121.332095","24.9656116666667","6500800","鶯歌區"
"239008","527-UM","2018/12/21 18:09:33","新北市鶯歌區國際一路179號","121.336231666667","24.976545","6500800","鶯歌區"
"239005","526-UM","2018/12/21 18:09:42","新北市鶯歌區鶯桃路668巷69弄12號","121.329858333333","24.9721783333333","6500800","鶯歌區"
"239001","417-VK","2018/12/21 18:09:31","新北市鶯歌區中正三路5巷4號","121.340061666667","24.94275","6500800","鶯歌區"
"239003","360-BY","2018/12/21 18:09:37","新北市鶯歌區福安街32巷48號","121.335526666667","24.963335","6500800","鶯歌區"
"239002","359-BY","2018/12/21 18:09:36","新北市鶯歌區中山路162號","121.349271666667","24.957035","6500800","鶯歌區"
"239004","193-VK","2018/12/21 18:09:32","新北市鶯歌區中正二路161號","121.344863333333","24.9492883333333","6500800","鶯歌區"
"221008","489-VK","2018/12/21 18:09:25","新北市汐止區康寧街301號","121.62703","25.067565","6501100","汐止區"
"221036","130-UY","2018/12/21 18:09:28","新北市汐止區長安路42-1號","121.668393333333","25.0783016666667","6501100","汐止區"
"221015","131-UY","2018/12/21 18:09:00","新北市汐止區鄉長路二段168號","121.663246666667","25.0852533333333","6501100","汐止區"
"221010","269-BY","2018/12/21 18:09:29","新北市汐止區祥雲街2號","121.645718333333","25.0896066666667","6501100","汐止區"
"221012","278-VK","2018/12/21 18:09:39","新北市汐止區保一街51號","121.674473333333","25.08006","6501100","汐止區"
"221023","279-VK","2018/12/21 18:09:30","新北市汐止區民族五街76號","121.62772","25.0701916666667","6501100","汐止區"
"221032","280-BY","2018/12/21 18:09:23","新北市汐止區力行街14號","121.617073333333","25.0508966666667","6501100","汐止區"
"221027","281-BY","2018/12/21 18:09:20","新北市汐止區大同路二段585號","121.663785","25.070315","6501100","汐止區"
"221029","298-VK","2018/12/21 18:09:38","新北市汐止區樟樹二路134號","121.639961666667","25.0656633333333","6501100","汐止區"
"221021","299-VK","2018/12/21 18:09:26","新北市汐止區龍安路24號","121.65541","25.06401","6501100","汐止區"
"221031","353-TW","2018/12/21 18:09:21","新北市汐止區中興路152-3號","121.632476666667","25.0647616666667","6501100","汐止區"
"221025","623-UM","2018/12/21 18:09:41","新北市汐止區勤進路1號","121.660611666667","25.061925","6501100","汐止區"
"221038","646-BX","2018/12/21 18:09:27","新北市汐止區勤進路8號","121.659828333333","25.0616733333333","6501100","汐止區"
"221033","647-BX","2018/12/21 18:09:35","新北市汐止區宜興街40巷22弄2號","121.622525","25.04115","6501100","汐止區"
"221002","707-TV","2018/12/21 18:09:31","新北市汐止區福德一路205號","121.635218333333","25.0655683333333","6501100","汐止區"
"221018","753-BX","2018/12/21 18:09:27","新北市汐止區茄苳路49號","121.666115","25.0709566666667","6501100","汐止區"
"242041","281-VK","2018/12/21 18:09:38","新北市新莊區天祥街29號","121.417293333333","25.0283966666667","6500500","新莊區"
"242056","280-VK","2018/12/21 18:09:39","新北市新莊區豐年街豐1巷37號","121.447805","25.0312933333333","6500500","新莊區"
"235068","KEA-2873","2018/12/21 18:09:34","新北市中和區員山路36巷16-3號","121.485191666667","24.9911933333333","6500300","中和區"
"235061","KEA-2875","2018/12/21 18:09:25","新北市中和區連城路508號","121.47704","24.9920816666667","6500300","中和區"
