"lineid","car","time","location","longitude","latitude","cityid","cityname"
"234046","148-BY","2018/12/21 19:09:41","新北市永和區秀朗路二段126巷30號","121.524591666667","25.00075","6500400","永和區"
"234081","298-R6","2018/12/21 19:09:39","新北市永和區永貞路41號","121.521125","25.006415","6500400","永和區"
"234038","336-UY","2018/12/21 19:09:34","新北市永和區民樂街69巷1號","121.527451666667","24.99777","6500400","永和區"
"234064","337-UY","2018/12/21 19:09:38","新北市永和區秀朗路二段3號","121.520673333333","25.0029583333333","6500400","永和區"
"234070","552-UM","2018/12/21 19:09:36","新北市永和區豫溪街137巷1弄6號","121.519453333333","25.0104833333333","6500400","永和區"
"234086","553-UM","2018/12/21 19:09:30","新北市永和區永貞路120號","121.518661666667","25.004495","6500400","永和區"
"234017","745-BX","2018/12/21 19:09:37","新北市永和區文化路90巷17號","121.51366","25.0161183333333","6500400","永和區"
"234030","746-BX","2018/12/21 19:09:28","新北市永和區民生路23號","121.522881666667","24.9987983333333","6500400","永和區"
"234054","KEA-2590","2018/12/21 19:09:37","新北市永和區竹林路78號","121.519246666667","25.0129016666667","6500400","永和區"
"234007","839-RS","2018/12/21 19:09:32","新北市永和區中山路一段177號","121.50941","25.0089883333333","6500400","永和區"
"234013","KEA-2591","2018/12/21 19:09:42","新北市永和區保福路二段20號","121.510956666667","25.0114666666667","6500400","永和區"
"234061","AAD-866","2018/12/21 19:09:25","新北市永和區安樂路306號","121.514415","25.0054516666667","6500400","永和區"
"234042","862-TW","2018/12/21 19:09:27","新北市永和區保平路210號","121.509965","25.0060533333333","6500400","永和區"
"234050","863-TW","2018/12/21 19:09:36","新北市永和區文化路135巷22弄1號","121.51048","25.014725","6500400","永和區"
"234026","9371-KE","2018/12/21 19:09:30","新北市永和區安樂路274號","121.514645","25.0042033333333","6500400","永和區"
"234011","9373-KE","2018/12/21 19:09:33","新北市永和區中山路一段58號","121.512983333333","25.01081","6500400","永和區"
"249005","172-UM","2018/12/21 19:09:33","新北市八里區中華路三段35號","121.396318333333","25.142835","6502300","八里區"
"249001","173-UM","2018/12/21 19:09:34","新北市八里區龍米路二段228-2號","121.432576666667","25.1584433333333","6502300","八里區"
"249003","593-UM","2018/12/21 19:09:38","新北市八里區博物館路15號","121.415308333333","25.163635","6502300","八里區"
"248016","026-BX","2018/12/21 19:09:29","新北市五股區成泰路三段543巷30號","121.45065","25.102625","6501500","五股區"
"248008","095-VK","2018/12/21 19:09:38","新北市五股區中興路二段9巷1-1號","121.463326666667","25.0735283333333","6501500","五股區"
"248018","225-UY","2018/12/21 19:09:31","新北市五股區民義路一段222號","121.429353333333","25.0904933333333","6501500","五股區"
"248012","247-BX","2018/12/21 19:09:22","新北市五股區中興路四段48巷11號","121.43847","25.083435","6501500","五股區"
"248010","272-BY","2018/12/21 19:09:36","新北市五股區水碓一路23號","121.430635","25.0712783333333","6501500","五股區"
"248004","677-BX","2018/12/21 19:09:23","新北市五股區五福路7號","121.434136666667","25.0877333333333","6501500","五股區"
"248002","678-BX","2018/12/21 19:09:11","新北市五股區凌雲路一段158巷14-1號","121.447813333333","25.1034866666667","6501500","五股區"
"234023","9380-KE","2018/12/21 19:09:26","新北市永和區中興街10巷15號","121.515755","25.011215","6500400","永和區"
"234077","969-R7","2018/12/21 19:09:27","新北市永和區民族街29號","121.518743333333","24.9996","6500400","永和區"
"234074","AAC-211","2018/12/21 19:09:24","新北市永和區福和路41-1號","121.523421666667","25.0079966666667","6500400","永和區"
"234067","AAC-212","2018/12/21 19:09:34","新北市永和區保平路18巷8號","121.512315","25.0077866666667","6500400","永和區"
"234003","AAC-295","2018/12/21 19:09:42","新北市永和區保福路一段49號","121.512455","25.0092883333333","6500400","永和區"
"244019","402-UM","2018/12/21 19:09:39","新北市林口區文化一路二段2號","121.3803","25.0767883333333","6501700","林口區"
"244013","KEA-2802","2018/12/21 19:09:27","新北市林口區麗園一街4巷2號","121.37622","25.07084","6501700","林口區"
"244023","483-VK","2018/12/21 19:09:21","新北市林口區民權路12巷5號","121.37163","25.079865","6501700","林口區"
"244017","485-VK","2018/12/21 19:09:35","新北市林口區文化二路一段120巷5號","121.367876666667","25.0699683333333","6501700","林口區"
"244011","701-TV","2018/12/21 19:09:35","新北市林口區竹林路51號","121.387385","25.0780833333333","6501700","林口區"
"244025","837-TS","2018/12/21 19:09:26","新北市林口區文化北路一段526巷43號","121.368598333333","25.0778266666667","6501700","林口區"
"243013","AAD-798","2018/12/21 19:09:27","新北市泰山區台麗街6巷11號","121.42407","25.0377333333333","6501600","泰山區"
"243009","297-R6","2018/12/21 19:09:33","新北市泰山區明志路一段117巷6號","121.433768333333","25.0634016666667","6501600","泰山區"
"243016","KEA-2801","2018/12/21 19:09:30","新北市泰山區明志路二段398號","121.4251","25.0442066666667","6501600","泰山區"
"243015","421-VK","2018/12/21 19:09:36","新北市泰山區明志路二段6號","121.429983333333","25.0538616666667","6501600","泰山區"
"243011","KEA-2215","2018/12/21 19:09:31","新北市泰山區明志路二段318號","121.426271666667","25.045955","6501600","泰山區"
"243010","KEA-2216","2018/12/21 19:09:27","新北市泰山區明志路一段483巷1弄8號","121.431206666667","25.055565","6501600","泰山區"
"243012","646-TV","2018/12/21 19:09:21","新北市泰山區辭修路36巷8弄1號","121.42782","25.0585766666667","6501600","泰山區"
"243014","680-BX","2018/12/21 19:09:24","新北市泰山區泰林路二段444號","121.426361666667","25.064235","6501600","泰山區"
"222003","436-BY","2018/12/21 19:09:30","新北市深坑區深南路170號","121.625861666667","25.0151316666667","6501800","深坑區"
"222002","659-BX","2018/12/21 19:09:24","新北市深坑區北深路一段280號","121.628726666667","25.00821","6501800","深坑區"
"231041","002-UM","2018/12/21 19:09:38","新北市新店區溪園路389-12號","121.523423333333","24.979005","6500600","新店區"
"231059","046-UY","2018/12/21 19:09:39","新北市新店區安康路一段351-1號","121.519388333333","24.96405","6500600","新店區"
"231040","047-UY","2018/12/21 19:09:27","新北市新店區三民路155-1號","121.533866666667","24.97341","6500600","新店區"
"231044","106-UY","2018/12/21 19:09:21","新北市新店區中興路三段182號","121.544125","24.98133","6500600","新店區"
"231046","107-UY","2018/12/21 19:09:31","新北市新店區華潭街1巷92號","121.529585","24.9507133333333","6500600","新店區"
"231053","108-UY","2018/12/21 19:09:22","新北市新店區自強路157-1號","121.546046666667","24.921695","6500600","新店區"
"231062","110-UY","2018/12/21 19:09:37","新北市新店區安平路35巷2-1號","121.521273333333","24.9678","6500600","新店區"
"231048","187-VK","2018/12/21 19:09:35","新北市新店區德正街27巷29弄76號","121.54579","24.9732116666667","6500600","新店區"
"231054","KEA-2219","2018/12/21 19:09:23","新北市新店區新店路112號","121.537115","24.954645","6500600","新店區"
"221035","KEA-2785","2018/12/21 19:09:31","新北市汐止區汐萬路一段256巷3號","121.653058333333","25.0744033333333","6501100","汐止區"
"231065","260-TV","2018/12/21 19:09:23","新北市新店區安祥路145巷28號","121.475475","24.95656","6500600","新店區"
"231042","268-BY","2018/12/21 19:09:25","新北市新店區中興路一段203號","121.54361","24.96562","6500600","新店區"
"231051","278-BY","2018/12/21 19:09:24","新北市新店區中正路398號","121.534765","24.9775333333333","6500600","新店區"
"231050","AAD-862","2018/12/21 19:09:35","新北市新店區竹林路26巷18號","121.551691666667","24.9505566666667","6500600","新店區"
"231058","3713-VJ","2018/12/21 19:09:40","新北市新店區光明街94號","121.538841666667","24.960375","6500600","新店區"
"231066","4716-K9","2018/12/21 19:09:42","新北市新店區安康路二段416號","121.496461666667","24.9551733333333","6500600","新店區"
"231056","4715-K9","2018/12/21 19:09:23","新北市新店區中央路2號","121.533875","24.9788116666667","6500600","新店區"
"231067","4772-VM","2018/12/21 19:09:37","新北市新店區安康路一段263巷40號","121.523955","24.961545","6500600","新店區"
"231045","617-UM","2018/12/21 19:09:23","新北市新店區北宜路一段164號","121.54041","24.9533983333333","6500600","新店區"
"231061","619-UM","2018/12/21 19:09:38","新北市新店區安康路一段355-10號","121.520836666667","24.963815","6500600","新店區"
"231063","641-BX","2018/12/21 19:09:41","新北市新店區車子路110號","121.505271666667","24.9520683333333","6500600","新店區"
"231049","719-UM","2018/12/21 19:07:52","新北市新店區二十張路21號","121.539211666667","24.9822033333333","6500600","新店區"
"231064","719-UY","2018/12/21 19:09:30","新北市新店區安忠路56巷2號","121.512823333333","24.95932","6500600","新店區"
"231060","897-TW","2018/12/21 19:09:32","新北市新店區安康路二段303號","121.502201666667","24.9573883333333","6500600","新店區"
"231043","899-TW","2018/12/21 19:09:41","新北市新店區寶橋路56號","121.546008333333","24.97538","6500600","新店區"
"241022","060-VK","2018/12/21 19:09:38","新北市三重區三民街153-1號","121.484223333333","25.06452","6500200","三重區"
"241035","KEA-2210","2018/12/21 19:09:28","新北市三重區信義西街138號","121.49545","25.0643466666667","6500200","三重區"
"241026","743-BX","2018/12/21 19:09:29","新北市三重區泉州街72號","121.49477","25.0548466666667","6500200","三重區"
"235066","003-UY","2018/12/21 19:09:23","新北市中和區廣福路30號","121.50477","25.0023733333333","6500300","中和區"
"235064","005-UY","2018/12/21 19:09:31","新北市中和區泰和街6號","121.499793333333","25.001325","6500300","中和區"
"235063","006-UY","2018/12/21 19:09:26","新北市中和區連城路247號","121.49344","24.99708","6500300","中和區"
"235056","096-UM","2018/12/21 19:09:41","新北市中和區員山路506-4號","121.480318333333","25.0091833333333","6500300","中和區"
"235039","097-UM","2018/12/21 19:09:26","新北市中和區秀朗路三段179號","121.524423333333","24.9906583333333","6500300","中和區"
"235058","151-BY","2018/12/21 19:09:28","新北市中和區員山路92巷15號","121.481643333333","24.9944816666667","6500300","中和區"
"235055","183-VK","2018/12/21 19:09:22","新北市中和區德光路64號","121.469591666667","25.0038566666667","6500300","中和區"
"235038","185-VK","2018/12/21 19:09:31","新北市中和區大仁街10巷27弄4號","121.519188333333","24.992685","6500300","中和區"
"235049","186-VK","2018/12/21 19:09:36","新北市中和區南華路46號","121.503958333333","24.9966133333333","6500300","中和區"
"235067","255-BX","2018/12/21 19:09:38","新北市中和區新生街178號","121.48366","24.99992","6500300","中和區"
"235044","293-VK","2018/12/21 19:09:22","新北市中和區中興街222-5號","121.500638333333","24.989585","6500300","中和區"
"235072","301-VK","2018/12/21 19:09:30","新北市中和區景平路668號","121.497303333333","25.0010616666667","6500300","中和區"
"235042","KEA-2878","2018/12/21 19:09:27","新北市中和區自強路3號","121.519993333333","24.9938383333333","6500300","中和區"
"247012","KEA-2869","2018/12/21 19:06:31","新北市五股區中興路三段163號","121.449183333333","25.0807283333333","6501400","蘆洲區"
"235050","4979-A6","2018/12/21 19:09:32","新北市中和區復興路249巷11弄3號","121.50353","24.98977","6500300","中和區"
"235069","4980-A6","2018/12/21 19:09:31","新北市中和區中和路165巷3-1號","121.502718333333","25.0001883333333","6500300","中和區"
"235070","558-UM","2018/12/21 19:09:35","新北市中和區中和路16號","121.499755","25.0020466666667","6500300","中和區"
"235045","565-BX","2018/12/21 19:09:43","新北市中和區景新街437巷8號","121.513771666667","24.9891416666667","6500300","中和區"
"235054","640-BX","2018/12/21 19:09:28","新北市中和區國光街109巷2弄6號","121.469481666667","25.0006266666667","6500300","中和區"
"235060","647-TV","2018/12/21 19:09:25","新北市中和區中山路三段47號","121.476965","25.00572","6500300","中和區"
"235046","733-UM","2018/12/21 19:09:28","新北市中和區忠孝街1巷72號","121.508286666667","24.984735","6500300","中和區"
"235071","783-BX","2018/12/21 19:09:39","新北市中和區員山路36巷16-3號","121.485058333333","24.9913716666667","6500300","中和區"
"235057","801-TS","2018/12/21 19:09:28","新北市中和區民利街56號","121.479173333333","24.99865","6500300","中和區"
"235041","802-TS","2018/12/21 19:09:42","新北市中和區景安路10號","121.507651666667","24.99905","6500300","中和區"
"235052","805-TS","2018/12/21 19:09:23","新北市中和區興南路二段142巷19弄15號","121.502655","24.983425","6500300","中和區"
"235048","896-TW","2018/12/21 19:09:35","新北市中和區忠孝街4號","121.510046666667","24.9827366666667","6500300","中和區"
"235053","900-TW","2018/12/21 19:09:29","新北市中和區華福街71巷2號","121.46727","24.9968533333333","6500300","中和區"
"235051","157-BY","2018/12/21 19:09:22","新北市中和區和平街20號","121.509941666667","24.9902783333333","6500300","中和區"
"235037","AAC-213","2018/12/21 19:09:28","新北市中和區秀朗路三段56號","121.52626","24.9951483333333","6500300","中和區"
"235059","AAC-215","2018/12/21 19:09:36","新北市中和區圓通路294巷17-5號","121.4886","24.9904216666667","6500300","中和區"
"220069","015-TV","2018/12/21 19:09:29","新北市板橋區貴興路35號","121.457593333333","25.0039133333333","6500100","板橋區"
"220065","072-UY","2018/12/21 19:09:33","新北市板橋區民族路229號","121.469696666667","25.0072816666667","6500100","板橋區"
"220086","073-UY","2018/12/21 19:09:25","新北市板橋區中正路216巷115號","121.459466666667","25.0193433333333","6500100","板橋區"
"220106","075-UY","2018/12/21 19:09:30","新北市板橋區長江路二段280-1號","121.46995","25.0327633333333","6500100","板橋區"
"226004","205-ST","2018/12/21 19:09:35","新北市平溪區嶺腳里嶺腳寮13號","121.747948333333","25.0299016666667","6502400","平溪區"
"235065","251-BX","2018/12/21 19:09:33","新北市中和區中山路二段136巷66號","121.500713333333","25.0043066666667","6500300","中和區"
"228003","097-TW","2018/12/21 19:09:35","新北市貢寮區和美里和美街36-1號","121.912225","25.0861333333333","6502600","貢寮區"
"228002","663-BX","2018/12/21 19:09:46","新北市貢寮區福隆里福隆街32-1號","121.945095","25.0173816666667","6502600","貢寮區"
"228001","670-TC","2018/12/21 19:09:38","新北市貢寮區真理里新港街10號","121.925475","25.05436","6502600","貢寮區"
"224010","AGQ-8101","2018/12/21 19:08:55","新北市瑞芳區烏勢巷148號","121.846963333333","25.1077916666667","6501200","瑞芳區"
"224008","285-BY","2018/12/21 19:09:39","新北市瑞芳區一坑路100號","121.802891666667","25.1082833333333","6501200","瑞芳區"
"224007","275-VK","2018/12/21 19:09:42","新北市瑞芳區瑞竹路8號","121.765138333333","25.1032483333333","6501200","瑞芳區"
"224009","273-VK","2018/12/21 19:09:27","新北市瑞芳區洞頂路101巷18號","121.860466666667","25.1217533333333","6501200","瑞芳區"
"227003","642-TC","2018/12/21 19:09:41","新北市雙溪區平林里外平林9-25號","121.859783333333","25.0377933333333","6502500","雙溪區"
"227011","400-TW","2018/12/21 19:09:33","新北市雙溪區牡丹里中正路38號","121.864716666667","25.038425","6502500","雙溪區"
"253006","032-BX","2018/12/21 19:09:31","新北市石門區海灣新城38號","121.526836666667","25.2844266666667","6502200","石門區"
"253005","295-VK","2018/12/21 19:09:27","新北市石門區阿里荖42號","121.605341666667","25.2802916666667","6502200","石門區"
"222001","KEA-2212","2018/12/21 19:09:39","新北市深坑區北深路一段300號","121.624256666667","25.00574","6501800","深坑區"
"208002","KEA-2872","2018/12/21 19:09:28","新北市金山區中正路73號","121.633751666667","25.2216666666667","6502700","金山區"
"208003","665-BX","2018/12/21 19:09:37","新北市金山區中正路11-1號","121.63661","25.2223966666667","6502700","金山區"
"208001","761-BX","2018/12/21 19:09:27","新北市金山區福德街18號","121.639096666667","25.221565","6502700","金山區"
"251008","KEA-2871","2018/12/21 19:09:39","新北市淡水區中正路二段12號","121.420278333333","25.1805","6501000","淡水區"
"251010","413-VK","2018/12/21 19:09:42","新北市淡水區中正路一段156巷3號","121.421165","25.1803016666667","6501000","淡水區"
"251005","443-VK","2018/12/21 19:08:44","新北市淡水區原德路5-1號","121.441983333333","25.1712416666667","6501000","淡水區"
"251001","559-UM","2018/12/21 19:09:29","新北市淡水區自強路201巷39號","121.46216","25.1268116666667","6501000","淡水區"
"251009","575-R6","2018/12/21 19:09:28","新北市淡水區清水街204號","121.440408333333","25.17116","6501000","淡水區"
"251007","577-R6","2018/12/21 19:09:23","新北市淡水區民生路145巷54號","121.467828333333","25.13881","6501000","淡水區"
"251002","672-BX","2018/12/21 19:09:30","新北市淡水區中山路123號","121.441653333333","25.1708966666667","6501000","淡水區"
"251003","673-BX","2018/12/21 19:09:38","新北市淡水區中山北路一段70號","121.442131666667","25.17588","6501000","淡水區"
"207003","550-UM","2018/12/21 19:09:37","新北市萬里區大鵬里萬里加投79-3號","121.64732","25.2123383333333","6502800","萬里區"
"207004","225-TW","2018/12/21 19:09:41","新北市萬里區萬里里瑪鋉下街46-1號","121.691508333333","25.179315","6502800","萬里區"
"252002","178-VK","2018/12/21 19:09:21","新北市三芝區埔坪里埔頭坑78號","121.50927","25.2544083333333","6502100","三芝區"
"252003","249-BX","2018/12/21 19:09:38","新北市三芝區古庄里四棧橋18-3號","121.489978333333","25.2608183333333","6502100","三芝區"
"252001","292-VK","2018/12/21 19:09:24","新北市三芝區長勤街45巷2號","121.50032","25.2550716666667","6502100","三芝區"
"237004","KEA-2597","2018/12/21 19:09:38","新北市三峽區有木206號","121.439076666667","24.8514816666667","6500900","三峽區"
"237007","153-BY","2018/12/21 19:09:35","新北市三峽區中正路二段42巷12-1號","121.364106666667","24.9207483333333","6500900","三峽區"
"237013","252-BX","2018/12/21 19:09:34","新北市三峽區大同路64號","121.376576666667","24.92834","6500900","三峽區"
"237012","275-BY","2018/12/21 19:09:27","新北市三峽區三樹路222巷236弄8-1號","121.391353333333","24.943035","6500900","三峽區"
"237014","433-BY","2018/12/21 19:09:22","新北市三峽區復興路375號","121.363151666667","24.93858","6500900","三峽區"
"237006","5529-G3","2018/12/21 19:09:35","新北市三峽區永安街183號","121.373235","24.9267233333333","6500900","三峽區"
"237011","KEA-2596","2018/12/21 19:09:41","新北市三峽區介壽路三段107號","121.395463333333","24.9392416666667","6500900","三峽區"
"237015","649-BX","2018/12/21 19:09:28","新北市三峽區建安71-8號","121.44812","24.9265383333333","6500900","三峽區"
"237010","706-TV","2018/12/21 19:09:28","新北市三峽區復興路36-8號","121.37388","24.9367183333333","6500900","三峽區"
"237005","AKY-6261","2018/12/21 19:09:27","新北市三峽區中山路459巷163-3號","121.348675","24.9328866666667","6500900","三峽區"
"236069","105-UM","2018/12/21 19:09:33","新北市土城區裕生路84巷2號","121.447303333333","24.9853816666667","6501300","土城區"
"236042","KED-0685","2018/12/21 19:09:27","新北市土城區學府路一段276號","121.450356666667","24.9832816666667","6501300","土城區"
"236079","166-UM","2018/12/21 19:09:41","新北市土城區中央路四段321巷32-2號","121.412021666667","24.9510566666667","6501300","土城區"
"236026","269-VK","2018/12/21 19:09:39","新北市土城區中央路二段157號","121.442043333333","24.9764333333333","6501300","土城區"
"236014","270-VK","2018/12/21 19:09:34","新北市土城區學府路一段99巷6號","121.456613333333","24.987075","6501300","土城區"
"236020","401-BY","2018/12/21 19:09:40","新北市土城區延峰街23號","121.468915","24.9859716666667","6501300","土城區"
"236059","912-UM","2018/12/21 19:09:40","新北市土城區金城路一段17號","121.43961","24.9691033333333","6501300","土城區"
"236048","913-UM","2018/12/21 19:09:41","新北市土城區明德路一段365-1號","121.45363","24.9790766666667","6501300","土城區"
"238023","601-UM","2018/12/21 19:09:25","新北市樹林區三興路60號","121.393788333333","25.0144716666667","6500700","樹林區"
"238019","599-UM","2018/12/21 19:09:31","新北市樹林區東榮街147巷27弄1號","121.414721666667","24.9806583333333","6500700","樹林區"
"238024","5061-A6","2018/12/21 19:09:28","新北市樹林區中山路二段249巷34號","121.403573333333","24.9754183333333","6500700","樹林區"
"238022","KEA-2213","2018/12/21 19:09:25","新北市樹林區中山路二段151巷6弄1號","121.40678","24.9783583333333","6500700","樹林區"
"238021","KEA-2539","2018/12/21 19:09:33","新北市樹林區柑園街二段384巷2號","121.36817","24.949155","6500700","樹林區"
"238025","303-VK","2018/12/21 19:09:28","新北市樹林區中山路三段68號","121.393751666667","24.9723533333333","6500700","樹林區"
"238017","283-BY","2018/12/21 19:09:41","新北市樹林區光興街78-1號","121.408326666667","25.00239","6500700","樹林區"
"238014","282-BY","2018/12/21 19:09:29","新北市樹林區千歲街63-13號","121.426978333333","24.9986316666667","6500700","樹林區"
"238020","268-VK","2018/12/21 19:09:38","新北市樹林區俊英街133巷18號","121.423706666667","25.0112066666667","6500700","樹林區"
"238026","172-UY","2018/12/21 19:09:39","新北市樹林區中山路三段120號","121.392428333333","24.972145","6500700","樹林區"
"238016","169-UY","2018/12/21 19:09:39","新北市樹林區復興路335巷2弄1號","121.418166666667","24.98758","6500700","樹林區"
"239007","AAC-297","2018/12/21 19:09:26","新北市鶯歌區大湖路326巷31號","121.34619","24.97006","6500800","鶯歌區"
"239006","891-R6","2018/12/21 19:09:29","新北市鶯歌區建國路512巷3號","121.340431666667","24.9509666666667","6500800","鶯歌區"
"239008","527-UM","2018/12/21 19:09:32","新北市鶯歌區國際二路4巷15號","121.339088333333","24.9734933333333","6500800","鶯歌區"
"239005","526-UM","2018/12/21 19:09:22","新北市鶯歌區東湖路30號","121.355638333333","24.972015","6500800","鶯歌區"
"239001","417-VK","2018/12/21 19:09:31","新北市鶯歌區鶯桃路97號","121.33881","24.95376","6500800","鶯歌區"
"239003","360-BY","2018/12/21 19:09:37","新北市鶯歌區文化路337號","121.35189","24.9517216666667","6500800","鶯歌區"
"239002","359-BY","2018/12/21 19:09:36","新北市鶯歌區大湖路342號","121.34641","24.972175","6500800","鶯歌區"
"239004","193-VK","2018/12/21 19:09:32","新北市鶯歌區二甲路43-3號","121.340015","24.9359166666667","6500800","鶯歌區"
"221008","489-VK","2018/12/21 19:09:25","新北市汐止區康寧街469號","121.631913333333","25.0683733333333","6501100","汐止區"
"221036","130-UY","2018/12/21 19:09:28","新北市汐止區康寧街901號","121.651103333333","25.0751316666667","6501100","汐止區"
"221015","131-UY","2018/12/21 19:09:40","新北市汐止區康寧街901號","121.6516","25.0749433333333","6501100","汐止區"
"221010","269-BY","2018/12/21 19:09:22","新北市汐止區康寧街901號","121.651356666667","25.07504","6501100","汐止區"
"221012","278-VK","2018/12/21 19:09:38","新北市汐止區康寧街901號","121.650778333333","25.0752433333333","6501100","汐止區"
"221027","281-BY","2018/12/21 19:09:40","新北市汐止區康寧街901號","121.651411666667","25.0750266666667","6501100","汐止區"
"221029","298-VK","2018/12/21 19:09:37","新北市汐止區汐萬路一段256巷3號","121.652471666667","25.074545","6501100","汐止區"
"221021","299-VK","2018/12/21 19:09:26","新北市汐止區康寧街901號","121.651476666667","25.0750066666667","6501100","汐止區"
"221031","353-TW","2018/12/21 19:09:21","新北市汐止區康寧街901號","121.651246666667","25.0750616666667","6501100","汐止區"
"221025","623-UM","2018/12/21 19:09:40","新北市汐止區康寧街901號","121.651545","25.0749333333333","6501100","汐止區"
"221038","646-BX","2018/12/21 19:09:27","新北市汐止區康寧街901號","121.650711666667","25.07528","6501100","汐止區"
"221033","647-BX","2018/12/21 19:09:35","新北市汐止區南勢街3號","121.627083333333","25.03744","6501100","汐止區"
"221002","707-TV","2018/12/21 19:09:30","新北市汐止區大同路一段288號","121.634803333333","25.0577883333333","6501100","汐止區"
"220079","145-BY","2018/12/21 19:09:23","新北市板橋區民權路202巷7弄3號","121.459836666667","25.0146733333333","6500100","板橋區"
"220080","200-UY","2018/12/21 19:09:35","新北市板橋區大觀路二段5-3號","121.44696","25.0037483333333","6500100","板橋區"
"220082","610-BX","2018/12/21 19:09:41","新北市板橋區溪崑二街63號","121.428141666667","24.9905266666667","6500100","板橋區"
"220091","267-BY","2018/12/21 19:09:31","新北市板橋區縣民大道三段209號","121.480116666667","25.025025","6500100","板橋區"
"220056","276-BY","2018/12/21 19:09:37","新北市板橋區信義路74巷5弄1號","121.456801666667","24.99283","6500100","板橋區"
"220072","277-BY","2018/12/21 19:09:25","新北市板橋區溪城路91-1號","121.427073333333","24.9831733333333","6500100","板橋區"
"220101","280-UM","2018/12/21 19:09:40","新北市板橋區雙十路二段4號","121.477178333333","25.025215","6500100","板橋區"
"220071","283-VK","2018/12/21 19:09:27","新北市板橋區忠孝路154巷60號","121.464238333333","25.0010766666667","6500100","板橋區"
"220094","285-UM","2018/12/21 19:09:26","新北市板橋區吳鳳路19巷18號","121.466853333333","25.0308666666667","6500100","板橋區"
"220053","285-VK","2018/12/21 19:09:31","新北市板橋區懷仁街35巷2弄2號","121.476835","25.0196166666667","6500100","板橋區"
"220083","286-VK","2018/12/21 19:09:27","新北市板橋區大觀路二段174巷175號","121.441925","25.0036583333333","6500100","板橋區"
"220081","287-VK","2018/12/21 19:09:24","新北市板橋區南雅西路二段156巷17號","121.452353333333","25.0131533333333","6500100","板橋區"
"220090","288-VK","2018/12/21 19:09:25","新北市板橋區長江路一段106巷13弄11號","121.46052","25.02933","6500100","板橋區"
"220061","295-UM","2018/12/21 19:09:21","新北市板橋區中山路二段318巷19號","121.480451666667","25.0186816666667","6500100","板橋區"
"220084","296-UM","2018/12/21 19:09:36","新北市板橋區溪崑二街56巷6號","121.427645","24.9908366666667","6500100","板橋區"
"220075","303-R5","2018/12/21 19:09:37","新北市板橋區南雅南路一段5巷6號","121.455956666667","25.0055233333333","6500100","板橋區"
"220062","305-R5","2018/12/21 19:09:43","新北市板橋區三民路二段245巷4弄8號","121.481001666667","25.0121083333333","6500100","板橋區"
"220092","307-R5","2018/12/21 19:09:23","新北市板橋區松江街72巷15號","121.469265","25.0278966666667","6500100","板橋區"
"220098","317-R6","2018/12/21 19:09:33","新北市板橋區民有街16號","121.466271666667","25.0248333333333","6500100","板橋區"
"220088","491-VK","2018/12/21 19:09:31","新北市板橋區雙十路二段193號","121.4735","25.0289983333333","6500100","板橋區"
"220035","560-BX","2018/12/21 19:09:23","新北市板橋區中正路336-3號","121.455243333333","25.0223116666667","6500100","板橋區"
"220103","561-BX","2018/12/21 19:09:30","新北市板橋區文化路一段339號","121.466611666667","25.0206266666667","6500100","板橋區"
"220063","609-BX","2018/12/21 19:09:36","新北市板橋區三民路二段89號","121.47942","25.016475","6500100","板橋區"
"220055","630-UY","2018/12/21 19:09:30","新北市板橋區中山路一段158號","121.466021666667","25.0119533333333","6500100","板橋區"
"220057","686-BX","2018/12/21 19:09:30","新北市板橋區重慶路308巷12號","121.463381666667","24.99778","6500100","板橋區"
"220077","687-BX","2018/12/21 19:09:28","新北市板橋區大觀路二段64巷5號","121.44523","25.0005316666667","6500100","板橋區"
"220093","689-BX","2018/12/21 19:09:34","新北市板橋區新海路10號","121.462523333333","25.0208433333333","6500100","板橋區"
"220054","741-BX","2018/12/21 19:09:40","新北市板橋區四川路一段152號","121.460006666667","25.0034216666667","6500100","板橋區"
"220102","KEA-2699","2018/12/21 19:09:25","新北市板橋區文聖街188號","121.479476666667","25.0266783333333","6500100","板橋區"
"220067","829-TW","2018/12/21 19:09:22","新北市板橋區長安街138巷1弄69號","121.474496666667","25.0107666666667","6500100","板橋區"
"220068","830-TW","2018/12/21 19:09:34","新北市板橋區三民路一段1巷38弄10號","121.480915","25.0242116666667","6500100","板橋區"
"220089","833-TW","2018/12/21 19:09:33","新北市板橋區漢生西路19號","121.463455","25.01822","6500100","板橋區"
"220074","895-R6","2018/12/21 19:09:33","新北市板橋區中正路自強新村5-1號","121.455195","25.0139516666667","6500100","板橋區"
"220073","985-R7","2018/12/21 19:09:32","新北市板橋區中正路343號","121.454811666667","25.0204383333333","6500100","板橋區"
"220097","AAC-210","2018/12/21 19:09:24","新北市板橋區幸福路60巷27號","121.460588333333","25.0209116666667","6500100","板橋區"
"220064","AAC-253","2018/12/21 19:09:38","新北市板橋區板新路238號","121.468136666667","25.0160716666667","6500100","板橋區"
"235068","KEA-2873","2018/12/21 19:09:34","新北市中和區圓通路162巷37弄3號","121.496461666667","24.9955416666667","6500300","中和區"
"235061","KEA-2875","2018/12/21 19:09:25","新北市中和區中山路三段61號","121.47666","25.005705","6500300","中和區"
"235047","KEA-2876","2018/12/21 19:09:16","新北市中和區興南路一段56巷1弄1號","121.510708333333","24.9906883333333","6500300","中和區"
