"lineid","car","time","location","longitude","latitude","cityid","cityname"
"234046","148-BY","2018/12/21 19:19:21","新北市永和區永元路4號","121.521963333333","24.9999483333333","6500400","永和區"
"234081","298-R6","2018/12/21 19:19:38","新北市永和區福和路7巷11弄2號","121.52552","25.0071883333333","6500400","永和區"
"234038","336-UY","2018/12/21 19:19:34","新北市永和區民樂街53號","121.527465","24.9986116666667","6500400","永和區"
"234064","337-UY","2018/12/21 19:19:38","新北市永和區永元路17巷15號","121.521293333333","25.0006916666667","6500400","永和區"
"234070","552-UM","2018/12/21 19:19:42","新北市永和區中正路696-1號","121.516465","25.0098233333333","6500400","永和區"
"234086","553-UM","2018/12/21 19:19:22","新北市永和區永利路37號","121.518775","25.00555","6500400","永和區"
"234017","745-BX","2018/12/21 19:19:41","新北市永和區環河西路一段95巷19弄3號","121.511723333333","25.01712","6500400","永和區"
"234030","746-BX","2018/12/21 19:19:28","新北市永和區厚德街68號","121.52396","24.9989033333333","6500400","永和區"
"234054","KEA-2590","2018/12/21 19:19:36","新北市永和區中興街27號","121.516121666667","25.0120283333333","6500400","永和區"
"234007","839-RS","2018/12/21 19:19:32","新北市永和區中山路一段320號","121.50669","25.006905","6500400","永和區"
"234013","KEA-2591","2018/12/21 19:19:40","新北市永和區信義路38號","121.51346","25.01236","6500400","永和區"
"234061","AAD-866","2018/12/21 19:19:25","新北市永和區秀朗路一段175號","121.517086666667","25.0036833333333","6500400","永和區"
"234042","862-TW","2018/12/21 19:19:31","新北市永和區保平路151巷10號","121.510468333333","25.0051366666667","6500400","永和區"
"234050","863-TW","2018/12/21 19:19:36","新北市永和區保福路二段78號","121.510478333333","25.0133766666667","6500400","永和區"
"234026","9371-KE","2018/12/21 19:19:30","新北市永和區安樂路144巷26號","121.515263333333","24.9996316666667","6500400","永和區"
"234011","9373-KE","2018/12/21 19:19:28","新北市永和區保福路二段9巷7號","121.510655","25.010845","6500400","永和區"
"249001","173-UM","2018/12/21 19:19:34","新北市八里區中華路二段145號","121.409101666667","25.15243","6502300","八里區"
"249003","593-UM","2018/12/21 19:19:38","新北市八里區中山路二段466巷3號","121.39874","25.1473916666667","6502300","八里區"
"248016","026-BX","2018/12/21 19:19:29","新北市五股區成洲五路12號","121.452276666667","25.1015583333333","6501500","五股區"
"248008","095-VK","2018/12/21 19:19:38","新北市五股區中興路二段57-6號","121.460523333333","25.0754116666667","6501500","五股區"
"248018","225-UY","2018/12/21 19:19:31","新北市五股區壟路12-10號","121.415833333333","25.08867","6501500","五股區"
"248012","247-BX","2018/12/21 19:19:22","新北市五股區中興路四段48巷16號","121.438573333333","25.08346","6501500","五股區"
"248010","272-BY","2018/12/21 19:19:36","新北市五股區水碓一路23號","121.430608333333","25.0712783333333","6501500","五股區"
"248004","677-BX","2018/12/21 19:19:23","新北市五股區五福路102號","121.432391666667","25.0905","6501500","五股區"
"248002","678-BX","2018/12/21 19:19:31","新北市五股區凌雲路一段158巷14-1號","121.447821666667","25.1034316666667","6501500","五股區"
"234023","9380-KE","2018/12/21 19:19:25","新北市永和區竹林路109巷9號","121.5204","25.0120333333333","6500400","永和區"
"234077","969-R7","2018/12/21 19:19:27","新北市永和區民治街72巷12號","121.518161666667","24.9985266666667","6500400","永和區"
"234074","AAC-211","2018/12/21 19:19:24","新北市永和區竹林路126號","121.519976666667","25.0112666666667","6500400","永和區"
"234067","AAC-212","2018/12/21 19:19:42","新北市永和區永貞路378巷23號","121.510241666667","25.007785","6500400","永和區"
"234003","AAC-295","2018/12/21 19:19:27","新北市永和區中山路一段105號","121.510976666667","25.0103416666667","6500400","永和區"
"244023","483-VK","2018/12/21 19:19:41","新北市林口區文林六街27巷23號","121.370186666667","25.0813066666667","6501700","林口區"
"244017","485-VK","2018/12/21 19:19:35","新北市林口區公園路125號","121.369148333333","25.07012","6501700","林口區"
"243013","AAD-798","2018/12/21 19:19:27","新北市泰山區明志路三段145巷11弄2號","121.425728333333","25.0397583333333","6501600","泰山區"
"243009","297-R6","2018/12/21 19:19:32","新北市泰山區和平街9-2號","121.434121666667","25.0646033333333","6501600","泰山區"
"243016","KEA-2801","2018/12/21 19:19:28","新北市泰山區明志路三段166號","121.424361666667","25.03932","6501600","泰山區"
"243015","421-VK","2018/12/21 19:19:36","新北市泰山區明志路二段81號","121.428813333333","25.05235","6501600","泰山區"
"243011","KEA-2215","2018/12/21 19:19:31","新北市泰山區中央路11巷1號","121.426238333333","25.0428016666667","6501600","泰山區"
"243010","KEA-2216","2018/12/21 19:19:27","新北市泰山區明志路二段32巷2-1號","121.429433333333","25.0535033333333","6501600","泰山區"
"243012","646-TV","2018/12/21 19:19:21","新北市泰山區仁愛路100巷31號","121.43366","25.05492","6501600","泰山區"
"243014","680-BX","2018/12/21 19:19:24","新北市泰山區泰林路二段214號","121.433076666667","25.061655","6501600","泰山區"
"222003","436-BY","2018/12/21 19:19:25","新北市深坑區深南路204號","121.626588333333","25.01604","6501800","深坑區"
"222002","659-BX","2018/12/21 19:19:43","新北市深坑區北深路一段177號","121.632543333333","25.0108783333333","6501800","深坑區"
"231041","002-UM","2018/12/21 19:19:37","新北市新店區溪園路205號","121.527798333333","24.985285","6500600","新店區"
"231059","046-UY","2018/12/21 19:19:39","新北市新店區安和路二段166-10號","121.519088333333","24.9741583333333","6500600","新店區"
"231040","047-UY","2018/12/21 19:19:28","新北市新店區三民路31號","121.53802","24.9703666666667","6500600","新店區"
"231044","106-UY","2018/12/21 19:19:21","新北市新店區中興路三段328號","121.542081666667","24.986345","6500600","新店區"
"231046","107-UY","2018/12/21 19:19:31","新北市新店區華城路5-3號","121.52935","24.9583133333333","6500600","新店區"
"231053","108-UY","2018/12/21 19:19:22","新北市新店區新烏路二段200巷11號","121.547685","24.9166083333333","6500600","新店區"
"231062","110-UY","2018/12/21 19:19:37","新北市新店區莒光路38巷3號","121.522176666667","24.958835","6500600","新店區"
"231048","187-VK","2018/12/21 19:19:35","新北市新店區德正街27巷26號","121.545426666667","24.9710583333333","6500600","新店區"
"231054","KEA-2219","2018/12/21 19:19:43","新北市新店區國校路47號","121.53794","24.9548933333333","6500600","新店區"
"231065","260-TV","2018/12/21 19:19:23","新北市新店區安祥路140號","121.474243333333","24.9558416666667","6500600","新店區"
"231042","268-BY","2018/12/21 19:19:25","新北市新店區中興路一段115號","121.541406666667","24.9628033333333","6500600","新店區"
"231051","278-BY","2018/12/21 19:19:24","新北市新店區中央路208號","121.53023","24.97385","6500600","新店區"
"231050","AAD-862","2018/12/21 19:19:35","新北市新店區竹林路25巷10號","121.5524","24.951375","6500600","新店區"
"231058","3713-VJ","2018/12/21 19:19:40","新北市新店區檳榔路36巷14號","121.54115","24.9633133333333","6500600","新店區"
"231066","4716-K9","2018/12/21 19:19:22","新北市新店區安康路二段458號","121.494005","24.95411","6500600","新店區"
"231056","4715-K9","2018/12/21 19:19:44","新北市新店區薏仁坑路自強巷2號","121.49751","24.9588816666667","6500600","新店區"
"231067","4772-VM","2018/12/21 19:19:37","新北市新店區安康路一段197號","121.526375","24.9627566666667","6500600","新店區"
"231045","617-UM","2018/12/21 19:19:43","新北市新店區北宜路一段260號","121.545696666667","24.9527333333333","6500600","新店區"
"231061","619-UM","2018/12/21 19:19:41","新北市新店區安康路一段48號","121.530368333333","24.961185","6500600","新店區"
"231063","641-BX","2018/12/21 19:19:41","新北市新店區達觀路8巷5號","121.503773333333","24.9437016666667","6500600","新店區"
"231049","719-UM","2018/12/21 19:19:32","新北市新店區明德路111號","121.541511666667","24.9794316666667","6500600","新店區"
"231064","719-UY","2018/12/21 19:19:30","新北市新店區安忠路57巷1-5號","121.513426666667","24.9594233333333","6500600","新店區"
"231060","897-TW","2018/12/21 19:19:41","新北市新店區安康路二段128號","121.512731666667","24.9624366666667","6500600","新店區"
"231043","899-TW","2018/12/21 19:19:28","新北市新店區寶橋路9號","121.543736666667","24.973725","6500600","新店區"
"241022","060-VK","2018/12/21 19:19:38","新北市三重區重陽路二段50號","121.487125","25.0633983333333","6500200","三重區"
"241017","063-VK","2018/12/21 19:19:26","新北市三重區大同北路217號","121.491573333333","25.0659666666667","6500200","三重區"
"241009","267-UM","2018/12/21 19:19:43","新北市三重區溪尾街230巷40號","121.486338333333","25.08119","6500200","三重區"
"241025","271-UM","2018/12/21 19:19:24","新北市三重區中正北路404號","121.47538","25.0703883333333","6500200","三重區"
"241007","398-BY","2018/12/21 19:19:37","新北市三重區慈愛街73號","121.48694","25.0793833333333","6500200","三重區"
"241035","KEA-2210","2018/12/21 19:19:28","新北市三重區信義西街138號","121.495445","25.0643333333333","6500200","三重區"
"241031","462-BY","2018/12/21 19:19:29","新北市三重區重新路四段101-3號","121.485716666667","25.0542366666667","6500200","三重區"
"241020","478-VK","2018/12/21 19:19:32","新北市三重區後竹圍街88號","121.489565","25.07275","6500200","三重區"
"241030","480-VK","2018/12/21 19:19:28","新北市三重區成功路41巷72號","121.491395","25.0533166666667","6500200","三重區"
"241006","AAD-863","2018/12/21 19:19:24","新北市三重區車路頭街182號","121.483701666667","25.0771566666667","6500200","三重區"
"241026","743-BX","2018/12/21 19:19:28","新北市三重區泉州街84巷20號","121.496021666667","25.0542883333333","6500200","三重區"
"235066","003-UY","2018/12/21 19:19:43","新北市中和區中和路102號","121.502716666667","24.9997783333333","6500300","中和區"
"235064","005-UY","2018/12/21 19:19:31","新北市中和區南山路81巷19號","121.502641666667","24.9980866666667","6500300","中和區"
"235063","006-UY","2018/12/21 19:19:26","新北市中和區連勝街109號","121.495081666667","24.99496","6500300","中和區"
"235056","096-UM","2018/12/21 19:19:41","新北市中和區員山路539號","121.479591666667","25.0071983333333","6500300","中和區"
"235039","097-UM","2018/12/21 19:19:26","新北市中和區秀峰街119巷2弄1號","121.519873333333","24.990435","6500300","中和區"
"235058","151-BY","2018/12/21 19:19:28","新北市中和區員山路36巷16-2號","121.485176666667","24.9916433333333","6500300","中和區"
"235055","183-VK","2018/12/21 19:19:42","新北市中和區德光路11號","121.47126","25.00443","6500300","中和區"
"235038","185-VK","2018/12/21 19:19:31","新北市中和區大仁街10巷50號","121.520381666667","24.992655","6500300","中和區"
"235049","186-VK","2018/12/21 19:19:36","新北市中和區景新街235號","121.508071666667","24.9945633333333","6500300","中和區"
"235067","255-BX","2018/12/21 19:19:38","新北市中和區中正路803號","121.48485","25.0011733333333","6500300","中和區"
"235044","293-VK","2018/12/21 19:19:41","新北市中和區復興路282號","121.502061666667","24.9903133333333","6500300","中和區"
"235072","301-VK","2018/12/21 19:19:30","新北市中和區連城路265巷8弄2號","121.491518333333","24.99578","6500300","中和區"
"235042","KEA-2878","2018/12/21 19:19:27","新北市中和區安樂路143巷2弄5號","121.514063333333","24.9977616666667","6500300","中和區"
"247012","KEA-2869","2018/12/21 19:06:31","新北市五股區中興路三段163號","121.449183333333","25.0807283333333","6501400","蘆洲區"
"235050","4979-A6","2018/12/21 19:19:32","新北市中和區景安路208巷1號","121.503786666667","24.990995","6500300","中和區"
"235069","4980-A6","2018/12/21 19:19:31","新北市中和區永和路39巷14號","121.497508333333","25.0049916666667","6500300","中和區"
"235070","558-UM","2018/12/21 19:19:35","新北市中和區福祥路1號","121.499296666667","25.0028933333333","6500300","中和區"
"235045","565-BX","2018/12/21 19:19:23","新北市中和區景新街423巷33弄12號","121.513731666667","24.990185","6500300","中和區"
"235054","640-BX","2018/12/21 19:19:28","新北市中和區國光街112巷11弄1號","121.469691666667","25.0016183333333","6500300","中和區"
"235060","647-TV","2018/12/21 19:19:25","新北市中和區新生街114巷2號","121.483303333333","25.00241","6500300","中和區"
"235046","733-UM","2018/12/21 19:19:28","新北市中和區忠孝街2巷13弄2號","121.51043","24.9818766666667","6500300","中和區"
"235071","783-BX","2018/12/21 19:19:39","新北市中和區中正路643號","121.485188333333","24.9957116666667","6500300","中和區"
"235057","801-TS","2018/12/21 19:19:28","新北市中和區員山路423巷16號","121.480315","25.002745","6500300","中和區"
"235041","802-TS","2018/12/21 19:19:22","新北市中和區中和路294號","121.508473333333","24.999705","6500300","中和區"
"235052","805-TS","2018/12/21 19:19:43","新北市中和區華新街143巷21號","121.506566666667","24.98093","6500300","中和區"
"235048","896-TW","2018/12/21 19:19:35","新北市中和區忠孝街128號","121.512036666667","24.9865483333333","6500300","中和區"
"235053","900-TW","2018/12/21 19:19:29","新北市中和區華安街17巷15號","121.466986666667","24.9982733333333","6500300","中和區"
"235051","157-BY","2018/12/21 19:19:22","新北市中和區景平路392號","121.510178333333","24.9928466666667","6500300","中和區"
"235037","AAC-213","2018/12/21 19:19:28","新北市中和區自立路15巷8號","121.522976666667","24.995965","6500300","中和區"
"235059","AAC-215","2018/12/21 19:19:36","新北市中和區圓通路286巷26號","121.49204","24.99151","6500300","中和區"
"220069","015-TV","2018/12/21 19:19:26","新北市板橋區稚暉街19-2號","121.456526666667","25.0043116666667","6500100","板橋區"
"220065","072-UY","2018/12/21 19:19:33","新北市板橋區民族路170巷1號","121.467393333333","25.00761","6500100","板橋區"
"220086","073-UY","2018/12/21 19:19:25","新北市板橋區中正路216巷2弄13號","121.456528333333","25.018045","6500100","板橋區"
"220106","075-UY","2018/12/21 19:19:30","新北市板橋區江寧路三段115-4號","121.473166666667","25.0329766666667","6500100","板橋區"
"226004","205-ST","2018/12/21 19:19:34","新北市平溪區靜安路三段152號","121.774666666667","25.0382316666667","6502400","平溪區"
"235065","251-BX","2018/12/21 19:19:33","新北市中和區中山路二段2巷3弄2號","121.504831666667","25.0062","6500300","中和區"
"228003","097-TW","2018/12/21 19:19:35","新北市貢寮區和美里和美街22-1號","121.912793333333","25.0826316666667","6502600","貢寮區"
"228002","663-BX","2018/12/21 19:19:26","新北市貢寮區雙玉里田寮洋街22號","121.9287","25.0220333333333","6502600","貢寮區"
"228001","670-TC","2018/12/21 19:19:38","新北市貢寮區真理里新港街10號","121.925491666667","25.0543483333333","6502600","貢寮區"
"224010","AGQ-8101","2018/12/21 19:19:35","新北市瑞芳區基山街36號","121.84479","25.108425","6501200","瑞芳區"
"224008","285-BY","2018/12/21 19:19:39","新北市瑞芳區中山路20號","121.804366666667","25.1063933333333","6501200","瑞芳區"
"224007","275-VK","2018/12/21 19:19:40","新北市瑞芳區大寮路356-1號","121.784623333333","25.10316","6501200","瑞芳區"
"227003","642-TC","2018/12/21 19:19:41","新北市雙溪區平林里梅竹蹊66-1號","121.86016","25.035815","6502500","雙溪區"
"227011","400-TW","2018/12/21 19:19:33","新北市雙溪區新基里新基北街40號","121.868506666667","25.0380266666667","6502500","雙溪區"
"253006","032-BX","2018/12/21 19:19:31","新北市石門區楓林18號","121.536576666667","25.2910033333333","6502200","石門區"
"253005","295-VK","2018/12/21 19:19:27","新北市石門區阿里荖41-1號","121.605408333333","25.2831633333333","6502200","石門區"
"222001","KEA-2212","2018/12/21 19:19:39","新北市深坑區北深路二段103號","121.617441666667","25.00335","6501800","深坑區"
"208002","KEA-2872","2018/12/21 19:19:41","新北市金山區中華路142號","121.633048333333","25.2211816666667","6502700","金山區"
"208003","665-BX","2018/12/21 19:19:37","新北市金山區忠孝一路42號","121.63784","25.2200966666667","6502700","金山區"
"208001","761-BX","2018/12/21 19:19:27","新北市金山區民生路69號","121.640128333333","25.21975","6502700","金山區"
"251008","KEA-2871","2018/12/21 19:19:39","新北市淡水區中正路二段31號","121.41932","25.1818","6501000","淡水區"
"251010","413-VK","2018/12/21 19:19:23","新北市淡水區沙崙路30號","121.421498333333","25.181505","6501000","淡水區"
"251005","443-VK","2018/12/21 19:08:44","新北市淡水區原德路5-1號","121.441983333333","25.1712416666667","6501000","淡水區"
"251001","559-UM","2018/12/21 19:19:29","新北市淡水區自強路201巷43號","121.462066666667","25.1268133333333","6501000","淡水區"
"251006","561-UM","2018/12/21 19:19:30","新北市淡水區大信街38號","121.442156666667","25.17731","6501000","淡水區"
"251009","575-R6","2018/12/21 19:19:28","新北市淡水區中山路127號","121.441443333333","25.1710683333333","6501000","淡水區"
"251007","577-R6","2018/12/21 19:19:23","新北市淡水區民權路3巷36號","121.462663333333","25.1434816666667","6501000","淡水區"
"251002","672-BX","2018/12/21 19:19:30","新北市淡水區中正路一段78巷2號","121.424926666667","25.17729","6501000","淡水區"
"251003","673-BX","2018/12/21 19:19:38","新北市淡水區中山北路一段204號","121.444626666667","25.179595","6501000","淡水區"
"207003","550-UM","2018/12/21 19:19:36","新北市萬里區大鵬里萬里加投79-3號","121.647315","25.21234","6502800","萬里區"
"207004","225-TW","2018/12/21 19:19:37","新北市萬里區萬里里成功新村44號","121.687701666667","25.1746466666667","6502800","萬里區"
"252002","178-VK","2018/12/21 19:19:41","新北市三芝區淡金路二段18-1號","121.502675","25.2594983333333","6502100","三芝區"
"252001","292-VK","2018/12/21 19:19:24","新北市三芝區長勤街9巷11弄3號","121.501866666667","25.2546916666667","6502100","三芝區"
"237004","KEA-2597","2018/12/21 19:19:38","新北市三峽區有木205-1號","121.439016666667","24.8515116666667","6500900","三峽區"
"237007","153-BY","2018/12/21 19:19:35","新北市三峽區二鬮路126號","121.359935","24.9082216666667","6500900","三峽區"
"237009","210-TH","2018/12/21 19:19:22","新北市三峽區信義街35號","121.370878333333","24.9351466666667","6500900","三峽區"
"237013","252-BX","2018/12/21 19:19:34","新北市三峽區介壽路一段276巷108弄30號","121.379328333333","24.9277116666667","6500900","三峽區"
"237012","275-BY","2018/12/21 19:19:27","新北市三峽區三樹路98巷189號","121.385071666667","24.9415166666667","6500900","三峽區"
"237014","433-BY","2018/12/21 19:19:22","新北市三峽區中山路257巷39號","121.36206","24.9364716666667","6500900","三峽區"
"237006","5529-G3","2018/12/21 19:19:35","新北市三峽區中正路一段336巷15弄2號","121.36996","24.92495","6500900","三峽區"
"237011","KEA-2596","2018/12/21 19:19:40","新北市三峽區介壽路三段107號","121.395471666667","24.9392533333333","6500900","三峽區"
"237015","649-BX","2018/12/21 19:19:28","新北市三峽區成福路275號","121.428471666667","24.9234916666667","6500900","三峽區"
"237010","706-TV","2018/12/21 19:19:25","新北市三峽區復興路77號","121.3727","24.937465","6500900","三峽區"
"237005","AKY-6261","2018/12/21 19:19:27","新北市鶯歌區三鶯路5號","121.356911666667","24.9406866666667","6500900","三峽區"
"236069","105-UM","2018/12/21 19:19:33","新北市土城區學成路89號","121.451095","24.98825","6501300","土城區"
"236042","KED-0685","2018/12/21 19:19:27","新北市土城區學府路一段239號","121.450375","24.9832983333333","6501300","土城區"
"236079","166-UM","2018/12/21 19:19:40","新北市土城區中州路1-7號","121.414293333333","24.9570483333333","6501300","土城區"
"236026","269-VK","2018/12/21 19:19:39","新北市土城區中央路二段61巷22號","121.443171666667","24.9786766666667","6501300","土城區"
"236014","270-VK","2018/12/21 19:19:34","新北市土城區廣福街68巷20號","121.458208333333","24.9901916666667","6501300","土城區"
"236020","401-BY","2018/12/21 19:19:40","新北市土城區峰廷街8號","121.468645","24.987715","6501300","土城區"
"236059","912-UM","2018/12/21 19:19:26","新北市土城區中央路二段252號","121.44178","24.974595","6501300","土城區"
"236048","913-UM","2018/12/21 19:19:22","新北市土城區明德路一段365-1號","121.453625","24.9790783333333","6501300","土城區"
"238015","755-BX","2018/12/21 19:19:38","新北市樹林區大安路568-3號","121.412156666667","24.9839816666667","6500700","樹林區"
"238023","601-UM","2018/12/21 19:19:25","新北市樹林區三福街13號","121.408838333333","25.0167683333333","6500700","樹林區"
"238019","599-UM","2018/12/21 19:19:31","新北市樹林區東榮街91巷1弄2號","121.416253333333","24.9822383333333","6500700","樹林區"
"238018","571-TV","2018/12/21 19:19:35","新北市樹林區太元街6號","121.417528333333","24.980935","6500700","樹林區"
"238024","5061-A6","2018/12/21 19:19:28","新北市樹林區福德街47號","121.399428333333","24.9747866666667","6500700","樹林區"
"238022","KEA-2213","2018/12/21 19:19:25","新北市樹林區中山路二段230號","121.408783333333","24.9801416666667","6500700","樹林區"
"238021","KEA-2539","2018/12/21 19:19:33","新北市樹林區柑園街二段247巷17號","121.375503333333","24.9505433333333","6500700","樹林區"
"238025","303-VK","2018/12/21 19:19:28","新北市樹林區中山路二段84號","121.414701666667","24.9836116666667","6500700","樹林區"
"238017","283-BY","2018/12/21 19:19:42","新北市樹林區光興街196號","121.407915","25.0047016666667","6500700","樹林區"
"238014","282-BY","2018/12/21 19:19:29","新北市樹林區保安二街29號","121.42489","24.9937983333333","6500700","樹林區"
"238020","268-VK","2018/12/21 19:19:38","新北市樹林區俊英街119號","121.424401666667","25.010285","6500700","樹林區"
"238026","172-UY","2018/12/21 19:19:39","新北市樹林區佳園路一段41巷2號","121.393361666667","24.9707633333333","6500700","樹林區"
"238016","169-UY","2018/12/21 19:18:19","新北市樹林區備前街36巷2號","121.417246666667","24.986085","6500700","樹林區"
"239006","891-R6","2018/12/21 19:19:25","新北市鶯歌區尖山埔路116號","121.344188333333","24.9500216666667","6500800","鶯歌區"
"239005","526-UM","2018/12/21 19:19:42","新北市鶯歌區中湖街37號","121.349018333333","24.9730616666667","6500800","鶯歌區"
"239001","417-VK","2018/12/21 19:19:31","新北市鶯歌區鶯桃路35-1號","121.343141666667","24.9507683333333","6500800","鶯歌區"
"239003","360-BY","2018/12/21 19:19:37","新北市鶯歌區二甲路13號","121.344416666667","24.9352483333333","6500800","鶯歌區"
"239002","359-BY","2018/12/21 19:19:36","新北市鶯歌區大湖路104號","121.3426","24.9632833333333","6500800","鶯歌區"
"239004","193-VK","2018/12/21 19:19:31","新北市鶯歌區二甲路83-5號","121.339978333333","24.9321816666667","6500800","鶯歌區"
"221008","489-VK","2018/12/21 19:19:25","新北市汐止區康寧街338號","121.627845","25.0674366666667","6501100","汐止區"
"221036","130-UY","2018/12/21 19:19:08","新北市汐止區康寧街901號","121.651093333333","25.0751266666667","6501100","汐止區"
"221015","131-UY","2018/12/21 19:19:40","新北市汐止區康寧街901號","121.65151","25.074985","6501100","汐止區"
"221010","269-BY","2018/12/21 19:19:22","新北市汐止區康寧街901號","121.65138","25.075045","6501100","汐止區"
"221012","278-VK","2018/12/21 19:19:39","新北市汐止區汐萬路一段244-1號","121.65146","25.0732466666667","6501100","汐止區"
"221027","281-BY","2018/12/21 19:19:40","新北市汐止區汐萬路一段265巷2號","121.650711666667","25.074215","6501100","汐止區"
"221029","298-VK","2018/12/21 19:19:38","新北市汐止區康寧街901號","121.651641666667","25.07492","6501100","汐止區"
"221021","299-VK","2018/12/21 19:19:26","新北市汐止區康寧街901號","121.651471666667","25.0749966666667","6501100","汐止區"
"221031","353-TW","2018/12/21 19:19:42","新北市汐止區康寧街901號","121.650863333333","25.075275","6501100","汐止區"
"221025","623-UM","2018/12/21 19:19:20","新北市汐止區汐萬路一段312號","121.650496666667","25.075355","6501100","汐止區"
"221038","646-BX","2018/12/21 19:19:27","新北市汐止區康寧街901號","121.65071","25.075295","6501100","汐止區"
"221033","647-BX","2018/12/21 19:19:35","新北市汐止區南勢街3號","121.627096666667","25.0374133333333","6501100","汐止區"
"221002","707-TV","2018/12/21 19:19:30","新北市汐止區大同路一段335號","121.6385","25.05932","6501100","汐止區"
"220079","145-BY","2018/12/21 19:19:23","新北市板橋區民權路202巷14弄2號","121.460596666667","25.0158116666667","6500100","板橋區"
"220080","200-UY","2018/12/21 19:19:35","新北市板橋區大觀路二段5號","121.446958333333","25.0038366666667","6500100","板橋區"
"220082","610-BX","2018/12/21 19:19:27","新北市板橋區溪崑二街138號","121.425876666667","24.987615","6500100","板橋區"
"220091","267-BY","2018/12/21 19:19:31","新北市板橋區縣民大道三段229號","121.480941666667","25.0256066666667","6500100","板橋區"
"220056","276-BY","2018/12/21 19:19:36","新北市板橋區信義路233-5號","121.45985","24.991145","6500100","板橋區"
"220072","277-BY","2018/12/21 19:19:25","新北市板橋區篤行路二段161巷18-1號","121.429776666667","24.98727","6500100","板橋區"
"220101","280-UM","2018/12/21 19:19:20","新北市板橋區莊敬路208巷4弄2號","121.471693333333","25.0210133333333","6500100","板橋區"
"220071","283-VK","2018/12/21 19:19:27","新北市板橋區大豐街2號","121.462631666667","25.0015266666667","6500100","板橋區"
"220094","285-UM","2018/12/21 19:19:26","新北市板橋區吳鳳路50巷36號","121.469811666667","25.0302833333333","6500100","板橋區"
"220053","285-VK","2018/12/21 19:19:31","新北市板橋區富山街36號","121.477898333333","25.0218283333333","6500100","板橋區"
"220083","286-VK","2018/12/21 19:19:39","新北市板橋區龍興街97巷15號","121.443428333333","25.0028233333333","6500100","板橋區"
"220081","287-VK","2018/12/21 19:19:43","新北市板橋區南雅西路一段50號","121.453791666667","25.004855","6500100","板橋區"
"220090","288-VK","2018/12/21 19:19:25","新北市板橋區裕民街51號","121.461215","25.02847","6500100","板橋區"
"220061","295-UM","2018/12/21 19:19:21","新北市板橋區中山路二段255巷7號","121.476978333333","25.0179","6500100","板橋區"
"220084","296-UM","2018/12/21 19:19:39","新北市板橋區溪北路71號","121.428186666667","24.989695","6500100","板橋區"
"220075","303-R5","2018/12/21 19:19:37","新北市板橋區南雅西路二段301巷41弄33號","121.449948333333","25.017765","6500100","板橋區"
"220062","305-R5","2018/12/21 19:19:23","新北市板橋區三民路二段153巷36弄2號","121.481125","25.0140566666667","6500100","板橋區"
"220092","307-R5","2018/12/21 19:19:43","新北市板橋區光武街2巷28號","121.46872","25.02553","6500100","板橋區"
"220098","317-R6","2018/12/21 19:19:33","新北市板橋區自由路51巷9-3號","121.465066666667","25.0234216666667","6500100","板橋區"
"220088","491-VK","2018/12/21 19:19:37","新北市板橋區雙十路二段85號","121.475625","25.027485","6500100","板橋區"
"220035","560-BX","2018/12/21 19:19:23","新北市板橋區中正路433巷1號","121.454145","25.023285","6500100","板橋區"
"220103","561-BX","2018/12/21 19:19:30","新北市板橋區文化路一段286巷2弄7號","121.468451666667","25.0208316666667","6500100","板橋區"
"220063","609-BX","2018/12/21 19:19:36","新北市板橋區三民路一段1巷44號","121.480301666667","25.0245816666667","6500100","板橋區"
"220055","630-UY","2018/12/21 19:19:30","新北市板橋區新民街4巷9號","121.464638333333","25.0100233333333","6500100","板橋區"
"220057","686-BX","2018/12/21 19:19:43","新北市板橋區五權街30巷1號","121.464641666667","24.9933833333333","6500100","板橋區"
"220077","687-BX","2018/12/21 19:19:24","新北市板橋區大觀路一段28巷6號","121.450016666667","25.008785","6500100","板橋區"
"220093","689-BX","2018/12/21 19:19:39","新北市板橋區新海路397號","121.458686666667","25.0265433333333","6500100","板橋區"
"220054","741-BX","2018/12/21 19:19:36","新北市板橋區光明街112號","121.463125","25.0030333333333","6500100","板橋區"
"220102","KEA-2699","2018/12/21 19:19:41","新北市板橋區松柏街22巷26號","121.474871666667","25.0291833333333","6500100","板橋區"
"220067","829-TW","2018/12/21 19:19:42","新北市板橋區漢生東路330-1號","121.471818333333","25.0078683333333","6500100","板橋區"
"220068","830-TW","2018/12/21 19:19:34","新北市板橋區萬安街101號","121.483493333333","25.0247","6500100","板橋區"
"220089","833-TW","2018/12/21 19:19:33","新北市板橋區英士路11-1號","121.461983333333","25.0252083333333","6500100","板橋區"
"220074","895-R6","2018/12/21 19:19:33","新北市板橋區中正路1巷14號","121.455223333333","25.0116","6500100","板橋區"
"220073","985-R7","2018/12/21 19:19:32","新北市板橋區新生街45號","121.457101666667","25.0210583333333","6500100","板橋區"
"220097","AAC-210","2018/12/21 19:19:24","新北市板橋區漢生西路89巷2弄12-2號","121.461845","25.01961","6500100","板橋區"
"220064","AAC-253","2018/12/21 19:19:38","新北市板橋區公園街32號","121.462565","25.0085666666667","6500100","板橋區"
"235068","KEA-2873","2018/12/21 19:19:34","新北市中和區連勝街38巷24號","121.498005","24.9983433333333","6500300","中和區"
"235061","KEA-2875","2018/12/21 19:19:25","新北市中和區員山路352號","121.481071666667","25.003625","6500300","中和區"
"235047","KEA-2876","2018/12/21 19:19:16","新北市中和區景平路239巷73號","121.508138333333","24.99207","6500300","中和區"
