"lineid","car","time","location","longitude","latitude","cityid","cityname"
"234081","298-R6","2018/12/21 20:19:39","新北市永和區國中路104巷2弄1號","121.524455","25.006765","6500400","永和區"
"234038","336-UY","2018/12/21 20:19:34","新北市永和區成功路一段108號","121.526833333333","25.0027766666667","6500400","永和區"
"234064","337-UY","2018/12/21 20:19:38","新北市永和區得和路124號","121.518675","25.0002183333333","6500400","永和區"
"234070","552-UM","2018/12/21 20:19:42","新北市永和區福和路263巷15號","121.51808","25.0064083333333","6500400","永和區"
"234086","553-UM","2018/12/21 20:19:42","新北市永和區永和路二段181號","121.515375","25.01336","6500400","永和區"
"234017","745-BX","2018/12/21 20:19:36","新北市永和區仁愛路85號","121.513143333333","25.0131566666667","6500400","永和區"
"234030","746-BX","2018/12/21 20:19:27","新北市永和區民族街79號","121.518478333333","24.9966466666667","6500400","永和區"
"234054","KEA-2590","2018/12/21 20:19:40","新北市永和區光復街31-1號","121.51668","25.01796","6500400","永和區"
"234007","839-RS","2018/12/21 20:19:32","新北市永和區環河西路二段217巷5號","121.501718333333","25.0098966666667","6500400","永和區"
"234013","KEA-2591","2018/12/21 20:19:40","新北市永和區仁愛路282巷8號","121.503355","25.0086683333333","6500400","永和區"
"234061","AAD-866","2018/12/21 20:19:33","新北市永和區得和路25號","121.515583333333","25.0003466666667","6500400","永和區"
"234042","862-TW","2018/12/21 20:19:27","新北市中和區中安街168號","121.510878333333","24.9998816666667","6500400","永和區"
"234050","863-TW","2018/12/21 20:19:36","新北市永和區新生路2-7號","121.509343333333","25.016975","6500400","永和區"
"249005","172-UM","2018/12/21 20:19:31","新北市八里區下罟子1-5號","121.38906","25.14237","6502300","八里區"
"249001","173-UM","2018/12/21 20:19:36","新北市八里區中華路二段536-4號","121.39906","25.1451583333333","6502300","八里區"
"249004","303-UY","2018/12/21 20:19:40","新北市八里區中山路一段129巷19-1號","121.41392","25.158625","6502300","八里區"
"249002","305-UY","2018/12/21 20:19:42","新北市八里區龍米路一段470號","121.450145","25.1356466666667","6502300","八里區"
"249003","593-UM","2018/12/21 20:19:37","新北市八里區訊塘路72號","121.397885","25.1460633333333","6502300","八里區"
"248014","025-BX","2018/12/21 20:19:29","新北市八里區商港路120號","121.392946666667","25.149985","6501500","五股區"
"248016","026-BX","2018/12/21 20:19:29","新北市五股區天乙路34號","121.448461666667","25.1034833333333","6501500","五股區"
"248012","247-BX","2018/12/21 20:19:42","新北市五股區民義路一段185-7號","121.431313333333","25.088565","6501500","五股區"
"248004","677-BX","2018/12/21 20:19:43","新北市五股區中興路四段23號","121.438813333333","25.0826633333333","6501500","五股區"
"248002","678-BX","2018/12/21 20:19:31","新北市五股區成泰路三段191號","121.445633333333","25.0922966666667","6501500","五股區"
"234023","9380-KE","2018/12/21 20:19:26","新北市永和區永和路二段277號","121.515956666667","25.0155883333333","6500400","永和區"
"234077","969-R7","2018/12/21 20:19:27","新北市永和區民享街8號","121.515206666667","24.9954433333333","6500400","永和區"
"234074","AAC-211","2018/12/21 20:19:24","新北市永和區豫溪街160巷1號","121.523303333333","25.0096133333333","6500400","永和區"
"234067","AAC-212","2018/12/21 20:19:42","新北市永和區保平路268巷11號","121.508383333333","25.005465","6500400","永和區"
"234003","AAC-295","2018/12/21 20:19:27","新北市永和區大新街22號","121.515223333333","25.008385","6500400","永和區"
"243013","AAD-798","2018/12/21 19:56:34","新北市泰山區明志路二段426號","121.424866666667","25.0436566666667","6501600","泰山區"
"243009","297-R6","2018/12/21 20:19:33","新北市泰山區泰林路二段292巷3號","121.431251666667","25.063025","6501600","泰山區"
"243016","KEA-2801","2018/12/21 20:19:40","新北市泰山區明志路二段418號","121.424985","25.043895","6501600","泰山區"
"243015","421-VK","2018/12/21 20:19:36","新北市泰山區仁德路80號","121.432993333333","25.0563783333333","6501600","泰山區"
"243013","539-UM","2018/12/21 20:19:26","新北市泰山區新民路12號","121.426375","25.0446216666667","6501600","泰山區"
"243011","KEA-2215","2018/12/21 20:19:31","新北市泰山區壽山路134巷18號","121.41834","25.0310566666667","6501600","泰山區"
"243010","KEA-2216","2018/12/21 20:19:30","新北市泰山區明志路二段273巷16弄10號","121.42785","25.0468783333333","6501600","泰山區"
"243012","646-TV","2018/12/21 20:19:41","新北市泰山區楓江路43號","121.435315","25.0625466666667","6501600","泰山區"
"243014","680-BX","2018/12/21 20:19:24","新北市泰山區泰林路二段464-1號","121.42558","25.0640716666667","6501600","泰山區"
"222003","436-BY","2018/12/21 20:19:38","新北市深坑區文化街86號","121.617725","25.0019133333333","6501800","深坑區"
"222002","659-BX","2018/12/21 20:19:24","新北市深坑區萬福路75巷48號","121.598233333333","25.00994","6501800","深坑區"
"231041","002-UM","2018/12/21 20:19:38","新北市新店區民權路56號","121.538846666667","24.9829866666667","6500600","新店區"
"231059","046-UY","2018/12/21 20:19:39","新北市新店區安德街81號","121.50977","24.9610133333333","6500600","新店區"
"231040","047-UY","2018/12/21 20:19:27","新北市新店區北新路一段142號","121.54278","24.970655","6500600","新店區"
"231044","106-UY","2018/12/21 20:19:41","新北市新店區北新路三段98號","121.541813333333","24.981025","6500600","新店區"
"231053","108-UY","2018/12/21 20:19:22","新北市新店區松林路2號","121.546725","24.9110116666667","6500600","新店區"
"231062","110-UY","2018/12/21 20:19:37","新北市新店區安泰路7巷16號","121.485746666667","24.9510233333333","6500600","新店區"
"231048","187-VK","2018/12/21 20:19:35","新北市新店區寶橋路88號","121.546696666667","24.9757883333333","6500600","新店區"
"231054","KEA-2219","2018/12/21 20:19:43","新北市新店區檳榔路109號","121.544391666667","24.96171","6500600","新店區"
"221035","KEA-2785","2018/12/21 20:19:31","新北市汐止區長江街101-5號","121.658675","25.0731866666667","6501100","汐止區"
"231057","256-BX","2018/12/21 20:19:30","新北市新店區花園五路二段27號","121.554638333333","24.934595","6500600","新店區"
"231065","260-TV","2018/12/21 20:19:43","新北市新店區安祥路104巷6弄36號","121.4831","24.9629216666667","6500600","新店區"
"231042","268-BY","2018/12/21 20:19:25","新北市新店區中興路二段100巷1號","121.547533333333","24.9715966666667","6500600","新店區"
"231051","278-BY","2018/12/21 20:19:44","新北市新店區溪園路469號","121.52567","24.97712","6500600","新店區"
"231050","AAD-862","2018/12/21 20:19:36","新北市新店區博愛街8巷2號","121.541146666667","24.9734","6500600","新店區"
"231058","3713-VJ","2018/12/21 20:19:40","新北市新店區薏仁坑路自強巷2號","121.497393333333","24.9589033333333","6500600","新店區"
"231066","4716-K9","2018/12/21 20:19:43","新北市新店區安德街60巷21號","121.510495","24.9634166666667","6500600","新店區"
"231056","4715-K9","2018/12/21 20:19:23","新北市新店區中正路302巷14號","121.538093333333","24.975085","6500600","新店區"
"231067","4772-VM","2018/12/21 20:19:37","新北市新店區安康路一段24巷9號","121.531811666667","24.9609866666667","6500600","新店區"
"231045","617-UM","2018/12/21 20:19:23","新北市新店區五峰路145巷7號","121.54621","24.964835","6500600","新店區"
"231061","619-UM","2018/12/21 20:19:41","新北市新店區安興路33-1號","121.515873333333","24.9704633333333","6500600","新店區"
"231063","641-BX","2018/12/21 20:19:41","新北市新店區薏仁坑路自強巷6號","121.496678333333","24.958425","6500600","新店區"
"231068","718-UY","2018/12/21 20:19:41","新北市新店區民權路21號","121.5419","24.982845","6500600","新店區"
"231049","719-UM","2018/12/21 20:19:32","新北市新店區北新路一段319號","121.541648333333","24.96816","6500600","新店區"
"231064","719-UY","2018/12/21 20:19:30","新北市新店區安業街8巷1號","121.51581","24.9772633333333","6500600","新店區"
"231060","897-TW","2018/12/21 20:19:32","新北市新店區錦秀路11巷12號","121.48096","24.9443633333333","6500600","新店區"
"231043","899-TW","2018/12/21 20:19:42","新北市新店區民族路66號","121.539435","24.9783516666667","6500600","新店區"
"231055","AKT-0513","2018/12/21 20:19:31","新北市新店區北新路一段93號","121.539065","24.9619916666667","6500600","新店區"
"241011","013-R5","2018/12/21 20:19:36","新北市三重區龍門路148號","121.498505","25.0730466666667","6500200","三重區"
"241028","022-UY","2018/12/21 20:19:30","新北市三重區大同南路103-2號","121.496275","25.0586116666667","6500200","三重區"
"241008","059-VK","2018/12/21 20:19:38","新北市三重區永福街209號","121.479926666667","25.074365","6500200","三重區"
"241022","060-VK","2018/12/21 20:19:38","新北市三重區新北大道一段28號","121.488303333333","25.0614683333333","6500200","三重區"
"241015","062-VK","2018/12/21 20:19:36","新北市三重區重新路一段128號","121.500233333333","25.0629883333333","6500200","三重區"
"241017","063-VK","2018/12/21 20:19:26","新北市三重區自強路一段201號","121.491656666667","25.068395","6500200","三重區"
"241024","065-VK","2018/12/21 20:19:33","新北市三重區中正北路240號","121.481765","25.0678916666667","6500200","三重區"
"241002","090-VK","2018/12/21 20:19:35","新北市三重區五華街10號","121.49502","25.08012","6500200","三重區"
"241003","091-VK","2018/12/21 20:19:24","新北市三重區富華街69-2號","121.491398333333","25.0836066666667","6500200","三重區"
"241005","262-UM","2018/12/21 20:19:26","新北市三重區分子尾街45號","121.489263333333","25.0821866666667","6500200","三重區"
"241016","266-UM","2018/12/21 20:19:31","新北市三重區大同北路97-3號","121.494365","25.063495","6500200","三重區"
"241009","267-UM","2018/12/21 20:19:43","新北市三重區三和路四段364號","121.482961666667","25.0786583333333","6500200","三重區"
"241018","268-UM","2018/12/21 20:19:39","新北市三重區自強路一段155-1號","121.493518333333","25.0670916666667","6500200","三重區"
"241032","269-UM","2018/12/21 20:19:28","新北市三重區捷運路19巷8弄15號","121.484348333333","25.0572483333333","6500200","三重區"
"241013","270-UM","2018/12/21 20:19:32","新北市三重區三和路三段167巷36號","121.493095","25.0744566666667","6500200","三重區"
"241025","271-UM","2018/12/21 20:19:24","新北市三重區頂崁街210巷2號","121.477211666667","25.0674833333333","6500200","三重區"
"241007","398-BY","2018/12/21 20:19:37","新北市三重區溪尾街108巷26號","121.488423333333","25.0784783333333","6500200","三重區"
"241035","KEA-2210","2018/12/21 20:19:28","新北市三重區正義北路33巷5號","121.497901666667","25.0636816666667","6500200","三重區"
"241031","462-BY","2018/12/21 20:19:29","新北市三重區三寧街22號","121.489511666667","25.059885","6500200","三重區"
"241004","475-VK","2018/12/21 20:19:36","新北市三重區自強路四段107號","121.491481666667","25.079835","6500200","三重區"
"241020","478-VK","2018/12/21 20:19:42","新北市三重區忠孝路一段21巷11-1號","121.49179","25.0727816666667","6500200","三重區"
"241030","480-VK","2018/12/21 20:19:28","新北市三重區集美街75巷27號","121.487843333333","25.0530633333333","6500200","三重區"
"241014","543-UM","2018/12/21 20:19:29","新北市三重區龍門路242號","121.500775","25.0738066666667","6500200","三重區"
"241023","545-UM","2018/12/21 20:19:33","新北市三重區忠孝路三段84巷5號","121.480225","25.0643933333333","6500200","三重區"
"241001","547-UM","2018/12/21 20:19:36","新北市三重區福隆路2號","121.489476666667","25.0774266666667","6500200","三重區"
"241033","557-UM","2018/12/21 19:51:52","新北市三重區五谷王北街42巷8號","121.475396666667","25.04911","6500200","三重區"
"241019","KEA-2593","2018/12/21 20:19:37","新北市三重區重陽路四段77號","121.492543333333","25.070985","6500200","三重區"
"241006","AAD-863","2018/12/21 20:19:24","新北市三重區車路頭街135-1號","121.484241666667","25.0761866666667","6500200","三重區"
"241026","743-BX","2018/12/21 20:19:28","新北市三重區重新路一段52號","121.50272","25.0635983333333","6500200","三重區"
"241012","941-UM","2018/12/21 20:19:29","新北市三重區河邊北街262號","121.501695","25.0764383333333","6500200","三重區"
"235066","003-UY","2018/12/21 20:19:43","新北市中和區保平路326巷11號","121.50669","25.0044316666667","6500300","中和區"
"235039","097-UM","2018/12/21 20:19:25","新北市中和區大勇街29巷12-1號","121.51586","24.994545","6500300","中和區"
"235040","150-BY","2018/12/21 20:19:39","新北市中和區景平路73-1號","121.518803333333","24.99134","6500300","中和區"
"247012","KEA-2869","2018/12/21 20:19:26","新北市蘆洲區中興街15巷3號","121.480386666667","25.0871733333333","6501400","蘆洲區"
"247006","KED-0682","2018/12/21 20:19:31","新北市蘆洲區九芎街153巷4號","121.465166666667","25.0789683333333","6501400","蘆洲區"
"235050","4979-A6","2018/12/21 20:19:32","新北市中和區景平路464巷2弄2號","121.505828333333","24.9939483333333","6500300","中和區"
"235069","4980-A6","2018/12/21 20:19:31","新北市中和區圓通路190號","121.496438333333","24.994515","6500300","中和區"
"235054","640-BX","2018/12/21 20:19:08","新北市五股區中直路13-7號","121.424695","25.1104766666667","6500300","中和區"
"235026","800-TS","2018/12/21 20:19:23","新北市中和區員山路36巷16-3號","121.484983333333","24.991675","6500300","中和區"
"235059","AAC-215","2018/12/21 20:19:36","新北市中和區員山路22-1號","121.48347","24.9847016666667","6500300","中和區"
"247002","893-R6","2018/12/21 20:19:30","新北市蘆洲區長安街335號","121.45726","25.08664","6501400","蘆洲區"
"247016","546-UM","2018/12/21 20:19:33","新北市蘆洲區光華路132巷39號","121.4658","25.083815","6501400","蘆洲區"
"247024","500-BY","2018/12/21 20:19:34","新北市蘆洲區光榮路120巷8弄20號","121.464303333333","25.08775","6501400","蘆洲區"
"247020","057-VK","2018/12/21 20:19:29","新北市蘆洲區仁愛街42號","121.4719","25.093365","6501400","蘆洲區"
"247010","056-VK","2018/12/21 20:19:40","新北市蘆洲區信義路265號","121.478965","25.08488","6501400","蘆洲區"
"247014","053-VK","2018/12/21 20:19:40","新北市蘆洲區成功路60號","121.472548333333","25.080445","6501400","蘆洲區"
"247018","007-UY","2018/12/21 20:19:34","新北市蘆洲區民族路255巷10號","121.476248333333","25.0898283333333","6501400","蘆洲區"
"247004","002-UY","2018/12/21 20:19:29","新北市蘆洲區長安街299巷32號","121.457096666667","25.0846","6501400","蘆洲區"
"247022","001-UY","2018/12/21 20:19:36","新北市蘆洲區民族路552號","121.46771","25.089015","6501400","蘆洲區"
"235065","251-BX","2018/12/21 20:19:33","新北市中和區永和路128巷9號","121.497638333333","25.006935","6500300","中和區"
"222001","KEA-2212","2018/12/21 20:19:39","新北市深坑區北深路三段260號","121.5995","25.0043316666667","6501800","深坑區"
"251004","009-UM","2018/12/21 20:19:40","新北市淡水區民生路117巷54弄2號","121.464576666667","25.1405433333333","6501000","淡水區"
"251008","KEA-2871","2018/12/21 20:19:39","新北市淡水區淡海路180巷20號","121.421441666667","25.184585","6501000","淡水區"
"251010","413-VK","2018/12/21 20:19:42","新北市淡水區新民街一段132號","121.42791","25.188805","6501000","淡水區"
"251012","441-VK","2018/12/21 20:19:41","新北市淡水區下圭柔山431-1號","121.45009","25.2106733333333","6501000","淡水區"
"251001","559-UM","2018/12/21 20:19:29","新北市淡水區淡金路二段507-9號","121.445651666667","25.1891433333333","6501000","淡水區"
"251006","561-UM","2018/12/21 20:19:30","新北市淡水區淡金路一段571號","121.452561666667","25.180455","6501000","淡水區"
"251009","575-R6","2018/12/21 20:19:28","新北市淡水區中正路38-1號","121.443745","25.1692966666667","6501000","淡水區"
"251002","672-BX","2018/12/21 20:19:30","新北市淡水區中正路196號","121.439971666667","25.169995","6501000","淡水區"
"251003","673-BX","2018/12/21 20:19:38","新北市淡水區中山北路一段229號","121.444458333333","25.179485","6501000","淡水區"
"207004","225-TW","2018/12/21 20:19:37","新北市萬里區北基里仁四街2號","121.682053333333","25.1753616666667","6502800","萬里區"
"252002","178-VK","2018/12/21 20:19:41","新北市三芝區中正路一段48號","121.503421666667","25.2581283333333","6502100","三芝區"
"252001","292-VK","2018/12/21 20:19:24","新北市三芝區中山路一段14號","121.500693333333","25.2580533333333","6502100","三芝區"
"237006","5529-G3","2018/12/21 20:19:35","新北市三峽區中正路二段41號","121.366728333333","24.9187566666667","6500900","三峽區"
"236069","105-UM","2018/12/21 20:19:33","新北市土城區三民路25號","121.420078333333","24.9637333333333","6501300","土城區"
"236030","253-BX","2018/12/21 20:19:33","新北市土城區學成路128巷11號","121.449536666667","24.99006","6501300","土城區"
"236026","269-VK","2018/12/21 20:19:39","新北市土城區裕生路82巷9號","121.446883333333","24.9858266666667","6501300","土城區"
"236014","270-VK","2018/12/21 20:19:34","新北市土城區四川路22號","121.455226666667","24.99595","6501300","土城區"
"247008","KED-0683","2018/12/21 20:19:40","新北市蘆洲區集賢路300號","121.481521666667","25.0850533333333","6501400","蘆洲區"
"242037","AAC-296","2018/12/21 20:10:39","新北市新莊區建安街95號","121.426926666667","25.0243466666667","6500500","新莊區"
"242058","986-R7","2018/12/21 20:19:40","新北市新莊區龍安路266巷3號","121.421645","25.019115","6500500","新莊區"
"242027","615-BX","2018/12/21 20:19:45","新北市新莊區幸福路700號","121.449973333333","25.04921","6500500","新莊區"
"242025","613-BX","2018/12/21 20:19:03","新北市新莊區五工一路80巷8號","121.461388333333","25.0670566666667","6500500","新莊區"
"242029","612-BX","2018/12/21 20:19:39","新北市新莊區中華路二段201號","121.452306666667","25.052695","6500500","新莊區"
"242044","566-BX","2018/12/21 20:19:35","新北市新莊區中正路893巷1-19號","121.413118333333","25.0211933333333","6500500","新莊區"
"242048","497-BY","2018/12/21 20:19:34","新北市新莊區龍安路218號","121.420225","25.019905","6500500","新莊區"
"242002","440-UM","2018/12/21 20:19:33","新北市新莊區化成路82號","121.465136666667","25.0438516666667","6500500","新莊區"
"242039","415-TV","2018/12/21 20:19:40","新北市新莊區成功街78-1號","121.42416","25.0188466666667","6500500","新莊區"
"242009","413-TV","2018/12/21 20:19:37","新北市新莊區昌盛街65巷2弄1號","121.454905","25.05016","6500500","新莊區"
"242046","400-BY","2018/12/21 20:19:41","新北市新莊區中正路新生巷7弄2號","121.41727","25.0240116666667","6500500","新莊區"
"242023","362-BY","2018/12/21 20:19:36","新北市新莊區化成路832號","121.464865","25.0601716666667","6500500","新莊區"
"242060","353-BY","2018/12/21 20:19:38","新北市新莊區瓊林路206-6號","121.435691666667","25.022105","6500500","新莊區"
"242011","132-UY","2018/12/21 20:19:24","新北市新莊區中信街23巷1號","121.451006666667","25.050465","6500500","新莊區"
"242034","135-UY","2018/12/21 20:19:30","新北市新莊區建中街90巷3弄2號","121.446816666667","25.0372816666667","6500500","新莊區"
"242050","172-VK","2018/12/21 20:19:42","新北市新莊區民安西路252巷9號","121.42572","25.0134033333333","6500500","新莊區"
"242013","173-VK","2018/12/21 20:19:29","新北市新莊區中平路270巷7弄47號","121.446535","25.0509833333333","6500500","新莊區"
"242019","175-VK","2018/12/21 20:19:39","新北市新莊區銘德街83號","121.456246666667","25.0435133333333","6500500","新莊區"
"242007","176-VK","2018/12/21 20:19:44","新北市新莊區福壽街94巷5號","121.45863","25.0501316666667","6500500","新莊區"
"242017","KED-0687","2018/12/21 20:19:29","新北市新莊區中港一街97號","121.449178333333","25.0452116666667","6500500","新莊區"
"242054","346-TH","2018/12/21 20:19:42","新北市新莊區西盛街388巷1號","121.427546666667","25.0129333333333","6500500","新莊區"
"242032","348-TH","2018/12/21 20:19:25","新北市新莊區義豐街23號","121.441043333333","25.0350783333333","6500500","新莊區"
"242005","349-TH","2018/12/21 20:19:43","新北市新莊區頭前路2巷6號","121.468461666667","25.0528716666667","6500500","新莊區"
"242015","351-TH","2018/12/21 20:19:42","新北市新莊區永樂街220號","121.446711666667","25.0443883333333","6500500","新莊區"
"221008","489-VK","2018/12/21 20:19:25","台北市內湖區康樂街138號","121.619375","25.072335","6501100","汐止區"
"221036","130-UY","2018/12/21 20:19:28","新北市汐止區福安街37巷6號","121.663203333333","25.0650033333333","6501100","汐止區"
"221015","131-UY","2018/12/21 20:19:40","新北市汐止區建成路142巷19弄9號","121.662003333333","25.07372","6501100","汐止區"
"221010","269-BY","2018/12/21 20:19:42","新北市汐止區八連路二段450號","121.62842","25.1043033333333","6501100","汐止區"
"221012","278-VK","2018/12/21 20:19:38","新北市汐止區保新街159號","121.688443333333","25.0691633333333","6501100","汐止區"
"221023","279-VK","2018/12/21 20:19:30","新北市汐止區湖東街5巷12號","121.634075","25.0729833333333","6501100","汐止區"
"221032","280-BY","2018/12/21 20:19:23","新北市汐止區弘道街57號","121.61889","25.0483316666667","6501100","汐止區"
"221027","281-BY","2018/12/21 20:19:40","新北市汐止區大同路二段355號","121.65706","25.0672616666667","6501100","汐止區"
"221029","298-VK","2018/12/21 20:19:37","新北市汐止區樟樹一路99巷7弄5號","121.641223333333","25.0634333333333","6501100","汐止區"
"221021","299-VK","2018/12/21 20:19:46","新北市汐止區水源路一段286號","121.654271666667","25.058245","6501100","汐止區"
"221031","353-TW","2018/12/21 20:19:41","新北市汐止區中興路150巷11號","121.632826666667","25.0648333333333","6501100","汐止區"
"221025","623-UM","2018/12/21 20:19:40","新北市汐止區水源路二段34號","121.655023333333","25.05727","6501100","汐止區"
"221038","646-BX","2018/12/21 20:19:27","新北市汐止區忠孝東路430號","121.666085","25.0721483333333","6501100","汐止區"
"221033","647-BX","2018/12/21 20:19:35","新北市汐止區東勢街78-1號","121.63313","25.0407066666667","6501100","汐止區"
"221002","707-TV","2018/12/21 20:19:30","新北市汐止區福德一路86巷25號","121.637563333333","25.068845","6501100","汐止區"
"221018","753-BX","2018/12/21 20:19:27","新北市汐止區茄苳路256號","121.671673333333","25.06821","6501100","汐止區"
"220083","286-VK","2018/12/21 20:19:27","新北市板橋區僑中二街102巷48號","121.444283333333","25.00871","6500100","板橋區"
"220081","287-VK","2018/12/21 20:19:23","新北市板橋區大觀路一段28巷98號","121.450588333333","25.0109783333333","6500100","板橋區"
"220061","295-UM","2018/12/21 20:19:41","新北市板橋區四川路一段387號","121.457533333333","24.9989983333333","6500100","板橋區"
"242041","281-VK","2018/12/21 20:19:37","新北市新莊區天祥街54巷2弄2號","121.416806666667","25.02931","6500500","新莊區"
"242056","280-VK","2018/12/21 20:19:38","新北市新莊區豐年街28巷14號","121.445641666667","25.032365","6500500","新莊區"
"220103","561-BX","2018/12/21 20:19:30","新北市板橋區漢生東路53巷21號","121.466561666667","25.0172733333333","6500100","板橋區"
"220055","630-UY","2018/12/21 20:19:42","新北市板橋區重慶路290巷22弄10號","121.462326666667","24.999355","6500100","板橋區"
"220054","741-BX","2018/12/21 20:19:29","新北市五股區新五路二段130-1號","121.438246666667","25.0783533333333","6500100","板橋區"
"220074","895-R6","2018/12/21 20:19:33","新北市板橋區縣民大道一段181號","121.457711666667","25.006965","6500100","板橋區"
"220064","AAC-253","2018/12/21 20:19:38","新北市三重區光復路二段87巷63號","121.475523333333","25.05866","6500100","板橋區"
