"lineid","car","time","location","longitude","latitude","cityid","cityname"
"231059","046-UY","2018/12/21 20:59:39","新北市新店區僑信路124號","121.500543333333","24.9462466666667","6500600","新店區"
"231040","047-UY","2018/12/21 20:59:36","新北市新店區中正路162號","121.541333333333","24.971855","6500600","新店區"
"231053","108-UY","2018/12/21 20:59:42","新北市新店區環河路29巷1號","121.53647","24.9613383333333","6500600","新店區"
"231062","110-UY","2018/12/21 20:59:37","新北市新店區裕合街116號","121.490328333333","24.949055","6500600","新店區"
"231048","187-VK","2018/12/21 20:59:35","新北市新店區寶元路一段109號","121.545691666667","24.9831166666667","6500600","新店區"
"231054","KEA-2219","2018/12/21 20:59:43","新北市新店區五峰路31號","121.544216666667","24.9690666666667","6500600","新店區"
"221035","KEA-2785","2018/12/21 20:59:31","新北市汐止區汐萬路一段256巷3號","121.652441666667","25.0745616666667","6501100","汐止區"
"231065","260-TV","2018/12/21 20:59:43","新北市新店區安祥路69巷54弄18號","121.482506666667","24.9588983333333","6500600","新店區"
"231042","268-BY","2018/12/21 20:59:25","新北市新店區寶高路102巷20號","121.552458333333","24.97399","6500600","新店區"
"231051","278-BY","2018/12/21 20:59:24","新北市新店區中正路663巷1弄15號","121.532815","24.9899033333333","6500600","新店區"
"231050","AAD-862","2018/12/21 20:59:35","新北市新店區三民路41號","121.537223333333","24.9708466666667","6500600","新店區"
"231058","3713-VJ","2018/12/21 20:59:40","新北市新店區安興路137-1號","121.516158333333","24.9794066666667","6500600","新店區"
"231066","4716-K9","2018/12/21 20:59:42","新北市新店區吉安街9號","121.51675","24.9656916666667","6500600","新店區"
"231067","4772-VM","2018/12/21 20:59:37","新北市新店區安德街130巷10號","121.508206666667","24.9608016666667","6500600","新店區"
"231061","619-UM","2018/12/21 20:59:41","新北市新店區永安街93號","121.520246666667","24.9862416666667","6500600","新店區"
"231063","641-BX","2018/12/21 20:59:41","新北市新店區玫瑰路58巷2號","121.495335","24.946625","6500600","新店區"
"231049","719-UM","2018/12/21 20:58:31","新北市新店區安德街148巷31號","121.506773333333","24.96107","6500600","新店區"
"231064","719-UY","2018/12/21 20:59:30","新北市新店區安民街65巷17-1號","121.515295","24.9669366666667","6500600","新店區"
"231060","897-TW","2018/12/21 20:59:32","新北市新店區安康路三段131號","121.48986","24.9518366666667","6500600","新店區"
"231043","899-TW","2018/12/21 20:59:41","新北市新店區溪園路395號","121.523585","24.9774383333333","6500600","新店區"
"241011","013-R5","2018/12/21 20:59:36","新北市三重區秀江街117號","121.49975","25.0721933333333","6500200","三重區"
"241028","022-UY","2018/12/21 20:59:29","新北市三重區重新路二段68號","121.497645","25.062095","6500200","三重區"
"241008","059-VK","2018/12/21 20:59:38","新北市三重區車路頭街135-1號","121.484243333333","25.0759716666667","6500200","三重區"
"241022","060-VK","2018/12/21 20:59:38","新北市三重區過圳街27-5號","121.487963333333","25.0624033333333","6500200","三重區"
"241015","062-VK","2018/12/21 20:59:36","新北市三重區福德北路46號","121.502046666667","25.0654066666667","6500200","三重區"
"241017","063-VK","2018/12/21 20:59:26","新北市三重區國隆路28號","121.492385","25.064335","6500200","三重區"
"241024","065-VK","2018/12/21 20:59:33","新北市三重區大勇街82巷15弄30號","121.481191666667","25.071965","6500200","三重區"
"241002","090-VK","2018/12/21 20:59:29","新北市三重區五華街1巷2號","121.495556666667","25.079795","6500200","三重區"
"241003","091-VK","2018/12/21 20:59:45","新北市三重區進安街196號","121.493725","25.0861516666667","6500200","三重區"
"241005","262-UM","2018/12/21 20:59:45","新北市三重區三信路186號","121.488041666667","25.0860433333333","6500200","三重區"
"241016","266-UM","2018/12/21 20:59:31","新北市三重區自強路一段77號","121.496311666667","25.06642","6500200","三重區"
"241009","267-UM","2018/12/21 20:59:22","新北市三重區三和路四段360-4號","121.483085","25.0786116666667","6500200","三重區"
"241018","268-UM","2018/12/21 20:59:39","新北市三重區自強路一段155-1號","121.493691666667","25.0672616666667","6500200","三重區"
"241032","269-UM","2018/12/21 20:59:42","新北市三重區三陽路133號","121.483115","25.0589033333333","6500200","三重區"
"241013","270-UM","2018/12/21 20:59:32","新北市三重區仁賢街12-1號","121.495716666667","25.074825","6500200","三重區"
"241025","271-UM","2018/12/21 20:59:24","新北市三重區貴陽街14號","121.484175","25.061775","6500200","三重區"
"241007","398-BY","2018/12/21 20:59:37","新北市三重區三和路四段163巷77號","121.485991666667","25.0792383333333","6500200","三重區"
"241031","462-BY","2018/12/21 20:59:34","新北市三重區重陽路一段113巷6號","121.487731666667","25.0599333333333","6500200","三重區"
"241004","475-VK","2018/12/21 20:59:36","新北市三重區仁愛街420號","121.490408333333","25.0814066666667","6500200","三重區"
"241020","478-VK","2018/12/21 20:59:42","新北市三重區忠孝路二段34號","121.485741666667","25.0709883333333","6500200","三重區"
"241030","480-VK","2018/12/21 20:59:28","新北市三重區環河南路220-8號","121.493358333333","25.0525866666667","6500200","三重區"
"241014","543-UM","2018/12/21 20:59:29","新北市三重區長壽街120巷19弄9號","121.502486666667","25.0691733333333","6500200","三重區"
"241023","545-UM","2018/12/21 20:59:33","新北市三重區忠孝路三段84巷63號","121.48234","25.063735","6500200","三重區"
"241001","547-UM","2018/12/21 20:59:35","新北市三重區自強路三段83號","121.487443333333","25.07471","6500200","三重區"
"241033","557-UM","2018/12/21 20:57:12","新北市新莊區永安街175號","121.448761666667","25.0442583333333","6500200","三重區"
"241019","KEA-2593","2018/12/21 20:59:37","新北市三重區自強路二段74巷21號","121.48793","25.0698716666667","6500200","三重區"
"241006","AAD-863","2018/12/21 20:59:24","新北市三重區下竹圍街1號","121.480891666667","25.076385","6500200","三重區"
"241026","743-BX","2018/12/21 20:59:28","新北市三重區文化南路45號","121.5002","25.0613566666667","6500200","三重區"
"241012","941-UM","2018/12/21 20:59:29","新北市三重區仁信街29號","121.501235","25.07556","6500200","三重區"
"247012","KEA-2869","2018/12/21 20:59:46","新北市蘆洲區民權路5號","121.476608333333","25.0858283333333","6501400","蘆洲區"
"247006","KED-0682","2018/12/21 20:59:31","新北市蘆洲區永安南路二段16巷18號","121.468018333333","25.077795","6501400","蘆洲區"
"235069","4980-A6","2018/12/21 20:59:30","新北市中和區中正路637巷16號","121.484606666667","24.9951633333333","6500300","中和區"
"247002","893-R6","2018/12/21 20:59:34","新北市蘆洲區永樂街38巷8號","121.45821","25.088805","6501400","蘆洲區"
"247016","546-UM","2018/12/21 20:59:32","新北市蘆洲區正和街83號","121.468231666667","25.080715","6501400","蘆洲區"
"247024","500-BY","2018/12/21 20:59:33","新北市蘆洲區光明路20號","121.46122","25.08639","6501400","蘆洲區"
"247020","057-VK","2018/12/21 20:59:29","新北市蘆洲區民族路371號","121.471155","25.0912016666667","6501400","蘆洲區"
"247010","056-VK","2018/12/21 20:59:40","新北市蘆洲區鷺江街102號","121.477105","25.084075","6501400","蘆洲區"
"247014","053-VK","2018/12/21 20:59:40","新北市蘆洲區得勝街68號","121.472558333333","25.083465","6501400","蘆洲區"
"247018","007-UY","2018/12/21 20:59:34","新北市蘆洲區民權路144號","121.472816666667","25.0892033333333","6501400","蘆洲區"
"247004","002-UY","2018/12/21 20:59:29","新北市蘆洲區永安南路二段268號","121.458663333333","25.0807433333333","6501400","蘆洲區"
"247022","001-UY","2018/12/21 20:59:36","新北市蘆洲區中正路263巷2號","121.46719","25.0876433333333","6501400","蘆洲區"
"251004","009-UM","2018/12/21 20:59:34","新北市淡水區中正東路二段161巷8弄13號","121.461593333333","25.1456566666667","6501000","淡水區"
"251010","413-VK","2018/12/21 20:59:42","新北市淡水區淡海路22號","121.424023333333","25.1787166666667","6501000","淡水區"
"251012","441-VK","2018/12/21 20:59:41","新北市淡水區淡金路五段116-1號","121.456531666667","25.2370333333333","6501000","淡水區"
"251005","443-VK","2018/12/21 20:49:55","新北市淡水區水源街二段124號","121.45309","25.1747183333333","6501000","淡水區"
"251001","559-UM","2018/12/21 20:59:29","新北市淡水區淡金路二段147號","121.449635","25.1829233333333","6501000","淡水區"
"251011","650-BX","2018/12/21 20:59:34","新北市淡水區新民街300號","121.435085","25.1827516666667","6501000","淡水區"
"251002","672-BX","2018/12/21 20:59:30","新北市淡水區英專路112號","121.445955","25.1721483333333","6501000","淡水區"
"251003","673-BX","2018/12/21 20:59:38","新北市淡水區新春街125巷51號","121.440575","25.1828316666667","6501000","淡水區"
"252001","702-TV","2018/12/21 20:59:29","新北市三芝區埔坪里埔頭坑41號","121.50424","25.2643633333333","6502100","三芝區"
"247008","KED-0683","2018/12/21 20:59:40","新北市蘆洲區民生街76號","121.47291","25.0791133333333","6501400","蘆洲區"
"242005","349-TH","2018/12/21 20:59:40","新北市新莊區環河路636-7號","121.437175","25.011845","6500500","新莊區"
"220054","741-BX","2018/12/21 20:59:29","新北市林口區太平里180號","121.366681666667","25.1340516666667","6500100","板橋區"
"220064","AAC-253","2018/12/21 20:59:38","新北市林口區太平里180號","121.36669","25.1340066666667","6500100","板橋區"
