"lineid","car","time","location","longitude","latitude","cityid","cityname"
"234040","862-TW","2018/12/21 21:57:51","新北市永和區福和路1號","121.526303333333","25.00977","6500400","永和區"
"251004","009-UM","2018/12/21 22:19:14","新北市淡水區民族路72號","121.462295","25.13568","6501000","淡水區"
"251008","KEA-2871","2018/12/21 22:18:59","新北市淡水區學府路104號","121.449903333333","25.17181","6501000","淡水區"
"251010","413-VK","2018/12/21 22:19:02","新北市淡水區沙崙路200號","121.424771666667","25.1839083333333","6501000","淡水區"
"251007","577-R6","2018/12/21 22:19:03","新北市淡水區北新路180號","121.449468333333","25.178775","6501000","淡水區"
"251011","650-BX","2018/12/21 22:19:14","新北市淡水區水碓街7號","121.443166666667","25.177165","6501000","淡水區"
