"lineid","car","time","location","longitude","latitude","cityid","cityname"
"232004","290-BY","2018/12/22 06:59:12","新北市坪林區坪雙路一段88號","121.720861666667","24.9452533333333","6502000","坪林區"
"232016","291-BY","2018/12/22 06:59:11","新北市坪林區仁里11-1號","121.691163333333","24.9283483333333","6502000","坪林區"
"232009","758-BX","2018/12/22 06:59:10","新北市坪林區九芎林24-2號","121.704058333333","24.92486","6502000","坪林區"
"244005","248-BX","2018/12/22 06:59:21","新北市林口區中山路522號","121.378511666667","25.083335","6501700","林口區"
"235001","611-BX","2018/12/22 06:59:08","新北市中和區圓通路367巷6號","121.491486666667","24.9892016666667","6500300","中和區"
"226003","AGD-0702","2018/12/22 06:59:07","新北市平溪區石底里公園街18-3號","121.73339","25.0257466666667","6502400","平溪區"
"223006","022-BY","2018/12/22 06:59:26","新北市石碇區新興坑30號","121.647733333333","25.0184933333333","6501900","石碇區"
"223002","KEA-2673","2018/12/22 06:59:22","新北市石碇區小粗坑(格頭里)3-1號","121.652546666667","24.9588133333333","6501900","石碇區"
"223003","205-TH","2018/12/22 06:59:20","新北市石碇區石崁35-2號","121.65771","24.9927133333333","6501900","石碇區"
"223008","406-TH","2018/12/22 06:59:11","新北市石碇區十八重溪67-1號","121.673211666667","25.0127833333333","6501900","石碇區"
"223004","437-BY","2018/12/22 06:59:15","新北市石碇區碇坪路一段52號","121.656936666667","24.99154","6501900","石碇區"
"223001","592-UM","2018/12/22 06:59:12","新北市石碇區石崁35-2號","121.657723333333","24.99272","6501900","石碇區"
"223007","661-BX","2018/12/22 06:59:23","新北市石碇區十八重溪45號","121.675543333333","25.0124916666667","6501900","石碇區"
"223005","677-TV","2018/12/22 06:59:08","新北市石碇區碇坪路一段66號","121.65723","24.9915816666667","6501900","石碇區"
"227006","282-VK","2018/12/22 06:59:26","新北市雙溪區新基里自強路5號","121.86636","25.0390466666667","6502500","雙溪區"
"252004","249-BX","2018/12/22 06:59:13","新北市三芝區埔坪里埔頭坑41號","121.504495","25.2645","6502100","三芝區"
"252007","AAC-283","2018/12/22 06:59:10","新北市三芝區埔坪里埔頭坑41號","121.504586666667","25.2633583333333","6502100","三芝區"
