"lineid","car","time","location","longitude","latitude","cityid","cityname"
"232004","290-BY","2018/12/22 07:09:14","新北市坪林區粗石斛6-1號","121.750048333333","24.9524233333333","6502000","坪林區"
"232016","291-BY","2018/12/22 07:09:14","新北市坪林區金瓜寮12號","121.681601666667","24.91611","6502000","坪林區"
"232010","375-UM","2018/12/22 07:09:27","新北市坪林區水聳淒坑15-2號","121.721768333333","24.9303183333333","6502000","坪林區"
"232009","758-BX","2018/12/22 07:09:10","新北市坪林區魚堀55-1號","121.706583333333","24.9295933333333","6502000","坪林區"
"244005","248-BX","2018/12/22 07:09:21","新北市林口區南勢里73-2-20號","121.353405","25.0784516666667","6501700","林口區"
"222004","289-BY","2018/12/22 07:09:16","新北市深坑區深坑街75號","121.614631666667","25.0011683333333","6501800","深坑區"
"235001","611-BX","2018/12/22 07:09:08","新北市中和區圓通路367巷8號","121.49159","24.989195","6500300","中和區"
"226005","5620-A6","2018/12/22 07:09:09","新北市平溪區石底里石筍尖23號","121.729166666667","25.025285","6502400","平溪區"
"226007","7418-A5","2018/12/22 07:09:21","新北市平溪區石底里公園街17號","121.73732","25.0248716666667","6502400","平溪區"
"226003","AGD-0702","2018/12/22 07:09:07","新北市平溪區嶺腳里中華街7-1號","121.742821666667","25.0258033333333","6502400","平溪區"
"223006","022-BY","2018/12/22 07:09:06","新北市石碇區深按6號","121.660401666667","25.017265","6501900","石碇區"
"223002","KEA-2673","2018/12/22 07:09:22","新北市石碇區碇格路二段42號","121.636173333333","24.954955","6501900","石碇區"
"223003","205-TH","2018/12/22 07:09:28","新北市石碇區石碇西街21號","121.658673333333","24.9879916666667","6501900","石碇區"
"223008","406-TH","2018/12/22 07:09:11","新北市石碇區番子坑23號","121.674075","25.0017133333333","6501900","石碇區"
"223004","437-BY","2018/12/22 07:09:15","新北市石碇區碇坪路一段18號","121.65158","25.0035766666667","6501900","石碇區"
"223001","592-UM","2018/12/22 07:09:12","新北市石碇區石碇西街21號","121.659036666667","24.9864383333333","6501900","石碇區"
"223007","661-BX","2018/12/22 07:09:22","新北市石碇區番子坑14-2號","121.680405","25.002115","6501900","石碇區"
"223005","677-TV","2018/12/22 07:09:28","新北市石碇區石崁1號","121.651648333333","25.0019316666667","6501900","石碇區"
"227006","282-VK","2018/12/22 07:09:26","新北市雙溪區新基里自強路5號","121.86635","25.0390583333333","6502500","雙溪區"
"252004","249-BX","2018/12/22 07:09:20","新北市三芝區錫板里小坑子11-1號","121.503243333333","25.2378216666667","6502100","三芝區"
"252007","AAC-283","2018/12/22 07:09:10","新北市三芝區福德里埔尾2-1號","121.501358333333","25.2477066666667","6502100","三芝區"
