"lineid","car","time","location","longitude","latitude","cityid","cityname"
"232010","375-UM","2018/12/22 07:39:27","新北市坪林區磨壁潭9號","121.72227","24.9384583333333","6502000","坪林區"
"244005","248-BX","2018/12/22 07:38:41","新北市林口區下福里1鄰7號","121.323398333333","25.0960266666667","6501700","林口區"
"222004","289-BY","2018/12/22 07:39:15","新北市深坑區文化街39巷1號","121.618898333333","25.0011766666667","6501800","深坑區"
"231008","192-VK","2018/12/22 07:39:15","新北市新店區安一路一段1-1號","121.519401666667","24.9613616666667","6500600","新店區"
"235001","611-BX","2018/12/22 07:39:08","新北市中和區圓通路367巷6號","121.49157","24.9892566666667","6500300","中和區"
"226005","5620-A6","2018/12/22 07:39:29","新北市平溪區石底里公園街22號","121.737546666667","25.0246966666667","6502400","平溪區"
"226007","7418-A5","2018/12/22 07:39:21","新北市平溪區南山里南山坪21號","121.772528333333","25.0373266666667","6502400","平溪區"
"226003","AGD-0702","2018/12/22 07:36:47","新北市平溪區嶺腳里嶺腳寮83-2號","121.750983333333","25.03535","6502400","平溪區"
"223006","022-BY","2018/12/22 07:39:16","新北市石碇區碇格路二段16-5號","121.640525","24.95387","6501900","石碇區"
"223002","KEA-2673","2018/12/22 07:28:18","新北市石碇區烏塗窟16-2號","121.6563","24.9756166666667","6501900","石碇區"
"223003","205-TH","2018/12/22 07:27:19","新北市石碇區蓬菜寮17號","121.649133333333","24.9721016666667","6501900","石碇區"
"223004","437-BY","2018/12/22 07:39:14","新北市石碇區八分寮47號","121.642165","25.0137916666667","6501900","石碇區"
"223001","592-UM","2018/12/22 07:39:12","新北市石碇區中楒子腳1號","121.645741666667","24.9708866666667","6501900","石碇區"
"223007","661-BX","2018/12/22 07:35:19","新北市石碇區靜安路一段337號","121.698575","25.0145833333333","6501900","石碇區"
"223005","677-TV","2018/12/22 07:39:28","新北市石碇區八分寮47號","121.642168333333","25.013935","6501900","石碇區"
"227006","282-VK","2018/12/22 07:39:26","新北市雙溪區雙溪里太平路54號","121.864813333333","25.0354483333333","6502500","雙溪區"
"252004","249-BX","2018/12/22 07:39:13","新北市三芝區店子里菜公坑76-1號","121.509411666667","25.20579","6502100","三芝區"
"252007","AAC-283","2018/12/22 07:39:10","新北市三芝區古庄里四棧橋57號","121.484233333333","25.2648366666667","6502100","三芝區"
"237001","159-UY","2018/12/22 07:39:15","新北市三峽區隆恩街162號","121.365246666667","24.9432433333333","6500900","三峽區"
