"lineid","car","time","location","longitude","latitude","cityid","cityname"
"244005","248-BX","2018/12/22 07:49:21","新北市林口區下福里13號","121.317468333333","25.106375","6501700","林口區"
"222004","289-BY","2018/12/22 07:49:15","新北市深坑區文化街45號","121.617018333333","25.0017783333333","6501800","深坑區"
"231008","192-VK","2018/12/22 07:49:15","新北市新店區安康路一段355號","121.519825","24.9632466666667","6500600","新店區"
"235001","611-BX","2018/12/22 07:49:08","新北市中和區圓通路367巷4號","121.491468333333","24.989345","6500300","中和區"
"226005","5620-A6","2018/12/22 07:49:09","新北市平溪區嶺腳里中華街52號","121.739203333333","25.0248316666667","6502400","平溪區"
"226007","7418-A5","2018/12/22 07:49:21","新北市平溪區平湖里大湖9號","121.781165","25.0262933333333","6502400","平溪區"
"226003","AGD-0702","2018/12/22 07:36:47","新北市平溪區嶺腳里嶺腳寮83-2號","121.750983333333","25.03535","6502400","平溪區"
"223006","022-BY","2018/12/22 07:49:25","新北市石碇區北宜路五段1號","121.625398333333","24.9540266666667","6501900","石碇區"
"223002","KEA-2673","2018/12/22 07:49:14","新北市石碇區溪邊寮1號","121.658236666667","24.979415","6501900","石碇區"
"223003","205-TH","2018/12/22 07:49:19","新北市石碇區烏塗窟8號","121.655848333333","24.9750983333333","6501900","石碇區"
"223004","437-BY","2018/12/22 07:49:14","新北市石碇區楓子林30號","121.642303333333","25.00954","6501900","石碇區"
"223001","592-UM","2018/12/22 07:49:12","新北市石碇區烏塗窟8號","121.655865","24.975005","6501900","石碇區"
"223007","661-BX","2018/12/22 07:35:19","新北市石碇區靜安路一段337號","121.698575","25.0145833333333","6501900","石碇區"
"223005","677-TV","2018/12/22 07:49:08","新北市石碇區楓子林30號","121.642268333333","25.0096633333333","6501900","石碇區"
"227006","282-VK","2018/12/22 07:49:06","新北市雙溪區雙溪里太平路54號","121.864903333333","25.0354566666667","6502500","雙溪區"
"249004","440-VK","2018/12/22 07:49:27","新北市八里區挖子尾街16號","121.415165","25.164375","6502300","八里區"
"252004","249-BX","2018/12/22 07:49:13","新北市三芝區店子里菜公坑99-4號","121.514121666667","25.2067933333333","6502100","三芝區"
"252007","AAC-283","2018/12/22 07:49:10","新北市三芝區海景一街2-1號","121.47409","25.2457966666667","6502100","三芝區"
"237001","159-UY","2018/12/22 07:49:15","新北市三峽區三樹路128-1號","121.378135","24.939835","6500900","三峽區"
