"lineid","car","time","location","longitude","latitude","cityid","cityname"
"248005","653-BX","2018/06/14 07:29:32","新北市五股區明德路10號","121.433371666667","25.071725","6501500","五股區"
"232001","290-BY","2018/06/14 07:29:39","新北市坪林區上坑子口9-1號","121.701055","24.96265","6502000","坪林區"
"232014","291-BY","2018/06/14 07:29:26","新北市坪林區金瓜寮23-3號","121.677948333333","24.91045","6502000","坪林區"
"232010","375-UM","2018/06/14 07:29:34","新北市坪林區苦苓腳1號","121.713578333333","24.936395","6502000","坪林區"
"232018","705-BZ","2018/06/14 07:29:41","新北市坪林區坪雙路二段17號","121.730736666667","24.9659816666667","6502000","坪林區"
"232007","758-BX","2018/06/14 07:29:34","新北市坪林區魚堀40-1號","121.700681666667","24.9310333333333","6502000","坪林區"
"244003","248-BX","2018/06/14 07:29:34","新北市林口區頂福里71-94號","121.350385","25.0825983333333","6501700","林口區"
"222006","289-BY","2018/06/14 07:22:44","新北市深坑區文化街39巷13號","121.619003333333","25.0011066666667","6501800","深坑區"
"235044","293-VK","2018/06/14 07:29:42","新北市中和區和平街29-1號","121.507571666667","24.9909883333333","6500300","中和區"
"226005","5620-A6","2018/06/14 07:29:27","新北市平溪區菁桐里菁桐街167號","121.721935","25.0227016666667","6502400","平溪區"
"226007","7418-A5","2018/06/14 07:18:10","新北市平溪區望古里灰4-2號","121.763385","25.0294","6502400","平溪區"
"226003","AGD-0702","2018/06/14 07:29:41","新北市平溪區望古里望古坑1-2號","121.745733333333","25.0388366666667","6502400","平溪區"
"223006","022-BY","2018/06/14 07:29:27","新北市石碇區靜安路一段252號","121.67749","25.0105066666667","6501900","石碇區"
"223002","KEA-2673","2018/06/14 07:29:44","新北市石碇區北宜路五段竹坑巷23-1號","121.625428333333","24.93906","6501900","石碇區"
"223003","205-TH","2018/06/14 07:29:31","新北市石碇區中楒子腳2-5號","121.637551666667","24.9725366666667","6501900","石碇區"
"223008","406-TH","2018/06/14 07:19:51","新北市石碇區靜安路一段337號","121.698748333333","25.0146966666667","6501900","石碇區"
"223001","592-UM","2018/06/14 07:29:29","新北市石碇區中楒子腳2-15號","121.638378333333","24.9732866666667","6501900","石碇區"
"223004","660-BX","2018/06/14 07:29:26","新北市石碇區八分寮56號","121.64443","25.0175583333333","6501900","石碇區"
"223007","661-BX","2018/06/14 07:29:27","新北市石碇區靜安路一段337號","121.69892","25.0145016666667","6501900","石碇區"
"223005","677-TV","2018/06/14 07:29:36","新北市石碇區八分寮35-1號","121.64482","25.0142983333333","6501900","石碇區"
"227007","282-VK","2018/06/14 07:29:28","新北市雙溪區新基里自強路7號","121.866283333333","25.0390016666667","6502500","雙溪區"
"252004","702-TV","2018/06/14 07:29:47","新北市三芝區店子里店子46-4號","121.50252","25.2084966666667","6502100","三芝區"
"252007","AAC-283","2018/06/14 07:29:16","新北市三芝區淡金路一段4-5號","121.4983","25.26","6502100","三芝區"
"237001","159-UY","2018/06/14 07:29:35","新北市三峽區隆恩街158巷46號","121.366916666667","24.944695","6500900","三峽區"
"236009","165-UM","2018/06/14 07:29:28","新北市土城區延壽路2號","121.471526666667","24.9902166666667","6501300","土城區"
"236003","339-SR","2018/06/14 07:29:42","新北市土城區忠義路115號","121.445486666667","24.9629816666667","6501300","土城區"
"242052","751-BX","2018/06/14 07:29:30","新北市新莊區新泰路357巷3弄57號","121.442026666667","25.0392333333333","6500500","新莊區"
"242026","615-BX","2018/06/14 07:29:27","新北市新莊區新泰路255巷83號","121.442186666667","25.0388083333333","6500500","新莊區"
"242040","566-BX","2018/06/14 07:29:41","新北市新莊區新泰路357巷3弄57號","121.441953333333","25.0390883333333","6500500","新莊區"
"242045","497-BY","2018/06/14 07:29:37","新北市新莊區新泰路357巷3弄57號","121.442158333333","25.03952","6500500","新莊區"
"242035","415-TV","2018/06/14 07:17:15","新北市新莊區新泰路427-6號","121.440496666667","25.04717","6500500","新莊區"
"242043","400-BY","2018/06/14 07:29:42","新北市新莊區新泰路357巷3弄57號","121.44217","25.0395716666667","6500500","新莊區"
"242022","362-BY","2018/06/14 07:29:39","新北市新莊區新泰路255巷83號","121.442226666667","25.03869","6500500","新莊區"
"242016","175-VK","2018/06/14 07:29:35","新北市新莊區三和路12-21號","121.441925","25.0386666666667","6500500","新莊區"
"242003","176-VK","2018/06/14 07:29:26","新北市新莊區三和路12-21號","121.441716666667","25.0387116666667","6500500","新莊區"
"242012","351-TH","2018/06/14 07:29:31","新北市新莊區新泰路357巷3弄57號","121.442125","25.039465","6500500","新莊區"
