"lineid","car","time","location","longitude","latitude","cityid","cityname"
"248005","653-BX","2018/06/14 07:39:32","新北市五股區明德路12巷6號","121.433365","25.0718","6501500","五股區"
"232001","290-BY","2018/06/14 07:39:39","新北市坪林區上坑子口4號","121.698418333333","24.9583516666667","6502000","坪林區"
"232014","291-BY","2018/06/14 07:39:26","新北市坪林區九芎根1號","121.670408333333","24.8911083333333","6502000","坪林區"
"232010","375-UM","2018/06/14 07:39:34","新北市坪林區磨壁潭9號","121.722108333333","24.9384616666667","6502000","坪林區"
"232007","758-BX","2018/06/14 07:39:34","新北市坪林區魚堀37-1號","121.700393333333","24.9297333333333","6502000","坪林區"
"244003","248-BX","2018/06/14 07:39:34","新北市林口區頂福里75-5號","121.33991","25.0964216666667","6501700","林口區"
"222006","289-BY","2018/06/14 07:22:44","新北市深坑區文化街39巷13號","121.619003333333","25.0011066666667","6501800","深坑區"
"235044","293-VK","2018/06/14 07:39:42","新北市中和區和平街29-1號","121.507561666667","24.990985","6500300","中和區"
"226005","5620-A6","2018/06/14 07:39:27","新北市平溪區靜安路二段352號","121.737571666667","25.0244016666667","6502400","平溪區"
"226007","7418-A5","2018/06/14 07:39:30","新北市平溪區平湖里大湖9號","121.780735","25.0254533333333","6502400","平溪區"
"226003","AGD-0702","2018/06/14 07:38:21","新北市平溪區嶺腳里嶺腳寮83-2號","121.749828333333","25.03536","6502400","平溪區"
"223006","022-BY","2018/06/14 07:39:27","新北市石碇區蚯蚓坑22-1號","121.68812","25.0072866666667","6501900","石碇區"
"223002","KEA-2673","2018/06/14 07:39:23","新北市石碇區北宜路五段大湖巷12號","121.634921666667","24.9416433333333","6501900","石碇區"
"223003","205-TH","2018/06/14 07:39:31","新北市石碇區中楒子腳4號","121.640945","24.971525","6501900","石碇區"
"223008","406-TH","2018/06/14 07:19:51","新北市石碇區靜安路一段337號","121.698748333333","25.0146966666667","6501900","石碇區"
"223001","592-UM","2018/06/14 07:39:28","新北市石碇區蓬菜寮7-2號","121.653146666667","24.9746","6501900","石碇區"
"223004","660-BX","2018/06/14 07:39:26","新北市石碇區八分寮47號","121.642375","25.0138966666667","6501900","石碇區"
"223007","661-BX","2018/06/14 07:32:03","新北市石碇區靜安路一段337號","121.69889","25.014515","6501900","石碇區"
"223005","677-TV","2018/06/14 07:39:36","新北市石碇區八分寮47-1號","121.642466666667","25.013865","6501900","石碇區"
"227007","282-VK","2018/06/14 07:39:28","新北市雙溪區雙溪里太平路54號","121.8648","25.03552","6502500","雙溪區"
"252004","702-TV","2018/06/14 07:39:27","新北市三芝區店子里菜公坑99-3號","121.512663333333","25.20589","6502100","三芝區"
"252007","AAC-283","2018/06/14 07:39:36","新北市三芝區古庄里古庄81-3號","121.488918333333","25.269195","6502100","三芝區"
"237001","159-UY","2018/06/14 07:39:35","新北市三峽區國慶路136號","121.375888333333","24.93962","6500900","三峽區"
"236009","165-UM","2018/06/14 07:39:28","新北市土城區清水路318號","121.463666666667","24.9850716666667","6501300","土城區"
"236003","339-SR","2018/06/14 07:39:42","新北市土城區南天母路111巷6-2號","121.448423333333","24.9549933333333","6501300","土城區"
"242033","AAC-296","2018/06/14 07:39:28","新北市新莊區新泰路357巷3弄57號","121.442201666667","25.0394716666667","6500500","新莊區"
"242052","751-BX","2018/06/14 07:39:30","新北市新莊區中正路384號","121.44199","25.0344833333333","6500500","新莊區"
"242024","705-TV","2018/06/14 07:39:32","新北市新莊區三和路12-13號","121.442118333333","25.0371883333333","6500500","新莊區"
"242026","615-BX","2018/06/14 07:39:27","新北市新莊區新泰路255巷83號","121.442118333333","25.0388833333333","6500500","新莊區"
"242028","612-BX","2018/06/14 07:39:31","新北市新莊區新泰路357巷3弄57號","121.442111666667","25.0393083333333","6500500","新莊區"
"242040","566-BX","2018/06/14 07:39:41","新北市新莊區新泰路357巷3弄57號","121.441918333333","25.039055","6500500","新莊區"
"242045","497-BY","2018/06/14 07:39:37","新北市新莊區新泰路357巷3弄37號","121.441948333333","25.0404316666667","6500500","新莊區"
"242049","441-UM","2018/06/14 07:39:41","新北市新莊區新泰路357巷3弄57號","121.442351666667","25.0397066666667","6500500","新莊區"
"242035","415-TV","2018/06/14 07:17:15","新北市新莊區新泰路427-6號","121.440496666667","25.04717","6500500","新莊區"
"242006","413-TV","2018/06/14 07:39:34","新北市新莊區新泰路357巷3弄57號","121.442078333333","25.0394616666667","6500500","新莊區"
"242043","400-BY","2018/06/14 07:39:42","新北市新莊區新泰路357巷3弄37號","121.441965","25.040375","6500500","新莊區"
"242022","362-BY","2018/06/14 07:39:39","新北市新莊區新泰路357巷3弄57號","121.441983333333","25.0390283333333","6500500","新莊區"
"242059","353-BY","2018/06/14 07:39:30","新北市新莊區新泰路255巷83號","121.442168333333","25.0387766666667","6500500","新莊區"
"242030","135-UY","2018/06/14 07:39:31","新北市新莊區三和路12-21號","121.441775","25.0388166666667","6500500","新莊區"
"242047","172-VK","2018/06/14 07:39:28","新北市新莊區中正路400號","121.441991666667","25.034375","6500500","新莊區"
"242016","175-VK","2018/06/14 07:39:35","新北市新莊區三和路12-21號","121.441885","25.03871","6500500","新莊區"
"242003","176-VK","2018/06/14 07:39:26","新北市新莊區三和路12-21號","121.44194","25.0386283333333","6500500","新莊區"
"242020","348-TH","2018/06/14 07:39:30","新北市新莊區新泰路357巷3弄57號","121.442045","25.03965","6500500","新莊區"
"242018","350-TH","2018/06/14 07:39:40","新北市新莊區新泰路255巷83號","121.442126666667","25.0390516666667","6500500","新莊區"
"242012","351-TH","2018/06/14 07:39:32","新北市新莊區新泰路357巷3弄57號","121.442093333333","25.0395016666667","6500500","新莊區"
"242001","KEA-2550","2018/06/14 07:39:42","新北市新莊區三和路12-17號","121.442185","25.0375633333333","6500500","新莊區"
