"lineid","car","time","location","longitude","latitude","cityid","cityname"
"232001","290-BY","2018/03/15 06:39:28","新北市坪林區北宜路八段558號","121.717976666667","24.909285","6502000","坪林區"
"232014","291-BY","2018/03/15 06:39:15","新北市坪林區北宜路八段558號","121.718028333333","24.909535","6502000","坪林區"
"232010","375-UM","2018/03/15 06:39:33","新北市坪林區北宜路八段558號","121.718016666667","24.90926","6502000","坪林區"
"232018","705-BZ","2018/03/15 06:39:20","新北市坪林區北宜路八段558號","121.717778333333","24.9092633333333","6502000","坪林區"
"232007","758-BX","2018/03/15 06:39:28","新北市坪林區北宜路八段558號","121.717891666667","24.9097316666667","6502000","坪林區"
"235001","611-BX","2018/03/15 06:39:27","新北市中和區圓通路367巷7號","121.492378333333","24.9880116666667","6500300","中和區"
"223006","022-BY","2018/03/15 06:39:28","新北市石碇區楓子林55-5號","121.64281","25.0079833333333","6501900","石碇區"
"223001","205-TH","2018/03/15 06:39:20","新北市石碇區碇坪路一段186號","121.667888333333","24.984295","6501900","石碇區"
"223008","406-TH","2018/03/15 06:39:33","新北市石碇區碇坪路一段139號","121.67545","24.9801133333333","6501900","石碇區"
"223001","592-UM","2018/03/15 06:39:29","新北市石碇區碇坪路一段186號","121.667405","24.9850116666667","6501900","石碇區"
"223007","661-BX","2018/03/15 06:39:37","新北市石碇區靜安路一段85號","121.652258333333","25.0072533333333","6501900","石碇區"
"227007","282-VK","2018/03/15 06:39:20","新北市雙溪區牡丹里中正路103號","121.861635","25.0474766666667","6502500","雙溪區"
"236009","165-UM","2018/03/15 06:39:20","新北市土城區永平街51號","121.428015","24.959155","6501300","土城區"
"220064","282-UM","2018/03/15 06:39:29","新北市板橋區館前西路168-1號","121.451886666667","25.0087283333333","6500100","板橋區"
