"lineid","car","time","location","longitude","latitude","cityid","cityname"
"248005","653-BX","2018/03/15 07:29:20","新北市五股區明德路12巷16號","121.433288333333","25.0720133333333","6501500","五股區"
"232001","290-BY","2018/03/15 07:29:28","新北市坪林區上坑子口5號","121.699416666667","24.960125","6502000","坪林區"
"232014","291-BY","2018/03/15 07:29:35","新北市坪林區金瓜寮24-3號","121.680258333333","24.909295","6502000","坪林區"
"232010","375-UM","2018/03/15 07:29:33","新北市坪林區磨壁潭1號","121.717533333333","24.9410666666667","6502000","坪林區"
"232018","705-BZ","2018/03/15 07:29:20","新北市坪林區坪雙路二段11號","121.733525","24.9659866666667","6502000","坪林區"
"232007","758-BX","2018/03/15 07:29:28","新北市坪林區魚堀33-5號","121.69611","24.9239383333333","6502000","坪林區"
"244003","657-BX","2018/03/15 07:29:33","新北市林口區忠福路352號","121.356095","25.079535","6501700","林口區"
"222006","289-BY","2018/03/15 07:23:38","新北市深坑區文化街39巷19號","121.618973333333","25.000805","6501800","深坑區"
"231008","192-VK","2018/03/15 07:26:46","新北市新店區安康路一段3-1號","121.534013333333","24.96055","6500600","新店區"
"235001","611-BX","2018/03/15 07:29:27","新北市中和區圓通路367巷6號","121.491495","24.9892383333333","6500300","中和區"
"226005","5620-A6","2018/03/15 07:29:21","新北市平溪區白石里中埔226號","121.721828333333","25.0201566666667","6502400","平溪區"
"226002","7418-A5","2018/03/15 07:22:30","新北市平溪區望古里灰4-2號","121.763221666667","25.0296916666667","6502400","平溪區"
"226003","AGD-0702","2018/03/15 07:29:32","新北市平溪區嶺腳里嶺腳寮96號","121.744896666667","25.0394516666667","6502400","平溪區"
"223006","022-BY","2018/03/15 07:29:28","新北市石碇區靜安路一段292巷8號","121.691851666667","25.0058983333333","6501900","石碇區"
"223001","205-TH","2018/03/15 07:29:20","新北市石碇區中楒子腳2-5號","121.637565","24.9725383333333","6501900","石碇區"
"223008","406-TH","2018/03/15 07:24:21","新北市石碇區靜安路一段337號","121.698893333333","25.0145933333333","6501900","石碇區"
"223001","592-UM","2018/03/15 07:29:34","新北市石碇區中楒子腳2-15號","121.638716666667","24.9734083333333","6501900","石碇區"
"223004","660-BX","2018/03/15 07:29:18","新北市石碇區八分寮55-5號","121.645455","25.0166816666667","6501900","石碇區"
"223007","661-BX","2018/03/15 07:29:17","新北市石碇區大溪墘9-1號","121.69796","25.0084116666667","6501900","石碇區"
"223005","677-TV","2018/03/15 07:29:27","新北市石碇區新興坑33號","121.646985","25.01566","6501900","石碇區"
"227007","282-VK","2018/03/15 07:29:20","新北市雙溪區新基里自強路5號","121.866358333333","25.0390233333333","6502500","雙溪區"
"252004","249-BX","2018/03/15 07:29:34","新北市三芝區店子里店子48號","121.503578333333","25.2066816666667","6502100","三芝區"
"252007","AAC-283","2018/03/15 07:29:20","新北市三芝區錫板里海尾14-8號","121.477445","25.2586733333333","6502100","三芝區"
"237001","159-UY","2018/03/15 07:29:23","新北市三峽區隆恩街245號","121.357715","24.9408116666667","6500900","三峽區"
"236009","165-UM","2018/03/15 07:29:20","新北市板橋區廣權路85號","121.464185","24.992415","6501300","土城區"
"236003","339-SR","2018/03/15 07:29:18","新北市土城區和平路108-10號","121.446788333333","24.9644033333333","6501300","土城區"
"242033","AAC-296","2018/03/15 07:29:27","新北市新莊區新泰路357巷1弄43號","121.442763333333","25.0398416666667","6500500","新莊區"
"242052","751-BX","2018/03/15 07:29:24","新北市新莊區新泰路357巷3弄57號","121.442125","25.039365","6500500","新莊區"
"242026","615-BX","2018/03/15 07:29:34","新北市新莊區新泰路255巷83號","121.442188333333","25.0387633333333","6500500","新莊區"
"242045","497-BY","2018/03/15 07:29:16","新北市新莊區新泰路357巷3弄57號","121.442211666667","25.0394583333333","6500500","新莊區"
"242043","400-BY","2018/03/15 07:29:32","新北市新莊區新泰路357巷3弄57號","121.44214","25.0394383333333","6500500","新莊區"
"242022","362-BY","2018/03/15 07:29:28","新北市新莊區三和路12-21號","121.442115","25.0385833333333","6500500","新莊區"
"242059","353-BY","2018/03/15 07:29:33","新北市新莊區三和路12-21號","121.442166666667","25.0387266666667","6500500","新莊區"
"242016","175-VK","2018/03/15 07:29:26","新北市新莊區三和路12-21號","121.442046666667","25.0387","6500500","新莊區"
"242003","176-VK","2018/03/15 07:29:19","新北市新莊區三和路12-21號","121.441953333333","25.0388566666667","6500500","新莊區"
"242020","348-TH","2018/03/15 07:29:28","新北市新莊區新泰路357巷3弄57號","121.442156666667","25.0395233333333","6500500","新莊區"
"220064","282-UM","2018/03/15 07:19:55","新北市板橋區國光路53號","121.458243333333","25.0180116666667","6500100","板橋區"
"242038","280-VK","2018/03/15 07:29:33","新北市新莊區三和路12-21號","121.442081666667","25.03832","6500500","新莊區"
