"lineid","car","time","location","longitude","latitude","cityid","cityname"
"234044","148-BY","2018/08/04 12:49:40","新北市永和區秀朗路二段149號","121.524821666667","25.0016066666667","6500400","永和區"
"234070","149-BY","2018/08/04 12:49:31","新北市永和區成功路一段26號","121.526891666667","25.0047866666667","6500400","永和區"
"234005","207-UY","2018/08/04 12:49:34","新北市永和區保安路4號","121.510723333333","25.017295","6500400","永和區"
"234078","298-R6","2018/08/04 12:49:39","新北市永和區永利路116號","121.521351666667","25.0031316666667","6500400","永和區"
"234062","337-UY","2018/08/04 12:49:36","新北市永和區福和路1號","121.526283333333","25.0095966666667","6500400","永和區"
"234084","338-UY","2018/08/04 12:49:25","新北市永和區中正路75號","121.515066666667","24.9967833333333","6500400","永和區"
"234068","552-UM","2018/08/04 12:49:25","新北市永和區竹林路96巷2號","121.519278333333","25.0121366666667","6500400","永和區"
"234036","553-UM","2018/08/04 12:49:35","新北市永和區成功路一段46號","121.527026666667","25.0042466666667","6500400","永和區"
"234015","745-BX","2018/08/04 12:49:21","新北市永和區永和路二段299號","121.51601","25.0160966666667","6500400","永和區"
"234028","746-BX","2018/08/04 12:49:33","新北市永和區得和路321號","121.52341","24.9996383333333","6500400","永和區"
"234052","KEA-2590","2018/08/04 12:49:40","新北市永和區環河東路二段90號","121.524431666667","25.0106733333333","6500400","永和區"
"234012","KEA-2591","2018/08/04 12:49:35","新北市永和區保福路二段118號","121.509918333333","25.0139366666667","6500400","永和區"
"234060","AAD-866","2018/08/04 12:49:23","新北市永和區福和路307號","121.516291666667","25.0071733333333","6500400","永和區"
"234048","863-TW","2018/08/04 12:49:21","新北市永和區豫溪街217巷19號","121.524921666667","25.010195","6500400","永和區"
"234025","9371-KE","2018/08/04 12:49:25","新北市永和區中正路659號","121.51474","25.010115","6500400","永和區"
"234010","9373-KE","2018/08/04 12:49:39","新北市永和區保福路二段158巷1號","121.509105","25.0150316666667","6500400","永和區"
"234022","9380-KE","2018/08/04 12:49:32","新北市永和區竹林路119巷53弄3-1號","121.52215","25.0121133333333","6500400","永和區"
"234076","969-R7","2018/08/04 12:49:38","新北市永和區中正路4號","121.512405","24.9937233333333","6500400","永和區"
"234066","AAC-212","2018/08/04 12:49:41","新北市永和區中和路625號","121.513001666667","25.0049066666667","6500400","永和區"
"234001","AAC-295","2018/08/04 12:49:26","新北市永和區福和路273號","121.517563333333","25.0074116666667","6500400","永和區"
"231005","001-UM","2018/08/04 12:49:23","新北市新店區安華路28-1號","121.519421666667","24.960865","6500600","新店區"
"231002","002-UM","2018/08/04 12:49:34","新北市新店區安華路28-1號","121.519628333333","24.9608566666667","6500600","新店區"
"231001","047-UY","2018/08/04 12:49:29","新北市新店區安華路28-1號","121.519318333333","24.9608516666667","6500600","新店區"
"231010","107-UY","2018/08/04 12:49:24","新北市新店區安一路一段1-1號","121.519565","24.96107","6500600","新店區"
"231026","256-BX","2018/08/04 12:49:25","新北市新店區安一路一段1-1號","121.51984","24.9611","6500600","新店區"
"231018","278-BY","2018/08/04 12:49:35","新北市新店區安一路一段1-1號","121.51981","24.9612633333333","6500600","新店區"
"231017","AAD-862","2018/08/04 12:49:29","新北市新店區安一路一段1-1號","121.519701666667","24.9612083333333","6500600","新店區"
"231036","512-UM","2018/08/04 12:49:29","新北市新店區安一路一段1-1號","121.519671666667","24.9611433333333","6500600","新店區"
"231013","513-UM","2018/08/04 12:49:26","新北市新店區安一路一段1-1號","121.519578333333","24.9611033333333","6500600","新店區"
"231030","619-UM","2018/08/04 12:49:28","新北市新店區安華路28-1號","121.519745","24.96084","6500600","新店區"
"231064","719-UM","2018/08/04 12:49:20","新北市新店區安一路一段1-1號","121.519525","24.96118","6500600","新店區"
"231004","899-TW","2018/08/04 12:49:21","新北市新店區安華路28-1號","121.519483333333","24.9606516666667","6500600","新店區"
"235002","185-VK","2018/08/04 12:49:38","新北市中和區景平路279-5號","121.5076","24.9930983333333","6500300","中和區"
"235031","255-BX","2018/08/04 12:49:20","新北市中和區新民街6號","121.48274","25.005555","6500300","中和區"
"235006","551-UM","2018/08/04 12:49:32","新北市中和區和城路一段271巷1號","121.48554","24.9917533333333","6500300","中和區"
"235001","611-BX","2018/08/04 12:49:31","新北市中和區中山路三段136巷75號","121.473685","25.0078333333333","6500300","中和區"
"235035","783-BX","2018/08/04 12:49:33","新北市中和區員山路36巷16-3號","121.485111666667","24.9915","6500300","中和區"
"228005","097-TW","2018/08/04 12:49:34","新北市貢寮區福連里福連街37號","121.988678333333","25.0110833333333","6502600","貢寮區"
"228004","212-TW","2018/08/04 12:49:39","新北市貢寮區吉林里內寮街20-1號","121.889766666667","24.994715","6502600","貢寮區"
"249004","440-VK","2018/08/04 12:48:51","新北市八里區博物館路10-1號","121.415253333333","25.1642533333333","6502300","八里區"
"207002","749-BX","2018/08/04 12:49:23","新北市萬里區雙興里二坪路32號","121.64499","25.1687016666667","6502800","萬里區"
"207001","662-BX","2018/08/04 12:49:38","新北市萬里區萬里里獅頭路23號","121.693188333333","25.178275","6502800","萬里區"
"236006","498-BY","2018/08/04 12:49:37","新北市土城區永寧路25號","121.430461666667","24.9633483333333","6501300","土城區"
"221012","278-VK","2018/08/04 12:49:40","新北市汐止區康寧街609號","121.636091666667","25.07087","6501100","汐止區"
"221032","280-BY","2018/08/04 12:49:30","新北市汐止區汐萬路一段37號","121.655475","25.0684016666667","6501100","汐止區"
