"lineid","car","time","location","longitude","latitude","cityid","cityname"
"234044","148-BY","2018/08/04 13:39:40","新北市永和區永元路108號","121.522615","25.0021666666667","6500400","永和區"
"234070","149-BY","2018/08/04 13:39:31","新北市中和區永貞路262巷8號","121.513811666667","25.004105","6500400","永和區"
"234005","207-UY","2018/08/04 13:39:34","新北市永和區中山路一段76號","121.512333333333","25.010855","6500400","永和區"
"234078","298-R6","2018/08/04 13:39:39","新北市永和區國中路104巷10號","121.524828333333","25.00694","6500400","永和區"
"234062","337-UY","2018/08/04 13:39:36","新北市永和區秀朗路一段192巷6弄14號","121.519068333333","25.0022383333333","6500400","永和區"
"234084","338-UY","2018/08/04 13:39:25","新北市永和區永亨路165巷10號","121.52628","25.0041633333333","6500400","永和區"
"234068","552-UM","2018/08/04 13:39:25","新北市永和區永和路二段235號","121.515681666667","25.014295","6500400","永和區"
"234036","553-UM","2018/08/04 13:39:35","新北市永和區民樂街41巷13號","121.528276666667","25.000075","6500400","永和區"
"234015","745-BX","2018/08/04 13:39:41","新北市永和區永和路二段425巷57弄1號","121.51373","25.0173033333333","6500400","永和區"
"234028","746-BX","2018/08/04 13:39:33","新北市永和區民權路29巷9號","121.520666666667","24.9979483333333","6500400","永和區"
"234052","KEA-2590","2018/08/04 13:39:40","新北市永和區竹林路39巷7號","121.518263333333","25.0144633333333","6500400","永和區"
"234012","KEA-2591","2018/08/04 13:39:32","新北市永和區仁愛路242號","121.508163333333","25.0115033333333","6500400","永和區"
"234060","AAD-866","2018/08/04 13:39:43","新北市永和區中正路446號","121.517521666667","25.00283","6500400","永和區"
"234040","862-TW","2018/08/04 13:39:35","新北市永和區中和路593號","121.512248333333","25.0041083333333","6500400","永和區"
"234048","863-TW","2018/08/04 13:39:43","新北市永和區環河西路一段111號","121.510896666667","25.0172533333333","6500400","永和區"
"234010","9373-KE","2018/08/04 13:39:39","新北市永和區永平路218巷23號","121.510063333333","25.01109","6500400","永和區"
"248017","225-UY","2018/08/04 13:39:27","新北市五股區民義路二段50-2號","121.411708333333","25.1031216666667","6501500","五股區"
"234022","9380-KE","2018/08/04 13:39:25","新北市永和區中正路702巷20弄1號","121.516486666667","25.0105733333333","6500400","永和區"
"234076","969-R7","2018/08/04 13:39:37","新北市永和區民權路28號","121.520205","24.9991383333333","6500400","永和區"
"234072","AAC-211","2018/08/04 13:39:38","新北市永和區福和路76巷6弄1號","121.522958333333","25.00843","6500400","永和區"
"234066","AAC-212","2018/08/04 13:39:41","新北市永和區中山路一段191巷14號","121.50951","25.0080883333333","6500400","永和區"
"234001","AAC-295","2018/08/04 13:39:26","新北市永和區福和路346號","121.515021666667","25.0073033333333","6500400","永和區"
"231005","001-UM","2018/08/04 13:39:23","新北市新店區寶中路72號","121.547893333333","24.9805833333333","6500600","新店區"
"231002","002-UM","2018/08/04 13:39:34","新北市新店區溪園路403號","121.52395","24.9781433333333","6500600","新店區"
"231001","047-UY","2018/08/04 13:39:29","新北市新店區中正路397號","121.534575","24.9773266666667","6500600","新店區"
"231010","107-UY","2018/08/04 13:39:24","新北市新店區中正路305號","121.536526666667","24.9745583333333","6500600","新店區"
"231020","108-UY","2018/08/04 13:39:31","新北市新店區永興路88-1號","121.543991666667","24.9337283333333","6500600","新店區"
"231012","187-VK","2018/08/04 13:39:35","新北市新店區德正街23巷2號","121.544155","24.9718033333333","6500600","新店區"
"231023","KEA-2219","2018/08/04 13:39:34","新北市新店區新店路153號","121.53704","24.9549533333333","6500600","新店區"
"231026","256-BX","2018/08/04 13:39:25","新北市新店區北新路一段285號","121.541148333333","24.9669033333333","6500600","新店區"
"231003","268-BY","2018/08/04 13:39:35","新北市新店區中正路20號","121.545343333333","24.9696633333333","6500600","新店區"
"231018","278-BY","2018/08/04 13:39:35","新北市新店區百忍街36號","121.533733333333","24.9758033333333","6500600","新店區"
"231017","AAD-862","2018/08/04 13:39:29","新北市新店區竹林路2巷29弄11號","121.550543333333","24.9502383333333","6500600","新店區"
"231028","355-BY","2018/08/04 13:39:28","新北市新店區安和路二段1-1號","121.517941666667","24.9671266666667","6500600","新店區"
"231038","3712-VJ","2018/08/04 13:39:24","新北市新店區安華路28-1號","121.519351666667","24.9605683333333","6500600","新店區"
"231027","3713-VJ","2018/08/04 13:39:35","新北市新店區北宜路一段105巷44號","121.540613333333","24.95583","6500600","新店區"
"231037","4716-K9","2018/08/04 13:39:40","新北市新店區薏仁坑路5號","121.498886666667","24.9590783333333","6500600","新店區"
"231025","4715-K9","2018/08/04 13:39:25","新北市新店區中央六街56號","121.527916666667","24.975765","6500600","新店區"
"231036","512-UM","2018/08/04 13:39:29","新北市新店區安祥路147巷53號","121.476171666667","24.95613","6500600","新店區"
"231013","513-UM","2018/08/04 13:39:26","新北市新店區中正路450號","121.53441","24.9789916666667","6500600","新店區"
"231034","616-UM","2018/08/04 13:39:41","新北市新店區車子路117號","121.505308333333","24.9518966666667","6500600","新店區"
"231006","617-UM","2018/08/04 13:39:33","新北市新店區北宜路一段106號","121.539011666667","24.9553733333333","6500600","新店區"
"231030","619-UM","2018/08/04 13:39:38","新北市新店區安康路一段323-1號","121.521601666667","24.9637883333333","6500600","新店區"
"231035","719-UM","2018/08/04 13:38:21","新北市新店區安忠路56巷6號","121.512893333333","24.9594216666667","6500600","新店區"
"231033","720-UM","2018/08/04 13:39:43","新北市新店區莒光路85巷2號","121.523201666667","24.95618","6500600","新店區"
"231029","897-TW","2018/08/04 13:39:35","新北市新店區安康路二段214號","121.509891666667","24.9594283333333","6500600","新店區"
"231004","899-TW","2018/08/04 13:39:41","新北市新店區北新路二段7號","121.542693333333","24.9713133333333","6500600","新店區"
"231024","AKT-0513","2018/08/04 13:39:29","新北市新店區中華路47巷2弄1號","121.539686666667","24.967525","6500600","新店區"
"235030","003-UY","2018/08/04 13:39:27","新北市中和區水源路35號","121.504375","25.003595","6500300","中和區"
"235028","005-UY","2018/08/04 13:39:36","新北市中和區連城路109巷16號","121.496668333333","24.998915","6500300","中和區"
"235027","006-UY","2018/08/04 13:39:38","新北市中和區連城路397號","121.486315","24.9959516666667","6500300","中和區"
"235020","096-UM","2018/08/04 13:39:33","新北市中和區員山路466巷19號","121.480793333333","25.006615","6500300","中和區"
"235003","097-UM","2018/08/04 13:39:40","新北市中和區景平路278巷14弄1號","121.514098333333","24.9930733333333","6500300","中和區"
"235029","098-UM","2018/08/04 13:39:29","新北市中和區莊敬路49巷29弄22號","121.500893333333","25.0064916666667","6500300","中和區"
"235022","151-BY","2018/08/04 13:39:03","新北市中和區員山路28-29號","121.480848333333","24.9871016666667","6500300","中和區"
"235019","183-VK","2018/08/04 13:39:28","新北市中和區莒光路120巷46號","121.47155","25.0011116666667","6500300","中和區"
"235002","185-VK","2018/08/04 13:39:38","新北市中和區立人街14巷33號","121.519448333333","24.9954316666667","6500300","中和區"
"235013","186-VK","2018/08/04 13:39:32","新北市中和區明義街11巷1弄1號","121.503976666667","24.9949066666667","6500300","中和區"
"235031","255-BX","2018/08/04 13:39:39","新北市中和區新生街220巷3號","121.483328333333","24.9983633333333","6500300","中和區"
"235008","293-VK","2018/08/04 13:39:41","新北市中和區復興路280巷15號","121.50226","24.9913833333333","6500300","中和區"
"235036","301-VK","2018/08/04 13:39:25","新北市中和區連城路139巷66號","121.4967","24.9967066666667","6500300","中和區"
"235007","352-BY","2018/08/04 13:39:29","新北市中和區安樂路38號","121.511963333333","24.9923783333333","6500300","中和區"
"235014","4979-A6","2018/08/04 13:39:22","新北市中和區景新街496巷28弄8號","121.513133333333","24.9859283333333","6500300","中和區"
"235033","4980-A6","2018/08/04 13:36:29","新北市中和區連城路89巷6號","121.496881666667","24.9995483333333","6500300","中和區"
"235006","551-UM","2018/08/04 13:39:32","新北市中和區秀朗路三段153巷16弄3號","121.525755","24.991595","6500300","中和區"
"235034","558-UM","2018/08/04 13:39:27","新北市中和區南華路13號","121.50237","24.9955666666667","6500300","中和區"
"235009","565-BX","2018/08/04 13:39:34","新北市中和區南山路236巷34-5號","121.504731666667","24.9882716666667","6500300","中和區"
"235018","640-BX","2018/08/04 13:39:37","新北市中和區莒光路129巷2弄4號","121.472878333333","25.0018416666667","6500300","中和區"
"235024","647-TV","2018/08/04 13:39:34","新北市中和區中山路二段505號","121.48225","25.0050316666667","6500300","中和區"
"235011","732-UM","2018/08/04 13:39:35","新北市中和區南山路320巷10弄21號","121.506776666667","24.9867183333333","6500300","中和區"
"235035","783-BX","2018/08/04 13:39:33","新北市中和區立德街98巷74號","121.488615","25.00843","6500300","中和區"
"235026","800-TS","2018/08/04 13:39:21","新北市中和區中山路二段312巷19號","121.49565","25.00357","6500300","中和區"
"235021","801-TS","2018/08/04 13:39:25","新北市中和區民安街42巷14號","121.47974","25.0006883333333","6500300","中和區"
"235005","802-TS","2018/08/04 13:39:25","新北市中和區中和路400巷27號","121.511766666667","25.0022216666667","6500300","中和區"
"235016","805-TS","2018/08/04 13:39:25","新北市中和區興南路三段52-1號","121.494013333333","24.9756183333333","6500300","中和區"
"235012","896-TW","2018/08/04 13:39:32","新北市中和區中正路57號","121.50159","24.9935066666667","6500300","中和區"
"235017","900-TW","2018/08/04 13:39:23","新北市土城區延壽路77巷4弄11號","121.469095","24.993025","6500300","中和區"
"235015","157-BY","2018/08/04 13:39:25","新北市中和區華新街143巷106弄19號","121.50654","24.9785416666667","6500300","中和區"
"235001","AAC-213","2018/08/04 13:39:40","新北市中和區景平路111巷28號","121.515805","24.9904533333333","6500300","中和區"
"220003","015-TV","2018/08/04 13:39:38","新北市板橋區華東街1-10號","121.4486","24.99499","6500100","板橋區"
"220013","072-UY","2018/08/04 13:39:27","新北市板橋區民族路151巷52號","121.470121666667","25.0084616666667","6500100","板橋區"
"220034","073-UY","2018/08/04 13:39:39","新北市板橋區大智街71巷42弄15號","121.452133333333","25.0144933333333","6500100","板橋區"
"220017","AAD-861","2018/08/04 13:39:36","新北市板橋區華東街1-10號","121.448371666667","24.9951133333333","6500100","板橋區"
"247007","056-VK","2018/08/04 13:39:40","新北市五股區國道路三段21號","121.468433333333","25.0753233333333","6501400","蘆洲區"
"247019","001-UY","2018/08/04 13:39:28","新北市五股區凌雲路一段25號","121.452398333333","25.1001333333333","6501400","蘆洲區"
"235023","251-BX","2018/08/04 13:39:37","新北市中和區中正路637巷60弄61號","121.485463333333","24.9928666666667","6500300","中和區"
"228005","097-TW","2018/08/04 13:39:34","新北市貢寮區美豐里文秀坑8號","121.902016666667","25.050405","6502600","貢寮區"
"228004","212-TW","2018/08/04 13:39:39","新北市貢寮區龍崗里嵩陽街41號","121.906975","25.0118433333333","6502600","貢寮區"
"253003","6232-TK","2018/08/04 13:39:40","新北市石門區尖子鹿13號","121.571613333333","25.2807816666667","6502200","石門區"
"253001","6251-TK","2018/08/04 13:39:42","新北市三芝區新庄里新庄子48-5號","121.507681666667","25.279335","6502200","石門區"
"253002","637-UY","2018/08/04 13:39:40","新北市石門區九芎林35號","121.566638333333","25.256225","6502200","石門區"
"253004","8270-PC","2018/08/04 13:38:26","新北市石門區五爪崙8-2號","121.606796666667","25.2618083333333","6502200","石門區"
"207002","749-BX","2018/08/04 13:39:43","新北市萬里區崁腳里崁腳路166號","121.645046666667","25.15583","6502800","萬里區"
"252005","073-UM","2018/08/04 13:39:38","新北市三芝區圓山里木屐寮38-2號","121.531316666667","25.2271916666667","6502100","三芝區"
"207001","662-BX","2018/08/04 13:39:38","新北市萬里區大鵬里萬里加投51號","121.643388333333","25.2100316666667","6502800","萬里區"
"237007","153-BY","2018/08/04 13:39:37","新北市三峽區民生街186號","121.371001666667","24.9349216666667","6500900","三峽區"
"236040","107-UM","2018/08/04 13:39:27","新北市土城區城林路6巷80號","121.438463333333","24.9797666666667","6501300","土城區"
"236074","166-UM","2018/08/04 13:39:26","新北市土城區城林路6巷80號","121.438198333333","24.9795833333333","6501300","土城區"
"236017","401-BY","2018/08/04 13:39:23","新北市土城區城林路6巷80號","121.438301666667","24.9796583333333","6501300","土城區"
"236006","498-BY","2018/08/04 13:39:37","新北市土城區中央路二段83號","121.442321666667","24.9783166666667","6501300","土城區"
"236057","912-UM","2018/08/04 13:39:40","新北市土城區城林路6巷80號","121.43852","24.9796783333333","6501300","土城區"
"236045","913-UM","2018/08/04 13:39:33","新北市土城區城林路6巷80號","121.43842","24.9798733333333","6501300","土城區"
"236060","915-UM","2018/08/04 13:39:23","新北市土城區城林路6巷80號","121.438426666667","24.9797566666667","6501300","土城區"
"221012","278-VK","2018/08/04 13:39:40","台北市中山區濱江街3號","121.528495","25.0740383333333","6501100","汐止區"
"220027","145-BY","2018/08/04 13:39:36","新北市板橋區館前西路162號","121.452823333333","25.0086183333333","6500100","板橋區"
"220028","200-UY","2018/08/04 13:39:22","新北市板橋區大觀路二段265巷76弄30號","121.441336666667","24.9968333333333","6500100","板橋區"
"220030","610-BX","2018/08/04 13:39:38","新北市板橋區篤行路一段33號","121.431998333333","24.9942483333333","6500100","板橋區"
"220004","276-BY","2018/08/04 13:39:42","新北市板橋區四川路二段140巷2號","121.449915","24.993045","6500100","板橋區"
"220019","283-VK","2018/08/04 13:39:24","新北市板橋區四川路二段橋頭6號","121.448353333333","24.9936466666667","6500100","板橋區"
"220043","285-UM","2018/08/04 13:39:23","新北市板橋區民生路二段161巷3號","121.470163333333","25.0198016666667","6500100","板橋區"
"220031","286-VK","2018/08/04 13:39:27","新北市板橋區大觀路二段77號","121.446481666667","25.0022283333333","6500100","板橋區"
"220029","287-VK","2018/08/04 13:39:38","新北市板橋區大觀路二段10號","121.446788333333","25.00373","6500100","板橋區"
"220039","288-VK","2018/08/04 13:39:41","新北市板橋區民生路二段120號","121.470463333333","25.01972","6500100","板橋區"
"220009","293-UM","2018/08/04 13:39:28","新北市板橋區民生路二段120號","121.470333333333","25.01976","6500100","板橋區"
"220010","295-UM","2018/08/04 13:39:20","新北市板橋區民生路二段161巷9號","121.47029","25.01958","6500100","板橋區"
"220032","296-UM","2018/08/04 13:39:27","新北市板橋區大觀路二段148巷1-3號","121.441801666667","24.999295","6500100","板橋區"
"220023","303-R5","2018/08/04 13:39:23","新北市板橋區華東街270號","121.452616666667","25.001725","6500100","板橋區"
"220047","317-R6","2018/08/04 13:39:28","新北市板橋區民生路二段161巷9號","121.470321666667","25.01961","6500100","板橋區"
"220012","486-VK","2018/08/04 13:39:32","新北市板橋區縣民大道一段322號","121.461748333333","25.0108966666667","6500100","板橋區"
"220104","560-BX","2018/08/04 13:39:27","新北市板橋區南雅西路二段145巷10號","121.451563333333","25.01192","6500100","板橋區"
"220011","609-BX","2018/08/04 13:39:25","新北市板橋區民生路二段161巷1號","121.46984","25.02003","6500100","板橋區"
"220005","686-BX","2018/08/04 13:39:28","新北市板橋區華東街1-9號","121.448235","24.994925","6500100","板橋區"
"220025","687-BX","2018/08/04 13:39:39","新北市板橋區存德街25號","121.430483333333","24.9918283333333","6500100","板橋區"
"220002","741-BX","2018/08/04 13:39:40","新北市板橋區華東街1-10號","121.448298333333","24.99492","6500100","板橋區"
"220014","829-TW","2018/08/04 13:39:24","新北市板橋區民生路二段161巷5號","121.470253333333","25.0197166666667","6500100","板橋區"
"220022","895-R6","2018/08/04 13:39:37","新北市板橋區南雅南路一段29號","121.45608","25.0065566666667","6500100","板橋區"
"220021","985-R7","2018/08/04 13:39:28","新北市板橋區南雅南路二段98號","121.453556666667","25.001235","6500100","板橋區"
"220018","AAC-253","2018/08/04 13:39:33","新北市板橋區華東街1-9號","121.447866666667","24.99549","6500100","板橋區"
"235032","KEA-2873","2018/08/04 13:39:34","新北市中和區中正路167巷13號","121.4983","24.992945","6500300","中和區"
"235025","KEA-2875","2018/08/04 13:39:20","新北市中和區民享街32巷2號","121.473913333333","25.0033333333333","6500300","中和區"
