"lineid","car","time","location","longitude","latitude","cityid","cityname"
"234044","148-BY","2018/08/04 13:59:40","新北市永和區成功路一段2號","121.526926666667","25.0055883333333","6500400","永和區"
"234070","149-BY","2018/08/04 13:59:31","新北市永和區民治街80號","121.517531666667","24.9982933333333","6500400","永和區"
"234005","207-UY","2018/08/04 13:59:34","新北市中和區中和路356號","121.510291666667","25.001665","6500400","永和區"
"234078","298-R6","2018/08/04 13:59:19","新北市永和區林森路112巷12弄8號","121.52262","25.0044366666667","6500400","永和區"
"234062","337-UY","2018/08/04 13:59:36","新北市永和區中正路412巷20弄32號","121.51913","25.001225","6500400","永和區"
"234084","338-UY","2018/08/04 13:59:36","新北市永和區福和路160號","121.521431666667","25.0078683333333","6500400","永和區"
"234068","552-UM","2018/08/04 13:59:33","新北市永和區國光路14號","121.519146666667","25.008395","6500400","永和區"
"234036","553-UM","2018/08/04 13:59:35","新北市永和區成功路二段120號","121.52655","24.9977266666667","6500400","永和區"
"234015","745-BX","2018/08/04 13:59:21","新北市永和區文化路95-1號","121.513191666667","25.0152333333333","6500400","永和區"
"234028","746-BX","2018/08/04 13:59:33","新北市永和區四維街69號","121.525553333333","24.9978716666667","6500400","永和區"
"234052","KEA-2590","2018/08/04 13:59:40","新北市永和區竹林路39巷30號","121.51957","25.015055","6500400","永和區"
"234012","KEA-2591","2018/08/04 13:59:32","新北市永和區保生路55號","121.504743333333","25.0101483333333","6500400","永和區"
"234060","AAD-866","2018/08/04 13:59:43","新北市永和區中正路283巷57號","121.515621666667","24.9989283333333","6500400","永和區"
"234040","862-TW","2018/08/04 13:59:35","新北市永和區中和路335巷18弄32號","121.508096666667","25.0005083333333","6500400","永和區"
"234048","863-TW","2018/08/04 13:59:41","新北市永和區保安路260號","121.506005","25.0124133333333","6500400","永和區"
"234025","9371-KE","2018/08/04 13:59:25","新北市永和區自由街58號","121.51382","25.0060033333333","6500400","永和區"
"234010","9373-KE","2018/08/04 13:59:39","新北市永和區仁愛路352巷94號","121.501205","25.0080633333333","6500400","永和區"
"248017","225-UY","2018/08/04 13:59:27","新北市五股區民義路一段222號","121.42932","25.09033","6501500","五股區"
"234022","9380-KE","2018/08/04 13:59:25","新北市永和區光復街2巷16弄23號","121.517918333333","25.0163733333333","6500400","永和區"
"234076","969-R7","2018/08/04 13:59:37","新北市永和區民族街43巷10號","121.519093333333","24.9983616666667","6500400","永和區"
"234072","AAC-211","2018/08/04 13:59:38","新北市永和區豫溪街177-1號","121.522401666667","25.0105833333333","6500400","永和區"
"234066","AAC-212","2018/08/04 13:59:41","新北市永和區永貞路358號","121.510155","25.006505","6500400","永和區"
"234001","AAC-295","2018/08/04 13:59:35","新北市永和區福和路318號","121.51579","25.0072466666667","6500400","永和區"
"231005","001-UM","2018/08/04 13:59:43","新北市新店區中興路三段258號","121.542763333333","24.9843733333333","6500600","新店區"
"231002","002-UM","2018/08/04 13:59:34","新北市新店區中正路633號","121.533875","24.989215","6500600","新店區"
"231001","047-UY","2018/08/04 13:59:29","新北市新店區三民路24號","121.537063333333","24.971","6500600","新店區"
"231010","107-UY","2018/08/04 13:59:24","新北市新店區安康路一段35-5號","121.531926666667","24.9606666666667","6500600","新店區"
"231020","108-UY","2018/08/04 13:59:31","新北市新店區新烏路二段50巷1號","121.5474","24.9278233333333","6500600","新店區"
"231012","187-VK","2018/08/04 13:59:35","新北市新店區中興路二段83號","121.54693","24.9711433333333","6500600","新店區"
"231023","KEA-2219","2018/08/04 13:59:34","新北市新店區文中路45號","121.53963","24.9566183333333","6500600","新店區"
"231026","256-BX","2018/08/04 13:59:25","新北市新店區環河路18號","121.536968333333","24.9616666666667","6500600","新店區"
"231003","268-BY","2018/08/04 13:59:35","新北市新店區中興路一段91號","121.54095","24.9620483333333","6500600","新店區"
"231018","278-BY","2018/08/04 13:59:35","新北市新店區中央路133巷13號","121.531098333333","24.9735383333333","6500600","新店區"
"231017","AAD-862","2018/08/04 13:59:29","新北市新店區郵政路91號","121.554848333333","24.9515166666667","6500600","新店區"
"231028","355-BY","2018/08/04 13:59:28","新北市新店區安和路三段157號","121.516513333333","24.9857366666667","6500600","新店區"
"231038","3712-VJ","2018/08/04 13:59:24","新北市新店區安華路30巷3號","121.519541666667","24.9592233333333","6500600","新店區"
"231027","3713-VJ","2018/08/04 13:59:34","新北市新店區北宜路一段7號","121.538366666667","24.9582233333333","6500600","新店區"
"231037","4716-K9","2018/08/04 13:59:40","新北市新店區安康路三段180號","121.489375","24.9517666666667","6500600","新店區"
"231025","4715-K9","2018/08/04 13:59:25","新北市新店區建安街45號","121.538495","24.975685","6500600","新店區"
"231036","512-UM","2018/08/04 13:59:29","新北市新店區安祥路109巷3弄104號","121.479385","24.960555","6500600","新店區"
"231013","513-UM","2018/08/04 13:59:26","新北市新店區明德路111號","121.541533333333","24.9794616666667","6500600","新店區"
"231034","616-UM","2018/08/04 13:59:41","新北市新店區達觀路8巷5號","121.503868333333","24.9436666666667","6500600","新店區"
"231006","617-UM","2018/08/04 13:59:32","新北市新店區北宜路二段219號","121.553343333333","24.9533983333333","6500600","新店區"
"231030","619-UM","2018/08/04 13:59:28","新北市新店區安康路一段323-3號","121.521218333333","24.9638983333333","6500600","新店區"
"231035","719-UM","2018/08/04 13:59:41","新北市新店區安和路一段52巷2號","121.517605","24.9660616666667","6500600","新店區"
"231033","720-UM","2018/08/04 13:59:23","新北市新店區華城路18號","121.529178333333","24.95746","6500600","新店區"
"231029","897-TW","2018/08/04 13:59:35","新北市新店區安康路二段55-1號","121.51418","24.9633016666667","6500600","新店區"
"231004","899-TW","2018/08/04 13:59:21","新北市新店區北新路二段163號","121.5428","24.9762733333333","6500600","新店區"
"231024","AKT-0513","2018/08/04 13:59:29","新北市新店區中央路175-1號","121.534498333333","24.9699083333333","6500600","新店區"
"235030","003-UY","2018/08/04 13:59:27","新北市中和區中山路二段131巷2弄1號","121.502723333333","25.0026783333333","6500300","中和區"
"235028","005-UY","2018/08/04 13:59:36","新北市中和區泰和街30巷9號","121.499196666667","25.0007366666667","6500300","中和區"
"235027","006-UY","2018/08/04 13:59:26","新北市中和區中正路606號","121.485675","24.995465","6500300","中和區"
"235020","096-UM","2018/08/04 13:59:33","新北市中和區員山路514巷13號","121.479551666667","25.0097066666667","6500300","中和區"
"235003","097-UM","2018/08/04 13:59:40","新北市中和區秀朗路三段146號","121.524281666667","24.9911616666667","6500300","中和區"
"235029","098-UM","2018/08/04 13:59:29","新北市中和區勝利路13號","121.49961","25.0080616666667","6500300","中和區"
"235004","150-BY","2018/08/04 13:59:20","新北市中和區保健路46巷19號","121.509236666667","24.99628","6500300","中和區"
"235022","151-BY","2018/08/04 13:59:42","新北市中和區員山路90號","121.480908333333","24.9944083333333","6500300","中和區"
"235019","183-VK","2018/08/04 13:59:28","新北市板橋區民族路276巷1弄20號","121.470288333333","25.0063083333333","6500300","中和區"
"235002","185-VK","2018/08/04 13:59:38","新北市中和區大勇街32號","121.517346666667","24.993155","6500300","中和區"
"235013","186-VK","2018/08/04 13:59:32","新北市中和區景安路167巷19號","121.506348333333","24.9949316666667","6500300","中和區"
"235031","255-BX","2018/08/04 13:59:39","新北市中和區中正路711號","121.484531666667","24.9985533333333","6500300","中和區"
"235008","293-VK","2018/08/04 13:59:35","新北市中和區中興街202巷6號","121.499325","24.9907483333333","6500300","中和區"
"235036","301-VK","2018/08/04 13:59:25","新北市中和區中山路二段1號","121.505376666667","25.0058283333333","6500300","中和區"
"235007","352-BY","2018/08/04 13:59:29","新北市中和區秀朗路三段68-1號","121.526281666667","24.994725","6500300","中和區"
"247009","KEA-2869","2018/08/04 13:59:31","新北市蘆洲區集賢路224巷27號","121.481743333333","25.0871516666667","6501400","蘆洲區"
"235014","4979-A6","2018/08/04 13:59:22","新北市中和區華新街69號","121.50812","24.984","6500300","中和區"
"235033","4980-A6","2018/08/04 13:59:29","新北市中和區景平路459巷2弄2號","121.500361666667","24.9965083333333","6500300","中和區"
"235006","551-UM","2018/08/04 13:59:32","新北市中和區秀朗路三段22巷14號","121.52569","24.99622","6500300","中和區"
"235034","558-UM","2018/08/04 13:59:27","新北市中和區安和路159號","121.506166666667","24.997375","6500300","中和區"
"235009","565-BX","2018/08/04 13:59:34","新北市中和區景新街467巷20弄92號","121.514341666667","24.987805","6500300","中和區"
"235018","640-BX","2018/08/04 13:59:37","新北市中和區國光街107巷2弄32號","121.469283333333","24.9989583333333","6500300","中和區"
"235024","647-TV","2018/08/04 13:59:26","新北市中和區民治街10巷1號","121.474995","25.0045633333333","6500300","中和區"
"235011","732-UM","2018/08/04 13:59:35","新北市中和區興南路二段54巷2-8號","121.505991666667","24.98558","6500300","中和區"
"235010","733-UM","2018/08/04 13:59:25","新北市中和區興南路一段135巷17號","121.509321666667","24.9870083333333","6500300","中和區"
"235035","783-BX","2018/08/04 13:59:33","新北市中和區中正路755-1號","121.485008333333","24.9999633333333","6500300","中和區"
"235026","800-TS","2018/08/04 13:59:41","新北市中和區中山路二段366巷9號","121.491793333333","25.0040566666667","6500300","中和區"
"235021","801-TS","2018/08/04 13:59:25","新北市中和區民安街65巷5號","121.478801666667","24.99925","6500300","中和區"
"235005","802-TS","2018/08/04 13:59:25","新北市中和區永貞路264號","121.513736666667","25.0036166666667","6500300","中和區"
"235016","805-TS","2018/08/04 13:59:25","新北市中和區興南路二段261巷6-30號","121.502988333333","24.979905","6500300","中和區"
"235012","896-TW","2018/08/04 13:59:32","新北市中和區華新街96號","121.508475","24.9831183333333","6500300","中和區"
"235017","900-TW","2018/08/04 13:59:43","新北市中和區壽德街20-1號","121.466253333333","24.9948266666667","6500300","中和區"
"235015","157-BY","2018/08/04 13:59:25","新北市中和區忠孝街11巷8號","121.510035","24.9831866666667","6500300","中和區"
"235001","AAC-213","2018/08/04 13:59:40","新北市中和區秀朗路三段10巷14弄100號","121.523305","24.9966883333333","6500300","中和區"
"220105","013-TV","2018/08/04 13:59:38","新北市板橋區莊敬路66號","121.47173","25.0254116666667","6500100","板橋區"
"220003","015-TV","2018/08/04 13:59:38","新北市板橋區民安街28號","121.466925","25.0112483333333","6500100","板橋區"
"220013","072-UY","2018/08/04 13:59:27","新北市板橋區漢生東路324號","121.47183","25.0079333333333","6500100","板橋區"
"220034","073-UY","2018/08/04 13:59:39","新北市板橋區中正路236巷10號","121.45621","25.0190783333333","6500100","板橋區"
"220017","AAD-861","2018/08/04 13:59:35","新北市板橋區華興街59號","121.457441666667","25.0048683333333","6500100","板橋區"
"247013","546-UM","2018/08/04 13:59:33","新北市蘆洲區中正路187號","121.46858","25.0856716666667","6501400","蘆洲區"
"247011","339-TH","2018/08/04 13:58:47","新北市蘆洲區民族路150號","121.479448333333","25.0860783333333","6501400","蘆洲區"
"247003","337-TH","2018/08/04 13:59:38","新北市蘆洲區長榮路38-5號","121.463256666667","25.0828466666667","6501400","蘆洲區"
"247005","336-TH","2018/08/04 13:59:24","新北市蘆洲區九芎街142號","121.464656666667","25.0786366666667","6501400","蘆洲區"
"247018","057-VK","2018/08/04 13:59:32","新北市蘆洲區民族路227巷22弄15號","121.476101666667","25.0893566666667","6501400","蘆洲區"
"247007","056-VK","2018/08/04 13:59:40","新北市蘆洲區永安北路二段10號","121.481175","25.0805916666667","6501400","蘆洲區"
"247015","053-VK","2018/08/04 13:59:37","新北市蘆洲區光華路22巷4號","121.469376666667","25.0836066666667","6501400","蘆洲區"
"247001","002-UY","2018/08/04 13:59:30","新北市蘆洲區三民路607號","121.460543333333","25.0937533333333","6501400","蘆洲區"
"247019","001-UY","2018/08/04 13:59:36","新北市蘆洲區民族路422巷35號","121.473403333333","25.09351","6501400","蘆洲區"
"235023","251-BX","2018/08/04 13:59:37","新北市中和區圓通路367巷18-5號","121.49173","24.9884616666667","6500300","中和區"
"228005","097-TW","2018/08/04 13:53:54","新北市貢寮區美豐里土地公嶺24號","121.890871666667","25.0651833333333","6502600","貢寮區"
"228004","212-TW","2018/08/04 13:59:39","新北市貢寮區龍崗里泮宮路43號","121.908025","25.0172233333333","6502600","貢寮區"
"253003","6232-TK","2018/08/04 13:59:40","新北市石門區尖子鹿53-2號","121.580905","25.2707066666667","6502200","石門區"
"253001","6251-TK","2018/08/04 13:59:42","新北市石門區下員坑58號","121.526216666667","25.265585","6502200","石門區"
"253002","637-UY","2018/08/04 13:59:20","新北市石門區尖山湖18號","121.558608333333","25.246955","6502200","石門區"
"253004","8270-PC","2018/08/04 13:59:25","新北市石門區草埔尾15-1號","121.601813333333","25.2643883333333","6502200","石門區"
"207002","749-BX","2018/08/04 13:59:43","新北市萬里區溪底里富士坪路1號","121.631375","25.1501783333333","6502800","萬里區"
"252005","073-UM","2018/08/04 13:59:38","新北市三芝區圓山里二坪頂78號","121.541978333333","25.24597","6502100","三芝區"
"207001","662-BX","2018/08/04 13:59:38","新北市萬里區磺潭里清水4-3號","121.642181666667","25.2013866666667","6502800","萬里區"
"237007","153-BY","2018/08/04 13:59:37","新北市三峽區和平街35號","121.370336666667","24.9355033333333","6500900","三峽區"
"236068","105-UM","2018/08/04 13:59:27","新北市土城區青雲路318號","121.458796666667","24.97709","6501300","土城區"
"236040","107-UM","2018/08/04 13:59:27","新北市土城區城林路6巷80號","121.43851","24.9797716666667","6501300","土城區"
"236074","166-UM","2018/08/04 13:59:26","新北市土城區永寧路32巷10弄23號","121.428876666667","24.9610383333333","6501300","土城區"
"236024","269-VK","2018/08/04 13:59:38","新北市土城區承天路27號","121.436715","24.9654116666667","6501300","土城區"
"236013","270-VK","2018/08/04 13:59:37","新北市土城區城林路6巷80號","121.438553333333","24.9797383333333","6501300","土城區"
"236032","271-VK","2018/08/04 13:59:36","新北市土城區城林路6巷80號","121.438528333333","24.9798166666667","6501300","土城區"
"236017","401-BY","2018/08/04 13:59:23","新北市土城區城林路6巷80號","121.438351666667","24.97966","6501300","土城區"
"236006","498-BY","2018/08/04 13:59:37","新北市土城區中華路一段10-1號","121.448083333333","24.990745","6501300","土城區"
"236057","912-UM","2018/08/04 13:59:40","新北市土城區中央路三段238號","121.428513333333","24.9643416666667","6501300","土城區"
"236045","913-UM","2018/08/04 13:59:33","新北市土城區城林路6巷80號","121.438401666667","24.979855","6501300","土城區"
"236060","915-UM","2018/08/04 13:59:23","新北市土城區城林路6巷80號","121.438456666667","24.9797566666667","6501300","土城區"
"236054","AAC-216","2018/08/04 13:59:36","新北市土城區城林路6巷80號","121.43876","24.9796733333333","6501300","土城區"
"220027","145-BY","2018/08/04 13:59:40","新北市板橋區民權路202巷9弄20號","121.459671666667","25.0156983333333","6500100","板橋區"
"220028","200-UY","2018/08/04 13:59:42","新北市板橋區大觀路二段153巷46弄42號","121.449306666667","25.00019","6500100","板橋區"
"220030","610-BX","2018/08/04 13:59:38","新北市板橋區滿平街75號","121.427863333333","24.9890616666667","6500100","板橋區"
"220050","245-BX","2018/08/04 13:59:31","新北市板橋區文化路二段182巷13號","121.472163333333","25.02673","6500100","板橋區"
"220052","257-TC","2018/08/04 13:59:24","新北市板橋區縣民大道二段279號","121.469956666667","25.0177716666667","6500100","板橋區"
"220004","276-BY","2018/08/04 13:59:41","新北市板橋區信義路165號","121.458726666667","24.9924033333333","6500100","板橋區"
"220020","277-BY","2018/08/04 13:59:35","新北市板橋區篤行路一段29號","121.432088333333","24.994845","6500100","板橋區"
"220019","283-VK","2018/08/04 13:59:24","新北市板橋區重慶路245巷50弄35號","121.465246666667","24.9999183333333","6500100","板橋區"
"220043","285-UM","2018/08/04 13:59:23","新北市板橋區文化路二段76號","121.46948","25.0249883333333","6500100","板橋區"
"220001","285-VK","2018/08/04 13:59:36","新北市板橋區永豐街49巷19號","121.4735","25.0175516666667","6500100","板橋區"
"220031","286-VK","2018/08/04 13:59:33","新北市板橋區龍興街101巷4號","121.444221666667","25.0032733333333","6500100","板橋區"
"220029","287-VK","2018/08/04 13:59:38","新北市板橋區光華街28巷1號","121.453903333333","25.0125333333333","6500100","板橋區"
"220039","288-VK","2018/08/04 13:59:41","新北市板橋區四維路177巷2弄2號","121.464123333333","25.02634","6500100","板橋區"
"220009","293-UM","2018/08/04 13:59:28","新北市板橋區富山街100號","121.476346666667","25.0219683333333","6500100","板橋區"
"220010","295-UM","2018/08/04 13:59:41","新北市板橋區三民路二段245巷55號","121.480741666667","25.012645","6500100","板橋區"
"220032","296-UM","2018/08/04 13:59:27","新北市板橋區篤行路一段16號","121.431355","24.9955166666667","6500100","板橋區"
"220023","303-R5","2018/08/04 13:59:22","新北市板橋區南雅西路二段25號","121.452895","25.0095083333333","6500100","板橋區"
"220041","307-R5","2018/08/04 13:59:34","新北市板橋區文化路一段239號","121.464146666667","25.017645","6500100","板橋區"
"220047","317-R6","2018/08/04 13:59:31","新北市板橋區民有街31號","121.46597","25.0254083333333","6500100","板橋區"
"220012","486-VK","2018/08/04 13:59:32","新北市板橋區縣民大道二段110號","121.467105","25.01561","6500100","板橋區"
"220037","491-VK","2018/08/04 13:59:35","新北市板橋區文化路二段28號","121.46919","25.02483","6500100","板橋區"
"220104","560-BX","2018/08/04 13:59:27","新北市板橋區中正路339號","121.454801666667","25.0203433333333","6500100","板橋區"
"220011","609-BX","2018/08/04 13:59:25","新北市板橋區中山路二段193號","121.476331666667","25.0169966666667","6500100","板橋區"
"220040","637-BX","2018/08/04 13:59:25","新北市板橋區大同街23號","121.477388333333","25.0270366666667","6500100","板橋區"
"220005","686-BX","2018/08/04 13:59:28","新北市板橋區重慶路91號","121.462011666667","25.0059366666667","6500100","板橋區"
"220025","687-BX","2018/08/04 13:59:38","新北市板橋區大觀路二段174巷184號","121.44213","25.0037566666667","6500100","板橋區"
"220042","689-BX","2018/08/04 13:59:25","新北市板橋區民生路三段54號","121.467265","25.0252716666667","6500100","板橋區"
"220002","741-BX","2018/08/04 13:59:40","新北市板橋區成都街69號","121.462323333333","25.0051566666667","6500100","板橋區"
"220051","KEA-2699","2018/08/04 13:59:39","新北市板橋區懷德街235巷2-1號","121.481385","25.02805","6500100","板橋區"
"220014","829-TW","2018/08/04 13:59:39","新北市板橋區三民路二段正隆巷12弄6號","121.478105","25.013065","6500100","板橋區"
"220016","830-TW","2018/08/04 13:59:43","新北市板橋區中山路二段443巷60號","121.481123333333","25.0217616666667","6500100","板橋區"
"220045","831-TW","2018/08/04 13:59:23","新北市板橋區莒光路95號","121.472373333333","25.0241266666667","6500100","板橋區"
"220038","833-TW","2018/08/04 13:59:37","新北市板橋區文化路二段294號","121.472111666667","25.0296283333333","6500100","板橋區"
"220022","895-R6","2018/08/04 13:59:37","新北市板橋區西門街55巷11號","121.454276666667","25.009815","6500100","板橋區"
"220021","985-R7","2018/08/04 13:59:28","新北市板橋區館前西路209號","121.45491","25.0084416666667","6500100","板橋區"
"220046","AAC-210","2018/08/04 13:59:30","新北市板橋區漢生東路13號","121.464838333333","25.0175733333333","6500100","板橋區"
"220018","AAC-253","2018/08/04 13:59:33","新北市板橋區四川路一段489號","121.45704","24.99717","6500100","板橋區"
"235032","KEA-2873","2018/08/04 13:59:34","新北市中和區安邦街83號","121.49701","24.9965133333333","6500300","中和區"
"235025","KEA-2875","2018/08/04 13:59:16","新北市中和區中山路三段63巷13弄7號","121.477083333333","25.003865","6500300","中和區"
