"lineid","car","time","location","longitude","latitude","cityid","cityname"
"234044","148-BY","2018/08/04 14:09:40","新北市永和區得和路361號","121.524566666667","24.9993633333333","6500400","永和區"
"234070","149-BY","2018/08/04 14:09:31","新北市永和區民族街178巷1號","121.518293333333","24.9972133333333","6500400","永和區"
"234005","207-UY","2018/08/04 14:09:34","新北市中和區中和路236號","121.507106666667","24.99963","6500400","永和區"
"234078","298-R6","2018/08/04 14:09:39","新北市永和區國中路109巷3弄2號","121.523863333333","25.0055466666667","6500400","永和區"
"234062","337-UY","2018/08/04 14:09:36","新北市永和區永利路156號","121.522533333333","25.0027483333333","6500400","永和區"
"234084","338-UY","2018/08/04 14:09:25","新北市永和區福和路272號","121.517986666667","25.0076066666667","6500400","永和區"
"234068","552-UM","2018/08/04 14:09:25","新北市永和區福和路243號","121.518225","25.007505","6500400","永和區"
"234036","553-UM","2018/08/04 14:09:35","新北市永和區成功路一段49號","121.527116666667","25.004045","6500400","永和區"
"234015","745-BX","2018/08/04 14:09:42","新北市永和區仁愛路23號","121.514385","25.0134083333333","6500400","永和區"
"234028","746-BX","2018/08/04 14:09:33","新北市永和區民生路22巷31號","121.520968333333","24.9969683333333","6500400","永和區"
"234052","KEA-2590","2018/08/04 14:09:40","新北市永和區博愛街31巷2號","121.518371666667","25.015865","6500400","永和區"
"234012","KEA-2591","2018/08/04 14:09:32","新北市永和區保生路3號","121.506271666667","25.0072533333333","6500400","永和區"
"234060","AAD-866","2018/08/04 14:09:43","新北市中和區安平路222號","121.513996666667","25.0001266666667","6500400","永和區"
"234040","862-TW","2018/08/04 14:09:35","新北市永和區雙和街64巷3號","121.50928","25.00352","6500400","永和區"
"234048","863-TW","2018/08/04 14:09:21","新北市永和區環河西路二段39號","121.507326666667","25.0156483333333","6500400","永和區"
"234025","9371-KE","2018/08/04 14:09:25","新北市永和區安樂路272巷9弄7號","121.515043333333","25.0045966666667","6500400","永和區"
"234010","9373-KE","2018/08/04 14:09:40","新北市永和區環河西路二段241號","121.500646666667","25.0092616666667","6500400","永和區"
"248017","225-UY","2018/08/04 14:09:27","新北市五股區壟路1-4號","121.419358333333","25.0959383333333","6501500","五股區"
"234022","9380-KE","2018/08/04 14:09:25","新北市永和區竹林路25巷23號","121.518318333333","25.0150566666667","6500400","永和區"
"234076","969-R7","2018/08/04 14:09:37","新北市永和區民有街75巷10弄45號","121.519455","24.996185","6500400","永和區"
"234072","AAC-211","2018/08/04 14:09:38","新北市永和區豫溪街160巷1號","121.523325","25.00959","6500400","永和區"
"234066","AAC-212","2018/08/04 14:09:41","新北市永和區保平路236巷7弄2號","121.508703333333","25.006135","6500400","永和區"
"234001","AAC-295","2018/08/04 14:09:26","新北市永和區中正路696-1號","121.516438333333","25.0098083333333","6500400","永和區"
"231005","001-UM","2018/08/04 14:09:30","新北市新店區中興路三段240號","121.543068333333","24.9836983333333","6500600","新店區"
"231002","002-UM","2018/08/04 14:09:34","新北市新店區中正路487號","121.533793333333","24.9820616666667","6500600","新店區"
"231001","047-UY","2018/08/04 14:09:35","新北市新店區中華路36號","121.540101666667","24.9680416666667","6500600","新店區"
"231010","107-UY","2018/08/04 14:09:44","新北市新店區安一路一段1-1號","121.519578333333","24.96128","6500600","新店區"
"231020","108-UY","2018/08/04 14:09:31","新北市新店區屈尺路83-1號","121.545121666667","24.922465","6500600","新店區"
"231012","187-VK","2018/08/04 14:09:35","新北市新店區中興路一段266號","121.544836666667","24.9672633333333","6500600","新店區"
"231023","KEA-2219","2018/08/04 14:09:34","新北市新店區文中路45號","121.539605","24.95661","6500600","新店區"
"231026","256-BX","2018/08/04 14:09:25","新北市新店區安一路一段1-1號","121.519686666667","24.9611866666667","6500600","新店區"
"231003","268-BY","2018/08/04 14:09:35","新北市新店區中興路一段24-2號","121.538491666667","24.9583366666667","6500600","新店區"
"231018","278-BY","2018/08/04 14:09:35","新北市新店區中央四街45號","121.528033333333","24.9750216666667","6500600","新店區"
"231017","AAD-862","2018/08/04 14:09:29","新北市新店區中生路178號","121.576048333333","24.9486516666667","6500600","新店區"
"231028","355-BY","2018/08/04 14:09:28","新北市新店區安和路2段237-1號","121.516995","24.9764883333333","6500600","新店區"
"231038","3712-VJ","2018/08/04 14:09:24","新北市新店區安康路一段323-1號","121.521858333333","24.9636433333333","6500600","新店區"
"231027","3713-VJ","2018/08/04 14:09:40","新北市新店區光明街138巷11號","121.540095","24.9611816666667","6500600","新店區"
"231037","4716-K9","2018/08/04 14:09:40","新北市新店區安康路二段341巷14號","121.496376666667","24.9547633333333","6500600","新店區"
"231025","4715-K9","2018/08/04 14:09:25","新北市新店區二十張路129巷1弄2號","121.5361","24.9789683333333","6500600","新店區"
"231036","512-UM","2018/08/04 14:09:29","新北市新店區安祥路109巷6弄41號","121.4755","24.95744","6500600","新店區"
"231013","513-UM","2018/08/04 14:09:26","新北市新店區北新路三段65巷34弄21號","121.540006666667","24.9816016666667","6500600","新店區"
"231034","616-UM","2018/08/04 14:09:41","新北市新店區車子路11號","121.5031","24.9521116666667","6500600","新店區"
"231006","617-UM","2018/08/04 14:09:32","新北市新店區北宜路二段317號","121.556886666667","24.9539066666667","6500600","新店區"
"231030","619-UM","2018/08/04 14:09:28","新北市新店區安民街115巷28號","121.51519","24.967635","6500600","新店區"
"231035","719-UM","2018/08/04 14:09:41","新北市新店區安和路一段52巷2號","121.517636666667","24.966045","6500600","新店區"
"231033","720-UM","2018/08/04 14:09:43","新北市新店區永業路49巷2號","121.532173333333","24.9549533333333","6500600","新店區"
"231029","897-TW","2018/08/04 14:09:35","新北市新店區安康路二段157號","121.510355","24.959415","6500600","新店區"
"231004","899-TW","2018/08/04 14:09:41","新北市新店區北新路二段128號","121.543081666667","24.9748433333333","6500600","新店區"
"231024","AKT-0513","2018/08/04 14:09:29","新北市新店區薏仁坑路自強巷6號","121.49677","24.9582766666667","6500600","新店區"
"235030","003-UY","2018/08/04 14:09:27","新北市中和區廣福路12-1號","121.505595","25.0027216666667","6500300","中和區"
"235028","005-UY","2018/08/04 14:09:36","新北市中和區中和路40巷10號","121.499546666667","25.0013266666667","6500300","中和區"
"235027","006-UY","2018/08/04 14:09:26","新北市中和區連城路249巷28弄1號","121.494683333333","24.9949966666667","6500300","中和區"
"235020","096-UM","2018/08/04 14:09:33","新北市中和區員山路537號","121.479623333333","25.0071166666667","6500300","中和區"
"235003","097-UM","2018/08/04 14:09:40","新北市中和區秀峰街119巷6弄2號","121.519691666667","24.990095","6500300","中和區"
"235029","098-UM","2018/08/04 14:09:29","新北市中和區中山路二段64巷7弄7號","121.503423333333","25.00475","6500300","中和區"
"235004","150-BY","2018/08/04 14:09:40","新北市中和區宜安路117號","121.510106666667","24.9978683333333","6500300","中和區"
"235022","151-BY","2018/08/04 14:09:42","新北市中和區員山路102號","121.481048333333","24.9953966666667","6500300","中和區"
"235019","183-VK","2018/08/04 14:09:34","新北市中和區德光路104號","121.468301666667","25.0033166666667","6500300","中和區"
"235002","185-VK","2018/08/04 14:09:38","新北市中和區大仁街10巷12號","121.518381666667","24.9925116666667","6500300","中和區"
"235013","186-VK","2018/08/04 14:09:32","新北市中和區景新街145號","121.506258333333","24.99655","6500300","中和區"
"235031","255-BX","2018/08/04 14:09:39","新北市中和區中正路711號","121.484458333333","24.9985","6500300","中和區"
"235008","293-VK","2018/08/04 14:09:35","新北市中和區中興街212號","121.49963","24.9901733333333","6500300","中和區"
"235036","301-VK","2018/08/04 14:09:25","新北市中和區中山路二段170號","121.501266666667","25.002915","6500300","中和區"
"235007","352-BY","2018/08/04 14:09:29","新北市中和區景平路71-3號","121.519331666667","24.9915083333333","6500300","中和區"
"247009","KEA-2869","2018/08/04 14:09:31","新北市蘆洲區民族路31-12號","121.477781666667","25.0850733333333","6501400","蘆洲區"
"235014","4979-A6","2018/08/04 14:09:41","新北市中和區復興路249巷11弄3號","121.503573333333","24.9897516666667","6500300","中和區"
"235033","4980-A6","2018/08/04 14:09:29","新北市中和區中和路217巷10號","121.504411666667","25.00058","6500300","中和區"
"235006","551-UM","2018/08/04 14:09:32","新北市中和區自立路111號","121.522093333333","24.9945716666667","6500300","中和區"
"235034","558-UM","2018/08/04 14:09:27","新北市中和區中和路93號","121.501215","25.0006066666667","6500300","中和區"
"235009","565-BX","2018/08/04 14:09:34","新北市中和區景新街467巷35弄10號","121.514398333333","24.9890766666667","6500300","中和區"
"235018","640-BX","2018/08/04 14:09:37","新北市中和區國光街109巷2弄6號","121.46949","25.0007083333333","6500300","中和區"
"235024","647-TV","2018/08/04 14:09:27","新北市中和區中山路三段111號","121.474848333333","25.0060283333333","6500300","中和區"
"235011","732-UM","2018/08/04 14:09:35","新北市中和區興南路一段104號","121.50983","24.9889966666667","6500300","中和區"
"235010","733-UM","2018/08/04 14:09:41","新北市中和區忠孝街1巷16號","121.508665","24.9837433333333","6500300","中和區"
"235035","783-BX","2018/08/04 14:09:33","新北市中和區中板路47巷19號","121.482118333333","25.011175","6500300","中和區"
"235026","800-TS","2018/08/04 14:09:43","新北市中和區中山路二段414號","121.489941666667","25.003915","6500300","中和區"
"235021","801-TS","2018/08/04 14:09:45","新北市中和區民利街68巷2弄2號","121.478485","24.9986616666667","6500300","中和區"
"235005","802-TS","2018/08/04 14:09:25","新北市中和區中安街178巷7號","121.510505","24.99884","6500300","中和區"
"235016","805-TS","2018/08/04 14:09:25","新北市中和區興南路二段142巷19弄58號","121.502391666667","24.9833183333333","6500300","中和區"
"235012","896-TW","2018/08/04 14:09:32","新北市中和區華新街109巷22號","121.50851","24.9806566666667","6500300","中和區"
"235017","900-TW","2018/08/04 14:09:43","新北市中和區華福街71巷32號","121.467731666667","24.99695","6500300","中和區"
"235015","157-BY","2018/08/04 14:09:25","新北市中和區興南路一段77號","121.510051666667","24.9892166666667","6500300","中和區"
"235001","AAC-213","2018/08/04 14:09:40","新北市中和區秀朗路三段50巷2號","121.525985","24.995485","6500300","中和區"
"220105","013-TV","2018/08/04 14:09:38","新北市板橋區雙十路三段9號","121.47155","25.0301966666667","6500100","板橋區"
"220003","015-TV","2018/08/04 14:09:38","新北市板橋區中山路一段152號","121.464186666667","25.0108966666667","6500100","板橋區"
"220013","072-UY","2018/08/04 14:09:27","新北市板橋區民族路219巷20號","121.469395","25.0080733333333","6500100","板橋區"
"220034","073-UY","2018/08/04 14:09:39","新北市板橋區中正路236巷79號","121.459161666667","25.0196766666667","6500100","板橋區"
"220017","AAD-861","2018/08/04 14:09:35","新北市板橋區貴興路8號","121.457685","25.004405","6500100","板橋區"
"247023","893-R6","2018/08/04 14:09:26","新北市蘆洲區光榮路98號","121.464018333333","25.08916","6501400","蘆洲區"
"247013","546-UM","2018/08/04 14:09:33","新北市蘆洲區三民路125號","121.472231666667","25.086355","6501400","蘆洲區"
"247021","500-BY","2018/08/04 14:09:38","新北市蘆洲區三民路118號","121.4714","25.0872116666667","6501400","蘆洲區"
"247011","339-TH","2018/08/04 14:09:27","新北市蘆洲區信義路331號","121.478018333333","25.0866683333333","6501400","蘆洲區"
"247003","337-TH","2018/08/04 14:09:42","新北市蘆洲區中華街6巷40號","121.46263","25.0824933333333","6501400","蘆洲區"
"247005","336-TH","2018/08/04 14:09:24","新北市蘆洲區永安南路二段16巷17弄35號","121.46714","25.078015","6501400","蘆洲區"
"247017","057-VK","2018/08/04 14:09:32","新北市蘆洲區民族路227巷24弄1號","121.476305","25.0886183333333","6501400","蘆洲區"
"247007","056-VK","2018/08/04 14:09:40","新北市蘆洲區中山一路265號","121.472696666667","25.0801366666667","6501400","蘆洲區"
"247015","053-VK","2018/08/04 14:09:17","新北市蘆洲區光華路46巷23號","121.468173333333","25.0837266666667","6501400","蘆洲區"
"247001","002-UY","2018/08/04 14:09:30","新北市蘆洲區永平街45號","121.457985","25.0910533333333","6501400","蘆洲區"
"247019","001-UY","2018/08/04 14:09:28","新北市蘆洲區仁愛街36巷18號","121.472823333333","25.0934933333333","6501400","蘆洲區"
"235023","251-BX","2018/08/04 14:09:37","新北市中和區圓通路294巷17-5號","121.488676666667","24.9905083333333","6500300","中和區"
"228005","097-TW","2018/08/04 14:09:34","新北市雙溪區三港里雙澳路100號","121.888518333333","25.0561766666667","6502600","貢寮區"
"228004","212-TW","2018/08/04 14:09:39","新北市貢寮區雙玉里德心街9-1號","121.918145","25.015955","6502600","貢寮區"
"253003","6232-TK","2018/08/04 14:09:40","新北市石門區尖子鹿45號","121.582488333333","25.2686733333333","6502200","石門區"
"253001","6251-TK","2018/08/04 14:09:42","新北市石門區八甲70-3號","121.530968333333","25.26958","6502200","石門區"
"253002","637-UY","2018/08/04 14:09:20","新北市石門區七股43號","121.552623333333","25.2604483333333","6502200","石門區"
"253004","8270-PC","2018/08/04 14:09:25","新北市石門區坪林50號","121.58953","25.2689316666667","6502200","石門區"
"207002","749-BX","2018/08/04 14:09:43","新北市萬里區溪底里瑞泉路12號","121.60296","25.1440833333333","6502800","萬里區"
"252005","073-UM","2018/08/04 14:09:38","新北市三芝區橫山里橫山56-6號","121.535341666667","25.2506716666667","6502100","三芝區"
"207001","662-BX","2018/08/04 14:09:38","新北市萬里區磺潭里清水18號","121.637826666667","25.1976566666667","6502800","萬里區"
"237007","153-BY","2018/08/04 14:09:37","新北市三峽區民權街9號","121.370406666667","24.9345166666667","6500900","三峽區"
"236068","105-UM","2018/08/04 14:09:27","新北市土城區明德路一段130號","121.463655","24.9791316666667","6501300","土城區"
"236040","107-UM","2018/08/04 14:09:27","新北市土城區中華路二段2號","121.438841666667","24.9798983333333","6501300","土城區"
"236074","166-UM","2018/08/04 14:09:34","新北市土城區永和街2巷4號","121.434528333333","24.96488","6501300","土城區"
"236029","253-BX","2018/08/04 14:09:28","新北市土城區城林路6巷80號","121.438415","24.9798","6501300","土城區"
"236024","269-VK","2018/08/04 14:09:38","新北市土城區承天路65號","121.439486666667","24.9636883333333","6501300","土城區"
"236013","270-VK","2018/08/04 14:09:37","新北市土城區學府路一段194號","121.453185","24.9859616666667","6501300","土城區"
"236032","271-VK","2018/08/04 14:09:36","新北市土城區明德路一段375-1號","121.454958333333","24.97812","6501300","土城區"
"236017","401-BY","2018/08/04 14:09:43","新北市土城區城林路6巷80號","121.438306666667","24.9795083333333","6501300","土城區"
"236006","498-BY","2018/08/04 14:09:37","新北市土城區日新街47-2號","121.442906666667","24.9887816666667","6501300","土城區"
"236057","912-UM","2018/08/04 14:09:40","新北市土城區中央路四段99號","121.416833333333","24.95796","6501300","土城區"
"236045","913-UM","2018/08/04 14:09:33","新北市土城區明德路一段365-1號","121.453565","24.97904","6501300","土城區"
"236060","915-UM","2018/08/04 14:09:43","新北市土城區金城路二段200號","121.454788333333","24.981715","6501300","土城區"
"236054","AAC-216","2018/08/04 14:09:36","新北市土城區城林路6巷80號","121.438753333333","24.979655","6501300","土城區"
"220027","145-BY","2018/08/04 14:09:36","新北市板橋區民權路202巷9弄29號","121.459393333333","25.0155383333333","6500100","板橋區"
"220028","200-UY","2018/08/04 14:09:42","新北市板橋區大觀路二段7巷57號","121.448711666667","25.00337","6500100","板橋區"
"220030","610-BX","2018/08/04 14:09:37","新北市板橋區溪北路49號","121.427725","24.9899783333333","6500100","板橋區"
"220050","245-BX","2018/08/04 14:09:31","新北市板橋區萬板路15號","121.470586666667","25.0209516666667","6500100","板橋區"
"220052","257-TC","2018/08/04 14:09:39","新北市板橋區文化路一段188巷9弄35號","121.46907","25.01919","6500100","板橋區"
"220004","276-BY","2018/08/04 14:09:41","新北市板橋區信義路110巷2弄14號","121.457695","24.992715","6500100","板橋區"
"220020","277-BY","2018/08/04 14:09:35","新北市板橋區金門街369巷99號","121.428241666667","24.981585","6500100","板橋區"
"220019","283-VK","2018/08/04 14:09:43","新北市板橋區大豐街29號","121.462055","25.0013666666667","6500100","板橋區"
"220043","285-UM","2018/08/04 14:09:28","新北市板橋區光武街130號","121.465548333333","25.029785","6500100","板橋區"
"220001","285-VK","2018/08/04 14:09:32","新北市板橋區懷仁街34巷12號","121.476051666667","25.01922","6500100","板橋區"
"220031","286-VK","2018/08/04 14:09:27","新北市板橋區大觀路二段174巷200號","121.442441666667","25.004015","6500100","板橋區"
"220029","287-VK","2018/08/04 14:09:38","新北市板橋區南雅西路二段2-4號","121.453111666667","25.0091566666667","6500100","板橋區"
"220039","288-VK","2018/08/04 14:09:41","新北市板橋區裕民街45巷3-1號","121.461646666667","25.0284016666667","6500100","板橋區"
"220009","293-UM","2018/08/04 14:09:28","新北市板橋區中山路二段305號","121.478766666667","25.0184166666667","6500100","板橋區"
"220010","295-UM","2018/08/04 14:09:40","新北市板橋區三民路二段居仁巷2號","121.47937","25.0131366666667","6500100","板橋區"
"220032","296-UM","2018/08/04 14:09:40","新北市板橋區溪崑二街54號","121.42783","24.9907183333333","6500100","板橋區"
"220023","303-R5","2018/08/04 14:09:22","新北市板橋區光華街1巷1號","121.454165","25.0110316666667","6500100","板橋區"
"220041","307-R5","2018/08/04 14:09:34","新北市板橋區文化路二段225巷29-1號","121.469553333333","25.0284416666667","6500100","板橋區"
"220047","317-R6","2018/08/04 14:09:35","新北市板橋區民有街1號","121.465828333333","25.024135","6500100","板橋區"
"220012","486-VK","2018/08/04 14:09:32","新北市板橋區民生路一段33號","121.476166666667","25.012085","6500100","板橋區"
"220037","491-VK","2018/08/04 14:09:35","新北市板橋區文化路二段182巷3弄46-1號","121.472488333333","25.0285966666667","6500100","板橋區"
"220104","560-BX","2018/08/04 14:09:36","新北市板橋區中正路379巷12號","121.453796666667","25.0218083333333","6500100","板橋區"
"220011","609-BX","2018/08/04 14:09:25","新北市板橋區三民路二段202-6號","121.47902","25.0143766666667","6500100","板橋區"
"220040","637-BX","2018/08/04 14:09:27","新北市板橋區縣民大道三段219號","121.480426666667","25.0253116666667","6500100","板橋區"
"220005","686-BX","2018/08/04 14:09:28","新北市板橋區重慶路307號","121.463833333333","24.9986383333333","6500100","板橋區"
"220025","687-BX","2018/08/04 14:09:38","新北市板橋區龍興街5號","121.442593333333","24.9994166666667","6500100","板橋區"
"220042","689-BX","2018/08/04 14:09:28","新北市板橋區民生路三段187號","121.465533333333","25.027535","6500100","板橋區"
"220002","741-BX","2018/08/04 14:09:23","新北市板橋區實踐路46號","121.46359","25.0066116666667","6500100","板橋區"
"220051","KEA-2699","2018/08/04 14:09:39","新北市板橋區田單街49巷1弄10號","121.482833333333","25.0287166666667","6500100","板橋區"
"220014","829-TW","2018/08/04 14:09:44","新北市板橋區民享街116巷2弄11號","121.477448333333","25.01551","6500100","板橋區"
"220016","830-TW","2018/08/04 14:09:32","新北市板橋區翠華街6巷59號","121.481265","25.025005","6500100","板橋區"
"220045","831-TW","2018/08/04 14:09:37","新北市板橋區大同街8巷41號","121.477761666667","25.0260866666667","6500100","板橋區"
"220038","833-TW","2018/08/04 14:09:37","新北市板橋區文化路二段332號","121.472706666667","25.0303216666667","6500100","板橋區"
"220022","895-R6","2018/08/04 14:09:37","新北市板橋區府中路86號","121.456276666667","25.0096966666667","6500100","板橋區"
"220021","985-R7","2018/08/04 14:09:28","新北市板橋區民權路248號","121.458421666667","25.014655","6500100","板橋區"
"220046","AAC-210","2018/08/04 14:09:30","新北市板橋區新海路135巷29號","121.460096666667","25.0229616666667","6500100","板橋區"
"220018","AAC-253","2018/08/04 14:09:33","新北市板橋區忠孝路86號","121.461446666667","25.0020833333333","6500100","板橋區"
"235032","KEA-2873","2018/08/04 14:09:34","新北市中和區圓通路158巷3-1號","121.497696666667","24.9961866666667","6500300","中和區"
"235025","KEA-2875","2018/08/04 14:09:16","新北市中和區員山路341號","121.48127","25.001595","6500300","中和區"
