"lineid","car","time","location","longitude","latitude","cityid","cityname"
"234070","149-BY","2018/08/04 14:29:31","新北市板橋區萬安街85巷1弄11號","121.48465","25.0250083333333","6500400","永和區"
"234005","207-UY","2018/08/04 14:29:34","新北市永和區中正路486號","121.517471666667","25.0039383333333","6500400","永和區"
"234078","298-R6","2018/08/04 14:29:39","新北市永和區永亨路70號","121.520905","25.0058833333333","6500400","永和區"
"234062","337-UY","2018/08/04 14:29:36","新北市永和區中正路419號","121.516988333333","25.005015","6500400","永和區"
"234084","338-UY","2018/08/04 14:29:45","新北市永和區光復街21號","121.516468333333","25.0174616666667","6500400","永和區"
"234068","552-UM","2018/08/04 14:29:45","新北市永和區永亨路7號","121.51946","25.0056966666667","6500400","永和區"
"234028","746-BX","2018/08/04 14:29:33","新北市永和區民權路84號","121.519925","24.9969366666667","6500400","永和區"
"234052","KEA-2590","2018/08/04 14:29:40","新北市永和區環河東路一段80號","121.519558333333","25.0164683333333","6500400","永和區"
"234060","AAD-866","2018/08/04 14:29:43","新北市永和區中正路381號","121.517185","25.0036983333333","6500400","永和區"
"234040","862-TW","2018/08/04 14:29:35","新北市永和區安樂路332巷1號","121.5146","25.0060316666667","6500400","永和區"
"234048","863-TW","2018/08/04 14:29:41","新北市永和區保福路三段2-1號","121.508608333333","25.0154916666667","6500400","永和區"
"234025","9371-KE","2018/08/04 14:29:25","新北市永和區中正路1號","121.51366","24.9954566666667","6500400","永和區"
"248017","225-UY","2018/08/04 14:29:27","新北市五股區外寮路13-1號","121.424868333333","25.0812566666667","6501500","五股區"
"234072","AAC-211","2018/08/04 14:29:37","新北市永和區環河東路一段126號","121.52089","25.01549","6500400","永和區"
"234001","AAC-295","2018/08/04 14:29:26","新北市永和區大新街52巷1弄7號","121.516283333333","25.0082266666667","6500400","永和區"
"231005","001-UM","2018/08/04 14:29:23","新北市新店區北新路三段218號","121.541163333333","24.98438","6500600","新店區"
"231002","002-UM","2018/08/04 14:29:34","新北市新店區中正路438號","121.534206666667","24.978285","6500600","新店區"
"231001","047-UY","2018/08/04 14:29:29","新北市新店區中正路75巷71號","121.543208333333","24.9688383333333","6500600","新店區"
"231010","107-UY","2018/08/04 14:14:02","新北市新店區安一路一段1-1號","121.519728333333","24.961245","6500600","新店區"
"231020","108-UY","2018/08/04 14:29:31","新北市新店區桂山路35號","121.559795","24.902835","6500600","新店區"
"231012","187-VK","2018/08/04 14:29:35","新北市新店區寶興路61巷1號","121.550835","24.9720466666667","6500600","新店區"
"231023","KEA-2219","2018/08/04 14:29:34","新北市新店區光明街143號","121.539568333333","24.962115","6500600","新店區"
"231003","268-BY","2018/08/04 14:29:23","新北市新店區中興路一段267號","121.54485","24.9676366666667","6500600","新店區"
"231018","278-BY","2018/08/04 14:29:35","新北市新店區中央三街27號","121.528588333333","24.974125","6500600","新店區"
"231017","AAD-862","2018/08/04 14:29:29","新北市新店區北宜路三段221號","121.59244","24.9532133333333","6500600","新店區"
"231028","355-BY","2018/08/04 14:29:28","新北市新店區安康路二段188號","121.511315","24.9600933333333","6500600","新店區"
"231038","3712-VJ","2018/08/04 14:29:24","新北市新店區溪洲路8巷18號","121.53347","24.961795","6500600","新店區"
"231027","3713-VJ","2018/08/04 14:29:34","新北市新店區寶橋路80號","121.546105","24.9755183333333","6500600","新店區"
"231037","4716-K9","2018/08/04 14:29:40","新北市新店區柴埕路59號","121.513488333333","24.9648883333333","6500600","新店區"
"231036","512-UM","2018/08/04 14:29:09","新北市新店區安祥路109巷8號","121.475461666667","24.9588266666667","6500600","新店區"
"231013","513-UM","2018/08/04 14:29:26","新北市新店區民權路108-2號","121.536095","24.9835233333333","6500600","新店區"
"231034","616-UM","2018/08/04 14:29:41","新北市新店區車子路11號","121.503113333333","24.952125","6500600","新店區"
"231006","617-UM","2018/08/04 14:29:32","新北市新店區北宜路二段258號","121.56046","24.9541616666667","6500600","新店區"
"231030","619-UM","2018/08/04 14:29:28","新北市新店區安民街65巷6號","121.516188333333","24.9670083333333","6500600","新店區"
"231035","719-UM","2018/08/04 14:29:41","新北市新店區安民街156巷26號","121.517366666667","24.9698566666667","6500600","新店區"
"231033","720-UM","2018/08/04 14:29:43","新北市新店區安業街33號","121.51746","24.9772033333333","6500600","新店區"
"231029","897-TW","2018/08/04 14:29:35","新北市新店區安康路二段341巷1號","121.496818333333","24.95519","6500600","新店區"
"231004","899-TW","2018/08/04 14:29:41","新北市新店區中正路263-3號","121.538383333333","24.97389","6500600","新店區"
"231024","AKT-0513","2018/08/04 14:29:29","新北市新店區中華路83巷55號","121.538401666667","24.96762","6500600","新店區"
"235030","003-UY","2018/08/04 14:29:27","新北市中和區中和路136號","121.503538333333","24.999405","6500300","中和區"
"235028","005-UY","2018/08/04 14:29:36","新北市中和區南山路127巷14號","121.503206666667","24.9973183333333","6500300","中和區"
"235027","006-UY","2018/08/04 14:29:26","新北市中和區連城路171巷41弄1號","121.496451666667","24.9966733333333","6500300","中和區"
"235020","096-UM","2018/08/04 14:29:33","新北市中和區員山路514巷18號","121.479726666667","25.0096516666667","6500300","中和區"
"235003","097-UM","2018/08/04 14:29:40","新北市中和區秀峰街103巷7弄4號","121.51953","24.9889483333333","6500300","中和區"
"235029","098-UM","2018/08/04 14:29:09","新北市中和區永和路9巷1號","121.499218333333","25.00398","6500300","中和區"
"235004","150-BY","2018/08/04 14:29:40","新北市中和區宜安路23巷3號","121.512726666667","24.995615","6500300","中和區"
"235022","151-BY","2018/08/04 14:29:22","新北市中和區連城路507號","121.482496666667","24.9954233333333","6500300","中和區"
"235019","183-VK","2018/08/04 14:29:30","新北市中和區德光路24號","121.470945","25.004365","6500300","中和區"
"235002","185-VK","2018/08/04 14:29:38","新北市中和區自立路99巷16號","121.522895","24.9947483333333","6500300","中和區"
"235013","186-VK","2018/08/04 14:29:32","新北市中和區景新街273巷10號","121.509935","24.99382","6500300","中和區"
"235031","255-BX","2018/08/04 14:29:39","新北市中和區新生街220巷2號","121.483128333333","24.9985316666667","6500300","中和區"
"235008","293-VK","2018/08/04 14:29:40","新北市中和區南山路160號","121.504358333333","24.9918083333333","6500300","中和區"
"235036","301-VK","2018/08/04 14:29:25","新北市中和區福祥路7號","121.499413333333","25.003225","6500300","中和區"
"235007","352-BY","2018/08/04 14:29:29","新北市中和區景平路390號","121.510425","24.9928516666667","6500300","中和區"
"247009","KEA-2869","2018/08/04 14:29:31","新北市蘆洲區三民路26巷20弄5號","121.47763","25.0827566666667","6501400","蘆洲區"
"235014","4979-A6","2018/08/04 14:29:22","新北市中和區中正路527號","121.48773","24.9939","6500300","中和區"
"235033","4980-A6","2018/08/04 14:29:29","新北市中和區連城路97號","121.496483333333","24.999855","6500300","中和區"
"235006","551-UM","2018/08/04 14:29:32","新北市中和區中和路350巷15弄13號","121.510753333333","25.0011683333333","6500300","中和區"
"235034","558-UM","2018/08/04 14:29:27","新北市中和區景平路626巷1號","121.500446666667","24.9977766666667","6500300","中和區"
"235009","565-BX","2018/08/04 14:29:34","新北市中和區景新街399巷8號","121.513098333333","24.9898516666667","6500300","中和區"
"235018","640-BX","2018/08/04 14:29:37","新北市中和區民德路2號","121.468705","25.0034516666667","6500300","中和區"
"235024","647-TV","2018/08/04 14:29:26","新北市中和區員山路266巷23號","121.481998333333","25.0018416666667","6500300","中和區"
"235011","732-UM","2018/08/04 14:29:35","新北市中和區景平路259巷16號","121.507855","24.9926466666667","6500300","中和區"
"235010","733-UM","2018/08/04 14:29:41","新北市中和區忠孝街37巷52號","121.511058333333","24.9849666666667","6500300","中和區"
"235035","783-BX","2018/08/04 14:29:33","新北市中和區連城路469巷29號","121.483545","24.99482","6500300","中和區"
"235026","800-TS","2018/08/04 14:29:41","新北市中和區中山路二段480號","121.487615","25.0048433333333","6500300","中和區"
"235021","801-TS","2018/08/04 14:29:36","新北市中和區員山路376號","121.48073","25.0041816666667","6500300","中和區"
"235005","802-TS","2018/08/04 14:29:45","新北市中和區中和路228號","121.506541666667","24.9994533333333","6500300","中和區"
"235016","805-TS","2018/08/04 14:29:25","新北市中和區華新街143巷67弄35號","121.507618333333","24.9793183333333","6500300","中和區"
"235012","896-TW","2018/08/04 14:29:32","新北市中和區忠孝街112號","121.512163333333","24.9853533333333","6500300","中和區"
"235017","900-TW","2018/08/04 14:29:43","新北市中和區民德路197號","121.468868333333","24.9985666666667","6500300","中和區"
"235015","157-BY","2018/08/04 14:29:45","新北市中和區中興街130號","121.49984","24.992555","6500300","中和區"
"235001","AAC-213","2018/08/04 14:29:40","新北市中和區秀朗路三段10巷14弄10號","121.52509","24.9965816666667","6500300","中和區"
"220105","013-TV","2018/08/04 14:29:40","新北市板橋區江寧路三段79巷2號","121.472413333333","25.0324566666667","6500100","板橋區"
"220003","015-TV","2018/08/04 14:29:38","新北市板橋區重慶路276-10號","121.463225","24.9998","6500100","板橋區"
"220013","072-UY","2018/08/04 14:29:27","新北市板橋區國泰街75巷39-2號","121.468175","25.0053033333333","6500100","板橋區"
"220034","073-UY","2018/08/04 14:29:39","新北市板橋區國光路173巷6號","121.460498333333","25.0188433333333","6500100","板橋區"
"220017","AAD-861","2018/08/04 14:29:35","新北市板橋區貴興路31號","121.457775","25.0039866666667","6500100","板橋區"
"247023","893-R6","2018/08/04 14:29:26","新北市蘆洲區中正路263巷2號","121.467458333333","25.0874316666667","6501400","蘆洲區"
"247013","546-UM","2018/08/04 14:29:33","新北市蘆洲區成功路164號","121.471441666667","25.0836033333333","6501400","蘆洲區"
"247011","339-TH","2018/08/04 14:29:27","新北市蘆洲區中興街144號","121.482096666667","25.08979","6501400","蘆洲區"
"247003","337-TH","2018/08/04 14:29:38","新北市蘆洲區長榮路269巷28號","121.45961","25.08585","6501400","蘆洲區"
"247005","336-TH","2018/08/04 14:29:24","新北市蘆洲區長安街46巷10號","121.463805","25.0801316666667","6501400","蘆洲區"
"247017","057-VK","2018/08/04 14:29:32","新北市蘆洲區民族路306號","121.477466666667","25.0899516666667","6501400","蘆洲區"
"247007","056-VK","2018/08/04 14:29:40","新北市蘆洲區民生街133號","121.472568333333","25.0791016666667","6501400","蘆洲區"
"247015","053-VK","2018/08/04 14:29:37","新北市蘆洲區中正路185巷68弄31號","121.466158333333","25.0856383333333","6501400","蘆洲區"
"247001","002-UY","2018/08/04 14:29:30","新北市蘆洲區永樂街38巷33弄19號","121.457268333333","25.0895966666667","6501400","蘆洲區"
"247019","001-UY","2018/08/04 14:29:28","新北市蘆洲區水湳街172-1號","121.47047","25.09392","6501400","蘆洲區"
"235023","251-BX","2018/08/04 14:29:37","新北市中和區圓通路337號","121.491841666667","24.990555","6500300","中和區"
"228005","097-TW","2018/08/04 14:29:41","新北市貢寮區美豐里巫里岸9-1號","121.90196","25.0702533333333","6502600","貢寮區"
"228004","212-TW","2018/08/04 14:29:39","新北市貢寮區雙玉里田寮洋街34-1號","121.931361666667","25.0149066666667","6502600","貢寮區"
"253003","6232-TK","2018/08/04 14:29:40","新北市石門區尖子鹿32號","121.582808333333","25.2641366666667","6502200","石門區"
"253001","6251-TK","2018/08/04 14:27:42","新北市石門區崁子腳65-1號","121.532475","25.2856266666667","6502200","石門區"
"253002","637-UY","2018/08/04 14:29:40","新北市石門區七股12-6號","121.547193333333","25.2651133333333","6502200","石門區"
"253004","8270-PC","2018/08/04 14:29:38","新北市石門區內阿里磅37-2號","121.582723333333","25.2377133333333","6502200","石門區"
"207002","749-BX","2018/08/04 14:29:03","新北市萬里區溪底里福德坑路2號","121.625591666667","25.1563133333333","6502800","萬里區"
"252005","073-UM","2018/08/04 14:29:38","新北市三芝區橫山里大坑85號","121.529136666667","25.258405","6502100","三芝區"
"207001","662-BX","2018/08/04 14:29:38","新北市萬里區磺潭里清水12號","121.64005","25.1996866666667","6502800","萬里區"
"237007","153-BY","2018/08/04 14:29:37","新北市三峽區中山路459巷163-1號","121.349403333333","24.933465","6500900","三峽區"
"236068","105-UM","2018/08/04 14:29:33","新北市土城區永豐路358-2號","121.474228333333","24.9749283333333","6501300","土城區"
"236040","107-UM","2018/08/04 14:29:38","新北市土城區學成路97巷17號","121.450068333333","24.9878366666667","6501300","土城區"
"236074","166-UM","2018/08/04 14:29:26","新北市土城區中央路四段25-10號","121.424463333333","24.96249","6501300","土城區"
"236029","253-BX","2018/08/04 14:29:29","新北市土城區水源街81巷8號","121.439373333333","24.976285","6501300","土城區"
"236024","269-VK","2018/08/04 14:29:38","新北市土城區承天路18號","121.439341666667","24.9636833333333","6501300","土城區"
"236013","270-VK","2018/08/04 14:29:37","新北市土城區青雲路39巷7號","121.460288333333","24.9873866666667","6501300","土城區"
"236032","271-VK","2018/08/04 14:29:36","新北市土城區明德路一段305號","121.459728333333","24.9771916666667","6501300","土城區"
"236017","401-BY","2018/08/04 14:29:43","新北市土城區永豐路202巷3-1號","121.466535","24.983275","6501300","土城區"
"236057","912-UM","2018/08/04 14:29:40","新北市土城區中央路四段133-2號","121.415965","24.9573533333333","6501300","土城區"
"236045","913-UM","2018/08/04 14:29:42","新北市土城區明德路一段309號","121.459631666667","24.9771366666667","6501300","土城區"
"236060","915-UM","2018/08/04 14:29:43","新北市土城區延壽路111巷5號","121.468885","24.9936716666667","6501300","土城區"
"236054","AAC-216","2018/08/04 14:29:36","新北市土城區中華路一段249號","121.440751666667","24.9814033333333","6501300","土城區"
"220027","145-BY","2018/08/04 14:29:36","新北市板橋區民權路202巷15弄26號","121.45979","25.0162566666667","6500100","板橋區"
"220028","200-UY","2018/08/04 14:29:42","新北市板橋區大觀路二段37巷306號","121.45005","25.0021316666667","6500100","板橋區"
"220030","610-BX","2018/08/04 14:29:17","新北市板橋區金門街231號","121.432163333333","24.9895533333333","6500100","板橋區"
"220050","245-BX","2018/08/04 14:29:31","新北市板橋區富山街80巷3-1號","121.476705","25.02236","6500100","板橋區"
"220052","257-TC","2018/08/04 14:29:24","新北市板橋區文化路一段270巷2號","121.467313333333","25.0205","6500100","板橋區"
"220004","276-BY","2018/08/04 14:29:41","新北市板橋區信義路1巷26弄30號","121.458338333333","24.99655","6500100","板橋區"
"220020","277-BY","2018/08/04 14:29:35","新北市板橋區篤行路二段136號","121.42974","24.98858","6500100","板橋區"
"220019","283-VK","2018/08/04 14:29:43","新北市土城區永豐路13巷5弄5號","121.461305","24.9893133333333","6500100","板橋區"
"220043","285-UM","2018/08/04 14:29:23","新北市板橋區吳鳳路50巷93號","121.471236666667","25.030575","6500100","板橋區"
"220001","285-VK","2018/08/04 14:29:31","新北市板橋區富山街98-3號","121.476381666667","25.0219066666667","6500100","板橋區"
"220031","286-VK","2018/08/04 14:29:40","新北市板橋區龍興街69號","121.44365","25.001595","6500100","板橋區"
"220029","287-VK","2018/08/04 14:29:38","新北市板橋區大觀路一段29巷131弄2號","121.45056","25.0053983333333","6500100","板橋區"
"220039","288-VK","2018/08/04 14:29:21","新北市板橋區裕民街53號","121.461098333333","25.0284516666667","6500100","板橋區"
"220009","293-UM","2018/08/04 14:29:27","新北市板橋區中山路二段145號","121.475438333333","25.0165233333333","6500100","板橋區"
"220010","295-UM","2018/08/04 14:29:40","新北市板橋區三民路二段123巷5號","121.479696666667","25.0156783333333","6500100","板橋區"
"220032","296-UM","2018/08/04 14:29:27","新北市板橋區滿平二街2巷1弄10號","121.4251","24.986485","6500100","板橋區"
"220023","303-R5","2018/08/04 14:29:43","新北市板橋區中正路325巷3弄27號","121.454205","25.0184033333333","6500100","板橋區"
"220041","307-R5","2018/08/04 14:29:34","新北市板橋區文化路二段125巷4號","121.469236666667","25.0264733333333","6500100","板橋區"
"220047","317-R6","2018/08/04 14:29:28","新北市板橋區四維路278號","121.463181666667","25.0287683333333","6500100","板橋區"
"220012","486-VK","2018/08/04 14:29:32","新北市板橋區中山路一段26號","121.460273333333","25.0083683333333","6500100","板橋區"
"220037","491-VK","2018/08/04 14:29:35","新北市板橋區雙十路二段44號","121.475725","25.0275316666667","6500100","板橋區"
"220104","560-BX","2018/08/04 14:29:27","新北市板橋區中正路375巷27號","121.453855","25.0203533333333","6500100","板橋區"
"220011","609-BX","2018/08/04 14:29:25","新北市板橋區三民路二段253-1號","121.479101666667","25.0117433333333","6500100","板橋區"
"220040","637-BX","2018/08/04 14:29:25","新北市板橋區懷德街201巷3號","121.480888333333","25.02935","6500100","板橋區"
"220005","686-BX","2018/08/04 14:29:28","新北市板橋區和平路69號","121.461225","24.9947183333333","6500100","板橋區"
"220025","687-BX","2018/08/04 14:29:39","新北市板橋區僑中二街90巷1號","121.446405","25.0090433333333","6500100","板橋區"
"220042","689-BX","2018/08/04 14:29:24","新北市板橋區雨農路32號","121.461243333333","25.0244","6500100","板橋區"
"220002","741-BX","2018/08/04 14:29:40","新北市板橋區四川路一段265號","121.459563333333","25.0021066666667","6500100","板橋區"
"220051","KEA-2699","2018/08/04 14:29:39","新北市板橋區松柏街22巷1號","121.474636666667","25.0297","6500100","板橋區"
"220014","829-TW","2018/08/04 14:29:24","新北市板橋區漢生東路339號","121.472113333333","25.007475","6500100","板橋區"
"220016","830-TW","2018/08/04 14:29:42","新北市板橋區中山路二段422-1號","121.483148333333","25.021145","6500100","板橋區"
"220045","831-TW","2018/08/04 14:29:43","新北市板橋區民生路二段240巷65號","121.470118333333","25.02294","6500100","板橋區"
"220038","833-TW","2018/08/04 14:29:37","新北市板橋區文化路一段61號","121.460808333333","25.013545","6500100","板橋區"
"220022","895-R6","2018/08/04 14:29:37","新北市板橋區府中路67號","121.458101666667","25.00929","6500100","板橋區"
"220021","985-R7","2018/08/04 14:29:28","新北市板橋區新生街16號","121.455593333333","25.02114","6500100","板橋區"
"220046","AAC-210","2018/08/04 14:29:30","新北市板橋區漢生西路131號","121.462583333333","25.0213583333333","6500100","板橋區"
"220018","AAC-253","2018/08/04 14:29:33","新北市板橋區館前東路76號","121.461511666667","25.0074016666667","6500100","板橋區"
"235032","KEA-2873","2018/08/04 14:29:34","新北市中和區永和路14號","121.499788333333","25.0033333333333","6500300","中和區"
"235025","KEA-2875","2018/08/04 14:29:21","新北市中和區民安街2巷1號","121.480681666667","25.0011766666667","6500300","中和區"
