"lineid","car","time","location","longitude","latitude","cityid","cityname"
"234070","149-BY","2018/08/04 16:39:31","新北市永和區福和路1號","121.526376666667","25.009835","6500400","永和區"
"249005","172-UM","2018/08/04 16:39:42","新北市八里區忠孝路409號","121.415651666667","25.1611716666667","6502300","八里區"
"249001","173-UM","2018/08/04 16:39:33","新北市八里區挖子尾街6號","121.415463333333","25.1642583333333","6502300","八里區"
"249003","593-UM","2018/08/04 16:39:37","新北市八里區中山路二段201號","121.404186666667","25.14983","6502300","八里區"
"244013","KEA-2802","2018/08/04 16:39:37","新北市林口區粉寮69號","121.40476","25.0909033333333","6501700","林口區"
"231046","107-UY","2018/08/04 16:39:40","新北市新店區灣潭路42號","121.542538333333","24.9456083333333","6500600","新店區"
"241011","013-R5","2018/08/04 16:39:30","新北市三重區仁愛街43巷16號","121.497338333333","25.0719116666667","6500200","三重區"
"241028","022-UY","2018/08/04 16:39:38","新北市三重區重新路三段82號","121.493115","25.0608966666667","6500200","三重區"
"241008","059-VK","2018/08/04 16:39:45","新北市三重區永安北路一段27巷28號","121.477388333333","25.0755666666667","6500200","三重區"
"241022","060-VK","2018/08/04 16:39:38","新北市三重區新北大道一段102號","121.485283333333","25.06155","6500200","三重區"
"241015","062-VK","2018/08/04 16:39:33","新北市三重區文化北路37號","121.49905","25.06498","6500200","三重區"
"241017","063-VK","2018/08/04 16:39:45","新北市三重區中正北路25巷2號","121.493273333333","25.0627216666667","6500200","三重區"
"241024","065-VK","2018/08/04 16:39:45","新北市三重區中正北路315巷6弄49號","121.476371666667","25.0721333333333","6500200","三重區"
"241026","066-VK","2018/08/04 16:39:37","新北市三重區中央南路20號","121.501428333333","25.0626","6500200","三重區"
"241002","090-VK","2018/08/04 16:39:33","新北市三重區仁義街243號","121.4963","25.0826166666667","6500200","三重區"
"241003","091-VK","2018/08/04 16:39:35","新北市三重區五華街118號","121.492091666667","25.08319","6500200","三重區"
"241031","742-BX","2018/08/04 16:39:45","新北市三重區重新路四段41巷16號","121.487546666667","25.0580866666667","6500200","三重區"
"241005","262-UM","2018/08/04 16:39:31","新北市三重區仁華街122號","121.486205","25.0831933333333","6500200","三重區"
"241016","266-UM","2018/08/04 16:39:27","新北市三重區自強路一段162號","121.495588333333","25.0662333333333","6500200","三重區"
"241009","267-UM","2018/08/04 16:39:30","新北市三重區三和路四段203巷20號","121.482571666667","25.079595","6500200","三重區"
"241018","268-UM","2018/08/04 16:39:39","新北市三重區正義北路338巷50號","121.493158333333","25.07027","6500200","三重區"
"241032","269-UM","2018/08/04 16:39:41","新北市三重區新北大道一段33號","121.486125","25.06133","6500200","三重區"
"241013","270-UM","2018/08/04 16:39:38","新北市三重區仁愛街73號","121.496238333333","25.07297","6500200","三重區"
"241025","271-UM","2018/08/04 16:39:38","新北市三重區中正北路428巷7弄10號","121.474336666667","25.0699733333333","6500200","三重區"
"241007","398-BY","2018/08/04 16:39:35","新北市三重區三和路四段167巷100號","121.485728333333","25.0796766666667","6500200","三重區"
"241001","413-TH","2018/08/04 16:39:32","新北市三重區仁政街84號","121.492535","25.077695","6500200","三重區"
"241004","475-VK","2018/08/04 16:39:31","新北市三重區五福街13號","121.49274","25.0815733333333","6500200","三重區"
"241020","478-VK","2018/08/04 16:39:32","新北市三重區車路頭街49號","121.483973333333","25.072125","6500200","三重區"
"241030","480-VK","2018/08/04 16:39:36","新北市三重區環河南路286號","121.48904","25.048865","6500200","三重區"
"241014","543-UM","2018/08/04 16:39:26","新北市三重區龍濱路21號","121.502995","25.0678916666667","6500200","三重區"
"241023","545-UM","2018/08/04 16:39:24","新北市三重區忠孝路三段50巷43號","121.482868333333","25.0644133333333","6500200","三重區"
"241033","557-UM","2018/08/04 16:14:36","新北市三重區中興南街80巷11號","121.471731666667","25.0436483333333","6500200","三重區"
"241019","KEA-2593","2018/08/04 16:39:35","新北市三重區力行路一段147號","121.485553333333","25.068565","6500200","三重區"
"241006","AAD-863","2018/08/04 16:39:44","新北市三重區車路頭街138-1號","121.48352","25.07561","6500200","三重區"
"241012","941-UM","2018/08/04 16:39:30","新北市三重區仁興街6號","121.499895","25.0738466666667","6500200","三重區"
"241029","942-UM","2018/08/04 16:39:29","新北市三重區集美街112巷13號","121.489436666667","25.0542083333333","6500200","三重區"
"235046","733-UM","2018/08/04 16:32:46","新北市中和區員山路36巷13號","121.484145","24.990835","6500300","中和區"
"247008","056-VK","2018/08/04 16:39:44","新北市五股區中興路二段182巷50號","121.455015","25.081335","6501400","蘆洲區"
"247020","001-UY","2018/08/04 16:39:37","新北市五股區成泰路三段362號","121.451551666667","25.098655","6501400","蘆洲區"
"228002","663-BX","2018/08/04 16:39:47","新北市貢寮區貢寮里朝陽街24號","121.911353333333","25.0216316666667","6502600","貢寮區"
"224007","275-VK","2018/08/04 16:39:33","新北市瑞芳區瑞竹路149號","121.760636666667","25.1041016666667","6501200","瑞芳區"
"224009","273-VK","2018/08/04 16:39:42","新北市瑞芳區大寮路356-1號","121.784565","25.1032783333333","6501200","瑞芳區"
"224005","271-BY","2018/08/04 16:39:34","新北市瑞芳區海濱路2巷1號","121.83771","25.1274916666667","6501200","瑞芳區"
"227010","642-TC","2018/08/04 16:39:35","新北市雙溪區外柑里外柑腳37號","121.809955","25.0183916666667","6502500","雙溪區"
"227010","400-TW","2018/08/04 16:39:34","新北市雙溪區牡丹里中正路97號","121.861963333333","25.0471166666667","6502500","雙溪區"
"251013","KEA-2871","2018/08/04 16:39:41","新北市淡水區楓樹湖3-3號","121.49659","25.1865833333333","6501000","淡水區"
"251016","179-VK","2018/08/04 16:39:38","新北市淡水區新市一路三段115號","121.44675","25.1830066666667","6501000","淡水區"
"251014","180-VK","2018/08/04 16:39:37","新北市淡水區淡金路四段476號","121.4524","25.223895","6501000","淡水區"
"251008","181-VK","2018/08/04 16:39:32","新北市淡水區樹梅坑10-1號","121.474458333333","25.1414966666667","6501000","淡水區"
"249004","440-VK","2018/08/04 16:39:33","新北市八里區挖子尾街16號","121.415301666667","25.16425","6502300","八里區"
"251011","650-BX","2018/08/04 16:39:41","新北市淡水區中正路二段31號","121.419381666667","25.18169","6501000","淡水區"
"252002","178-VK","2018/08/04 16:39:33","新北市三芝區芝柏路63號","121.511163333333","25.2565883333333","6502100","三芝區"
"252001","292-VK","2018/08/04 16:39:38","新北市三芝區埔坪里埔頭坑52號","121.507761666667","25.2652666666667","6502100","三芝區"
"242034","AAC-296","2018/08/04 16:39:39","新北市新莊區新泰路357巷3弄57號","121.442305","25.0397366666667","6500500","新莊區"
"242017","175-VK","2018/08/04 16:39:30","新北市新莊區三和路12-21號","121.442033333333","25.0386283333333","6500500","新莊區"
"242021","348-TH","2018/08/04 16:39:28","新北市新莊區新泰路357巷3弄57號","121.441976666667","25.039625","6500500","新莊區"
"235061","KEA-2875","2018/08/04 16:15:10","新北市中和區員山路36巷16-2號","121.48532","24.9916283333333","6500300","中和區"
