"lineid","car","time","location","longitude","latitude","cityid","cityname"
"234046","148-BY","2018/08/04 19:09:48","新北市永和區秀朗路二段148巷3弄1號","121.525495","25.0012683333333","6500400","永和區"
"234007","207-UY","2018/08/04 19:09:45","新北市永和區中山路一段236號","121.507305","25.0074233333333","6500400","永和區"
"234081","298-R6","2018/08/04 19:09:41","新北市永和區福和路137號","121.521151666667","25.0075866666667","6500400","永和區"
"234064","337-UY","2018/08/04 19:09:36","新北市永和區秀朗路二段36號","121.52115","25.0024833333333","6500400","永和區"
"234086","338-UY","2018/08/04 19:09:46","新北市永和區永貞路98號","121.519211666667","25.0044916666667","6500400","永和區"
"234070","552-UM","2018/08/04 19:09:29","新北市永和區豫溪街137巷1弄16號","121.518888333333","25.0105216666667","6500400","永和區"
"234038","553-UM","2018/08/04 19:09:46","新北市永和區民樂街71巷1號","121.527458333333","24.997545","6500400","永和區"
"234017","745-BX","2018/08/04 19:09:31","新北市永和區文化路90巷3弄2號","121.513866666667","25.0157133333333","6500400","永和區"
"234030","746-BX","2018/08/04 19:09:41","新北市永和區四維街121號","121.52318","24.9983716666667","6500400","永和區"
"234054","KEA-2590","2018/08/04 19:09:44","新北市永和區竹林路72巷2號","121.51912","25.0129616666667","6500400","永和區"
"234013","KEA-2591","2018/08/04 19:09:48","新北市永和區保福路二段19-1號","121.510935","25.0112283333333","6500400","永和區"
"234061","AAD-866","2018/08/04 19:09:41","新北市永和區安樂路306-8號","121.514518333333","25.0053","6500400","永和區"
"234042","862-TW","2018/08/04 19:09:40","新北市永和區保平路111巷5號","121.511706666667","25.0060133333333","6500400","永和區"
"234050","863-TW","2018/08/04 19:09:45","新北市永和區文化路135巷9號","121.510676666667","25.01437","6500400","永和區"
"234026","9371-KE","2018/08/04 19:09:41","新北市永和區安樂路272巷7弄1號","121.51481","25.0042116666667","6500400","永和區"
"234011","9373-KE","2018/08/04 19:09:37","新北市永和區保福路二段44巷2弄10號","121.511665","25.011795","6500400","永和區"
"249005","172-UM","2018/08/04 19:09:42","新北市八里區中華路三段65號","121.394845","25.1410783333333","6502300","八里區"
"249001","173-UM","2018/08/04 19:09:33","新北市八里區龍米路二段228-1號","121.43272","25.15845","6502300","八里區"
"248016","026-BX","2018/08/04 19:09:36","新北市五股區成泰路三段543巷41-1號","121.449571666667","25.1030383333333","6501500","五股區"
"248006","077-UY","2018/08/04 19:09:43","新北市五股區四維路90-1號","121.467576666667","25.0731866666667","6501500","五股區"
"248020","225-UY","2018/08/04 19:09:42","新北市五股區凌雲路三段57號","121.425203333333","25.1250483333333","6501500","五股區"
"248012","247-BX","2018/08/04 19:09:46","新北市五股區中興路四段48巷16號","121.438581666667","25.0834366666667","6501500","五股區"
"248010","272-BY","2018/08/04 19:09:43","新北市五股區自強路90巷72號","121.430796666667","25.0712533333333","6501500","五股區"
"248004","655-BX","2018/08/04 19:09:37","新北市五股區六合街3號","121.43198","25.0884033333333","6501500","五股區"
"248002","678-BX","2018/08/04 19:09:29","新北市五股區凌雲路一段158巷6號","121.447958333333","25.1027783333333","6501500","五股區"
"234023","9380-KE","2018/08/04 19:09:28","新北市永和區中興街29巷20號","121.516343333333","25.0123983333333","6500400","永和區"
"234077","969-R7","2018/08/04 19:09:40","新北市永和區民族街45號","121.518438333333","24.998415","6500400","永和區"
"234074","AAC-211","2018/08/04 19:09:44","新北市永和區竹林路241號","121.520816666667","25.0080833333333","6500400","永和區"
"234067","AAC-212","2018/08/04 19:09:42","新北市永和區永和路一段63號","121.513023333333","25.007","6500400","永和區"
"234003","AAC-295","2018/08/04 19:09:32","新北市永和區和平街58號","121.512331666667","25.0100933333333","6500400","永和區"
"244019","403-UM","2018/08/04 19:09:37","新北市林口區麗園一街1號","121.375698333333","25.0725266666667","6501700","林口區"
"244013","KEA-2802","2018/08/04 19:09:37","新北市林口區麗園一街2巷1號","121.37604","25.0720533333333","6501700","林口區"
"244009","410-SL","2018/08/04 19:09:40","新北市林口區竹林路446巷2弄1號","121.388348333333","25.085485","6501700","林口區"
"244023","483-VK","2018/08/04 19:09:38","新北市林口區文林六街13巷18號","121.370325","25.0806716666667","6501700","林口區"
"244017","485-VK","2018/08/04 19:09:34","新北市林口區公園路45-1號","121.367606666667","25.06855","6501700","林口區"
"244011","657-BX","2018/08/04 19:09:37","新北市林口區中正路298號","121.38839","25.0777566666667","6501700","林口區"
"244025","837-TS","2018/08/04 19:09:28","新北市林口區文化北路一段542巷37弄28號","121.369165","25.0793","6501700","林口區"
"244021","838-TS","2018/08/04 19:09:10","新北市八里區長道坑26號","121.397745","25.1042616666667","6501700","林口區"
"243013","AAD-798","2018/08/04 19:09:39","新北市泰山區明志路三段277號","121.423153333333","25.03675","6501600","泰山區"
"243009","297-R6","2018/08/04 19:09:29","新北市泰山區明志路一段117巷3號","121.433796666667","25.0634483333333","6501600","泰山區"
"243016","KEA-2801","2018/08/04 19:09:35","新北市泰山區明志路二段325號","121.425868333333","25.0450583333333","6501600","泰山區"
"243015","421-VK","2018/08/04 19:09:33","新北市泰山區明志路一段469號","121.430803333333","25.0557983333333","6501600","泰山區"
"243011","KEA-2215","2018/08/04 19:09:35","新北市泰山區明志路二段323號","121.42634","25.0457983333333","6501600","泰山區"
"243010","KEA-2216","2018/08/04 19:09:41","新北市泰山區明志路一段483巷1弄1號","121.431026666667","25.055485","6501600","泰山區"
"243012","646-TV","2018/08/04 19:09:27","新北市泰山區辭修路36巷8弄5號","121.427865","25.0585933333333","6501600","泰山區"
"243014","680-BX","2018/08/04 19:09:30","新北市泰山區泰林路二段482-1號","121.424875","25.06422","6501600","泰山區"
"222003","436-BY","2018/08/04 19:09:39","新北市深坑區深南路170號","121.625983333333","25.0150766666667","6501800","深坑區"
"222002","659-BX","2018/08/04 19:09:44","新北市深坑區北深路一段232號","121.630341666667","25.0089416666667","6501800","深坑區"
"231044","001-UM","2018/08/04 19:09:37","新北市新店區中興路三段214號","121.5437","24.9824616666667","6500600","新店區"
"231041","002-UM","2018/08/04 19:09:49","新北市新店區溪園路405號","121.524031666667","24.9782266666667","6500600","新店區"
"231040","047-UY","2018/08/04 19:09:28","新北市新店區三民路155-1號","121.533825","24.9733583333333","6500600","新店區"
"231046","107-UY","2018/08/04 19:09:37","新北市新店區永業路117號","121.528505","24.9481183333333","6500600","新店區"
"231052","108-UY","2018/08/04 19:09:37","新北市新店區自強路90號","121.546385","24.9240433333333","6500600","新店區"
"231048","187-VK","2018/08/04 19:09:29","新北市新店區德正街27巷29弄76號","121.54577","24.9731933333333","6500600","新店區"
"231054","KEA-2219","2018/08/04 19:09:45","新北市新店區新店路76號","121.537268333333","24.9538766666667","6500600","新店區"
"231042","268-BY","2018/08/04 19:09:32","新北市新店區中興路一段167號","121.542771666667","24.9643966666667","6500600","新店區"
"231051","278-BY","2018/08/04 19:09:36","新北市新店區中正路382巷25號","121.535543333333","24.9784316666667","6500600","新店區"
"231050","AAD-862","2018/08/04 19:09:30","新北市新店區竹林路2巷31號","121.550446666667","24.95016","6500600","新店區"
"231059","355-BY","2018/08/04 19:09:41","新北市新店區安和路一段52巷2-1號","121.517755","24.9666716666667","6500600","新店區"
"231058","3713-VJ","2018/08/04 19:09:30","新北市新店區光明街168巷5弄1號","121.540366666667","24.9617466666667","6500600","新店區"
"231066","4716-K9","2018/08/04 19:09:43","新北市新店區安祥路35-1號","121.491748333333","24.9557783333333","6500600","新店區"
"231056","4715-K9","2018/08/04 19:09:32","新北市新店區溪園路283號","121.526061666667","24.980265","6500600","新店區"
"231067","4772-VM","2018/08/04 19:09:37","新北市新店區安康路一段76巷24號","121.528248333333","24.9631933333333","6500600","新店區"
"231065","512-UM","2018/08/04 19:09:45","新北市新店區安祥路145巷10號","121.47497","24.9558533333333","6500600","新店區"
"231049","513-UM","2018/08/04 19:09:49","新北市新店區二十張路25巷14號","121.539088333333","24.98199","6500600","新店區"
"231063","616-UM","2018/08/04 19:09:48","新北市新店區車子路137號","121.505136666667","24.9482033333333","6500600","新店區"
"231045","617-UM","2018/08/04 19:09:42","新北市新店區北宜路一段164號","121.54049","24.9533616666667","6500600","新店區"
"231061","619-UM","2018/08/04 19:09:30","新北市新店區安康路一段293號","121.522658333333","24.9636916666667","6500600","新店區"
"231064","719-UM","2018/08/04 19:09:35","新北市新店區安忠路56巷2號","121.512896666667","24.9593016666667","6500600","新店區"
"231062","720-UM","2018/08/04 19:09:38","新北市新店區安平路35巷2-1號","121.521255","24.9678366666667","6500600","新店區"
"231060","897-TW","2018/08/04 19:09:38","新北市新店區安康路二段296-3號","121.506103333333","24.958085","6500600","新店區"
"231043","899-TW","2018/08/04 19:09:36","新北市新店區中興路三段1-17號","121.546683333333","24.9762266666667","6500600","新店區"
"231055","AKT-0513","2018/08/04 19:09:42","新北市新店區安康路二段414巷2號","121.495783333333","24.9578133333333","6500600","新店區"
"241026","066-VK","2018/08/04 19:09:46","新北市三重區泉州街84巷18號","121.495805","25.054345","6500200","三重區"
"241032","269-UM","2018/08/04 18:52:36","新北市三重區重陽路一段120巷40號","121.485213333333","25.0600816666667","6500200","三重區"
"241035","KEA-2210","2018/08/04 19:09:38","新北市三重區新北大道一段7號","121.489583333333","25.0614116666667","6500200","三重區"
"241031","462-BY","2018/08/04 19:09:41","新北市三重區捷運路36號","121.482903333333","25.0551","6500200","三重區"
"241006","AAD-863","2018/08/04 19:09:44","新北市三重區車路頭街133號","121.484498333333","25.07615","6500200","三重區"
"241029","942-UM","2018/08/04 19:09:37","新北市三重區重安街83號","121.492548333333","25.055855","6500200","三重區"
"235066","003-UY","2018/08/04 19:09:42","新北市中和區廣福路32號","121.504636666667","25.0023533333333","6500300","中和區"
"235064","005-UY","2018/08/04 19:09:42","新北市中和區泰和街23號","121.499493333333","25.0002483333333","6500300","中和區"
"235063","006-UY","2018/08/04 19:09:39","新北市中和區連城路249巷5號","121.493716666667","24.9968083333333","6500300","中和區"
"235056","096-UM","2018/08/04 19:09:43","新北市中和區員山路514巷14弄12號","121.48025","25.009205","6500300","中和區"
"235039","097-UM","2018/08/04 19:09:39","新北市中和區景平路64巷14弄2號","121.522508333333","24.9912783333333","6500300","中和區"
"235065","098-UM","2018/08/04 19:09:45","新北市中和區中山路二段136巷6弄6號","121.50214","25.0038933333333","6500300","中和區"
"235040","150-BY","2018/08/04 19:09:27","新北市中和區宜安路73號","121.511023333333","24.9972933333333","6500300","中和區"
"235058","151-BY","2018/08/04 19:09:30","新北市中和區連城路523巷11弄2號","121.481673333333","24.9940166666667","6500300","中和區"
"235055","183-VK","2018/08/04 19:09:45","新北市中和區德光路43號","121.47031","25.0041783333333","6500300","中和區"
"235038","185-VK","2018/08/04 19:09:46","新北市中和區大仁街10巷42號","121.519068333333","24.9924416666667","6500300","中和區"
"235049","186-VK","2018/08/04 19:09:38","新北市中和區景新街176號","121.506171666667","24.99642","6500300","中和區"
"235067","255-BX","2018/08/04 19:09:29","新北市中和區新生街176巷9號","121.483126666667","24.9999116666667","6500300","中和區"
"235044","293-VK","2018/08/04 19:09:47","新北市中和區中興街214號","121.499601666667","24.9901266666667","6500300","中和區"
"235072","301-VK","2018/08/04 19:09:44","新北市中和區景平路699號","121.49653","25.0034383333333","6500300","中和區"
"235043","352-BY","2018/08/04 19:09:29","新北市中和區景平路19號","121.523103333333","24.990525","6500300","中和區"
"235050","4979-A6","2018/08/04 19:09:41","新北市中和區復興路249巷11弄3號","121.503501666667","24.9897316666667","6500300","中和區"
"235069","4980-A6","2018/08/04 19:09:45","新北市中和區中和路217巷16號","121.504693333333","25.0003666666667","6500300","中和區"
"235042","551-UM","2018/08/04 19:09:38","新北市中和區自強路13巷5號","121.520725","24.9936266666667","6500300","中和區"
"235070","558-UM","2018/08/04 19:09:46","新北市中和區中和路119號","121.501603333333","25.0001283333333","6500300","中和區"
"235045","565-BX","2018/08/04 19:09:44","新北市中和區景新街467巷35弄1號","121.514793333333","24.9890316666667","6500300","中和區"
"235054","640-BX","2018/08/04 19:09:46","新北市中和區民德路105號","121.46886","25.00073","6500300","中和區"
"235060","647-TV","2018/08/04 19:09:32","新北市中和區民有街92號","121.47618","25.0036583333333","6500300","中和區"
"235047","732-UM","2018/08/04 19:09:37","新北市中和區興南路一段129號","121.508793333333","24.9877966666667","6500300","中和區"
"235046","733-UM","2018/08/04 19:09:45","新北市中和區忠孝街1巷15號","121.508571666667","24.983805","6500300","中和區"
"235071","783-BX","2018/08/04 19:09:37","新北市中和區連城路330號","121.483195","24.9959266666667","6500300","中和區"
"235062","800-TS","2018/08/04 19:09:40","新北市中和區建一路1-1號","121.488091666667","25.0042966666667","6500300","中和區"
"235057","801-TS","2018/08/04 19:09:39","新北市中和區民利街80號","121.478176666667","24.9981733333333","6500300","中和區"
"235041","802-TS","2018/08/04 19:09:19","新北市永和區中和路321號","121.507115","24.9997266666667","6500300","中和區"
"235052","805-TS","2018/08/04 19:09:33","新北市中和區興南路二段242巷20號","121.50206","24.9833383333333","6500300","中和區"
"235048","896-TW","2018/08/04 19:09:31","新北市中和區忠孝街4號","121.510071666667","24.9826983333333","6500300","中和區"
"235053","900-TW","2018/08/04 19:09:33","新北市中和區華福街86號","121.46749","24.996445","6500300","中和區"
"235051","157-BY","2018/08/04 19:09:37","新北市中和區捷運路6號","121.510193333333","24.9894916666667","6500300","中和區"
"235037","AAC-213","2018/08/04 19:09:45","新北市中和區秀朗路三段58-2號","121.525978333333","24.9951683333333","6500300","中和區"
"220106","013-TV","2018/08/04 19:09:36","新北市板橋區雙十路三段18巷1弄2號","121.471956666667","25.0307166666667","6500100","板橋區"
"220055","015-TV","2018/08/04 19:09:33","新北市板橋區新民街9號","121.463745","25.0097833333333","6500100","板橋區"
"220065","072-UY","2018/08/04 19:09:38","新北市板橋區民族路219巷46號","121.469381666667","25.00876","6500100","板橋區"
"220086","073-UY","2018/08/04 19:09:45","新北市板橋區國光路181號","121.46085","25.01844","6500100","板橋區"
"220069","AAD-861","2018/08/04 19:09:31","新北市板橋區四川路一段108號","121.459775","25.0045383333333","6500100","板橋區"
"226004","312-R5","2018/08/04 19:09:32","新北市平溪區十分里十分街157號","121.777728333333","25.043415","6502400","平溪區"
"235059","251-BX","2018/08/04 19:09:36","新北市中和區圓通路296巷31弄1號","121.488606666667","24.99046","6500300","中和區"
"228003","097-TW","2018/08/04 19:09:30","新北市貢寮區和美里和美街43-1號","121.914155","25.0913433333333","6502600","貢寮區"
"228001","212-TW","2018/08/04 19:09:35","新北市貢寮區真理里新港街10號","121.925493333333","25.0543766666667","6502600","貢寮區"
"228002","663-BX","2018/08/04 19:09:44","新北市貢寮區福隆里福隆街28號","121.945028333333","25.0173","6502600","貢寮區"
"224010","AGQ-8101","2018/08/04 19:07:50","新北市瑞芳區輕便路136號","121.842891666667","25.1129183333333","6501200","瑞芳區"
"224006","676-BX","2018/08/04 19:09:44","新北市瑞芳區中山路214號","121.800686666667","25.1068416666667","6501200","瑞芳區"
"224009","273-VK","2018/08/04 19:09:42","新北市瑞芳區洞頂路205號","121.860511666667","25.121975","6501200","瑞芳區"
"224008","272-VK","2018/08/04 19:09:42","新北市瑞芳區裕民新城2號","121.80188","25.1119283333333","6501200","瑞芳區"
"224005","271-BY","2018/08/04 19:09:34","新北市瑞芳區中正路8號","121.808785","25.1071583333333","6501200","瑞芳區"
"227002","642-TC","2018/08/04 19:09:35","新北市雙溪區平林里外平林10-4號","121.859148333333","25.0380416666667","6502500","雙溪區"
"227010","400-TW","2018/08/04 19:09:34","新北市雙溪區牡丹里中正路34號","121.864626666667","25.0383116666667","6502500","雙溪區"
"253005","032-BX","2018/08/04 19:09:36","新北市石門區阿里荖35-2號","121.60649","25.2807183333333","6502200","石門區"
"253006","295-VK","2018/08/04 19:09:35","新北市石門區海灣新城9號","121.525473333333","25.2850183333333","6502200","石門區"
"222001","KEA-2212","2018/08/04 19:09:39","新北市深坑區北深路一段300號","121.624215","25.005775","6501800","深坑區"
"208002","KEA-2872","2018/08/04 19:09:36","新北市金山區仁愛路67巷26號","121.634208333333","25.2210033333333","6502700","金山區"
"208003","665-BX","2018/08/04 19:09:29","新北市金山區中正路63號","121.634108333333","25.22183","6502700","金山區"
"208001","761-BX","2018/08/04 19:09:46","新北市金山區溫泉路4號","121.639568333333","25.2219583333333","6502700","金山區"
"251009","008-UM","2018/08/04 19:09:42","新北市淡水區重建街40號","121.43992","25.17136","6501000","淡水區"
"251001","011-UM","2018/08/04 19:09:34","新北市淡水區自強路201巷39號","121.462158333333","25.1268666666667","6501000","淡水區"
"251002","012-UM","2018/08/04 19:09:33","新北市淡水區中山路93-1號","121.442281666667","25.1704683333333","6501000","淡水區"
"251013","KEA-2871","2018/08/04 19:09:41","新北市淡水區安子內12-1號","121.48151","25.2190683333333","6501000","淡水區"
"251016","179-VK","2018/08/04 19:09:37","新北市淡水區淡金路三段315號","121.449081666667","25.205775","6501000","淡水區"
"251014","180-VK","2018/08/04 19:09:37","新北市淡水區小中寮19-1號","121.483951666667","25.2291916666667","6501000","淡水區"
"251015","182-VK","2018/08/04 18:57:31","新北市淡水區興福寮31-1號","121.489806666667","25.16253","6501000","淡水區"
"251010","413-VK","2018/08/04 19:09:29","新北市淡水區中正路一段156巷8號","121.421336666667","25.1803066666667","6501000","淡水區"
"249004","440-VK","2018/08/04 18:50:05","新北市八里區挖子尾街16號","121.415256666667","25.16431","6502300","八里區"
"251007","442-VK","2018/08/04 19:09:46","新北市淡水區民生路145巷35號","121.466831666667","25.13899","6501000","淡水區"
"251005","443-VK","2018/08/04 19:09:40","新北市淡水區原德路18號","121.442313333333","25.17169","6501000","淡水區"
"251003","673-BX","2018/08/04 19:09:39","新北市淡水區中山北路一段94號","121.44237","25.176235","6501000","淡水區"
"207003","550-UM","2018/08/04 19:09:48","新北市萬里區大鵬里萬里加投15-2號","121.650098333333","25.20971","6502800","萬里區"
"207004","225-TW","2018/08/04 19:09:50","新北市萬里區萬里里瑪鋉下街46-1號","121.691513333333","25.1792933333333","6502800","萬里區"
"252002","178-VK","2018/08/04 19:09:33","新北市三芝區埔坪里埔頭坑77號","121.509438333333","25.2544283333333","6502100","三芝區"
"252003","249-BX","2018/08/04 19:09:38","新北市三芝區錫板里南勢崗8號","121.479238333333","25.261705","6502100","三芝區"
"252001","292-VK","2018/08/04 19:09:38","新北市三芝區長勤街45巷2號","121.500383333333","25.25513","6502100","三芝區"
"237004","KEA-2597","2018/08/04 19:09:45","新北市三峽區有木155號","121.450408333333","24.8453583333333","6500900","三峽區"
"237007","153-BY","2018/08/04 19:09:39","新北市三峽區中正路二段42巷40-3號","121.364566666667","24.92012","6500900","三峽區"
"237011","572-TV","2018/08/04 19:09:39","新北市三峽區介壽路二段165號","121.394095","24.9360183333333","6500900","三峽區"
"237009","210-TH","2018/08/04 19:09:39","新北市三峽區文化路40號","121.373041666667","24.936105","6500900","三峽區"
"237013","252-BX","2018/08/04 19:09:34","新北市三峽區光明路69巷25號","121.376731666667","24.9292383333333","6500900","三峽區"
"237012","275-BY","2018/08/04 19:09:30","新北市三峽區三樹路222巷236弄8-1號","121.391343333333","24.942995","6500900","三峽區"
"237008","302-VK","2018/08/04 19:09:40","新北市三峽區大同路100號","121.374695","24.9271433333333","6500900","三峽區"
"237014","433-BY","2018/08/04 19:09:28","新北市三峽區大仁路17號","121.366423333333","24.9375466666667","6500900","三峽區"
"237006","5529-G3","2018/08/04 19:09:46","新北市三峽區溪東路315巷64號","121.411916666667","24.931205","6500900","三峽區"
"237016","649-BX","2018/08/04 19:09:34","新北市三峽區建安63號","121.447445","24.9274233333333","6500900","三峽區"
"237010","706-TV","2018/08/04 19:09:32","新北市三峽區復興路37號","121.373308333333","24.936615","6500900","三峽區"
"237005","AKY-6261","2018/08/04 19:09:43","新北市三峽區中山路459巷163-3號","121.348635","24.9328433333333","6500900","三峽區"
"236070","105-UM","2018/08/04 19:09:35","新北市土城區裕生路16號","121.448216666667","24.9874883333333","6501300","土城區"
"236042","107-UM","2018/08/04 19:09:35","新北市土城區學府路一段239號","121.450373333333","24.9833483333333","6501300","土城區"
"236079","166-UM","2018/08/04 19:06:51","新北市土城區龍泉路41號","121.415111666667","24.943715","6501300","土城區"
"236026","269-VK","2018/08/04 19:09:46","新北市土城區中正路17號","121.443013333333","24.9755366666667","6501300","土城區"
"236014","270-VK","2018/08/04 19:09:48","新北市土城區學府路一段37巷16號","121.457643333333","24.9877916666667","6501300","土城區"
"236038","271-VK","2018/08/04 19:09:42","新北市土城區清水路98巷3弄1號","121.457561666667","24.98133","6501300","土城區"
"236021","401-BY","2018/08/04 19:09:42","新北市土城區延吉街185號","121.46916","24.985555","6501300","土城區"
"236059","912-UM","2018/08/04 19:09:28","新北市土城區金城路二段8-1號","121.448325","24.9768633333333","6501300","土城區"
"236049","913-UM","2018/08/04 19:09:33","新北市土城區明德路一段365-1號","121.453643333333","24.97908","6501300","土城區"
"236055","AAC-216","2018/08/04 19:09:42","新北市土城區學府路一段169號","121.452655","24.9854866666667","6501300","土城區"
"238015","755-BX","2018/08/04 19:09:04","新北市樹林區光明街18號","121.411263333333","24.9896716666667","6500700","樹林區"
"238023","601-UM","2018/08/04 19:09:43","新北市樹林區三興路58號","121.393946666667","25.0145366666667","6500700","樹林區"
"238019","599-UM","2018/08/04 19:09:35","新北市樹林區東榮街91巷2弄8號","121.415746666667","24.9824216666667","6500700","樹林區"
"238018","571-TV","2018/08/04 19:09:39","新北市樹林區太平路57號","121.419086666667","24.98214","6500700","樹林區"
"238024","5061-A6","2018/08/04 19:09:48","新北市樹林區中山路二段249巷12號","121.40245","24.97581","6500700","樹林區"
"238022","KEA-2213","2018/08/04 19:09:44","新北市樹林區中山路二段151巷6弄1號","121.406695","24.9784916666667","6500700","樹林區"
"238021","KEA-2539","2018/08/04 19:09:42","新北市樹林區柑園街二段476號","121.36206","24.9456166666667","6500700","樹林區"
"238025","303-VK","2018/08/04 19:09:39","新北市樹林區中山路三段68號","121.393815","24.972345","6500700","樹林區"
"238017","283-BY","2018/08/04 19:09:40","新北市樹林區光興街221號","121.408148333333","25.00488","6500700","樹林區"
"238014","282-BY","2018/08/04 19:09:32","新北市樹林區千歲街63-15號","121.427063333333","24.998695","6500700","樹林區"
"238020","268-VK","2018/08/04 19:09:33","新北市樹林區俊英街133巷4號","121.423873333333","25.01142","6500700","樹林區"
"238026","172-UY","2018/08/04 19:09:44","新北市樹林區佳園路二段30號","121.3915","24.9626233333333","6500700","樹林區"
"238016","169-UY","2018/08/04 19:09:32","新北市樹林區中山路一段306巷51弄26號","121.417618333333","24.9860766666667","6500700","樹林區"
"239007","AAC-297","2018/08/04 19:09:33","新北市鶯歌區大湖路余厝巷11號","121.341986666667","24.9614933333333","6500800","鶯歌區"
"239006","891-R6","2018/08/04 19:09:47","新北市鶯歌區鶯桃路91巷29號","121.338051666667","24.9522883333333","6500800","鶯歌區"
"239008","527-UM","2018/08/04 19:09:49","新北市鶯歌區國際二路18巷23號","121.337715","24.9754916666667","6500800","鶯歌區"
"239005","526-UM","2018/08/04 19:09:17","新北市鶯歌區大湖路241號","121.345955","24.9729233333333","6500800","鶯歌區"
"239001","417-VK","2018/08/04 19:09:45","新北市鶯歌區建國路596巷46號","121.340486666667","24.951535","6500800","鶯歌區"
"239003","360-BY","2018/08/04 19:09:35","新北市鶯歌區中正二路85號","121.349186666667","24.9500616666667","6500800","鶯歌區"
"239002","359-BY","2018/08/04 19:09:26","新北市鶯歌區西湖街90號","121.33952","24.95987","6500800","鶯歌區"
"239004","193-VK","2018/08/04 19:09:44","新北市鶯歌區中正三路328號","121.327748333333","24.9350183333333","6500800","鶯歌區"
"221008","489-VK","2018/08/04 19:09:45","新北市汐止區康寧街453號","121.63144","25.0682416666667","6501100","汐止區"
"221036","130-UY","2018/08/04 19:09:39","新北市汐止區汐萬路一段312號","121.650516666667","25.075435","6501100","汐止區"
"221015","131-UY","2018/08/04 19:09:37","新北市汐止區康寧街901號","121.650856666667","25.07529","6501100","汐止區"
"221010","269-BY","2018/08/04 19:09:45","新北市汐止區康寧街901號","121.651561666667","25.074995","6501100","汐止區"
"221012","278-VK","2018/08/04 19:09:44","新北市汐止區康寧街901號","121.650763333333","25.07527","6501100","汐止區"
"221023","279-VK","2018/08/04 19:09:42","新北市汐止區康寧街901號","121.650968333333","25.075205","6501100","汐止區"
"221027","281-BY","2018/08/04 19:09:33","新北市汐止區康寧街901號","121.651398333333","25.07497","6501100","汐止區"
"221029","298-VK","2018/08/04 19:09:40","新北市汐止區汐萬路一段256巷3號","121.652458333333","25.0746316666667","6501100","汐止區"
"221021","299-VK","2018/08/04 19:09:47","新北市汐止區康寧街901號","121.651495","25.0750866666667","6501100","汐止區"
"221031","353-TW","2018/08/04 19:09:34","新北市汐止區福德一路2巷25號","121.63947","25.07076","6501100","汐止區"
"221002","129-UY","2018/08/04 19:09:48","新北市汐止區環河街207號","121.62663","25.0539283333333","6501100","汐止區"
"221025","623-UM","2018/08/04 19:09:38","新北市汐止區康寧街901號","121.65146","25.075075","6501100","汐止區"
"221038","646-BX","2018/08/04 19:09:43","新北市汐止區汐萬路一段312號","121.650645","25.075325","6501100","汐止區"
"220079","145-BY","2018/08/04 19:09:44","新北市板橋區民權路306號","121.457145","25.0161666666667","6500100","板橋區"
"220080","200-UY","2018/08/04 19:09:37","新北市板橋區大觀路二段7巷45號","121.44836","25.0034283333333","6500100","板橋區"
"220082","610-BX","2018/08/04 19:09:45","新北市板橋區溪崑二街136號","121.425953333333","24.98768","6500100","板橋區"
"220101","245-BX","2018/08/04 19:09:39","新北市板橋區民生路二段161巷5號","121.469998333333","25.0196233333333","6500100","板橋區"
"220103","257-TC","2018/08/04 19:09:43","新北市板橋區文化路一段188巷9弄21號","121.468486666667","25.0195466666667","6500100","板橋區"
"220056","276-BY","2018/08/04 19:09:37","新北市板橋區信義路74巷1弄1號","121.457278333333","24.9931616666667","6500100","板橋區"
"220072","277-BY","2018/08/04 19:09:35","新北市板橋區溪城路85號","121.426868333333","24.983535","6500100","板橋區"
"220071","283-VK","2018/08/04 19:09:31","新北市板橋區重慶路327巷12號","121.464373333333","24.998555","6500100","板橋區"
"220094","285-UM","2018/08/04 19:09:41","新北市板橋區光武街151號","121.465573333333","25.0294516666667","6500100","板橋區"
"220053","285-VK","2018/08/04 19:09:42","新北市板橋區懷仁街35巷2弄1號","121.476921666667","25.01968","6500100","板橋區"
"220083","286-VK","2018/08/04 19:09:45","新北市板橋區大觀路二段174巷175號","121.44189","25.0036433333333","6500100","板橋區"
"220081","287-VK","2018/08/04 19:09:35","新北市板橋區南雅西路二段156巷5號","121.45217","25.013405","6500100","板橋區"
"220090","288-VK","2018/08/04 19:09:47","新北市板橋區裕民街45巷4號","121.461515","25.0283483333333","6500100","板橋區"
"220061","293-UM","2018/08/04 19:09:40","新北市板橋區中山路二段288巷2弄3號","121.47969","25.0182033333333","6500100","板橋區"
"220062","295-UM","2018/08/04 19:09:32","新北市板橋區三民路二段居仁巷1弄25號","121.479943333333","25.013645","6500100","板橋區"
"220084","296-UM","2018/08/04 19:09:35","新北市板橋區溪崑二街56巷3號","121.427958333333","24.9912983333333","6500100","板橋區"
"220075","303-R5","2018/08/04 19:09:48","新北市板橋區南雅西路一段10巷15號","121.454373333333","25.0050916666667","6500100","板橋區"
"220092","307-R5","2018/08/04 19:09:39","新北市板橋區文化路二段225巷60弄26號","121.469241666667","25.0290683333333","6500100","板橋區"
"220098","317-R6","2018/08/04 19:09:44","新北市板橋區自由路51巷8號","121.465058333333","25.0235283333333","6500100","板橋區"
"220064","486-VK","2018/08/04 19:09:48","新北市板橋區板新路12號","121.474683333333","25.013105","6500100","板橋區"
"220088","491-VK","2018/08/04 19:09:50","新北市板橋區文化路二段182巷1弄2號","121.471035","25.0274683333333","6500100","板橋區"
"220035","560-BX","2018/08/04 19:09:37","新北市板橋區中正路379巷1弄30號","121.453148333333","25.021735","6500100","板橋區"
"220063","609-BX","2018/08/04 19:09:40","新北市板橋區三民路二段251號","121.4789","25.01211","6500100","板橋區"
"220091","637-BX","2018/08/04 19:09:29","新北市板橋區縣民大道三段247巷12號","121.481758333333","25.0262666666667","6500100","板橋區"
"220057","686-BX","2018/08/04 19:09:40","新北市板橋區重慶路323號","121.463993333333","24.9985416666667","6500100","板橋區"
"220077","687-BX","2018/08/04 19:09:43","新北市板橋區大觀路一段39巷1號","121.448756666667","25.0082216666667","6500100","板橋區"
"220093","689-BX","2018/08/04 19:09:46","新北市板橋區民生路三段157號","121.465776666667","25.0267533333333","6500100","板橋區"
"220054","741-BX","2018/08/04 19:09:36","新北市板橋區實踐路30號","121.463496666667","25.0072333333333","6500100","板橋區"
"220102","KEA-2699","2018/08/04 19:09:45","新北市板橋區萬板路818巷9號","121.482931666667","25.026725","6500100","板橋區"
"220067","829-TW","2018/08/04 19:09:39","新北市板橋區三民路二段正隆巷75號","121.476076666667","25.0129516666667","6500100","板橋區"
"220068","830-TW","2018/08/04 19:09:44","新北市板橋區三民路一段31巷39-1號","121.480628333333","25.023195","6500100","板橋區"
"220096","831-TW","2018/08/04 19:09:42","新北市板橋區大同街5巷1號","121.476865","25.0269683333333","6500100","板橋區"
"220089","833-TW","2018/08/04 19:09:42","新北市板橋區文化路二段367號","121.47314","25.0309816666667","6500100","板橋區"
"220074","895-R6","2018/08/04 19:09:47","新北市板橋區中正路自強新村91-2號","121.454786666667","25.01342","6500100","板橋區"
"220073","985-R7","2018/08/04 19:09:39","新北市板橋區中正路303號","121.455273333333","25.0195716666667","6500100","板橋區"
"220097","AAC-210","2018/08/04 19:09:44","新北市板橋區幸福路70巷23號","121.46021","25.0208233333333","6500100","板橋區"
"220070","AAC-253","2018/08/04 19:09:47","新北市板橋區忠孝路25號","121.460533333333","25.002145","6500100","板橋區"
"235068","KEA-2873","2018/08/04 19:09:43","新北市中和區圓通路158巷1弄9號","121.49729","24.99607","6500300","中和區"
"235061","KEA-2875","2018/08/04 19:09:35","新北市中和區員山路310號","121.481505","25.0028366666667","6500300","中和區"
