"lineid","car","time","location","longitude","latitude","cityid","cityname"
"234046","148-BY","2018/08/04 19:18:28","新北市永和區永元路77號","121.522308333333","25.001345","6500400","永和區"
"234007","207-UY","2018/08/04 19:18:25","新北市永和區中山路一段190號","121.508913333333","25.00884","6500400","永和區"
"234081","298-R6","2018/08/04 19:18:33","新北市永和區福和路57巷4弄2號","121.522995","25.0076266666667","6500400","永和區"
"234064","337-UY","2018/08/04 19:18:36","新北市永和區永元路17巷6弄4號","121.521433333333","25.0005966666667","6500400","永和區"
"234086","338-UY","2018/08/04 19:18:26","新北市永和區永利路72號","121.520301666667","25.0042383333333","6500400","永和區"
"234070","552-UM","2018/08/04 19:18:35","新北市永和區中正路696-1號","121.516638333333","25.0098833333333","6500400","永和區"
"234038","553-UM","2018/08/04 19:18:30","新北市永和區民樂街59巷1-1號","121.527681666667","24.9983233333333","6500400","永和區"
"234017","745-BX","2018/08/04 19:18:31","新北市永和區文化路144巷27號","121.512426666667","25.0167416666667","6500400","永和區"
"234030","746-BX","2018/08/04 19:18:31","新北市永和區厚德街97號","121.523531666667","24.9989083333333","6500400","永和區"
"234054","KEA-2590","2018/08/04 19:18:40","新北市永和區中興街49號","121.516521666667","25.0117483333333","6500400","永和區"
"234013","KEA-2591","2018/08/04 19:18:36","新北市永和區仁愛路101號","121.51257","25.013125","6500400","永和區"
"234061","AAD-866","2018/08/04 19:18:21","新北市永和區秀朗路一段175號","121.517003333333","25.0036883333333","6500400","永和區"
"234042","862-TW","2018/08/04 19:18:30","新北市永和區保平路151巷6弄12號","121.509698333333","25.0050883333333","6500400","永和區"
"234050","863-TW","2018/08/04 19:18:36","新北市永和區保福路二段88巷15號","121.51129","25.0138083333333","6500400","永和區"
"234026","9371-KE","2018/08/04 19:18:35","新北市永和區安樂路144巷20號","121.515098333333","24.999695","6500400","永和區"
"234011","9373-KE","2018/08/04 19:18:38","新北市永和區保福路二段23巷19號","121.510125","25.0111216666667","6500400","永和區"
"249005","172-UM","2018/08/04 19:18:42","新北市八里區中華路三段103號","121.393005","25.1385516666667","6502300","八里區"
"249001","173-UM","2018/08/04 19:18:33","新北市八里區中華路一段234號","121.417146666667","25.155885","6502300","八里區"
"249003","593-UM","2018/08/04 19:18:31","新北市八里區中山路二段355號","121.399088333333","25.1471333333333","6502300","八里區"
"248008","095-VK","2018/08/04 19:18:25","新北市五股區中興路二段83巷26-3號","121.460158333333","25.0754083333333","6501500","五股區"
"248020","225-UY","2018/08/04 19:18:22","新北市五股區凌雲路三段57號","121.425211666667","25.1250433333333","6501500","五股區"
"248012","247-BX","2018/08/04 19:18:26","新北市五股區中興路四段48巷16號","121.438601666667","25.0834383333333","6501500","五股區"
"248014","261-SL","2018/08/04 19:18:24","新北市五股區民義路一段109號","121.434135","25.08642","6501500","五股區"
"248010","272-BY","2018/08/04 19:18:23","新北市五股區自強路90巷72號","121.430838333333","25.0712316666667","6501500","五股區"
"248004","655-BX","2018/08/04 19:18:37","新北市五股區五福路53號","121.432998333333","25.089775","6501500","五股區"
"248002","678-BX","2018/08/04 19:18:29","新北市五股區凌雲路一段158巷13號","121.447781666667","25.1035016666667","6501500","五股區"
"234023","9380-KE","2018/08/04 19:18:31","新北市永和區竹林路124巷26號","121.518483333333","25.0113066666667","6500400","永和區"
"234077","969-R7","2018/08/04 19:18:35","新北市永和區民族街40號","121.518556666667","24.9989616666667","6500400","永和區"
"234074","AAC-211","2018/08/04 19:18:38","新北市永和區竹林路98號","121.519565","25.01211","6500400","永和區"
"234067","AAC-212","2018/08/04 19:18:22","新北市永和區保平路50巷6號","121.51121","25.007315","6500400","永和區"
"234003","AAC-295","2018/08/04 19:18:32","新北市永和區永平路179號","121.510408333333","25.0091366666667","6500400","永和區"
"244019","403-UM","2018/08/04 19:18:37","新北市林口區四維路130號","121.379191666667","25.0771433333333","6501700","林口區"
"244009","410-SL","2018/08/04 19:18:40","新北市林口區竹林路361號","121.388208333333","25.0844733333333","6501700","林口區"
"244023","483-VK","2018/08/04 19:18:38","新北市林口區文化三路一段555巷91號","121.36922","25.0772883333333","6501700","林口區"
"244017","485-VK","2018/08/04 19:18:34","新北市林口區湖南里70-9號","121.375795","25.0895683333333","6501700","林口區"
"244025","837-TS","2018/08/04 19:18:28","新北市林口區文化三路一段555巷50號","121.369815","25.077055","6501700","林口區"
"244021","838-TS","2018/08/04 19:18:30","新北市八里區下罟子6-1號","121.386261666667","25.1420683333333","6501700","林口區"
"243013","AAD-798","2018/08/04 19:18:39","新北市泰山區明志路三段145巷2弄10號","121.42514","25.03962","6501600","泰山區"
"243009","297-R6","2018/08/04 19:18:29","新北市泰山區明志路一段94號","121.433483333333","25.0641883333333","6501600","泰山區"
"243016","KEA-2801","2018/08/04 19:18:34","新北市泰山區貴子路2號","121.425085","25.0419433333333","6501600","泰山區"
"243015","421-VK","2018/08/04 19:18:32","新北市泰山區公園路26號","121.429198333333","25.0542983333333","6501600","泰山區"
"243011","KEA-2215","2018/08/04 19:18:35","新北市泰山區中央路9巷2號","121.426353333333","25.043025","6501600","泰山區"
"243010","KEA-2216","2018/08/04 19:18:21","新北市泰山區明志路一段492巷4弄1號","121.429986666667","25.0547983333333","6501600","泰山區"
"243012","646-TV","2018/08/04 19:18:27","新北市泰山區仁義路11巷1號","121.43201","25.05555","6501600","泰山區"
"243014","680-BX","2018/08/04 19:18:30","新北市泰山區泰林路二段290號","121.431116666667","25.06271","6501600","泰山區"
"222003","436-BY","2018/08/04 19:18:39","新北市深坑區深南路204號","121.62659","25.0160866666667","6501800","深坑區"
"222002","659-BX","2018/08/04 19:18:24","新北市深坑區北深路一段177號","121.632575","25.0109016666667","6501800","深坑區"
"231044","001-UM","2018/08/04 19:18:37","新北市新店區中興路三段330號","121.542093333333","24.986415","6500600","新店區"
"231041","002-UM","2018/08/04 19:18:29","新北市新店區溪園路247號","121.52549","24.9833333333333","6500600","新店區"
"231040","047-UY","2018/08/04 19:18:28","新北市新店區三民路49號","121.536998333333","24.9709383333333","6500600","新店區"
"231046","107-UY","2018/08/04 19:18:37","新北市新店區華城路5-3號","121.529268333333","24.9579","6500600","新店區"
"231052","108-UY","2018/08/04 19:18:37","新北市新店區自強路241號","121.547488333333","24.91878","6500600","新店區"
"231048","187-VK","2018/08/04 19:18:29","新北市新店區中興路二段57巷5號","121.54606","24.9705866666667","6500600","新店區"
"231054","KEA-2219","2018/08/04 19:18:39","新北市新店區新店路232-2號","121.537235","24.9569733333333","6500600","新店區"
"231042","268-BY","2018/08/04 19:18:32","新北市新店區中興路一段110-1號","121.541316666667","24.96244","6500600","新店區"
"231051","278-BY","2018/08/04 19:18:36","新北市新店區中央路192號","121.530846666667","24.9747466666667","6500600","新店區"
"231050","AAD-862","2018/08/04 19:18:30","新北市新店區竹林路25巷10號","121.552313333333","24.9513266666667","6500600","新店區"
"231059","355-BY","2018/08/04 19:18:35","新北市新店區安和路二段240號","121.516701666667","24.9785633333333","6500600","新店區"
"231058","3713-VJ","2018/08/04 19:18:30","新北市新店區北新路二段96號","121.542938333333","24.9730916666667","6500600","新店區"
"231066","4716-K9","2018/08/04 19:18:23","新北市新店區安康路三段359巷10弄1號","121.48438","24.9503116666667","6500600","新店區"
"231067","4772-VM","2018/08/04 19:18:37","新北市新店區安康路一段247巷7號","121.525043333333","24.9626483333333","6500600","新店區"
"231065","512-UM","2018/08/04 19:18:25","新北市新店區安祥路110巷28號","121.473988333333","24.9560416666667","6500600","新店區"
"231049","513-UM","2018/08/04 19:18:28","新北市新店區明德路64號","121.541583333333","24.9794266666667","6500600","新店區"
"231063","616-UM","2018/08/04 19:18:27","新北市新店區達觀路12號","121.504958333333","24.94104","6500600","新店區"
"231045","617-UM","2018/08/04 19:18:21","新北市新店區北宜路一段260號","121.54565","24.9527883333333","6500600","新店區"
"231061","619-UM","2018/08/04 19:18:39","新北市新店區秀山路72號","121.531215","24.9609283333333","6500600","新店區"
"231064","719-UM","2018/08/04 19:18:35","新北市新店區安忠路57巷18號","121.513105","24.9588916666667","6500600","新店區"
"231062","720-UM","2018/08/04 19:18:38","新北市新店區莒光路21號","121.52551","24.96003","6500600","新店區"
"231060","897-TW","2018/08/04 19:18:37","新北市新店區安康路二段105-1號","121.51276","24.9623566666667","6500600","新店區"
"231043","899-TW","2018/08/04 19:18:36","新北市新店區寶橋路2號","121.543013333333","24.973545","6500600","新店區"
"231055","AKT-0513","2018/08/04 19:18:22","新北市新店區安德街148巷31號","121.505708333333","24.960245","6500600","新店區"
"241022","060-VK","2018/08/04 19:18:26","新北市三重區中正北路70號","121.486498333333","25.0646433333333","6500200","三重區"
"241017","063-VK","2018/08/04 19:18:25","新北市三重區大同北路193號","121.492336666667","25.0656233333333","6500200","三重區"
"241026","066-VK","2018/08/04 19:18:26","新北市三重區正義南路60-6號","121.49849","25.0600516666667","6500200","三重區"
"241009","267-UM","2018/08/04 19:18:30","新北市三重區仁美街115號","121.485675","25.0810583333333","6500200","三重區"
"241032","269-UM","2018/08/04 19:18:37","新北市三重區新生街89號","121.483908333333","25.0593933333333","6500200","三重區"
"241025","271-UM","2018/08/04 19:18:34","新北市三重區中正北路311號","121.474066666667","25.071395","6500200","三重區"
"241007","398-BY","2018/08/04 19:18:35","新北市三重區慈愛街48號","121.48578","25.0791766666667","6500200","三重區"
"241035","KEA-2210","2018/08/04 19:18:38","新北市三重區信義西街138號","121.49547","25.064285","6500200","三重區"
"241031","462-BY","2018/08/04 19:18:41","新北市三重區重新路四段101號","121.485665","25.0544933333333","6500200","三重區"
"241020","478-VK","2018/08/04 19:18:32","新北市三重區後竹圍街115號","121.488731666667","25.0727583333333","6500200","三重區"
"241030","480-VK","2018/08/04 19:18:36","新北市三重區新興路40號","121.491551666667","25.0535483333333","6500200","三重區"
"241006","AAD-863","2018/08/04 19:18:24","新北市三重區力行路二段123巷14號","121.483805","25.076495","6500200","三重區"
"241029","942-UM","2018/08/04 19:18:38","新北市三重區重安街15號","121.49067","25.057545","6500200","三重區"
"235066","003-UY","2018/08/04 19:18:22","新北市中和區景新街2號","121.502578333333","24.9997233333333","6500300","中和區"
"235064","005-UY","2018/08/04 19:18:36","新北市中和區中和路26巷9號","121.499441666667","25.00151","6500300","中和區"
"235063","006-UY","2018/08/04 19:18:19","新北市中和區連勝街121巷9號","121.495215","24.99445","6500300","中和區"
"235056","096-UM","2018/08/04 19:18:23","新北市中和區中山路二段650號","121.480648333333","25.0057233333333","6500300","中和區"
"235039","097-UM","2018/08/04 19:18:19","新北市中和區秀峰街79巷1號","121.522075","24.9902083333333","6500300","中和區"
"235065","098-UM","2018/08/04 19:18:34","新北市中和區中山路二段64巷16弄2號","121.503335","25.0056666666667","6500300","中和區"
"235040","150-BY","2018/08/04 19:18:27","新北市中和區保健路50巷50號","121.509585","24.995915","6500300","中和區"
"235058","151-BY","2018/08/04 19:18:30","新北市中和區連城路469巷46號","121.4835","24.9945216666667","6500300","中和區"
"235055","183-VK","2018/08/04 19:18:33","新北市中和區德光路49號","121.470221666667","25.004015","6500300","中和區"
"235038","185-VK","2018/08/04 19:18:26","新北市中和區大仁街10巷52號","121.520571666667","24.9926933333333","6500300","中和區"
"235049","186-VK","2018/08/04 19:18:37","新北市中和區景新街228號","121.508078333333","24.994435","6500300","中和區"
"235067","255-BX","2018/08/04 19:18:29","新北市中和區新生街148巷24號","121.48252","25.0008283333333","6500300","中和區"
"235044","293-VK","2018/08/04 19:18:27","新北市中和區中興街266巷1號","121.498395","24.987585","6500300","中和區"
"235072","301-VK","2018/08/04 19:18:23","新北市中和區連城路15號","121.49897","25.0021983333333","6500300","中和區"
"235043","352-BY","2018/08/04 19:18:29","新北市中和區景平路388號","121.510526666667","24.9928366666667","6500300","中和區"
"235050","4979-A6","2018/08/04 19:18:41","新北市中和區景安路208巷15號","121.503221666667","24.991365","6500300","中和區"
"235069","4980-A6","2018/08/04 19:18:25","新北市中和區中山路二段181巷20號","121.501","25.0020333333333","6500300","中和區"
"235042","551-UM","2018/08/04 19:18:38","新北市中和區安樂路217巷35弄12號","121.514036666667","24.9977316666667","6500300","中和區"
"235070","558-UM","2018/08/04 19:18:26","新北市中和區連城路47巷2號","121.498128333333","25.0016116666667","6500300","中和區"
"235045","565-BX","2018/08/04 19:18:24","新北市中和區景新街437巷29號","121.51458","24.9895333333333","6500300","中和區"
"235054","640-BX","2018/08/04 19:18:27","新北市中和區國光街109巷10號","121.469763333333","25.0001316666667","6500300","中和區"
"235060","647-TV","2018/08/04 19:18:31","新北市中和區員山路268巷5弄8號","121.481955","25.002345","6500300","中和區"
"235047","732-UM","2018/08/04 19:18:37","新北市中和區和平街54巷6弄1號","121.508805","24.9911533333333","6500300","中和區"
"235046","733-UM","2018/08/04 19:18:42","新北市中和區忠孝街2巷5號","121.510175","24.982425","6500300","中和區"
"235071","783-BX","2018/08/04 19:18:37","新北市中和區連城路469巷79弄14號","121.483725","24.9936416666667","6500300","中和區"
"235062","800-TS","2018/08/04 19:18:40","新北市中和區中山路二段552號","121.483818333333","25.005055","6500300","中和區"
"235057","801-TS","2018/08/04 19:18:39","新北市中和區員山路423巷7號","121.480541666667","25.0031683333333","6500300","中和區"
"235041","802-TS","2018/08/04 19:18:39","新北市永和區中和路377號","121.508418333333","24.999955","6500300","中和區"
"235052","805-TS","2018/08/04 19:18:33","新北市中和區華新街143巷17號","121.506686666667","24.9809433333333","6500300","中和區"
"235048","896-TW","2018/08/04 19:18:31","新北市中和區忠孝街105號","121.51198","24.98649","6500300","中和區"
"235053","900-TW","2018/08/04 19:18:33","新北市中和區華安街21巷4號","121.467543333333","24.9973583333333","6500300","中和區"
"235051","157-BY","2018/08/04 19:18:37","新北市中和區景平路239巷33弄33號","121.509595","24.9914616666667","6500300","中和區"
"235037","AAC-213","2018/08/04 19:18:26","新北市中和區秀朗路三段10巷37弄4號","121.524043333333","24.9957783333333","6500300","中和區"
"220106","013-TV","2018/08/04 19:18:36","新北市板橋區長江路二段280-8號","121.470015","25.0328616666667","6500100","板橋區"
"220055","015-TV","2018/08/04 19:18:34","新北市板橋區館前東路156巷2號","121.464491666667","25.0074466666667","6500100","板橋區"
"220065","072-UY","2018/08/04 19:18:38","新北市板橋區國泰街76巷34號","121.467158333333","25.00718","6500100","板橋區"
"220086","073-UY","2018/08/04 19:18:25","新北市板橋區中正路216巷20號","121.456686666667","25.0184833333333","6500100","板橋區"
"220069","AAD-861","2018/08/04 19:18:31","新北市板橋區華興街33-2號","121.458336666667","25.004665","6500100","板橋區"
"226004","312-R5","2018/08/04 19:18:32","新北市平溪區靜安路三段392巷3號","121.784376666667","25.04957","6502400","平溪區"
"235059","251-BX","2018/08/04 19:18:36","新北市中和區錦和路195巷3弄1號","121.491205","24.9909633333333","6500300","中和區"
"228003","097-TW","2018/08/04 19:18:30","新北市貢寮區和美里和美街22-1號","121.912798333333","25.0826366666667","6502600","貢寮區"
"228001","212-TW","2018/08/04 19:18:35","新北市貢寮區真理里新港街10號","121.925496666667","25.0543416666667","6502600","貢寮區"
"228002","663-BX","2018/08/04 19:18:24","新北市貢寮區雙玉里田寮洋街25-4號","121.930948333333","25.020325","6502600","貢寮區"
"224010","AGQ-8101","2018/08/04 19:16:50","新北市瑞芳區街頂巷29號","121.845473333333","25.1075916666667","6501200","瑞芳區"
"224008","272-VK","2018/08/04 19:18:42","新北市瑞芳區逢甲路343-8號","121.799708333333","25.1124533333333","6501200","瑞芳區"
"224005","271-BY","2018/08/04 19:18:34","新北市瑞芳區大寮路356-1號","121.785355","25.103125","6501200","瑞芳區"
"227002","642-TC","2018/08/04 19:18:35","新北市雙溪區平林里梅竹蹊66-1號","121.860141666667","25.035845","6502500","雙溪區"
"227010","400-TW","2018/08/04 19:18:34","新北市雙溪區新基里新基北街40號","121.868495","25.0380316666667","6502500","雙溪區"
"253005","032-BX","2018/08/04 19:18:35","新北市石門區阿里荖5-7號","121.60915","25.27992","6502200","石門區"
"253006","295-VK","2018/08/04 19:18:35","新北市石門區崁子腳46號","121.534451666667","25.2885433333333","6502200","石門區"
"222001","KEA-2212","2018/08/04 19:18:39","新北市深坑區北深路二段97號","121.617605","25.003415","6501800","深坑區"
"208002","KEA-2872","2018/08/04 19:18:36","新北市金山區中正路67號","121.633903333333","25.2217166666667","6502700","金山區"
"208003","665-BX","2018/08/04 19:18:29","新北市金山區中山路124號","121.639128333333","25.220075","6502700","金山區"
"208001","761-BX","2018/08/04 19:18:26","新北市金山區金包里街3號","121.639965","25.22067","6502700","金山區"
"251009","008-UM","2018/08/04 19:18:22","新北市淡水區清水街99-1號","121.440823333333","25.1705833333333","6501000","淡水區"
"251001","011-UM","2018/08/04 19:18:34","新北市淡水區自強路201巷39號","121.462111666667","25.1268466666667","6501000","淡水區"
"251013","KEA-2871","2018/08/04 19:10:01","新北市淡水區安子內12-1號","121.481508333333","25.2190816666667","6501000","淡水區"
"251016","179-VK","2018/08/04 19:18:37","新北市淡水區下圭柔山119-51號","121.450718333333","25.2084733333333","6501000","淡水區"
"251014","180-VK","2018/08/04 19:18:37","新北市淡水區小中寮19-7號","121.48477","25.2296333333333","6501000","淡水區"
"251015","182-VK","2018/08/04 18:57:31","新北市淡水區興福寮31-1號","121.489806666667","25.16253","6501000","淡水區"
"251010","413-VK","2018/08/04 19:18:29","新北市淡水區沙崙路27號","121.421488333333","25.1816416666667","6501000","淡水區"
"249004","440-VK","2018/08/04 18:50:05","新北市八里區挖子尾街16號","121.415256666667","25.16431","6502300","八里區"
"251007","442-VK","2018/08/04 19:18:27","新北市淡水區民生路135巷2號","121.465928333333","25.13869","6501000","淡水區"
"251005","443-VK","2018/08/04 19:18:40","新北市淡水區水源街一段31號","121.44327","25.1725066666667","6501000","淡水區"
"251006","561-UM","2018/08/04 19:18:34","新北市淡水區大信街33號","121.442031666667","25.17737","6501000","淡水區"
"251003","673-BX","2018/08/04 19:18:40","新北市淡水區中山北路一段166號","121.444198333333","25.178375","6501000","淡水區"
"207003","550-UM","2018/08/04 19:18:28","新北市萬里區大鵬里萬里加投79-3號","121.647343333333","25.2123766666667","6502800","萬里區"
"207004","225-TW","2018/08/04 19:18:30","新北市萬里區萬里里成功新村44號","121.687685","25.17462","6502800","萬里區"
"252002","178-VK","2018/08/04 19:18:33","新北市三芝區淡金路二段18-1號","121.502691666667","25.259495","6502100","三芝區"
"252001","292-VK","2018/08/04 19:18:38","新北市三芝區長勤街9巷11弄1號","121.501823333333","25.254665","6502100","三芝區"
"237004","KEA-2597","2018/08/04 19:18:34","新北市三峽區有木205-1號","121.43907","24.8515183333333","6500900","三峽區"
"237007","153-BY","2018/08/04 19:18:39","新北市三峽區中正路二段584巷4弄5號","121.359073333333","24.9067633333333","6500900","三峽區"
"237011","572-TV","2018/08/04 19:18:39","新北市三峽區介壽路一段299號","121.380873333333","24.9303783333333","6500900","三峽區"
"237009","210-TH","2018/08/04 19:18:39","新北市三峽區和平街55號","121.370243333333","24.9359933333333","6500900","三峽區"
"237013","252-BX","2018/08/04 19:18:34","新北市三峽區光明路75巷25號","121.377525","24.928255","6500900","三峽區"
"237012","275-BY","2018/08/04 19:18:30","新北市三峽區三樹路222巷196-40號","121.390228333333","24.9427216666667","6500900","三峽區"
"237008","302-VK","2018/08/04 19:18:40","新北市三峽區光明路106巷80號","121.374636666667","24.926585","6500900","三峽區"
"237014","433-BY","2018/08/04 19:18:28","新北市三峽區中山路246號","121.362111666667","24.937625","6500900","三峽區"
"237006","5529-G3","2018/08/04 19:18:26","新北市三峽區溪東路315巷10號","121.410795","24.93086","6500900","三峽區"
"237016","649-BX","2018/08/04 19:18:34","新北市三峽區成福路259號","121.427903333333","24.9235633333333","6500900","三峽區"
"237010","706-TV","2018/08/04 19:18:32","新北市三峽區復興路77號","121.372685","24.937495","6500900","三峽區"
"237005","AKY-6261","2018/08/04 19:18:43","新北市三峽區中山路459巷36號","121.357363333333","24.9379216666667","6500900","三峽區"
"236070","105-UM","2018/08/04 19:18:35","新北市土城區學成路67-1號","121.4513","24.98808","6501300","土城區"
"236042","107-UM","2018/08/04 19:18:35","新北市土城區學府路一段239號","121.450415","24.9834183333333","6501300","土城區"
"236079","166-UM","2018/08/04 19:18:30","新北市土城區中央路四段321巷32-2號","121.411808333333","24.9512533333333","6501300","土城區"
"236026","269-VK","2018/08/04 19:18:29","新北市土城區中正路67巷33號","121.443843333333","24.9765483333333","6501300","土城區"
"236014","270-VK","2018/08/04 19:18:36","新北市土城區學府路一段23巷25弄16號","121.457265","24.9862316666667","6501300","土城區"
"236021","401-BY","2018/08/04 19:18:22","新北市土城區峰廷街3號","121.469036666667","24.98735","6501300","土城區"
"236059","912-UM","2018/08/04 19:18:28","新北市土城區中央路三段1號","121.439593333333","24.9706533333333","6501300","土城區"
"236049","913-UM","2018/08/04 19:18:33","新北市土城區明德路一段365-1號","121.453656666667","24.979085","6501300","土城區"
"238015","755-BX","2018/08/04 19:18:24","新北市樹林區大安路542號","121.413476666667","24.9855283333333","6500700","樹林區"
"238023","601-UM","2018/08/04 19:18:23","桃園市龜山區萬壽路一段225號","121.405358333333","25.017855","6500700","樹林區"
"238019","599-UM","2018/08/04 19:18:29","新北市樹林區鎮前街347巷3弄2號","121.41693","24.9833533333333","6500700","樹林區"
"238018","571-TV","2018/08/04 19:18:39","新北市樹林區中華路353-4號","121.415043333333","24.9798366666667","6500700","樹林區"
"238024","5061-A6","2018/08/04 19:18:28","新北市樹林區福德街48號","121.399291666667","24.9749916666667","6500700","樹林區"
"238022","KEA-2213","2018/08/04 19:18:24","新北市樹林區八德街100號","121.420866666667","24.98016","6500700","樹林區"
"238021","KEA-2539","2018/08/04 19:18:22","新北市樹林區柑園街二段386巷18號","121.367468333333","24.949535","6500700","樹林區"
"238025","303-VK","2018/08/04 19:18:39","新北市樹林區中山路二段200號","121.411256666667","24.982455","6500700","樹林區"
"238017","283-BY","2018/08/04 19:18:40","新北市樹林區光興街11巷1號","121.412361666667","25.00286","6500700","樹林區"
"238014","282-BY","2018/08/04 19:18:32","新北市樹林區保安街一段48巷2號","121.425803333333","24.994135","6500700","樹林區"
"238020","268-VK","2018/08/04 19:18:37","新北市樹林區俊英街123巷23號","121.423841666667","25.0105333333333","6500700","樹林區"
"238026","172-UY","2018/08/04 19:18:04","新北市樹林區佳園路三段20-3號","121.387996666667","24.95419","6500700","樹林區"
"238016","169-UY","2018/08/04 19:18:32","新北市樹林區復興路464巷5號","121.413226666667","24.983465","6500700","樹林區"
"239007","AAC-297","2018/08/04 19:18:33","新北市鶯歌區大湖路185巷2號","121.344433333333","24.969785","6500800","鶯歌區"
"239006","891-R6","2018/08/04 19:18:27","新北市鶯歌區鶯桃路67巷3號","121.340966666667","24.9525316666667","6500800","鶯歌區"
"239008","527-UM","2018/08/04 19:18:37","新北市鶯歌區國際二路6巷1號","121.338216666667","24.973715","6500800","鶯歌區"
"239005","526-UM","2018/08/04 19:18:37","新北市鶯歌區東湖路19-1號","121.357573333333","24.9731816666667","6500800","鶯歌區"
"239001","417-VK","2018/08/04 19:18:32","新北市鶯歌區鶯桃路29號","121.343488333333","24.9505616666667","6500800","鶯歌區"
"239003","360-BY","2018/08/04 19:18:35","新北市鶯歌區永明街55號","121.33925","24.9559966666667","6500800","鶯歌區"
"239002","359-BY","2018/08/04 19:18:26","新北市鶯歌區湖山路58巷1號","121.339705","24.975935","6500800","鶯歌區"
"239004","193-VK","2018/08/04 19:18:24","新北市鶯歌區二橋新村47號","121.329431666667","24.9344216666667","6500800","鶯歌區"
"221008","489-VK","2018/08/04 19:18:25","新北市汐止區康寧街349號","121.627961666667","25.0675433333333","6501100","汐止區"
"221036","130-UY","2018/08/04 19:18:39","新北市汐止區汐萬路一段312號","121.65051","25.0754316666667","6501100","汐止區"
"221015","131-UY","2018/08/04 19:18:37","新北市汐止區康寧街901號","121.650876666667","25.075295","6501100","汐止區"
"221010","269-BY","2018/08/04 19:18:25","新北市汐止區康寧街901號","121.651541666667","25.0749283333333","6501100","汐止區"
"221012","278-VK","2018/08/04 19:18:24","新北市汐止區康寧街901號","121.650708333333","25.0753416666667","6501100","汐止區"
"221023","279-VK","2018/08/04 19:18:42","新北市汐止區康寧街901號","121.650978333333","25.0752083333333","6501100","汐止區"
"221027","281-BY","2018/08/04 19:18:32","新北市汐止區康寧街901號","121.6514","25.0749716666667","6501100","汐止區"
"221029","298-VK","2018/08/04 19:18:21","新北市汐止區康寧街901號","121.651575","25.0748916666667","6501100","汐止區"
"221021","299-VK","2018/08/04 19:18:26","新北市汐止區康寧街901號","121.651498333333","25.07508","6501100","汐止區"
"221031","353-TW","2018/08/04 19:18:34","新北市汐止區汐萬路一段256巷3號","121.653436666667","25.074695","6501100","汐止區"
"221002","129-UY","2018/08/04 19:18:28","新北市汐止區大同路一段336號","121.637858333333","25.05903","6501100","汐止區"
"221025","623-UM","2018/08/04 19:18:38","新北市汐止區康寧街901號","121.651466666667","25.0750716666667","6501100","汐止區"
"221038","646-BX","2018/08/04 19:18:24","新北市汐止區汐萬路一段312號","121.650643333333","25.0753133333333","6501100","汐止區"
"220079","145-BY","2018/08/04 19:18:25","新北市板橋區民權路202巷17弄9號","121.460371666667","25.0165866666667","6500100","板橋區"
"220080","200-UY","2018/08/04 19:18:36","新北市板橋區大觀路二段19巷85號","121.449308333333","25.0028883333333","6500100","板橋區"
"220082","610-BX","2018/08/04 19:18:25","新北市板橋區溪城路85號","121.426995","24.9835883333333","6500100","板橋區"
"220101","245-BX","2018/08/04 19:18:39","新北市板橋區莊敬路25巷16號","121.474245","25.027445","6500100","板橋區"
"220103","257-TC","2018/08/04 19:18:23","新北市板橋區介壽街42號","121.468635","25.0197816666667","6500100","板橋區"
"220056","276-BY","2018/08/04 19:18:37","新北市板橋區信義路201號","121.45928","24.9915616666667","6500100","板橋區"
"220072","277-BY","2018/08/04 19:18:35","新北市板橋區金門街335號","121.42938","24.985645","6500100","板橋區"
"220071","283-VK","2018/08/04 19:18:40","新北市板橋區忠孝路48巷7弄1號","121.461048333333","25.00056","6500100","板橋區"
"220094","285-UM","2018/08/04 19:18:35","新北市板橋區光武街110巷53號","121.467301666667","25.0304216666667","6500100","板橋區"
"220053","285-VK","2018/08/04 19:18:32","新北市板橋區富山街7巷19號","121.478595","25.0213183333333","6500100","板橋區"
"220083","286-VK","2018/08/04 19:18:25","新北市板橋區大觀路二段174巷165弄2號","121.441851666667","25.003385","6500100","板橋區"
"220081","287-VK","2018/08/04 19:18:35","新北市板橋區南雅西路一段88號","121.45327","25.005815","6500100","板橋區"
"220090","288-VK","2018/08/04 19:18:27","新北市板橋區四維路339巷16號","121.461773333333","25.029365","6500100","板橋區"
"220061","293-UM","2018/08/04 19:18:28","新北市板橋區中山路二段373號","121.47998","25.0191816666667","6500100","板橋區"
"220062","295-UM","2018/08/04 19:18:32","新北市板橋區三民路二段153巷30弄33號","121.481073333333","25.01473","6500100","板橋區"
"220084","296-UM","2018/08/04 19:18:35","新北市板橋區滿平街136巷8弄11號","121.427388333333","24.987645","6500100","板橋區"
"220075","303-R5","2018/08/04 19:18:28","新北市板橋區中正路275巷52號","121.453595","25.0181983333333","6500100","板橋區"
"220092","307-R5","2018/08/04 19:18:39","新北市板橋區光武街48巷18號","121.467876666667","25.0267716666667","6500100","板橋區"
"220098","317-R6","2018/08/04 19:18:23","新北市板橋區民有街91號","121.464716666667","25.0276733333333","6500100","板橋區"
"220064","486-VK","2018/08/04 19:18:38","新北市板橋區漢生東路83巷2號","121.467001666667","25.015755","6500100","板橋區"
"220088","491-VK","2018/08/04 19:18:30","新北市板橋區雙十路一段34號","121.477688333333","25.0245083333333","6500100","板橋區"
"220035","560-BX","2018/08/04 19:18:39","新北市板橋區中正路360巷32號","121.455541666667","25.0232016666667","6500100","板橋區"
"220063","609-BX","2018/08/04 19:18:40","新北市板橋區三民路二段17號","121.479343333333","25.018265","6500100","板橋區"
"220091","637-BX","2018/08/04 19:18:29","新北市板橋區文聖街131號","121.478188333333","25.02852","6500100","板橋區"
"220057","686-BX","2018/08/04 19:18:40","新北市中和區壽德街18-1號","121.46596","24.9948733333333","6500100","板橋區"
"220077","687-BX","2018/08/04 19:18:26","新北市板橋區僑中二街2號","121.4472","25.01114","6500100","板橋區"
"220093","689-BX","2018/08/04 19:18:38","新北市板橋區漢生西路83-2號","121.462663333333","25.0194","6500100","板橋區"
"220054","741-BX","2018/08/04 19:18:36","新北市板橋區四川路一段197號","121.460665","25.0037166666667","6500100","板橋區"
"220102","KEA-2699","2018/08/04 19:18:34","新北市板橋區田單街35號","121.482376666667","25.0286083333333","6500100","板橋區"
"220067","829-TW","2018/08/04 19:18:39","新北市板橋區長安街138巷1弄43號","121.474006666667","25.010245","6500100","板橋區"
"220068","830-TW","2018/08/04 19:18:42","新北市板橋區翠華街6巷54號","121.481341666667","25.0249116666667","6500100","板橋區"
"220096","831-TW","2018/08/04 19:18:33","新北市板橋區大同街37號","121.477963333333","25.0272583333333","6500100","板橋區"
"220089","833-TW","2018/08/04 19:18:31","新北市板橋區文化路一段362-3號","121.468376666667","25.0235016666667","6500100","板橋區"
"220074","895-R6","2018/08/04 19:18:27","新北市板橋區中正路1巷18-1號","121.455266666667","25.011495","6500100","板橋區"
"220073","985-R7","2018/08/04 19:18:39","新北市板橋區新生街72號","121.45787","25.0211483333333","6500100","板橋區"
"220097","AAC-210","2018/08/04 19:18:24","新北市板橋區幸福路60巷13號","121.460785","25.020665","6500100","板橋區"
"220070","AAC-253","2018/08/04 19:18:27","新北市板橋區忠孝路147號","121.463455","25.00246","6500100","板橋區"
"235068","KEA-2873","2018/08/04 19:18:20","新北市中和區景平路545巷1弄2號","121.498445","24.9990566666667","6500300","中和區"
"235061","KEA-2875","2018/08/04 19:18:34","新北市中和區員山路143巷48號","121.478598333333","24.99527","6500300","中和區"
