"lineid","car","time","location","longitude","latitude","cityid","cityname"
"234046","148-BY","2018/08/04 19:29:28","新北市永和區秀朗路二段181巷6號","121.52644","25.0013133333333","6500400","永和區"
"234007","207-UY","2018/08/04 19:29:25","新北市永和區永和路一段112-1號","121.51352","25.0073866666667","6500400","永和區"
"234081","298-R6","2018/08/04 19:29:33","新北市永和區環河東路三段54號","121.526841666667","25.0062066666667","6500400","永和區"
"234064","337-UY","2018/08/04 19:29:36","新北市永和區永元路17巷25弄7號","121.5209","25.00153","6500400","永和區"
"234086","338-UY","2018/08/04 19:29:26","新北市永和區林森路46巷1號","121.525013333333","25.0046766666667","6500400","永和區"
"234070","552-UM","2018/08/04 19:29:29","新北市永和區警光街5-1號","121.519726666667","25.0095033333333","6500400","永和區"
"234038","553-UM","2018/08/04 19:29:35","新北市永和區民樂街37巷1號","121.527571666667","25.00073","6500400","永和區"
"234017","745-BX","2018/08/04 19:29:31","新北市永和區環河西路一段63號","121.513395","25.0181783333333","6500400","永和區"
"234030","746-BX","2018/08/04 19:29:33","新北市永和區民生路39號","121.522731666667","24.998155","6500400","永和區"
"234054","KEA-2590","2018/08/04 19:29:24","新北市永和區復興街19巷2號","121.516125","25.0131333333333","6500400","永和區"
"234013","KEA-2591","2018/08/04 19:29:26","新北市永和區中山路一段203號","121.508936666667","25.008625","6500400","永和區"
"234061","AAD-866","2018/08/04 19:29:41","新北市永和區中正路504號","121.517441666667","25.00448","6500400","永和區"
"234042","862-TW","2018/08/04 19:29:30","新北市永和區中和路519巷3號","121.510806666667","25.0029466666667","6500400","永和區"
"234050","863-TW","2018/08/04 19:29:25","新北市永和區信義路122號","121.512383333333","25.0147766666667","6500400","永和區"
"234026","9371-KE","2018/08/04 19:29:41","新北市永和區安樂路66號","121.514876666667","24.99819","6500400","永和區"
"234011","9373-KE","2018/08/04 19:29:37","新北市永和區保福路二段163巷13弄16號","121.509168333333","25.0142766666667","6500400","永和區"
"249003","593-UM","2018/08/04 19:29:31","新北市八里區商港六路11號","121.396798333333","25.1482833333333","6502300","八里區"
"248008","095-VK","2018/08/04 19:29:25","新北市五股區中興路一段93號","121.46669","25.072745","6501500","五股區"
"248020","225-UY","2018/08/04 19:29:22","新北市五股區凌雲路三段33-18號","121.43159","25.116825","6501500","五股區"
"248012","247-BX","2018/08/04 19:29:26","新北市五股區成泰路二段97號","121.437923333333","25.0842933333333","6501500","五股區"
"248014","261-SL","2018/08/04 19:29:24","新北市五股區民義路一段161-5號","121.432446666667","25.0875616666667","6501500","五股區"
"248010","272-BY","2018/08/04 19:29:23","新北市五股區自強路90巷72號","121.430708333333","25.071235","6501500","五股區"
"248004","655-BX","2018/08/04 19:29:37","新北市五股區五福路7號","121.434123333333","25.0876583333333","6501500","五股區"
"248002","678-BX","2018/08/04 19:29:29","新北市五股區凌雲路一段158巷14-1號","121.447805","25.1034966666667","6501500","五股區"
"234023","9380-KE","2018/08/04 19:29:28","新北市永和區竹林路91巷32號","121.520886666667","25.01235","6500400","永和區"
"234077","969-R7","2018/08/04 19:29:20","新北市永和區民權路60號","121.51971","24.9982366666667","6500400","永和區"
"234074","AAC-211","2018/08/04 19:29:24","新北市永和區環河東路一段80號","121.51961","25.016515","6500400","永和區"
"234067","AAC-212","2018/08/04 19:29:25","新北市永和區永貞路366號","121.5102","25.0068416666667","6500400","永和區"
"234003","AAC-295","2018/08/04 19:29:32","新北市永和區永和路一段118號","121.514055","25.0078233333333","6500400","永和區"
"244019","403-UM","2018/08/04 19:29:37","新北市林口區頂福里5鄰34號","121.351478333333","25.0999766666667","6501700","林口區"
"244009","410-SL","2018/08/04 19:29:40","新北市林口區湖南里70-3號","121.375531666667","25.08922","6501700","林口區"
"244023","483-VK","2018/08/04 19:29:38","新北市林口區文化三路二段22-1號","121.373606666667","25.07916","6501700","林口區"
"243013","AAD-798","2018/08/04 19:29:39","新北市泰山區貴子路36巷3弄1號","121.425925","25.041405","6501600","泰山區"
"243009","297-R6","2018/08/04 19:29:38","新北市泰山區半山雅2號","121.431745","25.06744","6501600","泰山區"
"243016","KEA-2801","2018/08/04 19:29:34","新北市泰山區工專路53號","121.4228","25.0402916666667","6501600","泰山區"
"243015","421-VK","2018/08/04 19:29:27","新北市泰山區明志路二段136巷8號","121.4273","25.0512633333333","6501600","泰山區"
"243011","KEA-2215","2018/08/04 19:29:35","新北市泰山區貴子路19-1號","121.428085","25.04075","6501600","泰山區"
"243010","KEA-2216","2018/08/04 19:29:41","新北市泰山區民生路17巷63號","121.429218333333","25.050965","6501600","泰山區"
"243012","646-TV","2018/08/04 19:29:34","新北市泰山區仁愛路36-6號","121.431665","25.0547633333333","6501600","泰山區"
"243014","680-BX","2018/08/04 19:29:30","新北市泰山區泰林路二段28號","121.43641","25.0561683333333","6501600","泰山區"
"222003","436-BY","2018/08/04 19:29:39","新北市深坑區深南路51-1號","121.621165","25.0098066666667","6501800","深坑區"
"222002","659-BX","2018/08/04 19:29:24","新北市深坑區北深路一段177號","121.632561666667","25.0108666666667","6501800","深坑區"
"231044","001-UM","2018/08/04 19:29:37","新北市新店區中興路三段133號","121.544681666667","24.9795616666667","6500600","新店區"
"231041","002-UM","2018/08/04 19:29:29","新北市新店區中正路645號","121.533923333333","24.9897183333333","6500600","新店區"
"231040","047-UY","2018/08/04 19:29:34","新北市新店區北新路一段14號","121.540825","24.9656883333333","6500600","新店區"
"231046","107-UY","2018/08/04 19:29:37","新北市新店區北新路一段303號","121.541458333333","24.9673383333333","6500600","新店區"
"231052","108-UY","2018/08/04 19:29:37","新北市新店區新烏路二段212-1號","121.547726666667","24.914885","6500600","新店區"
"231048","187-VK","2018/08/04 19:29:29","新北市新店區中興路一段254巷5號","121.545023333333","24.966675","6500600","新店區"
"231054","KEA-2219","2018/08/04 19:29:25","新北市新店區北宜路一段28號","121.538165","24.9570466666667","6500600","新店區"
"231057","256-BX","2018/08/04 19:29:38","新北市新店區花園一路二段15號","121.550825","24.9333133333333","6500600","新店區"
"231042","268-BY","2018/08/04 19:29:32","新北市新店區北宜路一段3號","121.53847","24.9584066666667","6500600","新店區"
"231051","278-BY","2018/08/04 19:29:36","新北市新店區中央五街60號","121.527565","24.9755216666667","6500600","新店區"
"231050","AAD-862","2018/08/04 19:29:30","新北市新店區竹林路63號","121.552926666667","24.9512883333333","6500600","新店區"
"231059","355-BY","2018/08/04 19:29:35","新北市新店區安和路三段122號","121.516808333333","24.9856166666667","6500600","新店區"
"231058","3713-VJ","2018/08/04 19:29:30","新北市新店區寶橋路69-1號","121.545393333333","24.9750716666667","6500600","新店區"
"231066","4716-K9","2018/08/04 19:29:23","新北市新店區安康路三段355巷43號","121.484988333333","24.9494366666667","6500600","新店區"
"231056","4715-K9","2018/08/04 19:29:32","新北市新店區薏仁坑路6號","121.500333333333","24.957925","6500600","新店區"
"231067","4772-VM","2018/08/04 19:29:37","新北市新店區柴埕路34-1號","121.513448333333","24.9650033333333","6500600","新店區"
"231065","512-UM","2018/08/04 19:29:25","新北市新店區安祥路109巷1弄89號","121.478756666667","24.96035","6500600","新店區"
"231049","513-UM","2018/08/04 19:29:28","新北市新店區北新路三段105巷11號","121.540646666667","24.98201","6500600","新店區"
"231063","616-UM","2018/08/04 19:29:28","新北市新店區達觀路16號","121.50322","24.9406733333333","6500600","新店區"
"231045","617-UM","2018/08/04 19:29:41","新北市新店區北宜路二段209號","121.553166666667","24.9533983333333","6500600","新店區"
"231061","619-UM","2018/08/04 19:29:30","新北市新店區安康路一段258號","121.520565","24.963995","6500600","新店區"
"231064","719-UM","2018/08/04 19:29:35","新北市新店區安康路二段85巷11號","121.513723333333","24.9622633333333","6500600","新店區"
"231062","720-UM","2018/08/04 19:29:39","新北市新店區莒光路12號","121.52691","24.9607","6500600","新店區"
"231060","897-TW","2018/08/04 19:29:38","新北市新店區安康路二段78號","121.514191666667","24.9634333333333","6500600","新店區"
"231043","899-TW","2018/08/04 19:29:36","新北市新店區北新路二段190號","121.543011666667","24.9764683333333","6500600","新店區"
"231055","AKT-0513","2018/08/04 19:29:22","新北市新店區中華路83巷67號","121.538353333333","24.9674616666667","6500600","新店區"
"241028","022-UY","2018/08/04 19:29:31","新北市三重區中寮街90號","121.493281666667","25.05804","6500200","三重區"
"241008","059-VK","2018/08/04 19:29:31","新北市三重區永福街135巷38號","121.477223333333","25.07725","6500200","三重區"
"241022","060-VK","2018/08/04 19:29:26","新北市三重區三民街157巷1號","121.483843333333","25.0645816666667","6500200","三重區"
"241017","063-VK","2018/08/04 19:29:25","新北市三重區國隆路30-1號","121.492215","25.0644933333333","6500200","三重區"
"241026","066-VK","2018/08/04 19:29:26","新北市三重區文化南路51號","121.500306666667","25.0612383333333","6500200","三重區"
"241009","267-UM","2018/08/04 19:29:30","新北市三重區仁美街123號","121.485528333333","25.0813266666667","6500200","三重區"
"241032","269-UM","2018/08/04 19:29:37","新北市三重區三陽路106號","121.483303333333","25.0587983333333","6500200","三重區"
"241013","270-UM","2018/08/04 19:29:22","新北市三重區仁愛街104號","121.495411666667","25.0741483333333","6500200","三重區"
"241025","271-UM","2018/08/04 19:29:34","新北市三重區頂崁街210巷28弄9號","121.47584","25.06712","6500200","三重區"
"241007","398-BY","2018/08/04 19:29:35","新北市三重區溪尾街124-1號","121.48938","25.0793","6500200","三重區"
"241035","KEA-2210","2018/08/04 19:29:38","新北市三重區正義北路88號","121.496878333333","25.0646033333333","6500200","三重區"
"241031","462-BY","2018/08/04 19:29:21","新北市三重區集美街65-3號","121.488478333333","25.0541083333333","6500200","三重區"
"241020","478-VK","2018/08/04 19:29:32","新北市三重區三和路四段44巷4號","121.490211666667","25.0742766666667","6500200","三重區"
"241030","480-VK","2018/08/04 19:29:36","新北市三重區成功路41巷13號","121.4903","25.0515583333333","6500200","三重區"
"241023","545-UM","2018/08/04 19:29:24","新北市三重區頂崁街99號","121.477983333333","25.06379","6500200","三重區"
"241006","AAD-863","2018/08/04 19:29:31","新北市三重區車路頭街76號","121.484338333333","25.07383","6500200","三重區"
"241029","942-UM","2018/08/04 19:29:36","新北市三重區中正南路216號","121.493825","25.0550966666667","6500200","三重區"
"235066","003-UY","2018/08/04 19:29:42","新北市中和區景新街45號","121.504223333333","24.9990783333333","6500300","中和區"
"235064","005-UY","2018/08/04 19:29:35","新北市中和區南山路85號","121.50205","24.9979766666667","6500300","中和區"
"235063","006-UY","2018/08/04 19:29:39","新北市中和區連城路203巷10弄2號","121.494928333333","24.9973083333333","6500300","中和區"
"235056","096-UM","2018/08/04 19:29:23","新北市中和區民富街9號","121.476478333333","25.0072066666667","6500300","中和區"
"235039","097-UM","2018/08/04 19:29:39","新北市中和區秀峰街119巷8弄9號","121.518973333333","24.9899383333333","6500300","中和區"
"235065","098-UM","2018/08/04 19:29:25","新北市中和區福美路269號","121.498208333333","25.0051166666667","6500300","中和區"
"235040","150-BY","2018/08/04 19:29:27","新北市中和區保健路46巷26弄24號","121.507953333333","24.995675","6500300","中和區"
"235058","151-BY","2018/08/04 19:29:30","新北市中和區連城路326號","121.483256666667","24.9959783333333","6500300","中和區"
"235055","183-VK","2018/08/04 19:29:33","新北市中和區莒光路120巷19弄2號","121.471685","25.0007133333333","6500300","中和區"
"235038","185-VK","2018/08/04 19:29:26","新北市中和區自立路101號","121.522071666667","24.9947783333333","6500300","中和區"
"235049","186-VK","2018/08/04 19:29:37","新北市中和區景新街244號","121.509273333333","24.9936266666667","6500300","中和區"
"235067","255-BX","2018/08/04 19:29:29","新北市中和區連城路334號","121.483105","24.99587","6500300","中和區"
"235044","293-VK","2018/08/04 19:29:27","新北市中和區景安路206號","121.504008333333","24.9909666666667","6500300","中和區"
"235072","301-VK","2018/08/04 19:29:23","新北市中和區連城路263巷4弄6號","121.491633333333","24.9956916666667","6500300","中和區"
"235043","352-BY","2018/08/04 19:29:29","新北市中和區景新街149號","121.506528333333","24.9966183333333","6500300","中和區"
"235050","4979-A6","2018/08/04 19:29:41","新北市中和區中正路456號","121.490691666667","24.9940833333333","6500300","中和區"
"235042","551-UM","2018/08/04 19:29:38","新北市中和區中和路350巷8弄38號","121.509846666667","24.99983","6500300","中和區"
"235070","558-UM","2018/08/04 19:29:26","新北市中和區中和路71號","121.500706666667","25.00107","6500300","中和區"
"235045","565-BX","2018/08/04 19:29:24","新北市中和區景新街423號","121.512978333333","24.9893266666667","6500300","中和區"
"235054","640-BX","2018/08/04 19:29:27","新北市中和區國光街112巷23弄11號","121.469333333333","25.0023266666667","6500300","中和區"
"235060","647-TV","2018/08/04 19:29:31","新北市中和區新生街112巷29號","121.48238","25.002645","6500300","中和區"
"235047","732-UM","2018/08/04 19:29:37","新北市中和區景平路241巷66號","121.507675","24.9922416666667","6500300","中和區"
"235046","733-UM","2018/08/04 19:29:25","新北市中和區忠孝街37巷67號","121.51054","24.9847816666667","6500300","中和區"
"235071","783-BX","2018/08/04 19:29:37","新北市中和區新生街260號","121.483778333333","24.9973566666667","6500300","中和區"
"235057","801-TS","2018/08/04 19:29:39","新北市中和區中山路三段35號","121.479035","25.005555","6500300","中和區"
"235041","802-TS","2018/08/04 19:29:39","新北市中和區中安街98-1號","121.51169","25.001225","6500300","中和區"
"235052","805-TS","2018/08/04 19:29:33","新北市中和區華新街143巷74號","121.506321666667","24.9790516666667","6500300","中和區"
"235048","896-TW","2018/08/04 19:29:31","新北市中和區四維街40號","121.51237","24.986905","6500300","中和區"
"235053","900-TW","2018/08/04 19:29:33","新北市中和區華順街2巷10號","121.467445","24.9992533333333","6500300","中和區"
"235051","157-BY","2018/08/04 19:29:37","新北市中和區景新街120號","121.505103333333","24.9980016666667","6500300","中和區"
"235037","AAC-213","2018/08/04 19:29:26","新北市中和區秀朗路三段10巷14弄14號","121.525015","24.9965766666667","6500300","中和區"
"220106","013-TV","2018/08/04 19:29:36","新北市板橋區江寧路三段117號","121.473206666667","25.0330333333333","6500100","板橋區"
"220055","015-TV","2018/08/04 19:29:33","新北市板橋區重慶路290巷22弄23號","121.462198333333","24.99942","6500100","板橋區"
"220065","072-UY","2018/08/04 19:29:38","新北市板橋區實踐路93巷55號","121.467066666667","25.00469","6500100","板橋區"
"220086","073-UY","2018/08/04 19:29:35","新北市板橋區中正路236巷65號","121.458631666667","25.0196566666667","6500100","板橋區"
"220069","AAD-861","2018/08/04 19:29:31","新北市板橋區稚暉街35號","121.457068333333","25.00418","6500100","板橋區"
"226004","312-R5","2018/08/04 19:29:32","新北市平溪區十分里十分街55號","121.7754","25.0413","6502400","平溪區"
"235059","251-BX","2018/08/04 19:29:36","新北市中和區圓通路252巷6-2號","121.492791666667","24.9918466666667","6500300","中和區"
"228003","097-TW","2018/08/04 19:29:31","新北市貢寮區和美里和美街22-1號","121.912831666667","25.0826333333333","6502600","貢寮區"
"228001","212-TW","2018/08/04 19:29:35","新北市貢寮區真理里延平街68號","121.925378333333","25.0574266666667","6502600","貢寮區"
"228002","663-BX","2018/08/04 19:29:24","新北市貢寮區龍門里龍門街49號","121.932435","25.0262","6502600","貢寮區"
"224010","AGQ-8101","2018/08/04 19:29:30","新北市瑞芳區汽車路7號","121.847108333333","25.1109766666667","6501200","瑞芳區"
"224008","272-VK","2018/08/04 19:29:22","新北市瑞芳區瑞芳街90號","121.802273333333","25.11026","6501200","瑞芳區"
"227002","642-TC","2018/08/04 19:29:35","新北市雙溪區雙溪里光復街16號","121.865123333333","25.0354","6502500","雙溪區"
"227010","400-TW","2018/08/04 19:29:34","新北市雙溪區新基里新基北街43號","121.868103333333","25.0396916666667","6502500","雙溪區"
"253005","032-BX","2018/08/04 19:29:35","新北市石門區小坑9號","121.594041666667","25.288745","6502200","石門區"
"253006","295-VK","2018/08/04 19:29:35","新北市石門區楓林23-10號","121.538731666667","25.291195","6502200","石門區"
"222001","KEA-2212","2018/08/04 19:29:39","新北市深坑區深坑街10號","121.61582","25.00275","6501800","深坑區"
"208002","KEA-2872","2018/08/04 19:29:36","新北市金山區中華路114號","121.633631666667","25.22029","6502700","金山區"
"208003","665-BX","2018/08/04 19:29:29","新北市金山區中山路263巷14號","121.63638","25.2215916666667","6502700","金山區"
"208001","761-BX","2018/08/04 19:29:26","新北市金山區金包里街61-1號","121.63852","25.2217216666667","6502700","金山區"
"251009","008-UM","2018/08/04 19:29:22","新北市淡水區中山路138號","121.441493333333","25.1712333333333","6501000","淡水區"
"251001","011-UM","2018/08/04 19:29:34","新北市淡水區民權路141號","121.460105","25.1364466666667","6501000","淡水區"
"251013","KEA-2871","2018/08/04 19:28:23","新北市淡水區安子內13號","121.479438333333","25.2192566666667","6501000","淡水區"
"251016","179-VK","2018/08/04 19:29:37","新北市淡水區下圭柔山119-51號","121.450708333333","25.2084866666667","6501000","淡水區"
"251014","180-VK","2018/08/04 19:29:37","新北市淡水區小中寮15-1號","121.485611666667","25.2303683333333","6501000","淡水區"
"251008","181-VK","2018/08/04 19:29:32","新北市淡水區中正路一段51號","121.424366666667","25.1775633333333","6501000","淡水區"
"251010","413-VK","2018/08/04 19:29:29","新北市淡水區中正路二段150號","121.42285","25.1877216666667","6501000","淡水區"
"251012","441-VK","2018/08/04 19:29:37","新北市淡水區崁頂105號","121.433698333333","25.2039233333333","6501000","淡水區"
"251007","442-VK","2018/08/04 19:29:27","新北市淡水區八勢路50巷9號","121.4636","25.1513033333333","6501000","淡水區"
"251005","443-VK","2018/08/04 19:29:20","新北市淡水區水源街一段71巷20號","121.444251666667","25.173035","6501000","淡水區"
"251006","561-UM","2018/08/04 19:29:34","新北市淡水區大義街40號","121.442126666667","25.17836","6501000","淡水區"
"251011","650-BX","2018/08/04 19:29:38","新北市淡水區中正東路二段143巷2弄5號","121.460671666667","25.1469183333333","6501000","淡水區"
"207003","550-UM","2018/08/04 19:29:28","新北市萬里區大鵬里萬里加投197-5號","121.643986666667","25.2150583333333","6502800","萬里區"
"207004","225-TW","2018/08/04 19:29:30","新北市萬里區萬里里瑪鋉路121號","121.68899","25.177845","6502800","萬里區"
"252002","178-VK","2018/08/04 19:29:33","新北市三芝區淡金路二段18-1號","121.502688333333","25.259515","6502100","三芝區"
"252001","292-VK","2018/08/04 19:29:38","新北市三芝區長勤街54-1號","121.50011","25.2556166666667","6502100","三芝區"
"237004","KEA-2597","2018/08/04 19:29:34","新北市三峽區有木206號","121.439106666667","24.85151","6500900","三峽區"
"237007","153-BY","2018/08/04 19:29:39","新北市三峽區二鬮路136巷20弄83號","121.358153333333","24.9090516666667","6500900","三峽區"
"237011","572-TV","2018/08/04 19:29:39","新北市三峽區中正路一段286號","121.371713333333","24.9261033333333","6500900","三峽區"
"237009","210-TH","2018/08/04 19:29:39","新北市三峽區民權街153-1號","121.368368333333","24.9312216666667","6500900","三峽區"
"237013","252-BX","2018/08/04 19:29:34","新北市三峽區介壽路一段318巷15號","121.381416666667","24.929495","6500900","三峽區"
"237012","275-BY","2018/08/04 19:29:30","新北市三峽區民生街2-2號","121.376635","24.9370466666667","6500900","三峽區"
"237008","302-VK","2018/08/04 19:29:40","新北市三峽區中正路一段114號","121.37391","24.9293666666667","6500900","三峽區"
"237014","433-BY","2018/08/04 19:29:28","新北市三峽區中山路63巷8號","121.366905","24.93433","6500900","三峽區"
"237006","5529-G3","2018/08/04 19:29:26","新北市三峽區溪東路233巷4弄21號","121.407295","24.9338233333333","6500900","三峽區"
"237016","649-BX","2018/08/04 19:29:34","新北市三峽區成福路57號","121.41821","24.9291033333333","6500900","三峽區"
"237005","AKY-6261","2018/08/04 19:29:23","新北市三峽區復興路367巷9號","121.36375","24.937805","6500900","三峽區"
"236070","105-UM","2018/08/04 19:29:35","新北市土城區裕民路185巷36弄10號","121.454395","24.98457","6501300","土城區"
"236042","107-UM","2018/08/04 19:29:36","新北市土城區學府路一段239號","121.45042","24.9834316666667","6501300","土城區"
"236079","166-UM","2018/08/04 19:29:30","新北市土城區中州路12巷5號","121.414908333333","24.95738","6501300","土城區"
"236026","269-VK","2018/08/04 19:29:29","新北市土城區中央路二段61巷20號","121.44315","24.9788683333333","6501300","土城區"
"236021","401-BY","2018/08/04 19:29:42","新北市土城區峰廷街3號","121.469045","24.987315","6501300","土城區"
"236059","912-UM","2018/08/04 19:29:28","新北市土城區中央路二段63號","121.442726666667","24.9789433333333","6501300","土城區"
"236049","913-UM","2018/08/04 19:29:33","新北市土城區清水路196號","121.4604","24.9818783333333","6501300","土城區"
"242023","362-BY","2018/08/04 19:29:30","新北市新莊區三和路12-21號","121.442198333333","25.038035","6500500","新莊區"
"242031","135-UY","2018/08/04 19:29:41","新北市新莊區新泰路225巷24號","121.445213333333","25.0390933333333","6500500","新莊區"
"242048","172-VK","2018/08/04 19:29:10","新北市新莊區後港一路3號","121.424123333333","25.0263516666667","6500500","新莊區"
"242011","173-VK","2018/08/04 19:26:04","新北市新莊區新泰路357巷2號","121.441996666667","25.041505","6500500","新莊區"
"242004","176-VK","2018/08/04 19:29:40","新北市新莊區化成路11巷66號","121.462296666667","25.0435216666667","6500500","新莊區"
"242021","348-TH","2018/08/04 19:29:35","新北市新莊區三和路12-21號","121.442235","25.0382333333333","6500500","新莊區"
"238015","755-BX","2018/08/04 19:29:41","新北市樹林區中興街20-4號","121.420858333333","24.9900766666667","6500700","樹林區"
"238023","601-UM","2018/08/04 19:29:23","新北市樹林區三福街81號","121.4073","25.016255","6500700","樹林區"
"238019","599-UM","2018/08/04 19:29:39","新北市樹林區大同街24巷4號","121.417948333333","24.9828933333333","6500700","樹林區"
"238018","571-TV","2018/08/04 19:29:39","新北市樹林區中華路55號","121.42352","24.9831533333333","6500700","樹林區"
"238024","5061-A6","2018/08/04 19:29:28","新北市樹林區中山路三段155巷12號","121.396078333333","24.972585","6500700","樹林區"
"238022","KEA-2213","2018/08/04 19:29:34","新北市樹林區太元街73號","121.419076666667","24.9785866666667","6500700","樹林區"
"238021","KEA-2539","2018/08/04 19:29:42","新北市樹林區柑園街二段384巷2號","121.36826","24.94917","6500700","樹林區"
"238025","303-VK","2018/08/04 19:29:39","新北市樹林區保安二街29號","121.424803333333","24.9938066666667","6500700","樹林區"
"238017","283-BY","2018/08/04 19:29:40","新北市樹林區保安街二段107巷1弄2號","121.415125","25.000835","6500700","樹林區"
"238014","282-BY","2018/08/04 19:29:32","新北市樹林區千歲街19巷6號","121.4245","24.995955","6500700","樹林區"
"238020","268-VK","2018/08/04 19:29:33","新北市樹林區俊英街105號","121.425023333333","25.009605","6500700","樹林區"
"238026","172-UY","2018/08/04 19:29:42","新北市樹林區佳園路二段155號","121.389998333333","24.9572416666667","6500700","樹林區"
"238016","169-UY","2018/08/04 19:29:32","新北市樹林區東和街26號","121.402851666667","24.981425","6500700","樹林區"
"239007","AAC-297","2018/08/04 19:29:33","新北市鶯歌區大湖路360號","121.346305","24.9726366666667","6500800","鶯歌區"
"239006","891-R6","2018/08/04 19:29:28","新北市鶯歌區建國路502號","121.341001666667","24.9507666666667","6500800","鶯歌區"
"239008","527-UM","2018/08/04 19:29:29","新北市鶯歌區大湖路530巷2-2號","121.338001666667","24.972175","6500800","鶯歌區"
"239001","417-VK","2018/08/04 19:29:32","新北市鶯歌區中山路129號","121.34954","24.9570066666667","6500800","鶯歌區"
"239003","360-BY","2018/08/04 19:29:35","新北市鶯歌區中正一路阿南巷501號","121.380926666667","24.9649766666667","6500800","鶯歌區"
"239002","359-BY","2018/08/04 19:29:26","新北市鶯歌區大湖路185巷22號","121.342643333333","24.9704933333333","6500800","鶯歌區"
"239004","193-VK","2018/08/04 19:29:24","新北市鶯歌區中正三路291巷11號","121.3298","24.93577","6500800","鶯歌區"
"221008","489-VK","2018/08/04 19:29:25","新北市汐止區康寧街237號","121.624195","25.066825","6501100","汐止區"
"221036","130-UY","2018/08/04 19:29:39","新北市汐止區汐萬路一段312號","121.650496666667","25.07544","6501100","汐止區"
"221015","131-UY","2018/08/04 19:29:37","新北市汐止區康寧街901號","121.650881666667","25.0752966666667","6501100","汐止區"
"221010","269-BY","2018/08/04 19:29:25","新北市汐止區連峰街3巷2號","121.646421666667","25.076605","6501100","汐止區"
"221012","278-VK","2018/08/04 19:29:38","新北市汐止區大同路三段182號","121.674263333333","25.074665","6501100","汐止區"
"221023","279-VK","2018/08/04 19:29:42","新北市汐止區康寧街504號","121.63292","25.0685616666667","6501100","汐止區"
"221027","281-BY","2018/08/04 19:29:32","新北市汐止區忠孝東路9號","121.658296666667","25.0659733333333","6501100","汐止區"
"221029","298-VK","2018/08/04 19:29:20","新北市汐止區康寧街901號","121.651453333333","25.074995","6501100","汐止區"
"221021","299-VK","2018/08/04 19:29:26","新北市汐止區康寧街901號","121.651488333333","25.0750666666667","6501100","汐止區"
"221031","353-TW","2018/08/04 19:29:34","新北市汐止區康寧街901號","121.650835","25.0752866666667","6501100","汐止區"
"221002","129-UY","2018/08/04 19:29:28","新北市汐止區大同路一段337巷17弄1號","121.637376666667","25.0598766666667","6501100","汐止區"
"221025","623-UM","2018/08/04 19:29:38","新北市汐止區秀峰路57號","121.65977","25.065","6501100","汐止區"
"221038","646-BX","2018/08/04 19:29:23","新北市汐止區汐萬路一段2號","121.656221666667","25.0672233333333","6501100","汐止區"
"220079","145-BY","2018/08/04 19:29:25","新北市板橋區建國街1巷2號","121.45721","25.0169716666667","6500100","板橋區"
"220080","200-UY","2018/08/04 19:29:36","新北市板橋區大觀路二段37巷306號","121.450045","25.0021183333333","6500100","板橋區"
"220082","610-BX","2018/08/04 19:29:31","新北市板橋區大觀路三段133巷12號","121.433276666667","24.993905","6500100","板橋區"
"220101","245-BX","2018/08/04 19:29:39","新北市板橋區莊敬路208巷8弄1號","121.471473333333","25.0206466666667","6500100","板橋區"
"220103","257-TC","2018/08/04 19:29:38","新北市板橋區文化路一段220號","121.466516666667","25.0205083333333","6500100","板橋區"
"220056","276-BY","2018/08/04 19:29:37","新北市板橋區信義路1巷26弄33號","121.458781666667","24.9966466666667","6500100","板橋區"
"220072","277-BY","2018/08/04 19:29:35","新北市板橋區金門街283號","121.431281666667","24.9878533333333","6500100","板橋區"
"220071","283-VK","2018/08/04 19:29:43","新北市板橋區四川路一段283巷5號","121.459783333333","25.0013266666667","6500100","板橋區"
"220094","285-UM","2018/08/04 19:29:35","新北市板橋區吳鳳路50巷21弄2號","121.468433333333","25.0304033333333","6500100","板橋區"
"220053","285-VK","2018/08/04 19:29:22","新北市板橋區永豐街179號","121.475913333333","25.0206616666667","6500100","板橋區"
"220083","286-VK","2018/08/04 19:29:28","新北市板橋區大觀路二段174巷179弄19號","121.441335","25.0042233333333","6500100","板橋區"
"220081","287-VK","2018/08/04 19:29:35","新北市板橋區大觀路一段28巷1弄102號","121.45183","25.0063316666667","6500100","板橋區"
"220090","288-VK","2018/08/04 19:29:27","新北市板橋區裕民街94巷1弄2號","121.46004","25.028375","6500100","板橋區"
"220061","293-UM","2018/08/04 19:29:28","新北市板橋區中山路二段87-1號","121.473973333333","25.0160333333333","6500100","板橋區"
"220062","295-UM","2018/08/04 19:29:32","新北市板橋區三民路二段81巷25號","121.480526666667","25.0167366666667","6500100","板橋區"
"220084","296-UM","2018/08/04 19:29:35","新北市板橋區滿平街84巷94號","121.426376666667","24.9869783333333","6500100","板橋區"
"242013","281-VK","2018/08/04 19:29:32","新北市新莊區中和街59巷8號","121.446945","25.0468783333333","6500500","新莊區"
"220075","303-R5","2018/08/04 19:29:28","新北市板橋區南雅西路二段301巷50弄25號","121.452496666667","25.01707","6500100","板橋區"
"220092","307-R5","2018/08/04 19:29:35","新北市板橋區光武街2巷43號","121.468333333333","25.02585","6500100","板橋區"
"220098","317-R6","2018/08/04 19:29:44","新北市板橋區民生路三段263巷4弄2號","121.463778333333","25.0296866666667","6500100","板橋區"
"220064","486-VK","2018/08/04 19:29:38","新北市板橋區中山路一段7號","121.459993333333","25.008015","6500100","板橋區"
"220088","491-VK","2018/08/04 19:29:30","新北市板橋區文化路二段444號","121.474411666667","25.0321366666667","6500100","板橋區"
"220035","560-BX","2018/08/04 19:29:37","新北市板橋區中正路399巷26號","121.453265","25.0226716666667","6500100","板橋區"
"220063","609-BX","2018/08/04 19:29:40","新北市板橋區三民路一段31巷89弄1號","121.481638333333","25.0233916666667","6500100","板橋區"
"220091","637-BX","2018/08/04 19:29:29","新北市板橋區文聖街149巷16號","121.4792","25.0283116666667","6500100","板橋區"
"220057","686-BX","2018/08/04 19:29:40","新北市板橋區和平路64號","121.461183333333","24.9945133333333","6500100","板橋區"
"220077","687-BX","2018/08/04 19:29:23","新北市板橋區僑中二街116巷2號","121.445736666667","25.0065516666667","6500100","板橋區"
"220093","689-BX","2018/08/04 19:29:40","新北市板橋區新海路389號","121.458963333333","25.026245","6500100","板橋區"
"220054","741-BX","2018/08/04 19:29:36","新北市板橋區光明街29號","121.46095","25.0026616666667","6500100","板橋區"
"220102","KEA-2699","2018/08/04 19:29:25","新北市板橋區雙十路二段112號","121.474615","25.0288","6500100","板橋區"
"220067","829-TW","2018/08/04 19:29:39","新北市板橋區漢生東路335號","121.471938333333","25.0076616666667","6500100","板橋區"
"220068","830-TW","2018/08/04 19:29:25","新北市板橋區翠華街6巷70號","121.481735","25.0249883333333","6500100","板橋區"
"220096","831-TW","2018/08/04 19:29:33","新北市板橋區民生路二段226巷6弄2號","121.469721666667","25.02171","6500100","板橋區"
"220089","833-TW","2018/08/04 19:29:31","新北市板橋區民權路170巷2號","121.459801666667","25.013035","6500100","板橋區"
"220074","895-R6","2018/08/04 19:29:27","新北市板橋區府中路99號","121.456955","25.00955","6500100","板橋區"
"220073","985-R7","2018/08/04 19:29:39","新北市板橋區中正路296號","121.454985","25.0205466666667","6500100","板橋區"
"220097","AAC-210","2018/08/04 19:29:36","新北市板橋區漢生西路149號","121.462836666667","25.0220816666667","6500100","板橋區"
"220070","AAC-253","2018/08/04 19:29:27","新北市板橋區四川路一段49號","121.45956","25.0063766666667","6500100","板橋區"
"235068","KEA-2873","2018/08/04 19:29:13","新北市中和區景平路493巷12弄9號","121.498863333333","24.997215","6500300","中和區"
"235061","KEA-2875","2018/08/04 19:29:34","新北市中和區民利街9巷2弄4號","121.48057","24.9987483333333","6500300","中和區"
