"lineid","car","time","location","longitude","latitude","cityid","cityname"
"234046","148-BY","2018/08/04 19:59:28","新北市永和區成功路一段89號","121.526856666667","25.002905","6500400","永和區"
"234007","207-UY","2018/08/04 19:59:29","新北市永和區永貞路375號","121.508318333333","25.008385","6500400","永和區"
"234081","298-R6","2018/08/04 19:59:33","新北市永和區永利路79號","121.521456666667","25.0035816666667","6500400","永和區"
"234064","337-UY","2018/08/04 19:59:36","新北市永和區中正路412巷20弄14號","121.518796666667","25.00146","6500400","永和區"
"234086","338-UY","2018/08/04 19:59:26","新北市永和區福和路130號","121.521976666667","25.007955","6500400","永和區"
"234070","552-UM","2018/08/04 19:59:28","新北市永和區國光路12巷1號","121.519295","25.0085283333333","6500400","永和區"
"234038","553-UM","2018/08/04 19:59:36","新北市永和區成功路二段142號","121.526511666667","24.9971883333333","6500400","永和區"
"234017","745-BX","2018/08/04 19:59:31","新北市永和區文化路92號","121.513805","25.015235","6500400","永和區"
"234030","746-BX","2018/08/04 19:59:27","新北市永和區民生路67巷21號","121.523906666667","24.997325","6500400","永和區"
"234054","KEA-2590","2018/08/04 19:59:38","新北市永和區環河東路一段122號","121.520645","25.015655","6500400","永和區"
"234013","KEA-2591","2018/08/04 19:59:26","新北市永和區保生路55號","121.50469","25.0106116666667","6500400","永和區"
"234061","AAD-866","2018/08/04 19:59:41","新北市永和區中正路283巷27號","121.51637","24.9999333333333","6500400","永和區"
"234042","862-TW","2018/08/04 19:59:10","新北市永和區中和路335巷18弄6號","121.507706666667","25.0002166666667","6500400","永和區"
"234050","863-TW","2018/08/04 19:59:25","新北市永和區新生路237巷32號","121.506726666667","25.0131116666667","6500400","永和區"
"234026","9371-KE","2018/08/04 19:59:41","新北市永和區水源街21巷14弄3號","121.511391666667","25.0037233333333","6500400","永和區"
"234011","9373-KE","2018/08/04 19:59:37","新北市永和區仁愛路352巷124號","121.500288333333","25.00859","6500400","永和區"
"249005","172-UM","2018/08/04 19:59:22","新北市八里區楓林路4號","121.381613333333","25.1296333333333","6502300","八里區"
"249001","173-UM","2018/08/04 19:59:34","新北市八里區中華路二段310號","121.403886666667","25.14832","6502300","八里區"
"249004","303-UY","2018/08/04 19:59:27","新北市八里區中山路一段418-2號","121.41105","25.1577766666667","6502300","八里區"
"249002","305-UY","2018/08/04 19:59:40","新北市八里區龍米路一段87巷35-4號","121.4525","25.12322","6502300","八里區"
"249003","593-UM","2018/08/04 19:59:11","新北市八里區中華路二段560巷3號","121.398498333333","25.1451383333333","6502300","八里區"
"248016","026-BX","2018/08/04 19:59:35","新北市五股區成泰路三段577巷80弄25號","121.449576666667","25.10463","6501500","五股區"
"248008","095-VK","2018/08/04 19:59:25","新北市三重區中正北路598巷5號","121.469715","25.0715083333333","6501500","五股區"
"248020","225-UY","2018/08/04 19:59:22","新北市五股區凌雲路三段19-1號","121.430651666667","25.1092016666667","6501500","五股區"
"248012","247-BX","2018/08/04 19:59:26","新北市五股區民義路一段112-10號","121.435305","25.085275","6501500","五股區"
"248014","261-SL","2018/08/04 19:59:44","新北市五股區五福路14巷26號","121.435498333333","25.0889183333333","6501500","五股區"
"248010","272-BY","2018/08/04 19:59:37","新北市五股區登林路46巷3號","121.431913333333","25.06866","6501500","五股區"
"248004","655-BX","2018/08/04 19:59:37","新北市五股區成泰路一段32巷60號","121.434953333333","25.0669783333333","6501500","五股區"
"248002","678-BX","2018/08/04 19:59:29","新北市五股區成泰路三段514號","121.452216666667","25.1018533333333","6501500","五股區"
"234077","969-R7","2018/08/04 19:59:40","新北市永和區智光街101號","121.516238333333","24.9968966666667","6500400","永和區"
"234074","AAC-211","2018/08/04 19:59:24","新北市永和區豫溪街215巷25號","121.523581666667","25.0103566666667","6500400","永和區"
"234067","AAC-212","2018/08/04 19:59:22","新北市永和區中山路一段277號","121.507001666667","25.007145","6500400","永和區"
"234003","AAC-295","2018/08/04 19:59:39","新北市永和區中正路742-1號","121.515216666667","25.0103133333333","6500400","永和區"
"243013","AAD-798","2018/08/04 19:39:03","新北市泰山區應化街7號","121.423885","25.0437","6501600","泰山區"
"243009","297-R6","2018/08/04 19:59:29","新北市泰山區楓江路16巷13號","121.433931666667","25.0617666666667","6501600","泰山區"
"243016","KEA-2801","2018/08/04 19:59:34","新北市泰山區明志路三段488號","121.421121666667","25.0314133333333","6501600","泰山區"
"243015","421-VK","2018/08/04 19:59:30","新北市泰山區明志路二段214巷16弄16號","121.427108333333","25.049705","6501600","泰山區"
"243011","KEA-2215","2018/08/04 19:59:35","新北市泰山區明志路三段196巷52號","121.421736666667","25.039935","6501600","泰山區"
"243010","KEA-2216","2018/08/04 19:59:41","新北市泰山區中華街9號","121.42773","25.0524216666667","6501600","泰山區"
"243012","646-TV","2018/08/04 19:59:27","新北市泰山區全興路83號","121.433046666667","25.057845","6501600","泰山區"
"243014","680-BX","2018/08/04 19:59:31","新北市泰山區泰林路二段165號","121.433778333333","25.0604866666667","6501600","泰山區"
"222003","436-BY","2018/08/04 19:59:39","新北市深坑區埔新街14號","121.620743333333","25.0039566666667","6501800","深坑區"
"222002","659-BX","2018/08/04 19:59:24","新北市深坑區北深路二段81巷8弄1號","121.618445","25.0029366666667","6501800","深坑區"
"231044","001-UM","2018/08/04 19:59:37","新北市新店區復興路19號","121.539293333333","24.9867283333333","6500600","新店區"
"231041","002-UM","2018/08/04 19:59:29","新北市新店區中央路91號","121.532031666667","24.976125","6500600","新店區"
"231040","047-UY","2018/08/04 19:59:28","新北市新店區中正路51號","121.544695","24.969965","6500600","新店區"
"231046","107-UY","2018/08/04 19:59:37","新北市新店區三民路159巷19弄1號","121.532803333333","24.974185","6500600","新店區"
"231052","108-UY","2018/08/04 19:59:37","新北市新店區新烏路三段寶島巷4號","121.551553333333","24.899245","6500600","新店區"
"231048","187-VK","2018/08/04 19:59:30","新北市新店區寶宏路3-3號","121.54923","24.97666","6500600","新店區"
"231054","KEA-2219","2018/08/04 19:59:25","新北市新店區光明街139號","121.539483333333","24.9620333333333","6500600","新店區"
"231057","256-BX","2018/08/04 19:59:38","新北市新店區花園二路一段11號","121.555461666667","24.93248","6500600","新店區"
"231042","268-BY","2018/08/04 19:59:32","新北市新店區中興路一段290號","121.545891666667","24.9690216666667","6500600","新店區"
"231051","278-BY","2018/08/04 19:59:36","新北市新店區中央三街29號","121.528475","24.9740383333333","6500600","新店區"
"231050","AAD-862","2018/08/04 19:59:30","新北市新店區北宜路二段579巷10號","121.565001666667","24.9544016666667","6500600","新店區"
"231059","355-BY","2018/08/04 19:59:35","新北市新店區安康路二段192號","121.511253333333","24.9600366666667","6500600","新店區"
"231058","3713-VJ","2018/08/04 19:59:30","新北市新店區薏仁坑路自強巷1號","121.496846666667","24.95816","6500600","新店區"
"231056","4715-K9","2018/08/04 19:59:32","新北市新店區北新路二段29巷3弄1號","121.542135","24.9730183333333","6500600","新店區"
"231065","512-UM","2018/08/04 19:59:25","新北市新店區安祥路109巷8號","121.475446666667","24.9588233333333","6500600","新店區"
"231049","513-UM","2018/08/04 19:59:38","新北市新店區明德路38號","121.541466666667","24.977885","6500600","新店區"
"231063","616-UM","2018/08/04 19:59:27","新北市新店區車子路11號","121.503033333333","24.951905","6500600","新店區"
"231045","617-UM","2018/08/04 19:59:21","新北市新店區北宜路二段126號","121.556831666667","24.9538683333333","6500600","新店區"
"231061","619-UM","2018/08/04 19:59:30","新北市新店區安民街325號","121.517391666667","24.974515","6500600","新店區"
"231068","718-UY","2018/08/04 19:59:35","新北市新店區安一路一段1-1號","121.519325","24.9611533333333","6500600","新店區"
"231064","719-UM","2018/08/04 19:59:15","新北市新店區光華街7巷2號","121.51756","24.9690583333333","6500600","新店區"
"231062","720-UM","2018/08/04 19:59:38","新北市新店區華城路10巷1-3號","121.528843333333","24.9578366666667","6500600","新店區"
"231060","897-TW","2018/08/04 19:59:37","新北市新店區安康路二段454號","121.494366666667","24.9542466666667","6500600","新店區"
"231043","899-TW","2018/08/04 19:59:36","新北市新店區中正路263-5號","121.53811","24.9737816666667","6500600","新店區"
"231055","AKT-0513","2018/08/04 19:59:42","新北市新店區中華路52號","121.539638333333","24.96853","6500600","新店區"
"241011","013-R5","2018/08/04 19:59:26","新北市三重區秀江街254號","121.496116666667","25.071295","6500200","三重區"
"241028","022-UY","2018/08/04 19:59:32","新北市三重區重新路三段90號","121.492968333333","25.060755","6500200","三重區"
"241008","059-VK","2018/08/04 19:59:30","新北市三重區永福街179巷11號","121.478413333333","25.0749616666667","6500200","三重區"
"241022","060-VK","2018/08/04 19:59:26","新北市三重區新北大道一段11號","121.488635","25.0606116666667","6500200","三重區"
"241015","062-VK","2018/08/04 19:59:24","新北市三重區三和路二段35-1號","121.500851666667","25.0671983333333","6500200","三重區"
"241017","063-VK","2018/08/04 19:59:25","新北市三重區重陽路三段107號","121.490516666667","25.0684633333333","6500200","三重區"
"241024","065-VK","2018/08/04 19:59:37","新北市三重區大勇街32號","121.481718333333","25.0717716666667","6500200","三重區"
"241026","066-VK","2018/08/04 19:59:26","新北市三重區福德南路20號","121.502816666667","25.0631633333333","6500200","三重區"
"241002","090-VK","2018/08/04 19:59:33","新北市三重區仁愛街269巷4號","121.493113333333","25.0789366666667","6500200","三重區"
"241003","091-VK","2018/08/04 19:59:24","新北市三重區仁愛街445巷1號","121.490038333333","25.0821933333333","6500200","三重區"
"241016","266-UM","2018/08/04 19:59:27","新北市三重區正義北路36巷19號","121.49665","25.0634166666667","6500200","三重區"
"241009","267-UM","2018/08/04 19:59:30","新北市三重區三和路四段390巷52號","121.479973333333","25.078485","6500200","三重區"
"241018","268-UM","2018/08/04 19:59:40","新北市三重區正義北路244巷16號","121.495531666667","25.06805","6500200","三重區"
"241032","269-UM","2018/08/04 19:59:37","新北市三重區捷運路65號","121.48346","25.0556233333333","6500200","三重區"
"241013","270-UM","2018/08/04 19:59:42","新北市三重區三和路三段121號","121.492863333333","25.0732883333333","6500200","三重區"
"241025","271-UM","2018/08/04 19:59:34","新北市三重區頂崁街210巷9號","121.476548333333","25.0677583333333","6500200","三重區"
"241007","398-BY","2018/08/04 19:59:35","新北市三重區溪尾街150號","121.488905","25.0798966666667","6500200","三重區"
"241035","KEA-2210","2018/08/04 19:59:38","新北市三重區大榮街7號","121.498158333333","25.0630716666667","6500200","三重區"
"241001","413-TH","2018/08/04 19:59:30","新北市三重區仁愛街283巷31號","121.494071666667","25.0797333333333","6500200","三重區"
"241031","462-BY","2018/08/04 19:59:41","新北市三重區重新路四段144巷30號","121.487123333333","25.0552183333333","6500200","三重區"
"241004","475-VK","2018/08/04 19:59:26","新北市三重區五華街108-2號","121.492463333333","25.0827916666667","6500200","三重區"
"241020","478-VK","2018/08/04 19:59:32","新北市三重區忠孝路一段101號","121.48955","25.0721233333333","6500200","三重區"
"241030","480-VK","2018/08/04 19:59:36","新北市三重區重新路四段244巷10號","121.486255","25.053525","6500200","三重區"
"241014","543-UM","2018/08/04 19:59:26","新北市三重區三和路二段172號","121.499066666667","25.0687716666667","6500200","三重區"
"241023","545-UM","2018/08/04 19:59:44","新北市三重區頂崁街166號","121.477696666667","25.0658833333333","6500200","三重區"
"241019","KEA-2593","2018/08/04 19:59:39","新北市三重區重陽路四段18號","121.490966666667","25.0691216666667","6500200","三重區"
"241006","AAD-863","2018/08/04 19:59:24","新北市三重區力行路二段91巷21弄1號","121.483365","25.0758933333333","6500200","三重區"
"241012","941-UM","2018/08/04 19:59:30","新北市三重區仁厚街70號","121.500623333333","25.0766966666667","6500200","三重區"
"241029","942-UM","2018/08/04 19:59:36","新北市三重區重安街8號","121.490176666667","25.0582383333333","6500200","三重區"
"235066","003-UY","2018/08/04 19:59:42","新北市中和區中山路二段6號","121.505128333333","25.0056366666667","6500300","中和區"
"235056","096-UM","2018/08/04 19:59:26","新北市中和區中山路三段172號","121.472841666667","25.00634","6500300","中和區"
"235039","097-UM","2018/08/04 19:59:39","新北市中和區景平路278巷14弄4號","121.51429","24.993015","6500300","中和區"
"235065","098-UM","2018/08/04 19:59:25","新北市中和區永和路90巷3號","121.4974","25.00594","6500300","中和區"
"235040","150-BY","2018/08/04 19:59:27","新北市中和區保健路17號","121.508155","24.9982116666667","6500300","中和區"
"235058","151-BY","2018/08/04 19:59:30","新北市中和區員山路148巷7號","121.481693333333","24.99714","6500300","中和區"
"235055","183-VK","2018/08/04 19:59:33","新北市中和區民生街23巷1弄1號","121.470868333333","25.005385","6500300","中和區"
"235067","255-BX","2018/08/04 19:59:29","新北市中和區員山路148巷23弄9號","121.48223","24.9976683333333","6500300","中和區"
"235044","293-VK","2018/08/04 19:59:34","新北市中和區中正路67號","121.501176666667","24.9935033333333","6500300","中和區"
"235043","352-BY","2018/08/04 19:59:29","新北市中和區興南路二段159巷12號","121.505131666667","24.9831633333333","6500300","中和區"
"247010","KEA-2869","2018/08/04 19:59:23","新北市蘆洲區集賢路200號","121.483715","25.08778","6501400","蘆洲區"
"235050","4979-A6","2018/08/04 19:59:41","新北市中和區景平路239巷38號","121.50824","24.992275","6500300","中和區"
"235069","4980-A6","2018/08/04 19:59:25","新北市中和區南山路4巷11號","121.501153333333","24.99864","6500300","中和區"
"235070","558-UM","2018/08/04 19:59:26","新北市中和區圓通路183號","121.497528333333","24.9947833333333","6500300","中和區"
"235047","732-UM","2018/08/04 19:59:36","新北市中和區和平街146號","121.506208333333","24.9918516666667","6500300","中和區"
"235046","733-UM","2018/08/04 19:59:25","新北市中和區興南路一段93巷58弄3號","121.510626666667","24.985865","6500300","中和區"
"235041","802-TS","2018/08/04 19:59:39","新北市中和區安平路30號","121.509558333333","24.9947516666667","6500300","中和區"
"235052","805-TS","2018/08/04 19:59:33","新北市中和區忠孝街79號","121.512145","24.985205","6500300","中和區"
"235048","896-TW","2018/08/04 19:59:31","新北市中和區景新街397號","121.51258","24.9899033333333","6500300","中和區"
"235053","900-TW","2018/08/04 19:59:33","新北市中和區華安街98-1號","121.468256666667","24.996155","6500300","中和區"
"235051","157-BY","2018/08/04 19:59:37","新北市中和區復興路299號","121.501538333333","24.9902433333333","6500300","中和區"
"235037","AAC-213","2018/08/04 19:59:26","新北市中和區自立路18號","121.522128333333","24.993505","6500300","中和區"
"220106","013-TV","2018/08/04 19:59:36","新北市板橋區仁化街150巷5-1號","121.478068333333","25.0330166666667","6500100","板橋區"
"220055","015-TV","2018/08/04 19:59:34","新北市板橋區仁愛路62巷2號","121.45985","24.999235","6500100","板橋區"
"220065","072-UY","2018/08/04 19:59:38","新北市板橋區民族路69巷2弄1號","121.465553333333","25.0091316666667","6500100","板橋區"
"220086","073-UY","2018/08/04 19:59:25","新北市五股區新五路三段30號","121.44418","25.0874683333333","6500100","板橋區"
"220069","AAD-861","2018/08/04 19:59:31","新北市板橋區貴興路67號","121.457101666667","25.0030183333333","6500100","板橋區"
"247024","893-R6","2018/08/04 19:59:31","新北市蘆洲區光榮路120巷8弄21號","121.465085","25.0882583333333","6501400","蘆洲區"
"247014","546-UM","2018/08/04 19:59:27","新北市蘆洲區成功路129號","121.472348333333","25.0822","6501400","蘆洲區"
"247012","339-TH","2018/08/04 19:59:25","新北市蘆洲區民族路151號","121.479568333333","25.0879066666667","6501400","蘆洲區"
"247004","337-TH","2018/08/04 19:59:27","新北市蘆洲區永安南路二段350號","121.456315","25.08288","6501400","蘆洲區"
"247006","336-TH","2018/08/04 19:59:39","新北市蘆洲區九芎街111號","121.465598333333","25.0796466666667","6501400","蘆洲區"
"247018","057-VK","2018/08/04 19:59:35","新北市蘆洲區民族路290巷3號","121.478118333333","25.0897733333333","6501400","蘆洲區"
"247008","056-VK","2018/08/04 19:59:31","新北市蘆洲區中山一路95巷20弄1號","121.477356666667","25.0806816666667","6501400","蘆洲區"
"247016","053-VK","2018/08/04 19:59:28","新北市蘆洲區光華路13號","121.469755","25.0833866666667","6501400","蘆洲區"
"247002","002-UY","2018/08/04 19:59:36","新北市蘆洲區長安街274巷11號","121.457941666667","25.0871433333333","6501400","蘆洲區"
"247020","001-UY","2018/08/04 19:59:27","新北市蘆洲區民義街67號","121.473036666667","25.089995","6501400","蘆洲區"
"235059","251-BX","2018/08/04 19:59:39","新北市中和區圓通路367巷13弄2號","121.492765","24.988225","6500300","中和區"
"228003","097-TW","2018/08/04 19:59:31","新北市貢寮區仁理村仁和路194號","121.92351","25.0527133333333","6502600","貢寮區"
"224010","AGQ-8101","2018/08/04 19:56:30","新北市瑞芳區金光路334號","121.848483333333","25.1100083333333","6501200","瑞芳區"
"224002","639-TC","2018/08/04 19:59:28","新北市瑞芳區員山子路員山巷21-1號","121.817076666667","25.10453","6501200","瑞芳區"
"227002","642-TC","2018/08/04 19:59:35","新北市雙溪區雙溪里長安街16號","121.865038333333","25.0347183333333","6502500","雙溪區"
"227010","400-TW","2018/08/04 19:59:34","新北市雙溪區新基里新基南街25號","121.866248333333","25.0381516666667","6502500","雙溪區"
"222001","KEA-2212","2018/08/04 19:59:39","新北市深坑區北深路三段143號","121.603616666667","25.0028","6501800","深坑區"
"208002","KEA-2872","2018/08/04 19:59:36","新北市金山區中正路110號","121.632905","25.2216783333333","6502700","金山區"
"208003","665-BX","2018/08/04 19:59:44","新北市金山區永興里濆水路8號","121.62372","25.27145","6502700","金山區"
"208001","761-BX","2018/08/04 19:59:35","新北市金山區重和里林口24號","121.59692","25.2102633333333","6502700","金山區"
"251009","008-UM","2018/08/04 19:59:22","新北市淡水區英專路28巷18號","121.445911666667","25.16987","6501000","淡水區"
"251004","009-UM","2018/08/04 19:59:26","新北市淡水區民族路110巷38弄11號","121.461208333333","25.1357483333333","6501000","淡水區"
"251015","010-UM","2018/08/04 19:59:41","新北市淡水區泉洲厝25-8號","121.484001666667","25.189925","6501000","淡水區"
"251001","011-UM","2018/08/04 19:59:34","新北市淡水區淡金路二段599號","121.445975","25.1924983333333","6501000","淡水區"
"251013","KEA-2871","2018/08/04 19:59:39","新北市淡水區頂田寮路27號","121.455076666667","25.2164733333333","6501000","淡水區"
"251016","179-VK","2018/08/04 19:59:40","新北市淡水區淡金路四段81號","121.450065","25.21827","6501000","淡水區"
"251014","180-VK","2018/08/04 19:59:37","新北市淡水區石頭厝3號","121.458606666667","25.2356116666667","6501000","淡水區"
"251008","181-VK","2018/08/04 19:59:32","新北市淡水區淡海路67號","121.423005","25.1810366666667","6501000","淡水區"
"251015","182-VK","2018/08/04 19:32:03","新北市淡水區興福寮31-1號","121.489875","25.1624566666667","6501000","淡水區"
"251010","413-VK","2018/08/04 19:59:29","新北市淡水區崁頂76-1號","121.430925","25.2035616666667","6501000","淡水區"
"251012","441-VK","2018/08/04 19:59:37","新北市淡水區下圭柔山93號","121.435975","25.2090716666667","6501000","淡水區"
"251007","442-VK","2018/08/04 19:59:26","新北市淡水區中正東路一段57號","121.45264","25.16252","6501000","淡水區"
"251005","443-VK","2018/08/04 19:59:40","新北市淡水區學府路136巷29號","121.451535","25.17278","6501000","淡水區"
"251006","561-UM","2018/08/04 19:59:34","新北市淡水區水碓街46巷2號","121.444758333333","25.1773666666667","6501000","淡水區"
"251011","650-BX","2018/08/04 19:59:38","新北市淡水區崁頂55-3號","121.442343333333","25.1966283333333","6501000","淡水區"
"251003","673-BX","2018/08/04 19:59:39","新北市淡水區中山北路二段189巷15弄29號","121.443293333333","25.1841216666667","6501000","淡水區"
"207003","550-UM","2018/08/04 19:59:28","新北市萬里區磺潭里公館崙8-1號","121.64173","25.21411","6502800","萬里區"
"207004","225-TW","2018/08/04 19:59:30","新北市萬里區北基里忠二街31號","121.685551666667","25.1757016666667","6502800","萬里區"
"252002","178-VK","2018/08/04 19:59:33","新北市三芝區三民街39巷36號","121.505428333333","25.2575866666667","6502100","三芝區"
"252001","292-VK","2018/08/04 19:59:38","新北市三芝區公正街9號","121.499735","25.2575383333333","6502100","三芝區"
"237004","KEA-2597","2018/08/04 19:59:34","新北市三峽區添福15-32號","121.372548333333","24.904785","6500900","三峽區"
"237007","153-BY","2018/08/04 19:59:42","新北市三峽區麻園40號","121.363806666667","24.9208266666667","6500900","三峽區"
"237011","572-TV","2018/08/04 19:59:38","新北市樹林區中山路三段214號","121.380041666667","24.967895","6500900","三峽區"
"237009","210-TH","2018/08/04 19:59:39","新北市三峽區民權街147號","121.368863333333","24.9316433333333","6500900","三峽區"
"237012","275-BY","2018/08/04 19:59:30","新北市三峽區安溪路320號","121.370938333333","24.9285416666667","6500900","三峽區"
"237008","302-VK","2018/08/04 19:59:40","新北市三峽區中華路59號","121.37238","24.930535","6500900","三峽區"
"237014","433-BY","2018/08/04 19:59:28","新北市三峽區添福3-1號","121.370868333333","24.90855","6500900","三峽區"
"237006","5529-G3","2018/08/04 19:59:26","新北市三峽區中正路一段71號","121.3751","24.9302333333333","6500900","三峽區"
"237016","649-BX","2018/08/04 19:59:34","新北市三峽區介壽路二段138巷16號","121.395733333333","24.9348716666667","6500900","三峽區"
"237005","AKY-6261","2018/08/04 19:59:42","新北市三峽區民生街1巷7號","121.379723333333","24.935915","6500900","三峽區"
"236070","105-UM","2018/08/04 19:59:35","新北市土城區承天路23號","121.436546666667","24.9655716666667","6501300","土城區"
"236042","107-UM","2018/08/04 19:59:35","新北市土城區學府路一段112號","121.455746666667","24.9876766666667","6501300","土城區"
"236079","166-UM","2018/08/04 19:59:30","新北市土城區福安街53號","121.418561666667","24.9644016666667","6501300","土城區"
"236030","253-BX","2018/08/04 19:59:34","新北市土城區中央路一段250巷1-1號","121.444101666667","24.9847333333333","6501300","土城區"
"236026","269-VK","2018/08/04 19:59:29","新北市土城區員林街5號","121.44255","24.9781466666667","6501300","土城區"
"236014","270-VK","2018/08/04 19:59:36","新北市土城區廣福街123號","121.456273333333","24.9928433333333","6501300","土城區"
"236038","271-VK","2018/08/04 19:59:42","新北市土城區國際路52號","121.466525","24.97837","6501300","土城區"
"236021","401-BY","2018/08/04 19:59:22","新北市土城區延吉街111巷12弄15-3號","121.471538333333","24.9849516666667","6501300","土城區"
"236059","912-UM","2018/08/04 19:59:28","新北市土城區中央路一段269-3號","121.44487","24.9851183333333","6501300","土城區"
"236049","913-UM","2018/08/04 19:59:33","新北市土城區金城路三段4號","121.46444","24.98604","6501300","土城區"
"236063","915-UM","2018/08/04 19:59:22","新北市土城區金城路三段73巷4弄32號","121.466251666667","24.9883583333333","6501300","土城區"
"236055","AAC-216","2018/08/04 19:59:42","新北市土城區學府路一段65號","121.457151666667","24.988325","6501300","土城區"
"242034","AAC-296","2018/08/04 19:59:39","新北市新莊區建中街94號","121.446731666667","25.03662","6500500","新莊區"
"242058","986-R7","2018/08/04 19:59:24","新北市新莊區八德街60號","121.424851666667","25.02244","6500500","新莊區"
"242025","705-TV","2018/08/04 19:59:42","新北市新莊區五工一路91號","121.46098","25.0678116666667","6500500","新莊區"
"242042","566-BX","2018/08/04 19:59:39","新北市新莊區青山路一段20號","121.41114","25.0276333333333","6500500","新莊區"
"242046","497-BY","2018/08/04 19:59:31","新北市新莊區裕民街19巷4號","121.419696666667","25.0252316666667","6500500","新莊區"
"242007","442-UM","2018/08/04 19:59:38","新北市新莊區中原路2號","121.458463333333","25.0562983333333","6500500","新莊區"
"242056","440-UM","2018/08/04 19:59:39","新北市新莊區新豐街20巷28號","121.44756","25.0344366666667","6500500","新莊區"
"242036","415-TV","2018/08/04 19:59:35","新北市新莊區建安街41巷2號","121.428908333333","25.025445","6500500","新莊區"
"242023","362-BY","2018/08/04 19:59:30","新北市新莊區化成路428號","121.466036666667","25.0511283333333","6500500","新莊區"
"242061","353-BY","2018/08/04 19:59:31","新北市新莊區瓊泰路9號","121.444576666667","25.0286233333333","6500500","新莊區"
"242039","133-UY","2018/08/04 19:59:35","新北市新莊區民安路289-1號","121.429145","25.0223866666667","6500500","新莊區"
"242031","135-UY","2018/08/04 19:59:41","新北市新莊區公園一路86號","121.44326","25.0370133333333","6500500","新莊區"
"242048","172-VK","2018/08/04 19:59:30","新北市新莊區富國路109巷2號","121.42375","25.025105","6500500","新莊區"
"242011","173-VK","2018/08/04 19:59:44","新北市新莊區中港路531巷33號","121.45005","25.0513583333333","6500500","新莊區"
"242017","175-VK","2018/08/04 19:59:36","新北市新莊區中安街17號","121.452855","25.046025","6500500","新莊區"
"242004","176-VK","2018/08/04 19:59:40","新北市新莊區化成路354號","121.465801666667","25.04922","6500500","新莊區"
"242015","347-TH","2018/08/04 19:59:34","新北市新莊區復興路一段49號","121.447058333333","25.0421933333333","6500500","新莊區"
"242021","348-TH","2018/08/04 19:59:35","新北市新莊區建中街32巷14號","121.448818333333","25.0381033333333","6500500","新莊區"
"242002","349-TH","2018/08/04 19:59:23","新北市新莊區中正路170號","121.45105","25.035875","6500500","新莊區"
"238015","755-BX","2018/08/04 19:59:24","新北市樹林區中山路三段210-2號","121.381495","24.9655616666667","6500700","樹林區"
"238021","KEA-2539","2018/08/04 19:59:42","新北市樹林區佳園路三段113巷17號","121.387476666667","24.9502316666667","6500700","樹林區"
"239006","891-R6","2018/08/04 19:59:27","新北市鶯歌區中正一路113-1號","121.370306666667","24.958255","6500800","鶯歌區"
"239002","359-BY","2018/08/04 19:59:26","新北市鶯歌區文化路393巷2弄7號","121.354261666667","24.95108","6500800","鶯歌區"
"221008","489-VK","2018/08/04 19:59:25","台北市內湖區康樂街130號","121.61924","25.071585","6501100","汐止區"
"221036","130-UY","2018/08/04 19:59:38","新北市汐止區新台五路二段85巷5號","121.664415","25.06717","6501100","汐止區"
"221015","131-UY","2018/08/04 19:59:36","新北市汐止區建成路30號","121.6643","25.0727033333333","6501100","汐止區"
"221010","269-BY","2018/08/04 19:59:25","新北市汐止區連峰街234號","121.645456666667","25.0807833333333","6501100","汐止區"
"221012","278-VK","2018/08/04 19:59:24","新北市汐止區大同路三段334號","121.679603333333","25.0711366666667","6501100","汐止區"
"221023","279-VK","2018/08/04 19:59:42","新北市汐止區明峰街297巷1號","121.625578333333","25.0679383333333","6501100","汐止區"
"221032","280-BY","2018/08/04 19:59:29","新北市汐止區橫科路18巷31號","121.617721666667","25.04989","6501100","汐止區"
"221027","281-BY","2018/08/04 19:59:32","新北市汐止區中正路90號","121.661383333333","25.0695","6501100","汐止區"
"221029","298-VK","2018/08/04 19:59:40","新北市汐止區樟樹一路137巷26號","121.640986666667","25.0659933333333","6501100","汐止區"
"221021","299-VK","2018/08/04 19:59:26","新北市汐止區水源路一段138號","121.656018333333","25.0624016666667","6501100","汐止區"
"221031","353-TW","2018/08/04 19:59:34","新北市汐止區福德一路260號","121.633053333333","25.0644316666667","6501100","汐止區"
"221035","622-UM","2018/08/04 19:59:26","新北市汐止區長江街47號","121.655966666667","25.07134","6501100","汐止區"
"221025","623-UM","2018/08/04 19:59:38","新北市汐止區秀峰路107號","121.66012","25.063375","6501100","汐止區"
"221038","646-BX","2018/08/04 19:59:23","新北市汐止區橋東街5巷2號","121.667058333333","25.0757866666667","6501100","汐止區"
"221033","647-BX","2018/08/04 19:59:33","新北市汐止區東勢街201巷23號","121.634435","25.0434433333333","6501100","汐止區"
"221018","753-BX","2018/08/04 19:59:28","新北市汐止區茄苳路33號","121.665458333333","25.0708916666667","6501100","汐止區"
"220079","145-BY","2018/08/04 19:59:25","新北市板橋區南雅西路二段213號","121.451213333333","25.0136283333333","6500100","板橋區"
"220080","200-UY","2018/08/04 19:59:36","新北市板橋區大觀路二段163巷15號","121.44632","25.0003016666667","6500100","板橋區"
"220082","610-BX","2018/08/04 19:59:25","新北市板橋區大觀路三段100號","121.432668333333","24.9945516666667","6500100","板橋區"
"220101","245-BX","2018/08/04 19:59:39","新北市板橋區莒光路167-4號","121.47433","25.0234416666667","6500100","板橋區"
"220103","257-TC","2018/08/04 19:59:23","新北市板橋區自由路13號","121.46549","25.02261","6500100","板橋區"
"220072","277-BY","2018/08/04 19:59:35","新北市板橋區金門街109巷24號","121.434125","24.9915683333333","6500100","板橋區"
"220071","283-VK","2018/08/04 19:59:31","新北市板橋區和平路174巷25號","121.464658333333","24.9944966666667","6500100","板橋區"
"220094","285-UM","2018/08/04 19:59:35","新北市板橋區陽明街239號","121.4632","25.0244816666667","6500100","板橋區"
"220053","285-VK","2018/08/04 19:59:22","新北市板橋區中山路二段100號","121.475698333333","25.016405","6500100","板橋區"
"220083","286-VK","2018/08/04 19:59:25","新北市板橋區僑中二街26號","121.445915","25.0107683333333","6500100","板橋區"
"220081","287-VK","2018/08/04 19:59:35","新北市板橋區僑中一街80巷12弄1號","121.44811","25.013205","6500100","板橋區"
"220090","288-VK","2018/08/04 19:59:27","新北市板橋區幸福路32巷2弄31號","121.460926666667","25.0218883333333","6500100","板橋區"
"220061","293-UM","2018/08/04 19:59:28","新北市板橋區觀光街4巷2弄1號","121.472316666667","25.0158316666667","6500100","板橋區"
"220062","295-UM","2018/08/04 19:59:32","新北市板橋區中山路二段613號","121.485498333333","25.022535","6500100","板橋區"
"242013","281-VK","2018/08/04 19:59:40","新北市新莊區幸福路670巷2弄1號","121.45105","25.0496233333333","6500500","新莊區"
"220092","307-R5","2018/08/04 19:59:39","新北市板橋區互助街93號","121.459586666667","25.0258316666667","6500100","板橋區"
"220098","317-R6","2018/08/04 19:59:37","新北市板橋區新海路72巷52號","121.461953333333","25.0231816666667","6500100","板橋區"
"220064","486-VK","2018/08/04 19:59:38","新北市板橋區館前東路112號","121.463495","25.0076616666667","6500100","板橋區"
"242053","280-VK","2018/08/04 19:59:37","新北市新莊區西盛街418號","121.42724","25.0122016666667","6500500","新莊區"
"220088","491-VK","2018/08/04 19:59:30","新北市板橋區仁化街124號","121.477188333333","25.0326016666667","6500100","板橋區"
"220035","560-BX","2018/08/04 19:59:37","新北市板橋區新生街87巷20號","121.45717","25.0220833333333","6500100","板橋區"
"220091","637-BX","2018/08/04 19:59:29","新北市板橋區文聖街89巷27號","121.478438333333","25.0307133333333","6500100","板橋區"
"220057","686-BX","2018/08/04 19:59:20","新北市板橋區四川路二段130巷22號","121.44957","24.9941666666667","6500100","板橋區"
"220077","687-BX","2018/08/04 19:59:43","新北市板橋區僑中一街124巷58-4號","121.446718333333","25.0163183333333","6500100","板橋區"
"220093","689-BX","2018/08/04 19:59:38","新北市板橋區長江路三段68號","121.473813333333","25.0340483333333","6500100","板橋區"
"220054","741-BX","2018/08/04 19:59:36","新北市板橋區實踐路93巷9-2號","121.464538333333","25.005495","6500100","板橋區"
"220102","KEA-2699","2018/08/04 19:59:25","新北市板橋區仁化街56號","121.475658333333","25.0315583333333","6500100","板橋區"
"220067","829-TW","2018/08/04 19:59:39","新北市板橋區長安街331巷93弄9號","121.472116666667","25.0123683333333","6500100","板橋區"
"220068","830-TW","2018/08/04 19:59:32","新北市板橋區光復街170號","121.485145","25.0197016666667","6500100","板橋區"
"220096","831-TW","2018/08/04 19:59:33","新北市板橋區莒光路81-1號","121.471791666667","25.0241233333333","6500100","板橋區"
"220089","833-TW","2018/08/04 19:59:31","新北市板橋區新海路385巷16弄12號","121.45801","25.0264466666667","6500100","板橋區"
"220074","895-R6","2018/08/04 19:59:34","新北市板橋區文化路一段32巷15號","121.459888333333","25.0111816666667","6500100","板橋區"
"220073","985-R7","2018/08/04 19:59:39","新北市板橋區南雅西路二段142號","121.451903333333","25.0130233333333","6500100","板橋區"
"220097","AAC-210","2018/08/04 19:59:24","新北市板橋區光正街45巷22號","121.461678333333","25.0165583333333","6500100","板橋區"
"220070","AAC-253","2018/08/04 19:59:27","新北市板橋區成都街23號","121.460806666667","25.00484","6500100","板橋區"
"235068","KEA-2873","2018/08/04 19:59:13","新北市中和區景平路736巷5弄11號","121.497726666667","25.0035516666667","6500300","中和區"
