"lineid","car","time","location","longitude","latitude","cityid","cityname"
"234077","969-R7","2018/08/04 21:29:40","新北市五股區凌雲路二段66號","121.43951","25.1061683333333","6500400","永和區"
"243001","297-R6","2018/08/04 21:21:05","新北市泰山區黎明路31號","121.421538333333","25.06061","6501600","泰山區"
"231048","187-VK","2018/08/04 21:29:29","新北市新店區薏仁坑路8-2號","121.499365","24.9589483333333","6500600","新店區"
"231063","616-UM","2018/08/04 21:29:27","新北市新店區如意街58號","121.493926666667","24.9471083333333","6500600","新店區"
"241011","013-R5","2018/08/04 21:29:42","新北市三重區龍濱路172號","121.501398333333","25.07278","6500200","三重區"
"241017","063-VK","2018/08/04 21:29:45","新北市三重區中正北路25巷2號","121.49318","25.06272","6500200","三重區"
"241024","065-VK","2018/08/04 21:29:37","新北市三重區中正北路145巷14號","121.484081666667","25.0679383333333","6500200","三重區"
"241026","066-VK","2018/08/04 21:29:26","新北市三重區中正南路186號","121.494068333333","25.0562566666667","6500200","三重區"
"241003","091-VK","2018/08/04 21:29:24","新北市三重區進安街196號","121.493705","25.0862216666667","6500200","三重區"
"241005","262-UM","2018/08/04 21:29:31","新北市三重區仁華街85號","121.48573","25.0828833333333","6500200","三重區"
"241016","266-UM","2018/08/04 21:29:27","新北市三重區正義北路117號","121.49683","25.065945","6500200","三重區"
"241007","398-BY","2018/08/04 21:29:34","新北市三重區正義北路124號","121.496846666667","25.0655","6500200","三重區"
"241006","AAD-863","2018/08/04 21:29:24","新北市五股區成泰路四段18-9號","121.453838333333","25.10543","6500200","三重區"
"247010","KEA-2869","2018/08/04 21:29:23","新北市五股區中興路二段182巷15弄13號","121.45682","25.08183","6501400","蘆洲區"
"247012","339-TH","2018/08/04 21:29:45","新北市蘆洲區環堤大道182號","121.453745","25.0917183333333","6501400","蘆洲區"
"247006","336-TH","2018/08/04 21:29:39","新北市蘆洲區中原路87號","121.457883333333","25.081615","6501400","蘆洲區"
"251009","008-UM","2018/08/04 21:29:39","新北市淡水區民族路65巷62號","121.463585","25.1361016666667","6501000","淡水區"
"251004","009-UM","2018/08/04 21:29:36","新北市淡水區民族路15號","121.460513333333","25.1369783333333","6501000","淡水區"
"251001","011-UM","2018/08/04 21:29:34","新北市淡水區新市二路三段152號","121.435218333333","25.193815","6501000","淡水區"
"251013","KEA-2871","2018/08/04 21:29:39","新北市淡水區埤島50-2號","121.461211666667","25.1979583333333","6501000","淡水區"
"251016","179-VK","2018/08/04 21:29:40","新北市淡水區前洲子11號","121.441096666667","25.21938","6501000","淡水區"
"251014","180-VK","2018/08/04 21:29:37","新北市淡水區六塊厝2-1號","121.450056666667","25.2402566666667","6501000","淡水區"
"251008","181-VK","2018/08/04 21:29:24","新北市淡水區水源街二段150號","121.454338333333","25.1750366666667","6501000","淡水區"
"251010","413-VK","2018/08/04 21:29:29","新北市淡水區沙崙路25巷21號","121.420608333333","25.1824983333333","6501000","淡水區"
"249004","440-VK","2018/08/04 21:29:42","新北市八里區博物館路10-1號","121.415258333333","25.1642033333333","6502300","八里區"
"251012","441-VK","2018/08/04 21:29:36","新北市淡水區石頭埔2號","121.452828333333","25.2343466666667","6501000","淡水區"
"251007","442-VK","2018/08/04 21:29:26","新北市淡水區水源街二段194號","121.456896666667","25.1761266666667","6501000","淡水區"
"251005","443-VK","2018/08/04 21:29:40","新北市淡水區長興街43巷9號","121.443665","25.1717633333333","6501000","淡水區"
"251006","561-UM","2018/08/04 21:29:34","新北市淡水區公明街55號","121.443506666667","25.1687216666667","6501000","淡水區"
"251011","650-BX","2018/08/04 21:29:37","新北市淡水區新民街180-6號","121.436648333333","25.1788916666667","6501000","淡水區"
"251003","673-BX","2018/08/04 21:29:39","新北市淡水區崁頂15-5號","121.439003333333","25.18588","6501000","淡水區"
"242051","441-UM","2018/08/04 21:29:32","新北市樹林區八德街226-5號","121.415201666667","24.9713916666667","6500500","新莊區"
"220070","AAC-253","2018/08/04 21:29:27","新北市五股區新五路二段279號","121.442796666667","25.0862266666667","6500100","板橋區"
