"lineid","car","time","location","longitude","latitude","cityid","cityname"
"248005","653-BX","2018/06/15 09:09:47","新北市五股區水碓路10號","121.433868333333","25.0722533333333","6501500","五股區"
"244004","248-BX","2018/06/15 09:09:31","新北市林口區粉寮路37-7號","121.399568333333","25.08612","6501700","林口區"
"222005","289-BY","2018/06/15 08:47:58","新北市深坑區土庫尖路75-1號","121.631183333333","25.018225","6501800","深坑區"
"231007","189-VK","2018/06/15 09:09:40","新北市新店區新潭路三段236號","121.501071666667","24.904045","6500600","新店區"
"231009","192-VK","2018/06/15 09:08:11","新北市新店區廣興路130號","121.535383333333","24.9112333333333","6500600","新店區"
"226001","7418-A5","2018/06/15 09:06:38","新北市平溪區東勢里番仔坑34-3號","121.749538333333","24.98317","6502400","平溪區"
"226006","AGD-0702","2018/06/15 09:09:43","新北市平溪區石底里石底街95號","121.733015","25.0236866666667","6502400","平溪區"
"223003","205-TH","2018/06/15 09:09:53","新北市石碇區北宜路五段1號","121.62569","24.9544416666667","6501900","石碇區"
"223008","406-TH","2018/06/15 09:09:41","新北市石碇區大湖格1-1號","121.703663333333","25.0130216666667","6501900","石碇區"
"223001","592-UM","2018/06/15 09:09:53","新北市石碇區北宜路五段火燒樟巷11號","121.62551","24.954395","6501900","石碇區"
"223004","660-BX","2018/06/15 09:09:48","新北市石碇區磨石坑14-2號","121.687431666667","24.9724066666667","6501900","石碇區"
"223005","677-TV","2018/06/15 09:09:46","新北市石碇區大崙8號","121.683246666667","24.9794883333333","6501900","石碇區"
"224007","275-VK","2018/06/15 09:09:38","新北市瑞芳區楓子瀨路9-1號","121.768375","25.102565","6501200","瑞芳區"
"227005","282-VK","2018/06/15 09:08:17","新北市雙溪區泰平里料角坑19號","121.81205","24.972835","6502500","雙溪區"
"237001","159-UY","2018/06/15 09:09:47","新北市三峽區學勤路150號","121.376531666667","24.946995","6500900","三峽區"
"236010","165-UM","2018/06/15 09:09:44","新北市土城區金城路一段13號","121.439478333333","24.969055","6501300","土城區"
"236004","339-SR","2018/06/15 09:09:48","新北市土城區興城路12-1號","121.442605","24.9733816666667","6501300","土城區"
"236006","498-BY","2018/06/15 09:09:57","新北市土城區中央路三段76巷34號","121.435768333333","24.96856","6501300","土城區"
"220002","741-BX","2018/06/15 09:08:53","新北市板橋區溪城路90-2號","121.42921","24.979965","6500100","板橋區"
