"lineid","car","time","location","longitude","latitude","cityid","cityname"
"248005","653-BX","2018/06/15 09:47:14","新北市五股區成泰路一段7巷38號","121.432611666667","25.0670133333333","6501500","五股區"
"222005","289-BY","2018/06/15 09:49:08","新北市深坑區昇高坑路34號","121.627918333333","24.999445","6501800","深坑區"
"231007","189-VK","2018/06/15 09:49:00","新北市新店區新潭路三段256號","121.50816","24.90397","6500600","新店區"
"231009","192-VK","2018/06/15 09:49:11","新北市新店區小坑一路21-1號","121.532648333333","24.9125883333333","6500600","新店區"
"224007","275-VK","2018/06/15 09:49:18","新北市平溪區新寮里五分寮10-2號","121.800005","25.0740983333333","6501200","瑞芳區"
"227005","282-VK","2018/06/15 09:49:17","新北市雙溪區泰平里灣潭路36號","121.811456666667","24.9287983333333","6502500","雙溪區"
"236006","498-BY","2018/06/15 09:49:17","新北市土城區慶祥街16號","121.437735","24.9754733333333","6501300","土城區"
"220002","741-BX","2018/06/15 09:49:25","新北市板橋區大觀路三段50巷49號","121.432093333333","24.995855","6500100","板橋區"
