"lineid","car","time","location","longitude","latitude","cityid","cityname"
"234044","148-BY","2018/06/15 13:39:28","新北市永和區永亨路148號","121.525288333333","25.00388","6500400","永和區"
"234005","207-UY","2018/06/15 13:39:10","新北市永和區永和路一段136號","121.514001666667","25.0079816666667","6500400","永和區"
"234078","298-R6","2018/06/15 13:39:30","新北市永和區林森路20巷7號","121.525935","25.0056533333333","6500400","永和區"
"234036","336-UY","2018/06/15 13:39:14","新北市永和區民樂街29號","121.52775","25.00152","6500400","永和區"
"234062","337-UY","2018/06/15 13:39:29","新北市永和區秀朗路一段192巷6弄12號","121.519055","25.0023266666667","6500400","永和區"
"234084","338-UY","2018/06/15 13:39:32","新北市永和區永亨路155號","121.525785","25.0038033333333","6500400","永和區"
"234068","552-UM","2018/06/15 13:39:31","新北市永和區永和路二段216號","121.515731666667","25.014145","6500400","永和區"
"234015","745-BX","2018/06/15 13:39:27","新北市永和區永和路二段393-1號","121.51557","25.01662","6500400","永和區"
"234028","746-BX","2018/06/15 13:39:21","新北市永和區民權路29巷5號","121.520508333333","24.997855","6500400","永和區"
"234052","KEA-2590","2018/06/15 13:39:17","新北市永和區竹林路39巷26號","121.519033333333","25.0147266666667","6500400","永和區"
"234012","KEA-2591","2018/06/15 13:39:16","新北市永和區永平路258號","121.508258333333","25.0113316666667","6500400","永和區"
"234060","AAD-866","2018/06/15 13:39:21","新北市永和區中正路416號","121.51751","25.002165","6500400","永和區"
"234040","862-TW","2018/06/15 13:39:19","新北市永和區中和路373號","121.508276666667","24.999715","6500400","永和區"
"234048","863-TW","2018/06/15 13:39:22","新北市永和區保安路86號","121.509741666667","25.0161783333333","6500400","永和區"
"234025","9371-KE","2018/06/15 13:39:17","新北市永和區和平街98號","121.510928333333","25.00992","6500400","永和區"
"234010","9373-KE","2018/06/15 13:39:30","新北市永和區保福路二段15巷11號","121.510521666667","25.0109383333333","6500400","永和區"
"248019","225-UY","2018/06/15 13:36:51","新北市五股區孝義路98號","121.445953333333","25.1194533333333","6501500","五股區"
"234022","9380-KE","2018/06/15 13:39:26","新北市永和區豫溪街57巷8弄6號","121.517606666667","25.0103966666667","6500400","永和區"
"234076","969-R7","2018/06/15 13:39:29","新北市永和區民權路34號","121.520188333333","24.9989316666667","6500400","永和區"
"234072","AAC-211","2018/06/15 13:39:22","新北市永和區竹林路213巷33號","121.522866666667","25.00909","6500400","永和區"
"234066","AAC-212","2018/06/15 13:39:21","新北市永和區中山路一段195號","121.509108333333","25.0088383333333","6500400","永和區"
"234001","AAC-295","2018/06/15 13:39:10","新北市永和區秀朗路一段6號","121.513755","25.0071416666667","6500400","永和區"
"244004","248-BX","2018/06/15 13:39:24","新北市林口區頂福里71-45號","121.354186666667","25.0806316666667","6501700","林口區"
"231002","002-UM","2018/06/15 13:39:31","新北市新店區溪園路403號","121.523978333333","24.9780583333333","6500600","新店區"
"231038","0291-UT","2018/06/15 13:39:12","新北市新店區安華路30巷3號","121.519545","24.959225","6500600","新店區"
"231027","0293-UT","2018/06/15 13:39:29","新北市新店區北宜路一段105巷44號","121.540596666667","24.9558983333333","6500600","新店區"
"231028","046-UY","2018/06/15 13:39:24","新北市新店區安和路一段39號","121.517085","24.965285","6500600","新店區"
"231001","047-UY","2018/06/15 13:39:27","新北市新店區中正路397號","121.534516666667","24.9772733333333","6500600","新店區"
"231005","106-UY","2018/06/15 13:39:13","新北市新店區中興路二段192號","121.548423333333","24.9735016666667","6500600","新店區"
"231022","108-UY","2018/06/15 13:39:14","新北市新店區永興路95-3號","121.544468333333","24.93255","6500600","新店區"
"231012","187-VK","2018/06/15 13:39:31","新北市新店區德正街29號","121.544631666667","24.9714216666667","6500600","新店區"
"231010","188-VK","2018/06/15 13:39:30","新北市新店區中正路307巷11號","121.53604","24.973905","6500600","新店區"
"231023","KEA-2219","2018/06/15 13:39:28","新北市新店區新店路190號","121.537163333333","24.9561433333333","6500600","新店區"
"231026","256-BX","2018/06/15 13:39:21","新北市新店區北新路二段2號","121.542605","24.9707466666667","6500600","新店區"
"231003","268-BY","2018/06/15 13:39:26","新北市新店區中興路一段282號","121.545805","24.9684966666667","6500600","新店區"
"231018","278-BY","2018/06/15 13:39:28","新北市新店區百忍街33號","121.533656666667","24.9758183333333","6500600","新店區"
"231016","AAD-862","2018/06/15 13:39:22","新北市新店區竹林路30巷1號","121.552281666667","24.9513083333333","6500600","新店區"
"231037","4716-K9","2018/06/15 13:39:25","新北市新店區薏仁坑路6-3號","121.499636666667","24.9586983333333","6500600","新店區"
"231025","4715-K9","2018/06/15 13:39:13","新北市新店區中央六街56號","121.527871666667","24.9757383333333","6500600","新店區"
"231036","512-UM","2018/06/15 13:39:27","新北市新店區安祥路147巷40號","121.476073333333","24.95686","6500600","新店區"
"231013","513-UM","2018/06/15 13:39:26","新北市新店區中央路137號","121.530313333333","24.9737066666667","6500600","新店區"
"231006","617-UM","2018/06/15 13:39:10","新北市新店區北宜路一段120號","121.539193333333","24.9550583333333","6500600","新店區"
"231030","619-UM","2018/06/15 13:39:31","新北市新店區安康路一段293號","121.522726666667","24.9636866666667","6500600","新店區"
"231034","641-BX","2018/06/15 13:39:25","新北市新店區安忠路205巷8號","121.508581666667","24.9547183333333","6500600","新店區"
"231035","719-UM","2018/06/15 13:39:21","新北市新店區安忠路38號","121.513146666667","24.95959","6500600","新店區"
"231032","720-UM","2018/06/15 13:39:16","新北市新店區安忠路205巷8號","121.50968","24.9548083333333","6500600","新店區"
"231029","897-TW","2018/06/15 13:39:30","新北市新店區安康路二段295號","121.50259","24.9575183333333","6500600","新店區"
"231004","899-TW","2018/06/15 13:39:18","新北市新店區北新路二段18號","121.542846666667","24.9713","6500600","新店區"
"231024","AKT-0513","2018/06/15 13:39:28","新北市新店區中華路47巷3號","121.539931666667","24.9675933333333","6500600","新店區"
"235028","005-UY","2018/06/15 13:39:16","新北市中和區連勝街49號","121.497956666667","24.9973483333333","6500300","中和區"
"235027","006-UY","2018/06/15 13:39:23","新北市中和區連城路317-1號","121.489158333333","24.9962116666667","6500300","中和區"
"235020","096-UM","2018/06/15 13:39:30","新北市中和區員山路466巷21弄1號","121.480611666667","25.0069216666667","6500300","中和區"
"235003","097-UM","2018/06/15 13:39:14","新北市中和區大勇街29巷23弄1號","121.515396666667","24.994675","6500300","中和區"
"235029","098-UM","2018/06/15 13:39:19","新北市中和區中山路二段2巷59號","121.501618333333","25.0074366666667","6500300","中和區"
"235004","150-BY","2018/06/15 13:39:22","新北市中和區保健路50巷68號","121.509128333333","24.9951833333333","6500300","中和區"
"235022","151-BY","2018/06/15 13:39:25","新北市中和區連城路525-8號","121.480863333333","24.9948966666667","6500300","中和區"
"235019","183-VK","2018/06/15 13:39:27","新北市中和區莒光路120巷19弄1-4號","121.471698333333","25.0008566666667","6500300","中和區"
"235002","185-VK","2018/06/15 13:39:27","新北市中和區立人街14巷49號","121.51899","24.99556","6500300","中和區"
"235013","186-VK","2018/06/15 13:39:21","新北市中和區明義街11巷3號","121.503945","24.99482","6500300","中和區"
"235031","255-BX","2018/06/15 13:39:22","新北市中和區新生街186巷1弄28號","121.48333","24.998535","6500300","中和區"
"235008","293-VK","2018/06/15 13:39:19","新北市中和區復興路261號","121.502843333333","24.9903216666667","6500300","中和區"
"235007","352-BY","2018/06/15 13:39:32","新北市中和區景平路161號","121.512426666667","24.9923616666667","6500300","中和區"
"235014","4979-A6","2018/06/15 13:39:19","新北市中和區景新街496巷26號","121.513293333333","24.9858466666667","6500300","中和區"
"235033","4980-A6","2018/06/15 13:39:21","新北市中和區連城路89巷1號","121.496616666667","25.000005","6500300","中和區"
"235006","551-UM","2018/06/15 13:39:28","新北市中和區成功路97巷5弄13號","121.526498333333","24.9921433333333","6500300","中和區"
"235034","558-UM","2018/06/15 13:39:21","新北市中和區景平路566號","121.501981666667","24.9953716666667","6500300","中和區"
"235009","565-BX","2018/06/15 13:39:28","新北市中和區南山路236巷36弄17號","121.503768333333","24.987795","6500300","中和區"
"235018","640-BX","2018/06/15 13:39:28","新北市中和區民享街32巷15號","121.472865","25.0030983333333","6500300","中和區"
"235024","647-TV","2018/06/15 13:39:28","新北市中和區中山路二段584號","121.482511666667","25.0051616666667","6500300","中和區"
"235011","732-UM","2018/06/15 13:39:24","新北市中和區南山路320巷9號","121.507576666667","24.9864333333333","6500300","中和區"
"235035","783-BX","2018/06/15 13:39:33","新北市中和區光環路二段309號","121.487645","25.01393","6500300","中和區"
"235026","800-TS","2018/06/15 13:39:17","新北市中和區中山路二段312巷41號","121.495133333333","25.0040983333333","6500300","中和區"
"235021","801-TS","2018/06/15 13:39:25","新北市中和區民安街42巷36號","121.47893","25.00126","6500300","中和區"
"235005","802-TS","2018/06/15 13:39:28","新北市中和區中和路362號","121.510491666667","25.0018383333333","6500300","中和區"
"235016","805-TS","2018/06/15 13:39:24","新北市中和區興南路三段52巷1-3號","121.494113333333","24.97595","6500300","中和區"
"235012","896-TW","2018/06/15 13:39:25","新北市中和區中正路83號","121.50068","24.993425","6500300","中和區"
"235017","900-TW","2018/06/15 13:39:10","新北市中和區民享街482號","121.46937","24.9924216666667","6500300","中和區"
"235015","157-BY","2018/06/15 13:39:14","新北市中和區興南路二段114巷10弄38號","121.504043333333","24.98512","6500300","中和區"
"235001","AAC-213","2018/06/15 13:39:27","新北市中和區景德街63號","121.517145","24.9914633333333","6500300","中和區"
"235023","AAC-215","2018/06/15 13:39:28","新北市中和區中正路395號","121.489428333333","24.9935283333333","6500300","中和區"
"220017","015-TV","2018/06/15 13:39:12","新北市板橋區華東街1-10號","121.448436666667","24.9951066666667","6500100","板橋區"
"220013","072-UY","2018/06/15 13:39:17","新北市板橋區漢生東路266號","121.468348333333","25.0132816666667","6500100","板橋區"
"220034","073-UY","2018/06/15 13:39:18","新北市板橋區大智街71巷7弄1號","121.453118333333","25.0146533333333","6500100","板橋區"
"247009","341-TH","2018/06/15 13:39:24","新北市五股區中興路三段163號","121.449151666667","25.0807466666667","6501400","蘆洲區"
"247007","056-VK","2018/06/15 13:39:18","新北市蘆洲區國道路二段98號","121.471451666667","25.0747616666667","6501400","蘆洲區"
"247019","001-UY","2018/06/15 13:39:25","新北市五股區凌雲路一段21號","121.452481666667","25.1003666666667","6501400","蘆洲區"
"235030","251-BX","2018/06/15 13:39:36","新北市中和區水源路34巷2號","121.504753333333","25.003545","6500300","中和區"
"207002","749-BX","2018/06/15 13:39:28","新北市萬里區崁腳里崁腳路166號","121.645096666667","25.1558366666667","6502800","萬里區"
"207001","662-BX","2018/06/15 13:39:18","新北市萬里區磺潭里公館崙25號","121.632631666667","25.2127516666667","6502800","萬里區"
"236040","107-UM","2018/06/15 13:39:15","新北市土城區城林路6巷80號","121.438445","24.979755","6501300","土城區"
"236077","166-UM","2018/06/15 13:39:22","新北市土城區中央路二段280號","121.440698333333","24.9740233333333","6501300","土城區"
"236024","269-VK","2018/06/15 13:39:14","新北市土城區城林路6巷80號","121.438576666667","24.97978","6501300","土城區"
"236013","270-VK","2018/06/15 13:39:19","新北市土城區城林路6巷80號","121.438545","24.9797133333333","6501300","土城區"
"236032","271-VK","2018/06/15 13:39:15","新北市土城區城林路6巷80號","121.438488333333","24.979765","6501300","土城區"
"236067","KEA-2877","2018/06/15 13:39:29","新北市土城區中華路二段2號","121.438831666667","24.979675","6501300","土城區"
"236006","498-BY","2018/06/15 13:39:17","新北市土城區慶祥街58號","121.43653","24.9739816666667","6501300","土城區"
"236057","752-BX","2018/06/15 13:39:29","新北市土城區城林路6巷80號","121.438718333333","24.9796383333333","6501300","土城區"
"236060","915-UM","2018/06/15 13:39:24","新北市土城區城林路6巷80號","121.438465","24.97976","6501300","土城區"
"242048","172-VK","2018/06/15 13:39:26","新北市新莊區龍安路438號","121.424256666667","25.01834","6500500","新莊區"
"221032","280-BY","2018/06/15 13:39:16","新北市汐止區新台五路一段207號","121.65679","25.0638016666667","6501100","汐止區"
"221038","297-VK","2018/06/15 13:39:14","新北市汐止區新台五路一段91號","121.650106666667","25.061475","6501100","汐止區"
"220027","145-BY","2018/06/15 13:39:13","新北市板橋區南雅西路二段183號","121.451865","25.01275","6500100","板橋區"
"220028","200-UY","2018/06/15 13:39:17","新北市板橋區大觀路二段265巷76弄37號","121.441038333333","24.9967216666667","6500100","板橋區"
"220030","610-BX","2018/06/15 13:39:11","新北市板橋區篤行路一段18號","121.432066666667","24.994995","6500100","板橋區"
"220003","256-TC","2018/06/15 13:39:28","新北市板橋區板城路407號","121.447446666667","24.9951516666667","6500100","板橋區"
"220016","257-TC","2018/06/15 13:39:17","新北市板橋區民生路二段120號","121.470621666667","25.0194233333333","6500100","板橋區"
"220004","276-BY","2018/06/15 13:39:22","新北市板橋區四川路二段140巷16弄13號","121.44869","24.9935133333333","6500100","板橋區"
"220020","277-BY","2018/06/15 13:39:31","新北市板橋區大觀路三段50巷47號","121.433028333333","24.9955516666667","6500100","板橋區"
"220043","280-UM","2018/06/15 13:39:15","新北市板橋區民生路二段120號","121.47041","25.01967","6500100","板橋區"
"220019","283-VK","2018/06/15 13:39:28","新北市板橋區四川路二段14號","121.456051666667","24.9962116666667","6500100","板橋區"
"220001","285-VK","2018/06/15 13:39:34","新北市板橋區民生路二段161巷1號","121.470191666667","25.0199066666667","6500100","板橋區"
"220031","286-VK","2018/06/15 13:39:17","新北市板橋區大觀路二段153巷44弄9號","121.446758333333","24.9993316666667","6500100","板橋區"
"220029","287-VK","2018/06/15 13:39:17","新北市板橋區大觀路二段55號","121.446663333333","25.002805","6500100","板橋區"
"220009","293-UM","2018/06/15 13:39:24","新北市板橋區民生路二段161巷3號","121.47029","25.01981","6500100","板橋區"
"220010","295-UM","2018/06/15 13:39:26","新北市板橋區民生路二段120號","121.470395","25.0195666666667","6500100","板橋區"
"220032","296-UM","2018/06/15 13:39:20","新北市板橋區大觀路二段148巷1-2號","121.441746666667","24.9992783333333","6500100","板橋區"
"220023","303-R5","2018/06/15 13:39:13","新北市板橋區華東街328號","121.452758333333","25.0033016666667","6500100","板橋區"
"220047","317-R6","2018/06/15 13:39:21","新北市板橋區民生路二段120號","121.470416666667","25.019575","6500100","板橋區"
"220012","486-VK","2018/06/15 13:39:13","新北市板橋區縣民大道一段300號","121.461003333333","25.0100566666667","6500100","板橋區"
"220037","491-VK","2018/06/15 13:39:30","新北市板橋區民生路二段171號","121.469951666667","25.02019","6500100","板橋區"
"220104","560-BX","2018/06/15 13:39:21","新北市板橋區南雅西路二段145巷4號","121.451646666667","25.0117016666667","6500100","板橋區"
"220052","561-BX","2018/06/15 13:39:15","新北市板橋區民生路二段120號","121.470303333333","25.019735","6500100","板橋區"
"220011","609-BX","2018/06/15 13:39:21","新北市板橋區民生路二段175號","121.469846666667","25.0201983333333","6500100","板橋區"
"220005","686-BX","2018/06/15 13:39:28","新北市板橋區華東街1-9號","121.4482","24.9948616666667","6500100","板橋區"
"220025","687-BX","2018/06/15 13:39:25","新北市板橋區沙崙街37號","121.430496666667","24.99449","6500100","板橋區"
"220002","741-BX","2018/06/15 13:39:27","新北市板橋區華東街1-8號","121.447875","24.99476","6500100","板橋區"
"220022","895-R6","2018/06/15 13:39:22","新北市板橋區南雅東路2號","121.455755","25.0059083333333","6500100","板橋區"
"220021","985-R7","2018/06/15 13:39:27","新北市板橋區南雅南路二段4巷6號","121.454011666667","25.0037566666667","6500100","板橋區"
"220018","AAC-253","2018/06/15 13:39:11","新北市板橋區華東街1-8號","121.447593333333","24.9949583333333","6500100","板橋區"
"235032","KEA-2873","2018/06/15 13:39:25","新北市中和區中正路211巷22號","121.496951666667","24.993135","6500300","中和區"
"235025","KEA-2875","2018/06/15 13:39:20","新北市中和區民享街114巷27號","121.473403333333","24.9994783333333","6500300","中和區"
