"lineid","car","time","location","longitude","latitude","cityid","cityname"
"234044","148-BY","2018/06/15 13:49:28","新北市永和區永利路212號","121.523373333333","25.0025383333333","6500400","永和區"
"234005","207-UY","2018/06/15 13:49:30","新北市中和區中和路402號","121.511196666667","25.002625","6500400","永和區"
"234078","298-R6","2018/06/15 13:49:30","新北市永和區國中路2號","121.52415","25.0042183333333","6500400","永和區"
"234036","336-UY","2018/06/15 13:49:31","新北市永和區成功路二段121巷8號","121.52722","24.9983216666667","6500400","永和區"
"234062","337-UY","2018/06/15 13:49:29","新北市永和區中正路368巷29號","121.518596666667","25.0008183333333","6500400","永和區"
"234084","338-UY","2018/06/15 13:49:32","新北市永和區中正路503號","121.516941666667","25.0069183333333","6500400","永和區"
"234068","552-UM","2018/06/15 13:49:31","新北市永和區竹林路88號","121.519461666667","25.012545","6500400","永和區"
"234015","745-BX","2018/06/15 13:49:14","新北市永和區文化路69號","121.513946666667","25.0151266666667","6500400","永和區"
"234028","746-BX","2018/06/15 13:49:24","新北市永和區民生路47巷6號","121.523323333333","24.9977766666667","6500400","永和區"
"234052","KEA-2590","2018/06/15 13:49:17","新北市永和區竹林路75巷17號","121.52002","25.0139566666667","6500400","永和區"
"234012","KEA-2591","2018/06/15 13:49:27","新北市永和區永平路304號","121.507263333333","25.0124366666667","6500400","永和區"
"234060","AAD-866","2018/06/15 13:49:21","新北市永和區中正路179-1號","121.516818333333","24.99884","6500400","永和區"
"234040","862-TW","2018/06/15 13:49:19","新北市永和區中和路389巷11弄1號","121.508081666667","25.0009583333333","6500400","永和區"
"234048","863-TW","2018/06/15 13:49:02","新北市永和區保安路77號","121.508656666667","25.0148366666667","6500400","永和區"
"234025","9371-KE","2018/06/15 13:49:17","新北市永和區中山路一段74號","121.512356666667","25.0108466666667","6500400","永和區"
"234010","9373-KE","2018/06/15 13:49:30","新北市永和區仁愛路278號","121.503868333333","25.008255","6500400","永和區"
"248019","225-UY","2018/06/15 13:49:31","新北市五股區凌雲路三段94號","121.427706666667","25.121325","6501500","五股區"
"234022","9380-KE","2018/06/15 13:49:28","新北市永和區中正路654巷44號","121.518123333333","25.0085083333333","6500400","永和區"
"234076","969-R7","2018/06/15 13:49:25","新北市永和區民權路36巷10號","121.519571666667","24.99893","6500400","永和區"
"234072","AAC-211","2018/06/15 13:49:23","新北市永和區豫溪街213號","121.524085","25.0094116666667","6500400","永和區"
"234066","AAC-212","2018/06/15 13:49:30","新北市永和區中山路一段255巷22號","121.5085","25.0071083333333","6500400","永和區"
"234001","AAC-295","2018/06/15 13:49:30","新北市永和區永和路一段107號","121.513916666667","25.007955","6500400","永和區"
"244004","248-BX","2018/06/15 13:49:24","新北市林口區頂福里5-5號","121.360093333333","25.083","6501700","林口區"
"231002","002-UM","2018/06/15 13:49:31","新北市新店區復興路106-24號","121.532166666667","24.9900416666667","6500600","新店區"
"231038","0291-UT","2018/06/15 13:49:12","新北市新店區安康路一段201-1號","121.52617","24.9629283333333","6500600","新店區"
"231027","0293-UT","2018/06/15 13:49:29","新北市新店區中興路一段24-2號","121.538536666667","24.9583283333333","6500600","新店區"
"231028","046-UY","2018/06/15 13:49:24","新北市新店區安和路二段155號","121.518991666667","24.9742683333333","6500600","新店區"
"231001","047-UY","2018/06/15 13:49:27","新北市新店區三民路83號","121.535833333333","24.9716833333333","6500600","新店區"
"231005","106-UY","2018/06/15 13:49:13","新北市新店區寶中路121-1號","121.549623333333","24.979425","6500600","新店區"
"231022","108-UY","2018/06/15 13:49:34","新北市新店區自強路72號","121.546181666667","24.92491","6500600","新店區"
"231012","187-VK","2018/06/15 13:49:31","新北市新店區德正街35號","121.544763333333","24.971215","6500600","新店區"
"231010","188-VK","2018/06/15 13:49:28","新北市新店區平等街48巷8號","121.535786666667","24.9731233333333","6500600","新店區"
"231023","KEA-2219","2018/06/15 13:49:28","新北市新店區文中路34號","121.53899","24.9569783333333","6500600","新店區"
"231026","256-BX","2018/06/15 13:49:21","新北市新店區三民路96-1號","121.534061666667","24.9730533333333","6500600","新店區"
"231003","268-BY","2018/06/15 13:49:26","新北市新店區中興路一段157號","121.5425","24.9641283333333","6500600","新店區"
"231018","278-BY","2018/06/15 13:49:28","新北市新店區中正路399巷26號","121.533835","24.9765633333333","6500600","新店區"
"231016","AAD-862","2018/06/15 13:49:22","新北市新店區北宜路二段82-40號","121.553568333333","24.9532033333333","6500600","新店區"
"231037","4716-K9","2018/06/15 13:49:25","新北市新店區安康路三段359巷12弄5-1號","121.484068333333","24.949385","6500600","新店區"
"231025","4715-K9","2018/06/15 13:49:32","新北市新店區中央路11號","121.533448333333","24.9784916666667","6500600","新店區"
"231036","512-UM","2018/06/15 13:49:27","新北市新店區安祥路108巷53號","121.474401666667","24.9570666666667","6500600","新店區"
"231013","513-UM","2018/06/15 13:49:30","新北市新店區二十張路35號","121.538216666667","24.9815116666667","6500600","新店區"
"231006","617-UM","2018/06/15 13:49:30","新北市新店區北宜路一段260號","121.545676666667","24.9527616666667","6500600","新店區"
"231030","619-UM","2018/06/15 13:49:24","新北市新店區安康路一段46巷4號","121.530646666667","24.9610583333333","6500600","新店區"
"231034","641-BX","2018/06/15 13:49:25","新北市新店區達觀路12號","121.505553333333","24.9404283333333","6500600","新店區"
"231035","719-UM","2018/06/15 13:49:19","新北市新店區安忠路57巷5-6號","121.51321","24.958655","6500600","新店區"
"231032","720-UM","2018/06/15 13:49:16","新北市新店區莒光路44巷21弄11-3號","121.518533333333","24.95218","6500600","新店區"
"231029","897-TW","2018/06/15 13:49:27","新北市新店區安康路二段115-1號","121.512561666667","24.96162","6500600","新店區"
"231004","899-TW","2018/06/15 13:49:18","新北市新店區寶橋路69-1號","121.545496666667","24.97502","6500600","新店區"
"231024","AKT-0513","2018/06/15 13:49:28","新北市新店區北新路一段271巷31號","121.539938333333","24.9671033333333","6500600","新店區"
"235028","005-UY","2018/06/15 13:49:16","新北市中和區連城路75巷13號","121.498553333333","24.9982683333333","6500300","中和區"
"235027","006-UY","2018/06/15 13:49:23","新北市中和區中正路464號","121.490096666667","24.99427","6500300","中和區"
"235020","096-UM","2018/06/15 13:49:30","新北市中和區立德街329號","121.481553333333","25.0104466666667","6500300","中和區"
"235003","097-UM","2018/06/15 13:49:14","新北市中和區景平路64巷13弄22號","121.521498333333","24.9914483333333","6500300","中和區"
"235029","098-UM","2018/06/15 13:49:23","新北市中和區勝利路29號","121.499026666667","25.00789","6500300","中和區"
"235004","150-BY","2018/06/15 13:49:22","新北市中和區保健路46巷2號","121.509685","24.9970883333333","6500300","中和區"
"235022","151-BY","2018/06/15 13:49:31","新北市中和區連城路532號","121.475688333333","24.991545","6500300","中和區"
"235019","183-VK","2018/06/15 13:49:27","新北市中和區德光路77巷2弄2號","121.469468333333","25.003495","6500300","中和區"
"235002","185-VK","2018/06/15 13:49:20","新北市中和區立人街24-5號","121.51885","24.994135","6500300","中和區"
"235013","186-VK","2018/06/15 13:49:21","新北市中和區景新街210巷2弄2號","121.507046666667","24.9942016666667","6500300","中和區"
"235031","255-BX","2018/06/15 13:49:22","新北市中和區新生街268號","121.483506666667","24.9971416666667","6500300","中和區"
"235008","293-VK","2018/06/15 13:49:19","新北市中和區中興街123號","121.499971666667","24.991835","6500300","中和區"
"235007","352-BY","2018/06/15 13:49:30","新北市中和區景平路1號","121.525455","24.9900683333333","6500300","中和區"
"235014","4979-A6","2018/06/15 13:49:26","新北市中和區忠孝街39-2號","121.511643333333","24.983835","6500300","中和區"
"235033","4980-A6","2018/06/15 13:49:21","新北市中和區南山路47號","121.502111666667","24.9985416666667","6500300","中和區"
"235006","551-UM","2018/06/15 13:49:28","新北市中和區秀朗路三段70巷32號","121.525711666667","24.9945283333333","6500300","中和區"
"235034","558-UM","2018/06/15 13:49:21","新北市中和區枋寮街4號","121.502295","24.99982","6500300","中和區"
"235009","565-BX","2018/06/15 13:49:28","新北市中和區捷運路102號","121.50559","24.9914466666667","6500300","中和區"
"235018","640-BX","2018/06/15 13:49:28","新北市中和區民享街38號","121.473876666667","25.0030116666667","6500300","中和區"
"235024","647-TV","2018/06/15 13:49:28","新北市中和區中山路三段194號","121.471973333333","25.0065133333333","6500300","中和區"
"235011","732-UM","2018/06/15 13:49:24","新北市中和區興南路二段34巷28弄2號","121.505051666667","24.9864366666667","6500300","中和區"
"235010","733-UM","2018/06/15 13:49:14","新北市中和區仁愛街36巷44號","121.511356666667","24.9862516666667","6500300","中和區"
"235035","783-BX","2018/06/15 13:49:33","新北市中和區中山路二段482巷10號","121.488493333333","25.00615","6500300","中和區"
"235026","800-TS","2018/06/15 13:49:17","新北市中和區中山路二段332巷47號","121.493488333333","25.0040716666667","6500300","中和區"
"235021","801-TS","2018/06/15 13:49:15","新北市中和區民安街25巷11號","121.480548333333","25.000265","6500300","中和區"
"235005","802-TS","2018/06/15 13:49:28","新北市中和區中和路458巷8號","121.512366666667","25.0036783333333","6500300","中和區"
"235016","805-TS","2018/06/15 13:49:17","新北市中和區興南路二段399巷35-2號","121.500263333333","24.97818","6500300","中和區"
"235012","896-TW","2018/06/15 13:49:29","新北市中和區南山路188號","121.505883333333","24.9906316666667","6500300","中和區"
"235017","900-TW","2018/06/15 13:49:10","新北市中和區華福街12號","121.465666666667","24.99673","6500300","中和區"
"235015","157-BY","2018/06/15 13:49:14","新北市中和區華新街113巷4弄14號","121.507346666667","24.980995","6500300","中和區"
"235001","AAC-213","2018/06/15 13:49:27","新北市中和區秀朗路三段175巷7號","121.525","24.9915016666667","6500300","中和區"
"235023","AAC-215","2018/06/15 13:49:28","新北市中和區圓通路393巷7號","121.489788333333","24.98869","6500300","中和區"
"220017","015-TV","2018/06/15 13:49:32","新北市板橋區南雅西路一段7巷5號","121.45447","25.0038833333333","6500100","板橋區"
"220013","072-UY","2018/06/15 13:49:17","新北市板橋區漢生東路282號","121.471226666667","25.0089433333333","6500100","板橋區"
"220034","073-UY","2018/06/15 13:49:18","新北市板橋區民權路209號","121.457966666667","25.014935","6500100","板橋區"
"220105","075-UY","2018/06/15 13:49:27","新北市板橋區民生路二段161巷9號","121.470253333333","25.0196066666667","6500100","板橋區"
"220039","120-SR","2018/06/15 13:49:11","新北市板橋區民生路二段161巷5號","121.470125","25.019685","6500100","板橋區"
"247009","341-TH","2018/06/15 13:49:24","新北市蘆洲區環堤大道368號","121.478155","25.0964566666667","6501400","蘆洲區"
"247003","337-TH","2018/06/15 13:49:21","新北市蘆洲區中原路24號","121.46017","25.0828983333333","6501400","蘆洲區"
"247005","336-TH","2018/06/15 13:49:31","新北市蘆洲區中山二路266號","121.468986666667","25.0785266666667","6501400","蘆洲區"
"247007","056-VK","2018/06/15 13:49:18","新北市蘆洲區永安北路二段76巷12-1號","121.483191666667","25.0850766666667","6501400","蘆洲區"
"247019","001-UY","2018/06/15 13:49:25","新北市蘆洲區民族路422巷48弄28號","121.47474","25.0930833333333","6501400","蘆洲區"
"235030","251-BX","2018/06/15 13:49:16","新北市中和區水源路18巷4弄9號","121.503966666667","25.0029416666667","6500300","中和區"
"207002","749-BX","2018/06/15 13:49:28","新北市萬里區崁腳里崁腳路166號","121.645096666667","25.1558183333333","6502800","萬里區"
"207001","662-BX","2018/06/15 13:49:18","新北市萬里區磺潭里磺溪12-1號","121.632948333333","25.202405","6502800","萬里區"
"236040","107-UM","2018/06/15 13:49:15","新北市土城區城林路6巷80號","121.438466666667","24.9797433333333","6501300","土城區"
"236077","166-UM","2018/06/15 13:49:16","新北市土城區永寧路18號","121.430348333333","24.9626883333333","6501300","土城區"
"236024","269-VK","2018/06/15 13:49:35","新北市土城區城林路6巷80號","121.438575","24.979775","6501300","土城區"
"236013","270-VK","2018/06/15 13:49:19","新北市土城區城林路6巷80號","121.438548333333","24.9797466666667","6501300","土城區"
"236032","271-VK","2018/06/15 13:49:15","新北市土城區城林路6巷80號","121.438483333333","24.979755","6501300","土城區"
"236067","KEA-2877","2018/06/15 13:49:29","新北市土城區城林路6巷80號","121.43876","24.9796766666667","6501300","土城區"
"236006","498-BY","2018/06/15 13:49:17","新北市土城區中華路二段67號","121.439435","24.9784433333333","6501300","土城區"
"236057","752-BX","2018/06/15 13:49:29","新北市土城區城林路6巷80號","121.43873","24.9796316666667","6501300","土城區"
"236060","915-UM","2018/06/15 13:49:24","新北市土城區城林路6巷80號","121.43847","24.9797566666667","6501300","土城區"
"236054","AAC-216","2018/06/15 13:49:22","新北市土城區城林路6巷80號","121.438655","24.97972","6501300","土城區"
"242048","172-VK","2018/06/15 13:49:26","新北市新莊區民安西路113-1號","121.426703333333","25.0181533333333","6500500","新莊區"
"221038","297-VK","2018/06/15 13:48:34","台北市文山區新光路二段74巷1號","121.592866666667","24.993405","6501100","汐止區"
"220027","145-BY","2018/06/15 13:49:28","新北市板橋區民權路202巷7弄5號","121.459801666667","25.0148233333333","6500100","板橋區"
"220028","200-UY","2018/06/15 13:49:17","新北市板橋區大觀路二段265巷60弄28號","121.44145","24.9978833333333","6500100","板橋區"
"220030","610-BX","2018/06/15 13:49:30","新北市板橋區篤行路三段71號","121.427328333333","24.9854033333333","6500100","板橋區"
"220050","245-BX","2018/06/15 13:49:20","新北市板橋區民生路二段161巷9號","121.470056666667","25.0195016666667","6500100","板橋區"
"220003","256-TC","2018/06/15 13:49:28","新北市板橋區民權路39巷20號","121.461315","25.0106633333333","6500100","板橋區"
"220016","257-TC","2018/06/15 13:49:17","新北市板橋區民生路二段123號","121.470726666667","25.0186483333333","6500100","板橋區"
"220040","267-BY","2018/06/15 13:49:25","新北市板橋區民生路二段161巷1號","121.470073333333","25.0199433333333","6500100","板橋區"
"220004","276-BY","2018/06/15 13:49:22","新北市板橋區信義路53號","121.457173333333","24.9958033333333","6500100","板橋區"
"220020","277-BY","2018/06/15 13:49:31","新北市板橋區大觀路三段8-1號","121.434538333333","24.9956383333333","6500100","板橋區"
"220043","280-UM","2018/06/15 13:49:15","新北市板橋區民生路二段120號","121.47041","25.0195983333333","6500100","板橋區"
"220019","283-VK","2018/06/15 13:49:28","新北市板橋區重慶路245巷61號","121.465465","25.0010416666667","6500100","板橋區"
"220001","285-VK","2018/06/15 13:48:14","新北市板橋區民生路二段120號","121.470575","25.01975","6500100","板橋區"
"220031","286-VK","2018/06/15 13:49:18","新北市板橋區僑中二街88巷33號","121.444683333333","25.0095866666667","6500100","板橋區"
"220029","287-VK","2018/06/15 13:49:17","新北市板橋區光華街15巷17號","121.453408333333","25.011675","6500100","板橋區"
"220009","293-UM","2018/06/15 13:49:24","新北市板橋區民生路二段56-6號","121.470783333333","25.0188883333333","6500100","板橋區"
"220010","295-UM","2018/06/15 13:49:31","新北市板橋區中山路二段40巷22號","121.473558333333","25.014565","6500100","板橋區"
"220032","296-UM","2018/06/15 13:49:20","新北市板橋區大觀路二段156巷99號","121.441116666667","25.00115","6500100","板橋區"
"220023","303-R5","2018/06/15 13:49:32","新北市板橋區南雅東路120號","121.453381666667","25.0086216666667","6500100","板橋區"
"220041","307-R5","2018/06/15 13:49:15","新北市板橋區民生路二段120號","121.4706","25.0195366666667","6500100","板橋區"
"220047","317-R6","2018/06/15 13:49:21","新北市板橋區民生路二段120號","121.470325","25.019665","6500100","板橋區"
"220012","486-VK","2018/06/15 13:49:33","新北市板橋區民生路二段36-1號","121.47209","25.0167566666667","6500100","板橋區"
"220037","491-VK","2018/06/15 13:49:31","新北市板橋區民生路二段161巷1號","121.469916666667","25.02014","6500100","板橋區"
"220104","560-BX","2018/06/15 13:49:28","新北市板橋區中正路325巷3弄9號","121.453826666667","25.0188766666667","6500100","板橋區"
"220052","561-BX","2018/06/15 13:49:15","新北市板橋區民生路二段161巷1號","121.470211666667","25.01992","6500100","板橋區"
"220011","609-BX","2018/06/15 13:49:21","新北市板橋區民生路二段123號","121.470638333333","25.0184933333333","6500100","板橋區"
"220005","686-BX","2018/06/15 13:49:28","新北市板橋區南雅南路二段4巷2號","121.454361666667","25.0038316666667","6500100","板橋區"
"220025","687-BX","2018/06/15 13:49:34","新北市板橋區大觀路二段443-2號","121.440095","24.9949283333333","6500100","板橋區"
"220042","689-BX","2018/06/15 13:49:19","新北市板橋區民生路二段161巷1號","121.470056666667","25.0202166666667","6500100","板橋區"
"220002","741-BX","2018/06/15 13:49:27","新北市板橋區館前東路24號","121.460278333333","25.0071766666667","6500100","板橋區"
"220051","KEA-2699","2018/06/15 13:49:17","新北市板橋區民生路二段161巷1號","121.47014","25.0200433333333","6500100","板橋區"
"220014","830-TW","2018/06/15 13:49:21","新北市板橋區民生路二段161巷9號","121.470305","25.0196266666667","6500100","板橋區"
"220022","895-R6","2018/06/15 13:49:15","新北市板橋區南門街53號","121.457125","25.00833","6500100","板橋區"
"220021","985-R7","2018/06/15 13:49:27","新北市板橋區府中路67號","121.458178333333","25.009495","6500100","板橋區"
"220018","AAC-253","2018/06/15 13:49:31","新北市板橋區四川路一段107-3號","121.459841666667","25.0050766666667","6500100","板橋區"
"235032","KEA-2873","2018/06/15 13:49:25","新北市中和區中正路211巷32弄18號","121.496535","24.9924033333333","6500300","中和區"
"235025","KEA-2875","2018/06/15 13:49:26","新北市中和區民治街132巷2號","121.475226666667","25.0024066666667","6500300","中和區"
