"lineid","car","time","location","longitude","latitude","cityid","cityname"
"234044","148-BY","2018/06/15 14:09:28","新北市永和區得和路275號","121.522381666667","24.9996483333333","6500400","永和區"
"234005","207-UY","2018/06/15 14:09:30","新北市中和區保平路289號","121.506545","25.00372","6500400","永和區"
"234078","298-R6","2018/06/15 14:09:30","新北市永和區永亨路107號","121.523378333333","25.004835","6500400","永和區"
"234036","336-UY","2018/06/15 14:09:31","新北市永和區成功路一段47巷8號","121.527545","25.003985","6500400","永和區"
"234062","337-UY","2018/06/15 14:09:29","新北市永和區永利路152號","121.522486666667","25.00276","6500400","永和區"
"234084","338-UY","2018/06/15 14:09:32","新北市永和區中正路575號","121.516758333333","25.0087633333333","6500400","永和區"
"234068","552-UM","2018/06/15 14:09:31","新北市永和區永貞路10巷1弄1號","121.520586666667","25.0072283333333","6500400","永和區"
"234015","745-BX","2018/06/15 14:09:34","新北市永和區仁愛路95號","121.512911666667","25.01303","6500400","永和區"
"234028","746-BX","2018/06/15 14:09:21","新北市永和區民生路22巷23號","121.521358333333","24.9969683333333","6500400","永和區"
"234052","KEA-2590","2018/06/15 14:09:17","新北市永和區博愛街20巷2號","121.517745","25.0158183333333","6500400","永和區"
"234012","KEA-2591","2018/06/15 14:09:15","新北市永和區永貞路422號","121.508465","25.00824","6500400","永和區"
"234060","AAD-866","2018/06/15 14:09:21","新北市中和區安平路222號","121.514028333333","25.00008","6500400","永和區"
"234040","862-TW","2018/06/15 14:09:26","新北市永和區雙和街60號","121.509083333333","25.0034166666667","6500400","永和區"
"234048","863-TW","2018/06/15 14:09:22","新北市永和區環河西路二段87號","121.506683333333","25.01498","6500400","永和區"
"234025","9371-KE","2018/06/15 14:09:17","新北市永和區安樂路272巷11號","121.514958333333","25.00432","6500400","永和區"
"234010","9373-KE","2018/06/15 14:09:30","新北市永和區仁愛路352巷124號","121.500178333333","25.008505","6500400","永和區"
"248019","225-UY","2018/06/15 13:58:02","新北市五股區凌雲路三段57號","121.425293333333","25.1249966666667","6501500","五股區"
"234022","9380-KE","2018/06/15 14:09:26","新北市永和區博愛街32巷17-1號","121.518886666667","25.015275","6500400","永和區"
"234076","969-R7","2018/06/15 14:09:25","新北市永和區民族街67巷18號","121.519503333333","24.997145","6500400","永和區"
"234072","AAC-211","2018/06/15 14:09:22","新北市永和區竹林路201巷24弄10號","121.522511666667","25.0096583333333","6500400","永和區"
"234066","AAC-212","2018/06/15 14:09:21","新北市永和區保平路214巷3弄9號","121.508896666667","25.005945","6500400","永和區"
"234001","AAC-295","2018/06/15 14:09:30","新北市永和區中正路708號","121.515926666667","25.00997","6500400","永和區"
"244004","248-BX","2018/06/15 14:09:24","新北市林口區頭湖92-2號","121.368691666667","25.0804566666667","6501700","林口區"
"231002","002-UM","2018/06/15 14:09:31","新北市新店區中正路487號","121.533936666667","24.982105","6500600","新店區"
"231038","0291-UT","2018/06/15 14:09:12","新北市新店區溪洲路101-1號","121.532323333333","24.9621483333333","6500600","新店區"
"231027","0293-UT","2018/06/15 14:09:28","新北市新店區光明街138巷13弄5號","121.540206666667","24.9614416666667","6500600","新店區"
"231028","046-UY","2018/06/15 14:09:31","新北市新店區安和路三段47-1號","121.517975","24.9822316666667","6500600","新店區"
"231001","047-UY","2018/06/15 14:09:27","新北市新店區中華路5號","121.540778333333","24.9673916666667","6500600","新店區"
"231005","106-UY","2018/06/15 14:09:13","新北市新店區中興路三段297號","121.542198333333","24.9851833333333","6500600","新店區"
"231022","108-UY","2018/06/15 14:09:34","新北市新店區桂山路29巷5號","121.557333333333","24.90362","6500600","新店區"
"231012","187-VK","2018/06/15 14:09:31","新北市新店區五峰路63巷14號","121.546665","24.9686166666667","6500600","新店區"
"231010","188-VK","2018/06/15 14:09:28","新北市新店區安華路28-1號","121.519688333333","24.9610333333333","6500600","新店區"
"231023","KEA-2219","2018/06/15 14:09:28","新北市新店區文中路45號","121.53965","24.956665","6500600","新店區"
"231003","268-BY","2018/06/15 14:09:26","新北市新店區北宜路一段3號","121.538438333333","24.958605","6500600","新店區"
"231018","278-BY","2018/06/15 14:09:28","新北市新店區中央五街44號","121.528195","24.97514","6500600","新店區"
"231016","AAD-862","2018/06/15 14:09:22","新北市新店區北宜路二段363號","121.558976666667","24.9542916666667","6500600","新店區"
"231037","4716-K9","2018/06/15 14:09:25","新北市新店區安康路二段408號","121.496693333333","24.9552133333333","6500600","新店區"
"231025","4715-K9","2018/06/15 14:09:32","新北市新店區自立街45巷2-1號","121.537053333333","24.9799933333333","6500600","新店區"
"231036","512-UM","2018/06/15 14:09:27","新北市新店區安祥路109巷85弄7號","121.477973333333","24.9603733333333","6500600","新店區"
"231013","513-UM","2018/06/15 14:09:26","新北市新店區北新路三段65巷34弄15號","121.540025","24.981495","6500600","新店區"
"231006","617-UM","2018/06/15 14:09:31","新北市新店區北宜路二段431-1號","121.560871666667","24.95428","6500600","新店區"
"231030","619-UM","2018/06/15 14:09:11","新北市新店區安興路7-1號","121.51503","24.9683983333333","6500600","新店區"
"231034","641-BX","2018/06/15 14:09:25","新北市新店區黎明路3號","121.50314","24.9520916666667","6500600","新店區"
"231035","719-UM","2018/06/15 14:09:19","新北市新店區安和路一段55號","121.517568333333","24.9661533333333","6500600","新店區"
"231032","720-UM","2018/06/15 14:09:16","新北市新店區永業路31巷1號","121.532923333333","24.955515","6500600","新店區"
"231029","897-TW","2018/06/15 14:09:24","新北市新店區安康路二段161號","121.510176666667","24.959375","6500600","新店區"
"231004","899-TW","2018/06/15 14:09:18","新北市新店區北新路二段128號","121.54308","24.9748566666667","6500600","新店區"
"231024","AKT-0513","2018/06/15 14:09:28","新北市新店區北新路一段8號","121.540861666667","24.96539","6500600","新店區"
"235028","005-UY","2018/06/15 14:09:16","新北市中和區泰和街16號","121.499603333333","25.0010116666667","6500300","中和區"
"235027","006-UY","2018/06/15 14:09:23","新北市中和區中正路262號","121.495445","24.9944133333333","6500300","中和區"
"235020","096-UM","2018/06/15 14:09:30","新北市中和區員山路568號","121.478913333333","25.0107233333333","6500300","中和區"
"235003","097-UM","2018/06/15 14:09:14","新北市中和區秀峰街119巷8弄5號","121.519201666667","24.9898166666667","6500300","中和區"
"235029","098-UM","2018/06/15 14:09:19","新北市中和區中山路二段2巷7弄1號","121.5042","25.0065316666667","6500300","中和區"
"235004","150-BY","2018/06/15 14:09:22","新北市中和區宜安路96號","121.510776666667","24.997625","6500300","中和區"
"235022","151-BY","2018/06/15 14:09:31","新北市中和區連城路477巷6弄15號","121.482555","24.9950016666667","6500300","中和區"
"235019","183-VK","2018/06/15 14:09:26","新北市中和區德光路81號","121.469301666667","25.0036716666667","6500300","中和區"
"235002","185-VK","2018/06/15 14:09:20","新北市中和區大仁街20巷32號","121.519115","24.993155","6500300","中和區"
"235013","186-VK","2018/06/15 14:09:21","新北市中和區景新街183號","121.507163333333","24.99519","6500300","中和區"
"235031","255-BX","2018/06/15 14:09:22","新北市中和區新生街199號","121.483823333333","25.0000516666667","6500300","中和區"
"235008","293-VK","2018/06/15 14:09:19","新北市中和區中興街202巷2號","121.499368333333","24.99002","6500300","中和區"
"235007","352-BY","2018/06/15 14:09:30","新北市中和區景平路136號","121.518653333333","24.9918966666667","6500300","中和區"
"235014","4979-A6","2018/06/15 14:09:19","新北市中和區復興路280巷18弄20號","121.501751666667","24.9922333333333","6500300","中和區"
"235033","4980-A6","2018/06/15 14:09:21","新北市中和區中和路165巷10號","121.502928333333","25.0002216666667","6500300","中和區"
"235006","551-UM","2018/06/15 14:09:28","新北市中和區自立路113號","121.522211666667","24.9945266666667","6500300","中和區"
"235034","558-UM","2018/06/15 14:09:21","新北市中和區中和路82號","121.501118333333","25.000635","6500300","中和區"
"235009","565-BX","2018/06/15 14:09:28","新北市中和區景新街467巷15弄11號","121.513716666667","24.9887066666667","6500300","中和區"
"235018","640-BX","2018/06/15 14:09:28","新北市中和區國光街107巷2弄32號","121.46929","24.9989983333333","6500300","中和區"
"235024","647-TV","2018/06/15 14:09:27","新北市中和區民有街43號","121.47589","25.0048766666667","6500300","中和區"
"235011","732-UM","2018/06/15 14:09:25","新北市中和區興南路一段58號","121.510835","24.9905366666667","6500300","中和區"
"235010","733-UM","2018/06/15 14:09:14","新北市中和區忠孝街1巷8號","121.508753333333","24.9834816666667","6500300","中和區"
"235035","783-BX","2018/06/15 14:09:13","新北市中和區立德街72巷26號","121.48778","25.008405","6500300","中和區"
"235026","800-TS","2018/06/15 14:09:17","新北市中和區橋安街8號","121.492723333333","25.0043366666667","6500300","中和區"
"235021","801-TS","2018/06/15 14:09:15","新北市中和區民利街50號","121.479278333333","24.9988133333333","6500300","中和區"
"235005","802-TS","2018/06/15 14:09:28","新北市中和區中安街178巷2號","121.511031666667","24.999585","6500300","中和區"
"235016","805-TS","2018/06/15 14:09:17","新北市中和區興南路二段128巷7弄4號","121.503238333333","24.984015","6500300","中和區"
"235012","896-TW","2018/06/15 14:09:25","新北市中和區工專路147號","121.508518333333","24.97888","6500300","中和區"
"235017","900-TW","2018/06/15 14:09:30","新北市中和區壽德街33-2號","121.466511666667","24.994765","6500300","中和區"
"235015","157-BY","2018/06/15 14:09:14","新北市中和區興南路一段85巷31號","121.510243333333","24.9881383333333","6500300","中和區"
"235001","AAC-213","2018/06/15 14:09:27","新北市中和區秀朗路三段50巷7號","121.5259","24.9954183333333","6500300","中和區"
"235023","AAC-215","2018/06/15 14:09:28","新北市中和區圓通路417號","121.488883333333","24.9891916666667","6500300","中和區"
"220017","015-TV","2018/06/15 14:09:12","新北市板橋區四川路一段102號","121.4596","25.00469","6500100","板橋區"
"220013","072-UY","2018/06/15 14:09:28","新北市板橋區民族路219巷72號","121.46898","25.008775","6500100","板橋區"
"220034","073-UY","2018/06/15 14:09:19","新北市板橋區中正路216巷82號","121.458193333333","25.01896","6500100","板橋區"
"220105","075-UY","2018/06/15 14:09:27","新北市板橋區雙十路三段10巷10號","121.472038333333","25.0306783333333","6500100","板橋區"
"220039","120-SR","2018/06/15 14:09:31","新北市板橋區裕民街16號","121.462046666667","25.029045","6500100","板橋區"
"247023","893-R6","2018/06/15 14:09:17","新北市蘆洲區光榮路116號","121.464453333333","25.08938","6501400","蘆洲區"
"247014","546-UM","2018/06/15 14:09:29","新北市蘆洲區三民路155號","121.471428333333","25.08685","6501400","蘆洲區"
"247021","500-BY","2018/06/15 14:09:34","新北市蘆洲區三民路120號","121.4712","25.0872266666667","6501400","蘆洲區"
"247009","341-TH","2018/06/15 14:09:24","新北市蘆洲區民族路66號","121.47742","25.0847016666667","6501400","蘆洲區"
"247011","339-TH","2018/06/15 14:09:28","新北市蘆洲區信義路343巷1號","121.477706666667","25.08703","6501400","蘆洲區"
"247003","337-TH","2018/06/15 14:09:24","新北市蘆洲區長安街110號","121.461023333333","25.0815733333333","6501400","蘆洲區"
"247005","336-TH","2018/06/15 14:09:20","新北市蘆洲區九芎街15巷12號","121.46786","25.0778883333333","6501400","蘆洲區"
"247017","057-VK","2018/06/15 14:09:27","新北市蘆洲區復興路105巷11號","121.476345","25.0884466666667","6501400","蘆洲區"
"247007","056-VK","2018/06/15 14:09:18","新北市蘆洲區中山一路415號","121.469035","25.07678","6501400","蘆洲區"
"247015","007-UY","2018/06/15 14:09:16","新北市蘆洲區光華路22巷57號","121.467885","25.0850733333333","6501400","蘆洲區"
"247001","002-UY","2018/06/15 14:09:16","新北市蘆洲區永平街32巷11弄36號","121.45773","25.0921266666667","6501400","蘆洲區"
"247019","001-UY","2018/06/15 14:09:25","新北市蘆洲區民族路426巷50號","121.472898333333","25.09349","6501400","蘆洲區"
"235030","251-BX","2018/06/15 14:09:16","新北市中和區廣福路48號","121.504086666667","25.002015","6500300","中和區"
"207002","749-BX","2018/06/15 14:08:07","新北市萬里區溪底里瑞泉路21號","121.604516666667","25.1488916666667","6502800","萬里區"
"207001","662-BX","2018/06/15 14:09:18","新北市萬里區磺潭里清水18號","121.637848333333","25.1976633333333","6502800","萬里區"
"236040","107-UM","2018/06/15 14:09:15","新北市土城區城林路6巷80號","121.438138333333","24.97968","6501300","土城區"
"236077","166-UM","2018/06/15 14:09:16","新北市土城區永安街42號","121.433315","24.9645016666667","6501300","土城區"
"236029","253-BX","2018/06/15 14:09:20","新北市土城區城林路6巷80號","121.438441666667","24.9797616666667","6501300","土城區"
"236024","269-VK","2018/06/15 14:09:14","新北市土城區承天路18號","121.439538333333","24.9634633333333","6501300","土城區"
"236013","270-VK","2018/06/15 14:09:19","新北市土城區中央路二段61巷40號","121.443831666667","24.978475","6501300","土城區"
"236032","271-VK","2018/06/15 14:09:15","新北市土城區中正路75號","121.445055","24.9756633333333","6501300","土城區"
"236067","KEA-2877","2018/06/15 14:09:29","新北市土城區金城路二段56-1號","121.452008333333","24.9794166666667","6501300","土城區"
"236016","401-BY","2018/06/15 14:09:17","新北市土城區城林路6巷80號","121.43821","24.97969","6501300","土城區"
"236006","498-BY","2018/06/15 14:09:17","新北市土城區中央路一段100號","121.446896666667","24.9885316666667","6501300","土城區"
"236057","752-BX","2018/06/15 14:09:29","新北市土城區中央路四段128-1號","121.417821666667","24.9588116666667","6501300","土城區"
"236060","915-UM","2018/06/15 14:09:24","新北市土城區金城路一段112號","121.446711666667","24.9758333333333","6501300","土城區"
"236054","AAC-216","2018/06/15 14:09:22","新北市土城區城林路6巷80號","121.438526666667","24.979725","6501300","土城區"
"220027","145-BY","2018/06/15 14:09:33","新北市板橋區民權路202巷13弄25號","121.458505","25.0163183333333","6500100","板橋區"
"220028","200-UY","2018/06/15 14:09:22","新北市板橋區大觀路二段3巷19號","121.448006666667","25.003705","6500100","板橋區"
"220030","610-BX","2018/06/15 14:09:30","新北市板橋區溪崑二街89號","121.42731","24.98946","6500100","板橋區"
"220050","245-BX","2018/06/15 14:09:20","新北市板橋區莊敬路208巷2弄7號","121.471461666667","25.0214183333333","6500100","板橋區"
"220003","256-TC","2018/06/15 14:09:28","新北市板橋區新民街11號","121.463811666667","25.00985","6500100","板橋區"
"220016","257-TC","2018/06/15 14:09:23","新北市板橋區翠華街6巷22號","121.481173333333","25.0242416666667","6500100","板橋區"
"220040","267-BY","2018/06/15 14:09:26","新北市板橋區八德路二段62號","121.482083333333","25.0271166666667","6500100","板橋區"
"220004","276-BY","2018/06/15 14:09:22","新北市板橋區信義路215號","121.459423333333","24.991515","6500100","板橋區"
"220020","277-BY","2018/06/15 14:09:31","新北市板橋區金門街372巷33號","121.42736","24.98498","6500100","板橋區"
"220043","280-UM","2018/06/15 14:09:15","新北市板橋區長江路二段98號","121.465488333333","25.0308966666667","6500100","板橋區"
"220019","283-VK","2018/06/15 14:09:28","新北市板橋區大豐街24號","121.462088333333","25.00146","6500100","板橋區"
"220001","285-VK","2018/06/15 14:09:29","新北市板橋區懷仁街34巷12號","121.47606","25.019205","6500100","板橋區"
"220031","286-VK","2018/06/15 14:08:57","新北市板橋區大觀路二段174巷173弄12號","121.441288333333","25.0038883333333","6500100","板橋區"
"220029","287-VK","2018/06/15 14:09:17","新北市板橋區南雅西路一段59號","121.453615","25.00513","6500100","板橋區"
"220009","293-UM","2018/06/15 14:09:24","新北市板橋區三民路二段30號","121.479263333333","25.018025","6500100","板橋區"
"220010","295-UM","2018/06/15 14:09:26","新北市板橋區三民路二段居仁巷2弄23號","121.479941666667","25.01297","6500100","板橋區"
"220032","296-UM","2018/06/15 14:09:20","新北市板橋區溪崑二街73巷14號","121.428221666667","24.9899983333333","6500100","板橋區"
"220023","303-R5","2018/06/15 14:09:13","新北市板橋區館前西路126號","121.456511666667","25.007775","6500100","板橋區"
"220041","307-R5","2018/06/15 14:09:15","新北市板橋區文化路二段225巷29-1號","121.469701666667","25.0284166666667","6500100","板橋區"
"220047","317-R6","2018/06/15 14:09:21","新北市板橋區自由路51巷12號","121.464825","25.0235183333333","6500100","板橋區"
"220012","486-VK","2018/06/15 14:09:33","新北市板橋區民生路一段33號","121.476065","25.011945","6500100","板橋區"
"220037","491-VK","2018/06/15 14:09:31","新北市板橋區莊敬路48-2號","121.472668333333","25.0270933333333","6500100","板橋區"
"220104","560-BX","2018/06/15 14:09:30","新北市板橋區瑞安街31巷8-1號","121.455875","25.0226916666667","6500100","板橋區"
"220052","561-BX","2018/06/15 14:09:15","新北市板橋區文化路一段188巷9弄29號","121.468836666667","25.0193","6500100","板橋區"
"220011","609-BX","2018/06/15 14:09:21","新北市板橋區三民路二段89號","121.47932","25.016485","6500100","板橋區"
"220005","686-BX","2018/06/15 14:09:28","","121.463531666667","24.9990366666667","6500100","板橋區"
"220025","687-BX","2018/06/15 14:09:14","新北市板橋區大觀路二段142-1號","121.442626666667","24.99918","6500100","板橋區"
"220042","689-BX","2018/06/15 14:09:19","新北市板橋區民生路三段135號","121.466121666667","25.0262383333333","6500100","板橋區"
"220002","741-BX","2018/06/15 14:09:27","新北市板橋區重慶路71-4號","121.462121666667","25.006885","6500100","板橋區"
"220051","KEA-2699","2018/06/15 14:09:17","新北市板橋區田單街51號","121.482655","25.0279016666667","6500100","板橋區"
"220014","830-TW","2018/06/15 14:09:25","新北市板橋區民享街116巷1號","121.478103333333","25.015785","6500100","板橋區"
"220045","831-TW","2018/06/15 14:09:21","新北市板橋區大同街2號","121.476846666667","25.0266466666667","6500100","板橋區"
"220038","833-TW","2018/06/15 14:09:27","新北市板橋區文化路二段349號","121.472826666667","25.0306016666667","6500100","板橋區"
"220022","895-R6","2018/06/15 14:09:30","新北市板橋區後菜園街45號","121.45614","25.0098066666667","6500100","板橋區"
"220021","985-R7","2018/06/15 14:09:27","新北市板橋區民權路242號","121.458451666667","25.0145316666667","6500100","板橋區"
"220046","AAC-210","2018/06/15 14:09:22","新北市板橋區新海路135巷2號","121.459941666667","25.0229333333333","6500100","板橋區"
"220018","AAC-253","2018/06/15 14:09:31","新北市板橋區忠孝路58號","121.461238333333","25.0019916666667","6500100","板橋區"
"235032","KEA-2873","2018/06/15 14:09:25","新北市中和區連勝街38巷16號","121.497863333333","24.997865","6500300","中和區"
"235025","KEA-2875","2018/06/15 14:09:20","新北市中和區員山路150-17號","121.48133","24.997825","6500300","中和區"
