"lineid","car","time","location","longitude","latitude","cityid","cityname"
"234044","148-BY","2018/06/15 14:19:28","新北市永和區秀朗路二段173巷8弄1號","121.525673333333","25.00231","6500400","永和區"
"234005","207-UY","2018/06/15 14:19:30","新北市永和區中正路682號","121.516775","25.0093366666667","6500400","永和區"
"234078","298-R6","2018/06/15 14:19:30","新北市永和區國中路130號","121.52358","25.0070416666667","6500400","永和區"
"234036","336-UY","2018/06/15 14:19:31","新北市永和區成功路一段1號","121.527405","25.0053416666667","6500400","永和區"
"234062","337-UY","2018/06/15 14:19:29","新北市永和區得和路108號","121.518306666667","25.0001766666667","6500400","永和區"
"234084","338-UY","2018/06/15 14:19:11","新北市永和區永和路二段135號","121.515026666667","25.01242","6500400","永和區"
"234068","552-UM","2018/06/15 14:19:13","新北市永和區福和路263巷10號","121.517936666667","25.0068016666667","6500400","永和區"
"234028","746-BX","2018/06/15 14:19:25","新北市永和區民權路49巷28號","121.521581666667","24.9974416666667","6500400","永和區"
"234052","KEA-2590","2018/06/15 14:19:17","新北市永和區光復街2巷27號","121.51724","25.0166666666667","6500400","永和區"
"234060","AAD-866","2018/06/15 14:19:21","新北市永和區安樂路194巷17弄7號","121.516023333333","25.0013283333333","6500400","永和區"
"234040","862-TW","2018/06/15 14:19:19","新北市中和區安平路161號","121.512505","24.9985","6500400","永和區"
"234048","863-TW","2018/06/15 14:19:23","新北市永和區新生路2-5號","121.509345","25.0168816666667","6500400","永和區"
"234025","9371-KE","2018/06/15 14:19:17","新北市永和區安樂路144巷24號","121.515148333333","24.9996733333333","6500400","永和區"
"248019","225-UY","2018/06/15 13:58:02","新北市五股區凌雲路三段57號","121.425293333333","25.1249966666667","6501500","五股區"
"234022","9380-KE","2018/06/15 14:19:26","新北市永和區竹林路23號","121.517211666667","25.0147183333333","6500400","永和區"
"234076","969-R7","2018/06/15 14:19:25","新北市永和區民族街81巷50號","121.519926666667","24.9965266666667","6500400","永和區"
"234072","AAC-211","2018/06/15 14:19:22","新北市永和區竹林路119巷30弄2號","121.522093333333","25.01157","6500400","永和區"
"234066","AAC-212","2018/06/15 14:19:21","新北市永和區保平路292巷13弄16號","121.506558333333","25.0057016666667","6500400","永和區"
"234001","AAC-295","2018/06/15 14:19:30","新北市永和區中正路618號","121.51697","25.0076716666667","6500400","永和區"
"244004","248-BX","2018/06/15 14:19:24","新北市林口區林口路76號","121.389705","25.0806633333333","6501700","林口區"
"231002","002-UM","2018/06/15 14:19:31","新北市新店區中央路153號","121.52994","24.9730033333333","6500600","新店區"
"231038","0291-UT","2018/06/15 14:19:32","新北市新店區溪洲路8巷60號","121.533358333333","24.9623616666667","6500600","新店區"
"231027","0293-UT","2018/06/15 14:19:28","新北市新店區北新路二段2號","121.542575","24.97058","6500600","新店區"
"231028","046-UY","2018/06/15 14:19:34","新北市新店區安和路二段173號","121.518571666667","24.9744933333333","6500600","新店區"
"231001","047-UY","2018/06/15 14:19:27","新北市新店區中正路75巷71號","121.54312","24.9688616666667","6500600","新店區"
"231005","106-UY","2018/06/15 14:19:13","新北市新店區中興路三段136號","121.544705","24.97988","6500600","新店區"
"231022","108-UY","2018/06/15 14:19:34","新北市新店區桂山路121號","121.568563333333","24.8938066666667","6500600","新店區"
"231012","187-VK","2018/06/15 14:19:31","新北市新店區五峰路61巷7號","121.548868333333","24.969605","6500600","新店區"
"231023","KEA-2219","2018/06/15 14:19:28","新北市新店區光明街136號","121.539376666667","24.96125","6500600","新店區"
"231003","268-BY","2018/06/15 14:19:26","新北市新店區中興路一段199號","121.543468333333","24.965315","6500600","新店區"
"231018","278-BY","2018/06/15 14:19:28","新北市新店區中央四街5-1號","121.530256666667","24.9737733333333","6500600","新店區"
"231016","AAD-862","2018/06/15 14:19:22","新北市新店區北宜路二段470號","121.570025","24.9556366666667","6500600","新店區"
"231037","4716-K9","2018/06/15 14:19:25","新北市新店區車子路51號","121.503966666667","24.9518833333333","6500600","新店區"
"231036","512-UM","2018/06/15 14:19:27","新北市新店區安祥路109巷151弄12號","121.478148333333","24.9588583333333","6500600","新店區"
"231013","513-UM","2018/06/15 14:19:26","新北市新店區建國路150號","121.538741666667","24.97922","6500600","新店區"
"231006","617-UM","2018/06/15 14:19:30","新北市新店區北宜路二段599號","121.568178333333","24.9555283333333","6500600","新店區"
"231030","619-UM","2018/06/15 14:19:31","新北市新店區安民街65巷11號","121.515336666667","24.9664783333333","6500600","新店區"
"231034","641-BX","2018/06/15 14:19:25","新北市新店區車子路11號","121.503111666667","24.9520816666667","6500600","新店區"
"231035","719-UM","2018/06/15 14:19:19","新北市新店區安和路二段117巷10號","121.518365","24.97026","6500600","新店區"
"231032","720-UM","2018/06/15 14:19:26","新北市新店區溪洲路202-7號","121.528906666667","24.9682166666667","6500600","新店區"
"231029","897-TW","2018/06/15 14:19:24","新北市新店區安康路二段161號","121.510131666667","24.9593366666667","6500600","新店區"
"231004","899-TW","2018/06/15 14:19:18","新北市新店區中正路222號","121.540206666667","24.972645","6500600","新店區"
"231024","AKT-0513","2018/06/15 14:19:28","新北市新店區北新路一段8號","121.540853333333","24.965325","6500600","新店區"
"235028","005-UY","2018/06/15 14:19:16","新北市中和區連城路2號","121.499263333333","25.00239","6500300","中和區"
"235027","006-UY","2018/06/15 14:19:23","新北市中和區連城路203巷10弄27號","121.495106666667","24.99655","6500300","中和區"
"235020","096-UM","2018/06/15 14:19:30","新北市中和區員山路458號","121.479986666667","25.0062633333333","6500300","中和區"
"235003","097-UM","2018/06/15 14:19:34","新北市中和區秀峰街103巷7弄4號","121.519438333333","24.988975","6500300","中和區"
"235029","098-UM","2018/06/15 14:19:19","新北市中和區永和路1-1號","121.499768333333","25.0029533333333","6500300","中和區"
"235004","150-BY","2018/06/15 14:19:22","新北市中和區保健路123號","121.512391666667","24.9960283333333","6500300","中和區"
"235022","151-BY","2018/06/15 14:19:31","新北市中和區中正路637巷60弄61號","121.485465","24.993315","6500300","中和區"
"235019","183-VK","2018/06/15 14:19:26","新北市中和區中山路三段181巷2號","121.472815","25.0059666666667","6500300","中和區"
"235002","185-VK","2018/06/15 14:19:20","新北市中和區大仁街106號","121.520433333333","24.992955","6500300","中和區"
"235013","186-VK","2018/06/15 14:19:21","新北市中和區景新街228-6號","121.508145","24.9941666666667","6500300","中和區"
"235031","255-BX","2018/06/15 14:19:22","新北市中和區連城路322號","121.483425","24.9960333333333","6500300","中和區"
"235008","293-VK","2018/06/15 14:19:19","新北市中和區中興街250號","121.499421666667","24.9880966666667","6500300","中和區"
"235007","352-BY","2018/06/15 14:19:30","新北市中和區景平路298號","121.512783333333","24.9928416666667","6500300","中和區"
"235014","4979-A6","2018/06/15 14:19:19","新北市中和區板南路202號","121.499385","24.99314","6500300","中和區"
"235033","4980-A6","2018/06/15 14:19:21","新北市中和區景平路736巷3弄5號","121.497348333333","25.00375","6500300","中和區"
"235006","551-UM","2018/06/15 14:19:28","新北市永和區民有街69號","121.517943333333","24.9958783333333","6500300","中和區"
"235034","558-UM","2018/06/15 14:19:21","新北市中和區景平路611號","121.496478333333","25.0017616666667","6500300","中和區"
"235009","565-BX","2018/06/15 14:19:28","新北市中和區景新街423巷35弄21號","121.513833333333","24.990515","6500300","中和區"
"235018","640-BX","2018/06/15 14:19:28","新北市中和區國光街107巷2弄5-4號","121.469995","24.999835","6500300","中和區"
"235024","647-TV","2018/06/15 14:19:27","新北市中和區員山路292號","121.481481666667","25.0024033333333","6500300","中和區"
"235011","732-UM","2018/06/15 14:19:24","新北市中和區景平路239巷73號","121.50815","24.99209","6500300","中和區"
"235010","733-UM","2018/06/15 14:19:35","新北市中和區忠孝街2巷2-6號","121.510048333333","24.98244","6500300","中和區"
"235035","783-BX","2018/06/15 14:19:13","新北市中和區中正路782巷2號","121.486146666667","25.000835","6500300","中和區"
"235026","800-TS","2018/06/15 14:19:17","新北市中和區中山路二段488-1號","121.487408333333","25.0049166666667","6500300","中和區"
"235021","801-TS","2018/06/15 14:19:15","新北市中和區員山路423巷7號","121.480536666667","25.0031866666667","6500300","中和區"
"235005","802-TS","2018/06/15 14:19:27","新北市中和區安平路124號","121.511953333333","24.99773","6500300","中和區"
"235016","805-TS","2018/06/15 14:19:17","新北市中和區興南路二段124號","121.504501666667","24.9836116666667","6500300","中和區"
"235012","896-TW","2018/06/15 14:19:25","新北市中和區華新街109巷1-3號","121.509105","24.9822433333333","6500300","中和區"
"235017","900-TW","2018/06/15 14:19:31","新北市中和區壽德街33-2號","121.466515","24.9947683333333","6500300","中和區"
"235015","157-BY","2018/06/15 14:19:14","新北市中和區和平街54巷8弄15號","121.509536666667","24.9915066666667","6500300","中和區"
"235001","AAC-213","2018/06/15 14:19:27","新北市中和區秀朗路三段10巷14弄96號","121.52342","24.9965633333333","6500300","中和區"
"235023","AAC-215","2018/06/15 14:19:28","新北市中和區圓通路252巷18弄1號","121.492368333333","24.9924116666667","6500300","中和區"
"220017","015-TV","2018/06/15 14:19:33","新北市板橋區大明街20巷19弄19號","121.457698333333","25.0031566666667","6500100","板橋區"
"220013","072-UY","2018/06/15 14:19:17","新北市板橋區國泰街75巷2弄1號","121.467551666667","25.0061566666667","6500100","板橋區"
"220034","073-UY","2018/06/15 14:19:18","新北市板橋區中正路250巷20號","121.456215","25.01937","6500100","板橋區"
"220105","075-UY","2018/06/15 14:19:30","新北市板橋區雙十路三段87號","121.470138333333","25.03259","6500100","板橋區"
"220039","120-SR","2018/06/15 14:19:26","新北市板橋區長江路一段106巷12弄1號","121.460003333333","25.0289766666667","6500100","板橋區"
"247023","893-R6","2018/06/15 14:19:17","新北市蘆洲區長榮路707號","121.460908333333","25.0927633333333","6501400","蘆洲區"
"247013","546-UM","2018/06/15 14:19:29","新北市蘆洲區中山一路238號","121.472443333333","25.080285","6501400","蘆洲區"
"247021","500-BY","2018/06/15 14:19:34","新北市蘆洲區仁愛街212巷8號","121.464351666667","25.0941833333333","6501400","蘆洲區"
"247009","341-TH","2018/06/15 14:19:24","新北市蘆洲區三民路26巷30號","121.477856666667","25.0829633333333","6501400","蘆洲區"
"247011","339-TH","2018/06/15 14:19:28","新北市蘆洲區民權路3巷14弄15號","121.475153333333","25.08562","6501400","蘆洲區"
"247003","337-TH","2018/06/15 14:19:21","新北市蘆洲區中原路12巷20號","121.46092","25.0837816666667","6501400","蘆洲區"
"247005","336-TH","2018/06/15 14:19:20","新北市蘆洲區長安街13號","121.463995","25.07903","6501400","蘆洲區"
"247017","057-VK","2018/06/15 14:19:27","新北市蘆洲區民權路80號","121.474625","25.0876266666667","6501400","蘆洲區"
"247015","007-UY","2018/06/15 14:19:16","新北市蘆洲區中正路185巷31弄48號","121.46735","25.0830533333333","6501400","蘆洲區"
"247001","002-UY","2018/06/15 14:17:56","新北市蘆洲區永樂街40號","121.458041666667","25.0883916666667","6501400","蘆洲區"
"247019","001-UY","2018/06/15 14:19:25","新北市蘆洲區民族路341號","121.472746666667","25.0919466666667","6501400","蘆洲區"
"235030","251-BX","2018/06/15 14:19:36","新北市中和區中和路102號","121.502766666667","24.9998","6500300","中和區"
"207002","749-BX","2018/06/15 14:19:27","新北市萬里區溪底里溪底路13號","121.613633333333","25.1489366666667","6502800","萬里區"
"207001","662-BX","2018/06/15 14:19:18","新北市萬里區磺潭里清水18號","121.637911666667","25.197665","6502800","萬里區"
"236040","107-UM","2018/06/15 14:19:34","新北市土城區裕生路21巷2弄32號","121.447896666667","24.9861583333333","6501300","土城區"
"236077","166-UM","2018/06/15 14:19:16","新北市土城區中央路三段279號","121.426753333333","24.963395","6501300","土城區"
"236029","253-BX","2018/06/15 14:19:20","新北市土城區順風路66號","121.440298333333","24.9775783333333","6501300","土城區"
"236024","269-VK","2018/06/15 14:19:14","新北市土城區承天路20號","121.439565","24.9634183333333","6501300","土城區"
"236013","270-VK","2018/06/15 14:19:19","新北市土城區青雲路39巷7號","121.46032","24.987545","6501300","土城區"
"236032","271-VK","2018/06/15 14:19:17","新北市土城區青雲路451巷8弄9號","121.459566666667","24.9744316666667","6501300","土城區"
"236067","KEA-2877","2018/06/15 14:19:28","新北市土城區明德路一段80號","121.464945","24.9799533333333","6501300","土城區"
"236016","401-BY","2018/06/15 14:19:17","新北市土城區明德路二段65號","121.451541666667","24.9809916666667","6501300","土城區"
"236006","498-BY","2018/06/15 14:19:17","新北市土城區裕民路6-1號","121.446795","24.9891016666667","6501300","土城區"
"236057","752-BX","2018/06/15 14:19:29","新北市土城區中央路四段273-1號","121.412766666667","24.9543483333333","6501300","土城區"
"236060","915-UM","2018/06/15 14:19:24","新北市土城區金城路三段179號","121.46961","24.98867","6501300","土城區"
"236054","AAC-216","2018/06/15 14:19:22","新北市土城區中華路二段104號","121.438056666667","24.97426","6501300","土城區"
"220027","145-BY","2018/06/15 14:19:29","新北市板橋區民權路202巷13弄14號","121.45923","25.0162883333333","6500100","板橋區"
"220028","200-UY","2018/06/15 14:19:17","新北市板橋區大觀路二段1巷38號","121.44997","25.0036083333333","6500100","板橋區"
"220030","610-BX","2018/06/15 14:19:30","新北市板橋區溪城路123號","121.427731666667","24.9820433333333","6500100","板橋區"
"220050","245-BX","2018/06/15 14:19:20","新北市板橋區莊敬路9號","121.47399","25.0281516666667","6500100","板橋區"
"220003","256-TC","2018/06/15 14:19:28","新北市板橋區館前東路156巷21號","121.464291666667","25.0068266666667","6500100","板橋區"
"220016","257-TC","2018/06/15 14:19:17","新北市板橋區林森街1巷1號","121.48208","25.02409","6500100","板橋區"
"220040","267-BY","2018/06/15 14:19:26","新北市板橋區文聖街176號","121.479095","25.0270416666667","6500100","板橋區"
"220004","276-BY","2018/06/15 14:19:22","新北市板橋區干城路20巷3號","121.459135","24.9934766666667","6500100","板橋區"
"220020","277-BY","2018/06/15 14:19:31","新北市板橋區金門街339-2號","121.429256666667","24.9856133333333","6500100","板橋區"
"220043","280-UM","2018/06/15 14:19:15","新北市板橋區光武街110巷20弄1號","121.466993333333","25.029595","6500100","板橋區"
"220019","283-VK","2018/06/15 14:19:28","新北市板橋區忠孝路48巷4弄85號","121.460383333333","25.0005933333333","6500100","板橋區"
"220001","285-VK","2018/06/15 14:19:34","新北市板橋區富山街18巷6-2號","121.478571666667","25.0224183333333","6500100","板橋區"
"220031","286-VK","2018/06/15 14:19:21","新北市板橋區龍興街73巷34號","121.442615","25.0027083333333","6500100","板橋區"
"220029","287-VK","2018/06/15 14:19:17","新北市板橋區大觀路一段29巷131弄33號","121.451023333333","25.0039966666667","6500100","板橋區"
"220009","293-UM","2018/06/15 14:19:24","新北市板橋區中山路二段326-1號","121.481006666667","25.01952","6500100","板橋區"
"220010","295-UM","2018/06/15 14:19:26","新北市板橋區三民路二段153巷4號","121.479688333333","25.014965","6500100","板橋區"
"220032","296-UM","2018/06/15 14:19:20","新北市板橋區滿平街84巷120弄9號","121.426741666667","24.986015","6500100","板橋區"
"220023","303-R5","2018/06/15 14:19:13","新北市板橋區南雅西路一段116號","121.452515","25.0064333333333","6500100","板橋區"
"220041","307-R5","2018/06/15 14:19:15","新北市板橋區光武街48巷49號","121.468388333333","25.0271466666667","6500100","板橋區"
"220047","317-R6","2018/06/15 14:19:21","新北市板橋區四維路206號","121.463965","25.0272783333333","6500100","板橋區"
"220012","486-VK","2018/06/15 14:19:33","新北市板橋區中山路一段137號","121.462591666667","25.0108266666667","6500100","板橋區"
"220037","491-VK","2018/06/15 14:19:31","新北市板橋區雙十路二段108號","121.474481666667","25.0284783333333","6500100","板橋區"
"220104","560-BX","2018/06/15 14:19:24","新北市板橋區中正路413巷2弄23號","121.453178333333","25.0231433333333","6500100","板橋區"
"220052","561-BX","2018/06/15 14:19:15","新北市板橋區文化路一段188巷7弄16號","121.467643333333","25.0196833333333","6500100","板橋區"
"220011","609-BX","2018/06/15 14:19:21","新北市板橋區三民路二段202-28號","121.478871666667","25.0125933333333","6500100","板橋區"
"220005","686-BX","2018/06/15 14:19:28","新北市板橋區和平路174巷12號","121.464023333333","24.99499","6500100","板橋區"
"220025","687-BX","2018/06/15 14:19:14","新北市板橋區大觀路二段57號","121.446686666667","25.00278","6500100","板橋區"
"220042","689-BX","2018/06/15 14:19:23","新北市板橋區漢生西路50號","121.463025","25.0185183333333","6500100","板橋區"
"220002","741-BX","2018/06/15 14:19:27","新北市板橋區實踐路169號","121.46434","25.00376","6500100","板橋區"
"220051","KEA-2699","2018/06/15 14:19:17","新北市板橋區萬板路558-1號","121.480526666667","25.026725","6500100","板橋區"
"220014","830-TW","2018/06/15 14:19:21","新北市板橋區長安街138巷1弄71號","121.474565","25.0108433333333","6500100","板橋區"
"220045","831-TW","2018/06/15 14:19:21","新北市板橋區文聖街156-1號","121.478756666667","25.0273333333333","6500100","板橋區"
"220038","833-TW","2018/06/15 14:19:20","新北市板橋區文化路一段357號","121.466831666667","25.0210383333333","6500100","板橋區"
"220022","895-R6","2018/06/15 14:19:16","新北市板橋區府中路44號","121.457131666667","25.0095533333333","6500100","板橋區"
"220021","985-R7","2018/06/15 14:19:27","新北市板橋區中正路377號","121.454468333333","25.021265","6500100","板橋區"
"220046","AAC-210","2018/06/15 14:19:22","新北市板橋區幸福路32巷3弄12號","121.460851666667","25.0207","6500100","板橋區"
"220018","AAC-253","2018/06/15 14:19:31","新北市板橋區忠孝路74號","121.461323333333","25.0019666666667","6500100","板橋區"
"235032","KEA-2873","2018/06/15 14:19:25","新北市中和區連勝街57巷20號","121.498068333333","24.99645","6500300","中和區"
"235025","KEA-2875","2018/06/15 14:19:20","新北市中和區民利街44號","121.479453333333","24.9988566666667","6500300","中和區"
