"lineid","car","time","location","longitude","latitude","cityid","cityname"
"234062","337-UY","2018/06/15 14:49:29","新北市永和區福和路1號","121.525571666667","25.0093816666667","6500400","永和區"
"234084","338-UY","2018/06/15 14:49:32","新北市永和區福和路1號","121.526268333333","25.0098783333333","6500400","永和區"
"234025","9371-KE","2018/06/15 14:49:17","新北市永和區雙和街52巷3號","121.509193333333","25.0032133333333","6500400","永和區"
"244004","248-BX","2018/06/15 14:49:24","新北市林口區竹林路266號","121.389685","25.0807383333333","6501700","林口區"
"231002","002-UM","2018/06/15 14:49:31","新北市新店區民權路61號","121.539378333333","24.9829366666667","6500600","新店區"
"231038","0291-UT","2018/06/15 14:49:32","新北市新店區安華路28-1號","121.519678333333","24.9609233333333","6500600","新店區"
"231027","0293-UT","2018/06/15 14:49:28","新北市新店區中央三街117號","121.524535","24.9761983333333","6500600","新店區"
"231028","046-UY","2018/06/15 14:49:21","新北市新店區安成街35號","121.509848333333","24.9611333333333","6500600","新店區"
"231001","047-UY","2018/06/15 14:49:27","新北市新店區三民路80號","121.53463","24.9725216666667","6500600","新店區"
"231005","106-UY","2018/06/15 14:49:33","新北市新店區復興路2號","121.532483333333","24.9882333333333","6500600","新店區"
"231022","108-UY","2018/06/15 14:49:14","新北市新店區永興路102-4號","121.546415","24.9301383333333","6500600","新店區"
"231012","187-VK","2018/06/15 14:49:31","新北市新店區永華街34號","121.544593333333","24.9754166666667","6500600","新店區"
"231023","KEA-2219","2018/06/15 14:49:28","新北市新店區檳榔路109號","121.544385","24.9616066666667","6500600","新店區"
"231026","256-BX","2018/06/15 14:49:27","新北市新店區安一路一段1-1號","121.519733333333","24.9612883333333","6500600","新店區"
"231003","268-BY","2018/06/15 14:49:26","新北市新店區中興路二段55號","121.546551666667","24.9702783333333","6500600","新店區"
"231018","278-BY","2018/06/15 14:49:28","新北市新店區中央六街6號","121.530248333333","24.9742966666667","6500600","新店區"
"231016","AAD-862","2018/06/15 14:49:22","新北市新店區北宜路三段284號","121.603883333333","24.9553583333333","6500600","新店區"
"231037","4716-K9","2018/06/15 14:48:25","新北市新店區柴埕路60巷32號","121.506076666667","24.9679316666667","6500600","新店區"
"231025","4715-K9","2018/06/15 14:49:32","新北市新店區建國路192號","121.537965","24.9804716666667","6500600","新店區"
"231036","512-UM","2018/06/15 14:49:27","新北市新店區安祥路104巷6弄36號","121.483091666667","24.96295","6500600","新店區"
"231013","513-UM","2018/06/15 14:49:26","新北市新店區北新路二段59巷11號","121.54243","24.973425","6500600","新店區"
"231006","617-UM","2018/06/15 14:49:30","新北市新店區北宜路一段107-2號","121.539515","24.9551533333333","6500600","新店區"
"231030","619-UM","2018/06/15 14:49:31","新北市新店區安民街381號","121.516325","24.9764183333333","6500600","新店區"
"231034","641-BX","2018/06/15 14:49:25","新北市新店區玫瑰路4-1號","121.493563333333","24.9513916666667","6500600","新店區"
"231039","718-UY","2018/06/15 14:49:28","新北市新店區安康路一段355號","121.519865","24.9637933333333","6500600","新店區"
"231035","719-UM","2018/06/15 14:49:19","新北市新店區安利街28號","121.519143333333","24.9746966666667","6500600","新店區"
"231032","720-UM","2018/06/15 14:49:16","新北市新店區安康路三段92號","121.4916","24.9519033333333","6500600","新店區"
"231029","897-TW","2018/06/15 14:49:24","新北市新店區錦秀路11巷12號","121.480963333333","24.9442966666667","6500600","新店區"
"231004","899-TW","2018/06/15 14:49:18","新北市新店區建國路131號","121.539433333333","24.9781683333333","6500600","新店區"
"231024","AKT-0513","2018/06/15 14:49:28","新北市新店區中華路83巷67號","121.538365","24.9673","6500600","新店區"
"235020","096-UM","2018/06/15 14:49:30","新北市中和區中山路三段112號","121.476175","25.00602","6500300","中和區"
"235003","097-UM","2018/06/15 14:49:34","新北市中和區安樂路145號","121.514398333333","24.99701","6500300","中和區"
"235029","098-UM","2018/06/15 14:49:19","新北市中和區永和路128巷45號","121.497761666667","25.00675","6500300","中和區"
"235004","150-BY","2018/06/15 14:49:22","新北市中和區安平路30號","121.509601666667","24.9948366666667","6500300","中和區"
"235019","183-VK","2018/06/15 14:49:26","新北市中和區民德路21號","121.468883333333","25.002785","6500300","中和區"
"235002","185-VK","2018/06/15 14:49:20","新北市永和區民生路46巷50號","121.52089","24.9962666666667","6500300","中和區"
"235013","186-VK","2018/06/15 14:49:21","新北市中和區中正路58號","121.501661666667","24.99368","6500300","中和區"
"235031","255-BX","2018/06/15 14:49:22","新北市中和區中正路803號","121.484625","25.0011616666667","6500300","中和區"
"235008","293-VK","2018/06/15 14:49:19","新北市中和區南山路231號","121.503511666667","24.9933683333333","6500300","中和區"
"235007","352-BY","2018/06/15 14:49:30","新北市中和區安樂路46號","121.512026666667","24.9929066666667","6500300","中和區"
"235014","4979-A6","2018/06/15 14:49:19","新北市中和區景平路241巷82弄17號","121.506938333333","24.99215","6500300","中和區"
"235033","4980-A6","2018/06/15 14:49:21","新北市中和區中正路637巷60弄61號","121.485398333333","24.993225","6500300","中和區"
"235034","558-UM","2018/06/15 14:49:20","新北市中和區景平路634-3號","121.499238333333","24.9989733333333","6500300","中和區"
"235018","640-BX","2018/06/15 14:49:28","新北市中和區莒光路200號","121.471933333333","24.99829","6500300","中和區"
"235024","647-TV","2018/06/15 14:49:29","新北市中和區新生街30巷11號","121.482706666667","25.00372","6500300","中和區"
"235010","733-UM","2018/06/15 14:49:14","新北市中和區仁愛街58號","121.511196666667","24.9879466666667","6500300","中和區"
"235035","783-BX","2018/06/15 14:49:33","新北市中和區建康路101號","121.488086666667","25.0002983333333","6500300","中和區"
"235005","802-TS","2018/06/15 14:49:27","新北市中和區宜安路96號","121.510585","24.99771","6500300","中和區"
"235016","805-TS","2018/06/15 14:48:57","新北市中和區華新街28-1號","121.50768","24.984505","6500300","中和區"
"235012","896-TW","2018/06/15 14:49:25","新北市中和區忠孝街42號","121.510931666667","24.9833466666667","6500300","中和區"
"235017","900-TW","2018/06/15 14:49:30","新北市中和區華安街17巷2-3號","121.466835","24.9981833333333","6500300","中和區"
"235015","157-BY","2018/06/15 14:49:14","新北市中和區景安路247巷26號","121.504461666667","24.99046","6500300","中和區"
"235001","AAC-213","2018/06/15 14:49:26","新北市中和區自立路56巷2號","121.523371666667","24.9919166666667","6500300","中和區"
"235023","AAC-215","2018/06/15 14:49:28","新北市中和區圓通路367巷6號","121.491591666667","24.9894083333333","6500300","中和區"
"220017","015-TV","2018/06/15 14:49:32","新北市板橋區大明街21號","121.458763333333","25.0025866666667","6500100","板橋區"
"220013","072-UY","2018/06/15 14:49:21","新北市板橋區區運路72號","121.466766666667","25.0099333333333","6500100","板橋區"
"220034","073-UY","2018/06/15 14:49:18","新北市板橋區南雅西路二段7巷25號","121.451903333333","25.0094616666667","6500100","板橋區"
"220105","075-UY","2018/06/15 14:49:27","新北市板橋區民治街61巷27號","121.480475","25.0335916666667","6500100","板橋區"
"220039","120-SR","2018/06/15 14:49:31","新北市板橋區新海路109巷1弄2號","121.460701666667","25.02239","6500100","板橋區"
"247023","893-R6","2018/06/15 14:49:16","新北市蘆洲區和平路79號","121.469125","25.0792433333333","6501400","蘆洲區"
"247013","546-UM","2018/06/15 14:49:29","新北市蘆洲區中山二路77號","121.473265","25.08196","6501400","蘆洲區"
"247001","002-UY","2018/06/15 14:46:56","新北市蘆洲區永樂街27巷39號","121.458871666667","25.0870816666667","6501400","蘆洲區"
"235030","251-BX","2018/06/15 14:49:16","新北市中和區景新街57巷30號","121.504613333333","24.9995033333333","6500300","中和區"
"207002","749-BX","2018/06/15 14:49:27","新北市萬里區崁腳里崁腳路73號","121.647586666667","25.1595483333333","6502800","萬里區"
"207001","662-BX","2018/06/15 14:49:18","新北市萬里區雙興里二坪路5-4號","121.64856","25.1752016666667","6502800","萬里區"
"236040","107-UM","2018/06/15 14:49:28","新北市土城區學府路一段256巷2弄3號","121.451175","24.9847716666667","6501300","土城區"
"236077","166-UM","2018/06/15 14:49:16","新北市土城區中央路四段125巷5號","121.416545","24.957325","6501300","土城區"
"236029","253-BX","2018/06/15 14:49:20","新北市土城區忠義路26巷10號","121.43983","24.96989","6501300","土城區"
"236024","269-VK","2018/06/15 14:49:35","新北市土城區中央路二段246號","121.441745","24.9748816666667","6501300","土城區"
"236013","270-VK","2018/06/15 14:49:23","新北市土城區清水路235巷26號","121.460648333333","24.9839883333333","6501300","土城區"
"236032","271-VK","2018/06/15 14:49:35","新北市土城區仁愛路48-6號","121.462076666667","24.9789866666667","6501300","土城區"
"236067","KEA-2877","2018/06/15 14:49:28","新北市土城區學士路62號","121.451195","24.9806833333333","6501300","土城區"
"236016","401-BY","2018/06/15 14:49:17","新北市土城區延安街42-3號","121.46752","24.98533","6501300","土城區"
"236057","752-BX","2018/06/15 14:49:29","新北市土城區中央路三段93號","121.437556666667","24.96767","6501300","土城區"
"236045","913-UM","2018/06/15 14:49:28","新北市板橋區信義路170巷10號","121.459785","24.9905133333333","6501300","土城區"
"236060","915-UM","2018/06/15 14:49:24","新北市土城區延和路201號","121.469538333333","24.990285","6501300","土城區"
"236054","AAC-216","2018/06/15 14:49:22","新北市土城區裕民路177號","121.453315","24.9847933333333","6501300","土城區"
"221002","707-TV","2018/06/15 14:49:16","新北市汐止區新台五路一段212-1號","121.655788333333","25.062875","6501100","汐止區"
"220027","145-BY","2018/06/15 14:49:24","新北市板橋區中正路135巷12弄19號","121.4553","25.0161166666667","6500100","板橋區"
"220028","200-UY","2018/06/15 14:49:29","新北市板橋區大觀路二段153巷20號","121.446471666667","25.0003383333333","6500100","板橋區"
"220030","610-BX","2018/06/15 14:49:30","新北市板橋區存德街12號","121.429585","24.992015","6500100","板橋區"
"220050","245-BX","2018/06/15 14:49:20","新北市板橋區縣民大道三段105號","121.476403333333","25.0223866666667","6500100","板橋區"
"220003","256-TC","2018/06/15 14:49:28","新北市板橋區仁愛路49巷1號","121.4599","24.9994833333333","6500100","板橋區"
"220016","257-TC","2018/06/15 14:49:17","新北市板橋區光復街105號","121.484243333333","25.01923","6500100","板橋區"
"220040","267-BY","2018/06/15 14:49:26","新北市板橋區懷德街181巷28號","121.480456666667","25.0301283333333","6500100","板橋區"
"220020","277-BY","2018/06/15 14:49:31","新北市板橋區篤行路二段77巷9弄4-3號","121.43234","24.9918083333333","6500100","板橋區"
"220043","280-UM","2018/06/15 14:49:35","新北市板橋區互助街116號","121.459301666667","25.0257533333333","6500100","板橋區"
"220019","283-VK","2018/06/15 14:49:28","新北市板橋區和平路190巷30號","121.464971666667","24.9943633333333","6500100","板橋區"
"220001","285-VK","2018/06/15 14:49:29","新北市板橋區中山路二段60巷1弄22號","121.475068333333","25.0156483333333","6500100","板橋區"
"220031","286-VK","2018/06/15 14:49:17","新北市板橋區僑中二街12巷18號","121.446065","25.0107966666667","6500100","板橋區"
"220029","287-VK","2018/06/15 14:49:17","新北市板橋區僑中一街124巷20弄39號","121.447706666667","25.0138816666667","6500100","板橋區"
"220009","293-UM","2018/06/15 14:49:25","新北市板橋區板新路112號","121.471368333333","25.0152766666667","6500100","板橋區"
"220010","295-UM","2018/06/15 14:49:26","新北市板橋區光復街106號","121.483295","25.0182716666667","6500100","板橋區"
"220032","296-UM","2018/06/15 14:49:20","新北市板橋區溪崑二街110號","121.426341666667","24.988665","6500100","板橋區"
"220023","303-R5","2018/06/15 14:49:13","新北市板橋區幸福路70巷13號","121.460325","25.02046","6500100","板橋區"
"220041","307-R5","2018/06/15 14:49:15","新北市板橋區四維路259巷81號","121.460263333333","25.0265516666667","6500100","板橋區"
"220047","317-R6","2018/06/15 14:49:21","新北市板橋區龍泉街55巷26號","121.457658333333","25.0250933333333","6500100","板橋區"
"220012","486-VK","2018/06/15 14:49:33","新北市板橋區館前東路98-2號","121.462575","25.0075933333333","6500100","板橋區"
"220037","491-VK","2018/06/15 14:49:31","新北市板橋區文聖街105號","121.4778","25.029425","6500100","板橋區"
"220104","560-BX","2018/06/15 14:49:21","新北市板橋區中正路316號","121.45486","25.02092","6500100","板橋區"
"220052","561-BX","2018/06/15 14:49:27","新北市板橋區陽明街29巷26號","121.464058333333","25.0225366666667","6500100","板橋區"
"220011","609-BX","2018/06/15 14:49:21","新北市板橋區中山路二段531巷17弄20號","121.482161666667","25.0221066666667","6500100","板橋區"
"220005","686-BX","2018/06/15 14:49:28","新北市板橋區廣權路1號","121.460456666667","24.9910883333333","6500100","板橋區"
"220025","687-BX","2018/06/15 14:49:14","新北市板橋區僑中一街102巷3弄20號","121.44597","25.0125283333333","6500100","板橋區"
"220042","689-BX","2018/06/15 14:49:28","新北市板橋區長江路二段145號","121.465723333333","25.0317666666667","6500100","板橋區"
"220002","741-BX","2018/06/15 14:49:29","新北市板橋區忠孝路201巷108號","121.464766666667","25.0050483333333","6500100","板橋區"
"220051","KEA-2699","2018/06/15 14:49:17","新北市板橋區松柏街33巷1號","121.475156666667","25.0303783333333","6500100","板橋區"
"220014","830-TW","2018/06/15 14:49:29","新北市板橋區漢生東路193巷66號","121.473233333333","25.0119616666667","6500100","板橋區"
"220045","831-TW","2018/06/15 14:49:21","新北市板橋區文化路二段124巷34弄6號","121.471095","25.0253666666667","6500100","板橋區"
"220038","833-TW","2018/06/15 14:49:20","新北市板橋區新海路181號","121.45852","25.0238833333333","6500100","板橋區"
"220022","895-R6","2018/06/15 14:49:16","新北市板橋區明德街16號","121.460035","25.01052","6500100","板橋區"
"220021","985-R7","2018/06/15 14:49:27","新北市板橋區南雅西路二段156巷2號","121.451766666667","25.0133733333333","6500100","板橋區"
"220046","AAC-210","2018/06/15 14:49:22","新北市板橋區漢生西路56號","121.463028333333","25.0187733333333","6500100","板橋區"
"220018","AAC-253","2018/06/15 14:49:31","新北市板橋區館前東路122號","121.46379","25.0077833333333","6500100","板橋區"
"235032","KEA-2873","2018/06/15 14:49:25","新北市中和區中山路二段250巷24號","121.497338333333","25.0032933333333","6500300","中和區"
