"lineid","car","time","location","longitude","latitude","cityid","cityname"
"234084","338-UY","2018/06/15 15:29:31","新北市永和區福和路1號","121.526393333333","25.0097216666667","6500400","永和區"
"231002","002-UM","2018/06/15 15:29:31","新北市新店區環河路150-8號","121.53433","24.9679266666667","6500600","新店區"
"231038","0291-UT","2018/06/15 15:29:32","新北市新店區安華路28-1號","121.519646666667","24.9609683333333","6500600","新店區"
"231028","046-UY","2018/06/15 15:29:15","新北市新店區僑信路70號","121.499446666667","24.94898","6500600","新店區"
"231005","106-UY","2018/06/15 15:29:13","新北市新店區民權路90巷36號","121.537035","24.9842616666667","6500600","新店區"
"231022","108-UY","2018/06/15 15:29:34","新北市新店區金興路12號","121.549885","24.9297016666667","6500600","新店區"
"231012","187-VK","2018/06/15 15:29:31","新北市新店區寶慶街58巷3弄2號","121.542361666667","24.98752","6500600","新店區"
"231023","KEA-2219","2018/06/15 15:29:28","新北市新店區北新路一段96巷23號","121.542856666667","24.968645","6500600","新店區"
"231026","256-BX","2018/06/15 15:29:27","新北市新店區三民路117巷7弄1號","121.534095","24.9710116666667","6500600","新店區"
"231003","268-BY","2018/06/15 15:29:26","新北市新店區寶高路120巷1號","121.55457","24.976125","6500600","新店區"
"231018","278-BY","2018/06/15 15:29:28","新北市新店區中央七街61巷3號","121.529206666667","24.978225","6500600","新店區"
"231016","AAD-862","2018/06/15 15:29:22","新北市新店區明山路45號","121.563806666667","24.95583","6500600","新店區"
"231037","4716-K9","2018/06/15 15:29:25","新北市新店區安興路91巷6號","121.514758333333","24.97591","6500600","新店區"
"231025","4715-K9","2018/06/15 15:29:32","新北市新店區薏仁坑路6號","121.500168333333","24.9581416666667","6500600","新店區"
"231036","512-UM","2018/06/15 15:29:35","新北市新店區安祥路69巷54弄57號","121.483603333333","24.9585033333333","6500600","新店區"
"231030","619-UM","2018/06/15 15:29:31","新北市新店區新和街36號","121.519305","24.9849133333333","6500600","新店區"
"231034","641-BX","2018/06/15 15:29:25","新北市新店區玫瑰路16號","121.494666666667","24.9502783333333","6500600","新店區"
"231039","718-UY","2018/06/15 15:29:28","新北市新店區寶元路一段84巷2號","121.544338333333","24.9838816666667","6500600","新店區"
"231035","719-UM","2018/06/15 15:29:19","新北市新店區安興路81號","121.515318333333","24.975305","6500600","新店區"
"231032","720-UM","2018/06/15 15:29:16","新北市新店區裕合街143號","121.489163333333","24.9490866666667","6500600","新店區"
"231029","897-TW","2018/06/15 15:29:24","新北市新店區安康路三段517號","121.482121666667","24.9484266666667","6500600","新店區"
"231004","899-TW","2018/06/15 15:29:19","新北市新店區民族路185號","121.53737","24.9764133333333","6500600","新店區"
"231024","AKT-0513","2018/06/15 15:29:28","新北市新店區安康路二段414巷2號","121.495855","24.95778","6500600","新店區"
"241011","013-R5","2018/06/15 15:29:35","新北市三重區竹圍(仔)街17-5號","121.48727","25.0474566666667","6500200","三重區"
"241015","062-VK","2018/06/15 15:29:30","新北市三重區重新路四段121號","121.485195","25.0520366666667","6500200","三重區"
"241017","063-VK","2018/06/15 15:29:30","新北市三重區重新路四段121號","121.484858333333","25.0519166666667","6500200","三重區"
"241016","266-UM","2018/06/15 15:29:25","新北市三重區重新路四段121號","121.485388333333","25.05207","6500200","三重區"
"241013","270-UM","2018/06/15 15:29:26","新北市三重區新北大道一段252號","121.479848333333","25.061415","6500200","三重區"
"241007","398-BY","2018/06/15 15:29:21","新北市三重區成功路187號","121.48551","25.05246","6500200","三重區"
"241030","480-VK","2018/06/15 15:29:18","新北市三重區重新路四段121號","121.484743333333","25.0525716666667","6500200","三重區"
"241014","543-UM","2018/06/15 15:29:31","新北市三重區重新路四段121號","121.485155","25.0519833333333","6500200","三重區"
"241026","887-TS","2018/06/15 15:29:23","新北市三重區重新路四段121號","121.484566666667","25.0521566666667","6500200","三重區"
"241029","942-UM","2018/06/15 15:29:31","新北市三重區成功路10號","121.49007","25.050075","6500200","三重區"
"241033","AAC-255","2018/06/15 15:29:26","新北市三重區重新路四段121號","121.483263333333","25.051125","6500200","三重區"
"235033","4980-A6","2018/06/15 15:29:21","新北市中和區中正路548號","121.487135","24.9945766666667","6500300","中和區"
"235046","733-UM","2018/06/15 15:25:21","新北市中和區員山路36巷13號","121.484158333333","24.990835","6500300","中和區"
"235035","783-BX","2018/06/15 15:29:33","新北市中和區立德街313-1號","121.48253","25.010495","6500300","中和區"
"235023","AAC-215","2018/06/15 15:29:28","新北市中和區員山路22-1號","121.483555","24.98479","6500300","中和區"
"247014","546-UM","2018/06/15 15:02:08","新北市五股區中興路三段2巷10號","121.449206666667","25.0808583333333","6501400","蘆洲區"
"235030","251-BX","2018/06/15 15:29:36","新北市中和區光華街49號","121.505643333333","25.0037133333333","6500300","中和區"
"236040","107-UM","2018/06/15 15:29:15","新北市土城區學享街30號","121.451683333333","24.9871233333333","6501300","土城區"
"236077","166-UM","2018/06/15 15:29:26","新北市土城區三民路61巷1號","121.419568333333","24.96434","6501300","土城區"
"236029","253-BX","2018/06/15 15:29:19","新北市土城區日新街8巷4號","121.4454","24.9872716666667","6501300","土城區"
"236024","269-VK","2018/06/15 15:29:35","新北市土城區裕生路83巷16弄1號","121.447361666667","24.9839483333333","6501300","土城區"
"236013","270-VK","2018/06/15 15:29:19","新北市土城區廣明街10號","121.45592","24.9920366666667","6501300","土城區"
"236032","271-VK","2018/06/15 15:29:27","新北市土城區延吉街363巷10號","121.464168333333","24.98341","6501300","土城區"
"236067","KEA-2877","2018/06/15 15:29:28","新北市土城區學府路2段185巷37-1號","121.44743","24.977615","6501300","土城區"
"236016","401-BY","2018/06/15 15:29:18","新北市土城區延吉街137巷9號","121.47089","24.9858866666667","6501300","土城區"
"236057","752-BX","2018/06/15 15:29:32","新北市土城區中央路二段219-7號","121.440798333333","24.9737933333333","6501300","土城區"
"236045","913-UM","2018/06/15 15:29:28","新北市土城區金城路二段390號","121.463628333333","24.98561","6501300","土城區"
"236060","915-UM","2018/06/15 15:29:24","新北市土城區立德路135巷5弄10號","121.464625","24.9874366666667","6501300","土城區"
"236054","AAC-216","2018/06/15 15:29:23","新北市土城區延和路11號","121.463925","24.9879983333333","6501300","土城區"
"220050","245-BX","2018/06/15 15:29:20","新北市板橋區公館街18號","121.456981666667","25.0124866666667","6500100","板橋區"
"220047","317-R6","2018/06/15 15:29:20","新北市板橋區金門街369巷83-1號","121.430293333333","24.9810583333333","6500100","板橋區"
"220052","561-BX","2018/06/15 15:29:35","新北市板橋區漢生東路43巷28號","121.466453333333","25.017585","6500100","板橋區"
"220014","830-TW","2018/06/15 15:29:21","新北市板橋區民生路二段175號","121.469926666667","25.0202983333333","6500100","板橋區"
"220038","833-TW","2018/06/15 15:29:25","新北市板橋區四維路331號","121.46261","25.0295016666667","6500100","板橋區"
"220021","985-R7","2018/06/15 15:29:27","新北市樹林區八德街67號","121.399828333333","24.9693133333333","6500100","板橋區"
