"lineid","car","time","location","longitude","latitude","cityid","cityname"
"234084","338-UY","2018/06/15 16:19:31","新北市永和區福和路1號","121.526421666667","25.0096916666667","6500400","永和區"
"231046","188-VK","2018/06/15 16:19:15","新北市新店區灣潭路3-3號","121.538246666667","24.95081","6500600","新店區"
"231018","278-BY","2018/06/15 16:19:28","新北市新店區中正路700巷82號","121.536025","24.9932983333333","6500600","新店區"
"241011","013-R5","2018/06/15 16:19:35","新北市三重區龍濱路285號","121.50108","25.07334","6500200","三重區"
"241028","022-UY","2018/06/15 16:19:37","新北市三重區正義南路171號","121.498946666667","25.05724","6500200","三重區"
"241008","059-VK","2018/06/15 16:19:19","新北市三重區永福街175-1號","121.478861666667","25.07536","6500200","三重區"
"241009","060-VK","2018/06/15 16:19:19","新北市三重區溪尾街198號","121.488065","25.0809283333333","6500200","三重區"
"241031","061-VK","2018/06/15 16:19:20","新北市三重區重新路四段246號","121.485575","25.0535766666667","6500200","三重區"
"241015","062-VK","2018/06/15 16:19:30","新北市三重區福德北路66號","121.501755","25.065945","6500200","三重區"
"241017","063-VK","2018/06/15 16:19:30","新北市三重區大同北路91號","121.494686666667","25.063625","6500200","三重區"
"241024","065-VK","2018/06/15 16:19:25","新北市三重區中正北路326號","121.478836666667","25.0691916666667","6500200","三重區"
"241002","090-VK","2018/06/15 16:19:28","新北市三重區仁義街91號","121.49975","25.0795216666667","6500200","三重區"
"241005","742-BX","2018/06/15 16:19:37","新北市三重區溪尾街305號","121.487626666667","25.0837683333333","6500200","三重區"
"241003","265-UM","2018/06/15 16:19:23","新北市三重區五華街59號","121.492768333333","25.0825133333333","6500200","三重區"
"241016","266-UM","2018/06/15 16:19:25","新北市三重區大仁街86號","121.49283","25.0654483333333","6500200","三重區"
"241022","267-UM","2018/06/15 16:19:29","新北市三重區新北大道一段11號","121.48805","25.0609016666667","6500200","三重區"
"241018","268-UM","2018/06/15 16:19:22","新北市三重區重陽路三段142-1號","121.489411666667","25.0671433333333","6500200","三重區"
"241032","269-UM","2018/06/15 16:19:36","新北市三重區三陽路100巷3弄7號","121.483183333333","25.0583283333333","6500200","三重區"
"241013","270-UM","2018/06/15 16:19:26","新北市三重區仁愛街67號","121.496196666667","25.072715","6500200","三重區"
"241025","271-UM","2018/06/15 16:19:27","新北市三重區中正北路560巷100弄2號","121.47255","25.0682483333333","6500200","三重區"
"241007","398-BY","2018/06/15 16:19:21","新北市三重區三和路四段163巷60號","121.486481666667","25.0796066666667","6500200","三重區"
"241023","413-TH","2018/06/15 16:19:20","新北市三重區忠孝路三段84巷5號","121.480175","25.06444","6500200","三重區"
"241004","475-VK","2018/06/15 16:19:18","新北市三重區自強路五段80號","121.496301666667","25.0830033333333","6500200","三重區"
"241020","478-VK","2018/06/15 16:19:25","新北市三重區車路頭街19號","121.483856666667","25.0704116666667","6500200","三重區"
"241030","480-VK","2018/06/15 16:19:18","新北市三重區重新路四段121號","121.484661666667","25.0524633333333","6500200","三重區"
"241014","543-UM","2018/06/15 16:19:31","新北市三重區河邊北街96-1號","121.504006666667","25.06993","6500200","三重區"
"241001","547-UM","2018/06/15 16:19:36","新北市三重區自強路四段87號","121.491056666667","25.0793266666667","6500200","三重區"
"241019","KEA-2593","2018/06/15 16:19:30","新北市三重區自強路二段74巷23-1號","121.487851666667","25.0697716666667","6500200","三重區"
"241006","AAD-863","2018/06/15 16:19:28","新北市三重區永福街46巷41弄1號","121.48217","25.077165","6500200","三重區"
"241026","887-TS","2018/06/15 16:19:23","新北市三重區正義南路53號","121.498171666667","25.060545","6500200","三重區"
"241012","941-UM","2018/06/15 16:19:36","新北市三重區河邊北街313號","121.502413333333","25.074875","6500200","三重區"
"241029","942-UM","2018/06/15 16:19:31","新北市三重區環河南路220-8號","121.493336666667","25.05269","6500200","三重區"
"241033","AAC-255","2018/06/15 16:19:26","新北市三重區五谷王南街8號","121.474818333333","25.0469833333333","6500200","三重區"
"235026","800-TS","2018/06/15 16:18:57","新北市中和區建八路119號","121.489176666667","24.9986716666667","6500300","中和區"
"224007","275-VK","2018/06/15 16:19:31","新北市瑞芳區大埔路278號","121.760041666667","25.1025166666667","6501200","瑞芳區"
"227003","642-TC","2018/06/15 16:19:26","新北市雙溪區上林里內平林82-1號","121.828565","25.0280183333333","6502500","雙溪區"
"227011","400-TW","2018/06/15 16:19:32","新北市雙溪區三港里雙澳路80號","121.88381","25.0538966666667","6502500","雙溪區"
"251008","181-VK","2018/06/15 16:19:37","新北市淡水區民權路13-5號","121.45964","25.14197","6501000","淡水區"
"236057","752-BX","2018/06/15 16:19:28","新北市土城區大安路140號","121.43358","24.9709033333333","6501300","土城區"
