"lineid","car","time","location","longitude","latitude","cityid","cityname"
"234084","338-UY","2018/06/15 16:29:31","新北市永和區福和路1號","121.526393333333","25.0096666666667","6500400","永和區"
"231046","188-VK","2018/06/15 16:29:35","新北市新店區灣潭路3-3號","121.53825","24.9508033333333","6500600","新店區"
"231018","278-BY","2018/06/15 16:29:28","新北市新店區安民街35巷9弄18號","121.51443","24.9653666666667","6500600","新店區"
"241011","013-R5","2018/06/15 16:29:15","新北市三重區龍濱路190號","121.501166666667","25.0731316666667","6500200","三重區"
"241028","022-UY","2018/06/15 16:29:17","新北市三重區中正南路212號","121.49389","25.055615","6500200","三重區"
"241008","059-VK","2018/06/15 16:29:19","新北市三重區永福街112號","121.479","25.07538","6500200","三重區"
"241009","060-VK","2018/06/15 16:29:19","新北市三重區三和路四段191巷68號","121.483868333333","25.0796766666667","6500200","三重區"
"241031","061-VK","2018/06/15 16:29:20","新北市三重區重陽路一段51號","121.486765","25.0582583333333","6500200","三重區"
"241015","062-VK","2018/06/15 16:29:30","新北市三重區福德北路40號","121.50183","25.0653166666667","6500200","三重區"
"241017","063-VK","2018/06/15 16:29:30","新北市三重區大同北路91號","121.494725","25.063645","6500200","三重區"
"241024","065-VK","2018/06/15 16:29:25","新北市三重區中正北路289號","121.474818333333","25.071465","6500200","三重區"
"241002","090-VK","2018/06/15 16:29:28","新北市三重區五華街6號","121.495061666667","25.0800266666667","6500200","三重區"
"241005","742-BX","2018/06/15 16:29:17","新北市三重區溪尾街305號","121.487683333333","25.083785","6500200","三重區"
"241003","265-UM","2018/06/15 16:29:23","新北市三重區仁義街228巷1號","121.494815","25.0848083333333","6500200","三重區"
"241016","266-UM","2018/06/15 16:29:25","新北市三重區大智街23號","121.494186666667","25.0658533333333","6500200","三重區"
"241022","267-UM","2018/06/15 16:29:09","新北市三重區過圳街98號","121.486055","25.06197","6500200","三重區"
"241018","268-UM","2018/06/15 16:29:22","新北市三重區重陽路四段5號","121.490863333333","25.0689416666667","6500200","三重區"
"241032","269-UM","2018/06/15 16:29:32","新北市三重區三陽路100巷3弄13號","121.48302","25.0581666666667","6500200","三重區"
"241013","270-UM","2018/06/15 16:29:26","新北市三重區仁愛街52號","121.495978333333","25.0728483333333","6500200","三重區"
"241025","271-UM","2018/06/15 16:29:27","新北市三重區中正北路560巷100弄17-1號","121.472705","25.068315","6500200","三重區"
"241007","398-BY","2018/06/15 16:29:21","新北市三重區三和路四段167巷194號","121.488248333333","25.080415","6500200","三重區"
"241023","413-TH","2018/06/15 16:29:35","新北市三重區中華路126號","121.483313333333","25.0638916666667","6500200","三重區"
"241004","475-VK","2018/06/15 16:29:18","新北市三重區仁愛街377巷30號","121.492123333333","25.08071","6500200","三重區"
"241020","478-VK","2018/06/15 16:29:25","新北市三重區車路頭街36號","121.483865","25.07172","6500200","三重區"
"241030","480-VK","2018/06/15 16:29:18","新北市三重區成功路106-1號","121.487461666667","25.05152","6500200","三重區"
"241014","543-UM","2018/06/15 16:29:31","新北市三重區河邊北街70-3號","121.504341666667","25.0683916666667","6500200","三重區"
"241001","547-UM","2018/06/15 16:29:18","新北市三重區福隆路52號","121.492591666667","25.0785516666667","6500200","三重區"
"241019","KEA-2593","2018/06/15 16:29:30","新北市三重區重陽路三段61號","121.48987","25.067505","6500200","三重區"
"241006","AAD-863","2018/06/15 16:29:28","新北市三重區力行路二段131號","121.483295","25.0769516666667","6500200","三重區"
"241026","887-TS","2018/06/15 16:29:23","新北市三重區光興街1號","121.500335","25.0604566666667","6500200","三重區"
"241012","941-UM","2018/06/15 16:29:36","新北市三重區河邊北街353號","121.50207","25.075675","6500200","三重區"
"241029","942-UM","2018/06/15 16:29:31","新北市三重區集美街126巷16號","121.489575","25.053705","6500200","三重區"
"241033","AAC-255","2018/06/15 16:29:26","新北市三重區五谷王北街20巷15弄2號","121.475478333333","25.04829","6500200","三重區"
"247014","546-UM","2018/06/15 16:29:28","新北市五股區中興路三段163號","121.44917","25.0808","6501400","蘆洲區"
"224007","275-VK","2018/06/15 16:29:25","新北市瑞芳區大埔路60號","121.763731666667","25.1022283333333","6501200","瑞芳區"
"224005","271-BY","2018/06/15 16:29:22","新北市瑞芳區阿美家園1號","121.821776666667","25.1159916666667","6501200","瑞芳區"
"227003","642-TC","2018/06/15 16:29:26","新北市雙溪區上林里內平林120-1號","121.8251","25.0264916666667","6502500","雙溪區"
"227011","400-TW","2018/06/15 16:29:32","新北市雙溪區三港里雙澳路37-5號","121.87252","25.0507383333333","6502500","雙溪區"
"251008","181-VK","2018/06/15 16:29:17","新北市淡水區民生路169號","121.469461666667","25.1418733333333","6501000","淡水區"
