"lineid","car","time","location","longitude","latitude","cityid","cityname"
"234084","338-UY","2018/06/15 17:59:31","新北市永和區福和路1號","121.526348333333","25.0097933333333","6500400","永和區"
"234042","862-TW","2018/06/15 17:59:33","新北市永和區福和路1號","121.526408333333","25.0097666666667","6500400","永和區"
"234026","9371-KE","2018/06/15 17:59:33","新北市永和區永和路一段45-1號","121.512821666667","25.006325","6500400","永和區"
"234011","9373-KE","2018/06/15 17:51:21","新北市永和區福和路1號","121.52567","25.009395","6500400","永和區"
"249005","172-UM","2018/06/15 17:59:24","新北市八里區荖阡坑路16-8號","121.399873333333","25.139225","6502300","八里區"
"249001","173-UM","2018/06/15 17:59:24","新北市八里區龍米路二段35號","121.448418333333","25.1399966666667","6502300","八里區"
"249004","303-UY","2018/06/15 17:59:17","新北市八里區龍米路三段60號","121.423606666667","25.1589433333333","6502300","八里區"
"249002","305-UY","2018/06/15 17:59:19","新北市八里區龍形五街15號","121.45004","25.133435","6502300","八里區"
"249003","593-UM","2018/06/15 17:59:31","新北市八里區中華路二段258巷6號","121.405181666667","25.1496883333333","6502300","八里區"
"248008","095-VK","2018/06/15 17:59:21","新北市五股區更洲路10號","121.458373333333","25.0788333333333","6501500","五股區"
"248018","225-UY","2018/06/15 17:59:38","新北市五股區中興路二段83巷26-6號","121.460056666667","25.075155","6501500","五股區"
"248004","677-BX","2018/06/15 17:59:25","新北市五股區中興路二段163號","121.457811666667","25.0778633333333","6501500","五股區"
"248002","678-BX","2018/06/15 17:59:26","新北市五股區中興路二段83巷26-1號","121.459576666667","25.0757716666667","6501500","五股區"
"232011","076-UY","2018/06/15 17:59:29","新北市坪林區北宜路八段375號","121.708933333333","24.9322166666667","6502000","坪林區"
"244013","069-UM","2018/06/15 17:59:23","新北市林口區中山路81巷1號","121.390316666667","25.0786466666667","6501700","林口區"
"244007","080-UY","2018/06/15 17:59:18","新北市林口區竹林路277號","121.389698333333","25.0812883333333","6501700","林口區"
"244019","403-UM","2018/06/15 17:59:21","新北市林口區忠孝路552巷3號","121.374078333333","25.0676666666667","6501700","林口區"
"244023","483-VK","2018/06/15 17:56:49","新北市林口區東湖路93巷102號","121.38548","25.0704083333333","6501700","林口區"
"244017","485-VK","2018/06/15 17:59:34","新北市林口區文化二路一段214-1號","121.369101666667","25.07225","6501700","林口區"
"244009","656-BX","2018/06/15 17:59:39","新北市林口區竹林路606巷28號","121.385378333333","25.0830066666667","6501700","林口區"
"244011","657-BX","2018/06/15 17:59:28","新北市林口區中正路168號","121.392246666667","25.077435","6501700","林口區"
"244025","837-TS","2018/06/15 17:59:22","新北市林口區三民路30號","121.358765","25.0678166666667","6501700","林口區"
"244021","838-TS","2018/06/15 17:59:24","新北市林口區新寮27-6號","121.396238333333","25.0662266666667","6501700","林口區"
"222003","436-BY","2018/06/15 17:59:28","新北市深坑區炮子崙23號","121.607175","24.9908866666667","6501800","深坑區"
"222002","659-BX","2018/06/15 17:59:30","新北市深坑區深坑街35號","121.615985","25.0017916666667","6501800","深坑區"
"231046","188-VK","2018/06/15 17:59:35","新北市新店區下石厝路25-2號","121.533178333333","24.9272383333333","6500600","新店區"
"231055","AKT-0513","2018/06/15 17:59:30","新北市新店區安華路28-1號","121.519543333333","24.96054","6500600","新店區"
"241024","065-VK","2018/06/15 17:59:25","新北市三重區力行路一段277號","121.482215","25.07169","6500200","三重區"
"241016","266-UM","2018/06/15 17:59:25","新北市三重區中正北路23號","121.492105","25.06132","6500200","三重區"
"241033","AAC-255","2018/06/15 17:59:25","新北市三重區重新路五段595號","121.469598333333","25.0455916666667","6500200","三重區"
"235064","005-UY","2018/06/15 17:59:22","新北市中和區員山路36巷16-3號","121.484953333333","24.991285","6500300","中和區"
"235065","098-UM","2018/06/15 17:59:19","新北市中和區中正路803號","121.48488","25.00124","6500300","中和區"
"235058","151-BY","2018/06/15 17:59:30","新北市中和區錦和路350-1號","121.490318333333","24.993575","6500300","中和區"
"235038","185-VK","2018/06/15 17:59:29","新北市中和區錦和路117號","121.490516666667","24.99432","6500300","中和區"
"235054","640-BX","2018/06/15 17:59:20","新北市中和區和城路一段271巷1號","121.485378333333","24.9920216666667","6500300","中和區"
"235060","647-TV","2018/06/15 17:59:32","新北市中和區員山路36巷16-3號","121.484688333333","24.991735","6500300","中和區"
"235046","733-UM","2018/06/15 17:59:26","新北市中和區員山路36巷13號","121.484271666667","24.9909733333333","6500300","中和區"
"235062","800-TS","2018/06/15 17:59:20","新北市中和區連城路469巷37號","121.483645","24.9945833333333","6500300","中和區"
"235052","805-TS","2018/06/15 17:59:30","新北市中和區員山路36巷13號","121.48436","24.9908133333333","6500300","中和區"
"235037","AAC-213","2018/06/15 17:59:32","新北市中和區錦和路350-1號","121.490063333333","24.993625","6500300","中和區"
"247014","546-UM","2018/06/15 17:59:29","新北市蘆洲區中正路351號","121.465471666667","25.08967","6501400","蘆洲區"
"247022","500-BY","2018/06/15 17:59:29","新北市蘆洲區中正路516巷5號","121.461703333333","25.0975016666667","6501400","蘆洲區"
"247006","336-TH","2018/06/15 17:59:36","新北市蘆洲區中華街6號","121.463486666667","25.0816216666667","6501400","蘆洲區"
"247018","057-VK","2018/06/15 17:59:34","新北市蘆洲區復興路201號","121.479631666667","25.0896616666667","6501400","蘆洲區"
"247016","007-UY","2018/06/15 17:59:22","新北市蘆洲區中正路185巷57號","121.465408333333","25.0837533333333","6501400","蘆洲區"
"247002","002-UY","2018/06/15 17:58:59","新北市蘆洲區永平街32巷57弄23號","121.458935","25.0930783333333","6501400","蘆洲區"
"247020","001-UY","2018/06/15 17:59:31","新北市蘆洲區民義街9巷9號","121.47104","25.0889616666667","6501400","蘆洲區"
"226004","312-R5","2018/06/15 17:59:28","新北市平溪區石底里石筍尖18號","121.730881666667","25.0259283333333","6502400","平溪區"
"228001","212-TW","2018/06/15 17:59:35","新北市貢寮區真理里新港街26巷50號","121.927791666667","25.0532333333333","6502600","貢寮區"
"228002","663-BX","2018/06/15 17:59:29","新北市貢寮區福連里香蘭街5號","121.974235","25.0243233333333","6502600","貢寮區"
"228003","828-UM","2018/06/15 17:59:20","新北市貢寮區真理里美艷山街6-2號","121.928841666667","25.060755","6502600","貢寮區"
"224010","AGQ-8101","2018/06/15 17:59:16","新北市瑞芳區金光路372號","121.848941666667","25.11102","6501200","瑞芳區"
"224006","676-BX","2018/06/15 17:59:27","新北市瑞芳區大寮路356-1號","121.785043333333","25.1032433333333","6501200","瑞芳區"
"224002","639-TC","2018/06/15 17:59:35","新北市瑞芳區三爪子坑路127號","121.8103","25.10689","6501200","瑞芳區"
"224008","285-BY","2018/06/15 17:59:32","新北市瑞芳區明燈路一段201巷105-1號","121.818793333333","25.10655","6501200","瑞芳區"
"224007","275-VK","2018/06/15 17:59:21","新北市瑞芳區大寮路39號","121.782226666667","25.0985","6501200","瑞芳區"
"224009","273-VK","2018/06/15 17:59:27","新北市瑞芳區山尖路191號","121.851288333333","25.1118516666667","6501200","瑞芳區"
"224005","271-BY","2018/06/15 17:59:22","新北市瑞芳區深澳路189-8號","121.821011666667","25.13432","6501200","瑞芳區"
"227003","642-TC","2018/06/15 17:59:26","新北市雙溪區共和里東榮街52號","121.866378333333","25.033675","6502500","雙溪區"
"253005","032-BX","2018/06/15 17:59:28","新北市石門區中山路62-7號","121.567326666667","25.2900216666667","6502200","石門區"
"253006","295-VK","2018/06/15 17:59:33","新北市石門區大丘田45-2號","121.549818333333","25.2748516666667","6502200","石門區"
"222001","KEA-2212","2018/06/15 17:59:19","新北市深坑區北深路三段28號","121.609235","25.0011966666667","6501800","深坑區"
"208002","KEA-2872","2018/06/15 17:59:24","新北市金山區三界壇路38號","121.625146666667","25.2285833333333","6502700","金山區"
"208003","665-BX","2018/06/15 17:59:21","新北市金山區磺港里磺港路306號","121.643885","25.22716","6502700","金山區"
"208001","761-BX","2018/06/15 17:59:18","新北市金山區磺港里青年路1號","121.640381666667","25.225295","6502700","金山區"
"251004","009-UM","2018/06/15 17:59:29","新北市淡水區民權路187號","121.459683333333","25.133535","6501000","淡水區"
"251002","012-UM","2018/06/15 17:59:25","新北市淡水區中正東路40號","121.4501","25.1651116666667","6501000","淡水區"
"251008","181-VK","2018/06/15 17:59:17","新北市淡水區八勢一街23號","121.461631666667","25.15634","6501000","淡水區"
"251010","413-VK","2018/06/15 17:59:20","新北市淡水區中正路一段87巷1號","121.421733333333","25.1791316666667","6501000","淡水區"
"251012","441-VK","2018/06/15 17:59:23","新北市淡水區北新路三段38巷7號","121.484513333333","25.1870283333333","6501000","淡水區"
"251007","442-VK","2018/06/15 17:59:22","新北市淡水區中正東路二段153號","121.459708333333","25.1465433333333","6501000","淡水區"
"251005","443-VK","2018/06/15 17:59:32","新北市淡水區英專路135號","121.446566666667","25.1727566666667","6501000","淡水區"
"251001","559-UM","2018/06/15 17:59:34","新北市淡水區民權路14號","121.463025","25.1246133333333","6501000","淡水區"
"251006","561-UM","2018/06/15 17:59:21","新北市淡水區真理街3號","121.438083333333","25.1731566666667","6501000","淡水區"
"251009","575-R6","2018/06/15 17:59:25","新北市淡水區大仁街6巷1號","121.442461666667","25.1746316666667","6501000","淡水區"
"251011","650-BX","2018/06/15 17:59:33","新北市淡水區三空泉6-3號","121.476996666667","25.1623116666667","6501000","淡水區"
"251003","766-UM","2018/06/15 17:59:34","新北市淡水區大忠街53號","121.444926666667","25.1765583333333","6501000","淡水區"
"207003","550-UM","2018/06/15 17:59:19","新北市萬里區港東路野柳風景區攤販66號","121.691318333333","25.2058633333333","6502800","萬里區"
"207004","225-TW","2018/06/15 17:59:21","新北市萬里區中幅里中福路48號","121.683341666667","25.17403","6502800","萬里區"
"252002","178-VK","2018/06/15 17:59:32","新北市三芝區中山路二段40號","121.503021666667","25.25511","6502100","三芝區"
"252001","292-VK","2018/06/15 17:59:18","新北市三芝區中興街二段2號","121.498456666667","25.2566333333333","6502100","三芝區"
"237007","153-BY","2018/06/15 17:59:21","新北市三峽區中園街207號","121.366995","24.920545","6500900","三峽區"
"237009","210-TH","2018/06/15 17:59:19","新北市三峽區中山路106巷18-1號","121.366113333333","24.9366616666667","6500900","三峽區"
"237013","252-BX","2018/06/15 17:59:29","新北市三峽區長泰街78巷16號","121.376788333333","24.933625","6500900","三峽區"
"237012","275-BY","2018/06/15 17:59:37","新北市三峽區民生街27巷28號","121.375911666667","24.93597","6500900","三峽區"
"237014","433-BY","2018/06/15 17:59:34","新北市三峽區和平街38-1號","121.370413333333","24.937275","6500900","三峽區"
"237006","5529-G3","2018/06/15 17:59:35","新北市三峽區介壽路二段136巷73號","121.392413333333","24.9323233333333","6500900","三峽區"
"237015","649-BX","2018/06/15 17:59:35","新北市三峽區紫微路109號","121.408063333333","24.911345","6500900","三峽區"
"237010","706-TV","2018/06/15 17:59:20","新北市三峽區民權街200號","121.36766","24.9292","6500900","三峽區"
"237011","760-BX","2018/06/15 17:59:32","新北市三峽區光明路49號","121.375256666667","24.9291616666667","6500900","三峽區"
"237005","AKY-6261","2018/06/15 17:59:36","新北市三峽區復興路235號","121.368481666667","24.9388766666667","6500900","三峽區"
"236069","105-UM","2018/06/15 17:59:27","新北市土城區城林路6巷80號","121.438263333333","24.9798316666667","6501300","土城區"
"236042","107-UM","2018/06/15 17:59:21","新北市土城區城林路6巷80號","121.438611666667","24.979715","6501300","土城區"
"236079","166-UM","2018/06/15 17:59:33","新北市土城區永寧路32巷10弄21號","121.428971666667","24.9610466666667","6501300","土城區"
"236030","253-BX","2018/06/15 17:59:33","新北市土城區城林路6巷80號","121.438693333333","24.9796633333333","6501300","土城區"
"236026","269-VK","2018/06/15 17:59:32","新北市土城區承天路67號","121.43952","24.96353","6501300","土城區"
"236014","270-VK","2018/06/15 17:59:31","新北市土城區城林路6巷80號","121.438508333333","24.9795666666667","6501300","土城區"
"236039","271-VK","2018/06/15 17:59:27","新北市土城區城林路6巷80號","121.438533333333","24.9795566666667","6501300","土城區"
"236020","401-BY","2018/06/15 17:59:36","新北市土城區城林路6巷80號","121.438786666667","24.979615","6501300","土城區"
"236059","752-BX","2018/06/15 17:59:14","新北市土城區中央路三段198-1號","121.430268333333","24.9648166666667","6501300","土城區"
"236048","913-UM","2018/06/15 17:59:32","新北市土城區城林路6巷80號","121.438655","24.97969","6501300","土城區"
"236063","915-UM","2018/06/15 17:59:23","新北市土城區城林路6巷80號","121.438538333333","24.9797533333333","6501300","土城區"
"236055","AAC-216","2018/06/15 17:59:34","新北市土城區城林路6巷80號","121.43845","24.9796383333333","6501300","土城區"
"242034","AAC-296","2018/06/15 17:59:24","新北市新莊區景德路532號","121.443893333333","25.0332333333333","6500500","新莊區"
"242058","986-R7","2018/06/15 17:59:34","新北市新莊區雙鳳路134巷24號","121.412761666667","25.02835","6500500","新莊區"
"242054","751-BX","2018/06/15 17:59:21","新北市新莊區民安西路415巷7號","121.430725","25.0093083333333","6500500","新莊區"
"242027","615-BX","2018/06/15 17:59:30","新北市新莊區思源路455號","121.459931666667","25.0534283333333","6500500","新莊區"
"242025","613-BX","2018/06/15 17:59:35","新北市新莊區五工路58號","121.458791666667","25.0629316666667","6500500","新莊區"
"242029","612-BX","2018/06/15 17:59:33","新北市新莊區中平路83號","121.444743333333","25.045485","6500500","新莊區"
"242042","566-BX","2018/06/15 17:59:20","新北市新莊區中正路614巷4弄2號","121.425831666667","25.030525","6500500","新莊區"
"242046","497-BY","2018/06/15 17:59:21","新北市新莊區福營路165巷43號","121.43295","25.030015","6500500","新莊區"
"242050","441-UM","2018/06/15 17:59:34","新北市新莊區西盛街153巷8號","121.428726666667","25.0180216666667","6500500","新莊區"
"242056","440-UM","2018/06/15 17:59:37","新北市新莊區豐年街124巷18號","121.445511666667","25.0299016666667","6500500","新莊區"
"242037","415-TV","2018/06/15 17:59:21","新北市新莊區建福路44號","121.426666666667","25.0277933333333","6500500","新莊區"
"242007","413-TV","2018/06/15 17:59:31","新北市新莊區自信街28號","121.454255","25.0481783333333","6500500","新莊區"
"242044","400-BY","2018/06/15 17:59:27","新北市新莊區雙鳳路170號","121.412705","25.0268783333333","6500500","新莊區"
"242023","362-BY","2018/06/15 17:59:34","新北市新莊區幸福路577號","121.453933333333","25.0492216666667","6500500","新莊區"
"242060","353-BY","2018/06/15 17:59:26","新北市新莊區新樹路541號","121.432863333333","25.0082","6500500","新莊區"
"242009","132-UY","2018/06/15 17:59:24","新北市新莊區中原路189-1號","121.45236","25.0543583333333","6500500","新莊區"
"242039","133-UY","2018/06/15 17:59:25","新北市新莊區民安西路1號","121.426493333333","25.0219316666667","6500500","新莊區"
"242048","172-VK","2018/06/15 17:59:20","新北市新莊區萬安街34號","121.421301666667","25.0242616666667","6500500","新莊區"
"242017","175-VK","2018/06/15 17:59:30","新北市新莊區永樂街156號","121.448978333333","25.0448133333333","6500500","新莊區"
"242005","176-VK","2018/06/15 17:59:21","新北市新莊區福樂街71巷13號","121.456813333333","25.0474","6500500","新莊區"
"242015","346-TH","2018/06/15 17:59:19","新北市新莊區中平路124號","121.444891666667","25.0464983333333","6500500","新莊區"
"242032","347-TH","2018/06/15 17:59:30","新北市新莊區新泰路357巷1弄41號","121.442646666667","25.03993","6500500","新莊區"
"242021","348-TH","2018/06/15 17:59:39","新北市新莊區中正路245號","121.450148333333","25.0355816666667","6500500","新莊區"
"242019","350-TH","2018/06/15 17:59:20","新北市新莊區明中街45-2號","121.457488333333","25.0393066666667","6500500","新莊區"
"242013","351-TH","2018/06/15 17:59:18","新北市新莊區中和街125巷8號","121.447051666667","25.048595","6500500","新莊區"
"238015","755-BX","2018/06/15 17:59:31","新北市樹林區啟智街80巷8號","121.418978333333","24.992315","6500700","樹林區"
"238023","601-UM","2018/06/15 17:59:35","新北市樹林區福興街40號","121.403958333333","25.0152433333333","6500700","樹林區"
"238019","599-UM","2018/06/15 17:59:31","新北市樹林區國凱街112號","121.421761666667","24.9796","6500700","樹林區"
"238018","571-TV","2018/06/15 17:59:18","新北市樹林區中正路7-1號","121.430273333333","24.997605","6500700","樹林區"
"238022","KEA-2213","2018/06/15 17:59:39","新北市樹林區太順街51巷1號","121.417603333333","24.9791133333333","6500700","樹林區"
"238021","KEA-2539","2018/06/15 17:59:18","新北市樹林區柑園街一段112號","121.40058","24.9587833333333","6500700","樹林區"
"238025","303-VK","2018/06/15 17:59:32","新北市樹林區俊興街193號","121.417261666667","25.0134133333333","6500700","樹林區"
"238017","283-BY","2018/06/15 17:59:20","新北市樹林區俊德街36號","121.415203333333","25.0141016666667","6500700","樹林區"
"238014","282-BY","2018/06/15 17:59:21","新北市樹林區中正路89號","121.425868333333","25.0005033333333","6500700","樹林區"
"238020","268-VK","2018/06/15 17:59:37","新北市樹林區三俊街201號","121.420103333333","25.0155833333333","6500700","樹林區"
"238026","172-UY","2018/06/15 17:59:33","新北市樹林區佳園路一段22-3號","121.392716666667","24.9714266666667","6500700","樹林區"
"238016","169-UY","2018/06/15 17:59:34","新北市樹林區育英街135巷1弄1號","121.419693333333","24.9891633333333","6500700","樹林區"
"239006","891-R6","2018/06/15 17:59:36","新北市鶯歌區鶯桃路457號","121.332095","24.9657016666667","6500800","鶯歌區"
"239008","527-UM","2018/06/15 17:59:28","新北市鶯歌區香賓街9巷9號","121.33633","24.9791733333333","6500800","鶯歌區"
"239005","526-UM","2018/06/15 17:59:27","新北市鶯歌區鶯桃路668巷74-1號","121.329975","24.9718166666667","6500800","鶯歌區"
"239001","417-VK","2018/06/15 17:59:25","新北市鶯歌區中正三路17號","121.339268333333","24.942695","6500800","鶯歌區"
"239003","360-BY","2018/06/15 17:59:38","新北市鶯歌區永吉街61號","121.335313333333","24.9567533333333","6500800","鶯歌區"
"239002","359-BY","2018/06/15 17:59:29","新北市鶯歌區育英街17巷1弄3號","121.347581666667","24.9552616666667","6500800","鶯歌區"
"239004","193-VK","2018/06/15 17:59:33","新北市鶯歌區尖山路101巷13-1號","121.346586666667","24.9426366666667","6500800","鶯歌區"
"221008","489-VK","2018/06/15 17:59:37","新北市汐止區明峰街20號","121.634563333333","25.0714516666667","6501100","汐止區"
"221036","130-UY","2018/06/15 17:59:20","新北市汐止區大同路三段62巷1號","121.667726666667","25.0771566666667","6501100","汐止區"
"221015","131-UY","2018/06/15 17:59:20","新北市汐止區長江街347號","121.667338333333","25.0820783333333","6501100","汐止區"
"221010","269-BY","2018/06/15 17:59:21","新北市汐止區汐萬路二段245巷17號","121.64505","25.087515","6501100","汐止區"
"221012","278-VK","2018/06/15 17:59:22","新北市汐止區長興街二段50巷1號","121.674083333333","25.0817733333333","6501100","汐止區"
"221023","279-VK","2018/06/15 17:59:31","新北市汐止區民族六街1巷1號","121.629123333333","25.0708","6501100","汐止區"
"221032","280-BY","2018/06/15 17:59:18","新北市汐止區民權街一段16號","121.62128","25.0534283333333","6501100","汐止區"
"221027","281-BY","2018/06/15 17:59:36","新北市汐止區大同路二段374號","121.657881666667","25.0672","6501100","汐止區"
"221029","298-VK","2018/06/15 17:59:34","新北市汐止區樟樹二路251巷46號","121.640505","25.0671583333333","6501100","汐止區"
"221021","299-VK","2018/06/15 17:59:27","新北市汐止區新興路14號","121.656335","25.0647266666667","6501100","汐止區"
"221031","353-TW","2018/06/15 17:59:22","新北市汐止區中興路194號","121.631475","25.0658716666667","6501100","汐止區"
"221035","622-UM","2018/06/15 17:59:32","新北市汐止區汐萬路一段167號","121.652753333333","25.070935","6501100","汐止區"
"221025","623-UM","2018/06/15 17:59:28","新北市汐止區仁愛路19號","121.659228333333","25.0638966666667","6501100","汐止區"
"221038","646-BX","2018/06/15 17:59:28","新北市汐止區連興街128巷7弄7號","121.653585","25.061325","6501100","汐止區"
"221033","647-BX","2018/06/15 17:59:25","新北市汐止區合順街27號","121.620301666667","25.0432616666667","6501100","汐止區"
"221002","707-TV","2018/06/15 17:59:29","新北市汐止區中興路31號","121.634828333333","25.0618933333333","6501100","汐止區"
"221018","753-BX","2018/06/15 17:59:36","新北市汐止區招商街11巷1號","121.666533333333","25.0689083333333","6501100","汐止區"
"242002","KEA-2550","2018/06/15 17:59:27","新北市新莊區大觀街42巷12號","121.454461666667","25.0360466666667","6500500","新莊區"
"235061","KEA-2875","2018/06/15 17:59:33","新北市中和區員山路36巷16-2號","121.485231666667","24.9917716666667","6500300","中和區"
