"lineid","car","time","location","longitude","latitude","cityid","cityname"
"234007","207-UY","2018/06/15 18:19:29","新北市永和區文化路234號","121.50967","25.0172516666667","6500400","永和區"
"234084","338-UY","2018/06/15 18:19:31","新北市永和區福和路1號","121.526476666667","25.0098033333333","6500400","永和區"
"234013","KEA-2591","2018/06/15 18:19:34","新北市永和區福和路1號","121.52631","25.0095333333333","6500400","永和區"
"234042","862-TW","2018/06/15 18:19:33","新北市永和區福和路1號","121.526523333333","25.0097683333333","6500400","永和區"
"234026","9371-KE","2018/06/15 18:19:33","新北市永和區豫溪街44號","121.515628333333","25.0097633333333","6500400","永和區"
"234011","9373-KE","2018/06/15 18:19:33","新北市永和區保安路46號","121.510358333333","25.0168716666667","6500400","永和區"
"249005","172-UM","2018/06/15 18:19:24","新北市八里區荖阡坑路15-30號","121.400393333333","25.1405816666667","6502300","八里區"
"249001","173-UM","2018/06/15 18:19:24","新北市八里區龍米路一段129號","121.452203333333","25.12669","6502300","八里區"
"249004","303-UY","2018/06/15 18:19:17","新北市八里區龍米路二段232巷1弄1號","121.431123333333","25.159135","6502300","八里區"
"249002","305-UY","2018/06/15 18:18:39","新北市八里區龍形三街6巷10號","121.449836666667","25.1326766666667","6502300","八里區"
"248014","025-BX","2018/06/15 18:19:23","新北市五股區成泰路一段130-1號","121.435193333333","25.0750466666667","6501500","五股區"
"248016","026-BX","2018/06/15 18:19:24","新北市五股區西雲路290號","121.449633333333","25.0991866666667","6501500","五股區"
"248006","077-UY","2018/06/15 18:19:24","新北市五股區中興路一段164-1號","121.464091666667","25.0739366666667","6501500","五股區"
"248008","095-VK","2018/06/15 18:19:21","新北市五股區更洲路32巷8弄14號","121.459218333333","25.07963","6501500","五股區"
"248018","225-UY","2018/06/15 18:19:18","新北市五股區御史路120-1號","121.437025","25.09666","6501500","五股區"
"248012","247-BX","2018/06/15 18:19:29","新北市五股區御史路1巷101弄2號","121.441031666667","25.0911916666667","6501500","五股區"
"248010","272-BY","2018/06/15 18:19:35","新北市五股區成泰路一段189巷20-2號","121.433305","25.07688","6501500","五股區"
"248004","677-BX","2018/06/15 18:19:25","新北市五股區成泰路二段101號","121.43824","25.084215","6501500","五股區"
"248002","678-BX","2018/06/15 18:19:26","新北市五股區西雲路68號","121.443636666667","25.0916633333333","6501500","五股區"
"244013","069-UM","2018/06/15 18:19:23","新北市林口區中山路156號","121.39087","25.0787683333333","6501700","林口區"
"244007","080-UY","2018/06/15 18:19:38","新北市林口區林口路84號","121.389035","25.0808716666667","6501700","林口區"
"244019","403-UM","2018/06/15 18:19:21","新北市林口區麗園路54號","121.373741666667","25.0696433333333","6501700","林口區"
"244023","483-VK","2018/06/15 18:19:29","新北市林口區吉林街11號","121.384463333333","25.0762","6501700","林口區"
"244017","485-VK","2018/06/15 18:19:34","新北市林口區八德路1號","121.36794","25.0668716666667","6501700","林口區"
"244009","656-BX","2018/06/15 18:19:20","新北市林口區文林一街85號","121.37782","25.087265","6501700","林口區"
"244011","657-BX","2018/06/15 18:19:28","新北市林口區中正路74巷5弄2號","121.394578333333","25.0779983333333","6501700","林口區"
"244025","837-TS","2018/06/15 18:19:22","新北市林口區南勢七街5號","121.354975","25.0693116666667","6501700","林口區"
"244021","838-TS","2018/06/15 18:19:24","新北市林口區自強一街4號","121.397658333333","25.0785983333333","6501700","林口區"
"243013","AAD-798","2018/06/15 18:19:25","新北市泰山區致遠新村55-1號","121.416486666667","25.04241","6501600","泰山區"
"222003","436-BY","2018/06/15 18:19:28","新北市深坑區旺耽路67號","121.626296666667","25.003025","6501800","深坑區"
"222002","659-BX","2018/06/15 18:19:30","新北市深坑區雲鄉路3-1號","121.621005","25.000165","6501800","深坑區"
"231041","002-UM","2018/06/15 18:19:32","新北市新店區安華路28-1號","121.519626666667","24.9609366666667","6500600","新店區"
"231059","046-UY","2018/06/15 18:19:33","新北市新店區安一路一段1-1號","121.5196","24.9610366666667","6500600","新店區"
"231040","047-UY","2018/06/15 18:19:33","新北市新店區安華路28-1號","121.519118333333","24.9608716666667","6500600","新店區"
"231044","106-UY","2018/06/15 18:19:35","新北市新店區安華路28-1號","121.51963","24.9607666666667","6500600","新店區"
"231053","108-UY","2018/06/15 18:19:22","新北市新店區秀山路72號","121.53139","24.9608166666667","6500600","新店區"
"231048","187-VK","2018/06/15 18:19:31","新北市新店區安一路一段1-1號","121.519566666667","24.9611666666667","6500600","新店區"
"231046","188-VK","2018/06/15 18:19:35","新北市新店區直潭七街60號","121.532288333333","24.9399516666667","6500600","新店區"
"231054","KEA-2219","2018/06/15 18:19:25","新北市新店區安一路一段1-1號","121.519998333333","24.9610983333333","6500600","新店區"
"231057","256-BX","2018/06/15 18:19:33","新北市新店區安一路一段1-1號","121.519635","24.9610833333333","6500600","新店區"
"231042","268-BY","2018/06/15 18:19:23","新北市新店區安華路28-1號","121.519373333333","24.9606666666667","6500600","新店區"
"231051","278-BY","2018/06/15 18:19:23","新北市新店區安華路28-1號","121.519531666667","24.960725","6500600","新店區"
"231050","AAD-862","2018/06/15 18:19:34","新北市新店區安華路28-1號","121.519886666667","24.9610066666667","6500600","新店區"
"231058","3713-VJ","2018/06/15 18:19:33","新北市新店區安康路一段9-2號","121.533796666667","24.9605266666667","6500600","新店區"
"231066","4716-K9","2018/06/15 18:19:27","新北市新店區安一路一段1-1號","121.519276666667","24.9611683333333","6500600","新店區"
"231056","4715-K9","2018/06/15 18:19:37","新北市新店區中央路59號","121.53274","24.977355","6500600","新店區"
"231067","4772-VM","2018/06/15 18:19:28","新北市新店區安華路1-1號","121.51916","24.96058","6500600","新店區"
"231065","512-UM","2018/06/15 18:19:37","新北市新店區安華路28-1號","121.519448333333","24.96099","6500600","新店區"
"231049","513-UM","2018/06/15 18:19:22","新北市新店區安一路一段1-1號","121.519723333333","24.96121","6500600","新店區"
"231045","617-UM","2018/06/15 18:19:20","新北市新店區安華路28-1號","121.519375","24.9609366666667","6500600","新店區"
"231061","619-UM","2018/06/15 18:19:18","新北市新店區安華路28-1號","121.519576666667","24.96062","6500600","新店區"
"231062","720-UM","2018/06/15 18:19:22","新北市新店區安一路一段1-1號","121.519191666667","24.96112","6500600","新店區"
"231060","897-TW","2018/06/15 18:19:29","新北市新店區安華路28-1號","121.519713333333","24.96085","6500600","新店區"
"231055","AKT-0513","2018/06/15 18:19:30","新北市新店區安康路一段3-1號","121.535561666667","24.9609883333333","6500600","新店區"
"241033","AAC-255","2018/06/15 18:19:25","新北市三重區中興北街42巷22號","121.4689","25.04928","6500200","三重區"
"235064","005-UY","2018/06/15 18:19:22","新北市中和區圓通路145巷9弄2號","121.498046666667","24.994955","6500300","中和區"
"235027","006-UY","2018/06/15 18:19:17","新北市中和區中正路585號","121.48594","24.99456","6500300","中和區"
"235056","096-UM","2018/06/15 18:19:28","新北市中和區新生街7號","121.483175","25.0045183333333","6500300","中和區"
"235039","097-UM","2018/06/15 18:19:36","新北市中和區中正路25號","121.502305","24.9933883333333","6500300","中和區"
"235065","098-UM","2018/06/15 18:19:19","新北市中和區莊敬路49巷18號","121.501821666667","25.0060683333333","6500300","中和區"
"235040","150-BY","2018/06/15 18:19:32","新北市中和區景平路385巷9弄41號","121.501921666667","24.99392","6500300","中和區"
"235058","151-BY","2018/06/15 18:19:30","新北市中和區圓通路367巷40號","121.49205","24.9884466666667","6500300","中和區"
"235055","183-VK","2018/06/15 18:19:25","新北市中和區中正路637巷52弄1號","121.48545","24.9933783333333","6500300","中和區"
"235038","185-VK","2018/06/15 18:19:29","新北市中和區自立路48號","121.523081666667","24.99224","6500300","中和區"
"235049","186-VK","2018/06/15 18:19:39","新北市中和區中正路637巷52弄1號","121.485556666667","24.9935916666667","6500300","中和區"
"235043","352-BY","2018/06/15 18:19:19","新北市中和區中正路46號","121.502176666667","24.9936066666667","6500300","中和區"
"235050","4979-A6","2018/06/15 18:19:27","新北市中和區捷運路61巷9號","121.509221666667","24.989365","6500300","中和區"
"235069","4980-A6","2018/06/15 18:19:30","新北市中和區景平路517號","121.499195","24.998785","6500300","中和區"
"235042","551-UM","2018/06/15 18:19:01","新北市中和區景平路127號","121.514998333333","24.9924233333333","6500300","中和區"
"235070","558-UM","2018/06/15 18:19:26","新北市中和區圓通路122號","121.498826666667","24.9958466666667","6500300","中和區"
"235045","565-BX","2018/06/15 18:19:32","新北市中和區景安路200巷4弄1號","121.503456666667","24.9916283333333","6500300","中和區"
"235054","640-BX","2018/06/15 18:19:20","新北市中和區民享街86巷26號","121.473383333333","25.0006716666667","6500300","中和區"
"235060","647-TV","2018/06/15 18:19:32","新北市中和區員山路291號","121.481243333333","24.9998716666667","6500300","中和區"
"235047","732-UM","2018/06/15 18:19:32","新北市中和區南山路523-1號","121.507936666667","24.9872","6500300","中和區"
"235046","733-UM","2018/06/15 18:19:26","新北市中和區員山路36巷13號","121.484138333333","24.991065","6500300","中和區"
"235062","800-TS","2018/06/15 18:19:24","新北市中和區景平路989巷11號","121.495626666667","25.0052666666667","6500300","中和區"
"235057","801-TS","2018/06/15 18:19:38","新北市中和區民安街148號","121.47767","24.999795","6500300","中和區"
"235041","802-TS","2018/06/15 18:19:33","新北市中和區中正路395號","121.489848333333","24.9935566666667","6500300","中和區"
"235052","805-TS","2018/06/15 18:19:38","新北市中和區興南路二段133號","121.505298333333","24.98408","6500300","中和區"
"235048","896-TW","2018/06/15 18:19:29","新北市中和區錦和路350-1號","121.490408333333","24.9936433333333","6500300","中和區"
"235053","900-TW","2018/06/15 18:19:18","新北市中和區中正路637巷52弄1號","121.485461666667","24.993455","6500300","中和區"
"235051","157-BY","2018/06/15 18:19:32","新北市中和區捷運路61巷28號","121.509225","24.98931","6500300","中和區"
"235037","AAC-213","2018/06/15 18:19:32","新北市中和區景德街61號","121.517178333333","24.9914366666667","6500300","中和區"
"226004","312-R5","2018/06/15 18:19:28","新北市平溪區靜安路二段56號","121.715006666667","25.02066","6502400","平溪區"
"235066","251-BX","2018/06/15 18:19:27","新北市中和區中山路二段122號","121.502668333333","25.0036233333333","6500300","中和區"
"228001","212-TW","2018/06/15 18:19:35","新北市貢寮區真理里新港街26巷55弄2-1號","121.927395","25.0528766666667","6502600","貢寮區"
"228002","663-BX","2018/06/15 18:19:29","新北市貢寮區福連里福興街24-1號","121.99115","25.0120666666667","6502600","貢寮區"
"228003","828-UM","2018/06/15 18:19:20","新北市貢寮區真理里美艷山街64-2號","121.920125","25.0722983333333","6502600","貢寮區"
"224010","AGQ-8101","2018/06/15 17:59:36","新北市瑞芳區烏勢巷145號","121.847566666667","25.1091683333333","6501200","瑞芳區"
"224006","676-BX","2018/06/15 18:19:38","新北市瑞芳區三爪子坑路106巷182號","121.809021666667","25.1035083333333","6501200","瑞芳區"
"224002","639-TC","2018/06/15 18:19:35","新北市瑞芳區三爪子坑路91巷7號","121.811671666667","25.1071333333333","6501200","瑞芳區"
"224008","285-BY","2018/06/15 18:19:29","新北市瑞芳區逢甲路15號","121.809656666667","25.108535","6501200","瑞芳區"
"224007","275-VK","2018/06/15 18:19:21","新北市瑞芳區大埔路23巷20號","121.764651666667","25.1014683333333","6501200","瑞芳區"
"224009","273-VK","2018/06/15 18:19:27","新北市瑞芳區五號路5-4號","121.854781666667","25.10902","6501200","瑞芳區"
"224005","271-BY","2018/06/15 18:19:33","新北市瑞芳區台電新村136號","121.811385","25.1278666666667","6501200","瑞芳區"
"227003","642-TC","2018/06/15 18:19:26","新北市雙溪區共和里中山路2號","121.863795","25.0338033333333","6502500","雙溪區"
"227011","400-TW","2018/06/15 18:19:32","新北市雙溪區牡丹里牡丹73號","121.851701666667","25.0593666666667","6502500","雙溪區"
"253005","032-BX","2018/06/15 18:19:28","新北市石門區中央路22號","121.567853333333","25.29263","6502200","石門區"
"253006","295-VK","2018/06/15 18:19:33","新北市石門區老梅路83號","121.546386666667","25.28919","6502200","石門區"
"222001","KEA-2212","2018/06/15 18:19:19","新北市深坑區北深路二段66號","121.619008333333","25.0041833333333","6501800","深坑區"
"208002","KEA-2872","2018/06/15 18:19:24","新北市金山區清泉里清水路60巷18號","121.634378333333","25.2318666666667","6502700","金山區"
"208003","665-BX","2018/06/15 18:19:21","新北市金山區民生路31號","121.64322","25.221245","6502700","金山區"
"208001","761-BX","2018/06/15 18:19:18","新北市金山區自強路13號","121.64041","25.2164383333333","6502700","金山區"
"251004","009-UM","2018/06/15 18:19:29","新北市淡水區民族路51號","121.46281","25.1352566666667","6501000","淡水區"
"251002","012-UM","2018/06/15 18:19:36","新北市淡水區中正東路一段77號","121.452758333333","25.1621816666667","6501000","淡水區"
"251008","181-VK","2018/06/15 18:19:23","新北市淡水區水源街二段346巷1弄1號","121.464243333333","25.17549","6501000","淡水區"
"251010","413-VK","2018/06/15 18:19:20","新北市淡水區淡海路188號","121.420455","25.18493","6501000","淡水區"
"251012","441-VK","2018/06/15 18:19:23","新北市淡水區北新路二段77-5號","121.480505","25.1855483333333","6501000","淡水區"
"251005","443-VK","2018/06/15 18:19:32","新北市淡水區水源街一段122巷40號","121.447008333333","25.170505","6501000","淡水區"
"251001","559-UM","2018/06/15 18:19:34","新北市淡水區自強路299號","121.46158","25.1314366666667","6501000","淡水區"
"251006","561-UM","2018/06/15 18:19:21","新北市淡水區新民街30號","121.439691666667","25.175865","6501000","淡水區"
"251009","575-R6","2018/06/15 18:19:25","新北市淡水區中山北路三段116號","121.443816666667","25.19332","6501000","淡水區"
"251011","650-BX","2018/06/15 18:19:27","新北市淡水區坪頂路51巷2號","121.458133333333","25.1625583333333","6501000","淡水區"
"251003","766-UM","2018/06/15 18:19:34","新北市淡水區北新路180號","121.44948","25.1787666666667","6501000","淡水區"
"207003","550-UM","2018/06/15 18:19:26","新北市萬里區野柳里港東路62號","121.68771","25.2038416666667","6502800","萬里區"
"207004","225-TW","2018/06/15 18:19:21","新北市萬里區崁腳里內中福路1-1號","121.671246666667","25.16544","6502800","萬里區"
"252002","178-VK","2018/06/15 18:19:32","新北市三芝區中山路二段38號","121.503","25.2551266666667","6502100","三芝區"
"252003","249-BX","2018/06/15 18:19:21","新北市三芝區錫板里南勢崗5-5號","121.480771666667","25.2631783333333","6502100","三芝區"
"252001","292-VK","2018/06/15 18:19:38","新北市三芝區中興街二段2號","121.498526666667","25.256745","6502100","三芝區"
"237007","153-BY","2018/06/15 18:19:21","新北市三峽區中正路三段70巷18號","121.355818333333","24.9046416666667","6500900","三峽區"
"237009","210-TH","2018/06/15 18:19:39","新北市三峽區中山路117號","121.365558333333","24.9359116666667","6500900","三峽區"
"237013","252-BX","2018/06/15 18:19:29","新北市三峽區大同路18號","121.377585","24.9296283333333","6500900","三峽區"
"237012","275-BY","2018/06/15 18:19:37","新北市三峽區民生街1巷3-5號","121.377081666667","24.9363783333333","6500900","三峽區"
"237008","302-VK","2018/06/15 18:19:19","新北市三峽區白雞68-159號","121.39016","24.9086033333333","6500900","三峽區"
"237014","433-BY","2018/06/15 18:19:34","新北市三峽區文化路1號","121.37339","24.9353633333333","6500900","三峽區"
"237006","5529-G3","2018/06/15 18:19:35","新北市三峽區溪東路145號","121.40276","24.9342116666667","6500900","三峽區"
"237015","649-BX","2018/06/15 18:19:35","新北市三峽區紫新路16巷6號","121.423635","24.9203366666667","6500900","三峽區"
"237010","706-TV","2018/06/15 18:19:20","新北市三峽區中山路236號","121.362463333333","24.9374083333333","6500900","三峽區"
"237011","760-BX","2018/06/15 18:19:32","新北市三峽區介壽路二段140號","121.394335","24.9358666666667","6500900","三峽區"
"237005","AKY-6261","2018/06/15 18:19:21","新北市三峽區秀川街72號","121.370916666667","24.9337983333333","6500900","三峽區"
"236069","105-UM","2018/06/15 18:19:27","新北市土城區永豐路153巷5號","121.467335","24.98231","6501300","土城區"
"236042","107-UM","2018/06/15 18:19:22","新北市土城區樂利街3巷15號","121.448508333333","24.986495","6501300","土城區"
"236079","166-UM","2018/06/15 18:19:34","新北市土城區中央路三段281巷21號","121.425758333333","24.9622316666667","6501300","土城區"
"236030","253-BX","2018/06/15 18:19:33","新北市土城區順風路44號","121.440416666667","24.9769533333333","6501300","土城區"
"236026","269-VK","2018/06/15 18:19:32","新北市土城區承天路69-1號","121.43999","24.96319","6501300","土城區"
"236014","270-VK","2018/06/15 18:19:31","新北市土城區青雲路39巷7號","121.46032","24.987545","6501300","土城區"
"236039","271-VK","2018/06/15 18:19:27","新北市土城區青雲路451巷8弄11號","121.459586666667","24.9742933333333","6501300","土城區"
"236020","401-BY","2018/06/15 18:19:36","新北市土城區明德路一段385-1號","121.452253333333","24.9803066666667","6501300","土城區"
"236059","752-BX","2018/06/15 18:19:34","新北市土城區中央路四段466號","121.409945","24.9506383333333","6501300","土城區"
"236048","913-UM","2018/06/15 18:19:33","新北市土城區明德路一段361-3號","121.456243333333","24.9777266666667","6501300","土城區"
"236063","915-UM","2018/06/15 18:19:23","新北市土城區金城路三段193-1號","121.470015","24.9889516666667","6501300","土城區"
"236055","AAC-216","2018/06/15 18:19:35","新北市土城區中華路二段96號","121.438166666667","24.974505","6501300","土城區"
"242034","AAC-296","2018/06/15 18:19:24","新北市新莊區新泰路51號","121.449388333333","25.0338033333333","6500500","新莊區"
"242058","986-R7","2018/06/15 18:19:32","新北市新莊區中山路三段619號","121.413003333333","25.0252983333333","6500500","新莊區"
"242054","751-BX","2018/06/15 18:19:21","新北市新莊區民安西路325號","121.42763","25.0110666666667","6500500","新莊區"
"242027","615-BX","2018/06/15 18:19:30","新北市新莊區幸福路751號","121.448333333333","25.0490283333333","6500500","新莊區"
"242025","613-BX","2018/06/15 18:19:35","新北市新莊區五工三路97號","121.458028333333","25.0653416666667","6500500","新莊區"
"242042","566-BX","2018/06/15 18:19:32","新北市新莊區新北大道七段221號","121.413766666667","25.029695","6500500","新莊區"
"242046","497-BY","2018/06/15 18:19:21","新北市新莊區福營路385-1號","121.422606666667","25.0273933333333","6500500","新莊區"
"242050","441-UM","2018/06/15 18:19:34","新北市新莊區新樹路206巷4號","121.4336","25.02039","6500500","新莊區"
"242056","440-UM","2018/06/15 18:19:37","新北市新莊區瓊林路13-3號","121.448908333333","25.030865","6500500","新莊區"
"242037","415-TV","2018/06/15 18:19:21","新北市新莊區後港一路49巷1弄16號","121.425158333333","25.0264716666667","6500500","新莊區"
"242007","413-TV","2018/06/15 18:19:31","新北市新莊區中港一街127號","121.448351666667","25.0450666666667","6500500","新莊區"
"242044","400-BY","2018/06/15 18:19:27","新北市新莊區中山路三段551號","121.412321666667","25.0269133333333","6500500","新莊區"
"242060","353-BY","2018/06/15 18:19:34","新北市新莊區新樹路181號","121.436375","25.0247783333333","6500500","新莊區"
"242009","132-UY","2018/06/15 18:19:24","新北市新莊區幸福路600號","121.453023333333","25.0493483333333","6500500","新莊區"
"242039","133-UY","2018/06/15 18:19:25","新北市新莊區新樹路222號","121.433646666667","25.02032","6500500","新莊區"
"242048","172-VK","2018/06/15 18:19:20","新北市新莊區富國路87號","121.420481666667","25.0259683333333","6500500","新莊區"
"242015","346-TH","2018/06/15 18:19:01","新北市新莊區中平路152巷28-1號","121.445936666667","25.0469","6500500","新莊區"
"242032","347-TH","2018/06/15 18:19:26","新北市新莊區新泰路255巷1號","121.445958333333","25.0397133333333","6500500","新莊區"
"242021","348-TH","2018/06/15 18:19:29","新北市新莊區新興街14號","121.450746666667","25.0361633333333","6500500","新莊區"
"242019","350-TH","2018/06/15 18:19:19","新北市新莊區公園路2-1號","121.447255","25.0385283333333","6500500","新莊區"
"238015","755-BX","2018/06/15 18:19:31","新北市樹林區文化街112巷6號","121.417083333333","24.9902533333333","6500700","樹林區"
"238023","601-UM","2018/06/15 18:19:38","新北市樹林區忠信街18號","121.407833333333","25.01531","6500700","樹林區"
"238019","599-UM","2018/06/15 18:19:33","新北市樹林區國凱街136巷22號","121.423606666667","24.9797016666667","6500700","樹林區"
"238018","571-TV","2018/06/15 18:19:18","新北市樹林區保安街一段20巷4號","121.427686666667","24.9935883333333","6500700","樹林區"
"238024","5061-A6","2018/06/15 18:19:24","新北市樹林區中山路一段155-2號","121.422218333333","24.9886816666667","6500700","樹林區"
"238025","303-VK","2018/06/15 18:19:32","新北市樹林區保安街一段328號","121.41824","24.9977333333333","6500700","樹林區"
"238017","283-BY","2018/06/15 18:19:24","新北市樹林區中正路500號","121.412153333333","25.0133733333333","6500700","樹林區"
"238014","282-BY","2018/06/15 18:19:21","新北市樹林區大安路111巷6號","121.423115","24.997485","6500700","樹林區"
"238020","268-VK","2018/06/15 18:19:37","新北市樹林區三俊街65巷38號","121.4134","25.01778","6500700","樹林區"
"238026","172-UY","2018/06/15 18:19:33","新北市樹林區佳園路一段75巷10-1號","121.395761666667","24.9706283333333","6500700","樹林區"
"238016","169-UY","2018/06/15 18:19:34","新北市樹林區文化街28號","121.41941","24.9877533333333","6500700","樹林區"
"239007","AAC-297","2018/06/15 18:19:23","新北市鶯歌區重慶街69-1號","121.34902","24.9518616666667","6500800","鶯歌區"
"239006","891-R6","2018/06/15 18:19:36","新北市鶯歌區鶯桃路263號","121.334796666667","24.95966","6500800","鶯歌區"
"239008","527-UM","2018/06/15 18:19:37","新北市鶯歌區朝陽街2號","121.33622","24.976565","6500800","鶯歌區"
"239005","526-UM","2018/06/15 18:19:27","新北市鶯歌區鳳吉三街25號","121.327003333333","24.97363","6500800","鶯歌區"
"239001","417-VK","2018/06/15 18:19:25","新北市鶯歌區國中街178號","121.338211666667","24.9392083333333","6500800","鶯歌區"
"239003","360-BY","2018/06/15 18:19:30","新北市鶯歌區福安街58號","121.335585","24.9652","6500800","鶯歌區"
"239002","359-BY","2018/06/15 18:19:29","新北市鶯歌區國慶街37號","121.349651666667","24.95563","6500800","鶯歌區"
"239004","193-VK","2018/06/15 18:19:32","新北市鶯歌區尖山路179號","121.344721666667","24.94741","6500800","鶯歌區"
"221008","489-VK","2018/06/15 18:19:37","新北市汐止區汐萬路一段256巷3號","121.652643333333","25.0745083333333","6501100","汐止區"
"221036","130-UY","2018/06/15 18:19:20","新北市汐止區長興街一段50號","121.67056","25.0792733333333","6501100","汐止區"
"221015","131-UY","2018/06/15 18:19:19","新北市汐止區鄉長路二段23巷1號","121.667138333333","25.0825166666667","6501100","汐止區"
"221010","269-BY","2018/06/15 18:19:21","新北市汐止區祥雲街2號","121.645798333333","25.08949","6501100","汐止區"
"221012","278-VK","2018/06/15 18:19:30","新北市汐止區保長路25號","121.672415","25.0796883333333","6501100","汐止區"
"221023","279-VK","2018/06/15 18:19:31","新北市汐止區康寧街474巷18-1號","121.631333333333","25.06761","6501100","汐止區"
"221032","280-BY","2018/06/15 18:19:18","新北市汐止區橫科路2巷15號","121.616445","25.05059","6501100","汐止區"
"221027","281-BY","2018/06/15 18:19:38","新北市汐止區和平街21號","121.662775","25.070795","6501100","汐止區"
"221029","298-VK","2018/06/15 18:19:34","新北市汐止區樟樹二路330巷76號","121.642998333333","25.0700083333333","6501100","汐止區"
"221021","299-VK","2018/06/15 18:19:27","新北市汐止區連興街73號","121.654005","25.0628466666667","6501100","汐止區"
"221031","353-TW","2018/06/15 18:19:22","新北市汐止區大同路一段160-6號","121.635026666667","25.0561383333333","6501100","汐止區"
"221035","622-UM","2018/06/15 18:19:31","新北市汐止區大同路二段171號","121.65125","25.064755","6501100","汐止區"
"221025","623-UM","2018/06/15 18:19:28","新北市汐止區勤進路12巷42號","121.659105","25.062825","6501100","汐止區"
"221038","646-BX","2018/06/15 18:19:28","新北市汐止區忠孝東路303號","121.664168333333","25.068965","6501100","汐止區"
"221033","647-BX","2018/06/15 18:19:25","新北市汐止區宜興街59巷11號","121.621823333333","25.042655","6501100","汐止區"
"221002","707-TV","2018/06/15 18:19:29","新北市汐止區福德一路201巷30號","121.635943333333","25.0649433333333","6501100","汐止區"
"221018","753-BX","2018/06/15 18:19:35","新北市汐止區茄苳路124號","121.668125","25.0701766666667","6501100","汐止區"
"242002","KEA-2550","2018/06/15 18:19:27","新北市新莊區新莊路189號","121.455791666667","25.0357766666667","6500500","新莊區"
"235068","KEA-2873","2018/06/15 18:19:27","新北市中和區員山路36巷16-3號","121.484931666667","24.9911916666667","6500300","中和區"
"235061","KEA-2875","2018/06/15 18:19:36","新北市中和區國光街215巷24弄6號","121.466578333333","25.000195","6500300","中和區"
