"lineid","car","time","location","longitude","latitude","cityid","cityname"
"234046","148-BY","2018/06/15 18:29:19","新北市永和區福和路1號","121.526363333333","25.0098033333333","6500400","永和區"
"234007","207-UY","2018/06/15 18:29:29","新北市永和區環河西路二段221號","121.501278333333","25.0100016666667","6500400","永和區"
"234081","298-R6","2018/06/15 18:29:19","新北市永和區林森路20巷1號","121.525973333333","25.0052916666667","6500400","永和區"
"234038","336-UY","2018/06/15 18:29:19","新北市永和區福和路1號","121.526456666667","25.0102733333333","6500400","永和區"
"234084","338-UY","2018/06/15 18:29:32","新北市永和區福和路1號","121.526475","25.00973","6500400","永和區"
"234017","745-BX","2018/06/15 18:29:37","新北市永和區福和路1號","121.526511666667","25.0095433333333","6500400","永和區"
"234030","746-BX","2018/06/15 18:29:35","新北市永和區福和路1號","121.526453333333","25.00952","6500400","永和區"
"234013","KEA-2591","2018/06/15 18:29:34","新北市永和區文化路165號","121.510193333333","25.0165016666667","6500400","永和區"
"234042","862-TW","2018/06/15 18:29:33","新北市永和區福和路1號","121.526481666667","25.0097033333333","6500400","永和區"
"234026","9371-KE","2018/06/15 18:29:33","新北市永和區中山路一段62號","121.512883333333","25.0106916666667","6500400","永和區"
"234011","9373-KE","2018/06/15 18:29:33","新北市永和區保福路二段158巷1號","121.509086666667","25.0150416666667","6500400","永和區"
"249005","172-UM","2018/06/15 18:29:24","新北市八里區中華路三段134號","121.391721666667","25.133935","6502300","八里區"
"249001","173-UM","2018/06/15 18:29:24","新北市八里區龍米路一段160號","121.452788333333","25.1259966666667","6502300","八里區"
"249004","303-UY","2018/06/15 18:29:37","新北市八里區忠孝路65-6號","121.427538333333","25.16021","6502300","八里區"
"249002","305-UY","2018/06/15 18:29:19","新北市八里區龍形三街17號","121.448868333333","25.1316883333333","6502300","八里區"
"248014","025-BX","2018/06/15 18:29:03","新北市五股區自強路45號","121.433361666667","25.0737316666667","6501500","五股區"
"248016","026-BX","2018/06/15 18:29:28","新北市五股區凌雲路一段83巷11號","121.449495","25.1008966666667","6501500","五股區"
"248006","077-UY","2018/06/15 18:29:24","新北市五股區四維路38號","121.467323333333","25.0716083333333","6501500","五股區"
"248008","095-VK","2018/06/15 18:29:21","新北市五股區四維路185巷60號","121.462166666667","25.078295","6501500","五股區"
"248018","225-UY","2018/06/15 18:29:18","新北市五股區御史路263號","121.421473333333","25.10609","6501500","五股區"
"248012","247-BX","2018/06/15 18:29:29","新北市五股區御成路143號","121.441006666667","25.0942466666667","6501500","五股區"
"248010","272-BY","2018/06/15 18:29:35","新北市五股區成泰路一段138號","121.435018333333","25.0756383333333","6501500","五股區"
"248004","677-BX","2018/06/15 18:29:25","新北市五股區成泰路二段198號","121.438848333333","25.0849283333333","6501500","五股區"
"248002","678-BX","2018/06/15 18:29:26","新北市五股區西雲路163號","121.446118333333","25.09438","6501500","五股區"
"234023","9380-KE","2018/06/15 18:29:24","新北市永和區福和路1號","121.525576666667","25.0093533333333","6500400","永和區"
"244013","069-UM","2018/06/15 18:29:23","新北市林口區中山路285號","121.384306666667","25.080215","6501700","林口區"
"244007","080-UY","2018/06/15 18:29:38","新北市林口區湖北里10鄰18號","121.387641666667","25.0979166666667","6501700","林口區"
"244019","403-UM","2018/06/15 18:29:21","新北市林口區忠孝路580巷13號","121.375181666667","25.06738","6501700","林口區"
"244023","483-VK","2018/06/15 18:29:29","新北市林口區四維路156號","121.380818333333","25.0758333333333","6501700","林口區"
"244017","485-VK","2018/06/15 18:29:34","新北市林口區八德路78號","121.365493333333","25.0655466666667","6501700","林口區"
"244009","656-BX","2018/06/15 18:29:20","新北市林口區文化一路二段285-1號","121.384925","25.084555","6501700","林口區"
"244011","657-BX","2018/06/15 18:29:28","新北市林口區中正路144號","121.392725","25.07736","6501700","林口區"
"244025","837-TS","2018/06/15 18:29:22","新北市林口區南勢四街226號","121.356495","25.0739233333333","6501700","林口區"
"244021","838-TS","2018/06/15 18:29:24","新北市林口區自強二街40號","121.398593333333","25.0775533333333","6501700","林口區"
"243013","AAD-798","2018/06/15 18:29:25","新北市泰山區明志路三段206巷3號","121.423308333333","25.037945","6501600","泰山區"
"222003","436-BY","2018/06/15 18:29:28","新北市深坑區文山路一段28-1號","121.630791666667","25.0053766666667","6501800","深坑區"
"222002","659-BX","2018/06/15 18:29:30","新北市深坑區雲鄉路141號","121.622255","24.9981666666667","6501800","深坑區"
"231041","002-UM","2018/06/15 18:29:32","新北市新店區安華路28-1號","121.519695","24.960735","6500600","新店區"
"231059","046-UY","2018/06/15 18:29:33","新北市新店區安華路28-1號","121.51963","24.9608833333333","6500600","新店區"
"231040","047-UY","2018/06/15 18:29:33","新北市新店區安華路28-1號","121.51904","24.9609333333333","6500600","新店區"
"231044","106-UY","2018/06/15 18:29:35","新北市新店區安華路28-1號","121.519613333333","24.9607016666667","6500600","新店區"
"231053","108-UY","2018/06/15 18:29:25","新北市新店區新烏路一段50-23號","121.545703333333","24.9494783333333","6500600","新店區"
"231048","187-VK","2018/06/15 18:29:31","新北市新店區安一路一段1-1號","121.5196","24.9611566666667","6500600","新店區"
"231046","188-VK","2018/06/15 18:29:35","新北市新店區直潭七街60號","121.532285","24.9399466666667","6500600","新店區"
"231054","KEA-2219","2018/06/15 18:29:25","新北市新店區安華路28-1號","121.520015","24.961035","6500600","新店區"
"231057","256-BX","2018/06/15 18:29:33","新北市新店區環河路1-2號","121.538125","24.96154","6500600","新店區"
"231042","268-BY","2018/06/15 18:29:23","新北市新店區安華路1-1號","121.519356666667","24.9605183333333","6500600","新店區"
"231051","278-BY","2018/06/15 18:29:23","新北市新店區安一路一段1-1號","121.519685","24.9611083333333","6500600","新店區"
"231050","AAD-862","2018/06/15 18:29:34","新北市新店區安華路28-1號","121.519975","24.96086","6500600","新店區"
"231058","3713-VJ","2018/06/15 18:29:33","新北市新店區新店後街114號","121.537671666667","24.955485","6500600","新店區"
"231066","4716-K9","2018/06/15 18:29:27","新北市新店區安一路一段1-1號","121.519275","24.9612","6500600","新店區"
"231056","4715-K9","2018/06/15 18:29:37","新北市新店區二十張路129巷1弄1號","121.536005","24.979105","6500600","新店區"
"231067","4772-VM","2018/06/15 18:29:28","新北市新店區安華路1-1號","121.519136666667","24.9604916666667","6500600","新店區"
"231065","512-UM","2018/06/15 18:29:37","新北市新店區安一路一段1-1號","121.51915","24.960995","6500600","新店區"
"231049","513-UM","2018/06/15 18:29:22","新北市新店區安一路一段1-1號","121.519683333333","24.9612","6500600","新店區"
"231045","617-UM","2018/06/15 18:29:20","新北市新店區安華路28-1號","121.51937","24.9608583333333","6500600","新店區"
"231061","619-UM","2018/06/15 18:29:18","新北市新店區安華路28-1號","121.519566666667","24.9606816666667","6500600","新店區"
"231063","641-BX","2018/06/15 18:29:32","新北市新店區安華路28-1號","121.519653333333","24.9605583333333","6500600","新店區"
"231064","719-UM","2018/06/15 18:29:32","新北市新店區安一路一段1-1號","121.519585","24.9613166666667","6500600","新店區"
"231062","720-UM","2018/06/15 18:29:22","新北市新店區安一路一段1-1號","121.519048333333","24.961315","6500600","新店區"
"231060","897-TW","2018/06/15 18:29:29","新北市新店區安華路28-1號","121.519531666667","24.9605783333333","6500600","新店區"
"231055","AKT-0513","2018/06/15 18:29:30","新北市新店區中正路154巷8號","121.541841666667","24.972045","6500600","新店區"
"235064","005-UY","2018/06/15 18:29:22","新北市中和區圓通路157號","121.498098333333","24.99554","6500300","中和區"
"235027","006-UY","2018/06/15 18:29:37","新北市中和區連城路389巷16號","121.486533333333","24.9953433333333","6500300","中和區"
"235056","096-UM","2018/06/15 18:29:28","新北市中和區員山路548號","121.478621666667","25.01026","6500300","中和區"
"235039","097-UM","2018/06/15 18:29:36","新北市中和區宜安路63號","121.511451666667","24.9969466666667","6500300","中和區"
"235065","098-UM","2018/06/15 18:29:19","新北市中和區莊敬路49巷20弄30號","121.503265","25.00524","6500300","中和區"
"235040","150-BY","2018/06/15 18:29:32","新北市中和區安平路38號","121.50982","24.99497","6500300","中和區"
"235058","151-BY","2018/06/15 18:29:36","新北市中和區圓通路369巷30弄14號","121.489436666667","24.9849033333333","6500300","中和區"
"235055","183-VK","2018/06/15 18:29:25","新北市中和區莒光路220號","121.47032","24.996225","6500300","中和區"
"235038","185-VK","2018/06/15 18:29:29","新北市中和區立人街63號","121.520091666667","24.9942633333333","6500300","中和區"
"235049","186-VK","2018/06/15 18:29:19","新北市中和區景平路381號","121.503893333333","24.9933216666667","6500300","中和區"
"235067","255-BX","2018/06/15 18:29:26","新北市中和區新生街189號","121.4838","25.0003166666667","6500300","中和區"
"235043","352-BY","2018/06/15 18:29:19","新北市中和區景平路293號","121.507121666667","24.9931433333333","6500300","中和區"
"235050","4979-A6","2018/06/15 18:29:27","新北市中和區景新街410巷18弄16號","121.511938333333","24.9897383333333","6500300","中和區"
"235069","4980-A6","2018/06/15 18:29:30","新北市中和區連城路127巷35號","121.497556666667","24.997265","6500300","中和區"
"235042","551-UM","2018/06/15 18:29:21","新北市中和區自立路56巷22號","121.522393333333","24.9917466666667","6500300","中和區"
"235070","558-UM","2018/06/15 18:29:26","新北市中和區南華路45號","121.50385","24.99665","6500300","中和區"
"235045","565-BX","2018/06/15 18:29:35","新北市中和區南山路236巷24弄21號","121.504861666667","24.9889083333333","6500300","中和區"
"235054","640-BX","2018/06/15 18:29:31","新北市中和區民享街89巷1號","121.474553333333","25.0016316666667","6500300","中和區"
"235060","647-TV","2018/06/15 18:29:32","新北市中和區員山路453號","121.480596666667","25.00425","6500300","中和區"
"235047","732-UM","2018/06/15 18:29:32","新北市中和區南山路523-1號","121.507926666667","24.9871883333333","6500300","中和區"
"235046","733-UM","2018/06/15 18:29:26","新北市中和區中正路169號","121.497921666667","24.99351","6500300","中和區"
"235062","800-TS","2018/06/15 18:29:20","新北市中和區景平路726-2號","121.496858333333","25.0034466666667","6500300","中和區"
"235057","801-TS","2018/06/15 18:29:18","新北市中和區民安街43號","121.479833333333","25.0002266666667","6500300","中和區"
"235041","802-TS","2018/06/15 18:29:33","新北市中和區景平路381號","121.503905","24.9932783333333","6500300","中和區"
"235052","805-TS","2018/06/15 18:29:30","新北市中和區興南路二段116號","121.50476","24.9838","6500300","中和區"
"235048","896-TW","2018/06/15 18:29:29","新北市中和區中正路81號","121.500741666667","24.99341","6500300","中和區"
"235053","900-TW","2018/06/15 18:29:38","新北市土城區金城路三段216號","121.472186666667","24.9900933333333","6500300","中和區"
"235051","157-BY","2018/06/15 18:29:32","新北市中和區興南路二段128巷7弄6號","121.503108333333","24.98388","6500300","中和區"
"235037","AAC-213","2018/06/15 18:29:32","新北市中和區景德街93號","121.515913333333","24.9914766666667","6500300","中和區"
"220069","015-TV","2018/06/15 18:29:25","新北市板橋區華東街1-10號","121.44842","24.9951533333333","6500100","板橋區"
"220065","072-UY","2018/06/15 18:29:23","新北市板橋區南雅南路二段146號","121.451651666667","24.9961933333333","6500100","板橋區"
"226004","312-R5","2018/06/15 18:29:36","新北市平溪區石底里公園街17號","121.73703","25.0248933333333","6502400","平溪區"
"235066","251-BX","2018/06/15 18:29:27","新北市中和區中山路二段120號","121.502656666667","25.003715","6500300","中和區"
"228001","212-TW","2018/06/15 18:29:35","新北市貢寮區仁理村仁和路66號","121.923113333333","25.049855","6502600","貢寮區"
"228002","663-BX","2018/06/15 18:29:29","新北市貢寮區福連里福連街37號","121.988913333333","25.010875","6502600","貢寮區"
"228003","828-UM","2018/06/15 18:29:20","新北市貢寮區和美里和美街37號","121.912333333333","25.08731","6502600","貢寮區"
"224006","676-BX","2018/06/15 18:29:32","新北市瑞芳區明燈路二段40-1號","121.809986666667","25.1076866666667","6501200","瑞芳區"
"224002","639-TC","2018/06/15 18:29:35","新北市瑞芳區三爪子坑路29巷35號","121.813766666667","25.1066433333333","6501200","瑞芳區"
"224008","285-BY","2018/06/15 18:29:31","新北市瑞芳區逢甲路143號","121.807196666667","25.1099233333333","6501200","瑞芳區"
"224007","275-VK","2018/06/15 18:29:21","新北市瑞芳區大埔路吉慶公園城32號","121.764451666667","25.099685","6501200","瑞芳區"
"224009","273-VK","2018/06/15 18:29:27","新北市瑞芳區五號路46號","121.855528333333","25.10969","6501200","瑞芳區"
"224005","271-BY","2018/06/15 18:29:21","新北市瑞芳區永龍新村66號","121.818556666667","25.118785","6501200","瑞芳區"
"227003","642-TC","2018/06/15 18:29:26","新北市雙溪區魚行里坤溪22號","121.87034","25.0290683333333","6502500","雙溪區"
"227011","400-TW","2018/06/15 18:29:32","新北市雙溪區牡丹里牡丹105號","121.85126","25.0599933333333","6502500","雙溪區"
"253005","032-BX","2018/06/15 18:29:28","新北市石門區老崩山11-12號","121.551961666667","25.2906316666667","6502200","石門區"
"253006","295-VK","2018/06/15 18:29:33","新北市石門區公地16號","121.545755","25.29022","6502200","石門區"
"222001","KEA-2212","2018/06/15 18:29:19","新北市深坑區北深路一段199號","121.630398333333","25.0089833333333","6501800","深坑區"
"208002","KEA-2872","2018/06/15 18:29:24","新北市金山區磺清路121號","121.639708333333","25.2278616666667","6502700","金山區"
"208003","665-BX","2018/06/15 18:29:41","新北市金山區中山路231號","121.637475","25.2217116666667","6502700","金山區"
"208001","761-BX","2018/06/15 18:29:18","新北市金山區文化二路4號","121.63684","25.2246016666667","6502700","金山區"
"251004","009-UM","2018/06/15 18:29:29","新北市淡水區民生路52巷22弄12號","121.462415","25.1371466666667","6501000","淡水區"
"251002","012-UM","2018/06/15 18:29:36","新北市淡水區中正東路一段21巷23號","121.452155","25.164065","6501000","淡水區"
"251008","181-VK","2018/06/15 18:29:23","新北市淡水區北投子84號","121.468593333333","25.1784483333333","6501000","淡水區"
"251010","413-VK","2018/06/15 18:29:20","新北市淡水區沙崙路181巷1號","121.424151666667","25.1841866666667","6501000","淡水區"
"251012","441-VK","2018/06/15 18:29:31","新北市淡水區北新路一段163號","121.458971666667","25.1822666666667","6501000","淡水區"
"251005","443-VK","2018/06/15 18:29:32","新北市淡水區中正東路35巷11號","121.446461666667","25.1687016666667","6501000","淡水區"
"251001","559-UM","2018/06/15 18:29:34","新北市淡水區自強路122巷1號","121.464498333333","25.1331083333333","6501000","淡水區"
"251006","561-UM","2018/06/15 18:29:21","新北市淡水區中山北路一段271號","121.444761666667","25.181185","6501000","淡水區"
"251009","575-R6","2018/06/15 18:29:25","新北市淡水區下圭柔山90-8號","121.431636666667","25.2119483333333","6501000","淡水區"
"251011","650-BX","2018/06/15 18:29:27","新北市淡水區中正東路8號","121.448018333333","25.16644","6501000","淡水區"
"251003","766-UM","2018/06/15 18:29:34","新北市淡水區北新路169巷16號","121.449846666667","25.1800933333333","6501000","淡水區"
"207003","550-UM","2018/06/15 18:29:30","新北市萬里區野柳里港東路155號","121.689753333333","25.2051633333333","6502800","萬里區"
"207004","225-TW","2018/06/15 18:29:21","新北市萬里區萬里里瑪鋉路21號","121.687476666667","25.1754233333333","6502800","萬里區"
"252002","178-VK","2018/06/15 18:29:32","新北市三芝區中山路二段38號","121.503001666667","25.2551316666667","6502100","三芝區"
"252003","249-BX","2018/06/15 18:29:21","新北市三芝區後厝里北勢子43號","121.471895","25.252535","6502100","三芝區"
"252001","292-VK","2018/06/15 18:29:18","新北市三芝區中興街二段2號","121.498516666667","25.256735","6502100","三芝區"
"237007","153-BY","2018/06/15 18:29:21","新北市三峽區中正路三段158號","121.35297","24.9035216666667","6500900","三峽區"
"237009","210-TH","2018/06/15 18:29:39","新北市三峽區大同路270巷8號","121.365356666667","24.925585","6500900","三峽區"
"237013","252-BX","2018/06/15 18:29:29","新北市三峽區光明路69巷25號","121.376701666667","24.9292166666667","6500900","三峽區"
"237012","275-BY","2018/06/15 18:29:37","新北市三峽區三樹路128-1號","121.378385","24.9395466666667","6500900","三峽區"
"237008","302-VK","2018/06/15 18:29:39","新北市三峽區白雞115-16號","121.40088","24.9061183333333","6500900","三峽區"
"237014","433-BY","2018/06/15 18:29:35","新北市三峽區復興路159號","121.370498333333","24.9383816666667","6500900","三峽區"
"237006","5529-G3","2018/06/15 18:29:35","新北市三峽區溪東路473巷4號","121.413915","24.9282466666667","6500900","三峽區"
"237015","649-BX","2018/06/15 18:29:35","新北市三峽區紫微南路5號","121.42526","24.9203983333333","6500900","三峽區"
"237010","706-TV","2018/06/15 18:29:20","新北市三峽區復興路323號","121.364775","24.9387633333333","6500900","三峽區"
"237011","760-BX","2018/06/15 18:29:32","新北市三峽區橫溪路122號","121.398595","24.9353766666667","6500900","三峽區"
"237005","AKY-6261","2018/06/15 18:29:21","新北市三峽區秀川街59號","121.370526666667","24.933415","6500900","三峽區"
"236069","105-UM","2018/06/15 18:29:33","新北市土城區永豐路255巷21弄2號","121.475056666667","24.9734833333333","6501300","土城區"
"236042","107-UM","2018/06/15 18:29:22","新北市土城區學成路91巷18號","121.450326666667","24.9877833333333","6501300","土城區"
"236079","166-UM","2018/06/15 18:29:33","新北市土城區中央路四段45-1號","121.422508333333","24.9619033333333","6501300","土城區"
"236030","253-BX","2018/06/15 18:29:34","新北市土城區順風路2號","121.439628333333","24.9765583333333","6501300","土城區"
"236026","269-VK","2018/06/15 18:29:32","新北市土城區承天路107巷18號","121.446681666667","24.9551733333333","6501300","土城區"
"236014","270-VK","2018/06/15 18:29:31","新北市土城區青雲路39巷7號","121.460371666667","24.9875633333333","6501300","土城區"
"236039","271-VK","2018/06/15 18:29:27","新北市土城區青雲路453號","121.458865","24.9746066666667","6501300","土城區"
"236020","401-BY","2018/06/15 18:29:36","新北市土城區永豐路202巷14號","121.466338333333","24.9834016666667","6501300","土城區"
"236059","752-BX","2018/06/15 18:29:34","新北市土城區中央路四段133-2號","121.415943333333","24.9573716666667","6501300","土城區"
"236048","913-UM","2018/06/15 18:29:39","新北市土城區明德路一段309號","121.459618333333","24.9771533333333","6501300","土城區"
"236063","915-UM","2018/06/15 18:29:23","新北市土城區延壽路77巷6弄4號","121.468508333333","24.99273","6501300","土城區"
"236055","AAC-216","2018/06/15 18:29:34","新北市土城區中華路二段1號","121.439635","24.9791133333333","6501300","土城區"
"242058","986-R7","2018/06/15 18:29:32","桃園市龜山區萬壽路一段117號","121.408506666667","25.0188833333333","6500500","新莊區"
"242054","751-BX","2018/06/15 18:29:21","新北市新莊區民安西路410巷12弄4號","121.427811666667","25.0090966666667","6500500","新莊區"
"242025","613-BX","2018/06/15 18:29:35","新北市新莊區中央路246號","121.45461","25.059455","6500500","新莊區"
"242042","566-BX","2018/06/15 18:29:31","新北市新莊區天祥街61巷10號","121.415848333333","25.0288266666667","6500500","新莊區"
"242046","497-BY","2018/06/15 18:29:21","新北市新莊區中正路829巷5號","121.420988333333","25.0277","6500500","新莊區"
"242056","440-UM","2018/06/15 18:29:37","新北市新莊區瓊泰路77巷16號","121.442656666667","25.0290616666667","6500500","新莊區"
"242044","400-BY","2018/06/15 18:29:27","新北市新莊區中正路新旺巷28號","121.416095","25.023015","6500500","新莊區"
"242060","353-BY","2018/06/15 18:29:25","新北市新莊區新樹路138-1號","121.435171666667","25.0235683333333","6500500","新莊區"
"242009","132-UY","2018/06/15 18:29:24","新北市新莊區中平路82巷4號","121.444983333333","25.0448066666667","6500500","新莊區"
"242039","133-UY","2018/06/15 18:29:25","新北市新莊區新樹路12-1號","121.439678333333","25.0312733333333","6500500","新莊區"
"242048","172-VK","2018/06/15 18:29:40","新北市板橋區大觀路三段50巷103號","121.430916666667","24.996785","6500500","新莊區"
"242032","347-TH","2018/06/15 18:29:26","新北市新莊區新泰路277巷43弄2號","121.444073333333","25.0400166666667","6500500","新莊區"
"238015","755-BX","2018/06/15 18:29:31","新北市樹林區大安路493號","121.414571666667","24.9867183333333","6500700","樹林區"
"238023","601-UM","2018/06/15 18:29:34","新北市樹林區三福街81號","121.407191666667","25.01628","6500700","樹林區"
"238019","599-UM","2018/06/15 18:29:31","新北市樹林區中華路190號","121.41201","24.9804683333333","6500700","樹林區"
"238018","571-TV","2018/06/15 18:29:28","新北市樹林區樹新路34巷4號","121.427443333333","24.9945283333333","6500700","樹林區"
"238024","5061-A6","2018/06/15 18:29:24","新北市樹林區中山路一段27-8號","121.424485","24.993035","6500700","樹林區"
"238025","303-VK","2018/06/15 18:29:32","新北市樹林區保安街一段179-10號","121.421245","24.9957466666667","6500700","樹林區"
"238017","283-BY","2018/06/15 18:29:40","新北市樹林區光榮街3巷1號","121.413093333333","25.00397","6500700","樹林區"
"238014","282-BY","2018/06/15 18:29:21","新北市樹林區大安路111巷41號","121.423293333333","24.997615","6500700","樹林區"
"238020","268-VK","2018/06/15 18:29:16","新北市樹林區中正路642巷19號","121.411446666667","25.017525","6500700","樹林區"
"238026","172-UY","2018/06/15 18:29:33","新北市樹林區八德街1146號","121.390933333333","24.9684583333333","6500700","樹林區"
"238016","169-UY","2018/06/15 18:29:34","新北市樹林區文化街28號","121.419405","24.9877083333333","6500700","樹林區"
"239007","AAC-297","2018/06/15 18:29:24","新北市鶯歌區中山路17號","121.352481666667","24.9569816666667","6500800","鶯歌區"
"239006","891-R6","2018/06/15 18:29:36","新北市鶯歌區鶯桃路296巷49號","121.335705","24.96142","6500800","鶯歌區"
"239008","527-UM","2018/06/15 18:29:37","新北市鶯歌區朝陽街2號","121.336228333333","24.9765783333333","6500800","鶯歌區"
"239005","526-UM","2018/06/15 18:29:27","新北市鶯歌區鳳吉二街96號","121.327326666667","24.9741066666667","6500800","鶯歌區"
"239001","417-VK","2018/06/15 18:29:25","新北市鶯歌區二橋街53號","121.336971666667","24.9386033333333","6500800","鶯歌區"
"239003","360-BY","2018/06/15 18:29:30","新北市鶯歌區鶯桃路427號","121.332705","24.9650266666667","6500800","鶯歌區"
"239002","359-BY","2018/06/15 18:29:29","新北市鶯歌區國慶街169-1號","121.351266666667","24.95291","6500800","鶯歌區"
"239004","193-VK","2018/06/15 18:29:32","新北市鶯歌區尖山路293巷13號","121.341551666667","24.9442733333333","6500800","鶯歌區"
"221008","489-VK","2018/06/15 18:29:37","新北市汐止區康寧街901號","121.651403333333","25.0749633333333","6501100","汐止區"
"221036","130-UY","2018/06/15 18:29:20","新北市汐止區南昌街27號","121.663186666667","25.0692266666667","6501100","汐止區"
"221015","131-UY","2018/06/15 18:29:39","新北市汐止區吉祥街26號","121.667816666667","25.0809433333333","6501100","汐止區"
"221010","269-BY","2018/06/15 18:29:21","新北市汐止區瑞松街10號","121.645418333333","25.105095","6501100","汐止區"
"221012","278-VK","2018/06/15 18:29:22","新北市汐止區保長路149號","121.677003333333","25.0764966666667","6501100","汐止區"
"221023","279-VK","2018/06/15 18:29:31","新北市汐止區康寧街534巷22號","121.634631666667","25.0688633333333","6501100","汐止區"
"221032","280-BY","2018/06/15 18:29:18","新北市汐止區民權街二段97巷12號","121.619478333333","25.0468166666667","6501100","汐止區"
"221027","281-BY","2018/06/15 18:29:16","新北市汐止區和平街71巷2號","121.66154","25.0705483333333","6501100","汐止區"
"221029","298-VK","2018/06/15 18:29:35","新北市汐止區樟樹一路199號","121.6426","25.0688683333333","6501100","汐止區"
"221021","299-VK","2018/06/15 18:29:27","新北市汐止區新台五路一段91-2號","121.65022","25.0614733333333","6501100","汐止區"
"221031","353-TW","2018/06/15 18:29:02","新北市汐止區光復街8巷23-1號","121.63802","25.0571966666667","6501100","汐止區"
"221035","622-UM","2018/06/15 18:29:31","新北市汐止區大同路二段49號","121.648693333333","25.0628616666667","6501100","汐止區"
"221025","623-UM","2018/06/15 18:29:28","新北市汐止區仁愛路119巷1號","121.662588333333","25.063605","6501100","汐止區"
"221038","646-BX","2018/06/15 18:29:28","新北市汐止區汐萬路一段143號","121.653505","25.0711133333333","6501100","汐止區"
"221033","647-BX","2018/06/15 18:29:25","新北市汐止區宜興街1號","121.620798333333","25.0411983333333","6501100","汐止區"
"221002","707-TV","2018/06/15 18:29:29","新北市汐止區福德一路145號","121.636671666667","25.0668516666667","6501100","汐止區"
"221018","753-BX","2018/06/15 18:29:35","新北市汐止區茄苳路224巷3弄18號","121.671105","25.0680366666667","6501100","汐止區"
"242002","KEA-2550","2018/06/15 18:29:27","新北市新莊區瓊林路9-4號","121.449785","25.0314233333333","6500500","新莊區"
"220082","610-BX","2018/06/15 18:29:38","新北市板橋區華東街1-9號","121.448186666667","24.99491","6500100","板橋區"
"220083","286-VK","2018/06/15 18:29:37","新北市板橋區華東街1-10號","121.44835","24.9950933333333","6500100","板橋區"
"220081","287-VK","2018/06/15 18:29:23","新北市板橋區華東街1-10號","121.448241666667","24.9950183333333","6500100","板橋區"
"220084","296-UM","2018/06/15 18:29:22","新北市板橋區華東街1-9號","121.44816","24.9949683333333","6500100","板橋區"
"220075","303-R5","2018/06/15 18:29:18","新北市板橋區華東街1-10號","121.448231666667","24.9949916666667","6500100","板橋區"
"220064","486-VK","2018/06/15 18:29:23","新北市板橋區南雅南路二段120-2號","121.452405","24.9997266666667","6500100","板橋區"
"220035","560-BX","2018/06/15 18:29:35","新北市板橋區南雅西路一段21巷5號","121.453831666667","25.0038416666667","6500100","板橋區"
"220074","895-R6","2018/06/15 18:29:30","新北市板橋區華東街1-10號","121.448241666667","24.995015","6500100","板橋區"
"220073","985-R7","2018/06/15 18:29:21","新北市板橋區華東街1-10號","121.448271666667","24.9949983333333","6500100","板橋區"
"235068","KEA-2873","2018/06/15 18:29:27","新北市中和區圓通路269號","121.495801666667","24.99318","6500300","中和區"
"235061","KEA-2875","2018/06/15 18:29:33","新北市中和區民享街97巷7號","121.475106666667","24.9992966666667","6500300","中和區"
