"lineid","car","time","location","longitude","latitude","cityid","cityname"
"234046","148-BY","2018/06/15 19:19:19","新北市永和區得和路377號","121.52479","24.9994383333333","6500400","永和區"
"234007","207-UY","2018/06/15 19:19:29","新北市永和區中山路一段240號","121.507663333333","25.0077366666667","6500400","永和區"
"234081","298-R6","2018/06/15 19:19:39","新北市永和區福和路52號","121.523471666667","25.0081383333333","6500400","永和區"
"234038","336-UY","2018/06/15 19:19:39","新北市永和區民樂街70號","121.52733","24.998425","6500400","永和區"
"234064","337-UY","2018/06/15 19:19:36","新北市永和區得和路243巷28弄21號","121.521425","25.0010566666667","6500400","永和區"
"234086","338-UY","2018/06/15 19:19:31","新北市永和區永貞路104號","121.519101666667","25.00458","6500400","永和區"
"234070","552-UM","2018/06/15 19:19:31","新北市永和區豫溪街33號","121.516385","25.009785","6500400","永和區"
"234017","745-BX","2018/06/15 19:19:37","新北市永和區環河西路一段85巷4弄20號","121.512051666667","25.0169183333333","6500400","永和區"
"234030","746-BX","2018/06/15 19:19:35","新北市永和區厚德街68號","121.52399","24.9988416666667","6500400","永和區"
"234054","KEA-2590","2018/06/15 19:19:33","新北市永和區中興街20號","121.516051666667","25.0118383333333","6500400","永和區"
"234013","KEA-2591","2018/06/15 19:19:36","新北市永和區信義路57號","121.512943333333","25.0125316666667","6500400","永和區"
"234061","AAD-866","2018/06/15 19:19:31","新北市永和區秀朗路一段175號","121.517058333333","25.00366","6500400","永和區"
"234042","862-TW","2018/06/15 19:19:33","新北市永和區保平路151巷5號","121.510196666667","25.0055316666667","6500400","永和區"
"234050","863-TW","2018/06/15 19:19:35","新北市永和區保福路二段88巷23號","121.511808333333","25.0138433333333","6500400","永和區"
"234026","9371-KE","2018/06/15 19:19:33","新北市永和區安樂路144巷17號","121.514671666667","25.0001333333333","6500400","永和區"
"234011","9373-KE","2018/06/15 19:19:33","新北市永和區保福路二段23巷21號","121.510093333333","25.01124","6500400","永和區"
"249001","173-UM","2018/06/15 19:19:24","新北市八里區中華路一段333-1號","121.412546666667","25.1547233333333","6502300","八里區"
"249003","593-UM","2018/06/15 19:19:20","新北市八里區中山路二段466巷36弄20號","121.398425","25.1487983333333","6502300","八里區"
"248008","095-VK","2018/06/15 19:19:41","新北市五股區中興路二段63巷17號","121.460223333333","25.075395","6501500","五股區"
"248018","225-UY","2018/06/15 19:19:38","新北市五股區壟路16號","121.415171666667","25.0854633333333","6501500","五股區"
"248012","247-BX","2018/06/15 19:19:29","新北市五股區中興路四段48巷16號","121.438616666667","25.0834416666667","6501500","五股區"
"248010","272-BY","2018/06/15 19:19:35","新北市五股區水碓九路38號","121.428826666667","25.0716266666667","6501500","五股區"
"248004","677-BX","2018/06/15 19:19:25","新北市五股區五福路57號","121.432906666667","25.089985","6501500","五股區"
"248002","678-BX","2018/06/15 19:19:26","新北市五股區凌雲路一段158巷14-1號","121.447833333333","25.10344","6501500","五股區"
"234023","9380-KE","2018/06/15 19:19:24","新北市永和區竹林路113號","121.519888333333","25.01172","6500400","永和區"
"234077","969-R7","2018/06/15 19:19:23","新北市永和區民族街42號","121.518393333333","24.9988833333333","6500400","永和區"
"234074","AAC-211","2018/06/15 19:19:27","新北市永和區竹林路83號","121.519603333333","25.012385","6500400","永和區"
"234067","AAC-212","2018/06/15 19:19:26","新北市永和區保平路50巷8弄2號","121.511081666667","25.0074666666667","6500400","永和區"
"234003","AAC-295","2018/06/15 19:19:24","新北市永和區中山路一段143號","121.510311666667","25.00963","6500400","永和區"
"244013","069-UM","2018/06/15 19:19:34","新北市林口區麗園一街9巷2號","121.376773333333","25.0709783333333","6501700","林口區"
"244019","403-UM","2018/06/15 19:19:21","新北市林口區麗園一街2巷1號","121.376036666667","25.0720683333333","6501700","林口區"
"244023","483-VK","2018/06/15 19:19:29","新北市林口區文化三路一段555巷88-1號","121.368576666667","25.07667","6501700","林口區"
"244017","485-VK","2018/06/15 19:19:34","新北市林口區忠孝路468號","121.369903333333","25.070735","6501700","林口區"
"244011","657-BX","2018/06/15 19:19:28","新北市林口區中正路264巷17號","121.388611666667","25.0782466666667","6501700","林口區"
"243013","AAD-798","2018/06/15 19:19:21","新北市泰山區明志路三段145巷2弄1號","121.425436666667","25.0399033333333","6501600","泰山區"
"243009","297-R6","2018/06/15 19:19:31","新北市泰山區楓樹街15巷3號","121.434956666667","25.0629783333333","6501600","泰山區"
"243016","380-SR","2018/06/15 19:19:32","新北市泰山區明志路三段98號","121.425161666667","25.04121","6501600","泰山區"
"243015","421-VK","2018/06/15 19:19:34","新北市泰山區公園路20號","121.429466666667","25.0542283333333","6501600","泰山區"
"243011","KEA-2215","2018/06/15 19:19:32","新北市泰山區中央路11巷1號","121.426295","25.04284","6501600","泰山區"
"243010","KEA-2216","2018/06/15 19:19:31","新北市泰山區明志路一段494號","121.43017","25.0546583333333","6501600","泰山區"
"243012","646-TV","2018/06/15 19:19:37","新北市泰山區仁愛路100巷26號","121.433498333333","25.0548766666667","6501600","泰山區"
"243014","680-BX","2018/06/15 19:19:36","新北市泰山區泰林路二段204號","121.4333","25.0613666666667","6501600","泰山區"
"222003","436-BY","2018/06/15 19:19:28","新北市深坑區深南路204號","121.62665","25.0160583333333","6501800","深坑區"
"222002","659-BX","2018/06/15 19:19:30","新北市深坑區北深路一段177號","121.632558333333","25.010895","6501800","深坑區"
"231041","002-UM","2018/06/15 19:19:32","新北市新店區溪園路203號","121.526765","24.9843","6500600","新店區"
"231059","046-UY","2018/06/15 19:19:33","新北市新店區安和路二段190號","121.518725","24.9744966666667","6500600","新店區"
"231040","047-UY","2018/06/15 19:19:33","新北市新店區中華路70巷2號","121.539048333333","24.9691833333333","6500600","新店區"
"231044","106-UY","2018/06/15 19:19:35","新北市新店區中興路三段330號","121.54201","24.9864683333333","6500600","新店區"
"231053","108-UY","2018/06/15 19:19:22","新北市新店區自強路108號","121.545875","24.9225916666667","6500600","新店區"
"231048","187-VK","2018/06/15 19:19:31","新北市新店區中興路二段57巷11號","121.545921666667","24.9707016666667","6500600","新店區"
"231046","188-VK","2018/06/15 19:19:35","新北市新店區華城路36巷1-1號","121.528473333333","24.955205","6500600","新店區"
"231054","KEA-2219","2018/06/15 19:19:34","新北市新店區國校路8號","121.537905","24.95607","6500600","新店區"
"231042","268-BY","2018/06/15 19:19:22","新北市新店區中興路一段59-1號","121.540086666667","24.9606833333333","6500600","新店區"
"231051","278-BY","2018/06/15 19:19:23","新北市新店區中央路137號","121.530251666667","24.9737233333333","6500600","新店區"
"231050","AAD-862","2018/06/15 19:19:34","新北市新店區竹林路30巷1號","121.55227","24.9513183333333","6500600","新店區"
"231058","3713-VJ","2018/06/15 19:19:33","新北市新店區北新路二段98號","121.542978333333","24.97317","6500600","新店區"
"231066","4716-K9","2018/06/15 19:19:27","新北市新店區安康路三段359巷12弄2號","121.48454","24.950105","6500600","新店區"
"231056","4715-K9","2018/06/15 19:19:17","新北市新店區安興路137-1號","121.516296666667","24.9794133333333","6500600","新店區"
"231067","4772-VM","2018/06/15 19:19:28","新北市新店區柴埕路116號","121.504063333333","24.9595833333333","6500600","新店區"
"231065","512-UM","2018/06/15 19:19:37","新北市新店區安祥路142號","121.47397","24.9558133333333","6500600","新店區"
"231049","513-UM","2018/06/15 19:19:21","新北市新店區明德路64號","121.541603333333","24.9794816666667","6500600","新店區"
"231045","617-UM","2018/06/15 19:19:20","新北市新店區北宜路一段316號","121.5475","24.95206","6500600","新店區"
"231061","619-UM","2018/06/15 19:19:38","新北市新店區安康路一段52巷2號","121.530068333333","24.961215","6500600","新店區"
"231063","641-BX","2018/06/15 19:19:32","新北市新店區達觀路14巷5號","121.50376","24.9425066666667","6500600","新店區"
"231064","719-UM","2018/06/15 19:19:32","新北市新店區安忠路57巷18號","121.513131666667","24.95884","6500600","新店區"
"231062","720-UM","2018/06/15 19:19:22","新北市新店區莒光路87巷10號","121.523913333333","24.9556416666667","6500600","新店區"
"231060","897-TW","2018/06/15 19:19:29","新北市新店區安康路二段226號","121.509581666667","24.9592783333333","6500600","新店區"
"231043","899-TW","2018/06/15 19:19:32","新北市新店區寶橋路21號","121.54393","24.973955","6500600","新店區"
"231055","AKT-0513","2018/06/15 19:19:29","新北市新店區薏仁坑路6號","121.500263333333","24.9579733333333","6500600","新店區"
"241009","060-VK","2018/06/15 19:19:39","新北市三重區溪尾街230巷65號","121.486213333333","25.0812833333333","6500200","三重區"
"241031","061-VK","2018/06/15 19:19:20","新北市三重區重新路四段91-2號","121.486026666667","25.055205","6500200","三重區"
"241017","063-VK","2018/06/15 19:19:30","新北市三重區大同北路172巷2號","121.49183","25.0656016666667","6500200","三重區"
"241022","267-UM","2018/06/15 19:19:28","新北市三重區中正北路58號","121.486963333333","25.064415","6500200","三重區"
"241025","271-UM","2018/06/15 19:19:28","新北市三重區中正北路404號","121.475476666667","25.0704683333333","6500200","三重區"
"241007","398-BY","2018/06/15 19:19:30","新北市三重區慈愛街39號","121.485458333333","25.0788983333333","6500200","三重區"
"241035","KEA-2210","2018/06/15 19:19:22","新北市三重區信義西街138號","121.495628333333","25.06428","6500200","三重區"
"241020","478-VK","2018/06/15 19:19:27","新北市三重區後竹圍街115號","121.488883333333","25.072795","6500200","三重區"
"241030","480-VK","2018/06/15 19:19:17","新北市三重區新興路40號","121.491588333333","25.0535316666667","6500200","三重區"
"241006","AAD-863","2018/06/15 19:19:20","新北市三重區車路頭街137號","121.483998333333","25.0762366666667","6500200","三重區"
"241026","887-TS","2018/06/15 19:19:42","新北市三重區環河南路220-8號","121.493353333333","25.0527483333333","6500200","三重區"
"241029","942-UM","2018/06/15 19:19:41","新北市三重區重安街39-2號","121.491431666667","25.056565","6500200","三重區"
"235064","005-UY","2018/06/15 19:19:22","新北市中和區連城路2號","121.499246666667","25.0025183333333","6500300","中和區"
"235027","006-UY","2018/06/15 19:19:37","新北市中和區連城路413號","121.485788333333","24.9963233333333","6500300","中和區"
"235056","096-UM","2018/06/15 19:19:28","新北市中和區中正路1171號","121.481358333333","25.0093083333333","6500300","中和區"
"235039","097-UM","2018/06/15 19:19:35","新北市中和區秀朗路三段179號","121.524566666667","24.990635","6500300","中和區"
"235065","098-UM","2018/06/15 19:19:19","新北市中和區中山路二段64巷14弄26號","121.503926666667","25.0061983333333","6500300","中和區"
"235040","150-BY","2018/06/15 19:19:32","新北市中和區保健路50巷3號","121.510391666667","24.9967166666667","6500300","中和區"
"235058","151-BY","2018/06/15 19:19:30","新北市中和區連城路469巷91號","121.483415","24.9934316666667","6500300","中和區"
"235055","183-VK","2018/06/15 19:19:24","新北市中和區德光路20號","121.471008333333","25.00448","6500300","中和區"
"235038","185-VK","2018/06/15 19:19:29","新北市中和區大仁街108號","121.520626666667","24.9928","6500300","中和區"
"235049","186-VK","2018/06/15 19:19:38","新北市中和區景新街239號","121.508126666667","24.9944733333333","6500300","中和區"
"235067","255-BX","2018/06/15 19:19:26","新北市中和區民樂路34號","121.48285","25.00124","6500300","中和區"
"235044","293-VK","2018/06/15 19:19:41","新北市中和區復興路308號","121.501208333333","24.9903266666667","6500300","中和區"
"235043","352-BY","2018/06/15 19:19:19","新北市中和區景平路460號","121.505773333333","24.99344","6500300","中和區"
"235050","4979-A6","2018/06/15 19:19:27","新北市中和區景安路206號","121.504036666667","24.99088","6500300","中和區"
"235069","4980-A6","2018/06/15 19:19:30","新北市中和區中山路二段136巷4號","121.50196","25.00363","6500300","中和區"
"235042","551-UM","2018/06/15 19:19:21","新北市永和區民有街19號","121.516628333333","24.996635","6500300","中和區"
"235070","558-UM","2018/06/15 19:19:26","新北市中和區中山路二段229號","121.498355","25.0025233333333","6500300","中和區"
"235045","565-BX","2018/06/15 19:19:32","新北市中和區景新街423巷35弄23號","121.513885","24.9905766666667","6500300","中和區"
"235054","640-BX","2018/06/15 19:19:40","新北市中和區國光街109巷29號","121.469353333333","24.9994216666667","6500300","中和區"
"235060","647-TV","2018/06/15 19:19:32","新北市中和區中山路三段145號","121.473823333333","25.0059666666667","6500300","中和區"
"235047","732-UM","2018/06/15 19:19:32","新北市中和區和平街54巷1弄2號","121.508705","24.9909966666667","6500300","中和區"
"235046","733-UM","2018/06/15 19:19:26","新北市中和區忠孝街2巷16號","121.510731666667","24.9813466666667","6500300","中和區"
"235071","783-BX","2018/06/15 19:19:35","新北市中和區中正路637巷52弄3號","121.485268333333","24.9937066666667","6500300","中和區"
"235057","801-TS","2018/06/15 19:19:38","新北市中和區員山路423巷9號","121.480566666667","25.003155","6500300","中和區"
"235041","802-TS","2018/06/15 19:19:33","新北市中和區中和路256號","121.507721666667","24.99939","6500300","中和區"
"235052","805-TS","2018/06/15 19:19:30","新北市中和區華新街143巷49號","121.506353333333","24.980285","6500300","中和區"
"235048","896-TW","2018/06/15 19:19:29","新北市中和區忠孝街112號","121.512163333333","24.985395","6500300","中和區"
"235053","900-TW","2018/06/15 19:19:38","新北市中和區華安街17巷31號","121.467513333333","24.9983183333333","6500300","中和區"
"235051","157-BY","2018/06/15 19:19:32","新北市中和區和平街28-2號","121.509606666667","24.9903866666667","6500300","中和區"
"235037","AAC-213","2018/06/15 19:19:32","新北市中和區自立路12號","121.522381666667","24.996305","6500300","中和區"
"235059","AAC-215","2018/06/15 19:19:24","新北市中和區錦和路195巷1弄2號","121.491078333333","24.9908866666667","6500300","中和區"
"220069","015-TV","2018/06/15 19:19:24","新北市板橋區貴興路39號","121.457561666667","25.0037366666667","6500100","板橋區"
"220065","072-UY","2018/06/15 19:19:23","新北市板橋區民族路170巷2-2號","121.467423333333","25.00782","6500100","板橋區"
"220086","073-UY","2018/06/15 19:19:37","新北市板橋區中正路216巷69號","121.457803333333","25.018995","6500100","板橋區"
"220106","075-UY","2018/06/15 19:19:31","新北市板橋區雙十路三段168號","121.470156666667","25.0327483333333","6500100","板橋區"
"220090","120-SR","2018/06/15 19:19:31","新北市板橋區長江路一段106巷13弄20號","121.460866666667","25.02949","6500100","板橋區"
"226004","312-R5","2018/06/15 19:19:28","新北市平溪區靜安路三段375號","121.7809","25.0466816666667","6502400","平溪區"
"235066","251-BX","2018/06/15 19:19:27","新北市中和區枋寮街2號","121.502473333333","24.9998066666667","6500300","中和區"
"228001","212-TW","2018/06/15 19:19:35","新北市貢寮區真理里新港街10號","121.925496666667","25.0543766666667","6502600","貢寮區"
"228002","663-BX","2018/06/15 19:19:29","新北市貢寮區龍門里復興街14號","121.926493333333","25.0258516666667","6502600","貢寮區"
"228003","828-UM","2018/06/15 19:19:40","新北市貢寮區和美里和美街22-1號","121.912808333333","25.0826333333333","6502600","貢寮區"
"224010","AGQ-8101","2018/06/15 19:19:20","新北市瑞芳區基山街4-3號","121.845156666667","25.1096116666667","6501200","瑞芳區"
"224008","285-BY","2018/06/15 19:19:28","新北市瑞芳區一坑路71-5號","121.80232","25.1085683333333","6501200","瑞芳區"
"227003","642-TC","2018/06/15 19:19:26","新北市雙溪區平林里梅竹蹊66-1號","121.860138333333","25.0358316666667","6502500","雙溪區"
"227011","400-TW","2018/06/15 19:19:32","新北市雙溪區新基里新基北街40號","121.868515","25.0380433333333","6502500","雙溪區"
"253005","032-BX","2018/06/15 19:19:28","新北市石門區小坑12號","121.592755","25.2908266666667","6502200","石門區"
"253006","295-VK","2018/06/15 19:19:33","新北市石門區楓林23-10號","121.538723333333","25.2912116666667","6502200","石門區"
"222001","KEA-2212","2018/06/15 19:19:19","新北市深坑區北深路二段103號","121.61747","25.0033716666667","6501800","深坑區"
"208002","KEA-2872","2018/06/15 19:19:23","新北市金山區中華路159號","121.632693333333","25.2218466666667","6502700","金山區"
"208003","665-BX","2018/06/15 19:19:34","新北市金山區忠孝一路60號","121.637423333333","25.2205316666667","6502700","金山區"
"208001","761-BX","2018/06/15 19:19:38","新北市金山區民生路69號","121.640193333333","25.2197083333333","6502700","金山區"
"251010","413-VK","2018/06/15 19:19:20","新北市淡水區沙崙路30號","121.421551666667","25.18151","6501000","淡水區"
"251007","442-VK","2018/06/15 19:19:42","新北市淡水區民生路117巷46號","121.464886666667","25.14009","6501000","淡水區"
"251005","443-VK","2018/06/15 19:19:32","新北市淡水區水源街一段34巷1號","121.443203333333","25.1722283333333","6501000","淡水區"
"251001","559-UM","2018/06/15 19:19:34","新北市淡水區自強路201巷39號","121.462131666667","25.12683","6501000","淡水區"
"251006","561-UM","2018/06/15 19:19:21","新北市淡水區大信街33號","121.442075","25.1773666666667","6501000","淡水區"
"251009","575-R6","2018/06/15 19:19:24","新北市淡水區中山北路一段6號","121.441471666667","25.174635","6501000","淡水區"
"251003","766-UM","2018/06/15 19:19:34","新北市淡水區中山北路一段168號","121.444458333333","25.1788066666667","6501000","淡水區"
"207003","550-UM","2018/06/15 19:19:39","新北市萬里區大鵬里萬里加投79-3號","121.647326666667","25.212365","6502800","萬里區"
"207004","225-TW","2018/06/15 19:19:31","新北市萬里區萬里里成功新村51號","121.688036666667","25.1745833333333","6502800","萬里區"
"252002","178-VK","2018/06/15 19:19:32","新北市三芝區淡金路二段18-1號","121.502706666667","25.25953","6502100","三芝區"
"252001","292-VK","2018/06/15 19:19:38","新北市三芝區長勤街37巷18號","121.501165","25.2551383333333","6502100","三芝區"
"237007","153-BY","2018/06/15 19:19:21","新北市三峽區二鬮路178號","121.35923","24.9067766666667","6500900","三峽區"
"237009","210-TH","2018/06/15 19:19:19","新北市三峽區信義街26號","121.370851666667","24.9353483333333","6500900","三峽區"
"237013","252-BX","2018/06/15 19:19:29","新北市三峽區光明路75巷4號","121.377191666667","24.927925","6500900","三峽區"
"237012","275-BY","2018/06/15 19:19:37","新北市三峽區三樹路222巷196-37號","121.389836666667","24.9424916666667","6500900","三峽區"
"237008","302-VK","2018/06/15 19:19:39","新北市三峽區大同路154號","121.373106666667","24.9267516666667","6500900","三峽區"
"237014","433-BY","2018/06/15 19:19:34","新北市三峽區中山路299巷11號","121.361178333333","24.9370866666667","6500900","三峽區"
"237006","5529-G3","2018/06/15 19:19:35","新北市三峽區介壽路一段361號","121.382511666667","24.9305883333333","6500900","三峽區"
"237015","649-BX","2018/06/15 19:19:35","新北市三峽區成福路319-1號","121.42997","24.9237966666667","6500900","三峽區"
"237011","760-BX","2018/06/15 19:19:32","新北市三峽區介壽路一段386號","121.383065","24.9308183333333","6500900","三峽區"
"237005","AKY-6261","2018/06/15 19:19:21","新北市三峽區隆恩街245號","121.3577","24.94079","6500900","三峽區"
"236069","105-UM","2018/06/15 19:19:27","新北市土城區裕民路10號","121.447268333333","24.9889166666667","6501300","土城區"
"236079","166-UM","2018/06/15 19:19:33","新北市土城區中央路四段321巷32號","121.411481666667","24.9514133333333","6501300","土城區"
"236026","269-VK","2018/06/15 19:19:32","新北市土城區中央路二段61巷26號","121.443305","24.9788383333333","6501300","土城區"
"236014","270-VK","2018/06/15 19:19:31","新北市土城區學府路一段15-2號","121.458438333333","24.9878533333333","6501300","土城區"
"236020","401-BY","2018/06/15 19:19:36","新北市土城區延吉街217巷13號","121.469033333333","24.98432","6501300","土城區"
"236059","752-BX","2018/06/15 19:19:34","新北市土城區中央路三段67號","121.438773333333","24.9693666666667","6501300","土城區"
"236048","913-UM","2018/06/15 19:19:32","新北市土城區明德路一段365-1號","121.453658333333","24.9790783333333","6501300","土城區"
"236055","AAC-216","2018/06/15 19:19:34","新北市土城區學府路一段276號","121.44986","24.983005","6501300","土城區"
"242058","986-R7","2018/06/15 19:19:32","新北市新莊區新泰路255巷83號","121.442066666667","25.039045","6500500","新莊區"
"238015","755-BX","2018/06/15 19:19:28","新北市樹林區大安路537巷7弄17號","121.413401666667","24.9851916666667","6500700","樹林區"
"238023","601-UM","2018/06/15 19:19:34","桃園市龜山區萬壽路一段346號","121.401733333333","25.0170483333333","6500700","樹林區"
"238019","599-UM","2018/06/15 19:19:31","新北市樹林區東榮街91巷1弄5號","121.41628","24.9826766666667","6500700","樹林區"
"238018","571-TV","2018/06/15 19:19:18","新北市樹林區中華路172-3號","121.413965","24.9803866666667","6500700","樹林區"
"238024","5061-A6","2018/06/15 19:19:24","新北市樹林區福德街50號","121.398533333333","24.97437","6500700","樹林區"
"238022","KEA-2213","2018/06/15 19:19:42","新北市樹林區中華路122號","121.417765","24.9806333333333","6500700","樹林區"
"238021","KEA-2539","2018/06/15 19:19:28","新北市樹林區柑園街二段339-1號","121.368888333333","24.9497866666667","6500700","樹林區"
"238025","303-VK","2018/06/15 19:19:32","新北市樹林區中山路一段179-1號","121.421468333333","24.9882883333333","6500700","樹林區"
"238017","283-BY","2018/06/15 19:19:20","新北市樹林區光榮街79號","121.412035","25.00305","6500700","樹林區"
"238014","282-BY","2018/06/15 19:19:21","新北市樹林區保安二街12號","121.424906666667","24.993885","6500700","樹林區"
"238020","268-VK","2018/06/15 19:19:36","新北市樹林區俊英街123巷50號","121.423181666667","25.0104316666667","6500700","樹林區"
"238026","172-UY","2018/06/15 19:19:13","新北市樹林區柑園街一段375號","121.388495","24.95576","6500700","樹林區"
"238016","169-UY","2018/06/15 19:19:34","新北市樹林區復興路464巷42-1號","121.412816666667","24.98348","6500700","樹林區"
"239007","AAC-297","2018/06/15 19:19:23","新北市鶯歌區大湖路185巷9弄11號","121.343996666667","24.9688616666667","6500800","鶯歌區"
"239006","891-R6","2018/06/15 19:19:35","新北市鶯歌區鶯桃路91巷6號","121.338998333333","24.953325","6500800","鶯歌區"
"239008","527-UM","2018/06/15 19:19:37","新北市鶯歌區國際二路4巷1號","121.338585","24.9732816666667","6500800","鶯歌區"
"239005","526-UM","2018/06/15 19:19:27","新北市鶯歌區中湖街57-13號","121.349228333333","24.97423","6500800","鶯歌區"
"239001","417-VK","2018/06/15 19:19:25","新北市鶯歌區建國路401號","121.337928333333","24.9507666666667","6500800","鶯歌區"
"239003","360-BY","2018/06/15 19:19:30","新北市鶯歌區中正二路40號","121.351136666667","24.9514416666667","6500800","鶯歌區"
"239002","359-BY","2018/06/15 19:19:29","新北市鶯歌區國際二路6巷2號","121.338351666667","24.97357","6500800","鶯歌區"
"239004","193-VK","2018/06/15 19:19:32","新北市鶯歌區二甲路38-1號","121.337943333333","24.9349866666667","6500800","鶯歌區"
"221008","489-VK","2018/06/15 19:19:22","新北市汐止區康寧街277號","121.62598","25.0670483333333","6501100","汐止區"
"221036","130-UY","2018/06/15 19:19:19","新北市汐止區汐萬路一段312號","121.650526666667","25.0754416666667","6501100","汐止區"
"221015","131-UY","2018/06/15 19:19:39","新北市汐止區康寧街901號","121.651616666667","25.07489","6501100","汐止區"
"221010","269-BY","2018/06/15 19:19:21","新北市汐止區康寧街901號","121.651386666667","25.0751066666667","6501100","汐止區"
"221012","278-VK","2018/06/15 19:19:22","新北市汐止區汐萬路一段312號","121.650583333333","25.0753783333333","6501100","汐止區"
"221023","279-VK","2018/06/15 19:19:31","新北市汐止區康寧街901號","121.650946666667","25.0751583333333","6501100","汐止區"
"221027","281-BY","2018/06/15 19:19:36","新北市汐止區康寧街901號","121.65133","25.0750033333333","6501100","汐止區"
"221029","298-VK","2018/06/15 19:19:34","新北市汐止區康寧街901號","121.65152","25.075","6501100","汐止區"
"221021","299-VK","2018/06/15 19:19:27","新北市汐止區康寧街901號","121.65151","25.0750316666667","6501100","汐止區"
"221031","353-TW","2018/06/15 19:19:22","新北市汐止區康寧街901號","121.650821666667","25.07526","6501100","汐止區"
"221025","623-UM","2018/06/15 19:19:28","新北市汐止區康寧街901號","121.651565","25.07495","6501100","汐止區"
"221038","646-BX","2018/06/15 19:19:28","新北市汐止區汐萬路一段312號","121.650686666667","25.0753483333333","6501100","汐止區"
"221033","647-BX","2018/06/15 19:19:25","新北市汐止區南勢街1巷1號","121.627026666667","25.037505","6501100","汐止區"
"221002","707-TV","2018/06/15 19:19:29","新北市汐止區大同路一段329號","121.638241666667","25.0592866666667","6501100","汐止區"
"220079","145-BY","2018/06/15 19:19:35","新北市板橋區民權路202巷36號","121.460615","25.0174783333333","6500100","板橋區"
"220080","200-UY","2018/06/15 19:19:27","新北市板橋區大觀路二段19巷11號","121.447373333333","25.0032533333333","6500100","板橋區"
"220082","610-BX","2018/06/15 19:19:38","新北市板橋區溪城路79號","121.426606666667","24.98355","6500100","板橋區"
"220101","245-BX","2018/06/15 19:19:36","新北市板橋區莊敬路25巷4弄9-1號","121.474061666667","25.027145","6500100","板橋區"
"220055","256-TC","2018/06/15 19:19:22","新北市板橋區民族路166號","121.464818333333","25.008365","6500100","板橋區"
"220068","257-TC","2018/06/15 19:19:28","新北市板橋區翠華街6巷61號","121.481178333333","25.0249816666667","6500100","板橋區"
"220091","267-BY","2018/06/15 19:19:33","新北市板橋區萬板路478號","121.480003333333","25.0260216666667","6500100","板橋區"
"220056","276-BY","2018/06/15 19:19:27","新北市板橋區信義路152號","121.459151666667","24.9916433333333","6500100","板橋區"
"220072","277-BY","2018/06/15 19:19:40","新北市板橋區金門街337巷6弄1號","121.429588333333","24.98535","6500100","板橋區"
"220094","280-UM","2018/06/15 19:19:21","新北市板橋區吳鳳路21巷2號","121.466976666667","25.0312183333333","6500100","板橋區"
"220071","283-VK","2018/06/15 19:19:32","新北市板橋區大豐街111號","121.461221666667","25.0011616666667","6500100","板橋區"
"220053","285-VK","2018/06/15 19:19:34","新北市板橋區富山街18巷2-2號","121.47847","25.0220716666667","6500100","板橋區"
"220083","286-VK","2018/06/15 19:19:37","新北市板橋區大觀路二段174巷166弄7號","121.442446666667","25.0031033333333","6500100","板橋區"
"220081","287-VK","2018/06/15 19:19:36","新北市板橋區南雅西路一段49號","121.453678333333","25.0048416666667","6500100","板橋區"
"220061","293-UM","2018/06/15 19:19:36","新北市板橋區中山路二段318巷17號","121.4804","25.01871","6500100","板橋區"
"220062","295-UM","2018/06/15 19:19:37","新北市板橋區三民路二段居仁巷2號","121.47938","25.0132233333333","6500100","板橋區"
"220084","296-UM","2018/06/15 19:19:30","新北市板橋區滿平街136巷8弄12號","121.427456666667","24.9876966666667","6500100","板橋區"
"220075","303-R5","2018/06/15 19:19:18","新北市板橋區中正路289巷10號","121.454975","25.0192183333333","6500100","板橋區"
"220092","307-R5","2018/06/15 19:19:36","新北市板橋區光武街48巷6-1號","121.467373333333","25.0266366666667","6500100","板橋區"
"220098","317-R6","2018/06/15 19:19:36","新北市板橋區民有街88號","121.464948333333","25.0273783333333","6500100","板橋區"
"220064","486-VK","2018/06/15 19:19:34","新北市板橋區板新路238號","121.468253333333","25.0160066666667","6500100","板橋區"
"220088","491-VK","2018/06/15 19:19:28","新北市板橋區三民路一段98號","121.479281666667","25.0213833333333","6500100","板橋區"
"220035","560-BX","2018/06/15 19:19:35","新北市板橋區中正路433巷29號","121.453013333333","25.0237583333333","6500100","板橋區"
"220103","561-BX","2018/06/15 19:19:34","新北市板橋區介壽街20號","121.467675","25.0200883333333","6500100","板橋區"
"220063","609-BX","2018/06/15 19:19:24","新北市板橋區三民路二段187號","121.479065","25.0141533333333","6500100","板橋區"
"220057","686-BX","2018/06/15 19:19:26","新北市板橋區國慶路210號","121.463708333333","24.9970716666667","6500100","板橋區"
"220077","687-BX","2018/06/15 19:19:19","新北市板橋區僑中二街92巷2號","121.446338333333","25.0089216666667","6500100","板橋區"
"220093","689-BX","2018/06/15 19:19:34","新北市板橋區文化路一段311號","121.466243333333","25.0202933333333","6500100","板橋區"
"220054","741-BX","2018/06/15 19:19:36","新北市板橋區四川路一段183號","121.460601666667","25.0037466666667","6500100","板橋區"
"220102","KEA-2699","2018/06/15 19:19:31","新北市板橋區文聖街205巷4號","121.480013333333","25.0264066666667","6500100","板橋區"
"220067","830-TW","2018/06/15 19:19:37","新北市板橋區長安街138巷7弄38號","121.473963333333","25.0088366666667","6500100","板橋區"
"220096","831-TW","2018/06/15 19:19:42","新北市板橋區大同街26巷28號","121.47832","25.0264933333333","6500100","板橋區"
"220089","833-TW","2018/06/15 19:19:18","新北市板橋區文化路一段419號","121.467811666667","25.022655","6500100","板橋區"
"220074","895-R6","2018/06/15 19:19:30","新北市板橋區民權路101巷2號","121.458975","25.0133666666667","6500100","板橋區"
"220073","985-R7","2018/06/15 19:19:33","新北市板橋區新生街32號","121.45637","25.0211316666667","6500100","板橋區"
"220097","AAC-210","2018/06/15 19:19:27","新北市板橋區幸福路60巷6號","121.460665","25.0209966666667","6500100","板橋區"
"220070","AAC-253","2018/06/15 19:19:30","新北市板橋區忠孝路85號","121.462135","25.00218","6500100","板橋區"
"235068","KEA-2873","2018/06/15 19:19:27","新北市中和區連勝街38巷2號","121.497898333333","24.9978416666667","6500300","中和區"
"235061","KEA-2875","2018/06/15 19:19:41","新北市中和區員山路214號","121.481331666667","25.000865","6500300","中和區"
