"lineid","car","time","location","longitude","latitude","cityid","cityname"
"234046","148-BY","2018/06/15 19:29:29","新北市永和區秀朗路二段231號","121.52648","25.00023","6500400","永和區"
"234007","207-UY","2018/06/15 19:29:29","新北市永和區永和路二段5號","121.514465","25.010115","6500400","永和區"
"234081","298-R6","2018/06/15 19:29:39","新北市永和區環河東路三段60號","121.527021666667","25.0059216666667","6500400","永和區"
"234038","336-UY","2018/06/15 19:29:37","新北市永和區民樂街38號","121.527463333333","25.000725","6500400","永和區"
"234064","337-UY","2018/06/15 19:29:36","新北市永和區中正路368巷1弄86號","121.520451666667","25.0007733333333","6500400","永和區"
"234086","338-UY","2018/06/15 19:29:32","新北市永和區永利路69號","121.519753333333","25.004945","6500400","永和區"
"234070","552-UM","2018/06/15 19:29:31","新北市永和區警光街5-1號","121.519721666667","25.0094983333333","6500400","永和區"
"234017","745-BX","2018/06/15 19:29:37","新北市永和區環河西路一段57號","121.513608333333","25.0181816666667","6500400","永和區"
"234030","746-BX","2018/06/15 19:29:35","新北市永和區民生路63號","121.522655","24.997355","6500400","永和區"
"234054","KEA-2590","2018/06/15 19:29:33","新北市永和區復興街21號","121.51613","25.0130616666667","6500400","永和區"
"234013","KEA-2591","2018/06/15 19:29:34","新北市永和區中山路一段184巷7號","121.508628333333","25.0093","6500400","永和區"
"234061","AAD-866","2018/06/15 19:29:31","新北市永和區中正路568號","121.517171666667","25.006195","6500400","永和區"
"234042","862-TW","2018/06/15 19:29:33","新北市永和區中和路547巷3弄18號","121.51085","25.0034583333333","6500400","永和區"
"234050","863-TW","2018/06/15 19:29:35","新北市永和區信義路120號","121.512438333333","25.0146833333333","6500400","永和區"
"234026","9371-KE","2018/06/15 19:29:33","新北市永和區中正路47號","121.51431","24.99638","6500400","永和區"
"234011","9373-KE","2018/06/15 19:29:33","新北市永和區保福路二段85號","121.510641666667","25.0127516666667","6500400","永和區"
"249002","305-UY","2018/06/15 19:29:36","新北市八里區龍形一街33巷6-1號","121.449313333333","25.1295166666667","6502300","八里區"
"249003","593-UM","2018/06/15 19:29:40","新北市八里區商港六路11號","121.39694","25.1481366666667","6502300","八里區"
"248014","025-BX","2018/06/15 19:29:34","新北市五股區民義路一段157-22號","121.431051666667","25.0867466666667","6501500","五股區"
"248008","095-VK","2018/06/15 19:29:21","新北市五股區中興路一段95巷7號","121.466643333333","25.0725416666667","6501500","五股區"
"248018","225-UY","2018/06/15 19:22:18","新北市五股區壟路16號","121.4151","25.0853816666667","6501500","五股區"
"248012","247-BX","2018/06/15 19:29:29","新北市五股區成泰路二段97號","121.437935","25.0843066666667","6501500","五股區"
"248010","272-BY","2018/06/15 19:29:35","新北市五股區水碓二路1號","121.430626666667","25.0712466666667","6501500","五股區"
"248004","677-BX","2018/06/15 19:29:25","新北市五股區五福路2號","121.43409","25.08758","6501500","五股區"
"248002","678-BX","2018/06/15 19:29:26","新北市五股區凌雲路一段158巷14-1號","121.447946666667","25.1034666666667","6501500","五股區"
"234023","9380-KE","2018/06/15 19:29:24","新北市永和區竹林路91巷43弄2號","121.521318333333","25.0128166666667","6500400","永和區"
"234077","969-R7","2018/06/15 19:29:31","新北市永和區民族街43巷15號","121.519191666667","24.9984033333333","6500400","永和區"
"234074","AAC-211","2018/06/15 19:29:35","新北市永和區環河東路二段10號","121.52221","25.0132666666667","6500400","永和區"
"234067","AAC-212","2018/06/15 19:29:31","新北市永和區永貞路345號","121.509403333333","25.0073066666667","6500400","永和區"
"234003","AAC-295","2018/06/15 19:29:35","新北市永和區永和路一段118號","121.514175","25.00775","6500400","永和區"
"244023","483-VK","2018/06/15 19:29:29","新北市林口區仁愛路二段267巷1號","121.373476666667","25.0772283333333","6501700","林口區"
"244017","485-VK","2018/06/15 19:29:34","新北市林口區湖南里70-9號","121.375976666667","25.08971","6501700","林口區"
"243013","AAD-798","2018/06/15 19:29:22","新北市泰山區貴子路36巷10號","121.425866666667","25.04125","6501600","泰山區"
"243009","297-R6","2018/06/15 19:29:31","新北市泰山區和平街13巷13號","121.434346666667","25.0652133333333","6501600","泰山區"
"243016","380-SR","2018/06/15 19:29:32","新北市泰山區工專路63號","121.42237","25.040345","6501600","泰山區"
"243015","421-VK","2018/06/15 19:29:34","新北市泰山區明志路二段136巷1-1號","121.427225","25.0511766666667","6501600","泰山區"
"243011","KEA-2215","2018/06/15 19:29:29","新北市泰山區貴子路120號","121.428228333333","25.0406566666667","6501600","泰山區"
"243010","KEA-2216","2018/06/15 19:29:31","新北市泰山區民生路17巷63號","121.42925","25.051","6501600","泰山區"
"243012","646-TV","2018/06/15 19:29:38","新北市泰山區仁愛路6巷5弄5號","121.43092","25.054155","6501600","泰山區"
"243014","680-BX","2018/06/15 19:29:36","新北市泰山區仁義路220巷53號","121.432155","25.05265","6501600","泰山區"
"222003","436-BY","2018/06/15 19:29:28","新北市深坑區深南路51-1號","121.621246666667","25.0097866666667","6501800","深坑區"
"222002","659-BX","2018/06/15 19:29:30","新北市深坑區北深路一段177號","121.63255","25.01089","6501800","深坑區"
"231041","002-UM","2018/06/15 19:29:32","新北市新店區中正路545號","121.533741666667","24.987585","6500600","新店區"
"231059","046-UY","2018/06/15 19:29:33","新北市新店區安和路三段7號","121.518071666667","24.9805066666667","6500600","新店區"
"231040","047-UY","2018/06/15 19:29:33","新北市新店區北新路一段72號","121.541293333333","24.966885","6500600","新店區"
"231044","106-UY","2018/06/15 19:29:35","新北市新店區中興路三段137號","121.544575","24.9797266666667","6500600","新店區"
"231053","108-UY","2018/06/15 19:29:22","新北市新店區廣興路15號","121.54202","24.9121466666667","6500600","新店區"
"231048","187-VK","2018/06/15 19:29:31","新北市新店區五峰路127號","121.544923333333","24.9662516666667","6500600","新店區"
"231046","188-VK","2018/06/15 19:29:35","新北市新店區安康路一段3-1號","121.535593333333","24.960985","6500600","新店區"
"231054","KEA-2219","2018/06/15 19:29:25","新北市新店區文中路40號","121.53961","24.9565633333333","6500600","新店區"
"231057","256-BX","2018/06/15 19:29:38","新北市新店區花園一路三段45號","121.550573333333","24.9329033333333","6500600","新店區"
"231042","268-BY","2018/06/15 19:29:22","新北市新店區北宜路一段3號","121.53848","24.9583433333333","6500600","新店區"
"231051","278-BY","2018/06/15 19:29:22","新北市新店區中央五街36號","121.528576666667","24.97488","6500600","新店區"
"231050","AAD-862","2018/06/15 19:29:34","新北市新店區竹林路97巷10號","121.55401","24.94963","6500600","新店區"
"231058","3713-VJ","2018/06/15 19:29:33","新北市新店區寶橋路77號","121.545843333333","24.975345","6500600","新店區"
"231066","4716-K9","2018/06/15 19:29:27","新北市新店區安康路三段207巷19號","121.48845","24.9508166666667","6500600","新店區"
"231067","4772-VM","2018/06/15 19:29:28","新北市新店區精忠路10-1號","121.532688333333","24.959045","6500600","新店區"
"231065","512-UM","2018/06/15 19:29:37","新北市新店區安祥路109巷1弄67號","121.478355","24.9607166666667","6500600","新店區"
"231049","513-UM","2018/06/15 19:29:21","新北市新店區北新路三段65巷12弄24號","121.54079","24.98173","6500600","新店區"
"231045","617-UM","2018/06/15 19:29:20","新北市新店區北宜路二段213號","121.553231666667","24.95344","6500600","新店區"
"231061","619-UM","2018/06/15 19:29:38","新北市新店區安康路一段228號","121.523265","24.963645","6500600","新店區"
"231063","641-BX","2018/06/15 19:29:32","新北市新店區達觀路16號","121.503383333333","24.9406833333333","6500600","新店區"
"231064","719-UM","2018/06/15 19:29:32","新北市新店區安忠路23號","121.514421666667","24.9612983333333","6500600","新店區"
"231062","720-UM","2018/06/15 19:29:22","新北市新店區安康路一段133號","121.527931666667","24.961885","6500600","新店區"
"231060","897-TW","2018/06/15 19:29:29","新北市新店區安康路二段6號","121.51637","24.9638216666667","6500600","新店區"
"231043","899-TW","2018/06/15 19:29:32","新北市新店區北新路二段187號","121.5428","24.9777","6500600","新店區"
"231055","AKT-0513","2018/06/15 19:29:30","新北市新店區環河路119號","121.532088333333","24.97073","6500600","新店區"
"241028","022-UY","2018/06/15 19:29:22","新北市三重區中寮街90號","121.493228333333","25.05806","6500200","三重區"
"241008","059-VK","2018/06/15 19:29:34","新北市三重區永福街135巷36號","121.477385","25.077225","6500200","三重區"
"241009","060-VK","2018/06/15 19:29:19","新北市三重區仁美街123號","121.485565","25.0813133333333","6500200","三重區"
"241031","061-VK","2018/06/15 19:29:40","新北市三重區集美街100號","121.488535","25.0541566666667","6500200","三重區"
"241017","063-VK","2018/06/15 19:29:30","新北市三重區中正北路25巷25弄7號","121.493468333333","25.0628133333333","6500200","三重區"
"241022","267-UM","2018/06/15 19:29:28","新北市三重區三民街163-1號","121.483538333333","25.064815","6500200","三重區"
"241013","270-UM","2018/06/15 19:29:24","新北市三重區仁愛街119號","121.495486666667","25.0746633333333","6500200","三重區"
"241025","271-UM","2018/06/15 19:29:28","新北市三重區頂崁街210巷28弄9號","121.475818333333","25.0671916666667","6500200","三重區"
"241007","398-BY","2018/06/15 19:29:35","新北市三重區慈愛街151號","121.489503333333","25.079425","6500200","三重區"
"241035","KEA-2210","2018/06/15 19:29:22","新北市三重區正義北路86號","121.497018333333","25.0645666666667","6500200","三重區"
"241020","478-VK","2018/06/15 19:29:27","新北市三重區三和路四段44巷10號","121.490015","25.0743983333333","6500200","三重區"
"241030","480-VK","2018/06/15 19:29:37","新北市三重區成功路41巷13號","121.490285","25.0515283333333","6500200","三重區"
"241006","AAD-863","2018/06/15 19:29:40","新北市三重區自強路三段116號","121.487331666667","25.0749366666667","6500200","三重區"
"241026","887-TS","2018/06/15 19:29:22","新北市三重區光興街61號","121.498715","25.0603783333333","6500200","三重區"
"241029","942-UM","2018/06/15 19:29:21","新北市三重區中正南路218號","121.493735","25.0549616666667","6500200","三重區"
"235064","005-UY","2018/06/15 19:29:22","新北市中和區南山路66號","121.502388333333","24.9962133333333","6500300","中和區"
"235027","006-UY","2018/06/15 19:29:37","新北市中和區連城路249巷17弄2號","121.493888333333","24.9963833333333","6500300","中和區"
"235056","096-UM","2018/06/15 19:29:30","新北市中和區中山路三段108號","121.476826666667","25.006315","6500300","中和區"
"235039","097-UM","2018/06/15 19:29:35","新北市中和區秀峰街103巷2弄4號","121.519963333333","24.99053","6500300","中和區"
"235065","098-UM","2018/06/15 19:29:19","新北市中和區永和路66巷1-1號","121.498605","25.0046716666667","6500300","中和區"
"235040","150-BY","2018/06/15 19:29:39","新北市中和區保健路10巷23弄2號","121.508143333333","24.9966266666667","6500300","中和區"
"235058","151-BY","2018/06/15 19:29:30","新北市中和區連城路467-5號","121.483711666667","24.9960366666667","6500300","中和區"
"235055","183-VK","2018/06/15 19:29:24","新北市中和區國光街102巷40號","121.47119","25.0006816666667","6500300","中和區"
"235038","185-VK","2018/06/15 19:29:29","新北市中和區自立路127號","121.521956666667","24.9941316666667","6500300","中和區"
"235049","186-VK","2018/06/15 19:29:40","新北市中和區景新街246號","121.509293333333","24.99344","6500300","中和區"
"235067","255-BX","2018/06/15 19:29:26","新北市中和區連城路326號","121.483296666667","24.9959266666667","6500300","中和區"
"235044","293-VK","2018/06/15 19:29:21","新北市中和區捷運路100-1號","121.50643","24.991235","6500300","中和區"
"235043","352-BY","2018/06/15 19:29:39","新北市中和區安和路51號","121.509021666667","24.9948683333333","6500300","中和區"
"235050","4979-A6","2018/06/15 19:29:27","新北市中和區中正路428號","121.491508333333","24.99435","6500300","中和區"
"235042","551-UM","2018/06/15 19:29:21","新北市中和區安平路158號","121.512673333333","24.9984366666667","6500300","中和區"
"235070","558-UM","2018/06/15 19:29:26","新北市中和區景平路509號","121.49956","24.9988383333333","6500300","中和區"
"235045","565-BX","2018/06/15 19:29:32","新北市中和區景新街399巷5號","121.512855","24.9898716666667","6500300","中和區"
"235054","640-BX","2018/06/15 19:29:20","新北市中和區國光街112巷22弄3號","121.469826666667","25.0023733333333","6500300","中和區"
"235060","647-TV","2018/06/15 19:29:32","新北市中和區員山路467號","121.480381666667","25.0045183333333","6500300","中和區"
"235047","732-UM","2018/06/15 19:29:32","新北市中和區景平路239巷34號","121.5084","24.9923716666667","6500300","中和區"
"235046","733-UM","2018/06/15 19:29:26","新北市中和區忠孝街37巷67號","121.510573333333","24.984785","6500300","中和區"
"235071","783-BX","2018/06/15 19:29:35","新北市中和區連城路469巷21弄22號","121.48423","24.9950616666667","6500300","中和區"
"235057","801-TS","2018/06/15 19:29:38","新北市中和區員山路374號","121.48074","25.0041316666667","6500300","中和區"
"235041","802-TS","2018/06/15 19:29:33","新北市中和區中安街78號","121.512268333333","25.00188","6500300","中和區"
"235052","805-TS","2018/06/15 19:29:30","新北市中和區華新街143巷63弄2號","121.506398333333","24.979215","6500300","中和區"
"235048","896-TW","2018/06/15 19:29:28","新北市中和區忠孝街113巷2號","121.51254","24.9874433333333","6500300","中和區"
"235053","900-TW","2018/06/15 19:29:38","新北市中和區華順街30巷5號","121.467205","24.9990883333333","6500300","中和區"
"235051","157-BY","2018/06/15 19:29:32","新北市中和區景新街130號","121.505156666667","24.997975","6500300","中和區"
"235037","AAC-213","2018/06/15 19:29:32","新北市中和區秀朗路三段93號","121.526501666667","24.9954533333333","6500300","中和區"
"235059","AAC-215","2018/06/15 19:29:24","新北市中和區圓通路252巷6-2號","121.492855","24.9919266666667","6500300","中和區"
"220069","015-TV","2018/06/15 19:29:24","新北市板橋區稚暉街18號","121.455948333333","25.0043233333333","6500100","板橋區"
"220065","072-UY","2018/06/15 19:29:38","新北市板橋區國泰街111巷13號","121.466001666667","25.0060733333333","6500100","板橋區"
"220086","073-UY","2018/06/15 19:29:17","新北市板橋區中正路236巷12號","121.456298333333","25.01903","6500100","板橋區"
"220106","075-UY","2018/06/15 19:29:31","新北市板橋區江寧路三段115-4號","121.473056666667","25.032895","6500100","板橋區"
"220090","120-SR","2018/06/15 19:29:31","新北市板橋區裕民街87-4號","121.460415","25.028085","6500100","板橋區"
"226004","312-R5","2018/06/15 19:29:28","新北市平溪區十分里十分街66巷2號","121.775758333333","25.0421283333333","6502400","平溪區"
"235066","251-BX","2018/06/15 19:29:26","新北市中和區景新街22號","121.50296","24.9992466666667","6500300","中和區"
"228001","212-TW","2018/06/15 19:29:35","新北市貢寮區真理里延平街68號","121.925376666667","25.0574366666667","6502600","貢寮區"
"228002","663-BX","2018/06/15 19:29:29","新北市貢寮區龍門里龍門街78號","121.931011666667","25.0265833333333","6502600","貢寮區"
"228003","828-UM","2018/06/15 19:29:20","新北市貢寮區和美里和美街22-1號","121.912813333333","25.08262","6502600","貢寮區"
"224010","AGQ-8101","2018/06/15 19:22:03","新北市瑞芳區基山街95號","121.844678333333","25.1084066666667","6501200","瑞芳區"
"227003","642-TC","2018/06/15 19:29:26","新北市雙溪區雙溪里光復街22號","121.865203333333","25.035455","6502500","雙溪區"
"227011","400-TW","2018/06/15 19:29:32","新北市雙溪區新基里新基北街43號","121.868171666667","25.03969","6502500","雙溪區"
"253005","032-BX","2018/06/15 19:29:28","新北市石門區小坑9號","121.594395","25.2883816666667","6502200","石門區"
"222001","KEA-2212","2018/06/15 19:29:39","新北市深坑區北深路二段134號","121.615883333333","25.00288","6501800","深坑區"
"208002","KEA-2872","2018/06/15 19:29:35","新北市金山區仁愛路59號","121.635251666667","25.2209166666667","6502700","金山區"
"208003","665-BX","2018/06/15 19:29:21","新北市金山區中山路263巷14號","121.636411666667","25.2215566666667","6502700","金山區"
"208001","761-BX","2018/06/15 19:29:38","新北市金山區中正路65號","121.63408","25.22191","6502700","金山區"
"251008","181-VK","2018/06/15 19:29:23","新北市淡水區中正路一段122號","121.422983333333","25.17848","6501000","淡水區"
"251010","413-VK","2018/06/15 19:29:20","新北市淡水區中正路二段142-1號","121.42209","25.18756","6501000","淡水區"
"251012","441-VK","2018/06/15 19:29:23","新北市淡水區崁頂70-2號","121.437058333333","25.20318","6501000","淡水區"
"251007","442-VK","2018/06/15 19:29:21","新北市淡水區坪頂路49號","121.457743333333","25.1624933333333","6501000","淡水區"
"251005","443-VK","2018/06/15 19:29:32","新北市淡水區水源街一段71巷24號","121.444226666667","25.1729566666667","6501000","淡水區"
"251001","559-UM","2018/06/15 19:29:34","新北市淡水區民權路177號","121.459895","25.1353533333333","6501000","淡水區"
"251006","561-UM","2018/06/15 19:29:33","新北市淡水區大義街36號","121.442255","25.1783616666667","6501000","淡水區"
"251009","575-R6","2018/06/15 19:29:24","新北市淡水區水碓街10號","121.44361","25.1769433333333","6501000","淡水區"
"251011","650-BX","2018/06/15 19:29:35","新北市淡水區中正東路二段143巷2弄1號","121.46062","25.1473","6501000","淡水區"
"207003","550-UM","2018/06/15 19:29:24","新北市萬里區大鵬里萬里加投249號","121.64435","25.215585","6502800","萬里區"
"207004","225-TW","2018/06/15 19:29:21","新北市萬里區萬里里瑪鋉路127-8號","121.688916666667","25.1777633333333","6502800","萬里區"
"252002","178-VK","2018/06/15 19:29:32","新北市三芝區淡金路二段18-1號","121.502698333333","25.259525","6502100","三芝區"
"252001","292-VK","2018/06/15 19:29:38","新北市三芝區長勤街63-1號","121.500098333333","25.2560983333333","6502100","三芝區"
"237007","153-BY","2018/06/15 19:29:31","新北市三峽區二鬮路136巷20弄83號","121.358193333333","24.9089033333333","6500900","三峽區"
"237009","210-TH","2018/06/15 19:29:39","新北市三峽區民權街141號","121.368808333333","24.9319","6500900","三峽區"
"237013","252-BX","2018/06/15 19:29:29","新北市三峽區介壽路一段340號","121.381338333333","24.9300616666667","6500900","三峽區"
"237012","275-BY","2018/06/15 19:29:37","新北市三峽區三樹路110號","121.378356666667","24.9392083333333","6500900","三峽區"
"237008","302-VK","2018/06/15 19:29:19","新北市三峽區永安街143號","121.37361","24.9281983333333","6500900","三峽區"
"237014","433-BY","2018/06/15 19:29:34","新北市三峽區中山路62號","121.368141666667","24.9345416666667","6500900","三峽區"
"237006","5529-G3","2018/06/15 19:29:35","新北市三峽區中正路一段336巷15弄2號","121.369953333333","24.9249483333333","6500900","三峽區"
"237015","649-BX","2018/06/15 19:29:35","新北市三峽區成福路135號","121.42025","24.92991","6500900","三峽區"
"237011","760-BX","2018/06/15 19:29:32","新北市三峽區中正路一段298號","121.371453333333","24.9256633333333","6500900","三峽區"
"237005","AKY-6261","2018/06/15 19:29:21","新北市三峽區中山路286號","121.361003333333","24.93797","6500900","三峽區"
"236069","105-UM","2018/06/15 19:29:36","新北市土城區學府路一段129巷28號","121.454491666667","24.98577","6501300","土城區"
"236079","166-UM","2018/06/15 19:29:33","新北市土城區中州路12巷1號","121.414836666667","24.957285","6501300","土城區"
"236030","253-BX","2018/06/15 19:29:33","新北市土城區中央路一段324號","121.443196666667","24.9814733333333","6501300","土城區"
"236026","269-VK","2018/06/15 19:29:32","新北市土城區中央路二段61巷22號","121.443315","24.9789416666667","6501300","土城區"
"236020","401-BY","2018/06/15 19:29:36","新北市土城區延峰街5號","121.468648333333","24.9865983333333","6501300","土城區"
"236059","752-BX","2018/06/15 19:29:34","新北市土城區中央路二段63號","121.442681666667","24.978895","6501300","土城區"
"236048","913-UM","2018/06/15 19:29:32","新北市土城區清水路203號","121.459995","24.9817033333333","6501300","土城區"
"236055","AAC-216","2018/06/15 19:29:34","新北市土城區學府路一段276號","121.44989","24.9829983333333","6501300","土城區"
"242007","413-TV","2018/06/15 19:29:25","新北市新莊區新泰路357巷3弄57號","121.442033333333","25.039395","6500500","新莊區"
"242023","362-BY","2018/06/15 19:29:39","新北市新莊區新泰路502巷36號","121.443513333333","25.0465383333333","6500500","新莊區"
"242032","347-TH","2018/06/15 19:29:22","新北市新莊區新泰路225巷24號","121.445166666667","25.03912","6500500","新莊區"
"242013","351-TH","2018/06/15 19:29:25","新北市新莊區新泰路488號","121.442416666667","25.0457633333333","6500500","新莊區"
"238015","755-BX","2018/06/15 19:29:32","新北市樹林區樹德街48號","121.421145","24.9918866666667","6500700","樹林區"
"238023","601-UM","2018/06/15 19:29:34","新北市樹林區三福街44號","121.407868333333","25.0164866666667","6500700","樹林區"
"238019","599-UM","2018/06/15 19:29:31","新北市樹林區東榮街88巷8號","121.415841666667","24.9829816666667","6500700","樹林區"
"238018","571-TV","2018/06/15 19:29:18","新北市樹林區中華路5號","121.424526666667","24.983815","6500700","樹林區"
"238024","5061-A6","2018/06/15 19:29:32","新北市樹林區中山路三段92號","121.393171666667","24.9723","6500700","樹林區"
"238022","KEA-2213","2018/06/15 19:29:22","新北市樹林區太平路96號","121.418706666667","24.9794516666667","6500700","樹林區"
"238021","KEA-2539","2018/06/15 19:29:28","新北市樹林區大成路158號","121.381911666667","24.94769","6500700","樹林區"
"238025","303-VK","2018/06/15 19:29:32","新北市樹林區中山路一段141號","121.422361666667","24.9896033333333","6500700","樹林區"
"238017","283-BY","2018/06/15 19:29:20","新北市樹林區保安街二段105號","121.415423333333","25.0013","6500700","樹林區"
"238014","282-BY","2018/06/15 19:29:41","新北市樹林區保安二街64巷25號","121.424443333333","24.9966416666667","6500700","樹林區"
"238020","268-VK","2018/06/15 19:29:36","新北市樹林區俊英街107號","121.425041666667","25.00961","6500700","樹林區"
"239006","891-R6","2018/06/15 19:29:35","新北市鶯歌區永昌街136號","121.339888333333","24.9503783333333","6500800","鶯歌區"
"239008","527-UM","2018/06/15 19:29:37","新北市鶯歌區大湖路460巷3號","121.339905","24.9724433333333","6500800","鶯歌區"
"239001","417-VK","2018/06/15 19:29:25","新北市鶯歌區尖山埔路二段39號","121.342255","24.948845","6500800","鶯歌區"
"239003","360-BY","2018/06/15 19:29:30","新北市鶯歌區中山路192號","121.348303333333","24.95698","6500800","鶯歌區"
"239002","359-BY","2018/06/15 19:29:29","新北市鶯歌區湖山路17號","121.34043","24.973675","6500800","鶯歌區"
"221008","489-VK","2018/06/15 19:29:22","新北市汐止區康寧街145號","121.621845","25.066675","6501100","汐止區"
"221036","130-UY","2018/06/15 19:29:40","新北市汐止區汐萬路一段312號","121.650581666667","25.0754283333333","6501100","汐止區"
"221015","131-UY","2018/06/15 19:29:39","新北市汐止區康寧街901號","121.651598333333","25.074975","6501100","汐止區"
"221010","269-BY","2018/06/15 19:29:21","新北市汐止區連峰街3巷1號","121.64653","25.0764683333333","6501100","汐止區"
"221012","278-VK","2018/06/15 19:29:39","新北市汐止區大同路三段174號","121.674043333333","25.0750533333333","6501100","汐止區"
"221023","279-VK","2018/06/15 19:29:31","新北市汐止區康寧街597號","121.635468333333","25.0703133333333","6501100","汐止區"
"221027","281-BY","2018/06/15 19:29:36","新北市汐止區忠孝東路9號","121.658313333333","25.06596","6501100","汐止區"
"221029","298-VK","2018/06/15 19:29:34","新北市汐止區康寧街901號","121.651486666667","25.0749966666667","6501100","汐止區"
"221021","299-VK","2018/06/15 19:29:27","新北市汐止區康寧街901號","121.651416666667","25.0750666666667","6501100","汐止區"
"221031","353-TW","2018/06/15 19:29:22","新北市汐止區康寧街901號","121.650813333333","25.0752483333333","6501100","汐止區"
"221025","623-UM","2018/06/15 19:29:28","新北市汐止區新台五路二段6號","121.660188333333","25.0649916666667","6501100","汐止區"
"221038","646-BX","2018/06/15 19:29:28","新北市汐止區汐萬路一段37號","121.655606666667","25.0682116666667","6501100","汐止區"
"221033","647-BX","2018/06/15 19:29:25","新北市汐止區南勢街3號","121.627056666667","25.0373766666667","6501100","汐止區"
"221002","707-TV","2018/06/15 19:29:29","新北市汐止區大同路一段337巷15弄1號","121.637746666667","25.059985","6501100","汐止區"
"220079","145-BY","2018/06/15 19:29:21","新北市板橋區建國街29-1號","121.458098333333","25.017","6500100","板橋區"
"220080","200-UY","2018/06/15 19:29:27","新北市板橋區大觀路二段37巷126號","121.449471666667","25.00215","6500100","板橋區"
"220082","610-BX","2018/06/15 19:29:38","新北市板橋區金門街96-2號","121.43311","24.9924783333333","6500100","板橋區"
"220101","245-BX","2018/06/15 19:29:36","新北市板橋區縣民大道三段133巷30號","121.477226666667","25.0238583333333","6500100","板橋區"
"220055","256-TC","2018/06/15 19:29:22","新北市板橋區重慶路183號","121.46284","25.0022933333333","6500100","板橋區"
"220068","257-TC","2018/06/15 19:29:28","新北市板橋區林森街1巷1號","121.482065","25.0241483333333","6500100","板橋區"
"220091","267-BY","2018/06/15 19:29:33","新北市板橋區文聖街135巷29號","121.479093333333","25.029025","6500100","板橋區"
"220056","276-BY","2018/06/15 19:29:26","新北市板橋區國慶路49巷19弄2號","121.459301666667","24.9963533333333","6500100","板橋區"
"220072","277-BY","2018/06/15 19:29:31","新北市板橋區金門街253巷16弄20號","121.432373333333","24.98764","6500100","板橋區"
"220094","280-UM","2018/06/15 19:29:30","新北市板橋區吳鳳路38號","121.468536666667","25.0303166666667","6500100","板橋區"
"220071","283-VK","2018/06/15 19:29:33","新北市板橋區忠孝路26號","121.460118333333","25.0016983333333","6500100","板橋區"
"220053","285-VK","2018/06/15 19:29:34","新北市板橋區永豐街100號","121.475885","25.02055","6500100","板橋區"
"220083","286-VK","2018/06/15 19:29:37","新北市板橋區大觀路一段38巷184號","121.441415","25.00461","6500100","板橋區"
"220081","287-VK","2018/06/15 19:29:23","新北市板橋區大觀路一段75巷28號","121.448206666667","25.0042166666667","6500100","板橋區"
"220061","293-UM","2018/06/15 19:29:40","新北市板橋區中山路二段257號","121.477293333333","25.0178083333333","6500100","板橋區"
"220062","295-UM","2018/06/15 19:29:37","新北市板橋區三民路二段153巷4號","121.479655","25.0148583333333","6500100","板橋區"
"220084","296-UM","2018/06/15 19:29:35","新北市板橋區滿平街84巷100弄19號","121.42581","24.9859516666667","6500100","板橋區"
"220075","303-R5","2018/06/15 19:29:38","新北市板橋區大勇街77號","121.452835","25.0166","6500100","板橋區"
"220092","307-R5","2018/06/15 19:29:28","新北市板橋區光武街2巷35號","121.46875","25.0259066666667","6500100","板橋區"
"220098","317-R6","2018/06/15 19:29:29","新北市板橋區民生路三段263巷10號","121.463715","25.0292583333333","6500100","板橋區"
"220064","486-VK","2018/06/15 19:29:23","新北市板橋區中山路一段10號","121.459945","25.0079183333333","6500100","板橋區"
"220088","491-VK","2018/06/15 19:29:28","新北市板橋區雙十路二段6-1號","121.47691","25.0260016666667","6500100","板橋區"
"220035","560-BX","2018/06/15 19:29:35","新北市板橋區中正路379巷3弄2號","121.453238333333","25.0213016666667","6500100","板橋區"
"220103","561-BX","2018/06/15 19:29:34","新北市板橋區文化路一段220號","121.466781666667","25.0206","6500100","板橋區"
"220063","609-BX","2018/06/15 19:29:38","新北市板橋區翠華街7巷1號","121.480186666667","25.0240266666667","6500100","板橋區"
"220057","686-BX","2018/06/15 19:29:41","新北市板橋區五權街43號","121.46456","24.99382","6500100","板橋區"
"220077","687-BX","2018/06/15 19:29:39","新北市板橋區僑中三街33號","121.445466666667","25.004775","6500100","板橋區"
"220093","689-BX","2018/06/15 19:29:34","新北市板橋區英士路49-1號","121.461233333333","25.0245766666667","6500100","板橋區"
"220054","741-BX","2018/06/15 19:29:36","新北市板橋區光明街86號","121.461748333333","25.0027566666667","6500100","板橋區"
"220102","KEA-2699","2018/06/15 19:29:11","新北市板橋區松柏街1巷1號","121.473755","25.0294566666667","6500100","板橋區"
"220067","830-TW","2018/06/15 19:29:37","新北市板橋區漢生東路279巷10弄9號","121.47208","25.0087516666667","6500100","板橋區"
"220096","831-TW","2018/06/15 19:29:22","新北市板橋區雙十路二段53號","121.476511666667","25.026435","6500100","板橋區"
"220089","833-TW","2018/06/15 19:29:39","新北市板橋區文化路一段33號","121.460288333333","25.0129516666667","6500100","板橋區"
"220074","895-R6","2018/06/15 19:29:29","新北市板橋區倉後街1-8號","121.455523333333","25.0090833333333","6500100","板橋區"
"220073","985-R7","2018/06/15 19:29:26","新北市板橋區國光路16號","121.457015","25.0174383333333","6500100","板橋區"
"220097","AAC-210","2018/06/15 19:29:27","新北市板橋區漢生西路151巷2號","121.463028333333","25.0223566666667","6500100","板橋區"
"220070","AAC-253","2018/06/15 19:29:30","新北市板橋區忠孝路39號","121.461085","25.0020616666667","6500100","板橋區"
"235068","KEA-2873","2018/06/15 19:29:27","新北市中和區圓通路158巷4號","121.497705","24.9961083333333","6500300","中和區"
"235061","KEA-2875","2018/06/15 19:29:33","新北市中和區民利街77號","121.478521666667","24.99814","6500300","中和區"
