"lineid","car","time","location","longitude","latitude","cityid","cityname"
"234046","148-BY","2018/06/15 19:59:39","新北市永和區成功路一段20號","121.526986666667","25.005025","6500400","永和區"
"234007","207-UY","2018/06/15 19:59:29","新北市永和區保生路22巷17號","121.507085","25.0081366666667","6500400","永和區"
"234081","298-R6","2018/06/15 19:59:46","新北市永和區永利路79號","121.521445","25.0036283333333","6500400","永和區"
"234038","336-UY","2018/06/15 19:59:39","新北市永和區成功路二段185號","121.526596666667","24.996555","6500400","永和區"
"234064","337-UY","2018/06/15 19:59:51","新北市永和區中正路412巷20弄10號","121.518648333333","25.0015883333333","6500400","永和區"
"234086","338-UY","2018/06/15 19:59:31","新北市永和區永利路6-1號","121.517546666667","25.0059733333333","6500400","永和區"
"234070","552-UM","2018/06/15 19:59:45","新北市永和區國光路14號","121.519105","25.008365","6500400","永和區"
"234017","745-BX","2018/06/15 19:59:17","新北市永和區文化路31號","121.514813333333","25.0149933333333","6500400","永和區"
"234030","746-BX","2018/06/15 19:59:34","新北市永和區民生路22巷9號","121.521985","24.9972466666667","6500400","永和區"
"234054","KEA-2590","2018/06/15 19:59:33","新北市永和區博愛街57巷1號","121.519783333333","25.0160033333333","6500400","永和區"
"234013","KEA-2591","2018/06/15 19:59:34","新北市永和區保生路55號","121.504665","25.010605","6500400","永和區"
"234061","AAD-866","2018/06/15 19:59:47","新北市永和區得和路76號","121.516478333333","25.0000816666667","6500400","永和區"
"234042","862-TW","2018/06/15 19:59:42","新北市永和區雙和街17巷6號","121.509288333333","25.0018333333333","6500400","永和區"
"234050","863-TW","2018/06/15 19:59:35","新北市永和區保安路153號","121.506736666667","25.0127266666667","6500400","永和區"
"234026","9371-KE","2018/06/15 19:59:33","新北市永和區水源街21巷14弄3號","121.511378333333","25.00371","6500400","永和區"
"234011","9373-KE","2018/06/15 19:59:42","新北市永和區仁愛路352巷122弄13號","121.500651666667","25.0089533333333","6500400","永和區"
"249005","172-UM","2018/06/15 19:59:44","新北市八里區楓林路4號","121.38188","25.129945","6502300","八里區"
"249001","173-UM","2018/06/15 19:59:35","新北市八里區中華路二段310號","121.403843333333","25.1483466666667","6502300","八里區"
"249004","303-UY","2018/06/15 19:59:51","新北市八里區中山路一段217巷38號","121.411936666667","25.1553716666667","6502300","八里區"
"249002","305-UY","2018/06/15 19:59:37","新北市八里區頂寮一街36號","121.451196666667","25.1236483333333","6502300","八里區"
"249003","593-UM","2018/06/15 19:59:40","新北市八里區訊塘路16號","121.398083333333","25.144855","6502300","八里區"
"248014","025-BX","2018/06/15 19:59:44","新北市五股區五福路6巷13號","121.435163333333","25.0884816666667","6501500","五股區"
"248016","026-BX","2018/06/15 19:59:38","新北市五股區成泰路三段577巷80弄70號","121.449786666667","25.10517","6501500","五股區"
"248008","095-VK","2018/06/15 19:59:40","新北市五股區四維路30巷15號","121.468183333333","25.07154","6501500","五股區"
"248018","225-UY","2018/06/15 19:59:38","新北市五股區登林路105號","121.407626666667","25.079065","6501500","五股區"
"248012","247-BX","2018/06/15 19:59:29","新北市五股區民義路一段93號","121.434741666667","25.0858566666667","6501500","五股區"
"248010","272-BY","2018/06/15 19:59:35","新北市五股區登林路75號","121.428335","25.0698533333333","6501500","五股區"
"248004","677-BX","2018/06/15 19:59:45","新北市五股區成泰路一段8巷2-3號","121.434895","25.0669433333333","6501500","五股區"
"248002","678-BX","2018/06/15 19:59:46","新北市五股區成泰路三段487號","121.450766666667","25.0992583333333","6501500","五股區"
"234023","9380-KE","2018/06/15 19:59:44","新北市永和區豫溪街57巷8弄6號","121.517621666667","25.010415","6500400","永和區"
"234077","969-R7","2018/06/15 19:59:43","新北市永和區民有街23巷17號","121.517271666667","24.996555","6500400","永和區"
"234074","AAC-211","2018/06/15 19:59:47","新北市永和區豫溪街201號","121.523556666667","25.0098716666667","6500400","永和區"
"234067","AAC-212","2018/06/15 19:59:46","新北市永和區永貞路372號","121.510001666667","25.0069366666667","6500400","永和區"
"234003","AAC-295","2018/06/15 19:59:44","新北市永和區永和路二段8號","121.514626666667","25.010265","6500400","永和區"
"243013","AAD-798","2018/06/15 19:38:19","新北市泰山區應化街7號","121.423896666667","25.0437066666667","6501600","泰山區"
"243009","297-R6","2018/06/15 19:59:51","新北市泰山區楓江路16巷25號","121.434116666667","25.06148","6501600","泰山區"
"243016","380-SR","2018/06/15 19:59:31","新北市泰山區明志路三段514號","121.420933333333","25.0307083333333","6501600","泰山區"
"243015","421-VK","2018/06/15 19:59:14","新北市泰山區明志路二段194號","121.427493333333","25.04968","6501600","泰山區"
"243011","KEA-2215","2018/06/15 19:59:30","新北市泰山區明志路三段182巷23號","121.4233","25.039165","6501600","泰山區"
"243010","KEA-2216","2018/06/15 19:59:31","新北市泰山區中華街9號","121.427743333333","25.0523616666667","6501600","泰山區"
"243012","646-TV","2018/06/15 19:59:37","新北市泰山區全興路2-2號","121.432026666667","25.059455","6501600","泰山區"
"243014","680-BX","2018/06/15 19:59:36","新北市泰山區泰林路二段159號","121.43375","25.0604116666667","6501600","泰山區"
"222003","436-BY","2018/06/15 19:59:49","新北市深坑區埔新街14號","121.620723333333","25.003925","6501800","深坑區"
"222002","659-BX","2018/06/15 19:59:50","新北市深坑區北深路二段81巷8弄2號","121.618306666667","25.0031766666667","6501800","深坑區"
"231041","002-UM","2018/06/15 19:59:32","新北市新店區自由街2-1號","121.535726666667","24.975615","6500600","新店區"
"231059","046-UY","2018/06/15 19:59:33","新北市新店區安康路二段22號","121.515906666667","24.9637833333333","6500600","新店區"
"231040","047-UY","2018/06/15 19:59:33","新北市新店區中正路60號","121.544353333333","24.9701583333333","6500600","新店區"
"231044","106-UY","2018/06/15 19:59:35","新北市新店區復興路32號","121.539043333333","24.9867966666667","6500600","新店區"
"231053","108-UY","2018/06/15 19:59:42","新北市新店區新烏路三段310-2號","121.547555","24.8969033333333","6500600","新店區"
"231048","187-VK","2018/06/15 19:59:31","新北市新店區寶宏路38號","121.549445","24.9755116666667","6500600","新店區"
"231046","188-VK","2018/06/15 19:59:35","新北市新店區中央路133巷27弄41號","121.532293333333","24.9745066666667","6500600","新店區"
"231054","KEA-2219","2018/06/15 19:59:48","新北市新店區光明街147號","121.539511666667","24.9621866666667","6500600","新店區"
"231057","256-BX","2018/06/15 19:59:38","新北市新店區花園二路一段11號","121.555516666667","24.9324883333333","6500600","新店區"
"231042","268-BY","2018/06/15 19:59:42","新北市新店區中正路7號","121.5458","24.96922","6500600","新店區"
"231051","278-BY","2018/06/15 19:59:42","新北市新店區中央路232號","121.529298333333","24.9727883333333","6500600","新店區"
"231050","AAD-862","2018/06/15 19:59:34","新北市新店區北宜路二段5號","121.547713333333","24.9519883333333","6500600","新店區"
"231056","4715-K9","2018/06/15 19:59:37","新北市新店區明德路26巷9號","121.542393333333","24.97777","6500600","新店區"
"231067","4772-VM","2018/06/15 19:59:48","新北市新店區安康路一段35號","121.531755","24.960485","6500600","新店區"
"231065","512-UM","2018/06/15 19:59:37","新北市新店區安祥路109巷8號","121.475473333333","24.9588216666667","6500600","新店區"
"231049","513-UM","2018/06/15 19:59:42","新北市新店區明德路42-1號","121.541576666667","24.9783","6500600","新店區"
"231045","617-UM","2018/06/15 19:59:40","新北市新店區北宜路二段82-3號","121.553776666667","24.9532433333333","6500600","新店區"
"231061","619-UM","2018/06/15 19:59:38","新北市新店區安民街325號","121.517423333333","24.9745","6500600","新店區"
"231063","641-BX","2018/06/15 19:59:44","新北市新店區黎明路54巷2號","121.502353333333","24.9484216666667","6500600","新店區"
"231068","718-UY","2018/06/15 19:59:40","新北市新店區安康路一段266巷4號","121.520028333333","24.9644966666667","6500600","新店區"
"231064","719-UM","2018/06/15 19:59:32","新北市新店區光華街18-1號","121.517456666667","24.9691316666667","6500600","新店區"
"231062","720-UM","2018/06/15 19:59:42","新北市新店區華城路18-1號","121.529085","24.956945","6500600","新店區"
"231060","897-TW","2018/06/15 19:59:29","新北市新店區安康路二段458號","121.494336666667","24.954245","6500600","新店區"
"231043","899-TW","2018/06/15 19:59:32","新北市新店區中正路263-4號","121.53823","24.9737933333333","6500600","新店區"
"231055","AKT-0513","2018/06/15 19:59:29","新北市新店區中華路48巷32號","121.540893333333","24.969265","6500600","新店區"
"241028","022-UY","2018/06/15 19:59:42","新北市三重區中正南路26號","121.493688333333","25.0603983333333","6500200","三重區"
"241008","059-VK","2018/06/15 19:59:34","新北市三重區永福街179巷26號","121.47808","25.0748733333333","6500200","三重區"
"241009","060-VK","2018/06/15 19:59:51","新北市三重區三和路四段388-2號","121.482075","25.0790516666667","6500200","三重區"
"241031","061-VK","2018/06/15 19:59:40","新北市三重區重新路四段144巷12號","121.48704","25.055545","6500200","三重區"
"241015","062-VK","2018/06/15 19:59:40","新北市三重區三和路二段6-2號","121.501206666667","25.0667983333333","6500200","三重區"
"241017","063-VK","2018/06/15 19:59:30","新北市三重區自強路一段217號","121.491305","25.06855","6500200","三重區"
"241024","065-VK","2018/06/15 19:59:45","新北市三重區力行路一段186號","121.481978333333","25.071765","6500200","三重區"
"241005","742-BX","2018/06/15 19:59:36","新北市三重區溪尾街325巷23號","121.48863","25.08338","6500200","三重區"
"241003","265-UM","2018/06/15 19:59:42","新北市三重區仁愛街435號","121.490198333333","25.0819316666667","6500200","三重區"
"241016","266-UM","2018/06/15 19:59:32","新北市三重區正義北路36巷7號","121.496905","25.063395","6500200","三重區"
"241022","267-UM","2018/06/15 19:59:49","新北市三重區過圳街31巷2號","121.489118333333","25.0606683333333","6500200","三重區"
"241018","268-UM","2018/06/15 19:59:34","新北市三重區正義北路244巷60號","121.494275","25.067665","6500200","三重區"
"241013","270-UM","2018/06/15 19:59:44","新北市三重區三和路三段139巷1號","121.492668333333","25.073635","6500200","三重區"
"241025","271-UM","2018/06/15 19:59:48","新北市三重區頂崁街210巷11號","121.476508333333","25.0678183333333","6500200","三重區"
"241007","398-BY","2018/06/15 19:59:42","新北市三重區慈愛街147號","121.48934","25.07962","6500200","三重區"
"241035","KEA-2210","2018/06/15 19:59:42","新北市三重區大榮街13號","121.498276666667","25.06302","6500200","三重區"
"241023","413-TH","2018/06/15 19:59:46","新北市三重區頂崁街189號","121.477795","25.066405","6500200","三重區"
"241004","475-VK","2018/06/15 19:59:49","新北市三重區五華街74號","121.49332","25.0820166666667","6500200","三重區"
"241020","478-VK","2018/06/15 19:59:47","新北市三重區大智街165巷13號","121.49033","25.07256","6500200","三重區"
"241030","480-VK","2018/06/15 19:59:37","新北市三重區重新路四段244巷10號","121.486198333333","25.053505","6500200","三重區"
"241014","543-UM","2018/06/15 19:59:31","新北市三重區三和路二段152號","121.499411666667","25.068345","6500200","三重區"
"241001","547-UM","2018/06/15 19:59:41","新北市三重區仁愛街269巷52號","121.494433333333","25.0796516666667","6500200","三重區"
"241019","KEA-2593","2018/06/15 19:59:43","新北市三重區自強路二段7號","121.490191666667","25.0689816666667","6500200","三重區"
"241006","AAD-863","2018/06/15 19:59:40","新北市三重區力行路二段138號","121.482446666667","25.07589","6500200","三重區"
"241026","887-TS","2018/06/15 19:59:42","新北市三重區中央南路8號","121.501565","25.0630166666667","6500200","三重區"
"241012","941-UM","2018/06/15 19:59:46","新北市三重區仁厚街30號","121.499903333333","25.0764916666667","6500200","三重區"
"241029","942-UM","2018/06/15 19:59:41","新北市三重區重新路三段202號","121.49019","25.0584566666667","6500200","三重區"
"241033","AAC-255","2018/06/15 19:59:29","新北市三重區中興北街14號","121.469441666667","25.0471366666667","6500200","三重區"
"235027","006-UY","2018/06/15 19:59:37","新北市中和區連城路176號","121.493178333333","24.9969766666667","6500300","中和區"
"235056","096-UM","2018/06/15 19:59:48","新北市中和區中山路三段170巷2弄1號","121.472908333333","25.0066083333333","6500300","中和區"
"235039","097-UM","2018/06/15 19:59:35","新北市中和區大勇街29巷23弄6號","121.515466666667","24.9942966666667","6500300","中和區"
"235065","098-UM","2018/06/15 19:59:39","新北市中和區莊敬路4號","121.499516666667","25.0042483333333","6500300","中和區"
"235040","150-BY","2018/06/15 19:59:32","新北市中和區保健路19巷13號","121.508396666667","24.99849","6500300","中和區"
"235058","151-BY","2018/06/15 19:59:49","新北市中和區員山路148巷19號","121.482065","24.9972233333333","6500300","中和區"
"235055","183-VK","2018/06/15 19:59:46","新北市中和區民生街23巷4弄2號","121.470946666667","25.0051816666667","6500300","中和區"
"235049","186-VK","2018/06/15 19:59:38","新北市中和區南華路11號","121.502336666667","24.9955483333333","6500300","中和區"
"235067","255-BX","2018/06/15 19:59:46","新北市中和區員山路148巷23弄58號","121.482251666667","24.998125","6500300","中和區"
"235044","293-VK","2018/06/15 19:59:46","新北市中和區中正路63號","121.501301666667","24.9931533333333","6500300","中和區"
"235050","4979-A6","2018/06/15 19:59:47","新北市中和區景平路155巷4號","121.513516666667","24.9916766666667","6500300","中和區"
"235069","4980-A6","2018/06/15 19:59:50","新北市中和區圓通路202號","121.496201666667","24.9941633333333","6500300","中和區"
"235070","558-UM","2018/06/15 19:59:46","新北市中和區圓通路115號","121.499373333333","24.9964333333333","6500300","中和區"
"235054","640-BX","2018/06/15 19:59:40","新北市中和區莒光路80號","121.472275","25.00285","6500300","中和區"
"235060","647-TV","2018/06/15 19:59:32","新北市中和區新生街16巷28號","121.48206","25.00444","6500300","中和區"
"235047","732-UM","2018/06/15 19:59:32","新北市中和區和平街80號","121.507718333333","24.99117","6500300","中和區"
"235046","733-UM","2018/06/15 19:59:46","新北市中和區興南路一段93巷58弄1號","121.510621666667","24.9858933333333","6500300","中和區"
"235026","800-TS","2018/06/15 19:59:40","新北市中和區員山路36巷16-2號","121.485075","24.9917783333333","6500300","中和區"
"235041","802-TS","2018/06/15 19:59:33","新北市中和區安平路148號","121.512375","24.9982383333333","6500300","中和區"
"235052","805-TS","2018/06/15 19:59:50","新北市中和區華新街30巷14號","121.507006666667","24.984265","6500300","中和區"
"235048","896-TW","2018/06/15 19:59:48","新北市中和區景新街421號","121.51283","24.9893066666667","6500300","中和區"
"235051","157-BY","2018/06/15 19:59:32","新北市中和區復興路301巷16號","121.50148","24.9896","6500300","中和區"
"235037","AAC-213","2018/06/15 19:59:32","新北市中和區自立路99巷22弄32號","121.523171666667","24.993845","6500300","中和區"
"235059","AAC-215","2018/06/15 19:59:43","新北市中和區圓通路335巷1弄1號","121.492121666667","24.99047","6500300","中和區"
"220069","015-TV","2018/06/15 19:59:44","新北市板橋區大明街25巷4弄9號","121.45764","25.0021533333333","6500100","板橋區"
"220065","072-UY","2018/06/15 19:59:43","新北市板橋區中山路一段154巷18號","121.464871666667","25.0111","6500100","板橋區"
"220106","075-UY","2018/06/15 19:59:33","新北市板橋區仁化街148號","121.477855","25.0331166666667","6500100","板橋區"
"220090","120-SR","2018/06/15 19:59:41","新北市板橋區幸福路32巷4弄1號","121.460978333333","25.0213266666667","6500100","板橋區"
"247024","893-R6","2018/06/15 19:59:47","新北市蘆洲區光明路112巷29弄13號","121.464163333333","25.08768","6501400","蘆洲區"
"247014","546-UM","2018/06/15 19:59:44","新北市蘆洲區中山二路105號","121.472646666667","25.0818266666667","6501400","蘆洲區"
"247010","341-TH","2018/06/15 19:59:43","新北市蘆洲區集賢路200號","121.483696666667","25.08769","6501400","蘆洲區"
"247012","339-TH","2018/06/15 19:59:29","新北市蘆洲區民族路151號","121.479545","25.087985","6501400","蘆洲區"
"247004","337-TH","2018/06/15 19:59:44","新北市蘆洲區長安街265號","121.458661666667","25.0838683333333","6501400","蘆洲區"
"247006","336-TH","2018/06/15 19:59:38","新北市蘆洲區九芎街98號","121.465655","25.0797866666667","6501400","蘆洲區"
"247008","056-VK","2018/06/15 19:59:28","新北市蘆洲區信義路109號","121.47826","25.080155","6501400","蘆洲區"
"247016","007-UY","2018/06/15 19:59:42","新北市蘆洲區光華路13號","121.469793333333","25.0834233333333","6501400","蘆洲區"
"247002","002-UY","2018/06/15 19:57:15","新北市蘆洲區長安街274巷11號","121.458003333333","25.08713","6501400","蘆洲區"
"247020","001-UY","2018/06/15 19:59:42","新北市蘆洲區民義街75號","121.473268333333","25.090195","6501400","蘆洲區"
"235066","251-BX","2018/06/15 19:59:48","新北市中和區光華街6號","121.504073333333","25.0043033333333","6500300","中和區"
"228003","828-UM","2018/06/15 19:59:40","新北市貢寮區仁理村仁和路224號","121.923893333333","25.0535566666667","6502600","貢寮區"
"224010","AGQ-8101","2018/06/15 19:59:45","新北市瑞芳區輕便路338-1號","121.839806666667","25.1087016666667","6501200","瑞芳區"
"224002","639-TC","2018/06/15 19:59:35","新北市瑞芳區員山子路3-9號","121.819726666667","25.10422","6501200","瑞芳區"
"227003","642-TC","2018/06/15 19:59:45","新北市雙溪區雙溪里長安街16號","121.865031666667","25.0347033333333","6502500","雙溪區"
"227011","400-TW","2018/06/15 19:59:32","新北市雙溪區新基里新基南街25號","121.866263333333","25.0381533333333","6502500","雙溪區"
"222001","KEA-2212","2018/06/15 19:59:39","新北市深坑區北深路三段164號","121.602358333333","25.0034516666667","6501800","深坑區"
"208002","KEA-2872","2018/06/15 19:59:44","新北市金山區中華路168號","121.632741666667","25.2223983333333","6502700","金山區"
"208003","665-BX","2018/06/15 19:59:40","新北市金山區永興里忠義路28號","121.631538333333","25.2613783333333","6502700","金山區"
"208001","761-BX","2018/06/15 19:59:38","新北市金山區南勢湖24號","121.618263333333","25.2182616666667","6502700","金山區"
"251004","009-UM","2018/06/15 19:48:29","新北市淡水區自強路埔頂巷16號","121.462406666667","25.1312266666667","6501000","淡水區"
"251008","181-VK","2018/06/15 19:59:43","新北市淡水區淡海路72巷28弄1號","121.424383333333","25.1822583333333","6501000","淡水區"
"251010","413-VK","2018/06/15 19:59:40","新北市淡水區崁頂三路171號","121.430465","25.2013316666667","6501000","淡水區"
"251012","441-VK","2018/06/15 19:59:43","新北市淡水區下圭柔山110-10號","121.43876","25.2115333333333","6501000","淡水區"
"251005","443-VK","2018/06/15 19:59:32","新北市淡水區學府路136巷39號","121.451918333333","25.1727783333333","6501000","淡水區"
"251001","559-UM","2018/06/15 19:59:34","新北市淡水區淡金路二段509號","121.447046666667","25.1897433333333","6501000","淡水區"
"251006","561-UM","2018/06/15 19:59:41","新北市淡水區北新路8號","121.444455","25.1773583333333","6501000","淡水區"
"251009","575-R6","2018/06/15 19:59:45","新北市淡水區英專路28巷2弄18號","121.44586","25.1694783333333","6501000","淡水區"
"251011","650-BX","2018/06/15 19:59:35","新北市淡水區崁頂55-3號","121.442311666667","25.1966683333333","6501000","淡水區"
"251003","766-UM","2018/06/15 19:59:34","新北市淡水區中山北路二段189巷15弄29號","121.44335","25.1841916666667","6501000","淡水區"
"207003","550-UM","2018/06/15 19:59:39","新北市萬里區磺潭里公館崙5號","121.641901666667","25.2142633333333","6502800","萬里區"
"207004","225-TW","2018/06/15 19:59:41","新北市萬里區北基里忠二街39號","121.685746666667","25.1758483333333","6502800","萬里區"
"252002","178-VK","2018/06/15 19:59:32","新北市三芝區三民街39巷36號","121.505418333333","25.2575466666667","6502100","三芝區"
"252001","292-VK","2018/06/15 19:59:38","新北市三芝區公正街66號","121.499773333333","25.2574416666667","6502100","三芝區"
"237007","153-BY","2018/06/15 19:59:41","新北市三峽區麻園3-1號","121.363426666667","24.9214616666667","6500900","三峽區"
"237009","210-TH","2018/06/15 19:59:39","新北市三峽區民族街8號","121.36902","24.9313366666667","6500900","三峽區"
"237012","275-BY","2018/06/15 19:59:37","新北市三峽區中華路76號","121.371351666667","24.9285733333333","6500900","三峽區"
"237014","433-BY","2018/06/15 19:59:34","新北市三峽區白雞33號","121.369383333333","24.9124533333333","6500900","三峽區"
"237006","5529-G3","2018/06/15 19:59:35","新北市三峽區中正路二段176巷56號","121.364776666667","24.9140733333333","6500900","三峽區"
"237015","649-BX","2018/06/15 19:59:35","新北市三峽區介壽路二段138巷1弄162號","121.402276666667","24.9283233333333","6500900","三峽區"
"237005","AKY-6261","2018/06/15 19:59:41","新北市三峽區愛國路1-1號","121.37499","24.934765","6500900","三峽區"
"236069","105-UM","2018/06/15 19:59:47","新北市土城區忠義路95號","121.443563333333","24.9643916666667","6501300","土城區"
"236042","107-UM","2018/06/15 19:59:41","新北市土城區學府路一段143巷2號","121.453678333333","24.985955","6501300","土城區"
"236079","166-UM","2018/06/15 19:59:33","新北市土城區福安街55巷9號","121.418811666667","24.9639883333333","6501300","土城區"
"236030","253-BX","2018/06/15 19:59:32","新北市土城區中央路一段252號","121.444248333333","24.98471","6501300","土城區"
"236026","269-VK","2018/06/15 19:59:32","新北市土城區裕生路104巷20號","121.445661666667","24.9847433333333","6501300","土城區"
"236014","270-VK","2018/06/15 19:59:31","新北市土城區廣福街123號","121.456228333333","24.9928583333333","6501300","土城區"
"236039","271-VK","2018/06/15 19:59:47","新北市土城區國際路43號","121.466221666667","24.9790283333333","6501300","土城區"
"236020","401-BY","2018/06/15 19:59:35","新北市土城區延吉街50號","121.471685","24.98697","6501300","土城區"
"236059","752-BX","2018/06/15 19:59:34","新北市土城區中央路一段299號","121.444043333333","24.9837683333333","6501300","土城區"
"236048","913-UM","2018/06/15 19:59:32","新北市中和區連城路534巷2號","121.475348333333","24.9913483333333","6501300","土城區"
"236063","915-UM","2018/06/15 19:59:50","新北市土城區金城路三段73巷9弄6號","121.46606","24.98759","6501300","土城區"
"236055","AAC-216","2018/06/15 19:59:34","新北市土城區立德路23號","121.461908333333","24.9880916666667","6501300","土城區"
"242034","AAC-296","2018/06/15 19:59:44","新北市新莊區建中街91號","121.446725","25.0364766666667","6500500","新莊區"
"242058","986-R7","2018/06/15 19:59:32","新北市新莊區八德街56號","121.424918333333","25.0224716666667","6500500","新莊區"
"242025","613-BX","2018/06/15 19:59:44","新北市新莊區五工一路90號","121.461158333333","25.067635","6500500","新莊區"
"242029","612-BX","2018/06/15 19:59:32","新北市新莊區中原路333號","121.445806666667","25.0539566666667","6500500","新莊區"
"242046","497-BY","2018/06/15 19:59:41","新北市新莊區裕民街19巷4號","121.419686666667","25.0251583333333","6500500","新莊區"
"242050","441-UM","2018/06/15 19:59:48","新北市新莊區西盛街178號","121.428175","25.018865","6500500","新莊區"
"242056","440-UM","2018/06/15 19:59:37","新北市新莊區中正路347巷15號","121.447263333333","25.034415","6500500","新莊區"
"242037","415-TV","2018/06/15 19:59:41","新北市新莊區建安街26巷2號","121.428883333333","25.0260566666667","6500500","新莊區"
"242007","413-TV","2018/06/15 19:59:45","新北市新莊區思源路585號","121.459705","25.0594516666667","6500500","新莊區"
"242044","400-BY","2018/06/15 19:59:43","新北市新莊區中正路929巷13號","121.41089","25.0205616666667","6500500","新莊區"
"242023","362-BY","2018/06/15 19:59:39","新北市新莊區化成路422號","121.465933333333","25.0510133333333","6500500","新莊區"
"242060","353-BY","2018/06/15 19:59:46","新北市新莊區瓊泰路26號","121.444338333333","25.0286633333333","6500500","新莊區"
"242039","133-UY","2018/06/15 19:59:45","新北市新莊區民安路308號","121.428358333333","25.021915","6500500","新莊區"
"242048","172-VK","2018/06/15 19:59:40","新北市新莊區後港二路1號","121.423276666667","25.02458","6500500","新莊區"
"242011","173-VK","2018/06/15 19:44:31","新北市新莊區中原路512號","121.446755","25.0545983333333","6500500","新莊區"
"242017","175-VK","2018/06/15 19:59:47","新北市新莊區中安街17號","121.452901666667","25.04599","6500500","新莊區"
"242005","176-VK","2018/06/15 19:59:47","新北市新莊區化成路352巷29號","121.467123333333","25.049095","6500500","新莊區"
"242015","346-TH","2018/06/15 19:59:37","新北市新莊區泰順街33巷3號","121.446136666667","25.042575","6500500","新莊區"
"242032","347-TH","2018/06/15 19:59:42","新北市新莊區公園一路39號","121.443205","25.03561","6500500","新莊區"
"242021","348-TH","2018/06/15 19:59:48","新北市新莊區建中街32巷2號","121.448998333333","25.037715","6500500","新莊區"
"242019","350-TH","2018/06/15 19:59:29","新北市新莊區民生街15巷1弄1號","121.455741666667","25.0422083333333","6500500","新莊區"
"242013","351-TH","2018/06/15 19:59:45","新北市新莊區幸福路604號","121.452036666667","25.04927","6500500","新莊區"
"238015","755-BX","2018/06/15 19:58:07","新北市樹林區中山路三段210-2號","121.380813333333","24.967195","6500700","樹林區"
"238021","KEA-2539","2018/06/15 19:59:49","新北市樹林區佳園路二段138號","121.389441666667","24.956145","6500700","樹林區"
"239006","891-R6","2018/06/15 19:59:35","新北市鶯歌區文化路27號","121.360098333333","24.9567366666667","6500800","鶯歌區"
"221008","489-VK","2018/06/15 19:59:42","新北市汐止區忠一街9巷7號","121.620591666667","25.0731766666667","6501100","汐止區"
"221036","130-UY","2018/06/15 19:59:46","新北市汐止區新台五路二段85巷18號","121.664246666667","25.0674383333333","6501100","汐止區"
"221015","131-UY","2018/06/15 19:59:39","新北市汐止區鄉長路一段21號","121.665295","25.07448","6501100","汐止區"
"221010","269-BY","2018/06/15 19:59:41","新北市汐止區連峰街227號","121.645066666667","25.0813516666667","6501100","汐止區"
"221012","278-VK","2018/06/15 19:59:42","新北市汐止區大同路三段290號","121.678081666667","25.07127","6501100","汐止區"
"221023","279-VK","2018/06/15 19:59:31","新北市汐止區明峰街298巷1號","121.625311666667","25.067875","6501100","汐止區"
"221032","280-BY","2018/06/15 19:59:37","新北市汐止區橫科路18巷10號","121.61779","25.0505483333333","6501100","汐止區"
"221027","281-BY","2018/06/15 19:59:41","新北市汐止區中正路89號","121.66121","25.06939","6501100","汐止區"
"221029","298-VK","2018/06/15 19:59:34","新北市汐止區樟樹一路137巷24號","121.641176666667","25.06592","6501100","汐止區"
"221021","299-VK","2018/06/15 19:59:47","新北市汐止區水源路一段138號","121.65597","25.0624","6501100","汐止區"
"221031","353-TW","2018/06/15 19:59:42","新北市汐止區福德一路255號","121.633423333333","25.0645366666667","6501100","汐止區"
"221035","622-UM","2018/06/15 19:59:51","新北市汐止區長江街57巷6號","121.656243333333","25.0717633333333","6501100","汐止區"
"221025","623-UM","2018/06/15 19:59:28","新北市汐止區秀峰路104號","121.659986666667","25.06383","6501100","汐止區"
"221038","646-BX","2018/06/15 19:59:48","新北市汐止區忠孝東路497號","121.66641","25.0747133333333","6501100","汐止區"
"221033","647-BX","2018/06/15 19:59:45","新北市汐止區東勢街201巷104號","121.633613333333","25.0429816666667","6501100","汐止區"
"221018","753-BX","2018/06/15 19:59:35","新北市汐止區茄苳路241號","121.671503333333","25.0684816666667","6501100","汐止區"
"220079","145-BY","2018/06/15 19:59:41","新北市板橋區南雅西路二段233號","121.450961666667","25.0138933333333","6500100","板橋區"
"220080","200-UY","2018/06/15 19:59:47","新北市板橋區大觀路二段179巷29號","121.446095","24.9996366666667","6500100","板橋區"
"242002","KEA-2550","2018/06/15 19:59:47","新北市新莊區中正路219號","121.450978333333","25.0357616666667","6500500","新莊區"
"220082","610-BX","2018/06/15 19:59:38","新北市板橋區篤行路二段131巷1-2號","121.431418333333","24.9904133333333","6500100","板橋區"
"220101","245-BX","2018/06/15 19:59:47","新北市板橋區萬板路150號","121.475426666667","25.0234566666667","6500100","板橋區"
"220055","256-TC","2018/06/15 19:59:42","新北市板橋區仁愛路64號","121.459865","24.9994033333333","6500100","板橋區"
"220068","257-TC","2018/06/15 19:59:27","新北市板橋區光復街172巷2弄2號","121.485218333333","25.01948","6500100","板橋區"
"220091","267-BY","2018/06/15 19:59:34","新北市板橋區文聖街89巷26號","121.478196666667","25.0303383333333","6500100","板橋區"
"220072","277-BY","2018/06/15 19:59:50","新北市板橋區金門街109巷27-2號","121.43394","24.991685","6500100","板橋區"
"220094","280-UM","2018/06/15 19:59:41","新北市板橋區陽明街239號","121.46327","25.0244916666667","6500100","板橋區"
"220071","283-VK","2018/06/15 19:59:13","新北市板橋區和平路174巷12號","121.464138333333","24.9950666666667","6500100","板橋區"
"220053","285-VK","2018/06/15 19:59:34","新北市板橋區永豐街73號","121.47367","25.018755","6500100","板橋區"
"220083","286-VK","2018/06/15 19:59:47","新北市板橋區僑中二街40號","121.445163333333","25.0107516666667","6500100","板橋區"
"220081","287-VK","2018/06/15 19:59:43","新北市板橋區僑中一街124巷18弄13號","121.446665","25.0137083333333","6500100","板橋區"
"220061","293-UM","2018/06/15 19:59:36","新北市板橋區觀光街1巷2號","121.47207","25.0155783333333","6500100","板橋區"
"220062","295-UM","2018/06/15 19:59:37","新北市板橋區光復街192巷16弄20號","121.486403333333","25.0195116666667","6500100","板橋區"
"220084","296-UM","2018/06/15 19:59:42","新北市板橋區溪崑二街128號","121.426065","24.9878833333333","6500100","板橋區"
"220092","307-R5","2018/06/15 19:59:48","新北市板橋區四維路259巷60-2號","121.46073","25.02684","6500100","板橋區"
"220098","317-R6","2018/06/15 19:59:46","新北市板橋區漢生西路159號","121.462983333333","25.0235766666667","6500100","板橋區"
"220064","486-VK","2018/06/15 19:59:43","新北市板橋區新民街4巷20弄3號","121.465111666667","25.0098133333333","6500100","板橋區"
"220088","491-VK","2018/06/15 19:59:48","新北市板橋區懷德街216號","121.479928333333","25.0294233333333","6500100","板橋區"
"220103","561-BX","2018/06/15 19:59:34","新北市板橋區自由路18-3號","121.465521666667","25.0225716666667","6500100","板橋區"
"220057","686-BX","2018/06/15 19:59:46","新北市板橋區四川路二段2號","121.45664","24.9965183333333","6500100","板橋區"
"220093","689-BX","2018/06/15 19:59:34","新北市板橋區長江路三段68號","121.473926666667","25.0341083333333","6500100","板橋區"
"220054","741-BX","2018/06/15 19:59:36","新北市板橋區忠孝路忠義巷20弄1號","121.4667","25.0038483333333","6500100","板橋區"
"220102","KEA-2699","2018/06/15 19:59:51","新北市板橋區仁化街42巷25號","121.475688333333","25.0308666666667","6500100","板橋區"
"220067","830-TW","2018/06/15 19:59:37","新北市板橋區漢生東路163號","121.469378333333","25.0126133333333","6500100","板橋區"
"220096","831-TW","2018/06/15 19:59:41","新北市板橋區莒光路133巷20號","121.472786666667","25.0245566666667","6500100","板橋區"
"220089","833-TW","2018/06/15 19:59:39","新北市板橋區新海路403巷16號","121.457906666667","25.0264816666667","6500100","板橋區"
"220074","895-R6","2018/06/15 19:59:49","新北市板橋區府後街1巷2-2號","121.459128333333","25.010615","6500100","板橋區"
"220073","985-R7","2018/06/15 19:59:41","新北市板橋區南雅西路二段2-1號","121.453231666667","25.0087583333333","6500100","板橋區"
"220097","AAC-210","2018/06/15 19:59:48","新北市板橋區光正街45巷6弄19號","121.460973333333","25.0170433333333","6500100","板橋區"
"220070","AAC-253","2018/06/15 19:59:34","新北市板橋區四川路一段127號","121.45989","25.0047383333333","6500100","板橋區"
"235068","KEA-2873","2018/06/15 19:59:26","新北市中和區福美路269號","121.498166666667","25.0050866666667","6500300","中和區"
