"lineid","car","time","location","longitude","latitude","cityid","cityname"
"234046","148-BY","2018/06/15 20:09:39","新北市永和區得和路345號","121.523905","24.9994816666667","6500400","永和區"
"234007","207-UY","2018/06/15 20:09:49","新北市永和區保順路37巷14號","121.502968333333","25.0104583333333","6500400","永和區"
"234081","298-R6","2018/06/15 20:09:39","新北市永和區國中路109巷1弄2號","121.52401","25.0057883333333","6500400","永和區"
"234038","336-UY","2018/06/15 20:09:49","新北市永和區成功路一段62號","121.526988333333","25.0038333333333","6500400","永和區"
"234064","337-UY","2018/06/15 20:09:36","新北市永和區秀朗路二段43號","121.521616666667","25.002425","6500400","永和區"
"234086","338-UY","2018/06/15 20:09:35","新北市永和區福和路160號","121.521305","25.00792","6500400","永和區"
"234070","552-UM","2018/06/15 20:09:31","新北市永和區福和路220號","121.519308333333","25.00767","6500400","永和區"
"234017","745-BX","2018/06/15 20:09:44","新北市永和區文化路146號","121.512605","25.0152983333333","6500400","永和區"
"234030","746-BX","2018/06/15 20:09:34","新北市永和區民權路49巷5弄20號","121.521448333333","24.997755","6500400","永和區"
"234054","KEA-2590","2018/06/15 20:09:41","新北市永和區永和路二段310號","121.516271666667","25.016075","6500400","永和區"
"234013","KEA-2591","2018/06/15 20:09:34","新北市永和區永貞路387號","121.508105","25.0087383333333","6500400","永和區"
"234061","AAD-866","2018/06/15 20:09:43","新北市永和區中正路129巷5號","121.515578333333","24.99812","6500400","永和區"
"234042","862-TW","2018/06/15 20:09:33","新北市永和區雙和街41號","121.508851666667","25.0024016666667","6500400","永和區"
"234050","863-TW","2018/06/15 20:09:35","新北市永和區環河西路二段149號","121.505735","25.0139866666667","6500400","永和區"
"234011","9373-KE","2018/06/15 20:09:34","新北市永和區仁愛路352巷140號","121.499728333333","25.00899","6500400","永和區"
"249005","172-UM","2018/06/15 20:09:44","新北市八里區下罟子58-3號","121.388601666667","25.138605","6502300","八里區"
"249001","173-UM","2018/06/15 20:09:35","新北市八里區中華路二段326號","121.403301666667","25.147935","6502300","八里區"
"249004","303-UY","2018/06/15 20:09:51","新北市八里區中山路一段418-7號","121.41081","25.158315","6502300","八里區"
"249002","305-UY","2018/06/15 20:09:36","新北市五股區成泰路四段40號","121.45566","25.1098516666667","6502300","八里區"
"249003","593-UM","2018/06/15 20:09:39","新北市八里區中山路二段540巷9弄31號","121.396455","25.1462016666667","6502300","八里區"
"248014","025-BX","2018/06/15 20:09:43","新北市五股區凌雲路二段18巷12號","121.44335","25.106785","6501500","五股區"
"248016","026-BX","2018/06/15 20:09:38","新北市五股區凌雲路一段158巷50弄21號","121.447858333333","25.1043666666667","6501500","五股區"
"248008","095-VK","2018/06/15 20:09:40","新北市五股區中興路一段1巷27號","121.469806666667","25.0704216666667","6501500","五股區"
"248018","225-UY","2018/06/15 20:09:38","新北市五股區成泰路一段105號","121.435818333333","25.071355","6501500","五股區"
"248012","247-BX","2018/06/15 20:09:29","新北市五股區六合街118號","121.430273333333","25.09079","6501500","五股區"
"248010","272-BY","2018/06/15 20:09:35","新北市五股區成泰路一段7巷66號","121.432621666667","25.06786","6501500","五股區"
"248004","677-BX","2018/06/15 20:09:45","新北市五股區成泰路一段179號","121.435011666667","25.0762483333333","6501500","五股區"
"248002","678-BX","2018/06/15 20:09:45","新北市五股區成泰路三段277號","121.447138333333","25.094125","6501500","五股區"
"234023","9380-KE","2018/06/15 20:09:44","新北市永和區中正路662巷52號","121.518488333333","25.0087516666667","6500400","永和區"
"234077","969-R7","2018/06/15 20:09:43","新北市永和區智光街107巷8號","121.515725","24.9959933333333","6500400","永和區"
"234074","AAC-211","2018/06/15 20:09:47","新北市永和區豫溪街159-1號","121.521385","25.0104616666667","6500400","永和區"
"234067","AAC-212","2018/06/15 20:09:46","新北市永和區保平路214巷2號","121.509738333333","25.006035","6500400","永和區"
"234003","AAC-295","2018/06/15 20:09:44","新北市永和區中正路618-1號","121.517093333333","25.0077666666667","6500400","永和區"
"243013","AAD-798","2018/06/15 20:09:42","新北市泰山區明志路三段74巷4號","121.424588333333","25.0418416666667","6501600","泰山區"
"243009","297-R6","2018/06/15 20:09:31","新北市泰山區泰林路二段116巷3弄2號","121.435181666667","25.059565","6501600","泰山區"
"243016","380-SR","2018/06/15 20:09:31","新北市泰山區中山路二段845號","121.424768333333","25.0347833333333","6501600","泰山區"
"243015","421-VK","2018/06/15 20:09:34","新北市泰山區明志路一段280號","121.431943333333","25.0600516666667","6501600","泰山區"
"243011","KEA-2215","2018/06/15 20:09:29","新北市泰山區明志路三段182巷36號","121.423275","25.0395333333333","6501600","泰山區"
"243010","KEA-2216","2018/06/15 20:09:31","新北市泰山區明志路二段214巷16弄43號","121.426798333333","25.0504583333333","6501600","泰山區"
"243012","646-TV","2018/06/15 20:09:37","新北市泰山區楓江路95號","121.437998333333","25.06382","6501600","泰山區"
"243014","680-BX","2018/06/15 20:09:36","新北市泰山區明志路一段43號","121.43368","25.0653516666667","6501600","泰山區"
"222003","436-BY","2018/06/15 20:09:29","新北市深坑區埔新街58巷1號","121.62013","25.0026116666667","6501800","深坑區"
"222002","659-BX","2018/06/15 20:09:30","新北市深坑區北深路三段162號","121.602553333333","25.003525","6501800","深坑區"
"231041","002-UM","2018/06/15 20:09:32","新北市新店區中正路460號","121.534018333333","24.97939","6500600","新店區"
"231059","046-UY","2018/06/15 20:09:13","新北市新店區安成街25號","121.51004","24.9608283333333","6500600","新店區"
"231040","047-UY","2018/06/15 20:09:33","新北市新店區中正路110號","121.54297","24.97067","6500600","新店區"
"231044","106-UY","2018/06/15 20:09:35","新北市新店區寶慶街66號","121.541978333333","24.986775","6500600","新店區"
"231053","108-UY","2018/06/15 20:09:42","新北市新店區新烏路三段286號","121.54992","24.898295","6500600","新店區"
"231048","187-VK","2018/06/15 20:09:31","新北市新店區寶橋路59-1號","121.545096666667","24.97509","6500600","新店區"
"231054","KEA-2219","2018/06/15 20:09:45","新北市新店區檳榔路40號","121.541565","24.96371","6500600","新店區"
"231057","256-BX","2018/06/15 20:09:38","新北市新店區花園一路一段2號","121.55314","24.9324333333333","6500600","新店區"
"231042","268-BY","2018/06/15 20:09:42","新北市新店區中興路二段89號","121.547053333333","24.9713483333333","6500600","新店區"
"231051","278-BY","2018/06/15 20:09:42","新北市新店區中央六街6號","121.530201666667","24.9744333333333","6500600","新店區"
"231050","AAD-862","2018/06/15 20:09:34","新北市新店區北新路一段90號","121.541908333333","24.9684833333333","6500600","新店區"
"231066","4716-K9","2018/06/15 20:09:26","新北市新店區柴埕路60巷7-2號","121.508825","24.9648983333333","6500600","新店區"
"231056","4715-K9","2018/06/15 20:09:37","新北市新店區中正路275巷45號","121.53669","24.9726483333333","6500600","新店區"
"231067","4772-VM","2018/06/15 20:09:48","新北市新店區溪洲路8巷54號","121.533368333333","24.9622116666667","6500600","新店區"
"231065","512-UM","2018/06/15 20:09:37","新北市新店區安祥路106巷264號","121.473081666667","24.9588816666667","6500600","新店區"
"231049","513-UM","2018/06/15 20:09:42","新北市新店區北新路二段139巷9-1號","121.542155","24.9755083333333","6500600","新店區"
"231045","617-UM","2018/06/15 20:09:41","新北市新店區北宜路一段109巷2號","121.539898333333","24.9546983333333","6500600","新店區"
"231061","619-UM","2018/06/15 20:09:38","新北市新店區安民街239號","121.517185","24.9720933333333","6500600","新店區"
"231063","641-BX","2018/06/15 20:09:32","新北市新店區黎明路51巷1號","121.502006666667","24.9493283333333","6500600","新店區"
"231068","718-UY","2018/06/15 20:09:40","新北市新店區中興路三段200號","121.543868333333","24.9818933333333","6500600","新店區"
"231064","719-UM","2018/06/15 20:09:32","新北市新店區安光路15巷15號","121.512281666667","24.9633666666667","6500600","新店區"
"231062","720-UM","2018/06/15 20:09:42","新北市新店區安康路二段178號","121.511623333333","24.960255","6500600","新店區"
"231060","897-TW","2018/06/15 20:09:29","新北市新店區安康路三段454號","121.484353333333","24.95125","6500600","新店區"
"231043","899-TW","2018/06/15 20:09:38","新北市新店區民族路168號","121.537245","24.97651","6500600","新店區"
"231055","AKT-0513","2018/06/15 20:09:50","新北市新店區中華路1號","121.541273333333","24.96731","6500600","新店區"
"241011","013-R5","2018/06/15 20:09:46","新北市三重區仁愛街38號","121.496456666667","25.0719583333333","6500200","三重區"
"241028","022-UY","2018/06/15 20:09:42","新北市三重區仁化街137號","121.49468","25.057375","6500200","三重區"
"241008","059-VK","2018/06/15 20:09:34","新北市三重區永福街126號","121.479405","25.0749916666667","6500200","三重區"
"241009","060-VK","2018/06/15 20:09:39","新北市三重區三和路四段382巷137號","121.479425","25.078145","6500200","三重區"
"241031","061-VK","2018/06/15 20:09:40","新北市三重區過圳街9-1號","121.488773333333","25.0601716666667","6500200","三重區"
"241015","062-VK","2018/06/15 20:09:40","新北市三重區福德北路24號","121.50223","25.0648883333333","6500200","三重區"
"241017","063-VK","2018/06/15 20:09:50","新北市三重區自強路一段236號","121.493206666667","25.066915","6500200","三重區"
"241024","065-VK","2018/06/15 20:09:45","新北市三重區中正北路286號","121.480483333333","25.0686533333333","6500200","三重區"
"241002","090-VK","2018/06/15 20:09:48","新北市三重區五華街35巷72號","121.495996666667","25.081985","6500200","三重區"
"241005","742-BX","2018/06/15 20:09:36","新北市三重區溪尾街332號","121.48817","25.08505","6500200","三重區"
"241003","265-UM","2018/06/15 20:09:39","新北市三重區富華街18號","121.489605","25.0824666666667","6500200","三重區"
"241016","266-UM","2018/06/15 20:09:32","新北市三重區中正北路25巷2號","121.493211666667","25.0627266666667","6500200","三重區"
"241022","267-UM","2018/06/15 20:09:28","新北市三重區新北大道一段56號","121.487423333333","25.0615266666667","6500200","三重區"
"241018","268-UM","2018/06/15 20:09:34","新北市三重區正義北路256巷130號","121.493238333333","25.0677333333333","6500200","三重區"
"241013","270-UM","2018/06/15 20:09:44","新北市三重區三和路三段151巷13號","121.492631666667","25.0739583333333","6500200","三重區"
"241025","271-UM","2018/06/15 20:09:48","新北市三重區中正北路237號","121.475568333333","25.07058","6500200","三重區"
"241007","398-BY","2018/06/15 20:09:30","新北市三重區三和路四段111-34號","121.48654","25.0775133333333","6500200","三重區"
"241035","KEA-2210","2018/06/15 20:09:42","新北市三重區平安街35號","121.498188333333","25.0643","6500200","三重區"
"241023","413-TH","2018/06/15 20:09:46","新北市三重區三民街300巷4號","121.477773333333","25.0687616666667","6500200","三重區"
"241004","475-VK","2018/06/15 20:09:35","新北市三重區自強路四段81號","121.490936666667","25.0793","6500200","三重區"
"241020","478-VK","2018/06/15 20:09:47","新北市三重區三和路三段121號","121.492883333333","25.07323","6500200","三重區"
"241030","480-VK","2018/06/15 20:09:37","新北市三重區集美街75巷25號","121.488006666667","25.053055","6500200","三重區"
"241014","543-UM","2018/06/15 20:09:31","新北市三重區安和路43號","121.500935","25.0694733333333","6500200","三重區"
"241001","547-UM","2018/06/15 20:09:41","新北市三重區溪尾街26號","121.49091","25.076355","6500200","三重區"
"241019","KEA-2593","2018/06/15 20:09:43","新北市三重區自強路二段33巷49號","121.490775","25.0698266666667","6500200","三重區"
"241006","AAD-863","2018/06/15 20:09:40","新北市三重區車路頭街135-1號","121.484256666667","25.0761433333333","6500200","三重區"
"241026","887-TS","2018/06/15 20:09:42","新北市三重區福德南路65巷2號","121.502311666667","25.06044","6500200","三重區"
"241012","941-UM","2018/06/15 20:09:46","新北市三重區仁愛街125巷32號","121.497828333333","25.0759416666667","6500200","三重區"
"241029","942-UM","2018/06/15 20:09:41","新北市三重區光明路32巷28號","121.491961666667","25.05869","6500200","三重區"
"241033","AAC-255","2018/06/15 20:09:49","新北市三重區光復路一段70號","121.47198","25.04935","6500200","三重區"
"235039","097-UM","2018/06/15 20:09:35","新北市中和區大勇街29巷23弄2號","121.51541","24.994555","6500300","中和區"
"235065","098-UM","2018/06/15 20:09:39","新北市中和區永和路369-3號","121.496388333333","25.0057433333333","6500300","中和區"
"235040","150-BY","2018/06/15 20:09:45","新北市中和區保健路10巷21弄20號","121.508326666667","24.99742","6500300","中和區"
"235050","4979-A6","2018/06/15 20:09:47","新北市中和區景平路183號","121.51167","24.9925416666667","6500300","中和區"
"235069","4980-A6","2018/06/15 20:09:30","新北市中和區景新街34巷2弄7號","121.502895","24.9990916666667","6500300","中和區"
"235070","558-UM","2018/06/15 20:09:46","新北市中和區圓通路176號","121.496926666667","24.9944916666667","6500300","中和區"
"235060","647-TV","2018/06/15 20:09:32","新北市中和區民樂路78號","121.484385","25.00111","6500300","中和區"
"235026","800-TS","2018/06/15 20:09:40","新北市中和區員山路36巷16-3號","121.485073333333","24.9915933333333","6500300","中和區"
"235051","157-BY","2018/06/15 20:09:32","新北市中和區景安路220巷1弄2號","121.503303333333","24.990855","6500300","中和區"
"235059","AAC-215","2018/06/15 20:09:43","新北市中和區圓通路367巷13弄39號","121.493435","24.9879866666667","6500300","中和區"
"220069","015-TV","2018/06/15 20:09:44","新北市板橋區南雅南路二段11-29號","121.453793333333","25.0013333333333","6500100","板橋區"
"220065","072-UY","2018/06/15 20:09:43","新北市板橋區民治街57巷32-1號","121.481526666667","25.0359016666667","6500100","板橋區"
"247024","893-R6","2018/06/15 20:09:47","新北市蘆洲區光榮路120巷9號","121.465333333333","25.0886416666667","6501400","蘆洲區"
"247014","546-UM","2018/06/15 20:09:35","新北市蘆洲區中山二路202號","121.470231666667","25.0802166666667","6501400","蘆洲區"
"247022","500-BY","2018/06/15 20:09:34","新北市蘆洲區三民路120號","121.471195","25.08728","6501400","蘆洲區"
"247010","341-TH","2018/06/15 20:09:43","新北市蘆洲區信義路132-1號","121.479661666667","25.082895","6501400","蘆洲區"
"247012","339-TH","2018/06/15 20:09:29","新北市蘆洲區民族路252號","121.479085","25.08878","6501400","蘆洲區"
"247004","337-TH","2018/06/15 20:09:44","新北市蘆洲區長安街285巷19號","121.457631666667","25.0841566666667","6501400","蘆洲區"
"247006","336-TH","2018/06/15 20:09:38","新北市蘆洲區中山二路300巷1號","121.46854","25.0767066666667","6501400","蘆洲區"
"247018","057-VK","2018/06/15 20:09:49","新北市蘆洲區民族路314巷21號","121.478121666667","25.0906183333333","6501400","蘆洲區"
"247016","007-UY","2018/06/15 20:09:42","新北市蘆洲區光華路180號","121.46482","25.0819866666667","6501400","蘆洲區"
"247002","002-UY","2018/06/15 20:09:14","新北市蘆洲區長榮路253號","121.459851666667","25.0861333333333","6501400","蘆洲區"
"247020","001-UY","2018/06/15 20:09:36","新北市蘆洲區民義街68巷32號","121.474116666667","25.089275","6501400","蘆洲區"
"235066","251-BX","2018/06/15 20:09:46","新北市中和區保平路231號","121.507936666667","25.004465","6500300","中和區"
"224010","AGQ-8101","2018/06/15 20:09:40","新北市瑞芳區輕便路274號","121.844421666667","25.1090866666667","6501200","瑞芳區"
"224002","639-TC","2018/06/15 20:09:35","新北市瑞芳區三爪子坑路106巷1-7號","121.8085","25.1052983333333","6501200","瑞芳區"
"222001","KEA-2212","2018/06/15 20:09:39","新北市深坑區北深路三段212號","121.601203333333","25.0038633333333","6501800","深坑區"
"208002","KEA-2872","2018/06/15 20:09:44","新北市金山區環金路19號","121.640681666667","25.21762","6502700","金山區"
"251004","009-UM","2018/06/15 19:48:29","新北市淡水區自強路埔頂巷16號","121.462406666667","25.1312266666667","6501000","淡水區"
"251002","012-UM","2018/06/15 20:09:36","新北市淡水區中正路177號","121.438706666667","25.17131","6501000","淡水區"
"251008","181-VK","2018/06/15 20:09:43","新北市淡水區沙崙路131巷11號","121.421981666667","25.1829816666667","6501000","淡水區"
"251010","413-VK","2018/06/15 20:09:40","新北市淡水區新市二路二段2號","121.425545","25.1962733333333","6501000","淡水區"
"251012","441-VK","2018/06/15 20:09:43","新北市淡水區淡金路三段345號","121.448875","25.20661","6501000","淡水區"
"251001","559-UM","2018/06/15 20:09:34","新北市淡水區新市二路四段265號","121.445743333333","25.1924716666667","6501000","淡水區"
"251006","561-UM","2018/06/15 20:09:41","新北市淡水區北新路141巷60弄11號","121.448125","25.1797466666667","6501000","淡水區"
"251009","575-R6","2018/06/15 20:09:45","新北市淡水區清水街38號","121.44478","25.1703533333333","6501000","淡水區"
"251003","766-UM","2018/06/15 20:09:34","新北市淡水區中山北路二段157號","121.443693333333","25.1837366666667","6501000","淡水區"
"207003","550-UM","2018/06/15 20:09:49","新北市萬里區大鵬里萬里加投166號","121.643405","25.2155616666667","6502800","萬里區"
"207004","225-TW","2018/06/15 20:09:41","新北市萬里區北基里愛三街11號","121.681791666667","25.1766333333333","6502800","萬里區"
"252002","178-VK","2018/06/15 20:09:32","新北市三芝區中正路一段68號","121.503855","25.2577266666667","6502100","三芝區"
"252001","292-VK","2018/06/15 20:09:38","新北市三芝區長安街80號","121.49961","25.2577066666667","6502100","三芝區"
"237012","275-BY","2018/06/15 20:09:37","新北市三峽區中華路74-5號","121.371506666667","24.929165","6500900","三峽區"
"237006","5529-G3","2018/06/15 20:09:35","新北市三峽區嘉添109-11號","121.369401666667","24.9096266666667","6500900","三峽區"
"237005","AKY-6261","2018/06/15 20:09:41","新北市三峽區民生街1巷17號","121.380433333333","24.9356066666667","6500900","三峽區"
"236069","105-UM","2018/06/15 20:09:47","新北市土城區中央路三段183號","121.431201666667","24.965215","6501300","土城區"
"236042","107-UM","2018/06/15 20:09:41","新北市土城區學成路22巷2弄2號","121.45321","24.9871516666667","6501300","土城區"
"236079","166-UM","2018/06/15 20:09:33","新北市土城區福安街11號","121.420168333333","24.965085","6501300","土城區"
"236030","253-BX","2018/06/15 20:09:43","新北市土城區中央路一段147號","121.446766666667","24.9878266666667","6501300","土城區"
"236026","269-VK","2018/06/15 20:09:48","新北市土城區裕生路67巷8弄1號","121.448155","24.9843083333333","6501300","土城區"
"236014","270-VK","2018/06/15 20:09:51","新北市土城區廣興街19號","121.455923333333","24.9916583333333","6501300","土城區"
"236039","271-VK","2018/06/15 20:09:47","新北市土城區延吉街353巷10號","121.464443333333","24.983465","6501300","土城區"
"236020","401-BY","2018/06/15 20:09:35","新北市土城區延吉街111巷1弄1號","121.471453333333","24.98645","6501300","土城區"
"236059","752-BX","2018/06/15 20:09:34","新北市土城區光明街28巷30號","121.44142","24.9742866666667","6501300","土城區"
"236048","913-UM","2018/06/15 20:09:37","新北市土城區清水路133號","121.458076666667","24.9816066666667","6501300","土城區"
"236055","AAC-216","2018/06/15 20:09:34","新北市土城區中華路一段14號","121.447823333333","24.9905716666667","6501300","土城區"
"242034","AAC-296","2018/06/15 20:09:44","新北市新莊區中正路318巷18號","121.44643","25.036045","6500500","新莊區"
"242058","986-R7","2018/06/15 20:09:37","新北市新莊區八德街141號","121.423691666667","25.019915","6500500","新莊區"
"242054","751-BX","2018/06/15 20:09:41","新北市新莊區西盛街387巷11號","121.42846","25.01296","6500500","新莊區"
"242027","615-BX","2018/06/15 20:09:43","新北市新莊區中平路298號","121.444833333333","25.0516116666667","6500500","新莊區"
"242025","613-BX","2018/06/15 20:09:44","新北市新莊區五權一路12巷25弄14號","121.45829","25.064365","6500500","新莊區"
"242029","612-BX","2018/06/15 20:09:32","新北市新莊區中原路301號","121.447471666667","25.0543916666667","6500500","新莊區"
"242042","566-BX","2018/06/15 20:09:40","新北市新莊區壽山路57-10號","121.411981666667","25.0320766666667","6500500","新莊區"
"242046","497-BY","2018/06/15 20:09:41","新北市新莊區裕民街103巷11號","121.419043333333","25.022915","6500500","新莊區"
"242050","441-UM","2018/06/15 20:09:34","新北市新莊區民安西路172巷6號","121.425288333333","25.0160733333333","6500500","新莊區"
"242056","440-UM","2018/06/15 20:09:38","新北市新莊區新莊路649巷13弄14號","121.445581666667","25.0318283333333","6500500","新莊區"
"242037","415-TV","2018/06/15 20:09:41","新北市新莊區建安街9巷3-1號","121.429035","25.0266633333333","6500500","新莊區"
"242007","413-TV","2018/06/15 20:09:48","新北市新莊區福壽街202巷21號","121.459045","25.0538616666667","6500500","新莊區"
"242044","400-BY","2018/06/15 20:09:34","新北市新莊區中正路895-40號","121.412528333333","25.0209983333333","6500500","新莊區"
"242023","362-BY","2018/06/15 20:09:39","新北市新莊區化成路652號","121.465988333333","25.05566","6500500","新莊區"
"242060","353-BY","2018/06/15 20:09:46","新北市新莊區瓊林路100巷1號","121.443488333333","25.0264116666667","6500500","新莊區"
"242009","132-UY","2018/06/15 20:09:40","新北市新莊區昌盛街35巷4弄2號","121.454128333333","25.0504633333333","6500500","新莊區"
"242039","133-UY","2018/06/15 20:09:45","新北市新莊區民安西路111巷5號","121.426958333333","25.0183166666667","6500500","新莊區"
"242048","172-VK","2018/06/15 20:09:40","新北市新莊區四維路182巷6號","121.421958333333","25.021825","6500500","新莊區"
"242011","173-VK","2018/06/15 19:44:31","新北市新莊區中原路512號","121.446755","25.0545983333333","6500500","新莊區"
"242017","175-VK","2018/06/15 20:09:47","新北市新莊區中港一街22號","121.451333333333","25.0456733333333","6500500","新莊區"
"242005","176-VK","2018/06/15 20:09:47","新北市新莊區頭興街3巷1號","121.463471666667","25.0535616666667","6500500","新莊區"
"242015","346-TH","2018/06/15 20:09:42","新北市新莊區中平路26巷61號","121.44771","25.043635","6500500","新莊區"
"242032","347-TH","2018/06/15 20:09:42","新北市新莊區公園一路38號","121.44347","25.0355066666667","6500500","新莊區"
"242021","348-TH","2018/06/15 20:09:28","新北市新莊區建中街48巷8弄1號","121.448255","25.0380816666667","6500500","新莊區"
"242019","350-TH","2018/06/15 20:09:29","新北市新莊區長青街7號","121.459225","25.0424833333333","6500500","新莊區"
"242013","351-TH","2018/06/15 20:09:45","新北市新莊區幸福路678巷3弄2號","121.450518333333","25.0497166666667","6500500","新莊區"
"221008","489-VK","2018/06/15 20:09:42","台北市內湖區康樂街119號","121.619115","25.070995","6501100","汐止區"
"221036","130-UY","2018/06/15 20:09:43","新北市汐止區新台五路二段37號","121.662973333333","25.06628","6501100","汐止區"
"221015","131-UY","2018/06/15 20:09:39","新北市汐止區建成路52號","121.663706666667","25.0728616666667","6501100","汐止區"
"221010","269-BY","2018/06/15 20:09:41","新北市汐止區八連路一段267號","121.64051","25.0843366666667","6501100","汐止區"
"221012","278-VK","2018/06/15 20:09:42","新北市汐止區汐平路二段13號","121.695878333333","25.0642433333333","6501100","汐止區"
"221023","279-VK","2018/06/15 20:09:31","新北市汐止區明峰街324號","121.624988333333","25.0673783333333","6501100","汐止區"
"221032","280-BY","2018/06/15 20:09:37","新北市汐止區弘道街8巷1弄2號","121.617056666667","25.0483083333333","6501100","汐止區"
"221027","281-BY","2018/06/15 20:09:36","新北市汐止區光明街28號","121.660195","25.0687033333333","6501100","汐止區"
"221029","298-VK","2018/06/15 20:09:34","新北市汐止區樟樹一路119巷12號","121.641216666667","25.064445","6501100","汐止區"
"221021","299-VK","2018/06/15 20:09:47","新北市汐止區水源路一段242號","121.654168333333","25.0602716666667","6501100","汐止區"
"221031","353-TW","2018/06/15 20:09:42","新北市汐止區原興路73巷1號","121.632015","25.0661","6501100","汐止區"
"221035","622-UM","2018/06/15 20:09:31","新北市汐止區長江街95號","121.657893333333","25.07266","6501100","汐止區"
"221025","623-UM","2018/06/15 20:09:48","新北市汐止區水源路二段30號","121.654725","25.0572616666667","6501100","汐止區"
"221038","646-BX","2018/06/15 20:09:28","新北市汐止區大同路三段41號","121.66682","25.07647","6501100","汐止區"
"221033","647-BX","2018/06/15 20:09:45","新北市汐止區東勢街201巷129弄2號","121.633446666667","25.042835","6501100","汐止區"
"221002","707-TV","2018/06/15 20:09:49","新北市汐止區中興路62號","121.635238333333","25.0612116666667","6501100","汐止區"
"221018","753-BX","2018/06/15 20:09:35","新北市汐止區茄苳路304號","121.673313333333","25.0668216666667","6501100","汐止區"
"242002","KEA-2550","2018/06/15 20:09:47","新北市新莊區中正路145號","121.459628333333","25.0384116666667","6500500","新莊區"
"220101","245-BX","2018/06/15 20:09:36","新北市板橋區雙十路二段47巷2弄20號","121.475835","25.0267933333333","6500100","板橋區"
"220055","256-TC","2018/06/15 20:09:43","新北市板橋區忠孝路48巷11弄6號","121.461638333333","24.9997866666667","6500100","板橋區"
"220068","257-TC","2018/06/15 20:09:47","新北市板橋區中山路二段411號","121.480796666667","25.0195983333333","6500100","板橋區"
"220071","283-VK","2018/06/15 20:09:32","新北市板橋區和平路16號","121.459648333333","24.9943483333333","6500100","板橋區"
"220083","286-VK","2018/06/15 20:09:37","新北市板橋區僑中二街90巷6號","121.446026666667","25.0092333333333","6500100","板橋區"
"220081","287-VK","2018/06/15 20:09:43","新北市板橋區僑中一街80巷5弄20號","121.44692","25.01264","6500100","板橋區"
"220061","293-UM","2018/06/15 20:09:36","新北市板橋區民生路二段89-1號","121.47123","25.0180383333333","6500100","板橋區"
"220084","296-UM","2018/06/15 20:09:42","新北市板橋區溪崑二街145號","121.426193333333","24.9878633333333","6500100","板橋區"
"220092","307-R5","2018/06/15 20:09:48","新北市板橋區光正街45巷35號","121.46182","25.015755","6500100","板橋區"
"220098","317-R6","2018/06/15 20:09:46","新北市板橋區新海路72巷5弄31-3號","121.46152","25.02304","6500100","板橋區"
"220064","486-VK","2018/06/15 20:09:43","新北市板橋區長安街331巷21號","121.473798333333","25.01256","6500100","板橋區"
"220088","491-VK","2018/06/15 20:09:38","新北市板橋區民治街73-1號","121.479653333333","25.0325766666667","6500100","板橋區"
"220103","561-BX","2018/06/15 20:09:34","新北市板橋區陽明街249號","121.462905","25.0249816666667","6500100","板橋區"
"220093","689-BX","2018/06/15 20:09:46","新北市板橋區長江路一段142號","121.46068","25.03015","6500100","板橋區"
"220054","741-BX","2018/06/15 20:09:37","新北市板橋區忠孝路忠義巷9弄1-2號","121.465108333333","25.0045633333333","6500100","板橋區"
"220102","KEA-2699","2018/06/15 20:09:31","新北市板橋區民治街139號","121.477556666667","25.0307166666667","6500100","板橋區"
"220067","830-TW","2018/06/15 20:09:37","新北市板橋區中山路一段206巷34號","121.471143333333","25.0127716666667","6500100","板橋區"
"220089","833-TW","2018/06/15 20:09:48","新北市板橋區互助街46號","121.46172","25.02702","6500100","板橋區"
"220073","985-R7","2018/06/15 20:09:41","新北市板橋區溪城路90-2號","121.428851666667","24.9797183333333","6500100","板橋區"
"220097","AAC-210","2018/06/15 20:09:47","新北市板橋區漢生西路19號","121.463506666667","25.0180533333333","6500100","板橋區"
"220070","AAC-253","2018/06/15 20:09:30","新北市板橋區四川路二段245巷93號","121.452905","24.993135","6500100","板橋區"
"235068","KEA-2873","2018/06/15 20:09:26","新北市中和區中山路二段252號","121.497633333333","25.00276","6500300","中和區"
