"lineid","car","time","location","longitude","latitude","cityid","cityname"
"234081","298-R6","2018/06/15 20:29:48","新北市永和區永貞路8號","121.520945","25.007295","6500400","永和區"
"234038","336-UY","2018/06/15 20:29:39","新北市永和區民樂街31巷8弄12號","121.52894","25.00123","6500400","永和區"
"234064","337-UY","2018/06/15 20:29:36","新北市永和區中正路435號","121.516993333333","25.0050833333333","6500400","永和區"
"234086","338-UY","2018/06/15 20:29:31","新北市永和區永和路二段105號","121.515008333333","25.0118333333333","6500400","永和區"
"234070","552-UM","2018/06/15 20:29:31","新北市永和區永亨路6-1號","121.519561666667","25.005615","6500400","永和區"
"234017","745-BX","2018/06/15 20:29:37","新北市永和區仁愛路71號","121.513223333333","25.013155","6500400","永和區"
"234030","746-BX","2018/06/15 20:29:34","新北市永和區民權路104號","121.519455","24.9966116666667","6500400","永和區"
"234054","KEA-2590","2018/06/15 20:29:33","新北市永和區環河東路一段82號","121.519615","25.0164583333333","6500400","永和區"
"234061","AAD-866","2018/06/15 20:29:31","新北市永和區得和路45巷16弄4號","121.516121666667","25.00078","6500400","永和區"
"234042","862-TW","2018/06/15 20:29:49","新北市永和區安樂路433號","121.514303333333","25.0045583333333","6500400","永和區"
"234050","863-TW","2018/06/15 20:29:35","新北市永和區新生路130號","121.50681","25.01443","6500400","永和區"
"249001","173-UM","2018/06/15 20:29:35","新北市八里區下罟子5-11號","121.38691","25.1423483333333","6502300","八里區"
"249004","303-UY","2018/06/15 20:29:30","新北市八里區中山路一段131號","121.41335","25.1592483333333","6502300","八里區"
"249002","305-UY","2018/06/15 20:29:36","新北市八里區龍米路二段125巷25號","121.445835","25.1456283333333","6502300","八里區"
"249003","593-UM","2018/06/15 20:29:39","新北市八里區中山路二段466巷36弄20號","121.398365","25.149355","6502300","八里區"
"234023","9380-KE","2018/06/15 20:29:44","新北市永和區光復街2巷16弄35號","121.518248333333","25.016315","6500400","永和區"
"234077","969-R7","2018/06/15 20:29:43","新北市中和區景平路406號","121.50873","24.9930666666667","6500400","永和區"
"234074","AAC-211","2018/06/15 20:29:47","新北市永和區豫溪街191巷7弄20號","121.523308333333","25.0109916666667","6500400","永和區"
"234067","AAC-212","2018/06/15 20:29:46","新北市永和區保平路292巷46弄2號","121.507456666667","25.005345","6500400","永和區"
"243009","297-R6","2018/06/15 20:29:37","新北市泰山區忠孝街14-1號","121.427653333333","25.0649583333333","6501600","泰山區"
"243016","380-SR","2018/06/15 20:29:33","新北市泰山區新生路33號","121.42766","25.0453433333333","6501600","泰山區"
"243015","421-VK","2018/06/15 20:29:34","新北市泰山區憲訓路36號","121.428981666667","25.0646366666667","6501600","泰山區"
"243011","KEA-2215","2018/06/15 20:29:29","新北市泰山區德安街1號","121.419615","25.032035","6501600","泰山區"
"243010","KEA-2216","2018/06/15 20:29:51","新北市泰山區新生路31巷10號","121.42773","25.0460466666667","6501600","泰山區"
"243014","680-BX","2018/06/15 20:29:36","新北市泰山區泰林路三段100號","121.416828333333","25.0660916666667","6501600","泰山區"
"222003","436-BY","2018/06/15 20:29:49","新北市深坑區深坑街42號","121.615048333333","25.0017633333333","6501800","深坑區"
"222002","659-BX","2018/06/15 20:28:10","新北市深坑區萬福路16巷16號","121.605426666667","25.0073783333333","6501800","深坑區"
"231041","002-UM","2018/06/15 20:29:32","新北市新店區中正路501號","121.533611666667","24.9835666666667","6500600","新店區"
"231059","046-UY","2018/06/15 20:29:33","新北市新店區安豐路21號","121.501071666667","24.9568333333333","6500600","新店區"
"231040","047-UY","2018/06/15 20:29:33","新北市新店區中正路346號","121.53638","24.9752133333333","6500600","新店區"
"231044","106-UY","2018/06/15 20:29:45","新北市新店區建國路199號","121.537935","24.9800016666667","6500600","新店區"
"231053","108-UY","2018/06/15 20:29:42","新北市新店區松林路36號","121.546233333333","24.910265","6500600","新店區"
"231048","187-VK","2018/06/15 20:29:31","新北市新店區寶慶街58巷21-1號","121.541993333333","24.98728","6500600","新店區"
"231054","KEA-2219","2018/06/15 20:29:45","新北市新店區檳榔路109號","121.544546666667","24.9616","6500600","新店區"
"231057","256-BX","2018/06/15 20:29:38","新北市新店區花園五路二段1號","121.553466666667","24.9341366666667","6500600","新店區"
"231042","268-BY","2018/06/15 20:29:49","新北市新店區寶橋路221號","121.549283333333","24.97754","6500600","新店區"
"231051","278-BY","2018/06/15 20:29:42","新北市新店區中央六街45號","121.528518333333","24.97566","6500600","新店區"
"231050","AAD-862","2018/06/15 20:29:34","新北市新店區建興街9巷1號","121.539908333333","24.9763266666667","6500600","新店區"
"231058","3713-VJ","2018/06/15 20:29:33","新北市新店區自由街60號","121.53431","24.97358","6500600","新店區"
"231066","4716-K9","2018/06/15 20:29:47","新北市新店區安民街365巷1弄11號","121.516576666667","24.9753616666667","6500600","新店區"
"231056","4715-K9","2018/06/15 20:29:37","新北市新店區中央路39號","121.5329","24.97774","6500600","新店區"
"231067","4772-VM","2018/06/15 20:29:48","新北市新店區安華路28-1號","121.519626666667","24.96085","6500600","新店區"
"231065","512-UM","2018/06/15 20:29:37","新北市新店區安祥路102巷30弄25號","121.484846666667","24.96326","6500600","新店區"
"231049","513-UM","2018/06/15 20:29:42","新北市新店區華潭街22號","121.529156666667","24.9527216666667","6500600","新店區"
"231045","617-UM","2018/06/15 20:29:40","新北市新店區長春路19巷19號","121.548468333333","24.95609","6500600","新店區"
"231061","619-UM","2018/06/15 20:29:38","新北市新店區新和街35號","121.519231666667","24.984905","6500600","新店區"
"231063","641-BX","2018/06/15 20:29:32","新北市新店區安康路二段382號","121.500356666667","24.956925","6500600","新店區"
"231068","718-UY","2018/06/15 20:29:40","新北市新店區寶元路一段74巷21號","121.543078333333","24.98379","6500600","新店區"
"231064","719-UM","2018/06/15 20:29:32","新北市新店區安和路三段97號","121.517771666667","24.9842566666667","6500600","新店區"
"231062","720-UM","2018/06/15 20:29:42","新北市新店區安泰路7巷16號","121.485653333333","24.95097","6500600","新店區"
"231060","897-TW","2018/06/15 20:29:49","新北市新店區錦秀路43號","121.479208333333","24.9438266666667","6500600","新店區"
"231043","899-TW","2018/06/15 20:29:32","新北市新店區建國路90號","121.540408333333","24.97726","6500600","新店區"
"241011","013-R5","2018/06/15 20:29:46","新北市三重區龍門路68號","121.496785","25.0726833333333","6500200","三重區"
"241028","022-UY","2018/06/15 20:29:42","新北市三重區光興街89號","121.497426666667","25.0599833333333","6500200","三重區"
"241008","059-VK","2018/06/15 20:29:34","新北市三重區下竹圍街42-1號","121.481048333333","25.07486","6500200","三重區"
"241009","060-VK","2018/06/15 20:29:39","新北市三重區三和路四段396巷43號","121.479593333333","25.07881","6500200","三重區"
"241031","061-VK","2018/06/15 20:29:40","新北市三重區三寧街25號","121.4896","25.0597866666667","6500200","三重區"
"241015","062-VK","2018/06/15 20:29:40","新北市三重區正義北路107巷68號","121.498655","25.0659566666667","6500200","三重區"
"241017","063-VK","2018/06/15 20:29:50","新北市三重區自強路一段201號","121.491643333333","25.0683333333333","6500200","三重區"
"241024","065-VK","2018/06/15 20:29:45","新北市三重區忠孝路三段15巷55號","121.479703333333","25.068325","6500200","三重區"
"241002","090-VK","2018/06/15 20:29:48","新北市三重區仁義街211巷33號","121.497776666667","25.0824766666667","6500200","三重區"
"241005","742-BX","2018/06/15 20:29:37","新北市三重區碧華街362號","121.490725","25.0841333333333","6500200","三重區"
"241003","265-UM","2018/06/15 20:29:19","新北市三重區富華街157號","121.4932","25.0849333333333","6500200","三重區"
"241016","266-UM","2018/06/15 20:29:47","新北市三重區正義北路198號","121.496341666667","25.0671133333333","6500200","三重區"
"241022","267-UM","2018/06/15 20:29:48","新北市三重區民生街61巷18弄14號","121.487615","25.0627","6500200","三重區"
"241018","268-UM","2018/06/15 20:29:34","新北市三重區正義北路206號","121.496371666667","25.0674583333333","6500200","三重區"
"241013","270-UM","2018/06/15 20:29:44","新北市三重區三和路四段12號","121.491436666667","25.073995","6500200","三重區"
"241025","271-UM","2018/06/15 20:29:47","新北市三重區頂崁街210巷23弄1號","121.47585","25.068155","6500200","三重區"
"241007","398-BY","2018/06/15 20:29:50","新北市三重區自強路四段28號","121.488823333333","25.0767216666667","6500200","三重區"
"241035","KEA-2210","2018/06/15 20:29:42","新北市三重區正義北路22號","121.497581666667","25.0631133333333","6500200","三重區"
"241023","413-TH","2018/06/15 20:29:46","新北市三重區自由街17巷1號","121.47987","25.06659","6500200","三重區"
"241004","475-VK","2018/06/15 20:29:29","新北市三重區溪尾街245號","121.488023333333","25.0815183333333","6500200","三重區"
"241020","478-VK","2018/06/15 20:29:47","新北市三重區重陽路四段115號","121.49331","25.0720333333333","6500200","三重區"
"241030","480-VK","2018/06/15 20:29:37","新北市三重區成功路75號","121.48877","25.0511266666667","6500200","三重區"
"241014","543-UM","2018/06/15 20:29:36","新北市三重區龍濱路64號","121.502426666667","25.069245","6500200","三重區"
"241001","547-UM","2018/06/15 20:29:41","新北市三重區自強路四段4號","121.48838","25.076095","6500200","三重區"
"241019","KEA-2593","2018/06/15 20:29:43","新北市三重區重陽路四段124號","121.492448333333","25.071025","6500200","三重區"
"241006","AAD-863","2018/06/15 20:29:40","新北市三重區車路頭街135-1號","121.484253333333","25.076125","6500200","三重區"
"241026","887-TS","2018/06/15 20:29:42","新北市三重區環河南路10號","121.503881666667","25.0628666666667","6500200","三重區"
"241012","941-UM","2018/06/15 20:29:52","新北市三重區龍濱路269號","121.501438333333","25.0730766666667","6500200","三重區"
"241029","942-UM","2018/06/15 20:29:41","新北市三重區集美街225號","121.491998333333","25.055065","6500200","三重區"
"241033","AAC-255","2018/06/15 20:29:49","新北市三重區五谷王北街80巷59號","121.474676666667","25.0529233333333","6500200","三重區"
"235039","097-UM","2018/06/15 20:29:35","新北市中和區大勇街27巷24號","121.516316666667","24.9940833333333","6500300","中和區"
"235050","4979-A6","2018/06/15 20:29:47","新北市中和區南華路79號","121.505406666667","24.9973966666667","6500300","中和區"
"235069","4980-A6","2018/06/15 20:29:30","新北市中和區中正路440號","121.491055","24.994385","6500300","中和區"
"235026","800-TS","2018/06/15 20:19:01","新北市中和區員山路36巷16-3號","121.484948333333","24.991625","6500300","中和區"
"235059","AAC-215","2018/06/15 20:29:43","新北市中和區員山路43號","121.481583333333","24.9918266666667","6500300","中和區"
"220065","072-UY","2018/06/15 20:29:43","新北市林口區太平里180號","121.366571666667","25.1341416666667","6500100","板橋區"
"247024","893-R6","2018/06/15 20:29:47","新北市蘆洲區長興路50巷41號","121.464936666667","25.0849733333333","6501400","蘆洲區"
"247014","546-UM","2018/06/15 20:29:35","新北市蘆洲區中山二路46巷13號","121.474393333333","25.08227","6501400","蘆洲區"
"247022","500-BY","2018/06/15 20:29:33","新北市蘆洲區中正路301號","121.466511666667","25.0883833333333","6501400","蘆洲區"
"247010","341-TH","2018/06/15 20:29:43","新北市蘆洲區信義路222巷59號","121.481213333333","25.0853716666667","6501400","蘆洲區"
"247012","339-TH","2018/06/15 20:29:49","新北市蘆洲區復興路292號","121.480936666667","25.08994","6501400","蘆洲區"
"247004","337-TH","2018/06/15 20:29:44","新北市蘆洲區長安街222號","121.458168333333","25.0851033333333","6501400","蘆洲區"
"247006","336-TH","2018/06/15 20:29:38","新北市蘆洲區和平路121巷8弄29號","121.466013333333","25.0804583333333","6501400","蘆洲區"
"247018","057-VK","2018/06/15 20:29:49","新北市蘆洲區民族路362巷2號","121.476255","25.090975","6501400","蘆洲區"
"247008","056-VK","2018/06/15 20:29:48","新北市蘆洲區永安北路二段70號","121.483216666667","25.08412","6501400","蘆洲區"
"247016","007-UY","2018/06/15 20:29:42","新北市蘆洲區光華路20號","121.469578333333","25.0833833333333","6501400","蘆洲區"
"247002","002-UY","2018/06/15 20:29:35","新北市蘆洲區長安街361巷28號","121.455953333333","25.0876183333333","6501400","蘆洲區"
"247020","001-UY","2018/06/15 20:29:44","新北市蘆洲區仁愛街118巷2號","121.469636666667","25.0948033333333","6501400","蘆洲區"
"235066","251-BX","2018/06/15 20:29:46","新北市中和區中山路二段3巷22弄35號","121.505858333333","25.004085","6500300","中和區"
"222001","KEA-2212","2018/06/15 20:29:39","新北市深坑區北深路三段345號","121.597145","25.0050083333333","6501800","深坑區"
"251002","012-UM","2018/06/15 20:29:47","新北市淡水區中正路40號","121.443653333333","25.1694466666667","6501000","淡水區"
"251008","181-VK","2018/06/15 20:29:43","新北市淡水區淡海路189巷9號","121.419641666667","25.1841666666667","6501000","淡水區"
"251010","413-VK","2018/06/15 20:29:40","新北市淡水區沙崙路181巷15號","121.42396","25.18435","6501000","淡水區"
"251012","441-VK","2018/06/15 20:29:43","新北市淡水區興仁路90號","121.452068333333","25.21782","6501000","淡水區"
"251001","559-UM","2018/06/15 20:29:34","新北市淡水區淡金路二段30號","121.45201","25.1812533333333","6501000","淡水區"
"251006","561-UM","2018/06/15 20:29:41","新北市淡水區北投子25號","121.461106666667","25.1844566666667","6501000","淡水區"
"251009","575-R6","2018/06/15 20:29:45","新北市淡水區中正東路二段71號","121.45944","25.1541683333333","6501000","淡水區"
"251003","766-UM","2018/06/15 20:29:34","新北市淡水區新生街43號","121.44024","25.174815","6501000","淡水區"
"252002","178-VK","2018/06/15 20:29:32","新北市三芝區淡金路二段47-2號","121.503656666667","25.2605283333333","6502100","三芝區"
"252001","292-VK","2018/06/15 20:29:38","新北市三芝區中山路一段37號","121.500771666667","25.2577766666667","6502100","三芝區"
"242034","AAC-296","2018/06/15 20:29:47","新北市新莊區新泰路205號","121.446925","25.038235","6500500","新莊區"
"242058","986-R7","2018/06/15 20:29:42","新北市新莊區四維路173號","121.422251666667","25.0215416666667","6500500","新莊區"
"242054","751-BX","2018/06/15 20:29:41","新北市新莊區民安西路229巷11號","121.426821666667","25.0142216666667","6500500","新莊區"
"242027","615-BX","2018/06/15 20:29:43","新北市新莊區幸福路14號","121.45909","25.0495333333333","6500500","新莊區"
"242025","613-BX","2018/06/15 20:29:44","新北市新莊區五工二路50巷3號","121.461211666667","25.0654233333333","6500500","新莊區"
"242029","612-BX","2018/06/15 20:29:32","新北市新莊區昌平街19號","121.45432","25.0514883333333","6500500","新莊區"
"242042","566-BX","2018/06/15 20:29:40","新北市新莊區天祥街13號","121.417321666667","25.0275083333333","6500500","新莊區"
"242046","497-BY","2018/06/15 20:29:41","新北市新莊區中正路新雅巷2弄1號","121.417921666667","25.0253766666667","6500500","新莊區"
"242050","441-UM","2018/06/15 20:29:34","新北市新莊區民安西路254號","121.425856666667","25.0136066666667","6500500","新莊區"
"242056","440-UM","2018/06/15 20:29:37","新北市新莊區瓊泰路187號","121.443076666667","25.0316716666667","6500500","新莊區"
"242037","415-TV","2018/06/15 20:29:41","新北市新莊區後港一路42號","121.42587","25.0261533333333","6500500","新莊區"
"242007","413-TV","2018/06/15 20:29:45","新北市新莊區思源路361號","121.459766666667","25.0508716666667","6500500","新莊區"
"242044","400-BY","2018/06/15 20:29:43","新北市新莊區中正路新生巷85弄1號","121.417125","25.021835","6500500","新莊區"
"242023","362-BY","2018/06/15 20:29:43","新北市新莊區化成路542號","121.466315","25.0535583333333","6500500","新莊區"
"242060","353-BY","2018/06/15 20:29:46","新北市新莊區民安路285-4號","121.429126666667","25.022325","6500500","新莊區"
"242009","132-UY","2018/06/15 20:29:40","新北市新莊區昌隆街63號","121.455483333333","25.0509266666667","6500500","新莊區"
"242039","133-UY","2018/06/15 20:29:45","新北市新莊區成功街6巷4號","121.425743333333","25.0219933333333","6500500","新莊區"
"242048","172-VK","2018/06/15 20:29:40","新北市新莊區中正路700-21號","121.418015","25.0270166666667","6500500","新莊區"
"242017","175-VK","2018/06/15 20:29:47","新北市新莊區中港三街73號","121.449696666667","25.04631","6500500","新莊區"
"242005","176-VK","2018/06/15 20:29:47","新北市新莊區化成路746巷20號","121.466465","25.057815","6500500","新莊區"
"242015","346-TH","2018/06/15 20:29:37","新北市新莊區中平路82巷22號","121.445723333333","25.0449066666667","6500500","新莊區"
"242032","347-TH","2018/06/15 20:29:47","新北市新莊區三和路17-24號","121.436153333333","25.0390133333333","6500500","新莊區"
"242021","348-TH","2018/06/15 20:29:48","新北市新莊區和興街1號","121.447651666667","25.0388933333333","6500500","新莊區"
"242019","350-TH","2018/06/15 20:29:29","新北市新莊區長青街2號","121.457901666667","25.0426916666667","6500500","新莊區"
"242013","351-TH","2018/06/15 20:29:49","新北市新莊區中榮街83號","121.44538","25.0526766666667","6500500","新莊區"
"221008","489-VK","2018/06/15 20:29:42","新北市汐止區康寧街523-1號","121.633438333333","25.0687616666667","6501100","汐止區"
"221036","130-UY","2018/06/15 20:29:40","新北市汐止區新台五路二段126巷13弄1號","121.66369","25.0659533333333","6501100","汐止區"
"221015","131-UY","2018/06/15 20:29:39","新北市汐止區建成路142巷19弄1號","121.662228333333","25.0738583333333","6501100","汐止區"
"221010","269-BY","2018/06/15 20:29:41","新北市汐止區八連路二段280號","121.631311666667","25.097475","6501100","汐止區"
"221012","278-VK","2018/06/15 20:29:42","新北市汐止區大同路三段241號","121.672675","25.0767033333333","6501100","汐止區"
"221023","279-VK","2018/06/15 20:29:51","新北市汐止區民族二街30巷16-1號","121.634096666667","25.0717583333333","6501100","汐止區"
"221032","280-BY","2018/06/15 20:29:37","新北市汐止區弘道街53巷15號","121.618676666667","25.0491166666667","6501100","汐止區"
"221027","281-BY","2018/06/15 20:29:36","新北市汐止區中正路189號","121.6588","25.0690033333333","6501100","汐止區"
"221029","298-VK","2018/06/15 20:29:19","新北市汐止區樟樹一路137巷15號","121.641438333333","25.0657666666667","6501100","汐止區"
"221021","299-VK","2018/06/15 20:29:47","新北市汐止區水源路一段291巷1號","121.654381666667","25.0583733333333","6501100","汐止區"
"221031","353-TW","2018/06/15 20:29:42","新北市汐止區中興路110巷32號","121.634293333333","25.06462","6501100","汐止區"
"221035","622-UM","2018/06/15 20:29:31","新北市汐止區長江街101-5號","121.658716666667","25.073185","6501100","汐止區"
"221025","623-UM","2018/06/15 20:29:28","新北市汐止區水源路二段88巷1弄6號","121.656363333333","25.05565","6501100","汐止區"
"221038","646-BX","2018/06/15 20:29:48","新北市汐止區水源路一段56號","121.657391666667","25.0655466666667","6501100","汐止區"
"221033","647-BX","2018/06/15 20:29:45","新北市汐止區林森街76號","121.623566666667","25.0406433333333","6501100","汐止區"
"221002","707-TV","2018/06/15 20:29:49","新北市汐止區福德三路75號","121.636458333333","25.0692","6501100","汐止區"
"221018","753-BX","2018/06/15 20:29:35","新北市汐止區茄苳路225巷6號","121.671213333333","25.06899","6501100","汐止區"
"242002","KEA-2550","2018/06/15 20:29:47","新北市新莊區中正路78-1號","121.458515","25.03778","6500500","新莊區"
"220083","286-VK","2018/06/15 20:29:37","新北市板橋區僑中二街108巷15-4號","121.445095","25.0073683333333","6500100","板橋區"
"220061","293-UM","2018/06/15 20:29:36","新北市板橋區文華街28號","121.45723","25.0008633333333","6500100","板橋區"
"220103","561-BX","2018/06/15 20:29:34","新北市板橋區漢生東路43巷19號","121.46625","25.0174733333333","6500100","板橋區"
"220102","KEA-2699","2018/06/15 20:29:51","新北市板橋區民生路二段215號","121.469108333333","25.020875","6500100","板橋區"
"220089","833-TW","2018/06/15 20:29:39","新北市板橋區四維路343號","121.462385","25.02975","6500100","板橋區"
"220070","AAC-253","2018/06/15 20:29:30","新北市新莊區中山路一段458號","121.4425","25.05683","6500100","板橋區"
