"lineid","car","time","location","longitude","latitude","cityid","cityname"
"234064","337-UY","2018/06/15 20:39:36","新北市永和區環河西路一段87-1號","121.512516666667","25.018135","6500400","永和區"
"234086","338-UY","2018/06/15 20:39:31","新北市永和區光復街21號","121.51645","25.0173933333333","6500400","永和區"
"234061","AAD-866","2018/06/15 20:39:52","新北市永和區中正路404號","121.517566666667","25.0018183333333","6500400","永和區"
"249001","173-UM","2018/06/15 20:39:35","新北市八里區中山路三段331號","121.37757","25.1388683333333","6502300","八里區"
"249004","303-UY","2018/06/15 20:39:30","新北市八里區中山路一段326號","121.412881666667","25.1591116666667","6502300","八里區"
"249002","305-UY","2018/06/15 20:39:37","新北市八里區龍米路三段52號","121.424596666667","25.159115","6502300","八里區"
"234023","9380-KE","2018/06/15 20:39:44","新北市永和區竹林路25巷21號","121.518121666667","25.0149733333333","6500400","永和區"
"234077","969-R7","2018/06/15 20:39:43","新北市三重區頂崁街23號","121.476431666667","25.0570033333333","6500400","永和區"
"234074","AAC-211","2018/06/15 20:39:47","新北市永和區竹林路119巷3號","121.52033","25.0115116666667","6500400","永和區"
"243016","380-SR","2018/06/15 20:39:32","新北市泰山區文程路117號","121.430751666667","25.0480716666667","6501600","泰山區"
"243011","KEA-2215","2018/06/15 20:39:29","新北市泰山區明志路三段277號","121.42305","25.0368183333333","6501600","泰山區"
"243014","680-BX","2018/06/15 20:39:36","新北市泰山區泰林路三段745巷145號","121.405495","25.0676783333333","6501600","泰山區"
"222003","436-BY","2018/06/15 20:39:29","新北市深坑區文山路二段30巷31號","121.615496666667","24.9986716666667","6501800","深坑區"
"222002","659-BX","2018/06/15 20:39:30","新北市深坑區萬福路45號","121.599483333333","25.0068416666667","6501800","深坑區"
"231041","002-UM","2018/06/15 20:39:32","新北市新店區中正路695巷2號","121.533931666667","24.9907416666667","6500600","新店區"
"231059","046-UY","2018/06/15 20:39:48","新北市新店區吉祥街15巷60號","121.499828333333","24.9451433333333","6500600","新店區"
"231040","047-UY","2018/06/15 20:39:33","新北市新店區中正路272號","121.538935","24.9736566666667","6500600","新店區"
"231044","106-UY","2018/06/15 20:39:35","新北市新店區建國路293巷2號","121.536978333333","24.9857733333333","6500600","新店區"
"231053","108-UY","2018/06/15 20:39:42","新北市新店區廣興路7-10號","121.545843333333","24.9116966666667","6500600","新店區"
"231048","187-VK","2018/06/15 20:39:31","新北市新店區寶慶街12-2號","121.543243333333","24.9867933333333","6500600","新店區"
"231054","KEA-2219","2018/06/15 20:39:45","新北市新店區行政街26號","121.543","24.9655733333333","6500600","新店區"
"231057","256-BX","2018/06/15 20:39:38","新北市新店區花園六路二段9-2號","121.555793333333","24.9329216666667","6500600","新店區"
"231042","268-BY","2018/06/15 20:39:42","新北市新店區寶橋路212號","121.550978333333","24.9786383333333","6500600","新店區"
"231051","278-BY","2018/06/15 20:39:42","新北市新店區中央路206號","121.530238333333","24.9740583333333","6500600","新店區"
"231050","AAD-862","2018/06/15 20:39:34","新北市新店區中正路263-1號","121.538511666667","24.97361","6500600","新店區"
"231058","3713-VJ","2018/06/15 20:39:33","新北市新店區平等街46巷1號","121.53629","24.9731566666667","6500600","新店區"
"231066","4716-K9","2018/06/15 20:39:47","新北市新店區安民街365巷1弄9號","121.516645","24.9754683333333","6500600","新店區"
"231056","4715-K9","2018/06/15 20:39:37","新北市新店區中央六街58號","121.527855","24.9757916666667","6500600","新店區"
"231067","4772-VM","2018/06/15 20:39:48","新北市新店區安華路28-1號","121.519633333333","24.9608466666667","6500600","新店區"
"231065","512-UM","2018/06/15 20:39:49","新北市新店區安祥路102巷144號","121.486776666667","24.9645783333333","6500600","新店區"
"231049","513-UM","2018/06/15 20:39:41","新北市新店區永業路81巷1弄1-1號","121.529506666667","24.9494133333333","6500600","新店區"
"231045","617-UM","2018/06/15 20:39:40","新北市新店區長春路19巷19號","121.548443333333","24.9561066666667","6500600","新店區"
"231061","619-UM","2018/06/15 20:39:38","新北市新店區新和街37號","121.519271666667","24.98493","6500600","新店區"
"231063","641-BX","2018/06/15 20:39:32","新北市新店區玫瑰路4-1號","121.493615","24.9513616666667","6500600","新店區"
"231068","718-UY","2018/06/15 20:39:43","新北市新店區寶慶街35巷6號","121.543081666667","24.9863416666667","6500600","新店區"
"231064","719-UM","2018/06/15 20:39:32","新北市新店區安和路三段110巷9號","121.517526666667","24.985745","6500600","新店區"
"231062","720-UM","2018/06/15 20:39:42","新北市新店區安泰路60巷55弄44號","121.484475","24.9455533333333","6500600","新店區"
"231060","897-TW","2018/06/15 20:39:29","新北市新店區安康路三段740號","121.47379","24.9419883333333","6500600","新店區"
"231043","899-TW","2018/06/15 20:39:32","新北市新店區建國路4號","121.53978","24.9733133333333","6500600","新店區"
"241011","013-R5","2018/06/15 20:39:46","新北市三重區龍濱路219巷8號","121.502113333333","25.0721","6500200","三重區"
"241028","022-UY","2018/06/15 20:39:42","新北市三重區光興街89號","121.497421666667","25.059965","6500200","三重區"
"241008","059-VK","2018/06/15 20:39:34","新北市三重區下竹圍街42-1號","121.481005","25.07487","6500200","三重區"
"241009","060-VK","2018/06/15 20:39:39","新北市三重區碧華街61號","121.484835","25.08134","6500200","三重區"
"241031","061-VK","2018/06/15 20:39:40","新北市三重區重陽路一段43巷30號","121.488181666667","25.0585933333333","6500200","三重區"
"241015","062-VK","2018/06/15 20:39:40","新北市三重區雙園街1號","121.497821666667","25.0683866666667","6500200","三重區"
"241017","063-VK","2018/06/15 20:39:50","新北市三重區安慶街235號","121.490886666667","25.06777","6500200","三重區"
"241024","065-VK","2018/06/15 20:39:45","新北市三重區國道路一段58巷15號","121.481328333333","25.072025","6500200","三重區"
"241002","090-VK","2018/06/15 20:39:48","新北市三重區仁義街167巷6號","121.497273333333","25.0817233333333","6500200","三重區"
"241005","742-BX","2018/06/15 20:39:37","新北市三重區碧華街446號","121.493156666667","25.0858583333333","6500200","三重區"
"241003","265-UM","2018/06/15 20:39:39","新北市三重區五華街141巷60號","121.493536666667","25.0867783333333","6500200","三重區"
"241016","266-UM","2018/06/15 20:39:32","新北市三重區長壽西街142-1號","121.494811666667","25.0668516666667","6500200","三重區"
"241022","267-UM","2018/06/15 20:39:28","新北市三重區中山路33巷27-5號","121.487975","25.0622283333333","6500200","三重區"
"241018","268-UM","2018/06/15 20:39:35","新北市三重區自強路一段217號","121.49128","25.0685183333333","6500200","三重區"
"241013","270-UM","2018/06/15 20:39:32","新北市三重區仁愛街127號","121.495561666667","25.0748533333333","6500200","三重區"
"241025","271-UM","2018/06/15 20:39:47","新北市三重區忠孝路三段99巷11號","121.480078333333","25.064565","6500200","三重區"
"241007","398-BY","2018/06/15 20:39:29","新北市三重區自強路四段4號","121.48834","25.0760833333333","6500200","三重區"
"241035","KEA-2210","2018/06/15 20:39:48","新北市三重區正義北路279號","121.495158333333","25.0702416666667","6500200","三重區"
"241023","413-TH","2018/06/15 20:39:46","新北市三重區自由街49號","121.478783333333","25.0665416666667","6500200","三重區"
"241004","475-VK","2018/06/15 20:39:49","新北市三重區仁愛街403號","121.49102","25.080995","6500200","三重區"
"241020","478-VK","2018/06/15 20:39:47","新北市三重區忠孝路一段101號","121.489571666667","25.0721566666667","6500200","三重區"
"241030","480-VK","2018/06/15 20:39:37","新北市三重區成功路73巷9號","121.489403333333","25.051805","6500200","三重區"
"241014","543-UM","2018/06/15 20:39:31","新北市三重區介壽路11號","121.49889","25.0693033333333","6500200","三重區"
"241001","547-UM","2018/06/15 20:39:41","新北市三重區自強路三段110巷21號","121.486041666667","25.0745783333333","6500200","三重區"
"241019","KEA-2593","2018/06/15 20:39:43","新北市三重區忠孝路一段10巷37號","121.49105","25.0713033333333","6500200","三重區"
"241006","AAD-863","2018/06/15 20:39:40","新北市三重區車路頭街135-1號","121.484223333333","25.0761733333333","6500200","三重區"
"241026","887-TS","2018/06/15 20:39:42","新北市三重區和平街1號","121.500065","25.0623083333333","6500200","三重區"
"241012","941-UM","2018/06/15 20:39:46","新北市三重區秀江街31號","121.502001666667","25.07294","6500200","三重區"
"241029","942-UM","2018/06/15 20:39:41","新北市三重區集美街126巷30號","121.490181666667","25.0538766666667","6500200","三重區"
"241033","AAC-255","2018/06/15 20:39:49","新北市三重區神農街378號","121.474185","25.05583","6500200","三重區"
"235039","097-UM","2018/06/15 20:39:35","新北市中和區大勇街29巷21號","121.515698333333","24.9947683333333","6500300","中和區"
"235069","4980-A6","2018/06/15 20:39:30","新北市中和區連城路347巷18弄8號","121.488281666667","24.9947633333333","6500300","中和區"
"235026","800-TS","2018/06/15 20:19:01","新北市中和區員山路36巷16-3號","121.484948333333","24.991625","6500300","中和區"
"247024","893-R6","2018/06/15 20:39:47","新北市蘆洲區光榮路85號","121.461855","25.0887516666667","6501400","蘆洲區"
"247014","546-UM","2018/06/15 20:39:35","新北市蘆洲區中山二路101號","121.472681666667","25.0816566666667","6501400","蘆洲區"
"247022","500-BY","2018/06/15 20:39:33","新北市蘆洲區中正路243巷18弄7號","121.466876666667","25.086695","6501400","蘆洲區"
"247010","341-TH","2018/06/15 20:39:43","新北市蘆洲區集賢路224巷16號","121.481765","25.0871483333333","6501400","蘆洲區"
"247012","339-TH","2018/06/15 20:39:49","新北市蘆洲區中興街63號","121.48168","25.0876566666667","6501400","蘆洲區"
"247004","337-TH","2018/06/15 20:39:44","新北市蘆洲區長安街222號","121.458201666667","25.0850983333333","6501400","蘆洲區"
"247006","336-TH","2018/06/15 20:39:38","新北市蘆洲區和平路136號","121.467053333333","25.0805883333333","6501400","蘆洲區"
"247008","056-VK","2018/06/15 20:39:48","新北市蘆洲區永安北路2段8巷1-1號","121.480565","25.080775","6501400","蘆洲區"
"247016","007-UY","2018/06/15 20:39:42","新北市蘆洲區中山二路309號","121.469161666667","25.07708","6501400","蘆洲區"
"247020","001-UY","2018/06/15 20:39:36","新北市蘆洲區民族路424號","121.47398","25.0917666666667","6501400","蘆洲區"
"222001","KEA-2212","2018/06/15 20:39:39","新北市深坑區北深路三段228號","121.600806666667","25.0040283333333","6501800","深坑區"
"251002","012-UM","2018/06/15 20:39:36","新北市淡水區中正路28號","121.444411666667","25.1689883333333","6501000","淡水區"
"251010","413-VK","2018/06/15 20:39:40","新北市淡水區沙崙路181巷15號","121.423803333333","25.18442","6501000","淡水區"
"251012","441-VK","2018/06/15 20:39:43","新北市淡水區興仁路105號","121.451596666667","25.2181433333333","6501000","淡水區"
"251007","442-VK","2018/06/15 20:39:41","新北市淡水區淡金路一段69號","121.458086666667","25.1735083333333","6501000","淡水區"
"251001","559-UM","2018/06/15 20:39:34","新北市淡水區淡金路204號","121.459846666667","25.1666","6501000","淡水區"
"251009","575-R6","2018/06/15 20:39:45","新北市淡水區民權路187巷17號","121.46046","25.1334466666667","6501000","淡水區"
"251003","766-UM","2018/06/15 20:39:34","新北市淡水區新民街152巷6弄20號","121.438665","25.1784883333333","6501000","淡水區"
"252002","178-VK","2018/06/15 20:39:52","新北市三芝區淡金路二段47-2號","121.503633333333","25.2605366666667","6502100","三芝區"
"252001","292-VK","2018/06/15 20:39:38","新北市三芝區育英街29-1號","121.501226666667","25.2573116666667","6502100","三芝區"
"242034","AAC-296","2018/06/15 20:39:44","新北市新莊區中正路334巷17號","121.4456","25.0355733333333","6500500","新莊區"
"242058","986-R7","2018/06/15 20:39:32","新北市新莊區四維路4號","121.424031666667","25.0253583333333","6500500","新莊區"
"242054","751-BX","2018/06/15 20:39:41","新北市新莊區西盛街321號","121.428146666667","25.0147566666667","6500500","新莊區"
"242027","615-BX","2018/06/15 20:39:46","新北市新莊區思源路147號","121.459768333333","25.0441383333333","6500500","新莊區"
"242025","613-BX","2018/06/15 20:39:44","新北市三重區光復路二段192號","121.470861666667","25.0627233333333","6500500","新莊區"
"242029","612-BX","2018/06/15 20:39:32","新北市新莊區中華路二段1號","121.453346666667","25.0448533333333","6500500","新莊區"
"242042","566-BX","2018/06/15 20:39:40","新北市新莊區天祥街12號","121.4173","25.0271133333333","6500500","新莊區"
"242046","497-BY","2018/06/15 20:39:41","新北市新莊區龍安路108號","121.418401666667","25.0204083333333","6500500","新莊區"
"242050","441-UM","2018/06/15 20:39:34","新北市新莊區西盛街256號","121.427941666667","25.0158883333333","6500500","新莊區"
"242056","440-UM","2018/06/15 20:39:49","新北市新莊區瓊泰路2巷10號","121.44511","25.02919","6500500","新莊區"
"242037","415-TV","2018/06/15 20:39:41","新北市新莊區中正路612-1號","121.426173333333","25.030045","6500500","新莊區"
"242007","413-TV","2018/06/15 20:39:45","新北市新莊區福壽街56號","121.458415","25.0489083333333","6500500","新莊區"
"242044","400-BY","2018/06/15 20:39:43","新北市新莊區龍安路108號","121.418383333333","25.0205166666667","6500500","新莊區"
"242023","362-BY","2018/06/15 20:39:39","新北市新莊區復興路三段8號","121.460608333333","25.0444783333333","6500500","新莊區"
"242060","353-BY","2018/06/15 20:39:46","新北市新莊區新樹路258巷3號","121.43212","25.0155783333333","6500500","新莊區"
"242009","132-UY","2018/06/15 20:39:40","新北市新莊區昌隆街104號","121.45672","25.05096","6500500","新莊區"
"242039","133-UY","2018/06/15 20:39:45","新北市新莊區民安路461號","121.434703333333","25.02252","6500500","新莊區"
"242048","172-VK","2018/06/15 20:39:45","新北市新莊區中正路615號","121.43237","25.03199","6500500","新莊區"
"242017","175-VK","2018/06/15 20:39:47","新北市新莊區中平路82巷32號","121.44615","25.0448683333333","6500500","新莊區"
"242032","347-TH","2018/06/15 20:39:42","新北市新莊區中正路508巷5弄2號","121.435038333333","25.033855","6500500","新莊區"
"242021","348-TH","2018/06/15 20:39:48","新北市新莊區公園路130號","121.451998333333","25.0402816666667","6500500","新莊區"
"242019","350-TH","2018/06/15 20:39:49","新北市新莊區銘德街142號","121.454633333333","25.042795","6500500","新莊區"
"242013","351-TH","2018/06/15 20:39:45","新北市新莊區中和街175巷10號","121.447378333333","25.0506583333333","6500500","新莊區"
"221008","489-VK","2018/06/15 20:39:42","新北市汐止區康寧街706-2號","121.63849","25.0729933333333","6501100","汐止區"
"221036","130-UY","2018/06/15 20:39:40","新北市汐止區新昌路55號","121.663243333333","25.0686783333333","6501100","汐止區"
"221015","131-UY","2018/06/15 20:39:39","新北市汐止區建成路26號","121.664471666667","25.07266","6501100","汐止區"
"221023","279-VK","2018/06/15 20:39:31","新北市汐止區康寧街505號","121.632836666667","25.068545","6501100","汐止區"
"221032","280-BY","2018/06/15 20:39:37","新北市汐止區民權街二段28號","121.619566666667","25.0501516666667","6501100","汐止區"
"221027","281-BY","2018/06/15 20:39:36","新北市汐止區大同路二段563-1號","121.662865","25.069885","6501100","汐止區"
"221029","298-VK","2018/06/15 20:39:34","新北市汐止區大同路一段415號","121.642165","25.0614166666667","6501100","汐止區"
"221021","299-VK","2018/06/15 20:39:47","新北市汐止區水源路一段280號","121.654246666667","25.0583633333333","6501100","汐止區"
"221035","622-UM","2018/06/15 20:39:51","新北市汐止區長江街101-5號","121.65878","25.07313","6501100","汐止區"
"221025","623-UM","2018/06/15 20:39:48","新北市汐止區水源路二段283巷1號","121.659176666667","25.049885","6501100","汐止區"
"221038","646-BX","2018/06/15 20:39:28","新北市汐止區汐萬路一段210號","121.652023333333","25.0724183333333","6501100","汐止區"
"221033","647-BX","2018/06/15 20:39:45","新北市汐止區合順街18巷8弄5號","121.620311666667","25.041955","6501100","汐止區"
"221002","707-TV","2018/06/15 20:39:49","新北市汐止區福德二路136號","121.630821666667","25.0652816666667","6501100","汐止區"
"221018","753-BX","2018/06/15 20:39:35","新北市汐止區中華街75號","121.668206666667","25.070865","6501100","汐止區"
"242002","KEA-2550","2018/06/15 20:39:48","新北市新莊區中港路15號","121.454986666667","25.0372083333333","6500500","新莊區"
"220102","KEA-2699","2018/06/15 20:39:51","新北市板橋區縣民大道二段22號","121.463826666667","25.013355","6500100","板橋區"
"220070","AAC-253","2018/06/15 20:39:30","新北市五股區凌雲路三段24巷22號","121.432733333333","25.1078883333333","6500100","板橋區"
