"lineid","car","time","location","longitude","latitude","cityid","cityname"
"234012","KEA-2591","2018/06/15 21:52:14","新北市永和區福和路1號","121.526146666667","25.0093266666667","6500400","永和區"
"235010","733-UM","2018/06/15 21:43:55","新北市中和區員山路36巷13號","121.484151666667","24.9908133333333","6500300","中和區"
"247010","341-TH","2018/06/15 21:59:23","新北市八里區中山路三段409號","121.368403333333","25.1349416666667","6501400","蘆洲區"
"251004","009-UM","2018/06/15 21:59:45","新北市淡水區民權路88-5號","121.459036666667","25.1327016666667","6501000","淡水區"
"251008","181-VK","2018/06/15 21:59:45","新北市淡水區學府路104號","121.44985","25.1718166666667","6501000","淡水區"
"251010","413-VK","2018/06/15 21:59:40","新北市淡水區中正路二段211號","121.426203333333","25.1891016666667","6501000","淡水區"
"251007","442-VK","2018/06/15 21:59:41","新北市淡水區北新路184巷50號","121.450766666667","25.1777366666667","6501000","淡水區"
"251005","443-VK","2018/06/15 21:59:52","新北市淡水區鄧公路30巷2弄63號","121.454465","25.1693166666667","6501000","淡水區"
"251011","650-BX","2018/06/15 21:59:35","新北市淡水區水碓街7號","121.443228333333","25.1771316666667","6501000","淡水區"
"251003","766-UM","2018/06/15 21:59:53","新北市淡水區新春街81號","121.438726666667","25.1824","6501000","淡水區"
