"lineid","car","time","location","longitude","latitude","cityid","cityname"
"234012","KEA-2591","2018/06/15 21:52:14","新北市永和區福和路1號","121.526146666667","25.0093266666667","6500400","永和區"
"235010","733-UM","2018/06/15 21:43:55","新北市中和區員山路36巷13號","121.484151666667","24.9908133333333","6500300","中和區"
"247010","341-TH","2018/06/15 22:09:43","新北市八里區下罟子6-4號","121.385961666667","25.1418833333333","6501400","蘆洲區"
"251004","009-UM","2018/06/15 22:09:45","新北市淡水區民族路33巷16-19號","121.462498333333","25.1358183333333","6501000","淡水區"
"251008","181-VK","2018/06/15 22:09:45","新北市淡水區學府路104號","121.449836666667","25.1718283333333","6501000","淡水區"
"251010","413-VK","2018/06/15 22:09:40","新北市淡水區沙崙路200號","121.424708333333","25.1839133333333","6501000","淡水區"
"251007","442-VK","2018/06/15 22:09:41","新北市淡水區北新路137號","121.449483333333","25.1788033333333","6501000","淡水區"
"251005","443-VK","2018/06/15 22:09:32","新北市淡水區忠愛街12號","121.45733","25.1752183333333","6501000","淡水區"
"251011","650-BX","2018/06/15 22:09:35","新北市淡水區水碓街7號","121.443266666667","25.1771266666667","6501000","淡水區"
