"lineid","car","time","location","longitude","latitude","cityid","cityname"
"248005","653-BX","2018/06/16 07:49:27","新北市五股區明德路12巷3號","121.433326666667","25.07178","6501500","五股區"
"232010","076-UY","2018/06/16 07:49:23","新北市坪林區厚德岡坑8-5號","121.73316","24.940955","6502000","坪林區"
"232004","290-BY","2018/06/16 07:49:28","新北市坪林區下坑子口6-15號","121.711198333333","24.943335","6502000","坪林區"
"244005","248-BX","2018/06/16 07:49:15","新北市林口區下福里46-1號","121.310826666667","25.1133733333333","6501700","林口區"
"235001","611-BX","2018/06/16 07:49:20","新北市中和區圓通路367巷6號","121.491466666667","24.9891916666667","6500300","中和區"
"226005","5620-A6","2018/06/16 07:49:17","新北市平溪區嶺腳里中華街52號","121.739155","25.02483","6502400","平溪區"
"226007","7418-A5","2018/06/16 07:49:20","新北市平溪區平湖里大厝37-5號","121.779108333333","25.0307166666667","6502400","平溪區"
"226003","AGD-0702","2018/06/16 07:38:18","新北市平溪區嶺腳里嶺腳寮83-2號","121.751171666667","25.0354266666667","6502400","平溪區"
"223006","022-BY","2018/06/16 07:49:22","新北市石碇區碇格路二段34號","121.63866","24.9570066666667","6501900","石碇區"
"223002","KEA-2673","2018/06/16 07:49:19","新北市石碇區靜安路一段108號","121.648865","25.00934","6501900","石碇區"
"223003","205-TH","2018/06/16 07:49:27","新北市石碇區樟空子10號","121.66535","24.961815","6501900","石碇區"
"223008","406-TH","2018/06/16 07:42:45","新北市石碇區靜安路一段337號","121.69886","25.0146","6501900","石碇區"
"223001","592-UM","2018/06/16 07:49:26","新北市石碇區樟空子10號","121.665415","24.96198","6501900","石碇區"
"223004","660-BX","2018/06/16 07:49:30","新北市石碇區楓子林30號","121.64233","25.0095566666667","6501900","石碇區"
"223007","661-BX","2018/06/16 07:42:39","新北市石碇區靜安路一段337號","121.698705","25.0146633333333","6501900","石碇區"
"227006","030-BX","2018/06/16 07:49:26","新北市雙溪區雙溪里太平路43號","121.86479","25.0355916666667","6502500","雙溪區"
"252004","249-BX","2018/06/16 07:49:28","新北市三芝區店子里菜公坑76-2號","121.50899","25.2047966666667","6502100","三芝區"
"252007","AAC-283","2018/06/16 07:49:14","新北市三芝區海景三街14號","121.470121666667","25.24832","6502100","三芝區"
"237001","159-UY","2018/06/16 07:49:32","新北市三峽區大學路65巷2號","121.376468333333","24.9412033333333","6500900","三峽區"
"236011","165-UM","2018/06/16 07:49:25","新北市土城區金城路三段13號","121.464861666667","24.9862016666667","6501300","土城區"
"236002","339-SR","2018/06/16 07:49:23","新北市土城區龍泉路89-1號","121.446333333333","24.942215","6501300","土城區"
