"lineid","car","time","location","longitude","latitude","cityid","cityname"
"248005","653-BX","2018/02/12 07:19:29","新北市五股區明德路12巷6號","121.433415","25.0718166666667","6501500","五股區"
"232001","290-BY","2018/02/12 07:19:17","新北市坪林區桶盤嶼8-2號","121.70719","24.957455","6502000","坪林區"
"232012","291-BY","2018/02/12 07:19:20","新北市坪林區仁里11號","121.689898333333","24.928465","6502000","坪林區"
"232010","375-UM","2018/02/12 07:19:31","新北市坪林區水聳淒坑7-1號","121.724865","24.9272283333333","6502000","坪林區"
"232017","705-BZ","2018/02/12 07:19:14","新北市坪林區九芎坑2號","121.723276666667","24.9663433333333","6502000","坪林區"
"232005","758-BX","2018/02/12 07:19:17","新北市坪林區魚堀38-1號","121.698808333333","24.93164","6502000","坪林區"
"244001","248-BX","2018/02/12 07:19:14","新北市林口區頂福里71-33號","121.356556666667","25.079275","6501700","林口區"
"222005","289-BY","2018/02/12 07:16:36","新北市深坑區萬福路52號","121.605398333333","25.0135533333333","6501800","深坑區"
"235001","611-BX","2018/02/12 07:19:28","新北市中和區圓通路367巷4號","121.491385","24.98926","6500300","中和區"
"235010","733-UM","2018/02/12 07:19:13","新北市中和區和平街29-1號","121.507483333333","24.99102","6500300","中和區"
"226001","312-R5","2018/02/12 07:19:29","新北市平溪區望古里灰3號","121.758763333333","25.030465","6502400","平溪區"
"226005","5620-A6","2018/02/12 07:16:20","新北市平溪區菁桐里二坑路1號","121.721198333333","25.0242833333333","6502400","平溪區"
"226003","AGD-0702","2018/02/12 07:19:33","新北市平溪區嶺腳里嶺腳寮53號","121.747846666667","25.031025","6502400","平溪區"
"223006","022-BY","2018/02/12 07:19:12","新北市石碇區靜安路一段60號","121.645213333333","25.0123233333333","6501900","石碇區"
"223001","205-TH","2018/02/12 07:19:28","新北市石碇區溪邊寮1號","121.658238333333","24.9797583333333","6501900","石碇區"
"223008","406-TH","2018/02/12 07:19:12","新北市石碇區番子坑24-2號","121.675705","25.0048516666667","6501900","石碇區"
"223001","592-UM","2018/02/12 07:19:23","新北市石碇區溪邊寮2-1號","121.658363333333","24.9779483333333","6501900","石碇區"
"223004","660-BX","2018/02/12 07:19:12","新北市石碇區靜安路一段47號","121.646693333333","25.01147","6501900","石碇區"
"223007","661-BX","2018/02/12 07:19:29","新北市石碇區番子坑24-7號","121.679631666667","25.0033016666667","6501900","石碇區"
"223005","677-TV","2018/02/12 07:19:26","新北市石碇區碇坪路一段62號","121.657176666667","24.99154","6501900","石碇區"
"227005","282-VK","2018/02/12 07:19:15","新北市雙溪區新基里自強路5號","121.866298333333","25.039095","6502500","雙溪區"
"252006","073-UM","2018/02/12 07:19:32","新北市三芝區錫板里海尾25號","121.48453","25.2556016666667","6502100","三芝區"
"252004","249-BX","2018/02/12 07:19:13","新北市三芝區店子里龜子山1-1號","121.504616666667","25.22099","6502100","三芝區"
"252004","702-TV","2018/02/12 07:19:25","新北市三芝區中正路三段3號","121.50309","25.2543366666667","6502100","三芝區"
"237001","159-UY","2018/02/12 07:19:29","新北市三峽區中山路459巷163-1號","121.34931","24.9334116666667","6500900","三峽區"
"236007","165-UM","2018/02/12 07:19:27","新北市土城區中央路一段1巷2號","121.449991666667","24.9921283333333","6501300","土城區"
"236001","339-SR","2018/02/12 07:19:22","新北市土城區和平路38-10號","121.447753333333","24.9697783333333","6501300","土城區"
"242024","615-BX","2018/02/12 07:19:24","新北市新莊區三和路12-21號","121.442176666667","25.0387233333333","6500500","新莊區"
"220064","282-UM","2018/02/12 07:19:26","新北市板橋區國光路51號","121.458145","25.0179783333333","6500100","板橋區"
