"lineid","car","time","location","longitude","latitude","cityid","cityname"
"248005","653-BX","2018/02/12 07:29:29","新北市五股區明德路12巷6號","121.433388333333","25.0718783333333","6501500","五股區"
"232001","290-BY","2018/02/12 07:29:17","新北市坪林區上坑子口9-1號","121.701066666667","24.9622683333333","6502000","坪林區"
"232012","291-BY","2018/02/12 07:29:20","新北市坪林區金瓜寮9-2號","121.68076","24.9175283333333","6502000","坪林區"
"232010","375-UM","2018/02/12 07:29:31","新北市坪林區水聳淒坑21號","121.712811666667","24.931925","6502000","坪林區"
"232017","705-BZ","2018/02/12 07:29:14","新北市坪林區樟空子5-1號","121.727375","24.9674566666667","6502000","坪林區"
"232005","758-BX","2018/02/12 07:29:17","新北市坪林區魚堀48-3號","121.701843333333","24.9334133333333","6502000","坪林區"
"244001","248-BX","2018/02/12 07:29:14","新北市林口區頂福里73號","121.342128333333","25.0936716666667","6501700","林口區"
"222005","289-BY","2018/02/12 07:16:36","新北市深坑區萬福路52號","121.605398333333","25.0135533333333","6501800","深坑區"
"235001","611-BX","2018/02/12 07:29:28","新北市中和區圓通路367巷4號","121.491388333333","24.9892533333333","6500300","中和區"
"235010","733-UM","2018/02/12 07:29:13","新北市中和區和平街29-1號","121.507491666667","24.9910383333333","6500300","中和區"
"226001","312-R5","2018/02/12 07:23:29","新北市平溪區望古里灰4-1號","121.762898333333","25.0299766666667","6502400","平溪區"
"226005","5620-A6","2018/02/12 07:29:20","新北市平溪區靜安路二段172號","121.722848333333","25.0217833333333","6502400","平溪區"
"226003","AGD-0702","2018/02/12 07:29:13","新北市平溪區嶺腳里嶺腳寮118號","121.747243333333","25.03054","6502400","平溪區"
"223006","022-BY","2018/02/12 07:29:33","新北市石碇區番子坑54號","121.67657","25.0107333333333","6501900","石碇區"
"223001","205-TH","2018/02/12 07:29:28","新北市石碇區烏塗窟18號","121.656333333333","24.9748733333333","6501900","石碇區"
"223008","406-TH","2018/02/12 07:29:32","新北市石碇區番子坑36號","121.677835","25.0102516666667","6501900","石碇區"
"223001","592-UM","2018/02/12 07:29:23","新北市石碇區烏塗窟20-1號","121.65671","24.9750516666667","6501900","石碇區"
"223004","660-BX","2018/02/12 07:29:12","新北市石碇區新興坑8-1號","121.65379","25.018795","6501900","石碇區"
"223007","661-BX","2018/02/12 07:29:29","新北市石碇區蚯蚓坑11-1號","121.692156666667","25.0049916666667","6501900","石碇區"
"223005","677-TV","2018/02/12 07:26:50","新北市石碇區碇坪路一段11號","121.652921666667","24.998205","6501900","石碇區"
"227005","282-VK","2018/02/12 07:29:28","新北市雙溪區牡丹里中正路43號","121.8648","25.03861","6502500","雙溪區"
"252006","073-UM","2018/02/12 07:29:32","新北市三芝區古庄里山豬堀14號","121.492525","25.260115","6502100","三芝區"
"252004","249-BX","2018/02/12 07:29:13","新北市三芝區興華里楓子林50-2號","121.5021","25.211355","6502100","三芝區"
"252004","702-TV","2018/02/12 07:29:25","新北市三芝區中山路二段50號","121.503331666667","25.2543766666667","6502100","三芝區"
"237001","159-UY","2018/02/12 07:29:29","新北市三峽區隆恩街245號","121.357678333333","24.9408533333333","6500900","三峽區"
"236007","165-UM","2018/02/12 07:29:27","新北市板橋區五權街34-1號","121.464506666667","24.9918383333333","6501300","土城區"
"236001","339-SR","2018/02/12 07:29:22","新北市土城區忠義路127-5號","121.44531","24.9621433333333","6501300","土城區"
"242024","615-BX","2018/02/12 07:29:24","新北市新莊區新泰路255巷83號","121.442215","25.0388166666667","6500500","新莊區"
"242047","441-UM","2018/02/12 07:29:25","新北市新莊區三和路12-21號","121.441918333333","25.0382716666667","6500500","新莊區"
"242003","413-TV","2018/02/12 07:29:12","新北市新莊區新泰路357巷3弄57號","121.442121666667","25.0396683333333","6500500","新莊區"
"242040","400-BY","2018/02/12 07:29:25","新北市新莊區新泰路357巷3弄57號","121.44231","25.03953","6500500","新莊區"
"242059","362-BY","2018/02/12 07:29:31","新北市新莊區新泰路255巷83號","121.442541666667","25.0389916666667","6500500","新莊區"
"242057","353-BY","2018/02/12 07:29:23","新北市新莊區新泰路255巷83號","121.442475","25.0389066666667","6500500","新莊區"
"242014","175-VK","2018/02/12 07:29:31","新北市新莊區三和路12-21號","121.44202","25.0385933333333","6500500","新莊區"
"242010","351-TH","2018/02/12 07:29:26","新北市新莊區新泰路357巷3弄57號","121.441811666667","25.0394866666667","6500500","新莊區"
"220064","282-UM","2018/02/12 07:29:26","新北市板橋區國光路51號","121.458091666667","25.018015","6500100","板橋區"
