"lineid","car","time","location","longitude","latitude","cityid","cityname"
"248005","653-BX","2018/10/20 08:09:27","新北市五股區明德路10號","121.433438333333","25.0717","6501500","五股區"
"232016","291-BY","2018/10/20 08:09:29","新北市新店區安業街8巷2號","121.515186666667","24.9777366666667","6502000","坪林區"
"244005","248-BX","2018/10/20 08:09:37","新北市林口區下福里139號","121.29948","25.1168683333333","6501700","林口區"
"231007","189-VK","2018/10/20 08:09:38","新北市新店區直潭路92-3號","121.529613333333","24.9397783333333","6500600","新店區"
"231008","192-VK","2018/10/20 08:09:27","新北市新店區光明街96巷3號","121.539395","24.959955","6500600","新店區"
"235001","611-BX","2018/10/20 08:09:36","新北市中和區圓通路367巷33弄72號","121.495503333333","24.984215","6500300","中和區"
"226005","5620-A6","2018/10/20 08:09:39","新北市平溪區靜安路二段557號","121.749035","25.0240616666667","6502400","平溪區"
"226007","7418-A5","2018/10/20 08:09:33","新北市平溪區望古里石灼坑2-3號","121.768881666667","25.035625","6502400","平溪區"
"226003","AGD-0702","2018/10/20 08:09:28","新北市平溪區十分里十分街57號","121.775428333333","25.041635","6502400","平溪區"
"223006","022-BY","2018/10/20 08:07:48","新北市石碇區北宜路五段1號","121.624543333333","24.9536266666667","6501900","石碇區"
"223008","406-TH","2018/10/20 08:09:38","新北市石碇區靜安路一段266號","121.68408","25.009055","6501900","石碇區"
"223004","437-BY","2018/10/20 08:09:27","新北市石碇區外按11-5號","121.651335","24.9994066666667","6501900","石碇區"
"223001","592-UM","2018/10/20 08:09:35","新北市石碇區北宜路六段十三股巷1號","121.649071666667","24.946905","6501900","石碇區"
"223007","661-BX","2018/10/20 08:09:35","新北市石碇區蚯蚓坑61-1號","121.683663333333","25.009545","6501900","石碇區"
"223005","677-TV","2018/10/20 08:09:28","新北市石碇區外按11-5號","121.651455","24.9992116666667","6501900","石碇區"
"227006","282-VK","2018/10/20 08:09:26","新北市雙溪區牡丹里聖南29號","121.855713333333","25.050055","6502500","雙溪區"
"252005","073-UM","2018/10/20 08:09:31","新北市三芝區中正路三段3號","121.502988333333","25.2543","6502100","三芝區"
"252004","249-BX","2018/10/20 08:09:27","新北市三芝區興華里車埕31-3號","121.503428333333","25.1946433333333","6502100","三芝區"
"252007","AAC-283","2018/10/20 08:09:33","新北市三芝區後厝里大片頭90號","121.45616","25.2468566666667","6502100","三芝區"
"237001","159-UY","2018/10/20 08:09:27","新北市樹林區學成路470號","121.378301666667","24.94487","6500900","三峽區"
"242001","233-RS","2018/10/20 08:09:19","新北市新莊區公園路9號","121.447408333333","25.0387366666667","6500500","新莊區"
