"lineid","car","time","location","longitude","latitude","cityid","cityname"
"248005","653-BX","2018/10/20 08:49:27","新北市五股區水碓路5巷1號","121.433506666667","25.07209","6501500","五股區"
"232016","291-BY","2018/10/20 08:49:29","新北市土城區永豐路242巷3弄2號","121.467806666667","24.97925","6502000","坪林區"
"244005","248-BX","2018/10/20 08:49:37","新北市林口區汕頭32號","121.36637","25.1346583333333","6501700","林口區"
"222004","289-BY","2018/10/20 08:49:24","新北市深坑區王軍寮1號","121.620268333333","24.986105","6501800","深坑區"
"231007","189-VK","2018/10/20 08:45:58","新北市新店區新潭路三段236號","121.501718333333","24.90256","6500600","新店區"
"231008","192-VK","2018/10/20 08:49:27","新北市新店區廣興路5巷17號","121.545743333333","24.9128433333333","6500600","新店區"
"235001","611-BX","2018/10/20 08:49:36","新北市中和區國光街112巷23弄22號","121.469165","25.0023283333333","6500300","中和區"
"226005","5620-A6","2018/10/20 08:49:39","新北市平溪區十分里十分街96-1號","121.776696666667","25.0425366666667","6502400","平溪區"
"226007","7418-A5","2018/10/20 08:49:33","新北市平溪區東勢里芊蓁坑30號","121.727495","24.97921","6502400","平溪區"
"226003","AGD-0702","2018/10/20 08:49:35","新北市平溪區十分里十分街238號","121.77825","25.0442116666667","6502400","平溪區"
"223006","022-BY","2018/10/20 08:49:24","新北市石碇區八分寮31-3號","121.643388333333","25.0121516666667","6501900","石碇區"
"223008","406-TH","2018/10/20 08:49:33","新北市石碇區光明路13號","121.679685","25.033675","6501900","石碇區"
"223004","437-BY","2018/10/20 08:49:27","新北市石碇區碇坪路二段51號","121.68436","24.97182","6501900","石碇區"
"223001","592-UM","2018/10/20 08:49:35","新北市石碇區北宜路六段十三股巷1號","121.649883333333","24.9463533333333","6501900","石碇區"
"223007","661-BX","2018/10/20 08:49:35","新北市石碇區碇南路二段5-1號","121.670233333333","25.0240183333333","6501900","石碇區"
"223005","677-TV","2018/10/20 08:49:29","新北市石碇區碇坪路二段55號","121.684245","24.9709366666667","6501900","石碇區"
"227006","282-VK","2018/10/20 08:49:26","新北市雙溪區上林里大瀨1號","121.830036666667","25.0253233333333","6502500","雙溪區"
"252004","249-BX","2018/10/20 08:49:27","新北市三芝區興華里田心子15-14號","121.492843333333","25.2043233333333","6502100","三芝區"
"252007","AAC-283","2018/10/20 08:49:33","新北市三芝區後厝里番子崙28號","121.478895","25.2463616666667","6502100","三芝區"
"237001","159-UY","2018/10/20 08:49:27","新北市三峽區大觀路80號","121.374198333333","24.9460516666667","6500900","三峽區"
"242001","233-RS","2018/10/20 08:49:39","新北市樹林區八德街495-3號","121.401545","24.9692983333333","6500500","新莊區"
