"lineid","car","time","location","longitude","latitude","cityid","cityname"
"248005","653-BX","2018/10/20 10:29:27","新北市五股區中興路二段37巷24號","121.460691666667","25.0750633333333","6501500","五股區"
"231007","189-VK","2018/10/20 10:29:38","新北市新店區新烏路三段215巷19號","121.506341666667","24.9035616666667","6500600","新店區"
"231008","192-VK","2018/10/20 10:28:47","新北市新店區成功路50巷1號","121.544841666667","24.9039583333333","6500600","新店區"
"227006","282-VK","2018/10/20 10:29:25","新北市雙溪區上林里內平林139號","121.819328333333","25.0240166666667","6502500","雙溪區"
"252007","AAC-283","2018/10/20 10:29:33","新北市三芝區新庄里番社后1-1號","121.501425","25.26435","6502100","三芝區"
