"lineid","car","time","location","longitude","latitude","cityid","cityname"
"234044","148-BY","2018/10/20 12:29:34","新北市永和區福和路1號","121.526478333333","25.0100583333333","6500400","永和區"
"234084","338-UY","2018/10/20 12:29:42","新北市永和區福和路8巷1號","121.525015","25.0090433333333","6500400","永和區"
"234068","552-UM","2018/10/20 12:29:42","新北市永和區福和路1號","121.525691666667","25.0093766666667","6500400","永和區"
"234015","745-BX","2018/10/20 12:29:35","新北市永和區福和路1號","121.526423333333","25.009605","6500400","永和區"
"234012","KEA-2591","2018/10/20 12:29:29","新北市永和區福和路1號","121.526205","25.0095483333333","6500400","永和區"
"234040","862-TW","2018/10/20 12:29:40","新北市永和區福和路1號","121.525393333333","25.0094766666667","6500400","永和區"
"234076","969-R7","2018/10/20 12:29:36","新北市永和區福和路1號","121.525423333333","25.0096083333333","6500400","永和區"
"235029","098-UM","2018/10/20 12:29:32","新北市中和區員山路36巷16-3號","121.4851","24.991375","6500300","中和區"
"228005","097-TW","2018/10/20 12:29:30","新北市貢寮區福連里蓬萊街16號","121.984195","24.9947216666667","6502600","貢寮區"
"228004","212-TW","2018/10/20 12:29:40","新北市貢寮區龍崗里嵩陽街33號","121.903893333333","25.01727","6502600","貢寮區"
"235025","KEA-2875","2018/10/20 12:24:42","新北市中和區和城路一段271巷1號","121.485391666667","24.9917116666667","6500300","中和區"
