"lineid","car","time","location","longitude","latitude","cityid","cityname"
"234044","148-BY","2018/10/20 12:49:34","新北市永和區秀朗路二段149號","121.524783333333","25.0016","6500400","永和區"
"234005","207-UY","2018/10/20 12:49:28","新北市永和區文化路7號","121.515368333333","25.01503","6500400","永和區"
"234078","298-R6","2018/10/20 12:49:26","新北市永和區永利路116號","121.521391666667","25.00319","6500400","永和區"
"234036","336-UY","2018/10/20 12:49:36","新北市永和區成功路二段126號","121.526613333333","24.9975433333333","6500400","永和區"
"234084","338-UY","2018/10/20 12:49:42","新北市永和區中正路91號","121.515281666667","24.9972016666667","6500400","永和區"
"234068","552-UM","2018/10/20 12:49:42","新北市永和區豫溪街183號","121.52242","25.0104566666667","6500400","永和區"
"234015","745-BX","2018/10/20 12:49:35","新北市永和區永和路二段299號","121.516006666667","25.0161366666667","6500400","永和區"
"234028","746-BX","2018/10/20 12:49:42","新北市永和區得和路321號","121.523381666667","24.99958","6500400","永和區"
"234052","KEA-2590","2018/10/20 12:49:24","新北市永和區竹林路155號","121.520538333333","25.0103283333333","6500400","永和區"
"234012","KEA-2591","2018/10/20 12:49:10","新北市永和區保福路二段133巷33號","121.509088333333","25.0134083333333","6500400","永和區"
"234060","AAD-866","2018/10/20 12:49:38","新北市永和區福和路307號","121.516265","25.0072433333333","6500400","永和區"
"234040","862-TW","2018/10/20 12:49:40","新北市永和區永貞路308號","121.511846666667","25.0048916666667","6500400","永和區"
"234025","9371-KE","2018/10/20 12:49:33","新北市永和區中正路748號","121.514805","25.0103083333333","6500400","永和區"
"234010","9373-KE","2018/10/20 12:49:29","新北市永和區保福路二段158巷1號","121.50914","25.0150883333333","6500400","永和區"
"234022","9380-KE","2018/10/20 12:49:45","新北市永和區竹林路119巷53弄3號","121.522228333333","25.011985","6500400","永和區"
"234076","969-R7","2018/10/20 12:49:36","新北市永和區中正路4號","121.512323333333","24.99363","6500400","永和區"
"234072","AAC-211","2018/10/20 12:49:28","新北市永和區福和路1號","121.526591666667","25.0098266666667","6500400","永和區"
"234066","AAC-212","2018/10/20 12:49:33","新北市永和區中和路625號","121.51286","25.0048166666667","6500400","永和區"
"234001","AAC-295","2018/10/20 12:49:26","新北市永和區中正路672號","121.516873333333","25.0091916666667","6500400","永和區"
"231002","002-UM","2018/10/20 12:49:40","新北市新店區安華路28-1號","121.51988","24.9608566666667","6500600","新店區"
"231028","046-UY","2018/10/20 12:49:31","新北市新店區安華路28-1號","121.519711666667","24.960825","6500600","新店區"
"231001","047-UY","2018/10/20 12:49:28","新北市新店區安華路28-1號","121.519141666667","24.960965","6500600","新店區"
"231010","107-UY","2018/10/20 12:49:42","新北市新店區安一路一段1-1號","121.519583333333","24.96122","6500600","新店區"
"231003","268-BY","2018/10/20 12:49:24","新北市新店區安華路1-1號","121.519376666667","24.9605166666667","6500600","新店區"
"231017","AAD-862","2018/10/20 12:49:32","新北市新店區安一路一段1-1號","121.519666666667","24.9612566666667","6500600","新店區"
"231036","512-UM","2018/10/20 12:49:27","新北市新店區安一路一段1-1號","121.519248333333","24.9610683333333","6500600","新店區"
"231013","513-UM","2018/10/20 12:49:36","新北市新店區安一路一段1-1號","121.519763333333","24.961155","6500600","新店區"
"231030","619-UM","2018/10/20 12:49:35","新北市新店區安華路3號","121.519318333333","24.9597483333333","6500600","新店區"
"231035","719-UM","2018/10/20 12:49:40","新北市新店區安一路一段1-1號","121.51959","24.9613266666667","6500600","新店區"
"235029","098-UM","2018/10/20 12:49:32","新北市中和區中正路589巷15號","121.48589","24.9937533333333","6500300","中和區"
"235002","185-VK","2018/10/20 12:49:27","新北市中和區中正路589巷15號","121.485913333333","24.99364","6500300","中和區"
"235031","255-BX","2018/10/20 12:49:40","新北市中和區中山路二段568巷66號","121.482125","25.0075483333333","6500300","中和區"
"235035","783-BX","2018/10/20 12:49:45","新北市中和區員山路36巷16-2號","121.485183333333","24.9916166666667","6500300","中和區"
"228005","097-TW","2018/10/20 12:49:30","新北市貢寮區福連里福連街34-1號","121.988633333333","25.011085","6502600","貢寮區"
"228004","212-TW","2018/10/20 12:49:40","新北市萬里區雙興里豐稟路20-2號","121.889773333333","24.9944433333333","6502600","貢寮區"
"207002","749-BX","2018/10/20 12:49:40","新北市萬里區雙興里二坪路28-1號","121.644636666667","25.16872","6502800","萬里區"
"207001","662-BX","2018/10/20 12:49:45","新北市萬里區萬里里瑪鋉路207號","121.690398333333","25.1794083333333","6502800","萬里區"
"221008","489-VK","2018/10/20 12:49:31","新北市汐止區康寧街753巷2弄6號","121.639141666667","25.0738233333333","6501100","汐止區"
"221010","269-BY","2018/10/20 12:49:40","新北市汐止區康寧街426號","121.6306","25.0680466666667","6501100","汐止區"
"221038","646-BX","2018/10/20 12:49:42","新北市汐止區秀峰路60號","121.659391666667","25.0656566666667","6501100","汐止區"
"235025","KEA-2875","2018/10/20 12:24:42","新北市中和區和城路一段271巷1號","121.485391666667","24.9917116666667","6500300","中和區"
