"lineid","car","time","location","longitude","latitude","cityid","cityname"
"234025","9371-KE","2018/10/20 14:49:33","新北市永和區雙和街25巷2號","121.508985","25.0019966666667","6500400","永和區"
"248017","225-UY","2018/10/20 14:48:57","新北市五股區外寮路13-1號","121.424751666667","25.0811433333333","6501500","五股區"
"244005","248-BX","2018/10/20 14:49:33","新北市林口區粉寮路60-16號","121.404393333333","25.0897683333333","6501700","林口區"
"231002","002-UM","2018/10/20 14:49:40","新北市新店區民權路56號","121.538733333333","24.9829566666667","6500600","新店區"
"231027","0293-UT","2018/10/20 14:49:35","新北市新店區中正路336號","121.536716666667","24.9750566666667","6500600","新店區"
"231028","046-UY","2018/10/20 14:49:36","新北市新店區安德街116巷10號","121.509051666667","24.9609233333333","6500600","新店區"
"231001","047-UY","2018/10/20 14:49:28","新北市新店區三民路40號","121.536218333333","24.9715116666667","6500600","新店區"
"231020","108-UY","2018/10/20 14:49:40","新北市新店區屈尺路2號","121.549341666667","24.9225333333333","6500600","新店區"
"231012","187-VK","2018/10/20 14:49:44","新北市新店區寶橋路59-1號","121.54507","24.97511","6500600","新店區"
"231023","KEA-2219","2018/10/20 14:49:41","新北市新店區檳榔路109號","121.544493333333","24.96169","6500600","新店區"
"231026","256-BX","2018/10/20 14:49:46","新北市新店區安康路一段235號","121.525223333333","24.96326","6500600","新店區"
"231003","268-BY","2018/10/20 14:49:44","新北市新店區中興路二段121巷1號","121.547495","24.97204","6500600","新店區"
"231018","278-BY","2018/10/20 14:49:40","新北市新店區中央五街1號","121.530128333333","24.9741266666667","6500600","新店區"
"231017","AAD-862","2018/10/20 14:49:32","新北市新店區銀河路21號","121.572895","24.9571516666667","6500600","新店區"
"231038","3712-VJ","2018/10/20 14:49:37","新北市新店區安華路28-1號","121.51967","24.9609733333333","6500600","新店區"
"231037","4716-K9","2018/10/20 14:49:41","新北市新店區柴埕路59號","121.513596666667","24.96495","6500600","新店區"
"231025","4715-K9","2018/10/20 14:49:31","新北市新店區建國路190號","121.537975","24.9803733333333","6500600","新店區"
"231036","512-UM","2018/10/20 14:49:27","新北市新店區安祥路106巷22號","121.47795","24.96228","6500600","新店區"
"231013","513-UM","2018/10/20 14:49:35","新北市新店區北新路二段53號","121.542576666667","24.9730883333333","6500600","新店區"
"231034","616-UM","2018/10/20 14:49:37","新北市新店區玫瑰路4-1號","121.493583333333","24.951435","6500600","新店區"
"231005","618-UM","2018/10/20 14:49:41","新北市新店區復興路2號","121.532485","24.988245","6500600","新店區"
"231030","619-UM","2018/10/20 14:49:35","新北市新店區安民街381號","121.516298333333","24.9764666666667","6500600","新店區"
"231035","719-UM","2018/10/20 14:48:20","新北市新店區安和路二段142號","121.519653333333","24.9727","6500600","新店區"
"231039","719-UY","2018/10/20 14:49:37","新北市新店區安一路一段1-1號","121.519525","24.961055","6500600","新店區"
"231033","720-UM","2018/10/20 14:49:31","新北市新店區安康路三段180號","121.48937","24.9518116666667","6500600","新店區"
"231029","897-TW","2018/10/20 14:49:43","新北市新店區錦秀路11巷96弄21號","121.478853333333","24.9418183333333","6500600","新店區"
"231006","898-TW","2018/10/20 14:49:32","新北市新店區北宜路一段115巷1號","121.540183333333","24.954135","6500600","新店區"
"231004","899-TW","2018/10/20 14:49:33","新北市新店區建國路133號","121.53936","24.9782233333333","6500600","新店區"
"231024","AKT-0513","2018/10/20 14:49:45","新北市新店區新生街5巷14號","121.539723333333","24.9656666666667","6500600","新店區"
"235030","003-UY","2018/10/20 14:49:29","新北市中和區南工路72號","121.50652","25.00214","6500300","中和區"
"235020","096-UM","2018/10/20 14:49:43","新北市中和區中山路三段114巷26弄1號","121.475848333333","25.0070683333333","6500300","中和區"
"235003","097-UM","2018/10/20 14:49:29","新北市永和區安樂路50巷1弄1號","121.514825","24.9973566666667","6500300","中和區"
"235029","098-UM","2018/10/20 14:49:32","新北市中和區永和路90巷5號","121.497453333333","25.0060033333333","6500300","中和區"
"235004","150-BY","2018/10/20 14:49:47","新北市中和區安平路59號","121.509623333333","24.9949533333333","6500300","中和區"
"235022","151-BY","2018/10/20 14:49:27","新北市中和區員山路142巷3號","121.481566666667","24.9965733333333","6500300","中和區"
"235002","185-VK","2018/10/20 14:49:47","新北市永和區民族街81巷62號","121.520356666667","24.9963833333333","6500300","中和區"
"235013","186-VK","2018/10/20 14:49:31","新北市中和區中正路70巷2號","121.500985","24.9938083333333","6500300","中和區"
"235031","255-BX","2018/10/20 14:49:40","新北市中和區新生街233巷16號","121.484375","24.999055","6500300","中和區"
"235008","293-VK","2018/10/20 14:49:45","新北市中和區南山路233號","121.503596666667","24.993185","6500300","中和區"
"235036","301-VK","2018/10/20 14:49:32","新北市中和區中山路二段3巷22弄13號","121.506273333333","25.0046733333333","6500300","中和區"
"235007","352-BY","2018/10/20 14:49:36","新北市中和區安和路21號","121.51109","24.9940916666667","6500300","中和區"
"235006","KEA-2878","2018/10/20 14:49:38","新北市中和區保健路7巷10號","121.508393333333","24.9988483333333","6500300","中和區"
"247011","KEA-2869","2018/10/20 14:49:24","新北市蘆洲區三民路52號","121.475375","25.0834416666667","6501400","蘆洲區"
"235014","4979-A6","2018/10/20 14:49:43","新北市中和區景平路241巷84弄54號","121.50616","24.9924116666667","6500300","中和區"
"235034","558-UM","2018/10/20 14:49:44","新北市中和區連勝街42號","121.498035","24.9975566666667","6500300","中和區"
"235009","565-BX","2018/10/20 14:49:41","新北市中和區景新街318號","121.511448333333","24.99158","6500300","中和區"
"235018","640-BX","2018/10/20 14:49:28","新北市土城區延壽路115巷11號","121.468341666667","24.9941866666667","6500300","中和區"
"235024","647-TV","2018/10/20 14:49:49","新北市中和區新生街52號","121.483333333333","25.0030633333333","6500300","中和區"
"235011","732-UM","2018/10/20 14:49:32","新北市中和區和平街138號","121.506466666667","24.991795","6500300","中和區"
"235026","800-TS","2018/10/20 14:49:44","新北市中和區中山路二段329號","121.493186666667","25.0020616666667","6500300","中和區"
"235016","805-TS","2018/10/20 14:49:28","新北市中和區華新街30巷13號","121.507258333333","24.984255","6500300","中和區"
"235012","896-TW","2018/10/20 14:49:38","新北市中和區忠孝街99號","121.512095","24.9858516666667","6500300","中和區"
"235017","900-TW","2018/10/20 14:49:43","新北市中和區國光街215巷10弄1-1號","121.46665","25.0008316666667","6500300","中和區"
"235015","157-BY","2018/10/20 14:49:29","新北市中和區復興路48號","121.50442","24.9902733333333","6500300","中和區"
"235001","AAC-213","2018/10/20 14:49:37","新北市中和區秀朗路三段161號","121.524686666667","24.9920183333333","6500300","中和區"
"235023","AAC-215","2018/10/20 14:49:43","新北市中和區圓通路305巷5弄2號","121.493563333333","24.99026","6500300","中和區"
"220016","013-TV","2018/10/20 14:49:42","新北市板橋區中山路二段412巷29弄26號","121.48467","25.0201333333333","6500100","板橋區"
"220013","072-UY","2018/10/20 14:49:34","新北市中和區中山路三段229巷55號","121.469091666667","25.0053583333333","6500100","板橋區"
"220034","073-UY","2018/10/20 14:49:42","新北市板橋區館前西路160巷20號","121.452425","25.009055","6500100","板橋區"
"220105","075-UY","2018/10/20 14:49:45","新北市板橋區民治街71巷33號","121.48058","25.0333433333333","6500100","板橋區"
"220017","AAD-861","2018/10/20 14:49:36","新北市板橋區貴興路119巷4號","121.455705","25.002205","6500100","板橋區"
"247001","893-R6","2018/10/20 14:49:46","新北市蘆洲區永康街6號","121.459331666667","25.0859166666667","6501400","蘆洲區"
"247015","546-UM","2018/10/20 14:49:34","新北市蘆洲區長榮路38-8號","121.463045","25.0828933333333","6501400","蘆洲區"
"247013","339-TH","2018/10/20 14:49:27","新北市蘆洲區成功路129號","121.472413333333","25.0822016666667","6501400","蘆洲區"
"228005","097-TW","2018/10/20 14:49:29","新北市貢寮區美豐里丹裡街69號","121.906035","25.0564566666667","6502600","貢寮區"
"228004","212-TW","2018/10/20 14:49:39","新北市貢寮區福隆里裕隆街5號","121.946135","25.01591","6502600","貢寮區"
"253003","6232-TK","2018/10/20 14:49:38","新北市石門區尖子鹿91-1號","121.577716666667","25.286005","6502200","石門區"
"253004","6251-TK","2018/10/20 14:49:34","新北市石門區茂林社區251號","121.593458333333","25.2698416666667","6502200","石門區"
"253002","637-UY","2018/10/20 14:49:37","新北市石門區崁子腳28-2號","121.540106666667","25.288955","6502200","石門區"
"253001","KEC-0718","2018/10/20 14:49:36","新北市石門區崁子腳37-5號","121.536556666667","25.2686516666667","6502200","石門區"
"207002","749-BX","2018/10/20 14:49:40","新北市萬里區崁腳里崁腳路73號","121.647611666667","25.1596133333333","6502800","萬里區"
"252005","073-UM","2018/10/20 14:49:47","新北市三芝區埔坪里埔頭坑107-1號","121.514251666667","25.24712","6502100","三芝區"
"207001","662-BX","2018/10/20 14:49:45","新北市萬里區雙興里二坪路1-3號","121.650276666667","25.1777783333333","6502800","萬里區"
"236068","105-UM","2018/10/20 14:49:41","新北市土城區明德路二段99巷2弄2號","121.450335","24.981075","6501300","土城區"
"236040","KED-0685","2018/10/20 14:49:36","新北市土城區裕民路136巷8弄2號","121.45066","24.98514","6501300","土城區"
"236074","166-UM","2018/10/20 14:49:40","新北市土城區中央路四段185巷32弄1號","121.415858333333","24.9558033333333","6501300","土城區"
"236029","253-BX","2018/10/20 14:49:45","新北市土城區忠義路26巷19號","121.439731666667","24.969835","6501300","土城區"
"236024","269-VK","2018/10/20 14:49:47","新北市土城區慶安街58號","121.440913333333","24.9731216666667","6501300","土城區"
"236013","270-VK","2018/10/20 14:49:36","新北市土城區金城路二段360-2號","121.461805","24.98512","6501300","土城區"
"236032","271-VK","2018/10/20 14:49:39","新北市土城區仁愛路54巷10號","121.462028333333","24.9784216666667","6501300","土城區"
"236017","401-BY","2018/10/20 14:49:44","新北市土城區金城路三段116巷13號","121.46687","24.9868016666667","6501300","土城區"
"236057","912-UM","2018/10/20 14:49:43","新北市土城區金城路一段84號","121.444695","24.9733883333333","6501300","土城區"
"236045","913-UM","2018/10/20 14:49:43","新北市土城區青雲路147號","121.45881","24.9839883333333","6501300","土城區"
"236060","915-UM","2018/10/20 14:49:28","新北市土城區延壽路2號","121.47154","24.9902583333333","6501300","土城區"
"236054","AAC-216","2018/10/20 14:49:36","新北市土城區裕民路106號","121.450741666667","24.9868033333333","6501300","土城區"
"242001","233-RS","2018/10/20 14:49:26","新北市五股區中興路三段3-6號","121.449698333333","25.07865","6500500","新莊區"
"221008","489-VK","2018/10/20 14:47:50","新北市深坑區北深路三段286巷19號","121.596173333333","25.0063516666667","6501100","汐止區"
"221010","269-BY","2018/10/20 14:49:40","新北市汐止區汐萬路一段39號","121.654988333333","25.0690766666667","6501100","汐止區"
"220027","145-BY","2018/10/20 14:49:45","新北市板橋區大仁街42號","121.455056666667","25.0167233333333","6500100","板橋區"
"220030","610-BX","2018/10/20 14:49:44","新北市板橋區金門街215號","121.432505","24.9899933333333","6500100","板橋區"
"220050","245-BX","2018/10/20 14:49:45","新北市板橋區縣民大道三段79巷13號","121.475171666667","25.02202","6500100","板橋區"
"220052","257-TC","2018/10/20 14:35:57","新北市板橋區陽明街31號","121.465283333333","25.021975","6500100","板橋區"
"220020","277-BY","2018/10/20 14:49:42","新北市板橋區金門街215巷31號","121.4331","24.9898133333333","6500100","板橋區"
"220043","283-UM","2018/10/20 14:49:36","新北市板橋區長江路一段104號","121.4596","25.02961","6500100","板橋區"
"220019","283-VK","2018/10/20 14:49:41","新北市板橋區五權街30巷24弄31號","121.463588333333","24.993815","6500100","板橋區"
"220001","285-VK","2018/10/20 14:49:37","新北市板橋區中山路二段60巷1弄10號","121.474668333333","25.0154766666667","6500100","板橋區"
"220031","286-VK","2018/10/20 14:49:42","新北市板橋區僑中二街10巷2號","121.446896666667","25.0110583333333","6500100","板橋區"
"220029","287-VK","2018/10/20 14:49:29","新北市板橋區僑中一街80巷10弄1號","121.447961666667","25.012915","6500100","板橋區"
"220039","288-VK","2018/10/20 14:49:43","新北市板橋區新海路109巷1弄1號","121.46101","25.02257","6500100","板橋區"
"220009","293-UM","2018/10/20 14:49:29","新北市板橋區板新路151號","121.469875","25.0155966666667","6500100","板橋區"
"220010","295-UM","2018/10/20 14:49:43","新北市板橋區三民路二段29巷31弄13號","121.481855","25.017745","6500100","板橋區"
"220032","296-UM","2018/10/20 14:49:42","新北市板橋區溪崑二街112巷30號","121.425761666667","24.9892383333333","6500100","板橋區"
"220023","303-R5","2018/10/20 14:49:42","新北市板橋區金華街10巷5號","121.456033333333","25.0201333333333","6500100","板橋區"
"220041","307-R5","2018/10/20 14:49:44","新北市板橋區四維路259巷23號","121.462183333333","25.0274866666667","6500100","板橋區"
"220047","317-R6","2018/10/20 14:49:28","新北市板橋區新海路150號","121.460423333333","25.0237133333333","6500100","板橋區"
"220012","486-VK","2018/10/20 14:49:36","新北市板橋區館前東路98-2號","121.462578333333","25.0075166666667","6500100","板橋區"
"220038","487-VK","2018/10/20 14:49:29","新北市板橋區綠堤街39-4號","121.455371666667","25.0264133333333","6500100","板橋區"
"220037","491-VK","2018/10/20 14:49:42","新北市板橋區仁化街164號","121.478056666667","25.0336483333333","6500100","板橋區"
"220104","560-BX","2018/10/20 14:49:32","新北市板橋區新生街53巷3弄2號","121.45756","25.0215666666667","6500100","板橋區"
"220011","609-BX","2018/10/20 14:49:40","新北市板橋區中山路二段505巷14號","121.482248333333","25.021865","6500100","板橋區"
"220040","637-BX","2018/10/20 14:49:45","新北市板橋區懷德街127巷23弄31號","121.48032","25.0322","6500100","板橋區"
"220005","686-BX","2018/10/20 14:49:39","新北市板橋區信義路243號","121.460151666667","24.9909933333333","6500100","板橋區"
"220025","687-BX","2018/10/20 14:49:42","新北市板橋區僑中一街112號","121.44627","25.0116716666667","6500100","板橋區"
"220042","689-BX","2018/10/20 14:49:39","新北市板橋區民生路三段319號","121.462746666667","25.0309616666667","6500100","板橋區"
"220002","741-BX","2018/10/20 14:49:43","新北市板橋區忠孝路201巷93號","121.464625","25.0048483333333","6500100","板橋區"
"220051","KEA-2699","2018/10/20 14:49:40","新北市板橋區仁化街45號","121.474918333333","25.03167","6500100","板橋區"
"220018","806-UM","2018/10/20 14:49:45","新北市板橋區成都街68號","121.463343333333","25.0052383333333","6500100","板橋區"
"220003","827-TW","2018/10/20 14:49:39","新北市板橋區仁愛路75號","121.460971666667","24.9996633333333","6500100","板橋區"
"220014","829-TW","2018/10/20 14:49:30","新北市板橋區長安街138巷1弄286號","121.474853333333","25.0110216666667","6500100","板橋區"
"220045","831-TW","2018/10/20 14:49:30","新北市板橋區莒光路59號","121.47118","25.02427","6500100","板橋區"
"220022","895-R6","2018/10/20 14:49:42","新北市板橋區文化路一段46巷46號","121.460761666667","25.0110316666667","6500100","板橋區"
"220021","985-R7","2018/10/20 14:49:42","新北市板橋區南雅西路二段16號","121.453021666667","25.009355","6500100","板橋區"
"220046","AAC-210","2018/10/20 14:49:46","新北市板橋區復興街130號","121.461031666667","25.0178233333333","6500100","板橋區"
"235032","KEA-2873","2018/10/20 14:49:27","新北市中和區福祥路85巷1號","121.498811666667","25.00575","6500300","中和區"
"235025","KEA-2875","2018/10/20 14:49:36","新北市中和區員山路271-1號","121.481303333333","24.999405","6500300","中和區"
"235010","KEA-2876","2018/10/20 14:49:42","新北市中和區仁愛街58號","121.51122","24.987905","6500300","中和區"
