"lineid","car","time","location","longitude","latitude","cityid","cityname"
"244005","248-BX","2018/10/20 15:49:36","新北市林口區中山路1號","121.396723333333","25.0781433333333","6501700","林口區"
"231046","107-UY","2018/10/20 15:49:35","新北市新店區安一路一段1-1號","121.519791666667","24.9611566666667","6500600","新店區"
"231020","108-UY","2018/10/20 15:49:40","新北市新店區新烏路一段87巷3號","121.546195","24.941985","6500600","新店區"
"231012","187-VK","2018/10/20 15:49:44","新北市新店區中興路三段161號","121.544151666667","24.980325","6500600","新店區"
"231023","KEA-2219","2018/10/20 15:49:41","新北市新店區檳榔路2號","121.540901666667","24.964885","6500600","新店區"
"231026","256-BX","2018/10/20 15:49:46","新北市新店區中正路491號","121.533585","24.982475","6500600","新店區"
"231003","268-BY","2018/10/20 15:49:44","新北市新店區寶興路60巷2號","121.5499","24.9719566666667","6500600","新店區"
"231018","278-BY","2018/10/20 15:49:40","新北市新店區中正路663巷7弄15號","121.53289","24.9900533333333","6500600","新店區"
"231017","AAD-862","2018/10/20 15:49:32","新北市新店區中華路83巷4弄20號","121.538283333333","24.9689433333333","6500600","新店區"
"231038","3712-VJ","2018/10/20 15:49:37","新北市新店區安康路二段228巷35弄5號","121.509441666667","24.9600866666667","6500600","新店區"
"231037","4716-K9","2018/10/20 15:49:41","新北市新店區安興路112號","121.514675","24.9776766666667","6500600","新店區"
"231013","513-UM","2018/10/20 15:49:35","新北市新店區華潭街20號","121.529248333333","24.952605","6500600","新店區"
"231034","616-UM","2018/10/20 15:49:36","新北市新店區吉祥街13巷2號","121.497793333333","24.9459133333333","6500600","新店區"
"231030","619-UM","2018/10/20 15:49:35","新北市新店區永安街45號","121.517868333333","24.9867416666667","6500600","新店區"
"231035","719-UM","2018/10/20 15:49:00","新北市新店區安民街365巷10弄3號","121.515506666667","24.9755883333333","6500600","新店區"
"231033","720-UM","2018/10/20 15:49:31","新北市新店區雙城路60巷16弄13號","121.491765","24.9479416666667","6500600","新店區"
"231029","897-TW","2018/10/20 15:49:43","新北市新店區安康路二段250號","121.509145","24.9590633333333","6500600","新店區"
"241011","013-R5","2018/10/20 15:49:28","新北市三重區文化北路224-1號","121.497651666667","25.0692066666667","6500200","三重區"
"241028","022-UY","2018/10/20 15:49:37","新北市三重區中正南路58號","121.494033333333","25.0596266666667","6500200","三重區"
"241008","059-VK","2018/10/20 15:49:48","新北市三重區重新路四段121號","121.485111666667","25.0523766666667","6500200","三重區"
"241022","060-VK","2018/10/20 15:49:44","新北市三重區捷運路36號","121.482885","25.0551633333333","6500200","三重區"
"241015","062-VK","2018/10/20 15:49:35","新北市三重區重新路四段121號","121.485096666667","25.0523","6500200","三重區"
"241017","063-VK","2018/10/20 15:49:33","新北市三重區大仁街11號","121.491706666667","25.0642516666667","6500200","三重區"
"241024","065-VK","2018/10/20 15:49:35","新北市三重區成功路112-3號","121.486441666667","25.0519816666667","6500200","三重區"
"241026","066-VK","2018/10/20 15:49:44","新北市三重區光興街1號","121.50028","25.0603633333333","6500200","三重區"
"241002","090-VK","2018/10/20 15:49:42","新北市三重區成功路54號","121.489021666667","25.0507733333333","6500200","三重區"
"241003","091-VK","2018/10/20 15:49:42","新北市三重區環河北路二段330號","121.498195","25.0838616666667","6500200","三重區"
"241012","265-UM","2018/10/20 15:49:43","新北市三重區新北大道一段56號","121.487426666667","25.0616416666667","6500200","三重區"
"241016","266-UM","2018/10/20 15:49:34","新北市三重區重新路四段121號","121.484886666667","25.0525716666667","6500200","三重區"
"241018","268-UM","2018/10/20 15:49:29","新北市三重區重新路四段121號","121.485001666667","25.05282","6500200","三重區"
"241013","270-UM","2018/10/20 15:49:39","新北市三重區六張街5號","121.495623333333","25.0706966666667","6500200","三重區"
"241025","271-UM","2018/10/20 15:49:30","新北市三重區新北大道一段250號","121.479813333333","25.0613316666667","6500200","三重區"
"241007","398-BY","2018/10/20 15:49:28","新北市三重區忠孝路三段84巷1號","121.48025","25.064585","6500200","三重區"
"241004","475-VK","2018/10/20 15:49:29","新北市三重區泉州街84巷18號","121.495873333333","25.0543266666667","6500200","三重區"
"241020","478-VK","2018/10/20 15:49:44","新北市三重區忠孝路二段52號","121.485013333333","25.07043","6500200","三重區"
"241014","543-UM","2018/10/20 15:49:32","新北市三重區重新路四段121號","121.484778333333","25.0524833333333","6500200","三重區"
"241023","545-UM","2018/10/20 15:49:40","新北市三重區忠孝路三段84巷16號","121.480708333333","25.06487","6500200","三重區"
"241001","547-UM","2018/10/20 15:49:31","新北市三重區重新路四段121號","121.48462","25.0523283333333","6500200","三重區"
"241019","KEA-2593","2018/10/20 15:49:43","新北市三重區重新路四段121號","121.484888333333","25.0522283333333","6500200","三重區"
"241006","AAD-863","2018/10/20 15:49:31","新北市三重區重新路四段121號","121.484593333333","25.0522383333333","6500200","三重區"
"241005","743-BX","2018/10/20 15:49:41","新北市三重區中正北路354號","121.477528333333","25.06943","6500200","三重區"
"241029","942-UM","2018/10/20 15:49:36","新北市三重區大同南路246號","121.496941666667","25.0557866666667","6500200","三重區"
"241033","AAC-255","2018/10/20 15:49:37","新北市三重區光復路一段134號","121.472006666667","25.0524766666667","6500200","三重區"
"235033","4980-A6","2018/10/20 15:49:46","新北市中和區連城路477巷6弄8號","121.482826666667","24.995095","6500300","中和區"
"224007","275-VK","2018/10/20 15:49:45","新北市瑞芳區大寮路356-1號","121.785021666667","25.1032333333333","6501200","瑞芳區"
"227002","642-TC","2018/10/20 15:49:41","新北市雙溪區平林里外平林44號","121.85292","25.0363566666667","6502500","雙溪區"
"227010","400-TW","2018/10/20 15:49:37","新北市雙溪區牡丹里中正路64號","121.865488333333","25.0434166666667","6502500","雙溪區"
"236068","105-UM","2018/10/20 15:49:41","新北市土城區福安街52巷4號","121.418578333333","24.9654166666667","6501300","土城區"
"236074","166-UM","2018/10/20 15:49:45","新北市土城區福安街64號","121.418455","24.9645133333333","6501300","土城區"
"236029","253-BX","2018/10/20 15:49:38","新北市土城區中華路一段236號","121.439911666667","24.9800033333333","6501300","土城區"
"236024","269-VK","2018/10/20 15:49:47","新北市土城區中央路一段211巷6弄22號","121.446273333333","24.9860183333333","6501300","土城區"
"236017","401-BY","2018/10/20 15:49:41","新北市土城區金城路三段206巷3號","121.471736666667","24.989555","6501300","土城區"
"236057","912-UM","2018/10/20 15:49:43","新北市土城區中央路二段223-15號","121.440503333333","24.9729233333333","6501300","土城區"
"236045","913-UM","2018/10/20 15:49:43","新北市土城區清水路26號","121.454348333333","24.980035","6501300","土城區"
"236054","AAC-216","2018/10/20 15:49:31","新北市土城區中華路一段201號","121.442975","24.985255","6501300","土城區"
"242001","233-RS","2018/10/20 15:46:24","新北市新莊區環河路636-7號","121.437591666667","25.011675","6500500","新莊區"
"220025","687-BX","2018/10/20 15:49:44","新北市板橋區金門街215巷57弄62號","121.435115","24.991035","6500100","板橋區"
