"lineid","car","time","location","longitude","latitude","cityid","cityname"
"231046","107-UY","2018/10/20 16:29:35","新北市新店區灣潭路3-5號","121.537981666667","24.9507916666667","6500600","新店區"
"241011","013-R5","2018/10/20 16:29:48","新北市三重區龍濱路182號","121.501296666667","25.072975","6500200","三重區"
"241028","022-UY","2018/10/20 16:29:43","新北市三重區中正南路149號","121.493936666667","25.0565083333333","6500200","三重區"
"241008","059-VK","2018/10/20 16:29:48","新北市三重區力行路二段136巷49弄8號","121.479423333333","25.0753816666667","6500200","三重區"
"241022","060-VK","2018/10/20 16:29:44","新北市三重區重陽路二段18巷6號","121.48644","25.0620483333333","6500200","三重區"
"241031","061-VK","2018/10/20 16:29:39","新北市三重區重陽路一段68號","121.486601666667","25.0583716666667","6500200","三重區"
"241015","062-VK","2018/10/20 16:29:35","新北市三重區福德北路36-1號","121.501813333333","25.0652083333333","6500200","三重區"
"241017","063-VK","2018/10/20 16:29:33","新北市三重區重新路二段99號","121.495603333333","25.061995","6500200","三重區"
"241024","065-VK","2018/10/20 16:29:35","新北市三重區中正北路265號","121.47534","25.0711066666667","6500200","三重區"
"241026","066-VK","2018/10/20 16:29:44","新北市三重區光興街1號","121.500341666667","25.0603866666667","6500200","三重區"
"241002","090-VK","2018/10/20 16:29:42","新北市三重區五華街16號","121.494886666667","25.0803116666667","6500200","三重區"
"241003","091-VK","2018/10/20 16:29:42","新北市三重區五華街71巷88號","121.494095","25.0838366666667","6500200","三重區"
"241012","265-UM","2018/10/20 16:29:43","新北市三重區河邊北街317號","121.502403333333","25.07493","6500200","三重區"
"241016","266-UM","2018/10/20 16:29:34","新北市三重區大智街23號","121.494251666667","25.0658383333333","6500200","三重區"
"241018","268-UM","2018/10/20 16:29:29","新北市三重區正義北路372巷24號","121.492998333333","25.0711","6500200","三重區"
"241032","269-UM","2018/10/20 16:29:40","新北市三重區三陽路100巷3弄13號","121.483046666667","25.057865","6500200","三重區"
"241013","270-UM","2018/10/20 16:29:39","新北市三重區三和路三段91巷29號","121.49545","25.072525","6500200","三重區"
"241025","271-UM","2018/10/20 16:29:30","新北市三重區中正北路560巷100弄2號","121.472601666667","25.0683866666667","6500200","三重區"
"241007","398-BY","2018/10/20 16:29:28","新北市三重區三和路四段167巷150號","121.48727","25.0801116666667","6500200","三重區"
"241004","475-VK","2018/10/20 16:29:48","新北市三重區仁愛街377巷17號","121.492406666667","25.0807366666667","6500200","三重區"
"241020","478-VK","2018/10/20 16:29:44","新北市三重區車路頭街66號","121.484291666667","25.0728066666667","6500200","三重區"
"241030","480-VK","2018/10/20 16:29:47","新北市三重區成功路96號","121.487793333333","25.051455","6500200","三重區"
"241014","543-UM","2018/10/20 16:29:32","新北市三重區河邊北街70-3號","121.50445","25.0683733333333","6500200","三重區"
"241023","545-UM","2018/10/20 16:29:40","新北市三重區忠孝路三段50巷43號","121.482911666667","25.0644866666667","6500200","三重區"
"241001","547-UM","2018/10/20 16:29:48","新北市三重區福隆路52號","121.492586666667","25.078515","6500200","三重區"
"241019","KEA-2593","2018/10/20 16:29:43","新北市三重區重陽路三段97號","121.49046","25.0679566666667","6500200","三重區"
"241006","AAD-863","2018/10/20 16:29:31","新北市三重區力行路二段202號","121.483388333333","25.0777816666667","6500200","三重區"
"241005","743-BX","2018/10/20 16:05:28","新北市三重區仁愛街517號","121.487628333333","25.0823816666667","6500200","三重區"
"241009","887-TS","2018/10/20 16:29:35","新北市三重區三和路四段191巷72號","121.484068333333","25.0797383333333","6500200","三重區"
"241029","942-UM","2018/10/20 16:29:36","新北市三重區集美街126巷23號","121.489775","25.0537533333333","6500200","三重區"
"241033","AAC-255","2018/10/20 16:29:37","新北市三重區重新路五段317巷3弄17號","121.477911666667","25.0497416666667","6500200","三重區"
"247008","336-TH","2018/10/20 16:29:30","新北市五股區中興路三段163號","121.447378333333","25.080305","6501400","蘆洲區"
"247010","056-VK","2018/10/20 16:29:31","新北市五股區中興路三段163號","121.449051666667","25.08077","6501400","蘆洲區"
"224007","275-VK","2018/10/20 16:29:45","新北市瑞芳區瑞竹路83號","121.764095","25.1033383333333","6501200","瑞芳區"
"224009","273-VK","2018/10/20 16:29:31","新北市瑞芳區大寮路356-1號","121.784723333333","25.1034166666667","6501200","瑞芳區"
"224005","271-BY","2018/10/20 16:29:35","新北市瑞芳區阿美家園35號","121.821288333333","25.1168366666667","6501200","瑞芳區"
"227002","642-TC","2018/10/20 16:29:41","新北市雙溪區上林里內平林120-2號","121.824473333333","25.0262583333333","6502500","雙溪區"
"227010","400-TW","2018/10/20 16:29:37","新北市雙溪區三港里雙澳路33-3號","121.87039","25.0493866666667","6502500","雙溪區"
"251013","KEA-2871","2018/10/20 16:29:26","新北市淡水區北新路三段162號","121.492358333333","25.1915066666667","6501000","淡水區"
"251016","179-VK","2018/10/20 16:29:48","新北市淡水區中正路二段31號","121.419545","25.1813816666667","6501000","淡水區"
"251008","181-VK","2018/10/20 16:29:44","新北市淡水區大同路8號","121.462306666667","25.140555","6501000","淡水區"
"242001","233-RS","2018/10/20 16:23:07","新北市新莊區環河路636-7號","121.43742","25.0116766666667","6500500","新莊區"
"220052","257-TC","2018/10/20 16:27:25","新北市板橋區民生路二段161巷5號","121.4702","25.0196883333333","6500100","板橋區"
