"lineid","car","time","location","longitude","latitude","cityid","cityname"
"249004","303-UY","2018/10/20 16:49:40","新北市八里區博物館路202巷92號","121.409775","25.1639483333333","6502300","八里區"
"249002","305-UY","2018/10/20 16:49:41","新北市八里區牛寮埔31號","121.429871666667","25.1457416666667","6502300","八里區"
"244017","485-VK","2018/10/20 16:49:30","新北市林口區粉寮路二段88巷100-12號","121.409778333333","25.0901716666667","6501700","林口區"
"231046","107-UY","2018/10/20 16:49:35","新北市新店區灣潭路15-8號","121.541256666667","24.939325","6500600","新店區"
"241011","013-R5","2018/10/20 16:49:48","新北市三重區仁愛街53巷158號","121.499728333333","25.07285","6500200","三重區"
"241028","022-UY","2018/10/20 16:49:37","新北市三重區光興街91號","121.497431666667","25.059885","6500200","三重區"
"241008","059-VK","2018/10/20 16:49:48","新北市三重區永福街177巷17號","121.477998333333","25.07522","6500200","三重區"
"241022","060-VK","2018/10/20 16:49:44","新北市三重區三民街112號","121.484876666667","25.06338","6500200","三重區"
"241031","061-VK","2018/10/20 16:49:39","新北市三重區過圳街42-1號","121.488148333333","25.059815","6500200","三重區"
"241015","062-VK","2018/10/20 16:49:35","新北市三重區文化北路47號","121.498806666667","25.0654966666667","6500200","三重區"
"241017","063-VK","2018/10/20 16:49:33","新北市三重區大同北路62號","121.494121666667","25.0638616666667","6500200","三重區"
"241024","065-VK","2018/10/20 16:49:35","新北市三重區中正北路317巷24號","121.475553333333","25.07304","6500200","三重區"
"241026","066-VK","2018/10/20 16:49:44","新北市三重區文化南路10巷28號","121.500966666667","25.0621733333333","6500200","三重區"
"241002","090-VK","2018/10/20 16:49:42","新北市三重區仁義街143巷60號","121.498255","25.0812683333333","6500200","三重區"
"241003","091-VK","2018/10/20 16:49:42","新北市三重區集賢路87-1號","121.49363","25.0868566666667","6500200","三重區"
"241012","265-UM","2018/10/20 16:49:43","新北市三重區仁興街11巷29號","121.500575","25.074265","6500200","三重區"
"241016","266-UM","2018/10/20 16:49:34","新北市三重區大同北路115巷19號","121.493851666667","25.0646633333333","6500200","三重區"
"241018","268-UM","2018/10/20 16:49:36","新北市三重區安慶街149巷20號","121.49405","25.069405","6500200","三重區"
"241032","269-UM","2018/10/20 16:49:40","新北市三重區三光街30巷5號","121.484531666667","25.0604533333333","6500200","三重區"
"241013","270-UM","2018/10/20 16:49:38","新北市三重區仁愛街72號","121.495741666667","25.07336","6500200","三重區"
"241025","271-UM","2018/10/20 16:49:30","新北市三重區中正北路530巷15號","121.472023333333","25.0705666666667","6500200","三重區"
"241007","398-BY","2018/10/20 16:49:48","新北市三重區三和路四段181巷150號","121.485853333333","25.0799583333333","6500200","三重區"
"241004","475-VK","2018/10/20 16:49:28","新北市三重區仁愛街397巷22號","121.491551666667","25.0813016666667","6500200","三重區"
"241020","478-VK","2018/10/20 16:49:44","新北市三重區忠孝路二段34號","121.485785","25.0710416666667","6500200","三重區"
"241030","480-VK","2018/10/20 16:49:47","新北市三重區新興路14號","121.49246","25.0530866666667","6500200","三重區"
"241014","543-UM","2018/10/20 16:49:32","新北市三重區長壽街120巷11號","121.502508333333","25.0691516666667","6500200","三重區"
"241023","545-UM","2018/10/20 16:49:40","新北市三重區新北大道一段206巷10號","121.482531666667","25.062075","6500200","三重區"
"241001","547-UM","2018/10/20 16:49:31","新北市三重區仁政街54巷33號","121.492183333333","25.0767233333333","6500200","三重區"
"241019","KEA-2593","2018/10/20 16:49:43","新北市三重區三張街149巷10弄15號","121.485723333333","25.0698966666667","6500200","三重區"
"241006","AAD-863","2018/10/20 16:49:31","新北市三重區力行路二段158號","121.482783333333","25.0763066666667","6500200","三重區"
"241005","743-BX","2018/10/20 16:48:01","新北市三重區仁華街78號","121.484705","25.08322","6500200","三重區"
"241009","887-TS","2018/10/20 16:49:35","新北市三重區三和路四段203巷251號","121.487358333333","25.0809483333333","6500200","三重區"
"241029","942-UM","2018/10/20 16:49:36","新北市三重區新興路55號","121.491301666667","25.0539483333333","6500200","三重區"
"241033","AAC-255","2018/10/20 16:49:37","新北市三重區新北大道二段139巷9號","121.466376666667","25.0607483333333","6500200","三重區"
"247014","339-TH","2018/10/20 16:49:41","新北市蘆洲區中正路487號","121.461988333333","25.0961566666667","6501400","蘆洲區"
"247006","337-TH","2018/10/20 16:49:45","新北市蘆洲區永安南路二段132-1號","121.462538333333","25.0785683333333","6501400","蘆洲區"
"247008","336-TH","2018/10/20 16:49:30","新北市蘆洲區中山二路273號","121.469476666667","25.0793666666667","6501400","蘆洲區"
"247010","056-VK","2018/10/20 16:49:31","新北市蘆洲區環堤大道365號","121.456861666667","25.09735","6501400","蘆洲區"
"247022","001-UY","2018/10/20 16:49:40","新北市蘆洲區環堤大道365號","121.457196666667","25.0974316666667","6501400","蘆洲區"
"228003","097-TW","2018/10/20 16:49:37","新北市貢寮區貢寮里朝陽街1-2號","121.912366666667","25.0212433333333","6502600","貢寮區"
"228002","585-TW","2018/10/20 16:49:38","新北市貢寮區貢寮里朝陽街120巷1號","121.907993333333","25.022945","6502600","貢寮區"
"224006","676-BX","2018/10/20 16:49:38","新北市瑞芳區大寮路356-1號","121.784755","25.1031866666667","6501200","瑞芳區"
"224008","285-BY","2018/10/20 16:49:47","新北市瑞芳區中山路161號","121.801978333333","25.1065366666667","6501200","瑞芳區"
"224007","275-VK","2018/10/20 16:49:45","新北市瑞芳區中央路48巷38號","121.761031666667","25.1030266666667","6501200","瑞芳區"
"224009","273-VK","2018/10/20 16:49:31","新北市瑞芳區明燈路二段2巷7號","121.814283333333","25.10845","6501200","瑞芳區"
"224005","271-BY","2018/10/20 16:49:35","新北市瑞芳區洞頂路116號","121.8613","25.1232616666667","6501200","瑞芳區"
"227002","642-TC","2018/10/20 16:49:41","新北市雙溪區外柑里外柑腳71號","121.80712","25.0175766666667","6502500","雙溪區"
"227010","400-TW","2018/10/20 16:49:48","新北市雙溪區牡丹里五分11號","121.865896666667","25.0471216666667","6502500","雙溪區"
"251013","KEA-2871","2018/10/20 16:49:46","新北市淡水區泉洲厝32號","121.489263333333","25.1925833333333","6501000","淡水區"
"251016","179-VK","2018/10/20 16:49:48","新北市淡水區北新路一段3-1號","121.475051666667","25.184845","6501000","淡水區"
"251015","180-VK","2018/10/20 16:49:32","新北市淡水區忠愛街5-1號","121.460741666667","25.1717016666667","6501000","淡水區"
"251008","181-VK","2018/10/20 16:49:44","台北市北投區中央北路四段30巷160號","121.473961666667","25.1404533333333","6501000","淡水區"
"251012","441-VK","2018/10/20 16:49:27","新北市淡水區中正路二段31號","121.41971","25.1814833333333","6501000","淡水區"
"251007","442-VK","2018/10/20 16:49:38","新北市淡水區中正路437號","121.431925","25.1747916666667","6501000","淡水區"
"251004","443-VK","2018/10/20 16:49:36","新北市淡水區中正路二段31號","121.419121666667","25.1821583333333","6501000","淡水區"
"251006","561-UM","2018/10/20 16:49:48","新北市淡水區中正路二段31號","121.419503333333","25.1815966666667","6501000","淡水區"
"251011","650-BX","2018/10/20 16:49:38","新北市淡水區中正路235號","121.435193333333","25.1735366666667","6501000","淡水區"
"252002","178-VK","2018/10/20 16:49:31","新北市三芝區茂長里陳厝坑15-1號","121.515728333333","25.2550683333333","6502100","三芝區"
"252001","292-VK","2018/10/20 16:49:37","新北市三芝區淡金路二段89號","121.503975","25.26078","6502100","三芝區"
"242056","751-BX","2018/10/20 16:49:37","新北市新莊區新泰路255巷83號","121.442155","25.03877","6500500","新莊區"
"242029","612-BX","2018/10/20 16:49:37","新北市新莊區新泰路357巷3弄57號","121.442161666667","25.0391383333333","6500500","新莊區"
"242048","497-BY","2018/10/20 16:49:41","新北市新莊區新泰路357巷3弄57號","121.442245","25.0394533333333","6500500","新莊區"
"242039","415-TV","2018/10/20 16:49:34","新北市新莊區新泰路255巷83號","121.442235","25.0388233333333","6500500","新莊區"
"242019","175-VK","2018/10/20 16:49:46","新北市新莊區三和路18-23號","121.4418","25.0388766666667","6500500","新莊區"
"242007","176-VK","2018/10/20 16:49:39","新北市新莊區新泰路255巷83號","121.442028333333","25.0389283333333","6500500","新莊區"
"242001","233-RS","2018/10/20 16:23:07","新北市新莊區環河路636-7號","121.43742","25.0116766666667","6500500","新莊區"
"239003","360-BY","2018/10/20 16:49:32","新北市鶯歌區二甲路12-2號","121.34555","24.9351233333333","6500800","鶯歌區"
"220052","257-TC","2018/10/20 16:27:25","新北市板橋區民生路二段161巷5號","121.4702","25.0196883333333","6500100","板橋區"
