"lineid","car","time","location","longitude","latitude","cityid","cityname"
"249005","172-UM","2018/10/20 16:59:28","新北市八里區渡船頭2號","121.434105","25.15179","6502300","八里區"
"249004","303-UY","2018/10/20 16:59:40","新北市八里區忠孝路488-1號","121.414146666667","25.1616216666667","6502300","八里區"
"249002","305-UY","2018/10/20 16:59:41","新北市八里區牛寮埔11號","121.432771666667","25.14253","6502300","八里區"
"249003","593-UM","2018/10/20 16:59:42","新北市八里區中山路二段289號","121.401596666667","25.1485833333333","6502300","八里區"
"244017","485-VK","2018/10/20 16:59:50","新北市林口區粉寮路二段88巷100-12號","121.409756666667","25.0901783333333","6501700","林口區"
"244025","837-TS","2018/10/20 16:59:30","新北市林口區粉寮路二段160巷28號","121.40539","25.09094","6501700","林口區"
"231046","107-UY","2018/10/20 16:59:35","新北市新店區新潭路一段1-1號","121.526246666667","24.9441283333333","6500600","新店區"
"241011","013-R5","2018/10/20 16:59:28","新北市三重區仁愛街55巷23號","121.498788333333","25.07264","6500200","三重區"
"241028","022-UY","2018/10/20 16:59:37","新北市三重區中正南路48號","121.493926666667","25.0599483333333","6500200","三重區"
"241008","059-VK","2018/10/20 16:59:48","新北市三重區永福街179巷42號","121.477375","25.074705","6500200","三重區"
"241022","060-VK","2018/10/20 16:59:45","新北市三重區中華路128號","121.483531666667","25.0639216666667","6500200","三重區"
"241031","061-VK","2018/10/20 16:59:39","新北市三重區三寧街25號","121.489788333333","25.05999","6500200","三重區"
"241015","062-VK","2018/10/20 16:59:35","新北市三重區三和路二段13號","121.501483333333","25.0666966666667","6500200","三重區"
"241017","063-VK","2018/10/20 16:59:33","新北市三重區大仁街3巷25號","121.492401666667","25.0637816666667","6500200","三重區"
"241024","065-VK","2018/10/20 16:59:35","新北市三重區大勇街82巷26弄18號","121.478875","25.0720966666667","6500200","三重區"
"241026","066-VK","2018/10/20 16:59:44","新北市三重區正義南路60-6號","121.498543333333","25.06007","6500200","三重區"
"241002","090-VK","2018/10/20 16:59:42","新北市三重區仁義街225巷38號","121.497665","25.0828583333333","6500200","三重區"
"241003","091-VK","2018/10/20 16:59:42","新北市三重區富福街110號","121.493415","25.0857216666667","6500200","三重區"
"251014","742-BX","2018/10/20 16:59:43","新北市淡水區淡金路四段472巷24號","121.4529","25.2239983333333","6501000","淡水區"
"241012","265-UM","2018/10/20 16:59:43","新北市三重區仁壽街200號","121.501093333333","25.07492","6500200","三重區"
"241016","266-UM","2018/10/20 16:59:34","新北市三重區信義西街51號","121.495116666667","25.0637466666667","6500200","三重區"
"241018","268-UM","2018/10/20 16:59:49","新北市三重區六張街126巷2弄39號","121.493171666667","25.0695666666667","6500200","三重區"
"241032","269-UM","2018/10/20 16:59:39","新北市三重區新北大道一段35巷12號","121.48596","25.0608283333333","6500200","三重區"
"241013","270-UM","2018/10/20 16:59:38","新北市三重區仁昌街16號","121.496448333333","25.0740566666667","6500200","三重區"
"241025","271-UM","2018/10/20 16:59:30","新北市三重區中正北路508巷9號","121.472646666667","25.07109","6500200","三重區"
"241007","398-BY","2018/10/20 16:59:48","新北市三重區溪尾街126巷31號","121.488578333333","25.0792833333333","6500200","三重區"
"241004","475-VK","2018/10/20 16:59:48","新北市三重區五華街92巷9-1號","121.492828333333","25.0823466666667","6500200","三重區"
"241020","478-VK","2018/10/20 16:59:44","新北市三重區自強路三段72號","121.486541666667","25.0736666666667","6500200","三重區"
"241030","480-VK","2018/10/20 16:59:47","新北市三重區環河南路253號","121.49116","25.05053","6500200","三重區"
"241014","543-UM","2018/10/20 16:59:32","新北市三重區三和路二段173巷139號","121.500918333333","25.070685","6500200","三重區"
"241023","545-UM","2018/10/20 16:59:40","新北市三重區忠孝路三段84巷1號","121.48026","25.0645816666667","6500200","三重區"
"241001","547-UM","2018/10/20 16:59:31","新北市三重區仁愛街174號","121.493998333333","25.076635","6500200","三重區"
"241019","KEA-2593","2018/10/20 16:59:43","新北市三重區三張街104號","121.487903333333","25.0699483333333","6500200","三重區"
"241006","AAD-863","2018/10/20 16:59:31","新北市三重區車路頭街119號","121.484323333333","25.07535","6500200","三重區"
"241005","743-BX","2018/10/20 16:59:49","新北市三重區碧華街112巷10號","121.484396666667","25.0820783333333","6500200","三重區"
"241009","887-TS","2018/10/20 16:59:35","新北市三重區仁美街108巷14號","121.485108333333","25.0806","6500200","三重區"
"241029","942-UM","2018/10/20 16:59:36","新北市三重區中正南路216號","121.493716666667","25.0551933333333","6500200","三重區"
"241033","AAC-255","2018/10/20 16:59:37","新北市三重區中興北街271號","121.469223333333","25.0605666666667","6500200","三重區"
"235065","098-UM","2018/10/20 16:59:32","新北市中和區員山路36巷16-3號","121.485108333333","24.9911466666667","6500300","中和區"
"247002","893-R6","2018/10/20 16:59:50","新北市蘆洲區永平街8號","121.459456666667","25.0904516666667","6501400","蘆洲區"
"247016","546-UM","2018/10/20 16:59:36","新北市蘆洲區正和街26號","121.469725","25.082325","6501400","蘆洲區"
"247024","500-BY","2018/10/20 16:59:45","新北市蘆洲區長興路255號","121.460445","25.0875233333333","6501400","蘆洲區"
"247014","339-TH","2018/10/20 16:59:41","新北市蘆洲區三民路81-5號","121.474315","25.0838533333333","6501400","蘆洲區"
"247006","337-TH","2018/10/20 16:59:45","新北市蘆洲區永安南路二段234號","121.460498333333","25.0795866666667","6501400","蘆洲區"
"247008","336-TH","2018/10/20 16:59:49","新北市蘆洲區信義路59巷5弄7號","121.475005","25.0800966666667","6501400","蘆洲區"
"247020","057-VK","2018/10/20 16:59:32","新北市蘆洲區民族路422巷82弄10號","121.474053333333","25.0937316666667","6501400","蘆洲區"
"247010","056-VK","2018/10/20 16:59:31","新北市蘆洲區信義路222巷34弄2號","121.480685","25.0853833333333","6501400","蘆洲區"
"247018","007-UY","2018/10/20 16:59:32","新北市蘆洲區民族路227巷24弄1號","121.476296666667","25.0887216666667","6501400","蘆洲區"
"247004","002-UY","2018/10/20 16:59:45","新北市蘆洲區長安街108巷5弄1號","121.461133333333","25.0817283333333","6501400","蘆洲區"
"247022","001-UY","2018/10/20 16:59:40","新北市蘆洲區三民路128巷166-1號","121.468413333333","25.092525","6501400","蘆洲區"
"228003","097-TW","2018/10/20 16:59:37","新北市貢寮區福隆里興隆街36號","121.94254","25.01656","6502600","貢寮區"
"228001","212-TW","2018/10/20 16:59:38","新北市貢寮區貢寮里朝陽街1-2號","121.912205","25.0212633333333","6502600","貢寮區"
"228002","585-TW","2018/10/20 16:59:38","新北市貢寮區貢寮里朝陽街98號","121.908471666667","25.0221833333333","6502600","貢寮區"
"224006","676-BX","2018/10/20 16:59:38","新北市瑞芳區大寮路36號","121.782356666667","25.0987366666667","6501200","瑞芳區"
"224008","285-BY","2018/10/20 16:59:47","新北市瑞芳區明燈路一段223號","121.818095","25.1080716666667","6501200","瑞芳區"
"224007","275-VK","2018/10/20 16:59:45","新北市瑞芳區粗坑口路66號","121.761305","25.09895","6501200","瑞芳區"
"224009","273-VK","2018/10/20 16:59:31","新北市瑞芳區濱二路30號","121.841341666667","25.115605","6501200","瑞芳區"
"224005","271-BY","2018/10/20 16:59:44","新北市瑞芳區南雅路91號","121.885805","25.1221966666667","6501200","瑞芳區"
"227002","642-TC","2018/10/20 16:59:41","新北市雙溪區長源里柑腳41-2號","121.80244","25.0127283333333","6502500","雙溪區"
"227010","400-TW","2018/10/20 16:59:37","新北市雙溪區牡丹里聖南21號","121.85851","25.05325","6502500","雙溪區"
"251009","008-UM","2018/10/20 16:59:44","新北市淡水區中正路一段33號","121.425996666667","25.1764833333333","6501000","淡水區"
"251005","010-UM","2018/10/20 16:59:47","新北市淡水區真理街1號","121.43815","25.1729966666667","6501000","淡水區"
"251013","KEA-2871","2018/10/20 16:59:46","新北市淡水區泉洲厝32號","121.489303333333","25.1925983333333","6501000","淡水區"
"251016","179-VK","2018/10/20 16:59:48","新北市淡水區瓦坑3號","121.477595","25.18081","6501000","淡水區"
"251015","180-VK","2018/10/20 16:59:32","新北市淡水區淡金路一段102號","121.457698333333","25.174655","6501000","淡水區"
"251008","181-VK","2018/10/20 16:59:43","新北市淡水區樹梅坑9號","121.47275","25.1426483333333","6501000","淡水區"
"251010","413-VK","2018/10/20 16:59:36","新北市淡水區中正路二段31號","121.419451666667","25.181465","6501000","淡水區"
"251012","441-VK","2018/10/20 16:59:47","新北市淡水區沙崙路300號","121.428475","25.1867483333333","6501000","淡水區"
"251007","442-VK","2018/10/20 16:59:38","新北市淡水區中正東路二段51-3號","121.459295","25.155745","6501000","淡水區"
"251004","443-VK","2018/10/20 16:59:36","新北市淡水區中山路8號","121.444696666667","25.1689316666667","6501000","淡水區"
"251006","561-UM","2018/10/20 16:59:48","新北市淡水區中正路342號","121.434913333333","25.173695","6501000","淡水區"
"251011","650-BX","2018/10/20 16:59:38","新北市淡水區坪頂路49號","121.457843333333","25.1625683333333","6501000","淡水區"
"252002","178-VK","2018/10/20 16:59:31","新北市三芝區忠孝街133-1號","121.50631","25.25956","6502100","三芝區"
"252001","292-VK","2018/10/20 16:59:37","新北市三芝區淡金路二段43號","121.50344","25.2603783333333","6502100","三芝區"
"242058","986-R7","2018/10/20 16:59:48","新北市新莊區新泰路357巷3弄57號","121.442283333333","25.0392816666667","6500500","新莊區"
"242056","751-BX","2018/10/20 16:59:37","新北市新莊區三和路12-21號","121.442168333333","25.03866","6500500","新莊區"
"242029","612-BX","2018/10/20 16:59:37","新北市新莊區新泰路255巷83號","121.442165","25.0390683333333","6500500","新莊區"
"242044","566-BX","2018/10/20 16:59:31","新北市新莊區三和路12-21號","121.44226","25.038465","6500500","新莊區"
"242048","497-BY","2018/10/20 16:59:41","新北市新莊區新泰路357巷3弄57號","121.442258333333","25.0395383333333","6500500","新莊區"
"242039","415-TV","2018/10/20 16:59:34","新北市新莊區新泰路255巷83號","121.442225","25.0388783333333","6500500","新莊區"
"242046","400-BY","2018/10/20 16:59:42","新北市新莊區新泰路357巷3弄57號","121.442248333333","25.0395583333333","6500500","新莊區"
"242023","362-BY","2018/10/20 16:59:45","新北市新莊區新泰路357巷3弄57號","121.441988333333","25.0390266666667","6500500","新莊區"
"242061","353-BY","2018/10/20 16:59:37","新北市新莊區新泰路357巷3弄57號","121.441923333333","25.0391033333333","6500500","新莊區"
"242019","175-VK","2018/10/20 16:59:46","新北市新莊區三和路12-21號","121.441848333333","25.0386366666667","6500500","新莊區"
"242007","176-VK","2018/10/20 16:59:39","新北市新莊區三和路12-21號","121.44208","25.038745","6500500","新莊區"
"242017","346-TH","2018/10/20 16:59:29","新北市新莊區三和路12-21號","121.442121666667","25.0381133333333","6500500","新莊區"
"242031","348-TH","2018/10/20 16:59:31","新北市新莊區新泰路357巷3弄57號","121.44217","25.039705","6500500","新莊區"
"238015","755-BX","2018/10/20 16:59:45","新北市樹林區育德街78-1號","121.38805","24.9680016666667","6500700","樹林區"
"238022","KEA-2213","2018/10/20 16:58:41","新北市樹林區八德街395號","121.415623333333","24.9717316666667","6500700","樹林區"
"238017","283-BY","2018/10/20 16:59:49","新北市樹林區育德街78號","121.387435","24.9684366666667","6500700","樹林區"
"238014","282-BY","2018/10/20 16:59:35","新北市樹林區育德街78-1號","121.388001666667","24.9680433333333","6500700","樹林區"
"239007","AAC-297","2018/10/20 16:59:30","新北市鶯歌區二甲路13-16號","121.34541","24.9350966666667","6500800","鶯歌區"
"239001","417-VK","2018/10/20 16:56:12","新北市鶯歌區二甲路12-2號","121.345486666667","24.9350483333333","6500800","鶯歌區"
"239003","360-BY","2018/10/20 16:59:32","新北市鶯歌區二甲路12-2號","121.345686666667","24.9350816666667","6500800","鶯歌區"
"239004","193-VK","2018/10/20 16:59:33","新北市鶯歌區二甲路13號","121.343946666667","24.9355083333333","6500800","鶯歌區"
"242002","281-VK","2018/10/20 16:59:35","新北市新莊區三和路12-21號","121.442303333333","25.0382683333333","6500500","新莊區"
