"lineid","car","time","location","longitude","latitude","cityid","cityname"
"234026","9371-KE","2018/10/20 17:59:31","新北市永和區永和路一段45-1號","121.512823333333","25.00626","6500400","永和區"
"249005","172-UM","2018/10/20 17:59:47","新北市八里區荖阡坑路20-8號","121.396848333333","25.1367616666667","6502300","八里區"
"249001","173-UM","2018/10/20 17:59:46","新北市八里區龍米路二段30號","121.44854","25.1400366666667","6502300","八里區"
"249004","303-UY","2018/10/20 17:59:40","新北市八里區龍米路二段207號","121.432136666667","25.1583433333333","6502300","八里區"
"249002","305-UY","2018/10/20 17:59:41","新北市八里區龍米路一段440巷8號","121.45127","25.133875","6502300","八里區"
"249003","593-UM","2018/10/20 17:59:42","新北市八里區中山路二段306號","121.40464","25.15013","6502300","八里區"
"248006","077-UY","2018/10/20 17:59:40","新北市五股區中興路二段157巷11-1號","121.457965","25.07694","6501500","五股區"
"248008","095-VK","2018/10/20 17:59:35","新北市五股區更洲路26號","121.457968333333","25.0791183333333","6501500","五股區"
"248020","225-UY","2018/10/20 17:59:49","新北市五股區中興路二段83巷26-6號","121.459441666667","25.0753","6501500","五股區"
"248004","677-BX","2018/10/20 17:59:33","新北市五股區中興路二段182巷3號","121.456586666667","25.07809","6501500","五股區"
"232011","375-UM","2018/10/20 17:59:45","新北市坪林區北宜路八段213號","121.708636666667","24.9348716666667","6502000","坪林區"
"244023","069-UM","2018/10/20 17:59:37","新北市林口區東湖路93巷89-1號","121.385613333333","25.070675","6501700","林口區"
"244007","080-UY","2018/10/20 17:59:38","新北市林口區竹林路363號","121.387653333333","25.084505","6501700","林口區"
"244019","403-UM","2018/10/20 17:59:40","新北市林口區文化一路一段120號","121.37428","25.0719616666667","6501700","林口區"
"244013","KEA-2802","2018/10/20 17:59:49","新北市林口區中山路46號","121.395363333333","25.0784466666667","6501700","林口區"
"244017","485-VK","2018/10/20 17:59:50","新北市林口區忠孝路372號","121.369236666667","25.0713833333333","6501700","林口區"
"244009","656-BX","2018/10/20 17:59:51","新北市林口區佳林路56巷6弄10號","121.385753333333","25.0821933333333","6501700","林口區"
"244011","701-TV","2018/10/20 17:59:44","新北市林口區中正路146號","121.392718333333","25.0773983333333","6501700","林口區"
"244025","837-TS","2018/10/20 17:59:50","新北市林口區三民路65-7號","121.358545","25.06686","6501700","林口區"
"244021","838-TS","2018/10/20 17:59:42","新北市林口區新寮30-1號","121.399811666667","25.0661616666667","6501700","林口區"
"222003","436-BY","2018/10/20 17:59:42","新北市深坑區炮子崙24號","121.603841666667","24.9872883333333","6501800","深坑區"
"222002","659-BX","2018/10/20 17:59:36","新北市深坑區文化街96號","121.617133333333","25.0018933333333","6501800","深坑區"
"231046","107-UY","2018/10/20 17:59:35","新北市新店區康雅崙路14號","121.53726","24.9266633333333","6500600","新店區"
"231055","AKT-0513","2018/10/20 17:59:45","新北市新店區安華路1-1號","121.519528333333","24.960515","6500600","新店區"
"241024","065-VK","2018/10/20 17:59:35","新北市三重區中正北路193巷35弄32號","121.477141666667","25.0710683333333","6500200","三重區"
"251014","742-BX","2018/10/20 17:59:43","新北市淡水區公埔子16-6號","121.48097","25.2245666666667","6501000","淡水區"
"241016","266-UM","2018/10/20 17:59:33","新北市五股區中直路3-19號","121.427953333333","25.10918","6500200","三重區"
"241033","AAC-255","2018/10/20 17:59:37","新北市三重區光復路一段55號","121.472078333333","25.0490866666667","6500200","三重區"
"235064","005-UY","2018/10/20 17:59:34","新北市中和區員山路36巷16-3號","121.485186666667","24.9913566666667","6500300","中和區"
"235063","006-UY","2018/10/20 17:59:43","新北市中和區員山路36巷16-3號","121.48502","24.9914833333333","6500300","中和區"
"235065","098-UM","2018/10/20 17:59:32","新北市中和區中山路二段480號","121.487605","25.0049016666667","6500300","中和區"
"235058","151-BY","2018/10/20 17:59:42","新北市中和區錦和路350-1號","121.49049","24.9935316666667","6500300","中和區"
"235038","185-VK","2018/10/20 17:59:44","新北市中和區中正路406號","121.492383333333","24.9940033333333","6500300","中和區"
"235067","255-BX","2018/10/20 17:59:47","新北市中和區和城路一段271巷1號","121.485705","24.9917633333333","6500300","中和區"
"235042","KEA-2878","2018/10/20 17:59:51","新北市中和區和城路一段271巷1號","121.485426666667","24.9917383333333","6500300","中和區"
"247012","KEA-2869","2018/10/20 17:59:39","新北市蘆洲區信義路302巷21號","121.478038333333","25.0884316666667","6501400","蘆洲區"
"235054","640-BX","2018/10/20 17:59:50","新北市中和區員山路36巷16-3號","121.484746666667","24.991815","6500300","中和區"
"235057","911-UM","2018/10/20 17:59:45","新北市中和區員山路36巷16-2號","121.485168333333","24.9915366666667","6500300","中和區"
"235051","157-BY","2018/10/20 17:59:38","新北市中和區中正路589巷15號","121.485678333333","24.9936583333333","6500300","中和區"
"235037","AAC-213","2018/10/20 17:59:42","新北市中和區錦和路350-1號","121.490248333333","24.9935383333333","6500300","中和區"
"247002","893-R6","2018/10/20 17:59:40","新北市蘆洲區永平街32巷57弄18號","121.45918","25.09316","6501400","蘆洲區"
"247016","546-UM","2018/10/20 17:59:36","新北市蘆洲區中正路189號","121.468318333333","25.0854116666667","6501400","蘆洲區"
"247014","339-TH","2018/10/20 17:59:41","新北市蘆洲區忠孝路110號","121.47138","25.0864266666667","6501400","蘆洲區"
"247006","337-TH","2018/10/20 17:59:44","新北市蘆洲區中華街12號","121.46313","25.08163","6501400","蘆洲區"
"247008","336-TH","2018/10/20 17:59:49","新北市蘆洲區和平路78號","121.469635","25.0791116666667","6501400","蘆洲區"
"247010","056-VK","2018/10/20 17:59:51","新北市蘆洲區中山二路76號","121.473341666667","25.0820183333333","6501400","蘆洲區"
"226004","312-R5","2018/10/20 17:59:46","新北市平溪區石底里公園街18-3號","121.733428333333","25.0257166666667","6502400","平溪區"
"228003","097-TW","2018/10/20 17:59:37","新北市貢寮區真理里美艷山街6-2號","121.928896666667","25.0607466666667","6502600","貢寮區"
"228001","212-TW","2018/10/20 17:59:38","新北市貢寮區真理里新港街26巷52號","121.927873333333","25.053335","6502600","貢寮區"
"228002","585-TW","2018/10/20 17:59:38","新北市貢寮區福連里香蘭街2-1號","121.96772","25.0233116666667","6502600","貢寮區"
"224006","676-BX","2018/10/20 17:59:38","新北市瑞芳區大寮路356-1號","121.78481","25.1031566666667","6501200","瑞芳區"
"224002","639-TC","2018/10/20 17:59:39","新北市瑞芳區三爪子坑路32巷110號","121.810016666667","25.1058733333333","6501200","瑞芳區"
"224008","285-BY","2018/10/20 17:59:47","新北市瑞芳區明燈路一段45巷19號","121.821618333333","25.1058416666667","6501200","瑞芳區"
"224009","273-VK","2018/10/20 17:59:31","新北市瑞芳區金光路334號","121.849903333333","25.1093333333333","6501200","瑞芳區"
"224005","271-BY","2018/10/20 17:59:35","新北市瑞芳區深澳路18號","121.820163333333","25.1325533333333","6501200","瑞芳區"
"227002","642-TC","2018/10/20 17:59:41","新北市雙溪區共和里東榮街52號","121.86633","25.0336033333333","6502500","雙溪區"
"253006","032-BX","2018/10/20 17:59:47","新北市石門區大丘田45-2號","121.549768333333","25.2748483333333","6502200","石門區"
"253005","295-VK","2018/10/20 17:59:41","新北市石門區中山路62-11號","121.5675","25.2896633333333","6502200","石門區"
"222001","KEA-2212","2018/10/20 17:59:47","新北市深坑區北深路三段25巷15-2號","121.608753333333","24.999725","6501800","深坑區"
"208002","KEA-2872","2018/10/20 17:59:43","新北市金山區三界壇路93-1號","121.624421666667","25.2287766666667","6502700","金山區"
"208003","665-BX","2018/10/20 17:59:34","新北市金山區磺港里磺港路309號","121.644093333333","25.2275916666667","6502700","金山區"
"208001","761-BX","2018/10/20 17:59:44","新北市金山區磺港里磺港路169號","121.643386666667","25.2248333333333","6502700","金山區"
"251009","008-UM","2018/10/20 17:59:44","新北市淡水區大仁街6巷1號","121.442385","25.174605","6501000","淡水區"
"251005","010-UM","2018/10/20 17:59:47","新北市淡水區英專路125-6號","121.446223333333","25.1726766666667","6501000","淡水區"
"251001","011-UM","2018/10/20 17:59:44","新北市淡水區民權路15號","121.46319","25.1244083333333","6501000","淡水區"
"251002","012-UM","2018/10/20 17:59:44","新北市淡水區中正東路79號","121.447573333333","25.167165","6501000","淡水區"
"251013","KEA-2871","2018/10/20 17:59:46","新北市淡水區泉洲厝31號","121.479583333333","25.191055","6501000","淡水區"
"251016","179-VK","2018/10/20 17:59:48","新北市淡水區淡金路三段26號","121.447775","25.1982633333333","6501000","淡水區"
"251015","180-VK","2018/10/20 17:59:32","新北市淡水區興福寮88巷1號","121.485173333333","25.16495","6501000","淡水區"
"251008","181-VK","2018/10/20 17:59:43","新北市淡水區八勢一街32巷1號","121.46187","25.1557266666667","6501000","淡水區"
"251010","413-VK","2018/10/20 17:59:38","新北市淡水區中正路一段87巷1號","121.421628333333","25.1790766666667","6501000","淡水區"
"251012","441-VK","2018/10/20 17:59:47","新北市淡水區北新路三段38巷7號","121.484528333333","25.1870166666667","6501000","淡水區"
"251007","442-VK","2018/10/20 17:59:38","新北市淡水區中正東路二段161巷11弄10號","121.461486666667","25.146105","6501000","淡水區"
"251004","443-VK","2018/10/20 17:59:28","新北市淡水區民權路187號","121.459635","25.133565","6501000","淡水區"
"251006","561-UM","2018/10/20 17:59:48","新北市淡水區新生街30巷1號","121.438918333333","25.173205","6501000","淡水區"
"251011","650-BX","2018/10/20 17:59:38","新北市淡水區三空泉5-1號","121.477973333333","25.16203","6501000","淡水區"
"251003","673-BX","2018/10/20 17:59:33","新北市淡水區大忠街49號","121.444783333333","25.1764116666667","6501000","淡水區"
"207003","550-UM","2018/10/20 17:59:46","新北市萬里區港東路野柳風景區攤販153號","121.690641666667","25.2054766666667","6502800","萬里區"
"207004","225-TW","2018/10/20 17:59:48","新北市萬里區中幅里中福路48號","121.68339","25.1741466666667","6502800","萬里區"
"252002","178-VK","2018/10/20 17:59:51","新北市三芝區中山路二段37號","121.502883333333","25.255155","6502100","三芝區"
"252001","292-VK","2018/10/20 17:59:37","新北市三芝區中興街二段2號","121.49841","25.2566533333333","6502100","三芝區"
"237007","153-BY","2018/10/20 17:59:51","新北市三峽區中正路二段52號","121.366655","24.9187966666667","6500900","三峽區"
"237009","210-TH","2018/10/20 17:59:32","新北市三峽區中山路106巷21號","121.366073333333","24.936375","6500900","三峽區"
"237013","252-BX","2018/10/20 17:59:32","新北市三峽區介壽路一段135號","121.376201666667","24.9316583333333","6500900","三峽區"
"237012","275-BY","2018/10/20 17:59:35","新北市三峽區民生街27巷1號","121.3761","24.936215","6500900","三峽區"
"237008","302-VK","2018/10/20 17:59:41","新北市三峽區正義街138號","121.368475","24.9165616666667","6500900","三峽區"
"237014","433-BY","2018/10/20 17:59:32","新北市三峽區和平街36巷7弄4號","121.370833333333","24.9373216666667","6500900","三峽區"
"237006","5529-G3","2018/10/20 17:59:34","新北市三峽區介壽路二段136巷118-1號","121.392345","24.932675","6500900","三峽區"
"237011","KEA-2596","2018/10/20 17:59:36","新北市三峽區光明路69巷2號","121.37608","24.92879","6500900","三峽區"
"237016","649-BX","2018/10/20 17:59:35","新北市三峽區白雞149-2號","121.40014","24.905565","6500900","三峽區"
"237010","706-TV","2018/10/20 17:59:31","新北市三峽區中山路62號","121.368088333333","24.9345266666667","6500900","三峽區"
"237005","AKY-6261","2018/10/20 17:59:41","新北市三峽區復興路239-2號","121.36818","24.93853","6500900","三峽區"
"236070","105-UM","2018/10/20 17:59:50","新北市土城區青雲路456號","121.459853333333","24.96899","6501300","土城區"
"236042","KED-0685","2018/10/20 17:59:32","新北市土城區城林路6巷80號","121.438495","24.9797466666667","6501300","土城區"
"236079","166-UM","2018/10/20 17:59:42","新北市土城區永寧路32巷2號","121.429296666667","24.96065","6501300","土城區"
"236030","253-BX","2018/10/20 17:59:41","新北市土城區城林路6巷80號","121.438423333333","24.979785","6501300","土城區"
"236026","269-VK","2018/10/20 17:59:36","新北市土城區承天路1號","121.435906666667","24.9666083333333","6501300","土城區"
"236014","270-VK","2018/10/20 17:59:34","新北市土城區城林路6巷80號","121.438495","24.9797416666667","6501300","土城區"
"236038","271-VK","2018/10/20 17:59:31","新北市土城區城林路6巷80號","121.438565","24.9796033333333","6501300","土城區"
"236021","401-BY","2018/10/20 17:59:46","新北市土城區城林路6巷80號","121.438638333333","24.979745","6501300","土城區"
"236059","912-UM","2018/10/20 17:59:47","新北市土城區中央路三段260號","121.427281666667","24.9639483333333","6501300","土城區"
"236049","913-UM","2018/10/20 17:59:42","新北市土城區城林路6巷80號","121.438661666667","24.9796783333333","6501300","土城區"
"236063","915-UM","2018/10/20 17:59:48","新北市土城區城林路6巷80號","121.438495","24.9796","6501300","土城區"
"236055","AAC-216","2018/10/20 17:59:35","新北市土城區城林路6巷80號","121.438526666667","24.9795966666667","6501300","土城區"
"242036","AAC-296","2018/10/20 17:59:31","新北市新莊區中正路683號","121.426091666667","25.0300216666667","6500500","新莊區"
"242058","986-R7","2018/10/20 17:59:28","新北市新莊區雙鳳路134巷8號","121.412721666667","25.02814","6500500","新莊區"
"242056","751-BX","2018/10/20 17:59:37","新北市新莊區豐年街124巷16號","121.445663333333","25.0298316666667","6500500","新莊區"
"242027","705-TV","2018/10/20 17:59:37","新北市新莊區思源路455號","121.45978","25.0534616666667","6500500","新莊區"
"242025","613-BX","2018/10/20 17:59:32","新北市新莊區五工路82號","121.457473333333","25.0639066666667","6500500","新莊區"
"242029","612-BX","2018/10/20 17:59:37","新北市新莊區中平路110巷13號","121.445695","25.04614","6500500","新莊區"
"242044","566-BX","2018/10/20 17:59:31","新北市新莊區雙鳳路104-1號","121.414088333333","25.0280733333333","6500500","新莊區"
"242048","497-BY","2018/10/20 17:59:41","新北市新莊區萬安街55號","121.421423333333","25.02442","6500500","新莊區"
"242015","442-UM","2018/10/20 17:59:35","新北市新莊區中平路87巷4號","121.444525","25.04596","6500500","新莊區"
"242039","415-TV","2018/10/20 17:59:34","新北市新莊區民安路166號","121.424908333333","25.0240916666667","6500500","新莊區"
"242046","400-BY","2018/10/20 17:59:42","新北市新莊區福營路167號","121.43185","25.0311366666667","6500500","新莊區"
"242023","362-BY","2018/10/20 17:59:45","新北市新莊區福壽街65號","121.458223333333","25.0493016666667","6500500","新莊區"
"242061","353-BY","2018/10/20 17:59:37","新北市新莊區新樹路267號","121.434323333333","25.0209683333333","6500500","新莊區"
"242011","132-UY","2018/10/20 17:59:39","新北市新莊區中港路634號","121.450961666667","25.0553466666667","6500500","新莊區"
"242042","133-UY","2018/10/20 17:59:44","新北市新莊區中正路694巷10號","121.418458333333","25.0285033333333","6500500","新莊區"
"242034","135-UY","2018/10/20 17:59:48","新北市新莊區福海街17號","121.445245","25.033615","6500500","新莊區"
"242051","172-VK","2018/10/20 17:59:48","新北市新莊區西盛街153巷8號","121.428673333333","25.0179583333333","6500500","新莊區"
"242013","173-VK","2018/10/20 17:59:41","新北市新莊區中和街125巷1號","121.447196666667","25.0486033333333","6500500","新莊區"
"242019","175-VK","2018/10/20 17:59:46","新北市新莊區明中街49巷15號","121.456786666667","25.03893","6500500","新莊區"
"242007","176-VK","2018/10/20 17:59:39","新北市新莊區自信街75巷13號","121.4558","25.0488233333333","6500500","新莊區"
"242017","346-TH","2018/10/20 17:59:50","新北市新莊區中和街60巷33號","121.449341666667","25.0449716666667","6500500","新莊區"
"242009","347-TH","2018/10/20 17:59:43","新北市新莊區中華路二段260號","121.452571666667","25.05322","6500500","新莊區"
"242031","348-TH","2018/10/20 17:59:45","新北市新莊區新泰路289巷18號","121.444606666667","25.0406566666667","6500500","新莊區"
"242004","349-TH","2018/10/20 17:59:39","新北市新莊區福樂街72巷8號","121.458236666667","25.0466066666667","6500500","新莊區"
"242021","350-TH","2018/10/20 17:59:44","新北市新莊區建興街34號","121.450086666667","25.0373083333333","6500500","新莊區"
"238015","755-BX","2018/10/20 17:59:45","新北市樹林區大安路307巷1弄7號","121.418326666667","24.9922866666667","6500700","樹林區"
"238023","601-UM","2018/10/20 17:59:38","新北市樹林區龍興街57號","121.403381666667","25.0152283333333","6500700","樹林區"
"238019","599-UM","2018/10/20 17:59:45","新北市樹林區國凱街102號","121.422358333333","24.9798816666667","6500700","樹林區"
"238018","571-TV","2018/10/20 17:59:40","新北市樹林區中正路241號","121.430218333333","24.9985016666667","6500700","樹林區"
"238022","KEA-2213","2018/10/20 17:59:48","新北市樹林區太元街55號","121.418771666667","24.97897","6500700","樹林區"
"238021","KEA-2539","2018/10/20 17:59:47","新北市樹林區柑園街一段132巷12號","121.399395","24.9583133333333","6500700","樹林區"
"238025","303-VK","2018/10/20 17:59:37","新北市樹林區保安街二段261號","121.412978333333","25.0052283333333","6500700","樹林區"
"238017","283-BY","2018/10/20 17:59:48","新北市樹林區中正路837號","121.40911","25.0175166666667","6500700","樹林區"
"238014","282-BY","2018/10/20 17:59:35","新北市樹林區中正路59號","121.426546666667","24.99994","6500700","樹林區"
"238020","268-VK","2018/10/20 17:59:38","新北市樹林區三俊街199巷20弄1-1號","121.420566666667","25.0177866666667","6500700","樹林區"
"238026","172-UY","2018/10/20 17:59:40","新北市樹林區中洲街16號","121.397296666667","24.972345","6500700","樹林區"
"238016","169-UY","2018/10/20 17:59:38","新北市樹林區啟智街151巷5號","121.41656","24.987755","6500700","樹林區"
"239007","AAC-297","2018/10/20 17:59:30","新北市鶯歌區尖山埔路102號","121.347286666667","24.951165","6500800","鶯歌區"
"239006","891-R6","2018/10/20 17:59:36","新北市鶯歌區鶯桃路455巷8弄5號","121.33133","24.9641916666667","6500800","鶯歌區"
"239008","527-UM","2018/10/20 17:59:41","新北市鶯歌區國際一路112巷2號","121.335656666667","24.9767566666667","6500800","鶯歌區"
"239005","526-UM","2018/10/20 17:59:48","新北市鶯歌區鶯桃路668巷73號","121.329913333333","24.9717616666667","6500800","鶯歌區"
"239001","417-VK","2018/10/20 17:59:32","新北市鶯歌區中正二路192號","121.339573333333","24.9433183333333","6500800","鶯歌區"
"239003","360-BY","2018/10/20 17:59:51","新北市鶯歌區福安街34號","121.33489","24.963885","6500800","鶯歌區"
"239002","359-BY","2018/10/20 17:59:35","新北市鶯歌區中山路249巷4弄55號","121.347268333333","24.9565966666667","6500800","鶯歌區"
"239004","193-VK","2018/10/20 17:59:33","新北市鶯歌區尖山路101巷4弄6號","121.347883333333","24.9487116666667","6500800","鶯歌區"
"221036","130-UY","2018/10/20 17:59:35","新北市汐止區大同路三段259號","121.673603333333","25.0759966666667","6501100","汐止區"
"221015","131-UY","2018/10/20 17:59:44","新北市汐止區長江街286號","121.665186666667","25.0808866666667","6501100","汐止區"
"221010","269-BY","2018/10/20 17:59:36","新北市汐止區汐萬路二段245巷46號","121.644753333333","25.0877716666667","6501100","汐止區"
"221012","278-VK","2018/10/20 17:59:32","新北市汐止區長興街二段28號","121.673","25.0813233333333","6501100","汐止區"
"221023","279-VK","2018/10/20 17:59:48","新北市汐止區民族六街1巷1號","121.629088333333","25.0707883333333","6501100","汐止區"
"221032","280-BY","2018/10/20 17:59:46","新北市汐止區橫科路73巷1號","121.619325","25.0505916666667","6501100","汐止區"
"221027","281-BY","2018/10/20 17:59:44","新北市汐止區大同路二段374號","121.657788333333","25.0671483333333","6501100","汐止區"
"221029","298-VK","2018/10/20 17:59:43","新北市汐止區樟樹二路329號","121.641363333333","25.0703366666667","6501100","汐止區"
"221021","299-VK","2018/10/20 17:59:41","新北市汐止區新台五路一段201-1號","121.656218333333","25.0636783333333","6501100","汐止區"
"221031","353-TW","2018/10/20 17:59:45","新北市汐止區中興路181巷16弄12號","121.629596666667","25.0667166666667","6501100","汐止區"
"221035","622-UM","2018/10/20 17:59:46","新北市汐止區新江北路30巷22弄7號","121.651363333333","25.069795","6501100","汐止區"
"221025","623-UM","2018/10/20 17:59:43","新北市汐止區仁愛路12號","121.659486666667","25.0632483333333","6501100","汐止區"
"221038","646-BX","2018/10/20 17:59:47","新北市汐止區連興街128巷7弄9號","121.653543333333","25.0612033333333","6501100","汐止區"
"221033","647-BX","2018/10/20 17:59:44","新北市汐止區合順街21號","121.62013","25.0432133333333","6501100","汐止區"
"221018","753-BX","2018/10/20 17:59:48","新北市汐止區招商街11巷1號","121.666495","25.0688466666667","6501100","汐止區"
"242002","281-VK","2018/10/20 17:59:35","新北市新莊區中正路153-1號","121.455966666667","25.0367233333333","6500500","新莊區"
"242053","280-VK","2018/10/20 17:59:49","新北市新莊區光華街39號","121.42876","25.0112966666667","6500500","新莊區"
"235061","KEA-2875","2018/10/20 17:59:46","新北市中和區民利街28-3號","121.48004","24.999085","6500300","中和區"
