"lineid","car","time","location","longitude","latitude","cityid","cityname"
"234046","148-BY","2018/10/20 18:49:39","新北市永和區秀朗路二段126巷1號","121.524823333333","25.0012983333333","6500400","永和區"
"234007","207-UY","2018/10/20 18:49:33","新北市永和區文化路123號","121.512266666667","25.01533","6500400","永和區"
"234081","298-R6","2018/10/20 18:49:44","新北市永和區永利路100號","121.521055","25.0034983333333","6500400","永和區"
"234038","336-UY","2018/10/20 18:49:39","新北市永和區成功路二段32號","121.526715","25.0004516666667","6500400","永和區"
"234064","337-UY","2018/10/20 18:49:36","新北市永和區福和路1號","121.52635","25.00977","6500400","永和區"
"234086","338-UY","2018/10/20 18:49:36","新北市永和區中正路3-1號","121.513871666667","24.9954566666667","6500400","永和區"
"234070","552-UM","2018/10/20 18:49:42","新北市永和區豫溪街189巷1號","121.522545","25.0102933333333","6500400","永和區"
"234017","745-BX","2018/10/20 18:49:40","新北市永和區永和路二段299號","121.515993333333","25.0161366666667","6500400","永和區"
"234030","746-BX","2018/10/20 18:49:35","新北市永和區得和路321號","121.523371666667","24.999565","6500400","永和區"
"234054","KEA-2590","2018/10/20 18:49:37","新北市永和區豫溪街189巷1號","121.522565","25.0103183333333","6500400","永和區"
"234013","KEA-2591","2018/10/20 18:49:38","新北市永和區保福路二段118號","121.509833333333","25.01391","6500400","永和區"
"234061","AAD-866","2018/10/20 18:49:45","新北市永和區福和路309巷1號","121.516258333333","25.0070133333333","6500400","永和區"
"234042","862-TW","2018/10/20 18:49:41","新北市永和區永貞路306號","121.51191","25.004885","6500400","永和區"
"234050","863-TW","2018/10/20 18:49:38","新北市永和區福和路1號","121.526541666667","25.0102666666667","6500400","永和區"
"234026","9371-KE","2018/10/20 18:49:51","新北市永和區保生路55-1號","121.504526666667","25.0109166666667","6500400","永和區"
"234011","9373-KE","2018/10/20 18:49:40","新北市永和區仁愛路31巷2弄15號","121.51355","25.0127916666667","6500400","永和區"
"249005","172-UM","2018/10/20 18:49:47","新北市八里區長道坑17號","121.396273333333","25.11553","6502300","八里區"
"249001","173-UM","2018/10/20 18:49:46","","121.448111666667","25.1408583333333","6502300","八里區"
"248016","026-BX","2018/10/20 18:49:34","新北市五股區凌雲路一段149巷42號","121.448643333333","25.101005","6501500","五股區"
"248006","077-UY","2018/10/20 18:49:40","新北市五股區四維路1巷1號","121.46677","25.07005","6501500","五股區"
"248008","095-VK","2018/10/20 18:49:35","新北市五股區中興路一段151巷76號","121.465108333333","25.07181","6501500","五股區"
"248020","225-UY","2018/10/20 18:49:49","新北市五股區凌雲路三段田埔巷3-1號","121.433578333333","25.1190383333333","6501500","五股區"
"248012","247-BX","2018/10/20 18:49:41","新北市五股區成泰路二段149號","121.439066666667","25.0855766666667","6501500","五股區"
"248014","261-SL","2018/10/20 18:49:34","新北市五股區民義路一段107巷32號","121.431966666667","25.0848783333333","6501500","五股區"
"248010","272-BY","2018/10/20 18:49:31","新北市五股區水碓七路81號","121.42969","25.0722766666667","6501500","五股區"
"248004","677-BX","2018/10/20 18:49:33","新北市五股區民義路二段52-3號","121.410138333333","25.1046766666667","6501500","五股區"
"248002","678-BX","2018/10/20 18:49:38","新北市五股區成泰路三段435巷11號","121.449373333333","25.0979333333333","6501500","五股區"
"234023","9380-KE","2018/10/20 18:49:36","新北市永和區竹林路119巷45號","121.521903333333","25.0118566666667","6500400","永和區"
"234077","969-R7","2018/10/20 18:49:40","新北市永和區中正路42巷3號","121.513323333333","24.994215","6500400","永和區"
"234074","AAC-211","2018/10/20 18:49:40","新北市永和區福和路1號","121.52659","25.0098166666667","6500400","永和區"
"234003","AAC-295","2018/10/20 18:49:41","新北市永和區中正路736號","121.515316666667","25.010165","6500400","永和區"
"232011","375-UM","2018/10/20 18:49:45","新北市坪林區坪林街55號","121.7114","24.9375266666667","6502000","坪林區"
"244023","069-UM","2018/10/20 18:49:37","新北市林口區民享路36號","121.380826666667","25.0806116666667","6501700","林口區"
"244007","080-UY","2018/10/20 18:49:38","新北市林口區太平里5-13號","121.380313333333","25.1135766666667","6501700","林口區"
"244019","403-UM","2018/10/20 18:49:40","新北市林口區麗園二街87號","121.38269","25.0667616666667","6501700","林口區"
"244013","KEA-2802","2018/10/20 18:49:49","新北市林口區麗園一街6巷3-2號","121.376233333333","25.0699633333333","6501700","林口區"
"244017","485-VK","2018/10/20 18:49:50","新北市林口區文化二路一段20巷25弄4號","121.366046666667","25.0677283333333","6501700","林口區"
"244009","656-BX","2018/10/20 18:49:31","新北市林口區林口路362巷15號","121.392665","25.0843383333333","6501700","林口區"
"244011","701-TV","2018/10/20 18:49:44","新北市林口區仁愛路一段252號","121.394575","25.0759","6501700","林口區"
"244025","837-TS","2018/10/20 18:49:50","新北市林口區南勢街163號","121.359416666667","25.0749833333333","6501700","林口區"
"243013","AAD-798","2018/10/20 18:33:07","新北市泰山區明志路三段206巷8號","121.423358333333","25.038015","6501600","泰山區"
"243016","KEA-2801","2018/10/20 18:49:41","新北市泰山區明志路二段135號","121.42762","25.0507983333333","6501600","泰山區"
"243015","421-VK","2018/10/20 18:49:39","新北市泰山區美寧街57巷6號","121.430398333333","25.064825","6501600","泰山區"
"243011","KEA-2215","2018/10/20 18:49:49","新北市泰山區明志路二段43號","121.429501666667","25.052995","6501600","泰山區"
"243010","KEA-2216","2018/10/20 18:49:41","新北市泰山區辭修路34巷1號","121.428888333333","25.0580933333333","6501600","泰山區"
"243012","646-TV","2018/10/20 18:49:43","新北市泰山區福興三街11號","121.434498333333","25.0577783333333","6501600","泰山區"
"243014","680-BX","2018/10/20 18:49:43","新北市泰山區犁頭窠3-1號","121.422065","25.06058","6501600","泰山區"
"222003","436-BY","2018/10/20 18:49:42","新北市深坑區北深路一段355-1號","121.623025","25.00526","6501800","深坑區"
"222002","659-BX","2018/10/20 18:49:36","新北市深坑區文山路一段69號","121.626993333333","25.0018983333333","6501800","深坑區"
"231041","002-UM","2018/10/20 18:49:43","新北市新店區安華路28-1號","121.519731666667","24.9610083333333","6500600","新店區"
"231059","046-UY","2018/10/20 18:49:41","新北市新店區安華路28-1號","121.519658333333","24.960865","6500600","新店區"
"231040","047-UY","2018/10/20 18:49:41","新北市新店區中央路177-1號","121.535023333333","24.9695816666667","6500600","新店區"
"231046","107-UY","2018/10/20 18:49:35","新北市新店區直潭路65號","121.532616666667","24.94227","6500600","新店區"
"231052","108-UY","2018/10/20 18:49:42","新北市新店區湖子內路1號","121.54209","24.9300483333333","6500600","新店區"
"231048","187-VK","2018/10/20 18:49:41","新北市新店區光明街129號","121.539218333333","24.9619533333333","6500600","新店區"
"231054","KEA-2219","2018/10/20 18:49:43","新北市新店區秀山路72號","121.531451666667","24.9608533333333","6500600","新店區"
"231042","268-BY","2018/10/20 18:49:38","新北市新店區安康路一段35號","121.531826666667","24.9606733333333","6500600","新店區"
"231051","278-BY","2018/10/20 18:49:50","新北市新店區中央路63號","121.532298333333","24.9771766666667","6500600","新店區"
"231050","AAD-862","2018/10/20 18:49:47","新北市新店區北新路一段2-18號","121.538491666667","24.960175","6500600","新店區"
"231058","3713-VJ","2018/10/20 18:49:35","新北市新店區北宜路一段105巷4弄1號","121.539768333333","24.9556183333333","6500600","新店區"
"231066","4716-K9","2018/10/20 18:49:43","新北市新店區安一路一段1-1號","121.51939","24.96115","6500600","新店區"
"231056","4715-K9","2018/10/20 18:49:45","新北市新店區大同街22號","121.539248333333","24.980205","6500600","新店區"
"231067","4772-VM","2018/10/20 18:49:43","新北市新店區安華路28-1號","121.519283333333","24.9606383333333","6500600","新店區"
"231065","512-UM","2018/10/20 18:49:41","新北市新店區車子路20號","121.505458333333","24.9545733333333","6500600","新店區"
"231049","513-UM","2018/10/20 18:49:46","新北市新店區中央路45號","121.532883333333","24.97756","6500600","新店區"
"231044","618-UM","2018/10/20 18:49:47","新北市新店區中興路二段192號","121.548293333333","24.9734083333333","6500600","新店區"
"231061","619-UM","2018/10/20 18:49:38","新北市新店區安華路28-1號","121.519445","24.9607","6500600","新店區"
"231063","641-BX","2018/10/20 18:49:39","新北市新店區安華路1-1號","121.519695","24.9602833333333","6500600","新店區"
"231064","719-UM","2018/10/20 18:49:42","新北市新店區安一路一段1-1號","121.519503333333","24.961165","6500600","新店區"
"231062","720-UM","2018/10/20 18:49:44","新北市新店區安一路一段1-1號","121.519305","24.9611833333333","6500600","新店區"
"231060","897-TW","2018/10/20 18:49:41","新北市新店區安華路1-1號","121.519601666667","24.9604966666667","6500600","新店區"
"231045","898-TW","2018/10/20 18:49:37","新北市新店區安康路一段355號","121.520055","24.9636733333333","6500600","新店區"
"231043","899-TW","2018/10/20 18:49:39","新北市新店區安康路一段273號","121.524025","24.9634133333333","6500600","新店區"
"231055","AKT-0513","2018/10/20 18:49:45","新北市新店區新生街55號","121.538815","24.9669366666667","6500600","新店區"
"251014","742-BX","2018/10/20 18:49:43","新北市淡水區崙頂2號","121.492003333333","25.2239966666667","6501000","淡水區"
"235066","003-UY","2018/10/20 18:49:43","新北市中和區水源路16號","121.504023333333","25.0034866666667","6500300","中和區"
"235064","005-UY","2018/10/20 18:49:34","新北市中和區連城路96號","121.496615","25.000175","6500300","中和區"
"235063","006-UY","2018/10/20 18:49:43","新北市中和區連城路319巷11弄12號","121.48969","24.994925","6500300","中和區"
"235056","096-UM","2018/10/20 18:49:37","新北市中和區員山路514號","121.47911","25.00888","6500300","中和區"
"235039","097-UM","2018/10/20 18:49:48","新北市中和區宜安路52巷14號","121.512303333333","24.99719","6500300","中和區"
"235065","098-UM","2018/10/20 18:49:32","新北市中和區莊敬路33巷48號","121.500565","25.0070983333333","6500300","中和區"
"235040","150-BY","2018/10/20 18:49:31","新北市中和區宜安路41號","121.511811666667","24.9963616666667","6500300","中和區"
"235058","151-BY","2018/10/20 18:49:43","新北市中和區連城路573-1號","121.47883","24.99428","6500300","中和區"
"235055","183-VK","2018/10/20 18:49:45","新北市中和區民生街85巷5弄2號","121.469276666667","25.0040516666667","6500300","中和區"
"235038","185-VK","2018/10/20 18:49:44","新北市中和區大勇街39號","121.517513333333","24.9944316666667","6500300","中和區"
"235049","186-VK","2018/10/20 18:49:31","新北市中和區景安路130號","121.505081666667","24.994515","6500300","中和區"
"235067","255-BX","2018/10/20 18:49:47","","121.484503333333","25.0039983333333","6500300","中和區"
"235044","293-VK","2018/10/20 18:49:45","新北市中和區中興街129號","121.499986666667","24.9916033333333","6500300","中和區"
"235072","301-VK","2018/10/20 18:49:32","新北市中和區中山路二段31號","121.50477","25.0052616666667","6500300","中和區"
"235043","352-BY","2018/10/20 18:49:39","新北市中和區秀朗路三段175巷23號","121.525801666667","24.9908066666667","6500300","中和區"
"235042","KEA-2878","2018/10/20 18:49:51","新北市中和區秀朗路三段78巷1弄28號","121.525336666667","24.9933116666667","6500300","中和區"
"235050","4979-A6","2018/10/20 18:49:46","新北市中和區忠孝街62巷9弄1號","121.513133333333","24.9839183333333","6500300","中和區"
"235069","4980-A6","2018/10/20 18:49:48","新北市中和區泰和街2號","121.500016666667","25.0011616666667","6500300","中和區"
"235070","558-UM","2018/10/20 18:49:49","新北市中和區南山路7號","121.502071666667","24.999625","6500300","中和區"
"235045","565-BX","2018/10/20 18:49:40","新北市中和區復興路13號","121.50584","24.9897383333333","6500300","中和區"
"235054","640-BX","2018/10/20 18:49:50","新北市中和區自治街36號","121.475063333333","25.0032633333333","6500300","中和區"
"235060","647-TV","2018/10/20 18:49:34","新北市中和區中山路三段153號","121.473578333333","25.0061716666667","6500300","中和區"
"235047","732-UM","2018/10/20 18:49:41","新北市中和區興南路二段34巷57弄2號","121.504908333333","24.9857066666667","6500300","中和區"
"235071","783-BX","2018/10/20 18:49:46","新北市中和區員山路36巷16-2號","121.48535","24.9911616666667","6500300","中和區"
"235062","800-TS","2018/10/20 18:49:33","新北市中和區中山路二段312巷33弄27號","121.494755","25.00427","6500300","中和區"
"235052","805-TS","2018/10/20 18:49:50","新北市中和區興南路二段399巷98弄40號","121.49941","24.97702","6500300","中和區"
"235048","896-TW","2018/10/20 18:49:49","新北市中和區華新街34號","121.50783","24.98436","6500300","中和區"
"235053","900-TW","2018/10/20 18:49:31","新北市中和區華福街42巷14號","121.466305","24.99601","6500300","中和區"
"235057","911-UM","2018/10/20 18:49:45","新北市中和區民安街25巷15號","121.480611666667","25.0001133333333","6500300","中和區"
"235051","157-BY","2018/10/20 18:49:38","新北市中和區忠孝街106巷17號","121.512853333333","24.9844566666667","6500300","中和區"
"235037","AAC-213","2018/10/20 18:49:41","新北市中和區秀朗路三段175巷7號","121.52496","24.991495","6500300","中和區"
"235059","AAC-215","2018/10/20 18:49:37","新北市中和區圓通路393巷13號","121.48999","24.9885916666667","6500300","中和區"
"220068","013-TV","2018/10/20 18:49:45","新北市板橋區民生路二段121號","121.470935","25.018495","6500100","板橋區"
"220065","072-UY","2018/10/20 18:49:50","新北市板橋區民族路247巷5弄42號","121.470185","25.0084866666667","6500100","板橋區"
"220086","073-UY","2018/10/20 18:49:44","新北市板橋區大智街71巷15號","121.452938333333","25.0143216666667","6500100","板橋區"
"220106","075-UY","2018/10/20 18:49:48","新北市板橋區民生路二段120號","121.470483333333","25.019575","6500100","板橋區"
"220069","AAD-861","2018/10/20 18:49:40","新北市板橋區大華街28號","121.45896","25.0058433333333","6500100","板橋區"
"247010","056-VK","2018/10/20 18:49:51","新北市五股區中興路三段2巷10號","121.447625","25.0841566666667","6501400","蘆洲區"
"226004","312-R5","2018/10/20 18:49:46","新北市平溪區平溪里三坑路51號","121.73485","25.0295566666667","6502400","平溪區"
"235041","251-BX","2018/10/20 18:49:51","新北市中和區安平路155號","121.512306666667","24.9982516666667","6500300","中和區"
"228003","097-TW","2018/10/20 18:49:37","新北市貢寮區和美里龍洞街60號","121.913871666667","25.115725","6502600","貢寮區"
"228001","212-TW","2018/10/20 18:49:38","新北市貢寮區仁理村研海街12-1號","121.923801666667","25.0516633333333","6502600","貢寮區"
"228002","585-TW","2018/10/20 18:49:38","新北市貢寮區福隆里東興街6-11號","121.950708333333","25.0210566666667","6502600","貢寮區"
"224010","AGQ-8101","2018/10/20 18:47:02","新北市瑞芳區烏勢巷137號","121.846803333333","25.1076166666667","6501200","瑞芳區"
"224006","676-BX","2018/10/20 18:49:46","新北市瑞芳區中正路63號","121.806313333333","25.1073816666667","6501200","瑞芳區"
"224002","639-TC","2018/10/20 18:49:39","新北市瑞芳區靜安路四段36號","121.793131666667","25.1005683333333","6501200","瑞芳區"
"224008","285-BY","2018/10/20 18:49:46","新北市瑞芳區逢甲路321號","121.801116666667","25.111745","6501200","瑞芳區"
"224007","275-VK","2018/10/20 18:49:45","新北市瑞芳區大埔路東泰新村2號","121.761385","25.1011866666667","6501200","瑞芳區"
"224009","273-VK","2018/10/20 18:49:51","新北市瑞芳區長仁路40號","121.863333333333","25.1180566666667","6501200","瑞芳區"
"224005","271-BY","2018/10/20 18:49:46","新北市瑞芳區海濱路77-2號","121.830966666667","25.1233116666667","6501200","瑞芳區"
"227002","642-TC","2018/10/20 18:49:41","新北市雙溪區平林里梅竹蹊28號","121.861633333333","25.036035","6502500","雙溪區"
"227010","400-TW","2018/10/20 18:49:37","新北市雙溪區牡丹里聖南50-1號","121.854355","25.0554966666667","6502500","雙溪區"
"253006","032-BX","2018/10/20 18:49:43","新北市石門區下員坑15號","121.511783333333","25.2847133333333","6502200","石門區"
"253005","295-VK","2018/10/20 18:49:41","新北市石門區中山路28-3號","121.56582","25.2898766666667","6502200","石門區"
"222001","KEA-2212","2018/10/20 18:49:47","新北市深坑區北深路一段32號","121.638148333333","25.01049","6501800","深坑區"
"208002","KEA-2872","2018/10/20 18:49:37","新北市金山區信義路62號","121.635701666667","25.2189633333333","6502700","金山區"
"208003","665-BX","2018/10/20 18:49:34","新北市金山區中山路393號","121.633411666667","25.2252316666667","6502700","金山區"
"208001","761-BX","2018/10/20 18:49:43","新北市金山區文化三路66巷1號","121.63411","25.2256516666667","6502700","金山區"
"251009","008-UM","2018/10/20 18:49:44","新北市淡水區重建街180號","121.440828333333","25.174135","6501000","淡水區"
"251001","011-UM","2018/10/20 18:49:44","新北市淡水區自強路86號","121.462726666667","25.12827","6501000","淡水區"
"251002","012-UM","2018/10/20 18:49:44","新北市淡水區學府路79號","121.448521666667","25.1700716666667","6501000","淡水區"
"251013","KEA-2871","2018/10/20 18:49:46","新北市淡水區安子內5號","121.484088333333","25.2151183333333","6501000","淡水區"
"251016","179-VK","2018/10/20 18:49:48","新北市淡水區下圭柔山71-3號","121.447001666667","25.206185","6501000","淡水區"
"251015","180-VK","2018/10/20 18:49:52","新北市淡水區糞箕湖80號","121.485636666667","25.1722183333333","6501000","淡水區"
"251010","413-VK","2018/10/20 18:49:36","新北市淡水區沙崙路17號","121.421236666667","25.1813133333333","6501000","淡水區"
"251012","441-VK","2018/10/20 18:49:47","新北市淡水區新興街62號","121.441938333333","25.18","6501000","淡水區"
"251007","442-VK","2018/10/20 18:49:38","新北市淡水區中正東路二段161巷11弄10號","121.461456666667","25.145985","6501000","淡水區"
"251011","650-BX","2018/10/20 18:49:38","新北市淡水區學府路17號","121.447646666667","25.1683066666667","6501000","淡水區"
"251003","673-BX","2018/10/20 18:49:33","新北市淡水區中山北路一段186巷24號","121.446171666667","25.1786216666667","6501000","淡水區"
"207003","550-UM","2018/10/20 18:49:46","新北市萬里區大鵬里頂社1號","121.657005","25.20972","6502800","萬里區"
"207004","225-TW","2018/10/20 18:49:47","新北市萬里區萬里里獅頭路23號","121.693258333333","25.1782416666667","6502800","萬里區"
"252002","178-VK","2018/10/20 18:49:51","新北市三芝區中正路一段101-1號","121.504803333333","25.2563583333333","6502100","三芝區"
"252003","249-BX","2018/10/20 18:49:30","新北市三芝區後厝里大片頭76號","121.459295","25.245865","6502100","三芝區"
"252001","292-VK","2018/10/20 18:49:37","新北市三芝區中正路三段9號","121.502898333333","25.25396","6502100","三芝區"
"237007","153-BY","2018/10/20 18:49:50","新北市三峽區柑樹路6巷31號","121.36172","24.903695","6500900","三峽區"
"237013","252-BX","2018/10/20 18:49:32","新北市三峽區光明路69巷25號","121.376663333333","24.9291833333333","6500900","三峽區"
"237012","275-BY","2018/10/20 18:49:35","新北市三峽區三樹路255號","121.379035","24.9426883333333","6500900","三峽區"
"237008","302-VK","2018/10/20 18:49:41","新北市三峽區白雞35-6號","121.37693","24.9118683333333","6500900","三峽區"
"237014","433-BY","2018/10/20 18:49:52","新北市三峽區隆恩街158巷68號","121.364725","24.9448883333333","6500900","三峽區"
"237006","5529-G3","2018/10/20 18:49:34","新北市三峽區溪東路315巷5號","121.410933333333","24.93103","6500900","三峽區"
"237011","KEA-2596","2018/10/20 18:49:36","新北市三峽區溪東路89號","121.401368333333","24.9346266666667","6500900","三峽區"
"237016","649-BX","2018/10/20 18:49:35","新北市三峽區竹崙路36號","121.431435","24.9212783333333","6500900","三峽區"
"237010","706-TV","2018/10/20 18:49:51","新北市三峽區復興路271號","121.366385","24.9388966666667","6500900","三峽區"
"237005","AKY-6261","2018/10/20 18:49:40","新北市三峽區中山路459巷163-3號","121.348638333333","24.9329316666667","6500900","三峽區"
"236070","105-UM","2018/10/20 18:49:50","新北市土城區立清街61號","121.4602","24.9867483333333","6501300","土城區"
"236042","KED-0685","2018/10/20 18:49:36","新北市土城區學成路124號","121.449356666667","24.9892916666667","6501300","土城區"
"236079","166-UM","2018/10/20 18:49:42","新北市土城區中央路四段185巷59號","121.416833333333","24.9560116666667","6501300","土城區"
"236030","253-BX","2018/10/20 18:49:41","新北市土城區忠義路26巷19號","121.439788333333","24.9698716666667","6501300","土城區"
"236026","269-VK","2018/10/20 18:49:36","新北市土城區農豐街12-1號","121.442491666667","24.97392","6501300","土城區"
"236014","270-VK","2018/10/20 18:49:34","新北市土城區金城路二段354巷8號","121.460858333333","24.9845233333333","6501300","土城區"
"236038","271-VK","2018/10/20 18:49:31","新北市土城區明德路一段195巷3弄5號","121.464278333333","24.9785583333333","6501300","土城區"
"236021","401-BY","2018/10/20 18:49:47","新北市土城區延吉街251號","121.467678333333","24.9848266666667","6501300","土城區"
"236059","912-UM","2018/10/20 18:49:47","新北市土城區金城路二段10號","121.449065","24.9772683333333","6501300","土城區"
"236049","913-UM","2018/10/20 18:49:42","新北市土城區青雲路24號","121.459993333333","24.9887666666667","6501300","土城區"
"236063","915-UM","2018/10/20 18:49:48","","121.468668333333","24.9884466666667","6501300","土城區"
"236055","AAC-216","2018/10/20 18:49:35","新北市土城區裕民路222號","121.45352","24.9842816666667","6501300","土城區"
"242004","349-TH","2018/10/20 18:49:45","新北市新莊區三和路12-21號","121.442181666667","25.03834","6500500","新莊區"
"238023","601-UM","2018/10/20 18:49:38","新北市樹林區工興街14巷1號","121.398961666667","25.0136733333333","6500700","樹林區"
"238018","571-TV","2018/10/20 18:46:52","新北市樹林區太平路48號","121.41902","24.9825266666667","6500700","樹林區"
"238022","KEA-2213","2018/10/20 18:49:48","新北市樹林區太順街122號","121.414353333333","24.9768483333333","6500700","樹林區"
"238025","303-VK","2018/10/20 18:49:37","新北市樹林區中山路三段26號","121.395428333333","24.9729616666667","6500700","樹林區"
"238017","283-BY","2018/10/20 18:49:49","新北市樹林區光興街83-8號","121.409863333333","25.0026683333333","6500700","樹林區"
"238014","282-BY","2018/10/20 18:49:35","新北市樹林區大安路111巷25號","121.423201666667","24.9975766666667","6500700","樹林區"
"238020","268-VK","2018/10/20 18:49:38","新北市樹林區俊英街131號","121.424378333333","25.01135","6500700","樹林區"
"238026","172-UY","2018/10/20 18:49:40","新北市樹林區民和街1號","121.385178333333","24.9678533333333","6500700","樹林區"
"238016","169-UY","2018/10/20 18:49:38","新北市樹林區文化街23號","121.419285","24.9875733333333","6500700","樹林區"
"239007","AAC-297","2018/10/20 18:49:30","新北市鶯歌區中正一路221號","121.354046666667","24.9573716666667","6500800","鶯歌區"
"239006","891-R6","2018/10/20 18:49:36","新北市鶯歌區鶯桃路296巷53號","121.335836666667","24.9613316666667","6500800","鶯歌區"
"239008","527-UM","2018/10/20 18:49:40","新北市鶯歌區國際二路48號","121.33576","24.9757933333333","6500800","鶯歌區"
"239005","526-UM","2018/10/20 18:49:48","新北市鶯歌區大湖路361巷20號","121.330496666667","24.9779966666667","6500800","鶯歌區"
"239001","417-VK","2018/10/20 18:49:32","新北市鶯歌區永明街99號","121.341546666667","24.9565333333333","6500800","鶯歌區"
"239003","360-BY","2018/10/20 18:49:31","新北市鶯歌區鶯桃路559號","121.330253333333","24.96817","6500800","鶯歌區"
"239002","359-BY","2018/10/20 18:49:35","新北市鶯歌區中山路18號","121.352703333333","24.9570933333333","6500800","鶯歌區"
"239004","193-VK","2018/10/20 18:49:33","新北市鶯歌區中正三路228號","121.331253333333","24.9374083333333","6500800","鶯歌區"
"221036","130-UY","2018/10/20 18:49:41","新北市汐止區仁愛路311號","121.664706666667","25.0674733333333","6501100","汐止區"
"221015","131-UY","2018/10/20 18:49:44","新北市汐止區鄉長路一段55巷22號","121.664725","25.0763833333333","6501100","汐止區"
"221010","269-BY","2018/10/20 18:49:36","新北市汐止區康寧街901號","121.65154","25.07502","6501100","汐止區"
"221012","278-VK","2018/10/20 18:49:52","新北市汐止區康寧街901號","121.650781666667","25.0752183333333","6501100","汐止區"
"221023","279-VK","2018/10/20 18:49:32","新北市汐止區康寧街901號","121.651671666667","25.0748766666667","6501100","汐止區"
"221032","280-BY","2018/10/20 18:49:46","新北市汐止區橫科路121巷11弄5號","121.621891666667","25.0507216666667","6501100","汐止區"
"221027","281-BY","2018/10/20 18:49:44","新北市汐止區康寧街901號","121.651395","25.07497","6501100","汐止區"
"221029","298-VK","2018/10/20 18:49:43","新北市汐止區工建路42號","121.641401666667","25.0630633333333","6501100","汐止區"
"221031","353-TW","2018/10/20 18:49:46","新北市汐止區福德二路185號","121.630188333333","25.0648233333333","6501100","汐止區"
"221035","622-UM","2018/10/20 18:49:46","新北市汐止區汐萬路一段256巷3號","121.65242","25.0745333333333","6501100","汐止區"
"221025","623-UM","2018/10/20 18:49:43","新北市汐止區仁愛路36號","121.660715","25.0628333333333","6501100","汐止區"
"221038","646-BX","2018/10/20 18:49:47","新北市汐止區康寧街901號","121.65072","25.0752333333333","6501100","汐止區"
"221018","753-BX","2018/10/20 18:49:48","新北市汐止區茄苳路2巷1號","121.6646","25.0706833333333","6501100","汐止區"
"220079","145-BY","2018/10/20 18:49:47","新北市板橋區民權路202巷8弄1號","121.460125","25.0147966666667","6500100","板橋區"
"220080","200-UY","2018/10/20 18:40:57","新北市板橋區大觀路二段265巷130弄2號","121.442058333333","24.9963016666667","6500100","板橋區"
"220082","610-BX","2018/10/20 18:49:47","新北市板橋區篤行路三段玉平巷68弄2號","121.427991666667","24.9861716666667","6500100","板橋區"
"220101","245-BX","2018/10/20 18:49:35","新北市板橋區民生路二段120號","121.47039","25.0197866666667","6500100","板橋區"
"220103","257-TC","2018/10/20 18:49:32","新北市板橋區民生路二段161巷7號","121.4703","25.0197183333333","6500100","板橋區"
"220056","276-BY","2018/10/20 18:49:43","新北市板橋區四川路二段35號","121.454271666667","24.9954266666667","6500100","板橋區"
"220072","277-BY","2018/10/20 18:49:46","新北市板橋區大觀路三段36巷4號","121.433895","24.9959866666667","6500100","板橋區"
"220094","283-UM","2018/10/20 18:49:36","新北市板橋區民生路二段161巷3號","121.470111666667","25.0197416666667","6500100","板橋區"
"220071","283-VK","2018/10/20 18:49:36","新北市板橋區忠孝路176巷5弄2號","121.464706666667","25.0019483333333","6500100","板橋區"
"220053","285-VK","2018/10/20 18:49:52","新北市板橋區民生路二段89-4號","121.471021666667","25.018175","6500100","板橋區"
"220083","286-VK","2018/10/20 18:49:38","新北市板橋區僑中一街92號","121.447008333333","25.0116516666667","6500100","板橋區"
"220081","287-VK","2018/10/20 18:49:42","新北市板橋區光華街15巷17號","121.45333","25.0116616666667","6500100","板橋區"
"220090","288-VK","2018/10/20 18:49:49","新北市板橋區民生路二段120號","121.470461666667","25.01951","6500100","板橋區"
"220061","293-UM","2018/10/20 18:49:43","新北市板橋區介壽街119號","121.470566666667","25.0187416666667","6500100","板橋區"
"220062","295-UM","2018/10/20 18:49:49","新北市板橋區中山路二段26號","121.472573333333","25.01515","6500100","板橋區"
"220084","296-UM","2018/10/20 18:49:50","新北市板橋區大觀路二段152號","121.441616666667","24.9987233333333","6500100","板橋區"
"220075","303-R5","2018/10/20 18:49:41","新北市板橋區南興路1-1號","121.455233333333","25.00815","6500100","板橋區"
"220098","317-R6","2018/10/20 18:49:38","新北市板橋區民生路二段161巷9號","121.470325","25.01962","6500100","板橋區"
"220064","486-VK","2018/10/20 18:49:49","新北市板橋區民生路二段5號","121.472773333333","25.015845","6500100","板橋區"
"220089","487-VK","2018/10/20 18:49:46","新北市板橋區民生路二段161巷1號","121.46983","25.0199566666667","6500100","板橋區"
"220035","560-BX","2018/10/20 18:49:49","新北市板橋區中正路325巷3弄27號","121.454101666667","25.01838","6500100","板橋區"
"220063","609-BX","2018/10/20 18:49:36","新北市板橋區民生路二段89-4號","121.471056666667","25.0181583333333","6500100","板橋區"
"220091","637-BX","2018/10/20 18:49:44","新北市板橋區民生路二段161巷1號","121.470058333333","25.0200116666667","6500100","板橋區"
"220057","686-BX","2018/10/20 18:49:46","新北市板橋區館前東路29號","121.460751666667","25.0072766666667","6500100","板橋區"
"220077","687-BX","2018/10/20 18:49:50","新北市板橋區龍興街97巷2號","121.444236666667","25.0027066666667","6500100","板橋區"
"220054","741-BX","2018/10/20 18:49:47","新北市板橋區後埔街79號","121.46063","25.0053883333333","6500100","板橋區"
"220102","KEA-2699","2018/10/20 18:49:39","新北市板橋區民生路二段175號","121.469923333333","25.0202466666667","6500100","板橋區"
"220070","806-UM","2018/10/20 18:49:46","新北市板橋區四川路一段140號","121.459946666667","25.003795","6500100","板橋區"
"220055","827-TW","2018/10/20 18:49:48","新北市板橋區館前西路49號","121.45783","25.0066833333333","6500100","板橋區"
"220067","829-TW","2018/10/20 18:49:36","新北市板橋區中山路二段90巷47弄6號","121.47681","25.01477","6500100","板橋區"
"220096","831-TW","2018/10/20 18:49:29","新北市板橋區民生路二段161巷9號","121.470225","25.0196466666667","6500100","板橋區"
"220074","895-R6","2018/10/20 18:49:46","新北市板橋區林園街7-1號","121.453915","25.0091866666667","6500100","板橋區"
"220073","985-R7","2018/10/20 18:49:41","新北市板橋區光華街1巷1號","121.454108333333","25.011075","6500100","板橋區"
"220097","AAC-210","2018/10/20 18:41:53","台北市中正區金山南路一段123巷1號","121.527925","25.0359316666667","6500100","板橋區"
"235068","KEA-2873","2018/10/20 18:49:27","新北市中和區中正路211巷36弄6號","121.49712","24.9927816666667","6500300","中和區"
"235061","KEA-2875","2018/10/20 18:49:46","新北市中和區民享街49巷1號","121.4743","25.0028683333333","6500300","中和區"
"235046","KEA-2876","2018/10/20 18:49:38","新北市中和區仁愛街36巷44號","121.511325","24.9863016666667","6500300","中和區"
