"lineid","car","time","location","longitude","latitude","cityid","cityname"
"234046","148-BY","2018/10/20 18:59:49","新北市永和區得和路373巷31弄2號","121.524996666667","25.0005","6500400","永和區"
"234007","207-UY","2018/10/20 18:59:33","新北市永和區永和路二段70號","121.514885","25.01124","6500400","永和區"
"234081","298-R6","2018/10/20 18:59:48","新北市永和區永亨路83號","121.522005","25.00568","6500400","永和區"
"234038","336-UY","2018/10/20 18:59:39","新北市永和區成功路二段207號","121.52655","24.9959666666667","6500400","永和區"
"234064","337-UY","2018/10/20 18:59:36","新北市永和區秀朗路一段170號","121.518633333333","25.00334","6500400","永和區"
"234086","338-UY","2018/10/20 18:59:36","新北市永和區永利路18號","121.517988333333","25.00573","6500400","永和區"
"234070","552-UM","2018/10/20 18:59:42","新北市永和區中興街68巷5弄1號","121.517606666667","25.01147","6500400","永和區"
"234017","745-BX","2018/10/20 18:59:41","新北市永和區永和路二段285號","121.516065","25.0158383333333","6500400","永和區"
"234030","746-BX","2018/10/20 18:59:35","新北市永和區秀朗路二段264號","121.526101666667","24.9983666666667","6500400","永和區"
"234054","KEA-2590","2018/10/20 18:59:37","新北市永和區竹林路64號","121.518326666667","25.013585","6500400","永和區"
"234013","KEA-2591","2018/10/20 18:59:38","新北市永和區信義路17巷9弄1號","121.51397","25.0115883333333","6500400","永和區"
"234061","AAD-866","2018/10/20 18:59:45","新北市永和區福和路309巷3號","121.516328333333","25.0069683333333","6500400","永和區"
"234042","862-TW","2018/10/20 18:59:41","新北市永和區永貞路306號","121.511926666667","25.0048866666667","6500400","永和區"
"234050","863-TW","2018/10/20 18:59:48","新北市永和區文化路210號","121.51021","25.01672","6500400","永和區"
"234026","9371-KE","2018/10/20 18:59:51","新北市永和區安樂路451號","121.5143","25.0049483333333","6500400","永和區"
"234011","9373-KE","2018/10/20 18:59:46","新北市永和區文化路90巷39號","121.512665","25.01668","6500400","永和區"
"249005","172-UM","2018/10/20 18:59:47","新北市八里區長道坑13號","121.395608333333","25.1208216666667","6502300","八里區"
"249001","173-UM","2018/10/20 18:59:51","新北市八里區龍米路二段222號","121.43292","25.1584466666667","6502300","八里區"
"248016","026-BX","2018/10/20 18:59:34","新北市五股區成泰路三段543巷12弄11號","121.451295","25.1024016666667","6501500","五股區"
"248006","077-UY","2018/10/20 18:59:40","新北市五股區中興路一段57號","121.468001666667","25.072505","6501500","五股區"
"248008","095-VK","2018/10/20 18:59:35","新北市五股區中興路一段128巷55號","121.465656666667","25.0753333333333","6501500","五股區"
"248020","225-UY","2018/10/20 18:59:49","新北市五股區凌雲路三段57號","121.425215","25.12503","6501500","五股區"
"248012","247-BX","2018/10/20 18:59:41","新北市五股區中興路四段48巷16號","121.43857","25.0834666666667","6501500","五股區"
"248010","272-BY","2018/10/20 18:59:31","新北市五股區水碓二路1號","121.430598333333","25.071275","6501500","五股區"
"248004","677-BX","2018/10/20 18:59:33","新北市五股區民義路一段314號","121.421878333333","25.0958","6501500","五股區"
"248002","678-BX","2018/10/20 18:59:38","新北市五股區凌雲路一段93號","121.450536666667","25.1014683333333","6501500","五股區"
"234023","9380-KE","2018/10/20 18:59:36","新北市永和區竹林路75巷25弄3號","121.520091666667","25.014065","6500400","永和區"
"234077","969-R7","2018/10/20 18:59:40","新北市永和區得和路104巷6號","121.517995","24.9997983333333","6500400","永和區"
"234074","AAC-211","2018/10/20 18:59:40","新北市永和區豫溪街217巷3號","121.524721666667","25.00948","6500400","永和區"
"234067","AAC-212","2018/10/20 18:59:36","新北市永和區自由街49號","121.513908333333","25.0058333333333","6500400","永和區"
"234003","AAC-295","2018/10/20 18:59:41","新北市永和區和平街38號","121.513035","25.009915","6500400","永和區"
"232011","375-UM","2018/10/20 18:59:45","新北市坪林區水聳淒坑20-2號","121.711323333333","24.9339316666667","6502000","坪林區"
"244023","069-UM","2018/10/20 18:59:37","新北市林口區民權路151號","121.373611666667","25.0832866666667","6501700","林口區"
"244007","080-UY","2018/10/20 18:59:38","新北市林口區太平里5鄰27-2號","121.377171666667","25.1175316666667","6501700","林口區"
"244019","403-UM","2018/10/20 18:59:40","新北市林口區麗園二街1巷9-1號","121.378973333333","25.0700666666667","6501700","林口區"
"244013","KEA-2802","2018/10/20 18:59:49","新北市林口區麗園一街11巷5號","121.377758333333","25.07042","6501700","林口區"
"244017","485-VK","2018/10/20 18:59:30","新北市林口區文化二路一段68巷37號","121.366875","25.0691","6501700","林口區"
"244009","656-BX","2018/10/20 18:59:51","新北市林口區竹林路265-1號","121.389208333333","25.080435","6501700","林口區"
"244011","701-TV","2018/10/20 18:59:44","新北市林口區仁愛路一段285巷52號","121.395476666667","25.0746033333333","6501700","林口區"
"244025","837-TS","2018/10/20 18:59:50","新北市林口區文化北路一段370號","121.362303333333","25.0744833333333","6501700","林口區"
"243013","AAD-798","2018/10/20 18:59:42","新北市泰山區明志路三段245號","121.423451666667","25.0375683333333","6501600","泰山區"
"243009","297-R6","2018/10/20 18:59:47","新北市泰山區福德街2號","121.432378333333","25.0621333333333","6501600","泰山區"
"243016","KEA-2801","2018/10/20 18:59:41","新北市泰山區明志路二段137號","121.427645","25.050655","6501600","泰山區"
"243015","421-VK","2018/10/20 18:59:39","新北市泰山區泰林路二段303號","121.429995","25.0630566666667","6501600","泰山區"
"243011","KEA-2215","2018/10/20 18:59:49","新北市泰山區明志路二段289號","121.426736666667","25.04685","6501600","泰山區"
"243010","KEA-2216","2018/10/20 18:59:41","新北市泰山區辭修路26巷8號","121.429171666667","25.0584766666667","6501600","泰山區"
"243012","646-TV","2018/10/20 18:59:43","新北市泰山區明志路一段385號","121.430791666667","25.0577983333333","6501600","泰山區"
"243014","680-BX","2018/10/20 18:59:43","新北市泰山區泰林路二段595號","121.421706666667","25.06346","6501600","泰山區"
"222003","436-BY","2018/10/20 18:59:42","新北市深坑區深南路51-1號","121.621301666667","25.0101116666667","6501800","深坑區"
"222002","659-BX","2018/10/20 18:59:36","新北市深坑區文山路一段33號","121.629563333333","25.0037816666667","6501800","深坑區"
"231041","002-UM","2018/10/20 18:59:43","新北市新店區環河路62號","121.53708","24.962665","6500600","新店區"
"231059","046-UY","2018/10/20 18:59:41","新北市新店區安華路28-1號","121.519698333333","24.960915","6500600","新店區"
"231040","047-UY","2018/10/20 18:59:40","新北市新店區中正路429-1號","121.534096666667","24.97826","6500600","新店區"
"231046","107-UY","2018/10/20 18:59:35","新北市新店區直潭五街19號","121.534306666667","24.9410016666667","6500600","新店區"
"231052","108-UY","2018/10/20 18:59:42","新北市新店區新烏路二段50巷22號","121.54731","24.9271783333333","6500600","新店區"
"231048","187-VK","2018/10/20 18:59:41","新北市新店區德正街24號","121.543911666667","24.9721333333333","6500600","新店區"
"231054","KEA-2219","2018/10/20 18:59:43","新北市新店區新店路13號","121.540323333333","24.9528433333333","6500600","新店區"
"231042","268-BY","2018/10/20 18:59:38","新北市新店區中正路30號","121.545146666667","24.9696966666667","6500600","新店區"
"231051","278-BY","2018/10/20 18:59:30","新北市新店區百忍街36號","121.533798333333","24.9758016666667","6500600","新店區"
"231050","AAD-862","2018/10/20 18:59:47","新北市新店區北宜路二段52-1號","121.549223333333","24.951155","6500600","新店區"
"231058","3713-VJ","2018/10/20 18:59:35","新北市新店區中興路一段139號","121.542086666667","24.963685","6500600","新店區"
"231066","4716-K9","2018/10/20 18:59:43","新北市新店區安豐路23號","121.50131","24.956465","6500600","新店區"
"231056","4715-K9","2018/10/20 18:59:45","新北市新店區二十張路46巷37弄37號","121.535828333333","24.98136","6500600","新店區"
"231067","4772-VM","2018/10/20 18:59:43","新北市新店區安康路一段76巷10-1號","121.528506666667","24.9624133333333","6500600","新店區"
"231065","512-UM","2018/10/20 18:59:41","新北市新店區安祥路142號","121.474391666667","24.9554416666667","6500600","新店區"
"231049","513-UM","2018/10/20 18:59:46","新北市新店區中正路454-5號","121.534513333333","24.9789866666667","6500600","新店區"
"231044","618-UM","2018/10/20 18:59:47","新北市新店區寶中路72號","121.547876666667","24.9805716666667","6500600","新店區"
"231061","619-UM","2018/10/20 18:59:38","新北市新店區安華路28-1號","121.519671666667","24.9607133333333","6500600","新店區"
"231063","641-BX","2018/10/20 18:59:39","新北市新店區安忠路57巷11弄14號","121.5154","24.9579483333333","6500600","新店區"
"231064","719-UM","2018/10/20 18:59:42","新北市新店區安一路一段1-1號","121.519515","24.9611666666667","6500600","新店區"
"231062","720-UM","2018/10/20 18:59:44","新北市新店區安豐路60-1號","121.497998333333","24.953745","6500600","新店區"
"231060","897-TW","2018/10/20 18:59:41","新北市新店區安華路30巷12-1號","121.51859","24.9581566666667","6500600","新店區"
"231045","898-TW","2018/10/20 18:59:37","新北市新店區北新路一段2-18號","121.538531666667","24.9601266666667","6500600","新店區"
"231043","899-TW","2018/10/20 18:59:39","新北市新店區北新路二段1號","121.542656666667","24.9712166666667","6500600","新店區"
"231055","AKT-0513","2018/10/20 18:59:45","新北市新店區新生街10巷14號","121.54067","24.966505","6500600","新店區"
"251014","742-BX","2018/10/20 18:59:43","新北市淡水區小中寮32-1號","121.491886666667","25.2264283333333","6501000","淡水區"
"241035","KEA-2210","2018/10/20 18:59:43","新北市三重區重新路四段65-7號","121.48676","25.0576333333333","6500200","三重區"
"241029","942-UM","2018/10/20 18:59:36","新北市三重區重安街14號","121.490303333333","25.058165","6500200","三重區"
"235066","003-UY","2018/10/20 18:59:43","新北市中和區中山路二段131巷5弄5號","121.502873333333","25.00289","6500300","中和區"
"235064","005-UY","2018/10/20 18:59:34","新北市中和區中和路47號","121.500143333333","25.0013833333333","6500300","中和區"
"235063","006-UY","2018/10/20 18:59:43","新北市中和區中正路537號","121.487691666667","24.9942516666667","6500300","中和區"
"235056","096-UM","2018/10/20 18:59:37","新北市中和區新民街94巷18號","121.481493333333","25.009225","6500300","中和區"
"235039","097-UM","2018/10/20 18:59:48","新北市永和區中正路129巷2號","121.515945","24.9979","6500300","中和區"
"235065","098-UM","2018/10/20 18:59:51","新北市中和區福祥路158號","121.498655","25.007755","6500300","中和區"
"235040","150-BY","2018/10/20 18:59:31","新北市中和區宜安路23巷1號","121.512781666667","24.9957366666667","6500300","中和區"
"235058","151-BY","2018/10/20 18:59:42","新北市中和區連城路569巷2號","121.479278333333","24.9942983333333","6500300","中和區"
"235055","183-VK","2018/10/20 18:59:45","新北市中和區德光路73號","121.469525","25.003745","6500300","中和區"
"235038","185-VK","2018/10/20 18:59:44","新北市中和區立人街12號","121.51933","24.9942716666667","6500300","中和區"
"235049","186-VK","2018/10/20 18:59:51","新北市中和區景安路167巷11號","121.506158333333","24.9947583333333","6500300","中和區"
"235067","255-BX","2018/10/20 18:59:47","新北市中和區民樂路72號","121.484235","25.0012133333333","6500300","中和區"
"235044","293-VK","2018/10/20 18:59:45","新北市中和區中興街161巷10弄2號","121.501208333333","24.9909016666667","6500300","中和區"
"235072","301-VK","2018/10/20 18:59:51","新北市中和區中山路二段259號","121.497141666667","25.0022883333333","6500300","中和區"
"235043","352-BY","2018/10/20 18:59:39","新北市中和區成功路64號","121.526001666667","24.9921366666667","6500300","中和區"
"235042","KEA-2878","2018/10/20 18:59:51","新北市中和區秀朗路三段128巷36弄2號","121.5248","24.9937683333333","6500300","中和區"
"235050","4979-A6","2018/10/20 18:59:48","新北市中和區華新街50巷4號","121.507756666667","24.9840116666667","6500300","中和區"
"235069","4980-A6","2018/10/20 18:59:47","新北市中和區景平路618巷3號","121.500825","24.997175","6500300","中和區"
"235070","558-UM","2018/10/20 18:59:49","新北市中和區安和路163號","121.506155","24.997475","6500300","中和區"
"235045","565-BX","2018/10/20 18:59:40","新北市中和區景新街467巷4號","121.513656666667","24.9881666666667","6500300","中和區"
"235054","640-BX","2018/10/20 18:59:51","新北市中和區民享街86巷29號","121.472906666667","25.0004366666667","6500300","中和區"
"235060","647-TV","2018/10/20 18:59:47","新北市中和區民治街134巷2-2號","121.475323333333","25.0021583333333","6500300","中和區"
"235047","732-UM","2018/10/20 18:59:41","新北市中和區興南路二段54巷2-8號","121.506011666667","24.9855483333333","6500300","中和區"
"235071","783-BX","2018/10/20 18:59:46","新北市中和區員山路36巷16-2號","121.485371666667","24.991155","6500300","中和區"
"235062","800-TS","2018/10/20 18:59:33","新北市中和區橋安街1號","121.492705","25.0030483333333","6500300","中和區"
"235052","805-TS","2018/10/20 18:59:48","新北市中和區興南路二段134號","121.504231666667","24.9833383333333","6500300","中和區"
"235048","896-TW","2018/10/20 18:59:49","新北市中和區華新街134號","121.508133333333","24.9826466666667","6500300","中和區"
"235053","900-TW","2018/10/20 18:59:51","新北市中和區和平路200巷35弄1號","121.46534","24.9945783333333","6500300","中和區"
"235057","911-UM","2018/10/20 18:59:45","新北市中和區民利街69號","121.478716666667","24.9983833333333","6500300","中和區"
"235051","157-BY","2018/10/20 18:59:38","新北市中和區忠孝街31巷33弄2號","121.509733333333","24.98456","6500300","中和區"
"235037","AAC-213","2018/10/20 18:59:41","新北市中和區自立路99巷13號","121.522681666667","24.99477","6500300","中和區"
"235059","AAC-215","2018/10/20 18:59:37","新北市中和區圓通路367巷20弄29號","121.491331666667","24.9882066666667","6500300","中和區"
"220068","013-TV","2018/10/20 18:59:45","新北市板橋區中山路二段443巷76號","121.481093333333","25.0222683333333","6500100","板橋區"
"220065","072-UY","2018/10/20 18:59:50","新北市中和區中山路三段218號","121.471268333333","25.006805","6500100","板橋區"
"220086","073-UY","2018/10/20 18:59:45","新北市板橋區中正路80巷5號","121.457025","25.0146083333333","6500100","板橋區"
"220106","075-UY","2018/10/20 18:59:48","新北市板橋區莒光路38號","121.470368333333","25.0245116666667","6500100","板橋區"
"220069","AAD-861","2018/10/20 18:59:49","新北市板橋區東興街19號","121.458368333333","25.0052783333333","6500100","板橋區"
"226004","312-R5","2018/10/20 18:59:46","新北市平溪區平溪里平溪街20號","121.738791666667","25.0252066666667","6502400","平溪區"
"235041","251-BX","2018/10/20 18:59:49","新北市中和區宜安路141號","121.509338333333","24.9984466666667","6500300","中和區"
"228003","097-TW","2018/10/20 18:59:37","新北市貢寮區和美里龍洞街60號","121.91335","25.11524","6502600","貢寮區"
"228001","212-TW","2018/10/20 18:59:38","新北市貢寮區仁理村研海街12-1號","121.923786666667","25.0516683333333","6502600","貢寮區"
"228002","585-TW","2018/10/20 18:59:38","新北市貢寮區福隆里東興街106巷25弄1號","121.946491666667","25.018355","6502600","貢寮區"
"224010","AGQ-8101","2018/10/20 18:59:42","新北市瑞芳區基山街27號","121.845415","25.10928","6501200","瑞芳區"
"224006","676-BX","2018/10/20 18:59:37","新北市瑞芳區中正路4號","121.808901666667","25.1070633333333","6501200","瑞芳區"
"224002","639-TC","2018/10/20 18:59:39","新北市瑞芳區靜安路四段5號","121.795676666667","25.0792166666667","6501200","瑞芳區"
"224008","285-BY","2018/10/20 18:59:46","新北市瑞芳區瑞芳街82-1號","121.802988333333","25.1099666666667","6501200","瑞芳區"
"224007","275-VK","2018/10/20 18:59:45","新北市瑞芳區中央路48巷吉祥園8號","121.759503333333","25.1036866666667","6501200","瑞芳區"
"224009","273-VK","2018/10/20 18:59:31","新北市瑞芳區洞頂路101巷56號","121.860483333333","25.1219633333333","6501200","瑞芳區"
"224005","271-BY","2018/10/20 18:59:35","新北市瑞芳區瑞芳街32-9號","121.82286","25.1209283333333","6501200","瑞芳區"
"227002","642-TC","2018/10/20 18:59:41","新北市雙溪區平林里康福家園9號","121.858685","25.0372666666667","6502500","雙溪區"
"227010","400-TW","2018/10/20 18:59:37","新北市雙溪區牡丹里中正路58巷23號","121.866441666667","25.041645","6502500","雙溪區"
"253006","032-BX","2018/10/20 18:59:47","新北市石門區八甲9號","121.521713333333","25.2817633333333","6502200","石門區"
"253005","295-VK","2018/10/20 18:59:41","新北市石門區尖子鹿76號","121.571263333333","25.2968416666667","6502200","石門區"
"222001","KEA-2212","2018/10/20 18:59:47","新北市深坑區北深路一段300號","121.624158333333","25.0057283333333","6501800","深坑區"
"208002","KEA-2872","2018/10/20 18:59:37","新北市金山區仁愛路37-24號","121.635568333333","25.2205833333333","6502700","金山區"
"208003","665-BX","2018/10/20 18:59:34","新北市金山區中正路32號","121.63537","25.22215","6502700","金山區"
"208001","761-BX","2018/10/20 18:59:43","新北市金山區民生路51巷1-2號","121.64197","25.220245","6502700","金山區"
"251009","008-UM","2018/10/20 18:59:44","新北市淡水區重建街87號","121.439723333333","25.1724983333333","6501000","淡水區"
"251001","011-UM","2018/10/20 18:59:44","新北市淡水區自強路58號","121.463166666667","25.1275516666667","6501000","淡水區"
"251002","012-UM","2018/10/20 18:59:44","新北市淡水區中正東路45-1號","121.446505","25.16798","6501000","淡水區"
"251013","KEA-2871","2018/10/20 18:59:46","新北市淡水區安子內12-1號","121.481511666667","25.2190966666667","6501000","淡水區"
"251016","179-VK","2018/10/20 18:59:48","新北市淡水區淡金路三段325號","121.44894","25.2060566666667","6501000","淡水區"
"251015","180-VK","2018/10/20 18:59:32","新北市淡水區糞箕湖84號","121.485518333333","25.1724416666667","6501000","淡水區"
"251010","413-VK","2018/10/20 18:59:36","新北市淡水區沙崙路97號","121.422105","25.1824783333333","6501000","淡水區"
"251007","442-VK","2018/10/20 18:59:38","新北市淡水區民生路113巷1弄53號","121.462398333333","25.13851","6501000","淡水區"
"251003","673-BX","2018/10/20 18:59:33","新北市淡水區中山北路一段149巷24號","121.443","25.1779733333333","6501000","淡水區"
"207003","550-UM","2018/10/20 18:59:43","新北市萬里區大鵬里頂社40號","121.656078333333","25.2113316666667","6502800","萬里區"
"207004","225-TW","2018/10/20 18:59:47","新北市萬里區萬里里獅頭路23號","121.693256666667","25.1782766666667","6502800","萬里區"
"252002","178-VK","2018/10/20 18:59:51","新北市三芝區中正路一段50號","121.503468333333","25.2581316666667","6502100","三芝區"
"252003","249-BX","2018/10/20 18:59:49","新北市三芝區後厝里北勢子42-1號","121.47188","25.2522683333333","6502100","三芝區"
"252001","292-VK","2018/10/20 18:59:37","新北市三芝區中興街二段260號","121.501743333333","25.2530266666667","6502100","三芝區"
"237007","153-BY","2018/10/20 18:59:51","新北市三峽區大埔路181號","121.366835","24.9050733333333","6500900","三峽區"
"237013","252-BX","2018/10/20 18:59:32","新北市三峽區光明路69巷24號","121.376658333333","24.9290966666667","6500900","三峽區"
"237012","275-BY","2018/10/20 18:59:35","新北市三峽區三樹路222巷254弄1號","121.390813333333","24.9439416666667","6500900","三峽區"
"237008","302-VK","2018/10/20 18:59:41","新北市三峽區正義街206號","121.368066666667","24.9139916666667","6500900","三峽區"
"237014","433-BY","2018/10/20 18:59:32","新北市三峽區隆恩街236號","121.357765","24.941155","6500900","三峽區"
"237006","5529-G3","2018/10/20 18:59:34","新北市三峽區溪東路233巷4弄19號","121.407236666667","24.93378","6500900","三峽區"
"237011","KEA-2596","2018/10/20 18:59:35","新北市三峽區介壽路三段231-3號","121.40492","24.9460116666667","6500900","三峽區"
"237016","649-BX","2018/10/20 18:59:35","新北市三峽區建安25-3號","121.445521666667","24.9273266666667","6500900","三峽區"
"237010","706-TV","2018/10/20 18:59:31","新北市三峽區國光街105號","121.37309","24.9389916666667","6500900","三峽區"
"237005","AKY-6261","2018/10/20 18:59:40","新北市三峽區中山路459巷163-3號","121.348651666667","24.932915","6500900","三峽區"
"236070","105-UM","2018/10/20 18:59:50","新北市土城區裕民路226-1號","121.45375","24.98402","6501300","土城區"
"236042","KED-0685","2018/10/20 18:59:32","新北市土城區裕民路114巷11號","121.450636666667","24.9859866666667","6501300","土城區"
"236079","166-UM","2018/10/20 18:59:42","新北市土城區中央路四段125巷2弄7號","121.416525","24.9570483333333","6501300","土城區"
"236030","253-BX","2018/10/20 18:59:41","新北市土城區慶利街9號","121.439593333333","24.9736516666667","6501300","土城區"
"236026","269-VK","2018/10/20 18:59:36","新北市土城區光明街45號","121.442146666667","24.9736583333333","6501300","土城區"
"236014","270-VK","2018/10/20 18:59:34","新北市土城區延和路13巷14號","121.463628333333","24.9885066666667","6501300","土城區"
"236038","271-VK","2018/10/20 18:59:51","新北市土城區仁愛路20-3號","121.46106","24.980035","6501300","土城區"
"236021","401-BY","2018/10/20 18:59:46","新北市土城區延吉街168巷9號","121.468106666667","24.9857933333333","6501300","土城區"
"236059","912-UM","2018/10/20 18:59:47","新北市土城區金城路二段200號","121.454985","24.98182","6501300","土城區"
"236049","913-UM","2018/10/20 18:59:44","新北市土城區明德路一段288-1號","121.456918333333","24.9776016666667","6501300","土城區"
"236063","915-UM","2018/10/20 18:59:48","新北市土城區延和路41巷15號","121.465923333333","24.9899133333333","6501300","土城區"
"236055","AAC-216","2018/10/20 18:59:35","新北市土城區學成路164號","121.448041666667","24.9891466666667","6501300","土城區"
"242004","349-TH","2018/10/20 18:59:45","新北市新莊區三和路12-21號","121.442096666667","25.03858","6500500","新莊區"
"238023","601-UM","2018/10/20 18:59:38","新北市樹林區大慶街120號","121.395958333333","25.01351","6500700","樹林區"
"238019","599-UM","2018/10/20 18:59:45","新北市樹林區鎮前街465巷55弄32號","121.412846666667","24.9820066666667","6500700","樹林區"
"238018","571-TV","2018/10/20 18:46:52","新北市樹林區太平路48號","121.41902","24.9825266666667","6500700","樹林區"
"238022","KEA-2213","2018/10/20 18:59:48","新北市樹林區東興街16巷6弄2號","121.409058333333","24.9781183333333","6500700","樹林區"
"238021","KEA-2539","2018/10/20 18:57:44","新北市樹林區柑園街二段276巷30號","121.37213","24.9534483333333","6500700","樹林區"
"238025","303-VK","2018/10/20 18:59:37","新北市樹林區中山路三段76號","121.393616666667","24.9723583333333","6500700","樹林區"
"238017","283-BY","2018/10/20 18:59:49","新北市樹林區光興街50號","121.409823333333","25.00269","6500700","樹林區"
"238014","282-BY","2018/10/20 18:59:35","新北市樹林區千歲街61巷10號","121.42598","24.9983033333333","6500700","樹林區"
"238020","268-VK","2018/10/20 18:59:38","新北市樹林區俊英街186號","121.426081666667","25.00777","6500700","樹林區"
"238026","172-UY","2018/10/20 18:59:40","新北市樹林區中和街14巷3號","121.39088","24.9733933333333","6500700","樹林區"
"238016","169-UY","2018/10/20 18:59:38","新北市樹林區文化街23號","121.419335","24.9876183333333","6500700","樹林區"
"239007","AAC-297","2018/10/20 18:59:30","新北市鶯歌區中山路138巷13號","121.351108333333","24.9590783333333","6500800","鶯歌區"
"239006","891-R6","2018/10/20 18:59:39","新北市鶯歌區鶯桃路296巷84弄31號","121.337465","24.9613566666667","6500800","鶯歌區"
"239008","527-UM","2018/10/20 18:59:34","新北市鶯歌區國際二路14巷16號","121.33816","24.975005","6500800","鶯歌區"
"239005","526-UM","2018/10/20 18:59:48","新北市鶯歌區中湖街16號","121.346706666667","24.9728116666667","6500800","鶯歌區"
"239001","417-VK","2018/10/20 18:59:51","新北市鶯歌區永智街43巷46號","121.337401666667","24.95369","6500800","鶯歌區"
"239003","360-BY","2018/10/20 18:59:31","新北市鶯歌區德昌二街71號","121.333356666667","24.9581","6500800","鶯歌區"
"239002","359-BY","2018/10/20 18:59:35","新北市鶯歌區中山路121號","121.34989","24.9569066666667","6500800","鶯歌區"
"239004","193-VK","2018/10/20 18:59:32","新北市鶯歌區中正三路406巷16弄2號","121.32518","24.93567","6500800","鶯歌區"
"221036","130-UY","2018/10/20 18:59:35","新北市汐止區汐萬路一段256巷3號","121.652456666667","25.074555","6501100","汐止區"
"221015","131-UY","2018/10/20 18:59:24","新北市汐止區大同路二段364號","121.65749","25.0671916666667","6501100","汐止區"
"221010","269-BY","2018/10/20 18:59:36","新北市汐止區康寧街901號","121.651355","25.074985","6501100","汐止區"
"221012","278-VK","2018/10/20 18:59:32","新北市汐止區康寧街901號","121.650818333333","25.0752533333333","6501100","汐止區"
"221023","279-VK","2018/10/20 18:56:33","新北市汐止區康寧街901號","121.651678333333","25.07488","6501100","汐止區"
"221032","280-BY","2018/10/20 18:59:46","新北市汐止區橫科路407巷21號","121.62567","25.0481283333333","6501100","汐止區"
"221027","281-BY","2018/10/20 18:59:44","新北市汐止區康寧街901號","121.651401666667","25.074965","6501100","汐止區"
"221029","298-VK","2018/10/20 18:59:43","新北市汐止區樟樹一路256號","121.642413333333","25.0673216666667","6501100","汐止區"
"221031","353-TW","2018/10/20 18:59:46","新北市汐止區福德三路133號","121.633225","25.0675016666667","6501100","汐止區"
"221025","623-UM","2018/10/20 18:59:43","新北市汐止區汐萬路一段256巷3號","121.653313333333","25.0746183333333","6501100","汐止區"
"221038","646-BX","2018/10/20 18:59:47","新北市汐止區汐萬路一段312號","121.650655","25.0752783333333","6501100","汐止區"
"221002","707-TV","2018/10/20 18:59:37","台北市南港區南港路一段2號","121.620401666667","25.05489","6501100","汐止區"
"221018","753-BX","2018/10/20 18:59:48","新北市汐止區汐萬路一段256巷3號","121.652361666667","25.0745533333333","6501100","汐止區"
"220079","145-BY","2018/10/20 18:59:43","新北市板橋區民權路202巷12弄1號","121.460576666667","25.0157166666667","6500100","板橋區"
"220080","200-UY","2018/10/20 18:59:25","新北市板橋區大觀路二段265巷66弄6號","121.442293333333","24.9971483333333","6500100","板橋區"
"220082","610-BX","2018/10/20 18:59:47","新北市樹林區博愛街115號","121.426495","24.990825","6500100","板橋區"
"220101","245-BX","2018/10/20 18:59:35","新北市板橋區莊敬路139號","121.47176","25.0251016666667","6500100","板橋區"
"220103","257-TC","2018/10/20 18:59:32","新北市板橋區介壽街82號","121.469796666667","25.0189116666667","6500100","板橋區"
"220056","276-BY","2018/10/20 18:59:43","新北市板橋區信義路116號","121.458356666667","24.992555","6500100","板橋區"
"220072","277-BY","2018/10/20 18:59:46","新北市板橋區金門街369巷29號","121.429028333333","24.9844833333333","6500100","板橋區"
"220094","283-UM","2018/10/20 18:59:36","新北市板橋區文化路二段76號","121.469393333333","25.0249683333333","6500100","板橋區"
"220071","283-VK","2018/10/20 18:59:43","新北市板橋區重慶路243號","121.46321","25.00069","6500100","板橋區"
"220053","285-VK","2018/10/20 18:59:32","新北市板橋區成功路2-1號","121.475598333333","25.0168466666667","6500100","板橋區"
"220083","286-VK","2018/10/20 18:59:38","新北市板橋區大觀路一段38巷182號","121.441518333333","25.0046533333333","6500100","板橋區"
"220081","287-VK","2018/10/20 18:59:47","新北市板橋區光華街34號","121.453811666667","25.0126383333333","6500100","板橋區"
"220090","288-VK","2018/10/20 18:59:49","新北市板橋區四維路177巷2弄1號","121.46397","25.0262116666667","6500100","板橋區"
"220061","293-UM","2018/10/20 18:59:43","新北市板橋區富山街109巷70號","121.475325","25.0213","6500100","板橋區"
"220062","295-UM","2018/10/20 18:59:46","新北市板橋區三民路二段245巷1號","121.47935","25.0125633333333","6500100","板橋區"
"220084","296-UM","2018/10/20 18:59:50","新北市板橋區大觀路二段281號","121.442475","24.9988666666667","6500100","板橋區"
"220075","303-R5","2018/10/20 18:59:49","新北市板橋區後菜園街47號","121.456108333333","25.00999","6500100","板橋區"
"220092","307-R5","2018/10/20 18:59:41","新北市板橋區文化路一段104巷1弄18號","121.465393333333","25.0179033333333","6500100","板橋區"
"220098","317-R6","2018/10/20 18:59:38","新北市板橋區民有街17號","121.466155","25.0249566666667","6500100","板橋區"
"220064","486-VK","2018/10/20 18:59:36","新北市板橋區中山路一段283巷2弄23號","121.470533333333","25.015265","6500100","板橋區"
"220089","487-VK","2018/10/20 18:59:46","新北市板橋區文化路二段464號","121.474746666667","25.0326016666667","6500100","板橋區"
"220088","491-VK","2018/10/20 18:59:44","新北市板橋區民生路二段232-14號","121.468831666667","25.022235","6500100","板橋區"
"220035","560-BX","2018/10/20 18:59:50","新北市板橋區中正路379巷3弄6號","121.453225","25.0213433333333","6500100","板橋區"
"220063","609-BX","2018/10/20 18:59:39","新北市板橋區中山路二段126號","121.476236666667","25.0169016666667","6500100","板橋區"
"220091","637-BX","2018/10/20 18:59:44","新北市板橋區雙十路二段47巷1號","121.4763","25.0260816666667","6500100","板橋區"
"220057","686-BX","2018/10/20 18:59:32","新北市板橋區重慶路202號","121.462645","25.002655","6500100","板橋區"
"220077","687-BX","2018/10/20 18:59:50","新北市板橋區大觀路二段146-2號","121.44204","24.9988783333333","6500100","板橋區"
"220093","689-BX","2018/10/20 18:59:47","新北市板橋區民生路三段120-2號","121.46629","25.026675","6500100","板橋區"
"220054","741-BX","2018/10/20 18:59:47","新北市板橋區重慶路95號","121.46213","25.0057083333333","6500100","板橋區"
"220102","KEA-2699","2018/10/20 18:59:47","新北市板橋區懷德街233巷6號","121.480881666667","25.0286183333333","6500100","板橋區"
"220070","806-UM","2018/10/20 18:59:41","新北市板橋區四川路一段489號","121.45708","24.9971233333333","6500100","板橋區"
"220055","827-TW","2018/10/20 18:59:51","新北市板橋區中山路一段158號","121.466045","25.0117766666667","6500100","板橋區"
"220067","829-TW","2018/10/20 18:59:35","新北市板橋區三民路二段154巷11號","121.478771666667","25.0149833333333","6500100","板橋區"
"220096","831-TW","2018/10/20 18:59:29","新北市板橋區莒光路146號","121.473375","25.0239066666667","6500100","板橋區"
"220074","895-R6","2018/10/20 18:59:45","新北市板橋區文昌街1號","121.45598","25.0101466666667","6500100","板橋區"
"220073","985-R7","2018/10/20 18:59:47","新北市板橋區民權路227-1號","121.457546666667","25.0154566666667","6500100","板橋區"
"220097","AAC-210","2018/10/20 18:59:33","新北市板橋區文化路一段88號","121.464405","25.0174883333333","6500100","板橋區"
"235068","KEA-2873","2018/10/20 18:59:27","新北市中和區圓通路192號","121.496393333333","24.9943733333333","6500300","中和區"
"235061","KEA-2875","2018/10/20 18:59:46","新北市中和區民享街59巷6號","121.474475","25.0025166666667","6500300","中和區"
"235046","KEA-2876","2018/10/20 18:59:38","新北市中和區興南路二段3巷11號","121.508208333333","24.986245","6500300","中和區"
