"lineid","car","time","location","longitude","latitude","cityid","cityname"
"234007","207-UY","2018/10/20 20:19:53","新北市永和區環河西路二段229巷1號","121.501396666667","25.0100133333333","6500400","永和區"
"234081","298-R6","2018/10/20 20:19:46","新北市永和區福和路19巷14號","121.5244","25.0078433333333","6500400","永和區"
"234038","336-UY","2018/10/20 20:19:39","新北市永和區成功路一段89號","121.526916666667","25.0029466666667","6500400","永和區"
"234064","337-UY","2018/10/20 20:19:36","新北市永和區得和路106號","121.518116666667","25.0001766666667","6500400","永和區"
"234086","338-UY","2018/10/20 20:19:42","新北市永和區永和路二段207號","121.515426666667","25.01378","6500400","永和區"
"234070","552-UM","2018/10/20 20:19:52","新北市永和區福和路263巷14號","121.51787","25.0067883333333","6500400","永和區"
"234017","745-BX","2018/10/20 20:19:41","新北市永和區仁愛路65號","121.513435","25.0132666666667","6500400","永和區"
"234030","746-BX","2018/10/20 20:19:35","新北市中和區立人街14巷77號","121.518181666667","24.9956266666667","6500400","永和區"
"234054","KEA-2590","2018/10/20 20:19:44","新北市永和區光復街2巷14號","121.516965","25.016475","6500400","永和區"
"234013","KEA-2591","2018/10/20 20:19:38","新北市永和區仁愛路276號","121.503943333333","25.00831","6500400","永和區"
"234061","AAD-866","2018/10/20 20:19:48","新北市永和區得和路25號","121.515585","25.0003666666667","6500400","永和區"
"234042","862-TW","2018/10/20 20:19:41","新北市中和區中安街166號","121.510815","24.9999866666667","6500400","永和區"
"234050","863-TW","2018/10/20 20:19:38","新北市永和區新生路24巷11號","121.508648333333","25.0165566666667","6500400","永和區"
"249005","172-UM","2018/10/20 20:19:47","新北市八里區下罟子1-16號","121.389826666667","25.141995","6502300","八里區"
"249001","173-UM","2018/10/20 20:19:48","新北市八里區中華路二段341-10號","121.3991","25.145","6502300","八里區"
"249004","303-UY","2018/10/20 20:19:32","新北市八里區中山路一段129巷37號","121.414005","25.1584866666667","6502300","八里區"
"249002","305-UY","2018/10/20 20:19:41","新北市八里區龍米路一段470號","121.45017","25.1354316666667","6502300","八里區"
"249003","593-UM","2018/10/20 20:19:50","新北市八里區中山路二段447巷7號","121.396981666667","25.1454333333333","6502300","八里區"
"248016","026-BX","2018/10/20 20:19:34","新北市五股區凌雲路一段158巷39弄2號","121.446766666667","25.1038","6501500","五股區"
"248012","247-BX","2018/10/20 20:19:41","新北市五股區民義路一段185-7號","121.431305","25.088535","6501500","五股區"
"248014","261-SL","2018/10/20 20:19:36","新北市八里區荖阡坑路34號","121.402233333333","25.1291516666667","6501500","五股區"
"248010","272-BY","2018/10/20 20:19:51","新北市五股區新五路二段2巷26-1號","121.439991666667","25.0678516666667","6501500","五股區"
"248004","677-BX","2018/10/20 20:19:33","新北市五股區中興路四段17-4號","121.439525","25.0824116666667","6501500","五股區"
"248002","678-BX","2018/10/20 20:19:38","新北市五股區成泰路三段189號","121.445503333333","25.0923216666667","6501500","五股區"
"234023","9380-KE","2018/10/20 20:19:42","新北市永和區勵行街36號","121.516526666667","25.0137966666667","6500400","永和區"
"234077","969-R7","2018/10/20 20:19:49","新北市永和區民享街2巷2號","121.514743333333","24.9957716666667","6500400","永和區"
"234074","AAC-211","2018/10/20 20:19:39","新北市永和區豫溪街160巷2號","121.523263333333","25.0095433333333","6500400","永和區"
"234067","AAC-212","2018/10/20 20:19:35","新北市永和區保平路268巷9號","121.508386666667","25.005405","6500400","永和區"
"234003","AAC-295","2018/10/20 20:19:41","新北市永和區自強街6巷1弄4號","121.514433333333","25.007885","6500400","永和區"
"244018","403-UM","2018/10/20 20:19:40","新北市林口區粉寮路二段88巷100-12號","121.409568333333","25.0902016666667","6501700","林口區"
"243013","AAD-798","2018/10/20 20:19:42","新北市泰山區新民路36號","121.42702","25.0444266666667","6501600","泰山區"
"243009","297-R6","2018/10/20 20:19:47","新北市泰山區福泰街10號","121.432641666667","25.06029","6501600","泰山區"
"243016","KEA-2801","2018/10/20 20:19:48","新北市泰山區明志路二段418號","121.425011666667","25.0438933333333","6501600","泰山區"
"243015","421-VK","2018/10/20 20:19:39","新北市泰山區同義街47巷30號","121.432663333333","25.056225","6501600","泰山區"
"243011","KEA-2215","2018/10/20 20:19:49","新北市泰山區壽山路134巷18號","121.418355","25.0310283333333","6501600","泰山區"
"243010","KEA-2216","2018/10/20 20:19:41","新北市泰山區明志路二段254巷16弄4號","121.4262","25.0481","6501600","泰山區"
"243012","646-TV","2018/10/20 20:19:43","新北市泰山區楓江路81號","121.436743333333","25.0634716666667","6501600","泰山區"
"243014","680-BX","2018/10/20 20:19:45","新北市泰山區泰林路二段415號","121.426638333333","25.0641783333333","6501600","泰山區"
"222003","436-BY","2018/10/20 20:19:42","新北市深坑區文化街43號","121.617643333333","25.0018683333333","6501800","深坑區"
"222002","659-BX","2018/10/20 20:19:36","新北市深坑區萬福路75巷51號","121.598185","25.0098766666667","6501800","深坑區"
"231041","002-UM","2018/10/20 20:19:46","新北市新店區民權路85號","121.538046666667","24.9829116666667","6500600","新店區"
"231059","046-UY","2018/10/20 20:19:41","新北市新店區安德街62號","121.51064","24.9620216666667","6500600","新店區"
"231040","047-UY","2018/10/20 20:19:40","新北市新店區中正路162號","121.54133","24.9718866666667","6500600","新店區"
"231052","108-UY","2018/10/20 20:19:41","新北市新店區松林路2號","121.546803333333","24.9109633333333","6500600","新店區"
"231048","187-VK","2018/10/20 20:19:40","新北市新店區寶橋路132號","121.547345","24.97602","6500600","新店區"
"231054","KEA-2219","2018/10/20 20:19:43","新北市新店區檳榔路109號","121.544431666667","24.9616333333333","6500600","新店區"
"231057","256-BX","2018/10/20 20:19:37","新北市新店區花園七路一段16巷1號","121.553866666667","24.934875","6500600","新店區"
"231042","268-BY","2018/10/20 20:19:37","新北市新店區中興路二段100巷1號","121.547553333333","24.9716266666667","6500600","新店區"
"231051","278-BY","2018/10/20 20:19:50","新北市新店區溪園路459號","121.525228333333","24.977385","6500600","新店區"
"231050","AAD-862","2018/10/20 20:19:47","新北市新店區博愛街21號","121.54134","24.97361","6500600","新店區"
"231066","4716-K9","2018/10/20 20:19:42","新北市新店區安德街60巷23號","121.510608333333","24.96332","6500600","新店區"
"231056","4715-K9","2018/10/20 20:19:45","新北市新店區中正路302巷5弄2號","121.538376666667","24.9755483333333","6500600","新店區"
"231067","4772-VM","2018/10/20 20:19:42","新北市新店區安康路一段107-2號","121.528735","24.9616583333333","6500600","新店區"
"231065","512-UM","2018/10/20 20:19:41","新北市新店區安祥路104巷6弄24號","121.482435","24.96244","6500600","新店區"
"231049","513-UM","2018/10/20 20:19:46","新北市新店區中正路114號","121.542635","24.971015","6500600","新店區"
"231044","618-UM","2018/10/20 20:19:47","新北市新店區北新路三段118號","121.541666666667","24.981585","6500600","新店區"
"231061","619-UM","2018/10/20 20:19:38","新北市新店區安興路33-1號","121.515823333333","24.9704433333333","6500600","新店區"
"231063","641-BX","2018/10/20 20:19:39","新北市新店區薏仁坑路自強巷6號","121.496646666667","24.95849","6500600","新店區"
"231064","719-UM","2018/10/20 20:19:42","新北市新店區安業街33號","121.517493333333","24.977145","6500600","新店區"
"231068","719-UY","2018/10/20 20:19:39","新北市新店區寶安街30號","121.542118333333","24.9823","6500600","新店區"
"231062","720-UM","2018/10/20 20:19:44","新北市新店區安泰路7巷16號","121.485678333333","24.950985","6500600","新店區"
"231060","897-TW","2018/10/20 20:19:41","新北市新店區錦秀路11巷88號","121.480498333333","24.9432916666667","6500600","新店區"
"231045","898-TW","2018/10/20 20:19:37","新北市新店區中興路一段180號","121.54327","24.9647266666667","6500600","新店區"
"231043","899-TW","2018/10/20 20:19:39","新北市新店區民族路66號","121.539458333333","24.9783766666667","6500600","新店區"
"231055","AKT-0513","2018/10/20 20:19:45","新北市新店區北新路一段305號","121.5415","24.9676516666667","6500600","新店區"
"241011","013-R5","2018/10/20 20:19:37","新北市三重區龍門路67號","121.49667","25.0724533333333","6500200","三重區"
"241028","022-UY","2018/10/20 20:19:48","新北市三重區大同南路144號","121.496458333333","25.0579233333333","6500200","三重區"
"241008","059-VK","2018/10/20 20:19:52","新北市三重區永福街223號","121.48024","25.074455","6500200","三重區"
"241022","060-VK","2018/10/20 20:19:40","新北市三重區新北大道一段36號","121.488176666667","25.06142","6500200","三重區"
"241031","061-VK","2018/10/20 20:19:39","新北市三重區三寧街22號","121.489453333333","25.0599333333333","6500200","三重區"
"241015","062-VK","2018/10/20 20:19:40","新北市三重區重新路一段128號","121.500185","25.062925","6500200","三重區"
"241017","063-VK","2018/10/20 20:19:52","新北市三重區自強路一段236號","121.493375","25.0670866666667","6500200","三重區"
"241024","065-VK","2018/10/20 20:19:53","新北市三重區忠孝路三段1號","121.481891666667","25.067845","6500200","三重區"
"241026","066-VK","2018/10/20 20:19:36","新北市三重區中央南路63-1號","121.501413333333","25.0612183333333","6500200","三重區"
"241002","090-VK","2018/10/20 20:19:42","新北市三重區五華街1巷96號","121.497448333333","25.0803416666667","6500200","三重區"
"241003","091-VK","2018/10/20 20:19:40","新北市三重區富華街69-2號","121.49138","25.0836083333333","6500200","三重區"
"251014","742-BX","2018/10/20 20:19:42","新北市淡水區石頭厝1號","121.45867","25.2354966666667","6501000","淡水區"
"241012","265-UM","2018/10/20 20:19:43","新北市三重區河邊北街262號","121.501661666667","25.0764583333333","6500200","三重區"
"241016","266-UM","2018/10/20 20:19:53","新北市三重區大同北路91號","121.4947","25.0636016666667","6500200","三重區"
"241018","268-UM","2018/10/20 20:19:23","新北市三重區自強路一段155-1號","121.493551666667","25.06711","6500200","三重區"
"241032","269-UM","2018/10/20 20:19:40","新北市三重區捷運路19巷6弄20號","121.48432","25.0567916666667","6500200","三重區"
"241013","270-UM","2018/10/20 20:19:51","新北市三重區三和路三段167巷21號","121.492745","25.0743283333333","6500200","三重區"
"241025","271-UM","2018/10/20 20:19:47","新北市三重區頂崁街210巷26號","121.475938333333","25.0679566666667","6500200","三重區"
"241007","398-BY","2018/10/20 20:19:47","新北市三重區溪尾街108巷40號","121.48782","25.0782783333333","6500200","三重區"
"241035","KEA-2210","2018/10/20 20:19:43","新北市三重區正義北路33巷15號","121.498138333333","25.06372","6500200","三重區"
"241004","475-VK","2018/10/20 20:19:48","新北市三重區仁愛街391號","121.491268333333","25.0807633333333","6500200","三重區"
"241020","478-VK","2018/10/20 20:19:31","新北市三重區大智街163號","121.489785","25.0724383333333","6500200","三重區"
"241030","480-VK","2018/10/20 20:19:46","新北市三重區環河南路254巷53號","121.488035","25.0523116666667","6500200","三重區"
"241014","543-UM","2018/10/20 20:19:52","新北市三重區龍濱路118號","121.502125","25.070375","6500200","三重區"
"241023","545-UM","2018/10/20 20:19:39","新北市三重區忠孝路三段84巷5號","121.480201666667","25.0643783333333","6500200","三重區"
"241001","547-UM","2018/10/20 20:19:47","新北市三重區自強路四段3巷54號","121.49055","25.0766783333333","6500200","三重區"
"241019","KEA-2593","2018/10/20 20:19:34","新北市三重區大智街149號","121.4904","25.0713666666667","6500200","三重區"
"241006","AAD-863","2018/10/20 20:19:51","新北市三重區力行路二段164號","121.48301","25.0767016666667","6500200","三重區"
"241005","743-BX","2018/10/20 20:19:48","新北市三重區仁愛街506號","121.488311666667","25.082105","6500200","三重區"
"241009","887-TS","2018/10/20 20:19:35","新北市三重區三和路四段382巷69號","121.480833333333","25.07839","6500200","三重區"
"241029","942-UM","2018/10/20 20:19:36","新北市三重區重安街98號","121.492606666667","25.05625","6500200","三重區"
"241033","AAC-255","2018/10/20 20:19:51","新北市三重區五谷王北街50巷39號","121.475185","25.0514383333333","6500200","三重區"
"235066","003-UY","2018/10/20 20:19:43","新北市中和區保平路326巷1號","121.507183333333","25.004255","6500300","中和區"
"235039","097-UM","2018/10/20 20:19:48","新北市中和區大勇街29巷12-1號","121.515893333333","24.994555","6500300","中和區"
"235065","098-UM","2018/10/20 20:19:51","新北市中和區永和路128巷47號","121.49775","25.0068433333333","6500300","中和區"
"235042","KEA-2878","2018/10/20 20:19:31","新北市中和區中正路637巷60弄61號","121.485766666667","24.9929383333333","6500300","中和區"
"247012","KEA-2869","2018/10/20 20:19:49","新北市蘆洲區中興街48號","121.481611666667","25.08721","6501400","蘆洲區"
"235050","4979-A6","2018/10/20 20:19:46","新北市中和區景平路470號","121.50555","24.9937066666667","6500300","中和區"
"235069","4980-A6","2018/10/20 20:19:47","新北市中和區圓通路198巷2弄3號","121.49623","24.994695","6500300","中和區"
"235054","640-BX","2018/10/20 20:19:50","新北市八里區商港路120號","121.393053333333","25.1497133333333","6500300","中和區"
"235059","AAC-215","2018/10/20 20:19:37","新北市中和區員山路36號","121.483131666667","24.9878833333333","6500300","中和區"
"247002","893-R6","2018/10/20 20:19:52","新北市蘆洲區長安街331巷12號","121.456826666667","25.0866283333333","6501400","蘆洲區"
"247016","546-UM","2018/10/20 20:19:25","新北市蘆洲區中正路185巷69號","121.465111666667","25.08363","6501400","蘆洲區"
"247024","500-BY","2018/10/20 20:19:50","新北市蘆洲區光明路106巷17號","121.463776666667","25.0873983333333","6501400","蘆洲區"
"247014","339-TH","2018/10/20 20:19:40","新北市蘆洲區中山二路161號","121.471303333333","25.0812233333333","6501400","蘆洲區"
"247006","337-TH","2018/10/20 20:19:54","新北市蘆洲區九芎街140號","121.464911666667","25.0789383333333","6501400","蘆洲區"
"247008","336-TH","2018/10/20 20:19:49","新北市蘆洲區集賢路223號","121.482535","25.0862233333333","6501400","蘆洲區"
"247020","057-VK","2018/10/20 20:19:35","新北市蘆洲區仁愛街57號","121.471838333333","25.0932766666667","6501400","蘆洲區"
"247010","056-VK","2018/10/20 20:19:46","新北市蘆洲區信義路253號","121.479075","25.0845","6501400","蘆洲區"
"247018","007-UY","2018/10/20 20:19:45","新北市蘆洲區民族路257巷2號","121.47665","25.0904766666667","6501400","蘆洲區"
"247004","002-UY","2018/10/20 20:19:41","新北市蘆洲區永康街1巷12號","121.459716666667","25.0853933333333","6501400","蘆洲區"
"247022","001-UY","2018/10/20 20:19:54","新北市蘆洲區三民路247號","121.46878","25.08904","6501400","蘆洲區"
"224010","AGQ-8101","2018/10/20 20:19:42","新北市瑞芳區基山街271號","121.84089","25.1076483333333","6501200","瑞芳區"
"222001","KEA-2212","2018/10/20 20:19:47","新北市深坑區北深路三段263號","121.59892","25.0044616666667","6501800","深坑區"
"251009","008-UM","2018/10/20 20:19:44","新北市淡水區中正路38-1號","121.443743333333","25.169265","6501000","淡水區"
"251002","012-UM","2018/10/20 20:19:44","新北市淡水區中正路208號","121.439591666667","25.1703016666667","6501000","淡水區"
"251013","KEA-2871","2018/10/20 20:19:46","新北市淡水區相公山1-1號","121.474403333333","25.206635","6501000","淡水區"
"251016","179-VK","2018/10/20 20:19:40","新北市淡水區淡金路四段608號","121.451548333333","25.2290066666667","6501000","淡水區"
"251015","180-VK","2018/10/20 20:17:42","新北市淡水區淡金路三段446號","121.450733333333","25.21431","6501000","淡水區"
"251008","181-VK","2018/10/20 20:19:43","新北市淡水區淡海路180巷27號","121.421768333333","25.1845433333333","6501000","淡水區"
"251010","413-VK","2018/10/20 20:19:36","新北市淡水區新民街一段132號","121.428045","25.18887","6501000","淡水區"
"251012","441-VK","2018/10/20 20:19:47","新北市淡水區淡金路三段436號","121.450611666667","25.2129233333333","6501000","淡水區"
"251007","442-VK","2018/10/20 20:19:38","新北市淡水區水源街二段194號","121.45674","25.1758983333333","6501000","淡水區"
"251004","443-VK","2018/10/20 20:19:35","新北市淡水區大同路113巷1號","121.46415","25.1409616666667","6501000","淡水區"
"251006","561-UM","2018/10/20 20:19:47","新北市淡水區淡金路一段571號","121.452656666667","25.1805266666667","6501000","淡水區"
"251003","673-BX","2018/10/20 20:19:53","新北市淡水區中山北路一段229號","121.44447","25.17942","6501000","淡水區"
"207004","225-TW","2018/10/20 20:19:47","新北市萬里區北基里仁三街2號","121.682355","25.1754933333333","6502800","萬里區"
"252002","178-VK","2018/10/20 20:19:51","新北市三芝區中正路一段41號","121.503235","25.2582466666667","6502100","三芝區"
"252001","292-VK","2018/10/20 20:19:36","新北市三芝區中山路一段35號","121.50065","25.2580066666667","6502100","三芝區"
"237007","153-BY","2018/10/20 20:19:51","新北市三峽區隆恩街166號","121.363306666667","24.9429166666667","6500900","三峽區"
"236070","105-UM","2018/10/20 20:19:50","新北市土城區福安街52巷4號","121.418603333333","24.965345","6501300","土城區"
"236079","166-UM","2018/10/20 20:19:42","新北市土城區德安街4巷3號","121.422098333333","24.9648833333333","6501300","土城區"
"236030","253-BX","2018/10/20 20:19:41","新北市土城區學成路128巷11號","121.449538333333","24.9900583333333","6501300","土城區"
"236026","269-VK","2018/10/20 20:19:36","新北市土城區中央路一段249巷12號","121.445831666667","24.9854616666667","6501300","土城區"
"236014","270-VK","2018/10/20 20:19:34","新北市土城區廣明街90巷21號","121.45535","24.9944966666667","6501300","土城區"
"242036","AAC-296","2018/10/20 20:19:53","新北市新莊區建安街62巷3弄8號","121.426245","25.0250066666667","6500500","新莊區"
"242058","986-R7","2018/10/20 20:19:51","新北市新莊區龍安路329號","121.422133333333","25.0193516666667","6500500","新莊區"
"242056","751-BX","2018/10/20 20:19:50","新北市新莊區新莊路713巷5弄3號","121.443805","25.032005","6500500","新莊區"
"242027","705-TV","2018/10/20 20:19:40","新北市新莊區幸福路602號","121.452118333333","25.0492616666667","6500500","新莊區"
"242025","613-BX","2018/10/20 20:19:51","新北市新莊區五工二路62巷10號","121.461028333333","25.0659616666667","6500500","新莊區"
"242029","612-BX","2018/10/20 20:19:39","新北市新莊區中原路116號","121.450353333333","25.0543233333333","6500500","新莊區"
"242044","566-BX","2018/10/20 20:19:50","新北市新莊區中正路895-21號","121.412515","25.0215666666667","6500500","新莊區"
"242048","497-BY","2018/10/20 20:19:41","新北市新莊區龍安路277號","121.420418333333","25.0198583333333","6500500","新莊區"
"242015","442-UM","2018/10/20 20:19:35","新北市新莊區永樂街241號","121.446","25.04437","6500500","新莊區"
"242039","415-TV","2018/10/20 20:19:34","新北市新莊區成功街81號","121.42463","25.0196183333333","6500500","新莊區"
"242046","400-BY","2018/10/20 20:19:42","新北市新莊區中正路新生巷9號","121.417098333333","25.0241066666667","6500500","新莊區"
"242023","362-BY","2018/10/20 20:19:51","新北市新莊區化成路445號","121.464691666667","25.06072","6500500","新莊區"
"242061","353-BY","2018/10/20 20:19:51","新北市新莊區新樹路157號","121.436678333333","25.025445","6500500","新莊區"
"242011","132-UY","2018/10/20 20:19:39","新北市新莊區幸福路670巷14弄1號","121.450985","25.050395","6500500","新莊區"
"242042","133-UY","2018/10/20 20:19:39","新北市新莊區天祥街54巷2弄2號","121.416735","25.0292533333333","6500500","新莊區"
"242034","135-UY","2018/10/20 20:19:49","新北市新莊區公園一路148號","121.446716666667","25.0383083333333","6500500","新莊區"
"242051","172-VK","2018/10/20 20:19:44","新北市新莊區民安西路215號","121.42599","25.0145833333333","6500500","新莊區"
"242013","173-VK","2018/10/20 20:19:40","新北市新莊區中和街155巷24弄28號","121.44664","25.05097","6500500","新莊區"
"242019","175-VK","2018/10/20 20:19:46","新北市新莊區復興路二段191號","121.459211666667","25.0446116666667","6500500","新莊區"
"242007","176-VK","2018/10/20 20:19:39","新北市新莊區福壽街124巷34弄15號","121.459298333333","25.050675","6500500","新莊區"
"242017","346-TH","2018/10/20 20:19:39","新北市新莊區中港一街129號","121.448301666667","25.0450683333333","6500500","新莊區"
"242009","347-TH","2018/10/20 20:19:43","新北市新莊區昌盛街35巷2弄15號","121.454863333333","25.050385","6500500","新莊區"
"242031","348-TH","2018/10/20 20:19:51","新北市新莊區三和路60-12號","121.437571666667","25.0402316666667","6500500","新莊區"
"242004","349-TH","2018/10/20 20:19:53","新北市新莊區化成路746巷12號","121.466281666667","25.0577733333333","6500500","新莊區"
"242021","350-TH","2018/10/20 20:19:43","新北市新莊區和興街41號","121.446775","25.0402983333333","6500500","新莊區"
"221036","130-UY","2018/10/20 20:19:55","新北市汐止區福安街57巷2號","121.663868333333","25.0637616666667","6501100","汐止區"
"221015","131-UY","2018/10/20 20:19:44","新北市汐止區建成路142巷19弄13號","121.66194","25.07391","6501100","汐止區"
"221010","269-BY","2018/10/20 20:19:35","新北市汐止區八連路二段326號","121.629498333333","25.09991","6501100","汐止區"
"221012","278-VK","2018/10/20 20:19:39","新北市汐止區保新街101號","121.686665","25.0713766666667","6501100","汐止區"
"221023","279-VK","2018/10/20 20:19:45","新北市汐止區湖東街5巷32號","121.635043333333","25.07359","6501100","汐止區"
"221032","280-BY","2018/10/20 20:19:46","新北市汐止區民權街二段37號","121.619411666667","25.04954","6501100","汐止區"
"221027","281-BY","2018/10/20 20:19:44","新北市汐止區大同路二段353號","121.656981666667","25.06725","6501100","汐止區"
"221029","298-VK","2018/10/20 20:19:43","新北市汐止區工建路88號","121.640011666667","25.0630033333333","6501100","汐止區"
"221021","299-VK","2018/10/20 20:19:34","新北市汐止區水源路一段282巷1號","121.654093333333","25.05825","6501100","汐止區"
"221031","353-TW","2018/10/20 20:19:45","新北市汐止區中興路150巷13號","121.632921666667","25.0650916666667","6501100","汐止區"
"221035","622-UM","2018/10/20 20:19:45","新北市汐止區長江街101-5號","121.658691666667","25.0731733333333","6501100","汐止區"
"221025","623-UM","2018/10/20 20:19:52","新北市汐止區水源路二段88巷2弄15號","121.655786666667","25.05613","6501100","汐止區"
"221038","646-BX","2018/10/20 20:19:47","新北市汐止區茄苳路42號","121.6659","25.0707383333333","6501100","汐止區"
"221033","647-BX","2018/10/20 20:19:43","新北市汐止區東勢街70號","121.633045","25.0402833333333","6501100","汐止區"
"221002","707-TV","2018/10/20 20:19:37","新北市汐止區福德三路20號","121.637223333333","25.0694083333333","6501100","汐止區"
"221018","753-BX","2018/10/20 20:19:47","新北市汐止區茄安路12號","121.673046666667","25.0677966666667","6501100","汐止區"
"220101","245-BX","2018/10/20 20:19:35","新北市三重區光復路二段87巷63號","121.475838333333","25.058145","6500100","板橋區"
"220103","257-TC","2018/10/20 20:19:32","新北市板橋區漢生東路33巷44號","121.466183333333","25.0177483333333","6500100","板橋區"
"220083","286-VK","2018/10/20 20:19:38","新北市板橋區僑中二街100巷30號","121.444748333333","25.00872","6500100","板橋區"
"220081","287-VK","2018/10/20 20:19:42","新北市板橋區僑中一街80巷1弄6-4號","121.447315","25.01199","6500100","板橋區"
"220061","293-UM","2018/10/20 20:19:43","新北市板橋區四川路一段286巷24號","121.457921666667","25.00128","6500100","板橋區"
"242002","281-VK","2018/10/20 20:19:47","新北市新莊區化成路7號","121.464855","25.0429183333333","6500500","新莊區"
"220089","487-VK","2018/10/20 20:19:45","新北市板橋區四維路133號","121.465021666667","25.02517","6500100","板橋區"
"242053","280-VK","2018/10/20 20:19:48","新北市新莊區西盛街395巷1號","121.427996666667","25.012845","6500500","新莊區"
"220102","KEA-2699","2018/10/20 20:19:39","新北市板橋區文化路一段216號","121.466361666667","25.0203983333333","6500100","板橋區"
"220070","806-UM","2018/10/20 20:19:41","新北市板橋區南雅西路二段259巷3號","121.449851666667","25.0148966666667","6500100","板橋區"
"220097","AAC-210","2018/10/20 20:19:33","新北市板橋區文化路一段101巷11號","121.460701666667","25.0145766666667","6500100","板橋區"
"235068","KEA-2873","2018/10/20 20:19:26","新北市中和區永和路39巷2號","121.498013333333","25.0049533333333","6500300","中和區"
