"lineid","car","time","location","longitude","latitude","cityid","cityname"
"234081","298-R6","2018/10/20 20:29:44","新北市永和區永貞路41號","121.521056666667","25.0064183333333","6500400","永和區"
"234064","337-UY","2018/10/20 20:29:36","新北市永和區中正路433號","121.517076666667","25.00506","6500400","永和區"
"234070","552-UM","2018/10/20 20:29:42","新北市永和區永利路64號","121.519451666667","25.005025","6500400","永和區"
"234030","746-BX","2018/10/20 20:29:35","新北市永和區民族街81巷60號","121.520155","24.9965316666667","6500400","永和區"
"234054","KEA-2590","2018/10/20 20:29:37","新北市永和區環河東路一段82號","121.519671666667","25.01646","6500400","永和區"
"234061","AAD-866","2018/10/20 20:29:44","新北市永和區安樂路194巷39弄2號","121.516478333333","25.0013416666667","6500400","永和區"
"234042","862-TW","2018/10/20 20:29:41","新北市永和區安樂路250號","121.51462","25.0036216666667","6500400","永和區"
"234050","863-TW","2018/10/20 20:29:38","新北市永和區新生路97號","121.508005","25.01551","6500400","永和區"
"249001","173-UM","2018/10/20 20:29:48","新北市八里區下罟子5-11號","121.386876666667","25.1422916666667","6502300","八里區"
"249004","303-UY","2018/10/20 20:29:50","新北市八里區中山路一段147號","121.41289","25.1590466666667","6502300","八里區"
"249002","305-UY","2018/10/20 20:29:41","新北市八里區龍米路二段125巷23號","121.445866666667","25.1455566666667","6502300","八里區"
"249003","593-UM","2018/10/20 20:29:50","新北市八里區華峰一街38號","121.398668333333","25.1464333333333","6502300","八里區"
"248002","678-BX","2018/10/20 20:29:38","新北市五股區成泰路三段17-1號","121.4416","25.0880066666667","6501500","五股區"
"234023","9380-KE","2018/10/20 20:29:36","新北市永和區博愛街32巷12號","121.518796666667","25.0152933333333","6500400","永和區"
"234074","AAC-211","2018/10/20 20:29:19","新北市永和區豫溪街191巷7弄15號","121.523388333333","25.0108233333333","6500400","永和區"
"234067","AAC-212","2018/10/20 20:29:35","新北市永和區保平路292巷4號","121.507878333333","25.0048283333333","6500400","永和區"
"234003","AAC-295","2018/10/20 20:29:41","新北市永和區中正路620號","121.516933333333","25.0078433333333","6500400","永和區"
"244018","403-UM","2018/10/20 20:26:02","新北市林口區粉寮路二段88巷100-12號","121.409578333333","25.0901866666667","6501700","林口區"
"243013","AAD-798","2018/10/20 20:29:42","新北市泰山區明志路三段33號","121.42485","25.0427783333333","6501600","泰山區"
"243009","297-R6","2018/10/20 20:29:47","新北市泰山區忠孝街14-1號","121.427706666667","25.0649783333333","6501600","泰山區"
"243016","KEA-2801","2018/10/20 20:29:41","新北市泰山區明志路二段246-1號","121.427096666667","25.0480516666667","6501600","泰山區"
"243015","421-VK","2018/10/20 20:29:39","新北市泰山區泰林路二段280巷1號","121.431426666667","25.0624066666667","6501600","泰山區"
"243011","KEA-2215","2018/10/20 20:29:49","新北市泰山區明志路三段184號","121.42415","25.038755","6501600","泰山區"
"243010","KEA-2216","2018/10/20 20:29:48","新北市泰山區新生路31巷10號","121.427631666667","25.04607","6501600","泰山區"
"243012","646-TV","2018/10/20 20:29:43","新北市泰山區泰林路二段362號","121.428796666667","25.063785","6501600","泰山區"
"243014","680-BX","2018/10/20 20:29:43","新北市泰山區泰林路二段2-6號","121.419743333333","25.0650666666667","6501600","泰山區"
"222003","436-BY","2018/10/20 20:29:42","新北市深坑區深坑街27號","121.615935","25.002335","6501800","深坑區"
"222002","659-BX","2018/10/20 20:29:36","新北市深坑區萬福路16巷36-1號","121.610698333333","25.0080666666667","6501800","深坑區"
"231041","002-UM","2018/10/20 20:29:43","新北市新店區中正路501-2號","121.533611666667","24.983715","6500600","新店區"
"231059","046-UY","2018/10/20 20:29:41","新北市新店區安德街164號","121.508521666667","24.9591316666667","6500600","新店區"
"231040","047-UY","2018/10/20 20:29:41","新北市新店區中正路342號","121.536545","24.9750983333333","6500600","新店區"
"231052","108-UY","2018/10/20 20:29:41","新北市新店區松林路16巷31號","121.54623","24.9102283333333","6500600","新店區"
"231048","187-VK","2018/10/20 20:29:40","新北市新店區寶慶街58巷21-1號","121.542016666667","24.9873033333333","6500600","新店區"
"231054","KEA-2219","2018/10/20 20:29:43","新北市新店區檳榔路150號","121.544158333333","24.9615533333333","6500600","新店區"
"231057","256-BX","2018/10/20 20:29:37","新北市新店區花園十路一段9號","121.554783333333","24.934195","6500600","新店區"
"231042","268-BY","2018/10/20 20:29:37","新北市新店區寶橋路156-1號","121.548551666667","24.9769633333333","6500600","新店區"
"231051","278-BY","2018/10/20 20:29:50","新北市新店區中央七街5號","121.530526666667","24.974835","6500600","新店區"
"231050","AAD-862","2018/10/20 20:29:47","新北市新店區建安街15巷1號","121.539751666667","24.9753816666667","6500600","新店區"
"231058","3713-VJ","2018/10/20 20:29:35","新北市新店區自由街11號","121.535365","24.9749433333333","6500600","新店區"
"231066","4716-K9","2018/10/20 20:29:42","新北市新店區安興路112號","121.514648333333","24.977675","6500600","新店區"
"231056","4715-K9","2018/10/20 20:29:45","新北市新店區中正路457號","121.533745","24.9799766666667","6500600","新店區"
"231067","4772-VM","2018/10/20 20:29:42","新北市新店區安華路28-1號","121.519896666667","24.9606933333333","6500600","新店區"
"231065","512-UM","2018/10/20 20:29:41","新北市新店區安祥路102巷46弄87號","121.487256666667","24.96323","6500600","新店區"
"231049","513-UM","2018/10/20 20:29:46","新北市新店區永業路81巷5弄1號","121.530108333333","24.948995","6500600","新店區"
"231044","618-UM","2018/10/20 20:29:47","新北市新店區建國路187號","121.538045","24.9796766666667","6500600","新店區"
"231061","619-UM","2018/10/20 20:29:38","新北市新店區新和街34號","121.519071666667","24.9847033333333","6500600","新店區"
"231063","641-BX","2018/10/20 20:29:39","新北市新店區玫瑰路4-1號","121.49361","24.9513766666667","6500600","新店區"
"231064","719-UM","2018/10/20 20:29:42","新北市新店區新和街59巷17號","121.519235","24.9859866666667","6500600","新店區"
"231068","719-UY","2018/10/20 20:29:38","新北市新店區中興路三段258號","121.54275","24.9842416666667","6500600","新店區"
"231062","720-UM","2018/10/20 20:29:43","新北市新店區安泰路11巷2號","121.485478333333","24.95014","6500600","新店區"
"231060","897-TW","2018/10/20 20:29:41","新北市新店區錦秀路54號","121.479045","24.9432833333333","6500600","新店區"
"231045","898-TW","2018/10/20 20:29:37","新北市新店區新坡一街20號","121.548968333333","24.9619033333333","6500600","新店區"
"231043","899-TW","2018/10/20 20:29:39","新北市新店區建國路88號","121.54051","24.9772283333333","6500600","新店區"
"241011","013-R5","2018/10/20 20:29:37","新北市三重區龍門路205號","121.499981666667","25.0734316666667","6500200","三重區"
"241028","022-UY","2018/10/20 20:29:48","新北市三重區光興街89號","121.497501666667","25.0599433333333","6500200","三重區"
"241008","059-VK","2018/10/20 20:29:32","新北市三重區下竹圍街91號","121.481096666667","25.0748566666667","6500200","三重區"
"241022","060-VK","2018/10/20 20:29:40","新北市三重區中正北路20巷9號","121.487965","25.0630166666667","6500200","三重區"
"241031","061-VK","2018/10/20 20:29:39","新北市三重區三寧街22號","121.489455","25.0599333333333","6500200","三重區"
"241015","062-VK","2018/10/20 20:29:40","新北市三重區長元西街1號","121.498733333333","25.0657183333333","6500200","三重區"
"241017","063-VK","2018/10/20 20:29:52","新北市三重區自強路一段195號","121.491706666667","25.0682666666667","6500200","三重區"
"241024","065-VK","2018/10/20 20:29:53","新北市三重區三民街258號","121.479343333333","25.0677833333333","6500200","三重區"
"241026","066-VK","2018/10/20 20:29:36","新北市三重區福德南路8巷17號","121.503546666667","25.0635716666667","6500200","三重區"
"241002","090-VK","2018/10/20 20:29:42","新北市三重區仁義街211巷31號","121.49784","25.0823666666667","6500200","三重區"
"241003","091-VK","2018/10/20 20:29:40","新北市三重區富華街175號","121.493616666667","25.085155","6500200","三重區"
"251014","742-BX","2018/10/20 20:29:42","新北市淡水區淡金路五段118巷3號","121.458145","25.2366466666667","6501000","淡水區"
"241012","265-UM","2018/10/20 20:29:43","新北市三重區龍濱路172號","121.501381666667","25.0727766666667","6500200","三重區"
"241016","266-UM","2018/10/20 20:29:53","新北市三重區正義北路143號","121.496583333333","25.0667666666667","6500200","三重區"
"241018","268-UM","2018/10/20 20:29:43","新北市三重區正義北路220號","121.49628","25.0676833333333","6500200","三重區"
"241032","269-UM","2018/10/20 20:29:40","新北市三重區重陽路一段120巷46號","121.485093333333","25.0601383333333","6500200","三重區"
"241013","270-UM","2018/10/20 20:29:51","新北市三重區溪尾街12號","121.491511666667","25.07466","6500200","三重區"
"241025","271-UM","2018/10/20 20:29:47","新北市三重區頂崁街210巷27號","121.475731666667","25.06812","6500200","三重區"
"241007","398-BY","2018/10/20 20:29:47","新北市三重區自強路四段4號","121.488353333333","25.07617","6500200","三重區"
"241035","KEA-2210","2018/10/20 20:29:43","新北市三重區正義南路2-1號","121.498083333333","25.06195","6500200","三重區"
"241004","475-VK","2018/10/20 20:29:48","新北市三重區溪尾街214號","121.488","25.0813333333333","6500200","三重區"
"241020","478-VK","2018/10/20 20:29:51","新北市三重區明德街21號","121.492753333333","25.072405","6500200","三重區"
"241030","480-VK","2018/10/20 20:29:46","新北市三重區成功路70號","121.488528333333","25.051005","6500200","三重區"
"241014","543-UM","2018/10/20 20:29:52","新北市三重區長興街106號","121.501918333333","25.069275","6500200","三重區"
"241023","545-UM","2018/10/20 20:29:39","新北市三重區自由街17巷1號","121.479831666667","25.0666116666667","6500200","三重區"
"241001","547-UM","2018/10/20 20:29:47","新北市三重區福隆路2號","121.489615","25.0772116666667","6500200","三重區"
"241019","KEA-2593","2018/10/20 20:29:34","新北市三重區重陽路四段124號","121.492406666667","25.0709416666667","6500200","三重區"
"241006","AAD-863","2018/10/20 20:29:51","新北市三重區力行路二段164號","121.48303","25.07668","6500200","三重區"
"241005","743-BX","2018/10/20 20:29:28","新北市三重區五華街133號","121.491018333333","25.0844266666667","6500200","三重區"
"241009","887-TS","2018/10/20 20:29:35","新北市三重區永福街31號","121.481546666667","25.078095","6500200","三重區"
"241029","942-UM","2018/10/20 20:29:36","新北市三重區集美街112巷45號","121.490878333333","25.05431","6500200","三重區"
"241033","AAC-255","2018/10/20 20:29:51","新北市三重區五谷王北街80巷60號","121.474698333333","25.05277","6500200","三重區"
"247012","KEA-2869","2018/10/20 20:29:49","新北市蘆洲區復興路233號","121.48021","25.089795","6501400","蘆洲區"
"235050","4979-A6","2018/10/20 20:29:47","新北市中和區景平路385巷9弄17號","121.502211666667","24.9940783333333","6500300","中和區"
"235069","4980-A6","2018/10/20 20:29:47","新北市中和區中正路442巷22號","121.490961666667","24.9952583333333","6500300","中和區"
"235059","AAC-215","2018/10/20 20:29:37","新北市中和區員山路36巷12號","121.48374","24.9911816666667","6500300","中和區"
"247002","893-R6","2018/10/20 20:29:52","新北市蘆洲區長安街361巷14號","121.456495","25.0875183333333","6501400","蘆洲區"
"247016","546-UM","2018/10/20 20:29:44","新北市蘆洲區光華路72號","121.468025","25.0827233333333","6501400","蘆洲區"
"247024","500-BY","2018/10/20 20:29:50","新北市蘆洲區長興路50巷41號","121.464998333333","25.0848533333333","6501400","蘆洲區"
"247014","339-TH","2018/10/20 20:29:41","新北市蘆洲區中山二路275號","121.469423333333","25.079165","6501400","蘆洲區"
"247006","337-TH","2018/10/20 20:29:34","新北市蘆洲區和平路121巷14弄38號","121.466076666667","25.0802183333333","6501400","蘆洲區"
"247008","336-TH","2018/10/20 20:29:29","新北市蘆洲區重陽二街5號","121.483015","25.0844983333333","6501400","蘆洲區"
"247020","057-VK","2018/10/20 20:29:54","新北市蘆洲區仁愛街161巷33-1號","121.468593333333","25.0942433333333","6501400","蘆洲區"
"247010","056-VK","2018/10/20 20:29:46","新北市蘆洲區信義路218號","121.479028333333","25.085215","6501400","蘆洲區"
"247018","007-UY","2018/10/20 20:29:45","新北市蘆洲區民族路336巷28號","121.477618333333","25.0911633333333","6501400","蘆洲區"
"247004","002-UY","2018/10/20 20:29:41","新北市蘆洲區長安街297號","121.458096666667","25.0849033333333","6501400","蘆洲區"
"247022","001-UY","2018/10/20 20:29:53","新北市蘆洲區中正路261號","121.467418333333","25.0873883333333","6501400","蘆洲區"
"224010","AGQ-8101","2018/10/20 20:29:42","新北市瑞芳區輕便路125號","121.843961666667","25.1091633333333","6501200","瑞芳區"
"222001","KEA-2212","2018/10/20 20:29:47","新北市深坑區北深路三段295號","121.598183333333","25.0046683333333","6501800","深坑區"
"251009","008-UM","2018/10/20 20:29:44","新北市淡水區中正東路二段81號","121.459395","25.1540466666667","6501000","淡水區"
"251001","011-UM","2018/10/20 20:29:44","新北市淡水區新市一路三段8號","121.44504","25.1829183333333","6501000","淡水區"
"251002","012-UM","2018/10/20 20:29:44","新北市淡水區中正路25號","121.442536666667","25.1695633333333","6501000","淡水區"
"251013","KEA-2871","2018/10/20 20:29:46","新北市淡水區奎柔山路419號","121.463773333333","25.2053883333333","6501000","淡水區"
"251016","179-VK","2018/10/20 20:29:40","新北市淡水區新埔子11-7號","121.447456666667","25.2284966666667","6501000","淡水區"
"251015","180-VK","2018/10/20 20:29:33","新北市淡水區淡金路四段542巷17號","121.452683333333","25.22707","6501000","淡水區"
"251008","181-VK","2018/10/20 20:29:43","新北市淡水區淡海路189巷5號","121.420006666667","25.18439","6501000","淡水區"
"251010","413-VK","2018/10/20 20:29:36","新北市淡水區沙崙路181巷15號","121.423996666667","25.1843383333333","6501000","淡水區"
"251012","441-VK","2018/10/20 20:29:47","新北市淡水區興仁路108號","121.45165","25.2181783333333","6501000","淡水區"
"251006","561-UM","2018/10/20 20:29:47","新北市淡水區商工路306號","121.461243333333","25.1858366666667","6501000","淡水區"
"251003","673-BX","2018/10/20 20:29:33","新北市淡水區新生街39號","121.440176666667","25.1747883333333","6501000","淡水區"
"252002","178-VK","2018/10/20 20:29:51","新北市三芝區淡金路二段47-2號","121.503675","25.2605233333333","6502100","三芝區"
"252001","292-VK","2018/10/20 20:29:36","新北市三芝區中山路一段36號","121.500795","25.2575966666667","6502100","三芝區"
"242036","AAC-296","2018/10/20 20:29:33","新北市新莊區後港一路76巷10弄2號","121.427116666667","25.02609","6500500","新莊區"
"242058","986-R7","2018/10/20 20:29:51","新北市新莊區四維路139號","121.422756666667","25.0223233333333","6500500","新莊區"
"242056","751-BX","2018/10/20 20:29:51","新北市新莊區新莊路751巷71號","121.442781666667","25.031065","6500500","新莊區"
"242027","705-TV","2018/10/20 20:29:50","新北市新莊區幸福路6號","121.459365","25.0495133333333","6500500","新莊區"
"242025","613-BX","2018/10/20 20:29:31","新北市新莊區化成路585-13號","121.462946666667","25.0668316666667","6500500","新莊區"
"242029","612-BX","2018/10/20 20:29:40","新北市新莊區中華路二段131號","121.453011666667","25.0508033333333","6500500","新莊區"
"242044","566-BX","2018/10/20 20:29:51","新北市新莊區中正路新建巷28弄1號","121.414281666667","25.0216733333333","6500500","新莊區"
"242048","497-BY","2018/10/20 20:29:42","新北市新莊區中正路879號","121.418005","25.0268033333333","6500500","新莊區"
"242015","442-UM","2018/10/20 20:29:35","新北市新莊區中平路82巷18號","121.44554","25.04493","6500500","新莊區"
"242039","415-TV","2018/10/20 20:29:54","新北市新莊區民安西路5號","121.426608333333","25.0217366666667","6500500","新莊區"
"242046","400-BY","2018/10/20 20:29:42","新北市新莊區中正路新雅巷2弄2號","121.417891666667","25.0253433333333","6500500","新莊區"
"242023","362-BY","2018/10/20 20:29:32","新北市新莊區化成路570號","121.466191666667","25.05441","6500500","新莊區"
"242061","353-BY","2018/10/20 20:29:51","新北市新莊區民安路396巷24號","121.430971666667","25.0220683333333","6500500","新莊區"
"242011","132-UY","2018/10/20 20:29:39","新北市新莊區中義街36號","121.450033333333","25.0512683333333","6500500","新莊區"
"242042","133-UY","2018/10/20 20:29:39","新北市新莊區天祥街26-1號","121.417465","25.0276566666667","6500500","新莊區"
"242034","135-UY","2018/10/20 20:29:48","新北市新莊區中正路334巷27號","121.445636666667","25.0359133333333","6500500","新莊區"
"242051","172-VK","2018/10/20 20:29:44","新北市新莊區民安西路189巷13號","121.426671666667","25.0153933333333","6500500","新莊區"
"242013","173-VK","2018/10/20 20:29:40","新北市新莊區中和街155巷24弄83號","121.446405","25.0514833333333","6500500","新莊區"
"242019","175-VK","2018/10/20 20:29:46","新北市新莊區銘德街49巷11號","121.457331666667","25.0429683333333","6500500","新莊區"
"242007","176-VK","2018/10/20 20:29:39","新北市新莊區思源路371號","121.45975","25.0510066666667","6500500","新莊區"
"242017","346-TH","2018/10/20 20:29:39","新北市新莊區中港三街21號","121.450515","25.0464016666667","6500500","新莊區"
"242009","347-TH","2018/10/20 20:29:43","新北市新莊區昌盛街101號","121.45613","25.0501583333333","6500500","新莊區"
"242031","348-TH","2018/10/20 20:29:51","新北市新莊區三泰路58號","121.433721666667","25.037885","6500500","新莊區"
"242004","349-TH","2018/10/20 20:29:45","新北市新莊區化成路363巷55號","121.463268333333","25.0567933333333","6500500","新莊區"
"242021","350-TH","2018/10/20 20:29:43","新北市新莊區公園路82號","121.450213333333","25.0397116666667","6500500","新莊區"
"221036","130-UY","2018/10/20 20:29:35","新北市汐止區新台五路二段91號","121.665241666667","25.06715","6501100","汐止區"
"221015","131-UY","2018/10/20 20:29:44","新北市汐止區建成路142巷19弄11號","121.662006666667","25.0738916666667","6501100","汐止區"
"221010","269-BY","2018/10/20 20:29:35","新北市汐止區八連路二段610巷17號","121.625018333333","25.1119033333333","6501100","汐止區"
"221012","278-VK","2018/10/20 20:29:52","新北市汐止區大同路三段241號","121.672713333333","25.0766716666667","6501100","汐止區"
"221023","279-VK","2018/10/20 20:29:45","新北市汐止區民族二街30巷23號","121.633811666667","25.0716383333333","6501100","汐止區"
"221032","280-BY","2018/10/20 20:29:46","新北市汐止區弘道街53巷22號","121.618815","25.0494533333333","6501100","汐止區"
"221027","281-BY","2018/10/20 20:29:44","新北市汐止區中正路203號","121.65849","25.0688416666667","6501100","汐止區"
"221029","298-VK","2018/10/20 20:29:43","新北市汐止區樟樹一路129巷34弄13號","121.640418333333","25.0650966666667","6501100","汐止區"
"221021","299-VK","2018/10/20 20:29:34","新北市汐止區水源路一段282巷2號","121.654068333333","25.0583416666667","6501100","汐止區"
"221031","353-TW","2018/10/20 20:29:45","新北市汐止區福德一路237號","121.634276666667","25.064695","6501100","汐止區"
"221035","622-UM","2018/10/20 20:29:45","新北市汐止區長江街101-5號","121.658673333333","25.07318","6501100","汐止區"
"221025","623-UM","2018/10/20 20:29:44","新北市汐止區水源路二段88巷1弄4號","121.65636","25.0556966666667","6501100","汐止區"
"221038","646-BX","2018/10/20 20:29:47","新北市汐止區水源路一段56號","121.657276666667","25.065575","6501100","汐止區"
"221033","647-BX","2018/10/20 20:29:47","新北市汐止區林森街73巷1號","121.623368333333","25.0408116666667","6501100","汐止區"
"221002","707-TV","2018/10/20 20:29:37","新北市汐止區福德二路52號","121.634181666667","25.06725","6501100","汐止區"
"221018","753-BX","2018/10/20 20:29:47","新北市汐止區茄苳路225巷13號","121.67143","25.0691866666667","6501100","汐止區"
"220103","257-TC","2018/10/20 20:29:32","新北市板橋區漢生東路83巷27號","121.467438333333","25.016825","6500100","板橋區"
"220083","286-VK","2018/10/20 20:29:37","新北市板橋區僑中二街104巷16號","121.445366666667","25.0080083333333","6500100","板橋區"
"242002","281-VK","2018/10/20 20:29:41","新北市新莊區中正路147-7號","121.45757","25.0373133333333","6500500","新莊區"
"220089","487-VK","2018/10/20 20:29:45","新北市板橋區四維路355號","121.462206666667","25.0300766666667","6500100","板橋區"
"242053","280-VK","2018/10/20 20:29:48","新北市新莊區西盛街344巷15號","121.427398333333","25.0141233333333","6500500","新莊區"
"220070","806-UM","2018/10/20 20:29:41","新北市五股區新五路三段228號","121.446835","25.0907716666667","6500100","板橋區"
