"lineid","car","time","location","longitude","latitude","cityid","cityname"
"243006","680-BX","2018/10/20 21:02:54","新北市泰山區黎明路25號","121.422088333333","25.0606516666667","6501600","泰山區"
"231059","046-UY","2018/10/20 21:09:41","新北市新店區僑仁路2號","121.499563333333","24.951595","6500600","新店區"
"231040","047-UY","2018/10/20 21:09:40","新北市新店區北新路一段351號","121.542028333333","24.9693066666667","6500600","新店區"
"231048","187-VK","2018/10/20 21:09:41","新北市新店區中興路三段160號","121.544483333333","24.980645","6500600","新店區"
"231054","KEA-2219","2018/10/20 21:09:43","新北市新店區大新街7巷26號","121.544086666667","24.9679183333333","6500600","新店區"
"231042","268-BY","2018/10/20 21:09:37","新北市新店區寶興路60巷3號","121.549856666667","24.97181","6500600","新店區"
"231051","278-BY","2018/10/20 21:09:50","新北市新店區中正路700巷82號","121.535966666667","24.9932583333333","6500600","新店區"
"231050","AAD-862","2018/10/20 21:09:47","新北市新店區中華路117巷6弄2號","121.537803333333","24.9687533333333","6500600","新店區"
"231065","512-UM","2018/10/20 21:09:44","新北市新店區安祥路67巷2號","121.483768333333","24.9596","6500600","新店區"
"231061","619-UM","2018/10/20 21:09:38","新北市新店區永安街6號","121.516765","24.986005","6500600","新店區"
"231063","641-BX","2018/10/20 21:09:39","新北市新店區玫瑰路61巷2號","121.495991666667","24.9451816666667","6500600","新店區"
"231064","719-UM","2018/10/20 21:08:22","新北市新店區薏仁坑路自強巷1號","121.49708","24.95801","6500600","新店區"
"231062","720-UM","2018/10/20 21:09:43","新北市新店區雙城路60巷16弄13號","121.491743333333","24.94793","6500600","新店區"
"231060","897-TW","2018/10/20 21:09:41","新北市新店區薏仁坑路自強巷1號","121.496793333333","24.9581116666667","6500600","新店區"
"241011","013-R5","2018/10/20 21:09:45","新北市三重區龍濱路126號","121.501741666667","25.0715583333333","6500200","三重區"
"241028","022-UY","2018/10/20 21:09:48","新北市三重區正義南路53號","121.498206666667","25.0605683333333","6500200","三重區"
"241008","059-VK","2018/10/20 21:09:52","新北市三重區自強路一段61號","121.497841666667","25.0672216666667","6500200","三重區"
"241022","060-VK","2018/10/20 21:09:40","新北市三重區中正北路64巷21號","121.486045","25.063775","6500200","三重區"
"241031","061-VK","2018/10/20 21:09:39","新北市三重區重新路五段422號","121.47539","25.047525","6500200","三重區"
"241015","062-VK","2018/10/20 21:09:40","新北市三重區長元街75-3號","121.503185","25.06661","6500200","三重區"
"241017","063-VK","2018/10/20 21:09:52","新北市三重區國隆路31號","121.492366666667","25.0645233333333","6500200","三重區"
"241024","065-VK","2018/10/20 21:09:33","新北市三重區國道路一段58巷15號","121.48132","25.0720283333333","6500200","三重區"
"241026","066-VK","2018/10/20 21:09:36","新北市三重區文化南路42號","121.500428333333","25.0602316666667","6500200","三重區"
"241002","090-VK","2018/10/20 21:09:42","新北市三重區五華街19號","121.494903333333","25.0804033333333","6500200","三重區"
"241003","091-VK","2018/10/20 21:09:40","新北市三重區仁義街224號","121.494976666667","25.084695","6500200","三重區"
"251014","742-BX","2018/10/20 21:09:42","新北市淡水區六塊厝2-6號","121.449483333333","25.24201","6501000","淡水區"
"241012","265-UM","2018/10/20 21:09:43","新北市三重區龍門路300號","121.502506666667","25.074475","6500200","三重區"
"241016","266-UM","2018/10/20 21:09:33","新北市三重區信義西街138號","121.495598333333","25.0643683333333","6500200","三重區"
"241018","268-UM","2018/10/20 21:09:43","新北市三重區正義北路332-1號","121.494435","25.0704633333333","6500200","三重區"
"241032","269-UM","2018/10/20 21:09:40","新北市三重區忠孝路三段125號","121.478838333333","25.0616016666667","6500200","三重區"
"241013","270-UM","2018/10/20 21:09:51","新北市三重區仁愛街141巷21號","121.496668333333","25.0757916666667","6500200","三重區"
"241025","271-UM","2018/10/20 21:09:47","新北市三重區忠孝路三段40巷16弄10號","121.482285","25.06691","6500200","三重區"
"241007","398-BY","2018/10/20 21:09:47","新北市三重區三和路四段145巷81號","121.486363333333","25.078765","6500200","三重區"
"241004","475-VK","2018/10/20 21:09:48","新北市三重區仁愛街418號","121.490426666667","25.08141","6500200","三重區"
"241020","478-VK","2018/10/20 21:09:51","新北市三重區忠孝路二段34號","121.48567","25.07098","6500200","三重區"
"241030","480-VK","2018/10/20 21:09:46","新北市三重區五谷王北街20巷15弄1號","121.475066666667","25.0484416666667","6500200","三重區"
"241014","543-UM","2018/10/20 21:09:52","新北市三重區長安街82-1號","121.501375","25.0677083333333","6500200","三重區"
"241023","545-UM","2018/10/20 21:09:39","新北市三重區洛陽街45巷20號","121.482335","25.0638183333333","6500200","三重區"
"241001","547-UM","2018/10/20 21:09:47","新北市三重區自強路三段87巷7號","121.487763333333","25.0748","6500200","三重區"
"241019","KEA-2593","2018/10/20 21:09:54","新北市三重區自強路二段74巷23-1號","121.487911666667","25.0698066666667","6500200","三重區"
"241006","AAD-863","2018/10/20 21:09:51","新北市三重區中正北路2號","121.489281666667","25.06322","6500200","三重區"
"241005","743-BX","2018/10/20 21:09:48","新北市三重區三信路186號","121.488011666667","25.0860633333333","6500200","三重區"
"241009","887-TS","2018/10/20 21:09:35","新北市三重區忠孝路二段124號","121.483053333333","25.068825","6500200","三重區"
"241029","942-UM","2018/10/20 21:09:36","新北市三重區正義南路111號","121.49826","25.058535","6500200","三重區"
"241033","AAC-255","2018/10/20 21:09:51","新北市三重區重光街107-1號","121.46642","25.0646733333333","6500200","三重區"
"247012","KEA-2869","2018/10/20 21:09:49","新北市蘆洲區三民路72號","121.475193333333","25.0839","6501400","蘆洲區"
"247002","893-R6","2018/10/20 21:09:52","新北市蘆洲區永樂街38巷40號","121.458691666667","25.089975","6501400","蘆洲區"
"247016","546-UM","2018/10/20 21:09:44","新北市蘆洲區中正路185巷78弄1號","121.466181666667","25.084285","6501400","蘆洲區"
"247024","500-BY","2018/10/20 21:09:50","新北市蘆洲區長興路50巷1號","121.463748333333","25.08376","6501400","蘆洲區"
"247014","339-TH","2018/10/20 21:09:40","新北市蘆洲區中央路155號","121.472653333333","25.0846866666667","6501400","蘆洲區"
"247006","337-TH","2018/10/20 21:09:34","新北市蘆洲區九芎街10號","121.467555","25.0786683333333","6501400","蘆洲區"
"247008","336-TH","2018/10/20 21:09:49","新北市蘆洲區民生街47號","121.475011666667","25.0788533333333","6501400","蘆洲區"
"247020","057-VK","2018/10/20 21:09:35","新北市蘆洲區民族路446-7號","121.472736666667","25.0922166666667","6501400","蘆洲區"
"247010","056-VK","2018/10/20 21:09:46","新北市蘆洲區鷺江街73號","121.477176666667","25.0831466666667","6501400","蘆洲區"
"247018","007-UY","2018/10/20 21:09:45","新北市蘆洲區民族路408巷10號","121.474798333333","25.0918166666667","6501400","蘆洲區"
"247004","002-UY","2018/10/20 21:09:41","新北市蘆洲區永安南路二段282-1號","121.457861666667","25.0811683333333","6501400","蘆洲區"
"247022","001-UY","2018/10/20 21:09:33","新北市蘆洲區三民路226號","121.468553333333","25.0894216666667","6501400","蘆洲區"
"251009","008-UM","2018/10/20 21:09:44","新北市淡水區民族路112巷66號","121.461978333333","25.1343133333333","6501000","淡水區"
"251005","010-UM","2018/10/20 21:09:49","新北市淡水區英專路2巷27號","121.446401666667","25.1694","6501000","淡水區"
"251001","011-UM","2018/10/20 21:09:44","新北市淡水區新市一路三段8號","121.445046666667","25.1828733333333","6501000","淡水區"
"251002","012-UM","2018/10/20 21:09:43","新北市淡水區水源街一段147號","121.447538333333","25.1717516666667","6501000","淡水區"
"251013","KEA-2871","2018/10/20 21:09:46","新北市淡水區行忠路328號","121.460428333333","25.1996433333333","6501000","淡水區"
"251016","179-VK","2018/10/20 21:09:40","新北市淡水區前洲子28號","121.440993333333","25.2192716666667","6501000","淡水區"
"251015","180-VK","2018/10/20 21:09:53","新北市淡水區淡金路四段542巷85號","121.455643333333","25.2261433333333","6501000","淡水區"
"251010","413-VK","2018/10/20 21:09:56","新北市淡水區中正路一段63巷9號","121.422465","25.177055","6501000","淡水區"
"251012","441-VK","2018/10/20 21:09:47","新北市淡水區淡金路五段168號","121.456881666667","25.239515","6501000","淡水區"
"251007","442-VK","2018/10/20 21:09:41","新北市淡水區水源街一段113號","121.446446666667","25.1720716666667","6501000","淡水區"
"251011","650-BX","2018/10/20 21:09:43","新北市淡水區新民街180巷31號","121.437963333333","25.1796516666667","6501000","淡水區"
"251003","673-BX","2018/10/20 21:09:53","新北市淡水區新春街94號","121.439031666667","25.1823616666667","6501000","淡水區"
"242051","172-VK","2018/10/20 21:08:04","新北市五股區中直路15-2號","121.423703333333","25.1109066666667","6500500","新莊區"
"221010","269-BY","2018/10/20 21:09:35","新北市汐止區汐萬路一段256巷3號","121.652125","25.07476","6501100","汐止區"
"220070","806-UM","2018/10/20 21:09:41","新北市林口區汕頭32號","121.366471666667","25.1348416666667","6500100","板橋區"
"235010","KEA-2876","2018/10/20 20:58:54","新北市中和區員山路36巷13號","121.48405","24.9909183333333","6500300","中和區"
