"lineid","car","time","location","longitude","latitude","cityid","cityname"
"234040","862-TW","2018/10/20 21:47:20","新北市永和區福和路1號","121.526346666667","25.0096583333333","6500400","永和區"
"241026","066-VK","2018/10/20 21:49:36","新北市林口區汕頭32號","121.366553333333","25.1350433333333","6500200","三重區"
"247012","KEA-2869","2018/10/20 21:49:49","新北市八里區中山路三段409號","121.368726666667","25.13561","6501400","蘆洲區"
"251009","008-UM","2018/10/20 21:49:44","新北市淡水區民族路35巷38號","121.465075","25.1368","6501000","淡水區"
"251005","010-UM","2018/10/20 21:49:47","新北市淡水區鄧公路30巷24號","121.453373333333","25.1697666666667","6501000","淡水區"
"251001","011-UM","2018/10/20 21:49:44","新北市淡水區新市二路三段152號","121.43532","25.1940766666667","6501000","淡水區"
"251002","012-UM","2018/10/20 21:49:43","新北市淡水區大忠街159號","121.44822","25.1766","6501000","淡水區"
"251008","181-VK","2018/10/20 21:49:43","新北市淡水區學府路104號","121.449811666667","25.1718083333333","6501000","淡水區"
"251010","413-VK","2018/10/20 21:49:36","新北市淡水區中正路二段208號","121.426298333333","25.1893166666667","6501000","淡水區"
"251012","441-VK","2018/10/20 21:49:46","新北市淡水區淡金路三段203號","121.44877","25.2048566666667","6501000","淡水區"
"251007","442-VK","2018/10/20 21:49:41","新北市淡水區水源街二段177巷56號","121.45234","25.1771866666667","6501000","淡水區"
"251004","443-VK","2018/10/20 21:49:36","新北市淡水區自強路201巷39號","121.462153333333","25.1267933333333","6501000","淡水區"
"251006","561-UM","2018/10/20 21:49:47","新北市淡水區中正路11巷3號","121.437813333333","25.1707516666667","6501000","淡水區"
"251011","650-BX","2018/10/20 21:49:43","新北市淡水區新民街322巷5弄6號","121.43643","25.1829016666667","6501000","淡水區"
"251003","673-BX","2018/10/20 21:49:53","新北市淡水區新春街81號","121.438791666667","25.1823466666667","6501000","淡水區"
"220070","806-UM","2018/10/20 21:49:40","新北市板橋區華東街1-10號","121.448651666667","24.9949566666667","6500100","板橋區"
