"lineid","car","time","location","longitude","latitude","cityid","cityname"
"234040","862-TW","2018/10/20 21:47:20","新北市永和區福和路1號","121.526346666667","25.0096583333333","6500400","永和區"
"247012","KEA-2869","2018/10/20 22:09:49","新北市八里區下罟子1-15號","121.389291666667","25.1421833333333","6501400","蘆洲區"
"251005","010-UM","2018/10/20 22:09:47","新北市淡水區鄧公路19號","121.45134","25.1700233333333","6501000","淡水區"
"251008","181-VK","2018/10/20 22:09:43","新北市淡水區學府路104號","121.449855","25.17178","6501000","淡水區"
"251010","413-VK","2018/10/20 22:09:36","新北市淡水區沙崙路200號","121.424708333333","25.1838866666667","6501000","淡水區"
"251007","442-VK","2018/10/20 22:09:41","新北市淡水區北新路180號","121.449511666667","25.17873","6501000","淡水區"
"251004","443-VK","2018/10/20 22:09:56","新北市淡水區民族路33號","121.462276666667","25.135785","6501000","淡水區"
"251011","650-BX","2018/10/20 22:09:43","新北市淡水區水碓街7號","121.443215","25.177115","6501000","淡水區"
