"lineid","car","time","location","longitude","latitude","cityid","cityname"
"248005","653-BX","2018/03/03 09:39:30","新北市五股區成泰路一段9號","121.433491666667","25.0667","6501500","五股區"
"244002","657-BX","2018/03/03 09:39:35","新北市林口區公園路227-3號","121.374625","25.074645","6501700","林口區"
"222004","289-BY","2018/03/03 09:39:36","新北市深坑區阿柔洋64號","121.60734","24.9986666666667","6501800","深坑區"
"231007","189-VK","2018/03/03 09:39:30","新北市新店區新潭路三段215巷25號","121.508145","24.9041066666667","6500600","新店區"
"231008","192-VK","2018/03/03 09:39:28","新北市新店區平廣路一段50號","121.533846666667","24.90096","6500600","新店區"
"235001","611-BX","2018/03/03 09:39:32","新北市中和區員山路146-4號","121.481296666667","24.9970333333333","6500300","中和區"
"223007","661-BX","2018/03/03 09:39:31","新北市新店區安康路一段302-3號","121.517675","24.96409","6501900","石碇區"
"227006","282-VK","2018/03/03 09:32:02","新北市雙溪區長源里柑腳55-1號","121.793765","25.0069533333333","6502500","雙溪區"
"252004","249-BX","2018/03/03 09:39:35","新北市三芝區圓山里石曹子坑64號","121.523521666667","25.21361","6502100","三芝區"
"252007","AAC-283","2018/03/03 09:39:25","新北市三芝區埔坪里埔頭坑44號","121.50462","25.2618116666667","6502100","三芝區"
"236011","165-UM","2018/03/03 09:39:21","新北市土城區城林路6巷80號","121.438486666667","24.9797083333333","6501300","土城區"
"236006","498-BY","2018/03/03 09:39:30","新北市土城區中華路二段243號","121.437553333333","24.972505","6501300","土城區"
"239007","AAC-297","2018/03/03 09:39:22","新北市鶯歌區中正三路316號","121.32815","24.9353866666667","6500800","鶯歌區"
