"lineid","car","time","location","longitude","latitude","cityid","cityname"
"244002","657-BX","2018/03/03 10:09:35","新北市林口區公園路227-3號","121.37463","25.0746566666667","6501700","林口區"
"231007","189-VK","2018/03/03 10:09:31","新北市新店區新潭路三段215巷25號","121.50809","24.9041083333333","6500600","新店區"
"231008","192-VK","2018/03/03 10:09:28","新北市新店區廣興路5巷13號","121.545923333333","24.9126666666667","6500600","新店區"
"227006","282-VK","2018/03/03 10:09:42","新北市雙溪區長源里柑腳8號","121.804716666667","25.0145616666667","6502500","雙溪區"
"252004","249-BX","2018/03/03 10:09:34","新北市三芝區福德里埔尾4號","121.503451666667","25.246875","6502100","三芝區"
"252007","AAC-283","2018/03/03 10:09:25","新北市三芝區新庄里新庄子51-22號","121.507463333333","25.278055","6502100","三芝區"
"236011","165-UM","2018/03/03 10:09:32","新北市土城區中央路四段208號","121.415961666667","24.9574533333333","6501300","土城區"
"239007","AAC-297","2018/03/03 10:09:42","新北市鶯歌區中正三路322號","121.32814","24.9353633333333","6500800","鶯歌區"
