"lineid","car","time","location","longitude","latitude","cityid","cityname"
"244002","657-BX","2018/03/03 10:19:35","新北市林口區公園路227-3號","121.374663333333","25.0746433333333","6501700","林口區"
"231007","189-VK","2018/03/03 10:19:30","新北市新店區新潭路三段190號","121.507865","24.9051783333333","6500600","新店區"
"231008","192-VK","2018/03/03 10:19:18","新北市新店區成功路50巷1號","121.540453333333","24.9002166666667","6500600","新店區"
"224005","271-BY","2018/03/03 10:19:30","新北市瑞芳區大寮路356-1號","121.784775","25.1032416666667","6501200","瑞芳區"
"227006","282-VK","2018/03/03 10:19:22","新北市雙溪區長源里柑腳8號","121.804676666667","25.014625","6502500","雙溪區"
"252007","AAC-283","2018/03/03 10:19:25","新北市三芝區新庄里番社后8-9號","121.50259","25.269615","6502100","三芝區"
"239007","AAC-297","2018/03/03 10:19:22","新北市鶯歌區中正三路322號","121.328156666667","24.9353716666667","6500800","鶯歌區"
