"lineid","car","time","location","longitude","latitude","cityid","cityname"
"244002","657-BX","2018/03/03 10:27:35","新北市林口區公園路227-3號","121.374658333333","25.074665","6501700","林口區"
"231007","189-VK","2018/03/03 10:27:31","新北市新店區小坑三路52-1號","121.517206666667","24.9083383333333","6500600","新店區"
"231008","192-VK","2018/03/03 10:25:08","新北市新店區成功路126號","121.533586666667","24.89489","6500600","新店區"
"224005","271-BY","2018/03/03 10:22:29","新北市瑞芳區大寮路356-1號","121.78461","25.103375","6501200","瑞芳區"
"227006","282-VK","2018/03/03 10:27:22","新北市雙溪區長源里柑腳9號","121.804713333333","25.0146266666667","6502500","雙溪區"
"252007","AAC-283","2018/03/03 10:27:25","新北市三芝區古庄里茂興店74號","121.493046666667","25.2667733333333","6502100","三芝區"
"239007","AAC-297","2018/03/03 10:27:22","新北市鶯歌區中正三路322號","121.328123333333","24.93532","6500800","鶯歌區"
