"lineid","car","time","location","longitude","latitude","cityid","cityname"
"234044","148-BY","2018/03/03 12:59:41","新北市永和區得和路373巷16弄1號","121.525093333333","25.0003283333333","6500400","永和區"
"234005","207-UY","2018/03/03 12:59:33","新北市永和區永和路二段8號","121.514563333333","25.0102566666667","6500400","永和區"
"234078","298-R6","2018/03/03 12:59:42","新北市永和區福和路135號","121.521283333333","25.0078166666667","6500400","永和區"
"234036","336-UY","2018/03/03 12:59:42","新北市永和區成功路二段207號","121.526573333333","24.9959033333333","6500400","永和區"
"234062","337-UY","2018/03/03 12:59:35","新北市永和區秀朗路一段156號","121.51837","25.003385","6500400","永和區"
"234084","338-UY","2018/03/03 12:59:38","新北市永和區永利路18號","121.51799","25.00574","6500400","永和區"
"234068","552-UM","2018/03/03 12:59:34","新北市永和區中興街84巷8號","121.518505","25.0116583333333","6500400","永和區"
"234015","745-BX","2018/03/03 12:59:32","新北市永和區永和路二段299號","121.51611","25.01621","6500400","永和區"
"234028","746-BX","2018/03/03 12:59:29","新北市永和區民生路23號","121.52285","24.9987183333333","6500400","永和區"
"234052","KEA-2590","2018/03/03 12:59:26","新北市永和區竹林路66巷2號","121.518211666667","25.01342","6500400","永和區"
"234012","KEA-2591","2018/03/03 12:59:39","新北市永和區中山路一段60巷10號","121.513193333333","25.0110033333333","6500400","永和區"
"234060","AAD-866","2018/03/03 12:59:32","新北市永和區福和路313號","121.516151666667","25.0070966666667","6500400","永和區"
"234040","862-TW","2018/03/03 12:59:32","新北市永和區永貞路310號","121.511846666667","25.00495","6500400","永和區"
"234048","863-TW","2018/03/03 12:59:40","新北市永和區文化路192巷4弄2-1號","121.510875","25.0162266666667","6500400","永和區"
"234025","9371-KE","2018/03/03 12:59:37","新北市永和區永和路一段1號","121.512963333333","25.0050666666667","6500400","永和區"
"234010","9373-KE","2018/03/03 12:59:40","新北市永和區仁愛路40巷5弄4號","121.513813333333","25.0139166666667","6500400","永和區"
"248017","225-UY","2018/03/03 12:59:39","新北市五股區中興路二段83巷26-6號","121.45996","25.0752483333333","6501500","五股區"
"234022","9380-KE","2018/03/03 12:59:45","新北市永和區竹林路75巷17號","121.520063333333","25.014035","6500400","永和區"
"234076","969-R7","2018/03/03 12:59:38","新北市永和區民享街5號","121.51516","24.9954933333333","6500400","永和區"
"234072","AAC-211","2018/03/03 12:59:45","新北市永和區環河東路二段98號","121.524138333333","25.01036","6500400","永和區"
"234066","AAC-212","2018/03/03 12:59:46","新北市永和區中和路625號","121.513003333333","25.0048716666667","6500400","永和區"
"234001","AAC-295","2018/03/03 12:59:31","新北市永和區永平路31號","121.513118333333","25.0087566666667","6500400","永和區"
"244005","248-BX","2018/03/03 12:59:43","新北市林口區中山路168-1號","121.389608333333","25.0789116666667","6501700","林口區"
"231002","002-UM","2018/03/03 12:59:31","新北市新店區安華路28-1號","121.519616666667","24.9608133333333","6500600","新店區"
"231028","046-UY","2018/03/03 12:59:31","新北市新店區安華路28-1號","121.519618333333","24.960735","6500600","新店區"
"231030","047-UY","2018/03/03 12:59:38","新北市新店區安華路28-1號","121.51919","24.9609083333333","6500600","新店區"
"231029","106-UY","2018/03/03 12:59:39","新北市新店區安華路30巷1號","121.519405","24.95974","6500600","新店區"
"231018","107-UY","2018/03/03 12:59:39","新北市新店區安華路28-1號","121.519381666667","24.9612983333333","6500600","新店區"
"231022","187-VK","2018/03/03 12:59:34","新北市新店區安華路28-1號","121.519676666667","24.9611116666667","6500600","新店區"
"231017","KEA-2219","2018/03/03 12:59:32","新北市新店區安華路28-1號","121.519878333333","24.96135","6500600","新店區"
"231010","278-BY","2018/03/03 12:59:40","新北市新店區安華路15-2號","121.520173333333","24.96151","6500600","新店區"
"231027","3712-VJ","2018/03/03 12:59:31","新北市新店區安華路1-1號","121.519196666667","24.9605566666667","6500600","新店區"
"231038","4715-K9","2018/03/03 12:59:40","新北市新店區安華路1-1號","121.519263333333","24.9605333333333","6500600","新店區"
"231036","512-UM","2018/03/03 12:59:28","新北市新店區安華路28-1號","121.519885","24.961345","6500600","新店區"
"231023","513-UM","2018/03/03 12:59:44","新北市新店區安華路28-1號","121.51965","24.961205","6500600","新店區"
"231035","515-UM","2018/03/03 12:59:30","新北市新店區安華路28-1號","121.519743333333","24.9607166666667","6500600","新店區"
"231001","619-UM","2018/03/03 12:59:26","新北市新店區安華路28-1號","121.519765","24.96068","6500600","新店區"
"231003","641-BX","2018/03/03 12:59:26","新北市新店區安華路1-1號","121.51964","24.9604683333333","6500600","新店區"
"231034","645-TV","2018/03/03 12:59:44","新北市新店區安華路28-1號","121.519418333333","24.960655","6500600","新店區"
"231013","719-UM","2018/03/03 12:59:36","新北市新店區安華路28-1號","121.519606666667","24.9613766666667","6500600","新店區"
"231033","720-UM","2018/03/03 12:59:43","新北市新店區安華路28-1號","121.519106666667","24.961035","6500600","新店區"
"231004","899-TW","2018/03/03 12:59:29","新北市新店區安華路28-1號","121.519211666667","24.9608083333333","6500600","新店區"
"235030","003-UY","2018/03/03 12:59:47","新北市中和區圓通路175號","121.497633333333","24.995105","6500300","中和區"
"235027","006-UY","2018/03/03 12:59:35","新北市中和區員山路36巷16-3號","121.485086666667","24.9912966666667","6500300","中和區"
"235029","098-UM","2018/03/03 12:59:38","新北市中和區板南路399巷2號","121.49328","24.998995","6500300","中和區"
"235004","150-BY","2018/03/03 12:56:31","新北市中和區員山路36巷16-2號","121.485391666667","24.9914333333333","6500300","中和區"
"235022","151-BY","2018/03/03 12:59:40","新北市中和區錦和路350-1號","121.490508333333","24.9934983333333","6500300","中和區"
"235002","185-VK","2018/03/03 12:59:31","新北市中和區成功路41巷1號","121.52618","24.9933433333333","6500300","中和區"
"235031","255-BX","2018/03/03 12:59:28","新北市中和區中正路877巷2-2號","121.484265","25.0040383333333","6500300","中和區"
"235035","269-TV","2018/03/03 12:59:38","新北市中和區新生街278號","121.483698333333","24.9968083333333","6500300","中和區"
"235026","800-TS","2018/03/03 12:59:46","新北市中和區中正路589巷9號","121.485833333333","24.99405","6500300","中和區"
"235016","805-TS","2018/03/03 12:59:41","新北市中和區員山路36巷16號","121.484443333333","24.9914866666667","6500300","中和區"
"235011","157-BY","2018/03/03 12:59:32","新北市中和區員山路36巷13號","121.484096666667","24.9909066666667","6500300","中和區"
"235001","AAC-213","2018/03/03 12:59:33","新北市中和區圓通路208號","121.495885","24.9939366666667","6500300","中和區"
"235005","251-BX","2018/03/03 12:59:39","新北市中和區員山路36巷16-2號","121.485298333333","24.9917483333333","6500300","中和區"
"228005","097-TW","2018/03/03 12:59:36","新北市貢寮區福隆里興隆街38號","121.940205","25.0180616666667","6502600","貢寮區"
"228004","212-TW","2018/03/03 12:59:35","新北市貢寮區吉林里內寮街57號","121.887015","24.9874433333333","6502600","貢寮區"
"253004","8270-PC","2018/03/03 12:59:40","新北市石門區中山路64-1號","121.567561666667","25.2904633333333","6502200","石門區"
"207002","749-BX","2018/03/03 12:59:32","新北市萬里區雙興里大坪路37-2號","121.628403333333","25.1694283333333","6502800","萬里區"
"252005","073-UM","2018/03/03 12:59:43","新北市三芝區埔頭里埔頭4號","121.505786666667","25.2508566666667","6502100","三芝區"
"207001","662-BX","2018/03/03 12:59:36","新北市萬里區萬里里獅頭路23號","121.693161666667","25.17829","6502800","萬里區"
"236006","498-BY","2018/03/03 12:59:32","新北市土城區亞洲路32巷6號","121.435813333333","24.9744416666667","6501300","土城區"
"221032","280-BY","2018/03/03 12:59:30","新北市汐止區建成路57巷1號","121.662366666667","25.0725483333333","6501100","汐止區"
