"lineid","car","time","location","longitude","latitude","cityid","cityname"
"234044","148-BY","2018/03/03 13:09:41","新北市永和區永元路18巷28號","121.523478333333","25.00017","6500400","永和區"
"234005","207-UY","2018/03/03 13:09:33","新北市永和區中山路一段175-1號","121.509573333333","25.00909","6500400","永和區"
"234078","298-R6","2018/03/03 13:09:42","新北市永和區福和路57巷14弄1號","121.522826666667","25.006945","6500400","永和區"
"234036","336-UY","2018/03/03 13:09:42","新北市永和區民樂街90巷1號","121.527331666667","24.9974316666667","6500400","永和區"
"234062","337-UY","2018/03/03 13:09:35","新北市永和區秀朗路二段33號","121.521271666667","25.00245","6500400","永和區"
"234084","338-UY","2018/03/03 13:09:38","新北市永和區永貞路90號","121.519443333333","25.0045483333333","6500400","永和區"
"234068","552-UM","2018/03/03 13:09:34","新北市永和區豫溪街137巷1弄22號","121.518505","25.0104716666667","6500400","永和區"
"234015","745-BX","2018/03/03 13:09:32","新北市永和區文化路90巷14號","121.513868333333","25.01586","6500400","永和區"
"234028","746-BX","2018/03/03 13:09:29","新北市永和區民生路23號","121.52292","24.9987366666667","6500400","永和區"
"234052","KEA-2590","2018/03/03 13:09:32","新北市永和區中興街133巷16號","121.518288333333","25.01258","6500400","永和區"
"234012","KEA-2591","2018/03/03 13:09:39","新北市永和區保福路二段14-1號","121.510908333333","25.01137","6500400","永和區"
"234060","AAD-866","2018/03/03 13:09:32","新北市永和區自由街39-1號","121.514358333333","25.0060616666667","6500400","永和區"
"234040","862-TW","2018/03/03 13:09:34","新北市永和區永貞路328-1號","121.51131","25.0055766666667","6500400","永和區"
"234048","863-TW","2018/03/03 13:09:40","新北市永和區仁愛路104巷7弄58號","121.510961666667","25.0141666666667","6500400","永和區"
"234025","9371-KE","2018/03/03 13:09:37","新北市永和區秀朗路一段10巷19號","121.513441666667","25.00616","6500400","永和區"
"234010","9373-KE","2018/03/03 13:09:40","新北市永和區仁愛路31巷2弄11號","121.513598333333","25.0128383333333","6500400","永和區"
"248017","225-UY","2018/03/03 13:09:39","新北市五股區成泰路三段101-1號","121.444226666667","25.0902616666667","6501500","五股區"
"234022","9380-KE","2018/03/03 13:09:25","新北市永和區中興街10巷7號","121.515451666667","25.011245","6500400","永和區"
"234076","969-R7","2018/03/03 13:09:38","新北市永和區民光街10號","121.515455","24.99616","6500400","永和區"
"234072","AAC-211","2018/03/03 13:09:45","新北市永和區竹林路217號","121.5208","25.00862","6500400","永和區"
"234066","AAC-212","2018/03/03 13:09:29","新北市永和區永和路一段93號","121.513373333333","25.0076383333333","6500400","永和區"
"234001","AAC-295","2018/03/03 13:09:31","新北市永和區永和路二段28號","121.514631666667","25.01033","6500400","永和區"
"244005","248-BX","2018/03/03 13:09:43","新北市林口區南勢街192巷1號","121.360731666667","25.0746783333333","6501700","林口區"
"231002","002-UM","2018/03/03 13:09:31","新北市新店區安華路28-1號","121.519711666667","24.960805","6500600","新店區"
"231025","0293-UT","2018/03/03 13:05:02","新北市新店區安華路3號","121.51928","24.9598083333333","6500600","新店區"
"231028","046-UY","2018/03/03 13:09:31","新北市新店區安華路28-1號","121.519595","24.9607616666667","6500600","新店區"
"231030","047-UY","2018/03/03 13:09:38","新北市新店區安華路30巷1號","121.519396666667","24.959695","6500600","新店區"
"231029","106-UY","2018/03/03 13:09:39","新北市新店區安華路28-1號","121.51958","24.9608266666667","6500600","新店區"
"231018","107-UY","2018/03/03 13:09:39","新北市新店區安華路28-1號","121.519326666667","24.9613783333333","6500600","新店區"
"231012","108-UY","2018/03/03 13:09:36","新北市新店區安華路28-1號","121.519896666667","24.9606883333333","6500600","新店區"
"231020","187-VK","2018/03/03 13:09:34","新北市新店區安華路28-1號","121.519601666667","24.96116","6500600","新店區"
"231017","KEA-2219","2018/03/03 13:09:32","新北市新店區安華路28-1號","121.519758333333","24.9611816666667","6500600","新店區"
"231010","278-BY","2018/03/03 13:09:40","新北市新店區安華路28-1號","121.519713333333","24.961275","6500600","新店區"
"231027","3712-VJ","2018/03/03 13:09:31","新北市新店區安華路1-1號","121.519205","24.960555","6500600","新店區"
"231024","4716-K9","2018/03/03 13:09:44","新北市新店區安華路28-1號","121.519301666667","24.9612016666667","6500600","新店區"
"231038","4715-K9","2018/03/03 13:09:40","新北市新店區安華路1-1號","121.519313333333","24.960415","6500600","新店區"
"231036","512-UM","2018/03/03 13:09:28","新北市新店區安康路一段359-27號","121.518715","24.9611833333333","6500600","新店區"
"231023","513-UM","2018/03/03 13:09:44","新北市新店區安華路28-1號","121.519573333333","24.9610433333333","6500600","新店區"
"231035","515-UM","2018/03/03 13:09:30","新北市新店區安華路28-1號","121.519808333333","24.96096","6500600","新店區"
"231006","617-UM","2018/03/03 13:09:41","新北市新店區安華路28-1號","121.519443333333","24.9610083333333","6500600","新店區"
"231001","619-UM","2018/03/03 13:09:26","新北市新店區安華路28-1號","121.519568333333","24.960645","6500600","新店區"
"231003","641-BX","2018/03/03 13:09:46","新北市新店區安華路1-1號","121.519618333333","24.9603516666667","6500600","新店區"
"231034","645-TV","2018/03/03 13:09:24","新北市新店區安華路1-1號","121.519356666667","24.9605433333333","6500600","新店區"
"231013","719-UM","2018/03/03 13:09:36","新北市新店區安華路28-1號","121.519468333333","24.9610916666667","6500600","新店區"
"231033","720-UM","2018/03/03 13:09:43","新北市新店區安華路28-1號","121.519305","24.9610566666667","6500600","新店區"
"231004","899-TW","2018/03/03 13:09:28","新北市新店區安華路28-1號","121.51923","24.9608483333333","6500600","新店區"
"231037","AKT-0513","2018/03/03 13:09:42","新北市新店區安華路28-1號","121.51925","24.9605766666667","6500600","新店區"
"235030","003-UY","2018/03/03 13:09:27","新北市中和區中山路二段64巷14弄2號","121.50339","25.0054566666667","6500300","中和區"
"235028","005-UY","2018/03/03 13:09:43","新北市中和區中正路395號","121.489306666667","24.9935283333333","6500300","中和區"
"235027","006-UY","2018/03/03 13:09:35","新北市中和區員山路36巷16-3號","121.48504","24.9912433333333","6500300","中和區"
"235024","031-BX","2018/03/03 13:09:27","新北市中和區員山路36巷16-3號","121.484793333333","24.9917316666667","6500300","中和區"
"235029","098-UM","2018/03/03 13:09:38","新北市中和區福祥路2號","121.499643333333","25.002845","6500300","中和區"
"235004","150-BY","2018/03/03 12:56:31","新北市中和區員山路36巷16-2號","121.485391666667","24.9914333333333","6500300","中和區"
"235022","151-BY","2018/03/03 13:09:40","新北市中和區圓通路367巷33弄33號","121.494665","24.98548","6500300","中和區"
"235002","185-VK","2018/03/03 13:09:31","新北市中和區景平路154號","121.517783333333","24.9920933333333","6500300","中和區"
"235031","255-BX","2018/03/03 13:09:28","新北市中和區民樂路60號","121.483901666667","25.0012533333333","6500300","中和區"
"235036","301-VK","2018/03/03 13:09:35","新北市中和區員山路36巷13號","121.484036666667","24.9910166666667","6500300","中和區"
"235032","377-QA","2018/03/03 13:09:37","新北市中和區員山路36巷16-3號","121.484916666667","24.991245","6500300","中和區"
"235025","378-QA","2018/03/03 13:09:24","新北市土城區金城路三段257號","121.471865","24.9899816666667","6500300","中和區"
"235035","269-TV","2018/03/03 13:09:38","新北市中和區立德街218號","121.483666666667","25.0099266666667","6500300","中和區"
"235014","4979-A6","2018/03/03 13:09:31","新北市中和區中正路637巷60弄61號","121.485408333333","24.99252","6500300","中和區"
"235033","4980-A6","2018/03/03 13:09:30","新北市中和區錦和路350-1號","121.490385","24.9935233333333","6500300","中和區"
"235006","551-UM","2018/03/03 13:09:31","新北市中和區景平路255號","121.508671666667","24.992995","6500300","中和區"
"235018","640-BX","2018/03/03 13:09:27","新北市土城區延壽路118-6號","121.469046666667","24.994505","6500300","中和區"
"235011","732-UM","2018/03/03 13:09:35","新北市中和區員山路36巷16-3號","121.48493","24.9913433333333","6500300","中和區"
"235026","800-TS","2018/03/03 13:09:46","新北市中和區橋和路60號","121.489486666667","25.0051766666667","6500300","中和區"
"235016","805-TS","2018/03/03 13:09:41","新北市中和區錦和路350-1號","121.490381666667","24.9935616666667","6500300","中和區"
"235017","900-TW","2018/03/03 13:09:40","新北市中和區員山路36巷16-3號","121.484945","24.9917366666667","6500300","中和區"
"235034","911-UM","2018/03/03 13:09:35","新北市中和區中正路395號","121.489691666667","24.9935916666667","6500300","中和區"
"235011","157-BY","2018/03/03 13:09:32","新北市中和區興南路一段90號","121.509831666667","24.9892316666667","6500300","中和區"
"235001","AAC-213","2018/03/03 13:09:33","新北市中和區景平路149號","121.51389","24.9921916666667","6500300","中和區"
"235023","AAC-215","2018/03/03 13:09:26","新北市中和區員山路36巷16-3號","121.485015","24.991315","6500300","中和區"
"235005","251-BX","2018/03/03 13:09:39","新北市中和區中正路395號","121.489271666667","24.9935283333333","6500300","中和區"
"228005","097-TW","2018/03/03 13:09:36","新北市貢寮區仁理村仁和路49巷7號","121.923205","25.05403","6502600","貢寮區"
"228004","212-TW","2018/03/03 13:09:35","新北市貢寮區吉林里內寮街71號","121.892175","24.97321","6502600","貢寮區"
"253003","6232-TK","2018/03/03 13:09:31","新北市石門區石崩山20-5號","121.567793333333","25.2759033333333","6502200","石門區"
"253001","6251-TK","2018/03/03 13:09:33","新北市石門區老梅路43-2號","121.545376666667","25.2896183333333","6502200","石門區"
"253002","637-UY","2018/03/03 13:09:27","新北市石門區老崩山35號","121.557331666667","25.27671","6502200","石門區"
"253004","8270-PC","2018/03/03 13:09:40","新北市石門區小坑20-1號","121.597185","25.280675","6502200","石門區"
"207002","749-BX","2018/03/03 13:07:12","新北市萬里區溪底里香員林路6號","121.632688333333","25.1638033333333","6502800","萬里區"
"252005","073-UM","2018/03/03 13:09:43","新北市三芝區八賢里八連溪41號","121.512855","25.237055","6502100","三芝區"
"207001","662-BX","2018/03/03 13:09:36","新北市萬里區龜吼里美崙路53號","121.68734","25.1837466666667","6502800","萬里區"
"236006","498-BY","2018/03/03 13:09:32","新北市土城區亞洲路9號","121.434273333333","24.9723","6501300","土城區"
"221032","280-BY","2018/03/03 13:09:30","新北市汐止區大同路二段225號","121.652986666667","25.06501","6501100","汐止區"
