"lineid","car","time","location","longitude","latitude","cityid","cityname"
"234044","148-BY","2018/03/03 13:39:41","新北市永和區永亨路145號","121.525406666667","25.003945","6500400","永和區"
"234005","207-UY","2018/03/03 13:39:33","新北市永和區永和路一段116號","121.513725","25.0075933333333","6500400","永和區"
"234078","298-R6","2018/03/03 13:39:42","新北市永和區國中路104巷8弄24號","121.525406666667","25.0062466666667","6500400","永和區"
"234036","336-UY","2018/03/03 13:39:44","新北市永和區民樂街31巷6弄2號","121.528011666667","25.001265","6500400","永和區"
"234062","337-UY","2018/03/03 13:39:35","新北市永和區秀朗路一段192巷6弄14號","121.519165","25.00229","6500400","永和區"
"234084","338-UY","2018/03/03 13:39:38","新北市永和區林森路41巷31號","121.526218333333","25.0042883333333","6500400","永和區"
"234068","552-UM","2018/03/03 13:39:34","新北市永和區永和路二段233號","121.51559","25.0141283333333","6500400","永和區"
"234015","745-BX","2018/03/03 13:39:32","新北市永和區永和路二段425巷5號","121.515283333333","25.017735","6500400","永和區"
"234028","746-BX","2018/03/03 13:39:40","新北市永和區民生路37巷7號","121.523668333333","24.9980283333333","6500400","永和區"
"234052","KEA-2590","2018/03/03 13:39:45","新北市永和區竹林路39巷24弄5號","121.519183333333","25.0143666666667","6500400","永和區"
"234012","KEA-2591","2018/03/03 13:39:39","新北市永和區永平路238巷12號","121.509563333333","25.011765","6500400","永和區"
"234060","AAD-866","2018/03/03 13:39:32","新北市永和區中正路430號","121.517553333333","25.0023483333333","6500400","永和區"
"234040","862-TW","2018/03/03 13:39:40","新北市永和區中和路305巷16弄20號","121.507138333333","25.001135","6500400","永和區"
"234048","863-TW","2018/03/03 13:39:40","新北市永和區保安路38號","121.510413333333","25.0169533333333","6500400","永和區"
"234025","9371-KE","2018/03/03 13:39:37","新北市永和區中山路一段147號","121.510033333333","25.0095983333333","6500400","永和區"
"234010","9373-KE","2018/03/03 13:39:40","新北市永和區保福路二段9巷9號","121.51053","25.0109083333333","6500400","永和區"
"248017","225-UY","2018/03/03 13:39:39","新北市五股區民義路二段50-16號","121.412821666667","25.1021633333333","6501500","五股區"
"234022","9380-KE","2018/03/03 13:39:45","新北市永和區中正路702巷20弄1號","121.516458333333","25.0106016666667","6500400","永和區"
"234076","969-R7","2018/03/03 13:39:38","新北市永和區得和路235號","121.520153333333","25.0001","6500400","永和區"
"234072","AAC-211","2018/03/03 13:39:25","新北市永和區竹林路213巷44號","121.523308333333","25.0091166666667","6500400","永和區"
"234066","AAC-212","2018/03/03 13:39:46","新北市永和區中山路一段191巷9弄14號","121.510051666667","25.008155","6500400","永和區"
"234001","AAC-295","2018/03/03 13:39:31","新北市永和區安樂路463巷14弄1-1號","121.513536666667","25.0051816666667","6500400","永和區"
"244005","248-BX","2018/03/03 13:39:41","新北市林口區竹林路434號","121.388686666667","25.0851416666667","6501700","林口區"
"231002","002-UM","2018/03/03 13:39:31","新北市新店區中央三街127號","121.524028333333","24.9768","6500600","新店區"
"231025","0293-UT","2018/03/03 13:39:36","新北市新店區中央七街61巷2號","121.528233333333","24.9764266666667","6500600","新店區"
"231028","046-UY","2018/03/03 13:39:31","新北市新店區安和路二段138-3號","121.519336666667","24.97181","6500600","新店區"
"231030","047-UY","2018/03/03 13:39:38","新北市新店區安康路一段65號","121.530408333333","24.9610366666667","6500600","新店區"
"231029","106-UY","2018/03/03 13:39:39","新北市新店區安康路二段169號","121.509846666667","24.9593166666667","6500600","新店區"
"231018","107-UY","2018/03/03 13:39:39","新北市新店區百忍街20號","121.534403333333","24.97569","6500600","新店區"
"231012","108-UY","2018/03/03 13:39:36","新北市新店區德正街27巷29弄14號","121.5458","24.9720233333333","6500600","新店區"
"231020","187-VK","2018/03/03 13:39:34","新北市新店區永興路95-3號","121.544638333333","24.9321983333333","6500600","新店區"
"231017","KEA-2219","2018/03/03 13:39:32","新北市新店區竹林路2巷30號","121.550041666667","24.950425","6500600","新店區"
"231026","256-BX","2018/03/03 13:39:30","新北市新店區北新路一段303號","121.541455","24.9674483333333","6500600","新店區"
"231010","278-BY","2018/03/03 13:39:41","新北市新店區平等街1號","121.537061666667","24.9743016666667","6500600","新店區"
"231027","3712-VJ","2018/03/03 13:39:31","新北市新店區北宜路一段129號","121.540611666667","24.953305","6500600","新店區"
"231024","4716-K9","2018/03/03 13:39:44","新北市新店區華興街24號","121.537531666667","24.9692866666667","6500600","新店區"
"231038","4715-K9","2018/03/03 13:39:40","新北市新店區安華路30巷1號","121.519588333333","24.95928","6500600","新店區"
"231036","512-UM","2018/03/03 13:39:28","新北市新店區安祥路147巷44號","121.476143333333","24.95698","6500600","新店區"
"231023","513-UM","2018/03/03 13:39:44","新北市新店區新店路166號","121.537146666667","24.9557","6500600","新店區"
"231035","515-UM","2018/03/03 13:39:30","新北市新店區安忠路94-1號","121.511163333333","24.9573016666667","6500600","新店區"
"231006","617-UM","2018/03/03 13:39:41","新北市新店區北宜路一段115巷1號","121.540148333333","24.9542516666667","6500600","新店區"
"231005","618-UM","2018/03/03 13:39:36","新北市新店區中興路三段6號","121.547473333333","24.9786916666667","6500600","新店區"
"231001","619-UM","2018/03/03 13:39:26","新北市新店區中正路394號","121.534591666667","24.977325","6500600","新店區"
"231003","641-BX","2018/03/03 13:39:46","新北市新店區中興路一段267-1號","121.544966666667","24.967695","6500600","新店區"
"231034","645-TV","2018/03/03 13:39:44","新北市新店區車子路134號","121.505031666667","24.9486766666667","6500600","新店區"
"231013","719-UM","2018/03/03 13:39:39","新北市新店區中正路454-5號","121.534523333333","24.97902","6500600","新店區"
"231033","720-UM","2018/03/03 13:39:43","新北市新店區莒光路44巷21弄11-3號","121.518503333333","24.9521216666667","6500600","新店區"
"231004","899-TW","2018/03/03 13:39:28","新北市新店區北新路二段1號","121.542688333333","24.9712933333333","6500600","新店區"
"231037","AKT-0513","2018/03/03 13:39:42","新北市新店區安康路二段373號","121.495178333333","24.954665","6500600","新店區"
"235030","003-UY","2018/03/03 13:39:27","新北市中和區水源路28號","121.504481666667","25.003515","6500300","中和區"
"235028","005-UY","2018/03/03 13:39:43","新北市中和區連城路89巷8號","121.497051666667","24.9994683333333","6500300","中和區"
"235027","006-UY","2018/03/03 13:39:35","新北市中和區連城路389巷10弄3號","121.486435","24.9955983333333","6500300","中和區"
"235024","031-BX","2018/03/03 13:39:47","新北市中和區中山路二段513號","121.482146666667","25.0050616666667","6500300","中和區"
"235020","096-UM","2018/03/03 13:39:29","新北市中和區員山路466巷17弄10號","121.48052","25.007265","6500300","中和區"
"235003","097-UM","2018/03/03 13:39:29","新北市中和區大勇街25巷21號","121.515533333333","24.993835","6500300","中和區"
"235029","098-UM","2018/03/03 13:39:38","新北市中和區莊敬路49巷29弄10號","121.501243333333","25.006485","6500300","中和區"
"235004","150-BY","2018/03/03 13:39:31","新北市中和區安平路59號","121.509426666667","24.9951216666667","6500300","中和區"
"235022","151-BY","2018/03/03 13:39:40","新北市中和區圓通路369巷55弄10號","121.491046666667","24.983185","6500300","中和區"
"235019","183-VK","2018/03/03 13:39:42","新北市中和區莒光路120巷13弄1-4號","121.471653333333","25.0014783333333","6500300","中和區"
"235002","185-VK","2018/03/03 13:39:31","新北市永和區民有街73號","121.518215","24.995735","6500300","中和區"
"235013","186-VK","2018/03/03 13:39:29","新北市中和區明義街8號","121.50497","24.99496","6500300","中和區"
"235031","255-BX","2018/03/03 13:39:28","新北市中和區新生街220巷13號","121.482951666667","24.9984733333333","6500300","中和區"
"235008","293-VK","2018/03/03 13:39:38","新北市中和區復興路280巷18弄6號","121.502303333333","24.9915666666667","6500300","中和區"
"235036","301-VK","2018/03/03 13:39:35","新北市中和區連城路185號","121.495131666667","24.9981866666667","6500300","中和區"
"235007","352-BY","2018/03/03 13:39:33","新北市中和區景平路157號","121.513125","24.9923183333333","6500300","中和區"
"235032","377-QA","2018/03/03 13:39:37","新北市中和區中正路211巷13弄50號","121.49815","24.9929183333333","6500300","中和區"
"235025","378-QA","2018/03/03 13:39:44","新北市中和區民享街30巷6號","121.473546666667","25.0035316666667","6500300","中和區"
"235035","269-TV","2018/03/03 13:39:38","新北市中和區中山路二段482巷19號","121.48945","25.0068616666667","6500300","中和區"
"235014","4979-A6","2018/03/03 13:39:31","新北市中和區景新街496巷28弄8號","121.513123333333","24.9859083333333","6500300","中和區"
"235033","4980-A6","2018/03/03 13:39:30","新北市中和區連城路99巷11號","121.49698","24.9991283333333","6500300","中和區"
"235006","551-UM","2018/03/03 13:39:31","新北市中和區成功路41巷1號","121.526281666667","24.99321","6500300","中和區"
"235009","565-BX","2018/03/03 13:39:33","新北市中和區南山路236巷23弄2號","121.505546666667","24.988495","6500300","中和區"
"235018","640-BX","2018/03/03 13:39:32","新北市中和區莒光路101號","121.472373333333","25.002875","6500300","中和區"
"235011","732-UM","2018/03/03 13:39:35","新北市中和區南山路320巷10弄11號","121.506835","24.98662","6500300","中和區"
"235026","800-TS","2018/03/03 13:39:26","新北市中和區中山路二段312巷33弄10號","121.4949","25.0038633333333","6500300","中和區"
"235021","801-TS","2018/03/03 13:39:44","新北市中和區民安街42巷24-4號","121.479526666667","25.000915","6500300","中和區"
"235016","805-TS","2018/03/03 13:39:41","新北市中和區興南路三段52巷1號","121.493536666667","24.9761433333333","6500300","中和區"
"235012","896-TW","2018/03/03 13:39:32","新北市中和區中正路73號","121.500986666667","24.9934","6500300","中和區"
"235017","900-TW","2018/03/03 13:39:40","新北市中和區民德路268號","121.468085","24.9965433333333","6500300","中和區"
"235034","911-UM","2018/03/03 13:39:35","新北市中和區景新街129號","121.505798333333","24.9972666666667","6500300","中和區"
"235015","157-BY","2018/03/03 13:39:32","新北市中和區華新街143巷66號","121.506106666667","24.979205","6500300","中和區"
"235001","AAC-213","2018/03/03 13:39:33","新北市中和區景平路111巷75號","121.51488","24.990225","6500300","中和區"
"235023","AAC-215","2018/03/03 13:39:26","新北市中和區和城路一段271巷1號","121.485386666667","24.9918083333333","6500300","中和區"
"220016","013-TV","2018/03/03 13:39:31","新北市板橋區民生路二段120號","121.47033","25.0196466666667","6500100","板橋區"
"220013","072-UY","2018/03/03 13:39:22","新北市板橋區漢生東路282號","121.471255","25.0089116666667","6500100","板橋區"
"220034","073-UY","2018/03/03 13:39:40","新北市板橋區南雅西路二段192巷3號","121.45204","25.014425","6500100","板橋區"
"220017","AAD-861","2018/03/03 13:39:37","新北市板橋區華東街1-10號","121.448373333333","24.9950816666667","6500100","板橋區"
"247021","893-R6","2018/03/03 13:39:32","新北市五股區中興路三段163號","121.449286666667","25.0807","6501400","蘆洲區"
"247017","001-UY","2018/03/03 13:39:32","新北市五股區新城三路45號","121.449101666667","25.0932266666667","6501400","蘆洲區"
"235005","251-BX","2018/03/03 13:39:39","新北市中和區中安街80號","121.512111666667","25.0018433333333","6500300","中和區"
"228005","097-TW","2018/03/03 13:39:36","新北市貢寮區美豐里文秀坑8號","121.90246","25.0503233333333","6502600","貢寮區"
"228004","212-TW","2018/03/03 13:39:15","新北市貢寮區龍崗里石壁坑街30號","121.909515","25.00245","6502600","貢寮區"
"253003","6232-TK","2018/03/03 13:39:31","新北市石門區中山路60-50號","121.568431666667","25.28748","6502200","石門區"
"253001","6251-TK","2018/03/03 13:39:33","新北市石門區下員坑16-6號","121.508196666667","25.2796233333333","6502200","石門區"
"253002","637-UY","2018/03/03 13:39:47","新北市石門區內石門79號","121.566306666667","25.2602683333333","6502200","石門區"
"253004","8270-PC","2018/03/03 13:39:40","新北市石門區竹子湖14-1號","121.614365","25.2561516666667","6502200","石門區"
"252005","073-UM","2018/03/03 13:39:43","新北市三芝區圓山里木屐寮38-2號","121.532836666667","25.2277666666667","6502100","三芝區"
"207001","662-BX","2018/03/03 13:39:36","新北市萬里區磺潭里公館崙58號","121.628368333333","25.2057683333333","6502800","萬里區"
"236041","107-UM","2018/03/03 13:39:43","新北市土城區城林路6巷80號","121.438413333333","24.9797583333333","6501300","土城區"
"236075","166-UM","2018/03/03 13:39:46","新北市土城區城林路6巷80號","121.438685","24.9796283333333","6501300","土城區"
"236029","253-BX","2018/03/03 13:39:30","新北市土城區城林路6巷80號","121.438395","24.979825","6501300","土城區"
"236013","270-VK","2018/03/03 13:39:31","新北市土城區城林路6巷80號","121.438605","24.9797583333333","6501300","土城區"
"236035","271-VK","2018/03/03 13:39:31","新北市土城區城林路6巷80號","121.438441666667","24.97974","6501300","土城區"
"236006","498-BY","2018/03/03 13:39:32","新北市土城區員福街62號","121.440058333333","24.9791866666667","6501300","土城區"
"221032","280-BY","2018/03/03 13:39:30","新北市汐止區仁愛路10號","121.6594","25.063585","6501100","汐止區"
"220027","145-BY","2018/03/03 13:39:40","新北市板橋區漢生西路89巷4弄4號","121.461003333333","25.0190866666667","6500100","板橋區"
"220028","200-UY","2018/03/03 13:39:45","新北市板橋區大觀路二段265巷76弄30號","121.441333333333","24.996805","6500100","板橋區"
"220105","KEA-2550","2018/03/03 13:39:44","新北市板橋區民生路二段161巷1號","121.470183333333","25.0198666666667","6500100","板橋區"
"220030","610-BX","2018/03/03 13:39:27","新北市板橋區篤行路一段33號","121.43201","24.994285","6500100","板橋區"
"220014","255-TC","2018/03/03 13:39:38","新北市板橋區民生路二段161巷3號","121.47023","25.0197916666667","6500100","板橋區"
"220004","276-BY","2018/03/03 13:39:31","新北市土城區廣興街38號","121.453478333333","24.9915066666667","6500100","板橋區"
"220020","277-BY","2018/03/03 13:39:27","新北市板橋區大觀路三段62巷2號","121.433226666667","24.995135","6500100","板橋區"
"220005","282-UM","2018/03/03 13:39:37","新北市板橋區華東街1-9號","121.448188333333","24.9949333333333","6500100","板橋區"
"220019","283-VK","2018/03/03 13:39:35","新北市板橋區四川路二段140巷2號","121.449891666667","24.9930583333333","6500100","板橋區"
"220043","285-UM","2018/03/03 13:39:30","新北市板橋區民生路二段161巷1號","121.470106666667","25.019835","6500100","板橋區"
"220001","285-VK","2018/03/03 13:39:31","新北市板橋區民生路二段161巷1號","121.47014","25.0198533333333","6500100","板橋區"
"220031","286-VK","2018/03/03 13:39:26","新北市板橋區華東街11號","121.4504","24.9975683333333","6500100","板橋區"
"220029","287-VK","2018/03/03 13:39:27","新北市板橋區大觀路二段91號","121.446286666667","25.0019833333333","6500100","板橋區"
"220032","296-UM","2018/03/03 13:39:40","新北市板橋區大觀路二段251號","121.443455","24.9992216666667","6500100","板橋區"
"220023","303-R5","2018/03/03 13:39:30","新北市板橋區華東街260號","121.452606666667","25.0016516666667","6500100","板橋區"
"220012","486-VK","2018/03/03 13:39:30","新北市板橋區縣民大道二段1號","121.462386666667","25.01178","6500100","板橋區"
"220037","491-VK","2018/03/03 13:39:25","新北市板橋區民生路二段161巷1號","121.469925","25.0200883333333","6500100","板橋區"
"220104","560-BX","2018/03/03 13:39:38","新北市板橋區南雅西路二段145巷6號","121.451603333333","25.0118466666667","6500100","板橋區"
"220052","561-BX","2018/03/03 13:39:30","新北市板橋區民生路二段56-6號","121.471146666667","25.0187366666667","6500100","板橋區"
"220003","568-UM","2018/03/03 13:39:30","新北市板橋區華東街1-9號","121.448198333333","24.99501","6500100","板橋區"
"220011","609-BX","2018/03/03 13:39:35","新北市板橋區民生路二段161巷1號","121.469951666667","25.019895","6500100","板橋區"
"220025","687-BX","2018/03/03 13:39:38","新北市板橋區大觀路三段131號","121.432548333333","24.99416","6500100","板橋區"
"220002","741-BX","2018/03/03 13:39:33","新北市板橋區華東街1-9號","121.44811","24.994915","6500100","板橋區"
"220045","831-TW","2018/03/03 13:39:36","新北市板橋區民生路二段120號","121.470381666667","25.01957","6500100","板橋區"
"220022","895-R6","2018/03/03 13:39:39","新北市板橋區南雅南路一段8-9號","121.455928333333","25.0063966666667","6500100","板橋區"
"220021","985-R7","2018/03/03 13:39:19","新北市板橋區南雅南路二段140號","121.451796666667","24.9964366666667","6500100","板橋區"
"220018","AAC-253","2018/03/03 13:39:34","新北市板橋區華東街1-10號","121.448226666667","24.9949733333333","6500100","板橋區"
