"lineid","car","time","location","longitude","latitude","cityid","cityname"
"234078","298-R6","2018/03/03 15:59:42","新北市永和區福和路1號","121.52621","25.00962","6500400","永和區"
"231030","047-UY","2018/03/03 15:59:38","新北市新店區安和路三段77號","121.517716666667","24.9834716666667","6500600","新店區"
"231018","107-UY","2018/03/03 15:59:39","新北市新店區中正路663巷7弄15號","121.532955","24.990075","6500600","新店區"
"231012","108-UY","2018/03/03 15:59:35","新北市新店區溪園路401號","121.523893333333","24.9780566666667","6500600","新店區"
"231020","187-VK","2018/03/03 15:59:34","新北市新店區安華路1-1號","121.519488333333","24.9602816666667","6500600","新店區"
"231017","KEA-2219","2018/03/03 15:59:32","新北市新店區中正路284巷4弄3號","121.538466666667","24.9747966666667","6500600","新店區"
"231026","256-BX","2018/03/03 15:59:34","新北市新店區中央路204號","121.530466666667","24.974085","6500600","新店區"
"231046","278-BY","2018/03/03 15:59:27","新北市新店區安康路一段355-3號","121.519781666667","24.9623183333333","6500600","新店區"
"231038","4715-K9","2018/03/03 15:59:40","新北市新店區安康路二段205巷3號","121.509278333333","24.9585666666667","6500600","新店區"
"231035","515-UM","2018/03/03 15:59:30","新北市新店區安民街301號","121.517476666667","24.973745","6500600","新店區"
"231034","645-TV","2018/03/03 15:59:43","新北市新店區吉祥街5巷1號","121.49728","24.9478466666667","6500600","新店區"
"231013","719-UM","2018/03/03 15:59:30","新北市新店區安光路10-1號","121.513638333333","24.964395","6500600","新店區"
"231037","AKT-0513","2018/03/03 15:59:42","新北市新店區安德街116巷26弄3號","121.508903333333","24.962065","6500600","新店區"
"241011","013-R5","2018/03/03 15:59:40","新北市三重區雙園街24號","121.497086666667","25.068075","6500200","三重區"
"241028","022-UY","2018/03/03 15:59:45","新北市三重區電信街47號","121.4966","25.0583666666667","6500200","三重區"
"241008","059-VK","2018/03/03 15:59:38","新北市三重區重新路四段121號","121.484833333333","25.0519333333333","6500200","三重區"
"241015","062-VK","2018/03/03 15:59:40","新北市三重區重新路四段121號","121.485123333333","25.052035","6500200","三重區"
"241017","063-VK","2018/03/03 15:59:39","新北市三重區大仁街48巷8號","121.491235","25.0644816666667","6500200","三重區"
"241026","066-VK","2018/03/03 15:59:32","新北市三重區重新路二段132號","121.49611","25.0616266666667","6500200","三重區"
"241002","090-VK","2018/03/03 15:59:42","新北市三重區仁義街91號","121.499801666667","25.079425","6500200","三重區"
"241003","091-VK","2018/03/03 15:59:44","新北市三重區自強路五段100號","121.496783333333","25.0836316666667","6500200","三重區"
"241005","262-UM","2018/03/03 15:59:35","新北市三重區溪尾街300-2號","121.487495","25.083695","6500200","三重區"
"241016","265-UM","2018/03/03 15:59:30","新北市三重區重新路四段121號","121.485208333333","25.0520283333333","6500200","三重區"
"241022","267-UM","2018/03/03 15:59:33","新北市三重區中正北路176巷27號","121.482598333333","25.06596","6500200","三重區"
"241018","268-UM","2018/03/03 15:59:49","新北市三重區大仁街22號","121.491506666667","25.0635916666667","6500200","三重區"
"241013","270-UM","2018/03/03 15:59:46","新北市三重區三和路三段8號","121.497045","25.07024","6500200","三重區"
"241025","271-UM","2018/03/03 15:59:37","新北市三重區三民街206號","121.48112","25.0662883333333","6500200","三重區"
"241007","398-BY","2018/03/03 15:59:49","新北市三重區力行路二段137號","121.483273333333","25.07705","6500200","三重區"
"241020","413-TH","2018/03/03 15:59:40","新北市三重區車路頭街4巷21號","121.483215","25.0701066666667","6500200","三重區"
"241024","478-VK","2018/03/03 15:59:40","新北市三重區中正北路145巷14號","121.4842","25.0678916666667","6500200","三重區"
"241014","543-UM","2018/03/03 15:59:45","新北市三重區重新路四段121號","121.484913333333","25.051985","6500200","三重區"
"241023","545-UM","2018/03/03 15:59:46","新北市三重區中正北路174-1號","121.48378","25.0666083333333","6500200","三重區"
"241006","AAD-863","2018/03/03 15:59:35","新北市三重區重新路四段121號","121.484773333333","25.0521766666667","6500200","三重區"
"241031","887-TS","2018/03/03 15:59:31","新北市三重區重新路四段121號","121.48474","25.05199","6500200","三重區"
"241012","941-UM","2018/03/03 15:59:42","新北市三重區文化北路118巷62號","121.497186666667","25.06601","6500200","三重區"
"241029","942-UM","2018/03/03 15:59:45","新北市三重區大同南路212巷9號","121.497156666667","25.05655","6500200","三重區"
"241033","AAC-255","2018/03/03 15:59:49","新北市三重區重新路五段461號","121.473753333333","25.04711","6500200","三重區"
"224007","275-VK","2018/03/03 15:59:47","新北市瑞芳區大埔路52號","121.769098333333","25.1042333333333","6501200","瑞芳區"
"227010","642-TC","2018/03/03 15:59:36","新北市雙溪區三港里雙澳路38-2號","121.872423333333","25.0513983333333","6502500","雙溪區"
"227002","400-TW","2018/03/03 15:59:34","新北市雙溪區平林里外平林71號","121.842021666667","25.0348683333333","6502500","雙溪區"
"251013","179-VK","2018/03/03 15:59:35","新北市淡水區沙崙路331號","121.427633333333","25.1876916666667","6501000","淡水區"
"251008","181-VK","2018/03/03 15:59:45","新北市淡水區中正路一段87巷1號","121.421535","25.1794833333333","6501000","淡水區"
"236075","166-UM","2018/03/03 15:59:46","新北市樹林區環河路600號","121.404656666667","24.968845","6501300","土城區"
"236057","912-UM","2018/03/03 15:59:47","新北市土城區中央路二段320號","121.44039","24.9728383333333","6501300","土城區"
"238006","599-UM","2018/03/03 15:48:14","新北市樹林區育德街78號","121.387583333333","24.9684383333333","6500700","樹林區"
"220032","296-UM","2018/03/03 15:59:40","新北市新莊區中環路一段287號","121.442176666667","25.0320583333333","6500100","板橋區"
