"lineid","car","time","location","longitude","latitude","cityid","cityname"
"249005","172-UM","2018/03/03 17:29:31","新北市八里區荖阡坑路69號","121.406346666667","25.1270833333333","6502300","八里區"
"249001","173-UM","2018/03/03 17:29:34","新北市八里區龍米路三段23號","121.42672","25.15941","6502300","八里區"
"249004","303-UY","2018/03/03 17:29:33","新北市八里區民治街173號","121.413375","25.1567983333333","6502300","八里區"
"249002","305-UY","2018/03/03 17:29:47","新北市八里區龍米路二段65巷15弄12號","121.447473333333","25.14002","6502300","八里區"
"249003","593-UM","2018/03/03 17:29:30","新北市八里區中山路二段315號","121.400645","25.1478016666667","6502300","八里區"
"244013","069-UM","2018/03/03 17:29:47","新北市林口區中山路156號","121.39086","25.0787616666667","6501700","林口區"
"244007","080-UY","2018/03/03 17:29:32","新北市林口區湖子48-3號","121.383113333333","25.0951116666667","6501700","林口區"
"244019","402-UM","2018/03/03 17:29:35","新北市林口區文化二路一段340號","121.372715","25.0751383333333","6501700","林口區"
"244025","742-UY","2018/03/03 17:29:47","新北市林口區忠孝一路33-99號","121.362896666667","25.073365","6501700","林口區"
"244023","483-VK","2018/03/03 17:29:34","新北市林口區東明一街1巷27號","121.393671666667","25.0721133333333","6501700","林口區"
"244009","657-BX","2018/03/03 17:29:40","新北市林口區中北一街15巷86號","121.384565","25.0868483333333","6501700","林口區"
"244021","838-TS","2018/03/03 17:29:44","新北市林口區粉寮路二段157號","121.404223333333","25.0880733333333","6501700","林口區"
"231046","278-BY","2018/03/03 17:29:47","新北市新店區直潭路92號","121.53092","24.9375933333333","6500600","新店區"
"241011","013-R5","2018/03/03 17:29:40","新北市三重區龍濱路183號","121.502231666667","25.07049","6500200","三重區"
"241015","062-VK","2018/03/03 17:29:40","新北市三重區長元街65巷16弄15號","121.50349","25.0662133333333","6500200","三重區"
"241017","063-VK","2018/03/03 17:29:45","新北市三重區大同北路34巷54弄4號","121.493806666667","25.0618466666667","6500200","三重區"
"241003","091-VK","2018/03/03 17:29:44","新北市三重區碧華街392號","121.49154","25.0847566666667","6500200","三重區"
"241005","262-UM","2018/03/03 17:29:35","新北市三重區仁愛街578號","121.484903333333","25.081295","6500200","三重區"
"241016","265-UM","2018/03/03 17:29:50","新北市三重區信義西街148號","121.495343333333","25.0638816666667","6500200","三重區"
"241018","268-UM","2018/03/03 17:29:49","新北市三重區大仁街126號","121.493528333333","25.0660983333333","6500200","三重區"
"241032","269-UM","2018/03/03 17:29:46","新北市三重區名源街61巷3號","121.48194","25.0594166666667","6500200","三重區"
"241025","271-UM","2018/03/03 17:29:52","新北市三重區中正北路416號","121.475098333333","25.0708583333333","6500200","三重區"
"241007","398-BY","2018/03/03 17:29:49","新北市三重區三和路四段145巷148號","121.488015","25.079415","6500200","三重區"
"241020","413-TH","2018/03/03 17:29:40","新北市三重區忠孝路二段35號","121.485895","25.0710533333333","6500200","三重區"
"241024","478-VK","2018/03/03 17:29:40","新北市三重區大勇街33號","121.48261","25.071635","6500200","三重區"
"241030","480-VK","2018/03/03 17:29:40","新北市三重區新興路36號","121.491831666667","25.0535333333333","6500200","三重區"
"241014","543-UM","2018/03/03 17:29:44","新北市三重區長壽街61-1號","121.501463333333","25.0683683333333","6500200","三重區"
"241023","545-UM","2018/03/03 17:29:46","新北市三重區忠孝路三段84巷47號","121.481233333333","25.064315","6500200","三重區"
"241019","KEA-2593","2018/03/03 17:29:37","新北市三重區自強路二段26巷16號","121.488968333333","25.0690016666667","6500200","三重區"
"241012","941-UM","2018/03/03 17:29:42","新北市三重區仁興街39巷3號","121.499086666667","25.0756233333333","6500200","三重區"
"241033","AAC-255","2018/03/03 17:29:48","新北市三重區興德路133號","121.47032","25.0528266666667","6500200","三重區"
"235061","378-QA","2018/03/03 17:15:34","新北市中和區員山路36巷13號","121.48421","24.9909166666667","6500300","中和區"
"247022","893-R6","2018/03/03 17:29:34","新北市蘆洲區三民路296號","121.466898333333","25.0904866666667","6501400","蘆洲區"
"247012","546-UM","2018/03/03 17:29:38","新北市蘆洲區民族路94號","121.478071666667","25.0850583333333","6501400","蘆洲區"
"247020","500-BY","2018/03/03 17:29:49","新北市蘆洲區水湳街102號","121.469665","25.092765","6501400","蘆洲區"
"247010","339-TH","2018/03/03 17:29:43","新北市蘆洲區集賢路407號","121.480223333333","25.0813983333333","6501400","蘆洲區"
"247002","337-TH","2018/03/03 17:29:40","新北市蘆洲區永樂街38巷67弄19號","121.457945","25.0907666666667","6501400","蘆洲區"
"247004","336-TH","2018/03/03 17:29:43","新北市蘆洲區長安街233巷38號","121.458025","25.082275","6501400","蘆洲區"
"247016","057-VK","2018/03/03 17:29:34","新北市蘆洲區中正路185巷26號","121.468003333333","25.0851733333333","6501400","蘆洲區"
"247006","056-VK","2018/03/03 17:29:45","新北市蘆洲區九芎街90巷23號","121.46457","25.0811416666667","6501400","蘆洲區"
"247008","053-VK","2018/03/03 17:29:28","新北市蘆洲區民生街95號","121.473943333333","25.0786383333333","6501400","蘆洲區"
"247014","007-UY","2018/03/03 17:29:45","新北市蘆洲區三民路33號","121.475446666667","25.082955","6501400","蘆洲區"
"247024","002-UY","2018/03/03 17:29:47","新北市蘆洲區長榮路486號","121.460315","25.0897733333333","6501400","蘆洲區"
"247018","001-UY","2018/03/03 17:29:35","新北市蘆洲區民權路113號","121.472495","25.089475","6501400","蘆洲區"
"228003","097-TW","2018/03/03 17:29:42","新北市貢寮區仁理村仁和路2-1號","121.923128333333","25.0486683333333","6502600","貢寮區"
"228001","212-TW","2018/03/03 17:29:39","新北市貢寮區仁理村仁愛路39號","121.924975","25.0532916666667","6502600","貢寮區"
"228002","585-TW","2018/03/03 17:29:38","新北市貢寮區福隆里福隆街14號","121.944906666667","25.0162783333333","6502600","貢寮區"
"224010","AGQ-8101","2018/03/03 17:28:47","新北市瑞芳區岳王路10-6號","121.807638333333","25.110805","6501200","瑞芳區"
"224006","676-BX","2018/03/03 17:29:31","新北市瑞芳區靜安路四段98號","121.793248333333","25.1104416666667","6501200","瑞芳區"
"224008","285-BY","2018/03/03 17:29:46","新北市瑞芳區侯硐路300號","121.832188333333","25.089735","6501200","瑞芳區"
"224009","273-VK","2018/03/03 17:29:33","新北市瑞芳區汽車路18號","121.845326666667","25.1100516666667","6501200","瑞芳區"
"224005","271-BY","2018/03/03 17:29:40","新北市瑞芳區海濱路8-6號","121.831738333333","25.1261433333333","6501200","瑞芳區"
"227010","642-TC","2018/03/03 17:29:51","新北市雙溪區三貂里政光路3號","121.851338333333","25.0631966666667","6502500","雙溪區"
"227002","400-TW","2018/03/03 17:29:35","新北市雙溪區牡丹里聖南10-3號","121.86076","25.0495416666667","6502500","雙溪區"
"251009","008-UM","2018/03/03 17:29:38","新北市淡水區重建街1巷7號","121.439758333333","25.1736816666667","6501000","淡水區"
"251004","009-UM","2018/03/03 17:29:41","新北市淡水區中正東路二段88巷15號","121.459045","25.1505216666667","6501000","淡水區"
"251005","010-UM","2018/03/03 17:29:46","新北市淡水區鄧公路31巷1號","121.451341666667","25.17081","6501000","淡水區"
"251001","011-UM","2018/03/03 17:29:42","新北市淡水區民權路92巷35-1號","121.462116666667","25.1266733333333","6501000","淡水區"
"251013","179-VK","2018/03/03 17:29:35","新北市淡水區水尾子2號","121.463775","25.1942683333333","6501000","淡水區"
"251014","180-VK","2018/03/03 17:29:33","新北市淡水區公埔子20-2號","121.46988","25.2290283333333","6501000","淡水區"
"251008","181-VK","2018/03/03 17:29:45","新北市淡水區大同路122巷20號","121.46346","25.1397416666667","6501000","淡水區"
"251015","182-VK","2018/03/03 17:29:28","新北市淡水區三空泉16號","121.472678333333","25.1640366666667","6501000","淡水區"
"251010","413-VK","2018/03/03 17:29:31","新北市淡水區中正路二段211號","121.42619","25.189045","6501000","淡水區"
"251012","441-VK","2018/03/03 17:29:48","新北市淡水區北新路121號","121.449058333333","25.1786516666667","6501000","淡水區"
"251016","442-VK","2018/03/03 17:29:30","新北市淡水區大竹圍10號","121.464768333333","25.1923283333333","6501000","淡水區"
"251006","561-UM","2018/03/03 17:29:29","新北市淡水區大仁街36號","121.442716666667","25.1754033333333","6501000","淡水區"
"251007","577-R6","2018/03/03 17:29:43","新北市淡水區民生路47-4號","121.462066666667","25.1379766666667","6501000","淡水區"
"251011","650-BX","2018/03/03 17:29:48","新北市淡水區坪頂路712號","121.482458333333","25.1585616666667","6501000","淡水區"
"251002","672-BX","2018/03/03 17:29:38","新北市淡水區中正路261號","121.431721666667","25.174795","6501000","淡水區"
"251003","673-BX","2018/03/03 17:29:31","新北市淡水區中山路159-1號","121.44076","25.1728983333333","6501000","淡水區"
"207003","550-UM","2018/03/03 17:29:36","新北市萬里區龜吼里翡翠路17號","121.68337","25.1872216666667","6502800","萬里區"
"207004","225-TW","2018/03/03 17:29:38","新北市萬里區萬里里景美路6-1號","121.683678333333","25.1724666666667","6502800","萬里區"
"252002","178-VK","2018/03/03 17:29:29","新北市三芝區忠孝街1-14號","121.505456666667","25.2539416666667","6502100","三芝區"
"252001","292-VK","2018/03/03 17:29:35","新北市三芝區長安街119號","121.498056666667","25.2596316666667","6502100","三芝區"
"242029","986-R7","2018/03/03 17:29:46","新北市新莊區復興路二段192號","121.459198333333","25.044365","6500500","新莊區"
"242051","751-BX","2018/03/03 17:29:36","新北市新莊區新樹路447號","121.432651666667","25.01351","6500500","新莊區"
"242025","615-BX","2018/03/03 17:29:34","新北市新莊區中港路279號","121.453263333333","25.0436983333333","6500500","新莊區"
"242023","613-BX","2018/03/03 17:29:47","新北市新莊區公園路152號","121.45318","25.0401266666667","6500500","新莊區"
"242027","612-BX","2018/03/03 17:29:42","新北市新莊區思源路83號","121.46016","25.0414016666667","6500500","新莊區"
"242039","566-BX","2018/03/03 17:29:42","新北市新莊區民安西路37號","121.427681666667","25.02098","6500500","新莊區"
"242044","497-BY","2018/03/03 17:29:40","新北市新莊區富國路59號","121.419583333333","25.0260933333333","6500500","新莊區"
"242048","441-UM","2018/03/03 17:29:52","新北市新莊區四維路212巷2號","121.421245","25.0201666666667","6500500","新莊區"
"242053","440-UM","2018/03/03 17:29:46","新北市新莊區瓊林南路305巷2號","121.434213333333","25.0059416666667","6500500","新莊區"
"242034","415-TV","2018/03/03 17:29:34","新北市新莊區新莊路370號","121.449335","25.0334783333333","6500500","新莊區"
"242004","413-TV","2018/03/03 17:29:48","新北市新莊區中港路297號","121.452896666667","25.04438","6500500","新莊區"
"242042","400-BY","2018/03/03 17:29:37","新北市新莊區中正路514巷19號","121.433001666667","25.0330466666667","6500500","新莊區"
"242061","362-BY","2018/03/03 17:29:39","新北市新莊區瓊林南路42巷2-2號","121.436088333333","25.0181616666667","6500500","新莊區"
"242058","353-BY","2018/03/03 17:29:50","新北市新莊區中正路524號","121.431188333333","25.03168","6500500","新莊區"
"242007","132-UY","2018/03/03 17:29:46","新北市新莊區自強街30號","121.454746666667","25.0461916666667","6500500","新莊區"
"242036","133-UY","2018/03/03 17:29:32","新北市新莊區建國二路5-3號","121.43484","25.0237216666667","6500500","新莊區"
"242015","135-UY","2018/03/03 17:29:47","新北市新莊區新泰路215號","121.446656666667","25.038775","6500500","新莊區"
"242046","172-VK","2018/03/03 17:29:47","新北市新莊區新樹路51號","121.440171666667","25.0319466666667","6500500","新莊區"
"242009","173-VK","2018/03/03 17:29:39","新北市新莊區中原路187號","121.452893333333","25.0542066666667","6500500","新莊區"
"242002","176-VK","2018/03/03 17:29:30","新北市新莊區新莊路154號","121.455238333333","25.0354733333333","6500500","新莊區"
"242013","346-TH","2018/03/03 17:29:38","新北市新莊區中誠街10號","121.4521","25.0481383333333","6500500","新莊區"
"242019","348-TH","2018/03/03 17:29:32","新北市新莊區中港路70號","121.455548333333","25.03887","6500500","新莊區"
"242056","349-TH","2018/03/03 17:29:42","新北市新莊區新莊路457號","121.449575","25.0333333333333","6500500","新莊區"
"242017","350-TH","2018/03/03 17:29:49","新北市新莊區復興路一段191號","121.451776666667","25.0437016666667","6500500","新莊區"
"242011","351-TH","2018/03/03 17:29:45","新北市新莊區中港路408號","121.452198333333","25.05011","6500500","新莊區"
"238015","755-BX","2018/03/03 17:29:43","新北市樹林區大安路269號","121.418981666667","24.993655","6500700","樹林區"
"238023","601-UM","2018/03/03 17:29:46","新北市樹林區中正路442-1號","121.413335","25.0118033333333","6500700","樹林區"
"238006","599-UM","2018/03/03 17:29:44","新北市樹林區太平路107號","121.419133333333","24.9809383333333","6500700","樹林區"
"238018","571-TV","2018/03/03 17:29:37","新北市樹林區鎮前街143-2號","121.424041666667","24.9890066666667","6500700","樹林區"
"238024","5061-A6","2018/03/03 17:29:38","新北市樹林區博愛街163-3號","121.425266666667","24.989935","6500700","樹林區"
"238022","KEA-2213","2018/03/03 17:29:40","新北市樹林區忠孝街12號","121.423305","24.982515","6500700","樹林區"
"238021","KEA-2539","2018/03/03 17:29:30","新北市樹林區民權街5巷17號","121.395685","24.9583216666667","6500700","樹林區"
"238025","303-VK","2018/03/03 17:29:33","新北市樹林區保安二街157號","121.422245","24.99535","6500700","樹林區"
"238014","282-BY","2018/03/03 17:29:45","新北市樹林區保安街一段247號","121.419736666667","24.99659","6500700","樹林區"
"238020","268-VK","2018/03/03 17:29:46","新北市樹林區俊英街48-1號","121.428631666667","25.0028983333333","6500700","樹林區"
"238026","172-UY","2018/03/03 17:29:39","新北市樹林區新興街2-1號","121.4003","24.974345","6500700","樹林區"
"238016","169-UY","2018/03/03 17:29:46","新北市樹林區長壽街28巷4弄11號","121.423651666667","24.99432","6500700","樹林區"
"239007","AAC-297","2018/03/03 17:29:35","新北市鶯歌區鶯桃路182巷96弄8號","121.339998333333","24.9573033333333","6500800","鶯歌區"
"239006","891-R6","2018/03/03 17:29:37","新北市鶯歌區鳳鳴路103號","121.33428","24.9662266666667","6500800","鶯歌區"
"239008","527-UM","2018/03/03 17:29:51","新北市鶯歌區大湖路393號","121.33088","24.9788683333333","6500800","鶯歌區"
"239005","526-UM","2018/03/03 17:29:44","桃園市桃園區大仁路103號","121.323345","24.971135","6500800","鶯歌區"
"239001","417-VK","2018/03/03 17:29:34","新北市鶯歌區高職西街7號","121.338038333333","24.942335","6500800","鶯歌區"
"239003","360-BY","2018/03/03 17:29:33","新北市鶯歌區鶯桃路213-1號","121.336793333333","24.95911","6500800","鶯歌區"
"239004","193-VK","2018/03/03 17:29:47","新北市鶯歌區三鶯路17-1號","121.356168333333","24.9415333333333","6500800","鶯歌區"
"221008","489-VK","2018/03/03 17:29:29","新北市汐止區康寧街901號","121.65138","25.0750416666667","6501100","汐止區"
"221033","647-BX","2018/03/03 17:29:34","新北市汐止區大同路二段173號","121.651571666667","25.0644833333333","6501100","汐止區"
"242021","281-VK","2018/03/03 17:29:42","新北市新莊區中華路一段18號","121.452088333333","25.0370583333333","6500500","新莊區"
"241031","AAD-800","2018/03/03 17:12:31","新北市板橋區民生路二段89-6號","121.47048","25.0193066666667","6500200","三重區"
"242031","280-VK","2018/03/03 17:29:36","新北市新莊區新泰路381巷38號","121.442465","25.0436583333333","6500500","新莊區"
