"lineid","car","time","location","longitude","latitude","cityid","cityname"
"234046","148-BY","2018/03/03 18:39:40","新北市永和區永元路68號","121.522501666667","25.0015733333333","6500400","永和區"
"234007","207-UY","2018/03/03 18:39:43","新北市永和區環河西路二段179號","121.50445","25.0129716666667","6500400","永和區"
"234081","298-R6","2018/03/03 18:39:45","新北市永和區林森路77號","121.523965","25.00391","6500400","永和區"
"234086","338-UY","2018/03/03 18:39:40","新北市中和區安平路104號","121.511608333333","24.9973333333333","6500400","永和區"
"234013","KEA-2591","2018/03/03 18:39:38","新北市永和區信義路87號","121.512191666667","25.0137016666667","6500400","永和區"
"234042","862-TW","2018/03/03 18:39:40","新北市永和區永貞路308號","121.511851666667","25.00488","6500400","永和區"
"234026","9371-KE","2018/03/03 18:39:40","新北市永和區仁愛路244號","121.506528333333","25.0102866666667","6500400","永和區"
"234011","9373-KE","2018/03/03 18:39:45","新北市永和區文化路9巷22弄69號","121.513941666667","25.0144366666667","6500400","永和區"
"249005","172-UM","2018/03/03 18:39:51","新北市八里區中華路三段232號","121.388366666667","25.124485","6502300","八里區"
"249001","173-UM","2018/03/03 18:39:34","新北市八里區龍米路一段360號","121.451583333333","25.1313866666667","6502300","八里區"
"249004","303-UY","2018/03/03 18:39:33","新北市八里區中山路一段126-1號","121.418601666667","25.1596516666667","6502300","八里區"
"249002","305-UY","2018/03/03 18:39:46","新北市八里區龍形一街31號","121.449586666667","25.1304133333333","6502300","八里區"
"248014","025-BX","2018/03/03 18:39:47","新北市五股區中興路四段72號","121.436923333333","25.0834966666667","6501500","五股區"
"248016","026-BX","2018/03/03 18:39:36","新北市五股區凌雲路一段133巷27-3號","121.448638333333","25.1008533333333","6501500","五股區"
"248008","095-VK","2018/03/03 18:39:34","新北市五股區中興路一段150巷21號","121.464686666667","25.0746883333333","6501500","五股區"
"248020","225-UY","2018/03/03 18:38:05","新北市五股區孝義路73-1號","121.445425","25.1195466666667","6501500","五股區"
"248012","247-BX","2018/03/03 18:39:36","新北市五股區御史路76號","121.441191666667","25.0947033333333","6501500","五股區"
"248010","272-BY","2018/03/03 18:39:44","新北市五股區水碓一路92號","121.431753333333","25.0736516666667","6501500","五股區"
"248004","677-BX","2018/03/03 18:39:49","新北市五股區民義路一段277號","121.42593","25.09267","6501500","五股區"
"248002","678-BX","2018/03/03 18:39:46","新北市五股區西雲路205號","121.448498333333","25.096455","6501500","五股區"
"234077","969-R7","2018/03/03 18:39:46","新北市永和區中正路158號","121.514911666667","24.9964916666667","6500400","永和區"
"234067","AAC-212","2018/03/03 18:39:44","新北市中和區永貞路243號","121.513066666667","25.0039683333333","6500400","永和區"
"234003","AAC-295","2018/03/03 18:39:46","新北市永和區福和路1號","121.526711666667","25.009895","6500400","永和區"
"232011","375-UM","2018/03/03 18:39:44","新北市坪林區坪雙路一段43號","121.711693333333","24.9424583333333","6502000","坪林區"
"244013","069-UM","2018/03/03 18:39:51","新北市林口區佳林路106號","121.3851","25.07909","6501700","林口區"
"244007","080-UY","2018/03/03 18:39:32","新北市林口區湖北里61號","121.382903333333","25.1085016666667","6501700","林口區"
"244019","402-UM","2018/03/03 18:39:35","新北市林口區麗園二街12巷4-2號","121.37839","25.06846","6501700","林口區"
"244025","742-UY","2018/03/03 18:39:35","新北市林口區南勢六街242號","121.355881666667","25.0747066666667","6501700","林口區"
"244023","483-VK","2018/03/03 18:39:44","新北市林口區文化二路二段111號","121.378478333333","25.0811166666667","6501700","林口區"
"244017","485-VK","2018/03/03 18:39:32","新北市林口區文化二路一段269號","121.367448333333","25.0707016666667","6501700","林口區"
"244009","657-BX","2018/03/03 18:39:40","新北市林口區文林一街85號","121.377838333333","25.0871516666667","6501700","林口區"
"244011","701-TV","2018/03/03 18:39:32","新北市林口區興林路17巷5弄2號","121.390598333333","25.0769816666667","6501700","林口區"
"244021","838-TS","2018/03/03 18:39:44","新北市林口區自強二街1-5號","121.397328333333","25.078495","6501700","林口區"
"243012","AAD-798","2018/03/03 18:39:43","新北市泰山區福興三街13號","121.434438333333","25.0578016666667","6501600","泰山區"
"243013","646-TV","2018/03/03 18:39:33","新北市泰山區明志路三段206巷10號","121.42326","25.0380266666667","6501600","泰山區"
"243016","680-BX","2018/03/03 18:39:34","新北市泰山區明志路二段135號","121.427731666667","25.0507366666667","6501600","泰山區"
"222003","436-BY","2018/03/03 18:39:49","新北市深坑區翠谷街37巷1號","121.626451666667","25.0094183333333","6501800","深坑區"
"222002","659-BX","2018/03/03 18:39:41","新北市深坑區文山路一段62巷33號","121.621196666667","25.000215","6501800","深坑區"
"231041","002-UM","2018/03/03 18:39:48","新北市新店區安華路28-1號","121.519663333333","24.9607683333333","6500600","新店區"
"231059","046-UY","2018/03/03 18:39:42","新北市新店區安華路28-1號","121.519611666667","24.96101","6500600","新店區"
"231061","047-UY","2018/03/03 18:39:42","新北市新店區安華路28-1號","121.519281666667","24.9609033333333","6500600","新店區"
"231060","106-UY","2018/03/03 18:39:39","新北市新店區安華路28-1號","121.519716666667","24.9608616666667","6500600","新店區"
"231051","107-UY","2018/03/03 18:39:40","新北市新店區中央路179-3號","121.535681666667","24.969125","6500600","新店區"
"231048","108-UY","2018/03/03 18:39:45","新北市新店區安康路一段17號","121.533118333333","24.9602583333333","6500600","新店區"
"231052","187-VK","2018/03/03 18:39:46","新北市新店區永興路38號","121.543323333333","24.9386016666667","6500600","新店區"
"231050","KEA-2219","2018/03/03 18:39:41","新北市新店區安華路28-1號","121.519781666667","24.9612766666667","6500600","新店區"
"231057","256-BX","2018/03/03 18:39:49","新北市新店區新烏路一段215號","121.549165","24.9314333333333","6500600","新店區"
"231046","278-BY","2018/03/03 18:39:47","新北市新店區直潭二街1號","121.535501666667","24.9431683333333","6500600","新店區"
"231058","3712-VJ","2018/03/03 18:39:44","新北市新店區北宜路一段168號","121.540423333333","24.952935","6500600","新店區"
"231056","3713-VJ","2018/03/03 18:39:43","新北市新店區自立街78號","121.537383333333","24.9797483333333","6500600","新店區"
"231055","4716-K9","2018/03/03 18:39:42","新北市新店區華興街40號","121.537065","24.9691033333333","6500600","新店區"
"231067","4772-VM","2018/03/03 18:39:47","新北市新店區安康路一段76號","121.528246666667","24.961915","6500600","新店區"
"231065","512-UM","2018/03/03 18:39:42","新北市新店區安華路28-1號","121.519251666667","24.9613833333333","6500600","新店區"
"231054","513-UM","2018/03/03 18:39:45","新北市新店區安華路28-1號","121.519746666667","24.961235","6500600","新店區"
"231064","515-UM","2018/03/03 18:39:52","新北市新店區安華路28-1號","121.519586666667","24.96128","6500600","新店區"
"231045","617-UM","2018/03/03 18:39:48","新北市新店區安華路28-1號","121.519423333333","24.9609533333333","6500600","新店區"
"231044","618-UM","2018/03/03 18:39:43","新北市新店區安康路一段3-1號","121.534298333333","24.96062","6500600","新店區"
"231040","619-UM","2018/03/03 18:39:39","新北市新店區安華路28-1號","121.519575","24.960545","6500600","新店區"
"231042","641-BX","2018/03/03 18:39:37","新北市新店區安康路一段61號","121.530543333333","24.9610366666667","6500600","新店區"
"231063","645-TV","2018/03/03 18:39:40","新北市新店區安華路28-1號","121.519265","24.9606433333333","6500600","新店區"
"231049","719-UM","2018/03/03 18:39:48","新北市新店區安華路28-1號","121.519583333333","24.9612633333333","6500600","新店區"
"231062","720-UM","2018/03/03 18:39:38","新北市新店區安華路28-1號","121.519341666667","24.961195","6500600","新店區"
"231043","899-TW","2018/03/03 18:39:30","新北市新店區安華路28-1號","121.519233333333","24.9608466666667","6500600","新店區"
"231066","AKT-0513","2018/03/03 18:39:41","新北市新店區車子路18-1號","121.506205","24.954635","6500600","新店區"
"241033","AAC-255","2018/03/03 18:26:30","新北市三重區光復路一段61巷28號","121.473633333333","25.049335","6500200","三重區"
"235066","003-UY","2018/03/03 18:39:47","新北市中和區水源路34巷1號","121.504918333333","25.0035416666667","6500300","中和區"
"235064","005-UY","2018/03/03 18:39:49","新北市中和區連城路109巷45號","121.49703","24.9983566666667","6500300","中和區"
"235063","006-UY","2018/03/03 18:39:36","新北市中和區連城路393號","121.48642","24.9961566666667","6500300","中和區"
"235060","031-BX","2018/03/03 18:39:51","新北市中和區中山路二段598號","121.481916666667","25.005275","6500300","中和區"
"235056","096-UM","2018/03/03 18:39:41","新北市中和區員山路611巷5弄5號","121.478063333333","25.011155","6500300","中和區"
"235039","097-UM","2018/03/03 18:39:51","新北市永和區安樂路78號","121.51453","24.9985816666667","6500300","中和區"
"235065","098-UM","2018/03/03 18:39:34","新北市中和區莊敬路33巷36弄4號","121.500205","25.0064016666667","6500300","中和區"
"235040","150-BY","2018/03/03 18:23:15","新北市中和區安平路38號","121.510106666667","24.9951416666667","6500300","中和區"
"235058","151-BY","2018/03/03 18:39:34","新北市中和區圓通路369巷35號","121.489451666667","24.9867483333333","6500300","中和區"
"235055","183-VK","2018/03/03 18:39:39","新北市中和區中山路三段229巷47號","121.469325","25.0055283333333","6500300","中和區"
"235038","185-VK","2018/03/03 18:39:34","新北市中和區立人街14巷40弄1號","121.518943333333","24.9955783333333","6500300","中和區"
"235049","186-VK","2018/03/03 18:39:45","新北市中和區景平路490號","121.504725","24.993615","6500300","中和區"
"235044","293-VK","2018/03/03 18:39:40","新北市中和區復興路280巷18弄6號","121.502253333333","24.9916483333333","6500300","中和區"
"235072","301-VK","2018/03/03 18:39:46","新北市中和區板南路335號","121.494218333333","24.9977116666667","6500300","中和區"
"235043","352-BY","2018/03/03 18:39:32","新北市中和區景平路111巷2號","121.516598333333","24.9918383333333","6500300","中和區"
"235068","377-QA","2018/03/03 18:39:36","新北市中和區中正路154號","121.498673333333","24.9938633333333","6500300","中和區"
"235061","378-QA","2018/03/03 18:39:41","新北市中和區民享街114巷27號","121.473518333333","24.9995783333333","6500300","中和區"
"235050","4979-A6","2018/03/03 18:39:45","新北市中和區忠孝街122-2號","121.512185","24.9861533333333","6500300","中和區"
"235069","4980-A6","2018/03/03 18:39:45","新北市中和區連城路89巷10號","121.497066666667","24.9993433333333","6500300","中和區"
"235042","551-UM","2018/03/03 18:39:39","新北市中和區成功路97巷7號","121.52661","24.992065","6500300","中和區"
"235045","565-BX","2018/03/03 18:39:40","新北市中和區南山路236巷55號","121.504691666667","24.98815","6500300","中和區"
"235054","640-BX","2018/03/03 18:39:44","新北市中和區莒光路141號","121.472551666667","25.0014333333333","6500300","中和區"
"235047","732-UM","2018/03/03 18:39:42","新北市中和區南山路320巷10弄21號","121.506788333333","24.9866683333333","6500300","中和區"
"235046","733-UM","2018/03/03 18:39:36","新北市中和區忠孝街126-1號","121.512106666667","24.9862783333333","6500300","中和區"
"235062","800-TS","2018/03/03 18:39:36","新北市中和區景平路703巷2弄7號","121.495616666667","25.0036583333333","6500300","中和區"
"235057","801-TS","2018/03/03 18:39:39","新北市中和區員山路327巷21號","121.480563333333","25.0016866666667","6500300","中和區"
"235052","805-TS","2018/03/03 18:39:45","新北市中和區興南路三段73巷8號","121.49226","24.974315","6500300","中和區"
"235048","896-TW","2018/03/03 18:39:43","新北市中和區南山路317號","121.505031666667","24.9914316666667","6500300","中和區"
"235053","900-TW","2018/03/03 18:39:50","新北市中和區華安街99號","121.46819","24.9962916666667","6500300","中和區"
"235070","911-UM","2018/03/03 18:39:45","新北市中和區景新街129號","121.5057","24.9973566666667","6500300","中和區"
"235051","157-BY","2018/03/03 18:39:35","新北市中和區華新街143巷106弄30號","121.506125","24.9787783333333","6500300","中和區"
"235037","AAC-213","2018/03/03 18:39:35","新北市中和區景德街91號","121.516001666667","24.9914466666667","6500300","中和區"
"235059","AAC-215","2018/03/03 18:39:39","新北市中和區錦和路350-1號","121.490555","24.9934966666667","6500300","中和區"
"220065","072-UY","2018/03/03 18:39:51","新北市板橋區區運路18號","121.465295","25.00924","6500100","板橋區"
"220034","073-UY","2018/03/03 18:39:35","新北市板橋區南雅西路二段192巷3號","121.452023333333","25.01444","6500100","板橋區"
"220069","AAD-861","2018/03/03 18:39:36","新北市板橋區華東街1-10號","121.448331666667","24.9950916666667","6500100","板橋區"
"247020","500-BY","2018/03/03 18:39:29","新北市八里區荖阡坑路34號","121.402463333333","25.1284083333333","6501400","蘆洲區"
"226004","205-ST","2018/03/03 18:39:44","新北市平溪區靜安路二段294巷6號","121.735678333333","25.0236916666667","6502400","平溪區"
"235041","251-BX","2018/03/03 18:39:48","新北市中和區宜安路170號","121.508878333333","24.998995","6500300","中和區"
"228003","097-TW","2018/03/03 18:39:42","新北市貢寮區和美里龍洞街12-2號","121.918276666667","25.1117233333333","6502600","貢寮區"
"228001","212-TW","2018/03/03 18:39:39","新北市貢寮區仁理村研海街12-1號","121.923778333333","25.051625","6502600","貢寮區"
"228002","585-TW","2018/03/03 18:39:39","新北市貢寮區福隆里東興街31-1號","121.953338333333","25.021055","6502600","貢寮區"
"224006","676-BX","2018/03/03 18:39:51","新北市瑞芳區一坑路46號","121.803776666667","25.10877","6501200","瑞芳區"
"224002","639-TC","2018/03/03 18:39:48","新北市瑞芳區三爪子坑路29巷21號","121.813691666667","25.1069183333333","6501200","瑞芳區"
"224008","285-BY","2018/03/03 18:39:26","新北市瑞芳區瑞芳街139號","121.805011666667","25.10989","6501200","瑞芳區"
"224007","275-VK","2018/03/03 18:39:47","新北市瑞芳區大埔路89號","121.763793333333","25.1014366666667","6501200","瑞芳區"
"224009","273-VK","2018/03/03 18:39:53","新北市瑞芳區五號路51號","121.855005","25.1108233333333","6501200","瑞芳區"
"224005","271-BY","2018/03/03 18:39:40","新北市瑞芳區瑞濱路87號","121.820771666667","25.1211","6501200","瑞芳區"
"227010","642-TC","2018/03/03 18:39:51","新北市雙溪區牡丹里下坑11號","121.851015","25.0561633333333","6502500","雙溪區"
"227002","400-TW","2018/03/03 18:39:46","新北市雙溪區魚行里坤溪12號","121.873311666667","25.0229783333333","6502500","雙溪區"
"253005","032-BX","2018/03/03 18:39:37","新北市石門區中山路33號","121.56715","25.2909566666667","6502200","石門區"
"253006","295-VK","2018/03/03 18:39:37","新北市石門區崁子腳28-3號","121.537693333333","25.2893233333333","6502200","石門區"
"222001","KEA-2212","2018/03/03 18:39:33","新北市深坑區北深路一段82號","121.636376666667","25.0108566666667","6501800","深坑區"
"208002","KEA-2872","2018/03/03 18:39:31","新北市金山區忠孝一路15巷11號","121.638388333333","25.2187466666667","6502700","金山區"
"208003","665-BX","2018/03/03 18:39:32","新北市金山區中山路395號","121.633348333333","25.2252516666667","6502700","金山區"
"208001","761-BX","2018/03/03 18:39:40","新北市金山區文化三路42-6號","121.635053333333","25.2251516666667","6502700","金山區"
"251004","009-UM","2018/03/03 18:39:41","新北市淡水區竹林路120號","121.462761666667","25.14426","6501000","淡水區"
"251001","011-UM","2018/03/03 18:39:42","新北市淡水區自強路166號","121.465616666667","25.1341266666667","6501000","淡水區"
"251013","179-VK","2018/03/03 18:39:34","新北市淡水區雲廣坑9號","121.476231666667","25.2113883333333","6501000","淡水區"
"251014","180-VK","2018/03/03 18:39:33","新北市淡水區南平21-1號","121.496788333333","25.215935","6501000","淡水區"
"251008","181-VK","2018/03/03 18:39:45","新北市淡水區北投子69-1號","121.453916666667","25.1819366666667","6501000","淡水區"
"251015","182-VK","2018/03/03 18:39:47","新北市淡水區興福寮66巷305號","121.485465","25.1617933333333","6501000","淡水區"
"251010","413-VK","2018/03/03 18:39:51","新北市淡水區沙崙路122號","121.423301666667","25.1828466666667","6501000","淡水區"
"251012","441-VK","2018/03/03 18:39:48","新北市淡水區北新路188號","121.449818333333","25.1789533333333","6501000","淡水區"
"251016","442-VK","2018/03/03 18:39:50","新北市淡水區下圭柔山84-1號","121.440241666667","25.2050716666667","6501000","淡水區"
"251006","561-UM","2018/03/03 18:39:49","新北市淡水區崁頂50號","121.442021666667","25.1966716666667","6501000","淡水區"
"251011","650-BX","2018/03/03 18:39:47","新北市淡水區鄧公路278巷1號","121.461366666667","25.168845","6501000","淡水區"
"251002","672-BX","2018/03/03 18:39:38","新北市淡水區中正東路一段3巷14弄1號","121.450796666667","25.164135","6501000","淡水區"
"251003","673-BX","2018/03/03 18:39:51","新北市淡水區北新路69巷26號","121.446735","25.1800616666667","6501000","淡水區"
"207003","550-UM","2018/03/03 18:39:36","新北市萬里區龜吼里新墾丁路122號","121.67847","25.2012716666667","6502800","萬里區"
"207004","225-TW","2018/03/03 18:39:38","新北市萬里區萬里里獅頭路4-1號","121.692203333333","25.17786","6502800","萬里區"
"252002","178-VK","2018/03/03 18:39:49","新北市三芝區民生街17號","121.503593333333","25.2569216666667","6502100","三芝區"
"252003","249-BX","2018/03/03 18:39:50","新北市三芝區後厝里土地公坑73號","121.460991666667","25.2476816666667","6502100","三芝區"
"252001","292-VK","2018/03/03 18:39:35","新北市三芝區中興街二段260號","121.501381666667","25.2533083333333","6502100","三芝區"
"237004","KEA-2597","2018/03/03 18:39:46","新北市三峽區插角24號","121.401978333333","24.873165","6500900","三峽區"
"237007","153-BY","2018/03/03 18:39:42","新北市三峽區中正路三段7號","121.351938333333","24.9035516666667","6500900","三峽區"
"237009","210-TH","2018/03/03 18:39:47","新北市三峽區弘園街38號","121.36604","24.9269","6500900","三峽區"
"237013","252-BX","2018/03/03 18:39:31","新北市三峽區光明路69巷25號","121.376521666667","24.9292716666667","6500900","三峽區"
"237012","275-BY","2018/03/03 18:39:47","新北市三峽區三樹路332-2號","121.382228333333","24.9440966666667","6500900","三峽區"
"237008","302-VK","2018/03/03 18:39:47","新北市三峽區白雞77號","121.402283333333","24.9101733333333","6500900","三峽區"
"237014","433-BY","2018/03/03 18:39:35","新北市三峽區復興路465-1號","121.361788333333","24.9386233333333","6500900","三峽區"
"237006","5529-G3","2018/03/03 18:39:35","新北市三峽區溪東路313號","121.410548333333","24.9305766666667","6500900","三峽區"
"237011","KEA-2596","2018/03/03 18:39:34","新北市三峽區介壽路三段107號","121.395663333333","24.9398216666667","6500900","三峽區"
"237010","706-TV","2018/03/03 18:39:38","新北市三峽區復興路295號","121.365808333333","24.9388633333333","6500900","三峽區"
"237005","AKY-6261","2018/03/03 18:39:40","新北市三峽區民生街104巷2-7號","121.373716666667","24.93606","6500900","三峽區"
"236073","105-UM","2018/03/03 18:39:33","新北市土城區永豐路157巷4號","121.468246666667","24.9815133333333","6501300","土城區"
"236043","107-UM","2018/03/03 18:39:37","新北市土城區學成路108巷3號","121.449941666667","24.98955","6501300","土城區"
"236079","166-UM","2018/03/03 18:39:41","新北市土城區中央路四段52巷42弄2號","121.418951666667","24.9604533333333","6501300","土城區"
"236031","253-BX","2018/03/03 18:39:41","新北市土城區慶利街37號","121.439031666667","24.9743733333333","6501300","土城區"
"236026","269-VK","2018/03/03 18:39:43","新北市土城區金城路一段66號","121.442843333333","24.971155","6501300","土城區"
"236015","270-VK","2018/03/03 18:39:41","新北市土城區清水路207巷5號","121.460081666667","24.9820983333333","6501300","土城區"
"236038","271-VK","2018/03/03 18:39:36","新北市土城區明德路一段313巷11弄8號","121.460441666667","24.97595","6501300","土城區"
"236023","401-BY","2018/03/03 18:39:50","新北市土城區延吉街240號","121.466806666667","24.9846833333333","6501300","土城區"
"236059","912-UM","2018/03/03 18:39:31","新北市土城區中央路四段45-1號","121.422521666667","24.9617766666667","6501300","土城區"
"236049","913-UM","2018/03/03 18:39:50","新北市土城區明德路一段137-4號","121.465393333333","24.98108","6501300","土城區"
"236063","915-UM","2018/03/03 18:39:46","新北市土城區延壽路13巷21號","121.469823333333","24.9913633333333","6501300","土城區"
"236055","AAC-216","2018/03/03 18:39:50","新北市土城區中華路一段23號","121.44696","24.9890933333333","6501300","土城區"
"242044","497-BY","2018/03/03 18:39:39","新北市樹林區中正路218-5號","121.418966666667","25.0064483333333","6500500","新莊區"
"238023","601-UM","2018/03/03 18:39:46","新北市樹林區三福街114號","121.406405","25.0163266666667","6500700","樹林區"
"238006","599-UM","2018/03/03 18:39:44","新北市樹林區中華路190-16號","121.411778333333","24.9805183333333","6500700","樹林區"
"238018","571-TV","2018/03/03 18:39:31","新北市樹林區樹新路88號","121.429445","24.9974633333333","6500700","樹林區"
"238024","5061-A6","2018/03/03 18:39:38","新北市樹林區太順街52號","121.41817","24.979375","6500700","樹林區"
"238025","303-VK","2018/03/03 18:39:33","新北市樹林區中山路三段22號","121.395615","24.9729316666667","6500700","樹林區"
"238014","282-BY","2018/03/03 18:39:45","新北市樹林區大安路111巷11號","121.42316","24.99767","6500700","樹林區"
"238020","268-VK","2018/03/03 18:39:46","新北市樹林區中正路642巷19號","121.411623333333","25.0174","6500700","樹林區"
"238026","172-UY","2018/03/03 18:39:39","新北市樹林區八德街1050號","121.391086666667","24.9687716666667","6500700","樹林區"
"238016","169-UY","2018/03/03 18:39:46","新北市樹林區文化街23號","121.419273333333","24.98767","6500700","樹林區"
"239007","AAC-297","2018/03/03 18:39:35","新北市鶯歌區中正一路339號","121.357468333333","24.9570733333333","6500800","鶯歌區"
"239006","891-R6","2018/03/03 18:39:37","新北市鶯歌區鶯桃路296巷102號","121.33704","24.9622783333333","6500800","鶯歌區"
"239008","527-UM","2018/03/03 18:39:51","新北市鶯歌區晨曦街2號","121.336991666667","24.976565","6500800","鶯歌區"
"239005","526-UM","2018/03/03 18:39:44","新北市鶯歌區鳳吉一街167號","121.329106666667","24.9753383333333","6500800","鶯歌區"
"239001","417-VK","2018/03/03 18:39:34","新北市鶯歌區中正二路192號","121.339581666667","24.9432516666667","6500800","鶯歌區"
"239003","360-BY","2018/03/03 18:39:33","新北市鶯歌區永和街251-1號","121.33579","24.9714233333333","6500800","鶯歌區"
"239004","193-VK","2018/03/03 18:39:47","新北市鶯歌區中正三路194巷34-4號","121.330963333333","24.9419433333333","6500800","鶯歌區"
"221008","489-VK","2018/03/03 18:39:49","新北市汐止區康寧街901號","121.651378333333","25.0750416666667","6501100","汐止區"
"221036","130-UY","2018/03/03 18:39:32","新北市汐止區南昌街31號","121.663161666667","25.0691666666667","6501100","汐止區"
"221015","131-UY","2018/03/03 18:39:43","新北市汐止區吉祥街26號","121.667963333333","25.0810383333333","6501100","汐止區"
"221010","269-BY","2018/03/03 18:39:35","新北市汐止區瑞松街10號","121.645153333333","25.1048783333333","6501100","汐止區"
"221012","278-VK","2018/03/03 18:39:43","新北市汐止區鄉長路一段297號","121.669381666667","25.0793316666667","6501100","汐止區"
"221023","279-VK","2018/03/03 18:39:34","新北市汐止區汐萬路一段256巷3號","121.652543333333","25.07456","6501100","汐止區"
"221032","280-BY","2018/03/03 18:39:44","新北市汐止區福山街58巷16號","121.61796","25.0460316666667","6501100","汐止區"
"221027","281-BY","2018/03/03 18:39:45","新北市汐止區中正路7號","121.663061666667","25.069945","6501100","汐止區"
"221038","297-VK","2018/03/03 18:39:37","新北市汐止區汐萬路一段312號","121.650676666667","25.0752816666667","6501100","汐止區"
"221029","298-VK","2018/03/03 18:39:33","新北市汐止區樟樹一路148號","121.642426666667","25.06513","6501100","汐止區"
"221021","299-VK","2018/03/03 18:39:51","新北市汐止區汐萬路一段220號","121.651756666667","25.0728483333333","6501100","汐止區"
"221031","353-TW","2018/03/03 18:39:43","新北市汐止區福德一路298號","121.631488333333","25.0632983333333","6501100","汐止區"
"221035","622-UM","2018/03/03 18:39:36","新北市汐止區汐萬路一段5號","121.656048333333","25.0673516666667","6501100","汐止區"
"221025","623-UM","2018/03/03 18:39:51","新北市汐止區福安街20巷20號","121.661955","25.0646233333333","6501100","汐止區"
"221033","647-BX","2018/03/03 18:39:34","新北市汐止區南勢街1巷1號","121.627086666667","25.03745","6501100","汐止區"
"221002","707-TV","2018/03/03 18:39:33","新北市汐止區中興路20號","121.637006666667","25.0595316666667","6501100","汐止區"
"221018","753-BX","2018/03/03 18:39:37","新北市汐止區茄福街17號","121.672838333333","25.0674016666667","6501100","汐止區"
"220079","145-BY","2018/03/03 18:39:39","新北市板橋區民權路182號","121.459135","25.0134266666667","6500100","板橋區"
"220080","200-UY","2018/03/03 18:39:32","新北市板橋區大觀路二段265巷76弄37號","121.440973333333","24.9967616666667","6500100","板橋區"
"220082","610-BX","2018/03/03 18:39:50","新北市板橋區篤行路一段33號","121.432056666667","24.9943166666667","6500100","板橋區"
"220056","276-BY","2018/03/03 18:39:49","新北市板橋區四川路二段113號","121.4515","24.9943616666667","6500100","板橋區"
"220072","277-BY","2018/03/03 18:39:44","新北市板橋區大觀路三段52號","121.432408333333","24.9959833333333","6500100","板橋區"
"220057","282-UM","2018/03/03 18:39:48","新北市板橋區華東街1-9號","121.448218333333","24.9948516666667","6500100","板橋區"
"220071","283-VK","2018/03/03 18:39:31","新北市板橋區四川路二段140巷16弄23號","121.448471666667","24.9940933333333","6500100","板橋區"
"220094","285-UM","2018/03/03 18:39:33","新北市板橋區民生路二段184號","121.470921666667","25.0201066666667","6500100","板橋區"
"220053","285-VK","2018/03/03 18:39:30","新北市板橋區民生路二段161巷3號","121.470231666667","25.01984","6500100","板橋區"
"220083","286-VK","2018/03/03 18:39:43","新北市板橋區大觀路二段107號","121.446161666667","25.0017","6500100","板橋區"
"220081","287-VK","2018/03/03 18:39:35","新北市板橋區大觀路二段153巷47號","121.447153333333","25.0008033333333","6500100","板橋區"
"220061","293-UM","2018/03/03 18:39:44","新北市板橋區民生路二段161巷3號","121.470203333333","25.0198283333333","6500100","板橋區"
"220084","296-UM","2018/03/03 18:39:39","新北市板橋區大觀路二段205號","121.444453333333","24.9994983333333","6500100","板橋區"
"220075","303-R5","2018/03/03 18:39:42","新北市板橋區華東街300號","121.452698333333","25.0026916666667","6500100","板橋區"
"220062","305-R5","2018/03/03 18:39:45","新北市板橋區民生路二段161巷5號","121.47029","25.01973","6500100","板橋區"
"220064","486-VK","2018/03/03 18:39:44","新北市板橋區縣民大道二段101號","121.4666","25.01524","6500100","板橋區"
"241031","AAD-800","2018/03/03 18:15:45","新北市板橋區民生路二段89-6號","121.470535","25.019225","6500200","三重區"
"220035","560-BX","2018/03/03 18:39:41","新北市板橋區南雅西路二段145巷10號","121.451575","25.0119416666667","6500100","板橋區"
"220055","568-UM","2018/03/03 18:39:36","新北市板橋區華東街1-9號","121.448165","24.9949216666667","6500100","板橋區"
"220063","609-BX","2018/03/03 18:39:31","新北市板橋區介壽街69號","121.469386666667","25.0196233333333","6500100","板橋區"
"220077","687-BX","2018/03/03 18:39:54","新北市板橋區大觀路二段174巷104弄1號","121.441011666667","25.0014183333333","6500100","板橋區"
"220054","741-BX","2018/03/03 18:39:35","新北市板橋區華東街1-9號","121.44812","24.99488","6500100","板橋區"
"220074","895-R6","2018/03/03 18:39:31","新北市板橋區南雅南路一段121號","121.455186666667","25.0046283333333","6500100","板橋區"
"220073","985-R7","2018/03/03 18:39:39","新北市板橋區貴興路31號","121.457676666667","25.00392","6500100","板橋區"
"220070","AAC-253","2018/03/03 18:39:43","新北市板橋區南雅南路二段120-16號","121.452001666667","24.9991983333333","6500100","板橋區"
