"lineid","car","time","location","longitude","latitude","cityid","cityname"
"234046","148-BY","2018/03/03 18:59:40","新北市永和區得和路373巷31弄6號","121.524816666667","25.0005866666667","6500400","永和區"
"234007","207-UY","2018/03/03 18:59:43","新北市永和區永和路二段81號","121.514771666667","25.0112","6500400","永和區"
"234081","298-R6","2018/03/03 18:59:45","新北市永和區永亨路61號","121.52104","25.006045","6500400","永和區"
"234038","336-UY","2018/03/03 18:59:39","新北市永和區成功路二段207號","121.526568333333","24.995965","6500400","永和區"
"234064","337-UY","2018/03/03 18:59:42","新北市永和區秀朗路一段205號","121.51908","25.0033233333333","6500400","永和區"
"234086","338-UY","2018/03/03 18:59:40","新北市永和區永寧街121號","121.517993333333","25.0057166666667","6500400","永和區"
"234070","552-UM","2018/03/03 18:59:48","新北市永和區中興街84巷8號","121.518523333333","25.0116583333333","6500400","永和區"
"234017","745-BX","2018/03/03 18:59:44","新北市永和區永和路二段304號","121.516158333333","25.01592","6500400","永和區"
"234030","746-BX","2018/03/03 18:59:44","新北市永和區四維街64號","121.524288333333","24.9982433333333","6500400","永和區"
"234054","KEA-2590","2018/03/03 18:59:42","新北市永和區竹林路66巷4號","121.518243333333","25.01332","6500400","永和區"
"234013","KEA-2591","2018/03/03 18:59:38","新北市永和區中山路一段60巷8號","121.513175","25.011085","6500400","永和區"
"234061","AAD-866","2018/03/03 18:59:44","新北市永和區中正路509巷4號","121.516518333333","25.007105","6500400","永和區"
"234042","862-TW","2018/03/03 18:59:40","新北市永和區永貞路334號","121.511161666667","25.00552","6500400","永和區"
"234050","863-TW","2018/03/03 18:59:48","新北市永和區文化路198號","121.510575","25.0163916666667","6500400","永和區"
"234026","9371-KE","2018/03/03 18:59:40","新北市永和區安樂路451號","121.51437","25.0049666666667","6500400","永和區"
"234011","9373-KE","2018/03/03 18:59:45","新北市永和區忠孝街34巷18號","121.514511666667","25.0168116666667","6500400","永和區"
"249005","172-UM","2018/03/03 18:59:51","新北市八里區長道坑6號","121.397088333333","25.123485","6502300","八里區"
"249001","173-UM","2018/03/03 18:59:34","新北市八里區龍米路二段228-1號","121.43274","25.15843","6502300","八里區"
"248016","026-BX","2018/03/03 18:59:36","新北市五股區成泰路三段543巷18號","121.450886666667","25.10227","6501500","五股區"
"248006","077-UY","2018/03/03 18:59:43","新北市五股區中興路一段68號","121.467296666667","25.07297","6501500","五股區"
"248008","095-VK","2018/03/03 18:59:33","新北市五股區中興路一段128巷30號","121.465835","25.075045","6501500","五股區"
"248020","225-UY","2018/03/03 18:59:45","新北市五股區凌雲路三段57號","121.425275","25.12502","6501500","五股區"
"248012","247-BX","2018/03/03 18:59:36","新北市五股區工商路38號","121.439371666667","25.083735","6501500","五股區"
"248010","272-BY","2018/03/03 18:59:44","新北市五股區水碓三路63號","121.4304","25.0715033333333","6501500","五股區"
"248004","677-BX","2018/03/03 18:59:36","新北市五股區民義路二段50-29號","121.412308333333","25.1027383333333","6501500","五股區"
"248002","678-BX","2018/03/03 18:59:51","新北市五股區凌雲路一段126號","121.44981","25.10195","6501500","五股區"
"234023","9380-KE","2018/03/03 18:59:44","新北市永和區竹林路75巷47號","121.5209","25.01441","6500400","永和區"
"234077","969-R7","2018/03/03 18:59:46","新北市永和區智光街20號","121.51799","24.9993483333333","6500400","永和區"
"234074","AAC-211","2018/03/03 18:59:52","新北市永和區環河東路二段98號","121.524106666667","25.0103333333333","6500400","永和區"
"234067","AAC-212","2018/03/03 18:59:44","新北市永和區永和路一段32號","121.513081666667","25.00493","6500400","永和區"
"234003","AAC-295","2018/03/03 18:59:46","新北市永和區和平街32號","121.51323","25.009975","6500400","永和區"
"232011","375-UM","2018/03/03 18:59:44","新北市坪林區坪林街96號","121.71203","24.9364533333333","6502000","坪林區"
"244013","069-UM","2018/03/03 18:59:45","新北市林口區麗園一街6巷5-2號","121.375475","25.0702016666667","6501700","林口區"
"244007","080-UY","2018/03/03 18:59:51","新北市林口區太平里25-3號","121.374886666667","25.1216166666667","6501700","林口區"
"244019","402-UM","2018/03/03 18:59:35","新北市林口區麗園二街60巷78號","121.381316666667","25.0674433333333","6501700","林口區"
"244025","742-UY","2018/03/03 18:59:21","新北市林口區文化北路一段410號","121.364843333333","25.0762416666667","6501700","林口區"
"244023","483-VK","2018/03/03 18:59:34","新北市林口區民權路19號","121.371473333333","25.08044","6501700","林口區"
"244017","485-VK","2018/03/03 18:59:32","新北市林口區公園路95號","121.368693333333","25.069755","6501700","林口區"
"244009","657-BX","2018/03/03 18:59:40","新北市林口區竹林路346巷20號","121.392901666667","25.0833116666667","6501700","林口區"
"244011","701-TV","2018/03/03 18:59:32","新北市林口區仁愛路一段334號","121.39109","25.0765033333333","6501700","林口區"
"243012","AAD-798","2018/03/03 18:59:43","新北市泰山區仁德路112號","121.432798333333","25.0568666666667","6501600","泰山區"
"243011","297-R6","2018/03/03 18:59:49","新北市泰山區明志路二段298巷16-2號","121.425728333333","25.0467233333333","6501600","泰山區"
"243015","380-SR","2018/03/03 18:59:31","新北市泰山區泰林路二段318號","121.430395","25.062975","6501600","泰山區"
"243014","421-VK","2018/03/03 18:59:42","新北市泰山區黎明路2-5號","121.420868333333","25.0626683333333","6501600","泰山區"
"243010","KEA-2215","2018/03/03 18:59:40","新北市泰山區辭修路28號","121.429","25.058195","6501600","泰山區"
"243009","KEA-2216","2018/03/03 18:59:32","新北市泰山區泰林路二段360號","121.428966666667","25.0636633333333","6501600","泰山區"
"243013","646-TV","2018/03/03 18:59:40","新北市泰山區明志路三段341巷5弄7號","121.423228333333","25.03528","6501600","泰山區"
"243016","680-BX","2018/03/03 18:59:34","新北市泰山區明志路二段152-2號","121.427531666667","25.0505766666667","6501600","泰山區"
"222003","436-BY","2018/03/03 18:59:49","新北市深坑區深南路51-1號","121.621335","25.0101616666667","6501800","深坑區"
"222002","659-BX","2018/03/03 18:59:41","新北市深坑區文山路一段33號","121.629675","25.003605","6501800","深坑區"
"231041","002-UM","2018/03/03 18:59:48","新北市新店區環河路76號","121.537025","24.96321","6500600","新店區"
"231059","046-UY","2018/03/03 18:59:42","新北市新店區安華路28-1號","121.519605","24.9608933333333","6500600","新店區"
"231061","047-UY","2018/03/03 18:59:42","新北市新店區安康路一段351-1號","121.519331666667","24.96395","6500600","新店區"
"231060","106-UY","2018/03/03 18:59:39","新北市新店區車子路10-4號","121.504876666667","24.9545516666667","6500600","新店區"
"231051","107-UY","2018/03/03 18:59:40","新北市新店區百忍街12號","121.534745","24.9755983333333","6500600","新店區"
"231048","108-UY","2018/03/03 18:59:45","新北市新店區德正街27巷29弄28號","121.545856666667","24.972305","6500600","新店區"
"231052","187-VK","2018/03/03 18:59:46","新北市新店區屈尺路46-1號","121.548025","24.922655","6500600","新店區"
"231050","KEA-2219","2018/03/03 18:59:41","新北市新店區新烏路一段11巷17號","121.547666666667","24.95089","6500600","新店區"
"231046","278-BY","2018/03/03 18:59:47","新北市新店區直潭五街19號","121.534331666667","24.94109","6500600","新店區"
"231058","3712-VJ","2018/03/03 18:59:44","新北市新店區中興路一段138號","121.542141666667","24.9635516666667","6500600","新店區"
"231056","3713-VJ","2018/03/03 18:59:43","新北市新店區大同街8巷27號","121.538873333333","24.9810183333333","6500600","新店區"
"231055","4716-K9","2018/03/03 18:59:42","新北市新店區北新路一段271巷32號","121.540006666667","24.9672366666667","6500600","新店區"
"231067","4772-VM","2018/03/03 18:59:47","新北市新店區安康路一段247巷29號","121.524605","24.9619733333333","6500600","新店區"
"231065","512-UM","2018/03/03 18:59:42","新北市新店區安祥路147巷84號","121.47558","24.9553933333333","6500600","新店區"
"231054","513-UM","2018/03/03 18:59:45","新北市新店區新店路15號","121.540251666667","24.952815","6500600","新店區"
"231064","515-UM","2018/03/03 18:59:32","新北市新店區安康路一段266巷4號","121.519893333333","24.96392","6500600","新店區"
"231045","617-UM","2018/03/03 18:59:48","新北市新店區光明街1-1號","121.538103333333","24.9590916666667","6500600","新店區"
"231044","618-UM","2018/03/03 18:59:43","新北市新店區寶中路110號","121.550081666667","24.9789433333333","6500600","新店區"
"231040","619-UM","2018/03/03 18:59:39","新北市新店區三民路126號","121.534651666667","24.9745116666667","6500600","新店區"
"231042","641-BX","2018/03/03 18:59:37","新北市新店區中興路一段285-1號","121.545561666667","24.9686083333333","6500600","新店區"
"231063","645-TV","2018/03/03 18:59:40","新北市新店區車子路110號","121.505221666667","24.9520883333333","6500600","新店區"
"231049","719-UM","2018/03/03 18:59:48","新北市新店區二十張路142-1號","121.535031666667","24.9788116666667","6500600","新店區"
"231062","720-UM","2018/03/03 18:59:42","新北市新店區安和路二段70-1號","121.519321666667","24.968525","6500600","新店區"
"231043","899-TW","2018/03/03 18:59:50","新北市新店區北新路二段7號","121.542668333333","24.9713216666667","6500600","新店區"
"231066","AKT-0513","2018/03/03 18:59:41","新北市新店區安康路三段41號","121.492901666667","24.9528716666667","6500600","新店區"
"235066","003-UY","2018/03/03 18:59:47","新北市中和區中山路二段131巷5弄4號","121.502975","25.0028","6500300","中和區"
"235064","005-UY","2018/03/03 18:59:49","新北市中和區泰和街44巷19號","121.49834","25.0007183333333","6500300","中和區"
"235063","006-UY","2018/03/03 18:59:36","新北市中和區中正路586號","121.485958333333","24.994845","6500300","中和區"
"235060","031-BX","2018/03/03 18:59:43","新北市中和區民治街13巷2號","121.47529","25.0039716666667","6500300","中和區"
"235056","096-UM","2018/03/03 18:59:41","新北市中和區新民街12-3號","121.482113333333","25.0071216666667","6500300","中和區"
"235039","097-UM","2018/03/03 18:59:31","新北市中和區安樂路217巷39號","121.513381666667","24.9978933333333","6500300","中和區"
"235065","098-UM","2018/03/03 18:59:34","新北市中和區勝利路35巷3弄21號","121.499828333333","25.0073816666667","6500300","中和區"
"235058","151-BY","2018/03/03 18:59:34","新北市中和區連城路526-1號","121.475993333333","24.9915083333333","6500300","中和區"
"235055","183-VK","2018/03/03 18:59:39","新北市中和區民德路25巷3號","121.469245","25.00277","6500300","中和區"
"235038","185-VK","2018/03/03 18:59:34","新北市中和區立人街22號","121.519011666667","24.994215","6500300","中和區"
"235049","186-VK","2018/03/03 18:59:45","新北市中和區景安路167巷19號","121.506338333333","24.9949616666667","6500300","中和區"
"235067","255-BX","2018/03/03 18:59:38","新北市中和區中正路751巷10號","121.484386666667","24.9997283333333","6500300","中和區"
"235044","293-VK","2018/03/03 18:59:40","新北市中和區中興街202巷8號","121.498875","24.9904566666667","6500300","中和區"
"235072","301-VK","2018/03/03 18:59:46","新北市中和區中山路二段132號","121.502355","25.0033083333333","6500300","中和區"
"235043","352-BY","2018/03/03 18:59:42","新北市中和區成功路47號","121.526225","24.992925","6500300","中和區"
"235068","377-QA","2018/03/03 18:59:16","新北市中和區中正路281-2號","121.494701666667","24.993575","6500300","中和區"
"235061","378-QA","2018/03/03 18:59:41","新北市中和區自治街2號","121.474203333333","25.0029683333333","6500300","中和區"
"235071","269-TV","2018/03/03 18:59:48","新北市中和區員山路36巷16-3號","121.484966666667","24.991365","6500300","中和區"
"235050","4979-A6","2018/03/03 18:59:45","新北市中和區忠孝街37巷7號","121.511023333333","24.9835166666667","6500300","中和區"
"235069","4980-A6","2018/03/03 18:59:45","新北市中和區圓通路55號","121.500698333333","24.99741","6500300","中和區"
"235042","551-UM","2018/03/03 18:59:39","新北市中和區秀朗路三段50巷2弄8號","121.526231666667","24.9958833333333","6500300","中和區"
"235045","565-BX","2018/03/03 18:59:40","新北市中和區景新街469號","121.513575","24.9881416666667","6500300","中和區"
"235054","640-BX","2018/03/03 18:59:38","新北市中和區民享街2巷2號","121.47373","25.0058816666667","6500300","中和區"
"235047","732-UM","2018/03/03 18:59:42","新北市中和區興南路二段54巷8號","121.505955","24.9856133333333","6500300","中和區"
"235046","733-UM","2018/03/03 18:59:36","新北市中和區興南路一段135巷17號","121.509391666667","24.987015","6500300","中和區"
"235057","801-TS","2018/03/03 18:59:39","新北市中和區民安街65巷5號","121.478893333333","24.9992983333333","6500300","中和區"
"235052","805-TS","2018/03/03 18:59:45","新北市中和區興南路二段148號","121.50394","24.9829883333333","6500300","中和區"
"235048","896-TW","2018/03/03 18:59:43","新北市中和區華新街109巷1-2號","121.509063333333","24.9823683333333","6500300","中和區"
"235053","900-TW","2018/03/03 18:59:50","新北市中和區壽德街18-1號","121.466008333333","24.9949583333333","6500300","中和區"
"235070","911-UM","2018/03/03 18:59:45","新北市中和區中和路241號","121.504686666667","24.9998783333333","6500300","中和區"
"235051","157-BY","2018/03/03 18:59:35","新北市中和區忠孝街11巷10號","121.50993","24.983175","6500300","中和區"
"235037","AAC-213","2018/03/03 18:59:35","新北市中和區自立路101號","121.522233333333","24.99476","6500300","中和區"
"235059","AAC-215","2018/03/03 18:59:39","新北市中和區圓通路367巷20弄23號","121.491428333333","24.9883066666667","6500300","中和區"
"220068","013-TV","2018/03/03 18:59:51","新北市板橋區中山路二段465巷92-1號","121.481161666667","25.0225416666667","6500100","板橋區"
"220065","072-UY","2018/03/03 18:59:31","新北市板橋區民族路287巷10號","121.471223333333","25.0071483333333","6500100","板橋區"
"220086","073-UY","2018/03/03 18:59:44","新北市板橋區民權路209-1號","121.457871666667","25.0148066666667","6500100","板橋區"
"220069","AAD-861","2018/03/03 18:59:48","新北市板橋區大華街36號","121.458758333333","25.0055283333333","6500100","板橋區"
"226004","205-ST","2018/03/03 18:59:44","新北市平溪區平溪里平溪街63號","121.737821666667","25.0269716666667","6502400","平溪區"
"235041","251-BX","2018/03/03 18:59:48","新北市中和區宜安路80號","121.511136666667","24.9977416666667","6500300","中和區"
"228003","097-TW","2018/03/03 18:59:42","新北市貢寮區和美里龍洞街26號","121.916053333333","25.1086516666667","6502600","貢寮區"
"228001","212-TW","2018/03/03 18:59:39","新北市貢寮區仁理村保健街71號","121.923746666667","25.0516433333333","6502600","貢寮區"
"228002","585-TW","2018/03/03 18:59:50","新北市貢寮區福隆里東興街106巷23弄1號","121.946176666667","25.0180816666667","6502600","貢寮區"
"224010","AGQ-8101","2018/03/03 18:51:40","新北市瑞芳區輕便路216號","121.84506","25.109375","6501200","瑞芳區"
"224006","676-BX","2018/03/03 18:59:51","新北市瑞芳區三爪子坑路106巷182號","121.809141666667","25.1035666666667","6501200","瑞芳區"
"224008","285-BY","2018/03/03 18:59:52","新北市瑞芳區瑞芳街102號","121.80194","25.1104483333333","6501200","瑞芳區"
"224007","275-VK","2018/03/03 18:59:47","新北市瑞芳區大埔路慶安新村8號","121.762035","25.1002433333333","6501200","瑞芳區"
"224009","273-VK","2018/03/03 18:59:33","新北市瑞芳區祈堂路2號","121.859748333333","25.1116883333333","6501200","瑞芳區"
"224005","271-BY","2018/03/03 18:59:40","新北市瑞芳區岳王路90-1號","121.810753333333","25.111375","6501200","瑞芳區"
"227010","642-TC","2018/03/03 18:59:51","新北市雙溪區牡丹里中正路58巷23號","121.866446666667","25.0415516666667","6502500","雙溪區"
"227002","400-TW","2018/03/03 18:59:46","新北市雙溪區平林里康福家園10號","121.858726666667","25.03729","6502500","雙溪區"
"253005","032-BX","2018/03/03 18:59:37","新北市石門區中央路37-5號","121.569576666667","25.2963816666667","6502200","石門區"
"253006","295-VK","2018/03/03 18:59:37","新北市石門區八甲4-7號","121.520978333333","25.2829133333333","6502200","石門區"
"222001","KEA-2212","2018/03/03 18:59:33","新北市深坑區北深路一段177號","121.632546666667","25.0108283333333","6501800","深坑區"
"208002","KEA-2872","2018/03/03 18:59:51","新北市金山區仁愛路37-14號","121.6357","25.2203533333333","6502700","金山區"
"208003","665-BX","2018/03/03 18:59:43","新北市金山區中正路51號","121.63468","25.2219733333333","6502700","金山區"
"208001","761-BX","2018/03/03 18:59:40","新北市金山區中山路79號","121.640488333333","25.2185716666667","6502700","金山區"
"251009","008-UM","2018/03/03 18:59:38","新北市淡水區重建街61號","121.439865","25.17181","6501000","淡水區"
"251001","011-UM","2018/03/03 18:59:42","新北市淡水區自強路58號","121.46316","25.1274416666667","6501000","淡水區"
"251013","179-VK","2018/03/03 18:59:34","新北市淡水區安子內12號","121.481625","25.2190716666667","6501000","淡水區"
"251014","180-VK","2018/03/03 18:59:40","新北市淡水區小中寮31號","121.490281666667","25.22733","6501000","淡水區"
"251015","182-VK","2018/03/03 18:59:28","新北市淡水區糞箕湖105號","121.48715","25.172645","6501000","淡水區"
"251010","413-VK","2018/03/03 18:59:31","新北市淡水區沙崙路97號","121.422321666667","25.1823733333333","6501000","淡水區"
"251016","442-VK","2018/03/03 18:59:50","新北市淡水區淡金路三段224號","121.44886","25.2049733333333","6501000","淡水區"
"251007","577-R6","2018/03/03 18:59:43","新北市淡水區民生路49號","121.462471666667","25.1381666666667","6501000","淡水區"
"251002","672-BX","2018/03/03 18:59:38","新北市淡水區中正東路49號","121.446651666667","25.16791","6501000","淡水區"
"251003","673-BX","2018/03/03 18:59:51","新北市淡水區中山北路一段149巷24號","121.4429","25.1779683333333","6501000","淡水區"
"207003","550-UM","2018/03/03 18:59:36","新北市萬里區大鵬里頂社1號","121.65716","25.2096683333333","6502800","萬里區"
"207004","225-TW","2018/03/03 18:59:38","新北市萬里區萬里里獅頭路23號","121.693226666667","25.1782516666667","6502800","萬里區"
"252002","178-VK","2018/03/03 18:59:49","新北市三芝區民生街4號","121.503786666667","25.25743","6502100","三芝區"
"252003","249-BX","2018/03/03 18:59:50","新北市三芝區後厝里北勢子42-6號","121.472421666667","25.2527266666667","6502100","三芝區"
"252001","292-VK","2018/03/03 18:59:35","新北市三芝區中興街二段260號","121.501713333333","25.2530416666667","6502100","三芝區"
"237004","KEA-2597","2018/03/03 18:59:52","新北市三峽區有木179號","121.445681666667","24.8337966666667","6500900","三峽區"
"237007","153-BY","2018/03/03 18:59:42","新北市三峽區中正路二段415號","121.363216666667","24.906865","6500900","三峽區"
"237013","252-BX","2018/03/03 18:59:52","新北市三峽區光明路69巷25號","121.376516666667","24.9292816666667","6500900","三峽區"
"237012","275-BY","2018/03/03 18:59:47","新北市三峽區三樹路212-1號","121.37918","24.942045","6500900","三峽區"
"237008","302-VK","2018/03/03 18:59:47","新北市三峽區正義街2號","121.36986","24.91989","6500900","三峽區"
"237014","433-BY","2018/03/03 18:59:35","新北市三峽區復興路480巷7-2號","121.35791","24.9396566666667","6500900","三峽區"
"237006","5529-G3","2018/03/03 18:59:47","新北市三峽區溪東路215號","121.406258333333","24.9328083333333","6500900","三峽區"
"237011","KEA-2596","2018/03/03 18:59:34","新北市三峽區介壽路二段157號","121.393683333333","24.93587","6500900","三峽區"
"237010","706-TV","2018/03/03 18:59:46","新北市三峽區民生街60巷3號","121.375148333333","24.9362","6500900","三峽區"
"237005","AKY-6261","2018/03/03 18:59:40","新北市三峽區中山路459巷163-3號","121.348691666667","24.9328866666667","6500900","三峽區"
"236073","105-UM","2018/03/03 18:59:33","新北市土城區清水路68號","121.456193333333","24.9816533333333","6501300","土城區"
"236043","107-UM","2018/03/03 18:59:42","新北市土城區學府路一段266號","121.451153333333","24.9842633333333","6501300","土城區"
"236079","166-UM","2018/03/03 18:59:35","新北市土城區中央路四段238號","121.415348333333","24.95706","6501300","土城區"
"236031","253-BX","2018/03/03 18:59:34","新北市土城區慶利街9號","121.439561666667","24.9736466666667","6501300","土城區"
"236026","269-VK","2018/03/03 18:59:48","新北市土城區中正路61號","121.444368333333","24.9755766666667","6501300","土城區"
"236015","270-VK","2018/03/03 18:59:41","新北市土城區立德路30號","121.463273333333","24.98756","6501300","土城區"
"236038","271-VK","2018/03/03 18:59:33","新北市土城區明德路一段240巷26弄20號","121.460865","24.978155","6501300","土城區"
"236023","401-BY","2018/03/03 18:59:30","新北市土城區延吉街168巷2弄2號","121.468385","24.9856","6501300","土城區"
"236059","912-UM","2018/03/03 18:59:51","新北市土城區明德路一段385-1號","121.452478333333","24.979815","6501300","土城區"
"236049","913-UM","2018/03/03 18:59:49","新北市土城區青雲路172-1號","121.459193333333","24.9826033333333","6501300","土城區"
"236063","915-UM","2018/03/03 18:59:43","新北市土城區延和路41巷6弄16號","121.466633333333","24.9902766666667","6501300","土城區"
"236055","AAC-216","2018/03/03 18:59:50","新北市土城區學成路162號","121.448096666667","24.989135","6501300","土城區"
"238023","601-UM","2018/03/03 18:59:46","新北市樹林區工興街18-1號","121.398106666667","25.0131066666667","6500700","樹林區"
"238006","599-UM","2018/03/03 18:59:44","新北市樹林區東華街39號","121.415348333333","24.9815183333333","6500700","樹林區"
"238022","KEA-2213","2018/03/03 18:59:40","新北市樹林區東興街8-2號","121.409798333333","24.97885","6500700","樹林區"
"238021","KEA-2539","2018/03/03 18:59:44","新北市樹林區柑園街二段276巷22號","121.372838333333","24.9530966666667","6500700","樹林區"
"238025","303-VK","2018/03/03 18:59:53","新北市樹林區民和街77號","121.380433333333","24.971945","6500700","樹林區"
"238014","282-BY","2018/03/03 18:59:45","新北市樹林區千歲街61巷48號","121.425443333333","24.9988066666667","6500700","樹林區"
"238020","268-VK","2018/03/03 18:59:46","新北市樹林區俊英街83巷1號","121.425786666667","25.0080333333333","6500700","樹林區"
"238026","172-UY","2018/03/03 18:59:39","新北市樹林區中和街2號","121.39136","24.9732916666667","6500700","樹林區"
"238016","169-UY","2018/03/03 18:59:46","新北市樹林區復興路373巷9號","121.417431666667","24.9864516666667","6500700","樹林區"
"239007","AAC-297","2018/03/03 18:59:34","新北市鶯歌區西湖街53巷21號","121.34073","24.95992","6500800","鶯歌區"
"239006","891-R6","2018/03/03 18:59:37","新北市鶯歌區鶯桃路91巷31弄2衖2號","121.33774","24.9519383333333","6500800","鶯歌區"
"239008","527-UM","2018/03/03 18:59:51","新北市鶯歌區國際二路10巷3號","121.338026666667","24.9741983333333","6500800","鶯歌區"
"239005","526-UM","2018/03/03 18:59:44","新北市鶯歌區大湖路361巷24弄20號","121.329985","24.977805","6500800","鶯歌區"
"239001","417-VK","2018/03/03 18:59:34","新北市鶯歌區永安街60號","121.338208333333","24.9563083333333","6500800","鶯歌區"
"239003","360-BY","2018/03/03 18:59:33","新北市鶯歌區鶯桃路495號","121.331601666667","24.9664616666667","6500800","鶯歌區"
"239004","193-VK","2018/03/03 18:59:47","新北市鶯歌區中正三路406巷3弄1號","121.325133333333","24.9357616666667","6500800","鶯歌區"
"221008","489-VK","2018/03/03 18:59:49","新北市汐止區康寧街861巷1號","121.645451666667","25.075915","6501100","汐止區"
"221036","130-UY","2018/03/03 18:59:32","新北市汐止區忠孝東路314巷1號","121.66461","25.0689883333333","6501100","汐止區"
"221015","131-UY","2018/03/03 18:59:43","新北市汐止區大同路二段693號","121.665265","25.0725416666667","6501100","汐止區"
"221010","269-BY","2018/03/03 18:59:35","新北市汐止區汐萬路一段256巷3號","121.652586666667","25.0745416666667","6501100","汐止區"
"221012","278-VK","2018/03/03 18:59:43","新北市汐止區康寧街901號","121.650813333333","25.07528","6501100","汐止區"
"221023","279-VK","2018/03/03 18:45:19","新北市汐止區康寧街901號","121.651003333333","25.0752533333333","6501100","汐止區"
"221032","280-BY","2018/03/03 18:59:44","新北市汐止區橫科路407巷81弄5號","121.628993333333","25.0479416666667","6501100","汐止區"
"221027","281-BY","2018/03/03 18:59:38","新北市汐止區康寧街901號","121.651491666667","25.0749666666667","6501100","汐止區"
"221038","297-VK","2018/03/03 18:59:37","新北市汐止區汐萬路一段312號","121.650651666667","25.0753166666667","6501100","汐止區"
"221029","298-VK","2018/03/03 18:59:46","新北市汐止區樟樹一路258號","121.642416666667","25.067385","6501100","汐止區"
"221031","353-TW","2018/03/03 18:59:43","新北市汐止區福德三路133號","121.63327","25.0674783333333","6501100","汐止區"
"221025","623-UM","2018/03/03 18:59:51","新北市汐止區汐萬路一段256巷3號","121.652826666667","25.074435","6501100","汐止區"
"221033","647-BX","2018/03/03 18:59:34","新北市汐止區南勢街1巷1號","121.627061666667","25.037415","6501100","汐止區"
"221002","707-TV","2018/03/03 18:59:53","新北市汐止區大同路一段4號","121.621131666667","25.05506","6501100","汐止區"
"221018","753-BX","2018/03/03 18:59:37","新北市汐止區康寧街901號","121.651046666667","25.0751833333333","6501100","汐止區"
"220079","145-BY","2018/03/03 18:59:39","新北市板橋區民權路202巷14弄15號","121.461355","25.0158783333333","6500100","板橋區"
"220080","200-UY","2018/03/03 18:59:32","新北市板橋區大觀路二段265巷1弄16號","121.44365","24.9984283333333","6500100","板橋區"
"220106","KEA-2550","2018/03/03 18:59:41","新北市板橋區文化路二段124巷28-2號","121.47128","25.025715","6500100","板橋區"
"220082","610-BX","2018/03/03 18:59:50","新北市板橋區溪崑二街88號","121.427156666667","24.9894383333333","6500100","板橋區"
"220056","276-BY","2018/03/03 18:59:49","新北市板橋區信義路148號","121.458756666667","24.991755","6500100","板橋區"
"220072","277-BY","2018/03/03 18:59:44","新北市板橋區大觀路三段50巷49號","121.432116666667","24.995825","6500100","板橋區"
"220101","280-UM","2018/03/03 18:59:39","新北市板橋區文化路二段182巷5弄2號","121.471745","25.0269666666667","6500100","板橋區"
"220057","282-UM","2018/03/03 18:59:48","新北市板橋區重慶路40號","121.46159","25.0075266666667","6500100","板橋區"
"220071","283-VK","2018/03/03 18:59:48","新北市板橋區忠孝路146號","121.46387","25.00242","6500100","板橋區"
"220094","285-UM","2018/03/03 18:59:34","新北市板橋區莒光路1-1號","121.469641666667","25.02492","6500100","板橋區"
"220053","285-VK","2018/03/03 18:59:50","新北市板橋區中山路二段89巷60號","121.473723333333","25.01734","6500100","板橋區"
"220083","286-VK","2018/03/03 18:59:43","新北市板橋區大觀路一段38巷156弄4號","121.442605","25.0044866666667","6500100","板橋區"
"220081","287-VK","2018/03/03 18:59:35","新北市板橋區光華街19巷36號","121.453236666667","25.0120083333333","6500100","板橋區"
"220061","293-UM","2018/03/03 18:59:44","新北市板橋區永豐街122號","121.476411666667","25.0207983333333","6500100","板橋區"
"220084","296-UM","2018/03/03 18:59:39","新北市板橋區大觀路二段309號","121.441955","24.9987333333333","6500100","板橋區"
"220075","303-R5","2018/03/03 18:59:42","新北市板橋區府中路121號","121.45625","25.00954","6500100","板橋區"
"220062","305-R5","2018/03/03 18:59:45","新北市板橋區民享街56號","121.476085","25.015025","6500100","板橋區"
"220092","307-R5","2018/03/03 18:59:37","新北市板橋區文化路一段102號","121.4647","25.0180033333333","6500100","板橋區"
"220098","317-R6","2018/03/03 18:59:43","新北市板橋區民有街17號","121.466186666667","25.0248916666667","6500100","板橋區"
"220064","486-VK","2018/03/03 18:59:44","新北市板橋區漢生東路170號","121.466985","25.014655","6500100","板橋區"
"220089","487-VK","2018/03/03 18:59:47","新北市板橋區文化路二段315號","121.47213","25.029725","6500100","板橋區"
"220088","491-VK","2018/03/03 18:59:35","新北市板橋區民生路二段232-14號","121.468856666667","25.0222266666667","6500100","板橋區"
"220035","560-BX","2018/03/03 18:59:41","新北市板橋區中正路341巷23號","121.45426","25.0200983333333","6500100","板橋區"
"220103","561-BX","2018/03/03 18:59:35","新北市板橋區民生路二段123號","121.470565","25.0185216666667","6500100","板橋區"
"220055","568-UM","2018/03/03 18:59:36","新北市板橋區中山路一段168-2號","121.467181666667","25.0117733333333","6500100","板橋區"
"220063","609-BX","2018/03/03 18:59:51","新北市板橋區中山路二段221號","121.476746666667","25.017185","6500100","板橋區"
"220091","637-BX","2018/03/03 18:59:46","新北市板橋區雙十路二段49號","121.476593333333","25.026255","6500100","板橋區"
"220077","687-BX","2018/03/03 18:59:34","新北市板橋區大觀路二段146-2號","121.442093333333","24.9987866666667","6500100","板橋區"
"220093","689-BX","2018/03/03 18:59:50","新北市板橋區民生路三段106號","121.466623333333","25.0260666666667","6500100","板橋區"
"220054","741-BX","2018/03/03 18:59:49","新北市板橋區重慶路139巷2號","121.462525","25.0044216666667","6500100","板橋區"
"220102","KEA-2699","2018/03/03 18:59:50","新北市板橋區雙十路一段36-3號","121.477535","25.0247116666667","6500100","板橋區"
"220067","829-TW","2018/03/03 18:59:41","新北市板橋區三民路2段正泰3巷18-1號","121.477921666667","25.01424","6500100","板橋區"
"220090","830-TW","2018/03/03 18:59:43","新北市板橋區四維路175-1號","121.464548333333","25.0262416666667","6500100","板橋區"
"220096","831-TW","2018/03/03 18:59:46","新北市板橋區莒光路103號","121.472643333333","25.0239966666667","6500100","板橋區"
"220074","895-R6","2018/03/03 18:59:51","新北市板橋區府中路127號","121.456116666667","25.0095933333333","6500100","板橋區"
"220073","985-R7","2018/03/03 18:59:39","新北市板橋區民權路219號","121.457693333333","25.01522","6500100","板橋區"
"220097","AAC-210","2018/03/03 18:59:39","新北市板橋區四維路137巷7號","121.464596666667","25.0247766666667","6500100","板橋區"
"220070","AAC-253","2018/03/03 18:59:43","新北市板橋區四川路一段483號","121.45708","24.997295","6500100","板橋區"
