"lineid","car","time","location","longitude","latitude","cityid","cityname"
"234007","207-UY","2018/03/03 20:19:43","新北市永和區保順路11號","121.504598333333","25.0094083333333","6500400","永和區"
"234081","298-R6","2018/03/03 20:19:45","新北市永和區國中路132巷2號","121.523663333333","25.00709","6500400","永和區"
"234038","336-UY","2018/03/03 20:19:45","新北市永和區成功路一段89號","121.526956666667","25.0028216666667","6500400","永和區"
"234064","337-UY","2018/03/03 20:19:41","新北市永和區得和路101號","121.518005","25.00021","6500400","永和區"
"234086","338-UY","2018/03/03 20:19:40","新北市永和區永和路二段133號","121.515008333333","25.0123","6500400","永和區"
"234070","552-UM","2018/03/03 20:19:47","新北市永和區福和路263巷13號","121.51801","25.0065133333333","6500400","永和區"
"234017","745-BX","2018/03/03 20:19:49","新北市永和區仁愛路85號","121.513155","25.0131966666667","6500400","永和區"
"234030","746-BX","2018/03/03 20:19:44","新北市永和區民族街81巷30號","121.519171666667","24.99657","6500400","永和區"
"234054","KEA-2590","2018/03/03 20:19:42","新北市永和區光復街2巷26弄1號","121.517618333333","25.0166383333333","6500400","永和區"
"234013","KEA-2591","2018/03/03 20:19:54","新北市永和區保生路46號","121.50578","25.0084466666667","6500400","永和區"
"234061","AAD-866","2018/03/03 20:19:49","新北市永和區得和路25號","121.515568333333","25.0003383333333","6500400","永和區"
"234042","862-TW","2018/03/03 20:19:40","新北市中和區中安街202-1號","121.511666666667","24.9991116666667","6500400","永和區"
"234050","863-TW","2018/03/03 20:19:48","新北市永和區文化路224號","121.509898333333","25.0168883333333","6500400","永和區"
"249005","172-UM","2018/03/03 20:19:51","新北市八里區下罟子6-4號","121.386246666667","25.1411583333333","6502300","八里區"
"249001","173-UM","2018/03/03 20:19:50","新北市八里區中華路二段341-10號","121.399075","25.1449766666667","6502300","八里區"
"249004","303-UY","2018/03/03 20:19:32","新北市八里區中山路一段129巷19-1號","121.413916666667","25.15859","6502300","八里區"
"249002","305-UY","2018/03/03 20:19:46","新北市八里區龍米路一段406號","121.451243333333","25.13333","6502300","八里區"
"249003","593-UM","2018/03/03 20:19:44","新北市八里區訊塘路66號","121.397753333333","25.145785","6502300","八里區"
"248016","026-BX","2018/03/03 20:19:36","新北市五股區凌雲路一段158巷39弄2號","121.446896666667","25.103765","6501500","五股區"
"248012","247-BX","2018/03/03 20:19:36","新北市五股區民義路一段212號","121.430493333333","25.0894433333333","6501500","五股區"
"248010","272-BY","2018/03/03 20:19:43","新北市泰山區楓江路119-1號","121.4387","25.0649516666667","6501500","五股區"
"248004","677-BX","2018/03/03 20:19:36","新北市五股區中興路四段42號","121.438326666667","25.08285","6501500","五股區"
"248002","678-BX","2018/03/03 20:19:45","新北市五股區成泰路三段155號","121.444991666667","25.0915966666667","6501500","五股區"
"234077","969-R7","2018/03/03 20:19:46","新北市永和區中正路90號","121.513986666667","24.9954016666667","6500400","永和區"
"234074","AAC-211","2018/03/03 20:19:52","新北市永和區豫溪街158號","121.523218333333","25.0097166666667","6500400","永和區"
"234067","AAC-212","2018/03/03 20:19:44","新北市永和區保平路266號","121.508748333333","25.00513","6500400","永和區"
"234003","AAC-295","2018/03/03 20:19:46","新北市永和區自強街19巷2號","121.51499","25.00806","6500400","永和區"
"243012","AAD-798","2018/03/03 20:19:43","新北市泰山區楓江路175-1號","121.440316666667","25.0667166666667","6501600","泰山區"
"243011","297-R6","2018/03/03 20:19:49","新北市泰山區貴陽街16巷5弄10號","121.42261","25.0319333333333","6501600","泰山區"
"243015","380-SR","2018/03/03 20:19:51","新北市泰山區泰林路二段47號","121.43551","25.0575666666667","6501600","泰山區"
"243014","421-VK","2018/03/03 20:19:42","新北市泰山區泰林路二段362號","121.428883333333","25.0635633333333","6501600","泰山區"
"243010","KEA-2215","2018/03/03 20:19:40","新北市泰山區明志路二段254巷16弄2號","121.426196666667","25.0480783333333","6501600","泰山區"
"243009","KEA-2216","2018/03/03 20:19:32","新北市泰山區明志路一段195號","121.432738333333","25.061565","6501600","泰山區"
"243013","646-TV","2018/03/03 20:19:41","新北市泰山區中央路5巷21號","121.427271666667","25.0433016666667","6501600","泰山區"
"243016","680-BX","2018/03/03 20:19:34","新北市泰山區明志路三段112號","121.424996666667","25.04078","6501600","泰山區"
"222003","436-BY","2018/03/03 20:19:46","新北市深坑區文化街43號","121.617555","25.0018366666667","6501800","深坑區"
"222002","659-BX","2018/03/03 20:19:46","新北市深坑區萬福路75巷48號","121.59827","25.00998","6501800","深坑區"
"231041","002-UM","2018/03/03 20:19:48","新北市新店區民權路46號","121.540123333333","24.9829733333333","6500600","新店區"
"231059","046-UY","2018/03/03 20:19:41","新北市新店區安德街154號","121.508288333333","24.9596366666667","6500600","新店區"
"231061","047-UY","2018/03/03 20:19:42","新北市新店區安民街133巷26號","121.51539","24.96965","6500600","新店區"
"231060","106-UY","2018/03/03 20:19:39","新北市新店區錦秀路11巷96弄2號","121.48011","24.9421666666667","6500600","新店區"
"231051","107-UY","2018/03/03 20:19:39","新北市新店區中央六街56號","121.527988333333","24.9758166666667","6500600","新店區"
"231048","108-UY","2018/03/03 20:19:45","新北市新店區中興路三段258號","121.542851666667","24.9842666666667","6500600","新店區"
"231052","187-VK","2018/03/03 20:19:46","新北市新店區松林路9號","121.547245","24.9109183333333","6500600","新店區"
"231050","KEA-2219","2018/03/03 20:19:41","新北市新店區中正路147號","121.54154","24.9716466666667","6500600","新店區"
"231057","256-BX","2018/03/03 20:19:51","新北市新店區花園七路一段14號","121.554031666667","24.9349116666667","6500600","新店區"
"231058","3712-VJ","2018/03/03 20:19:43","新北市新店區三民路191號","121.53548","24.97573","6500600","新店區"
"231056","3713-VJ","2018/03/03 20:19:54","新北市新店區中正路324號","121.536963333333","24.9748066666667","6500600","新店區"
"231055","4716-K9","2018/03/03 20:19:42","新北市新店區北新路一段303號","121.541388333333","24.967455","6500600","新店區"
"231067","4772-VM","2018/03/03 20:19:47","新北市新店區溪洲路8巷120-1號","121.533105","24.96321","6500600","新店區"
"231065","512-UM","2018/03/03 20:19:42","新北市新店區安祥路104巷6弄36號","121.4831","24.9629466666667","6500600","新店區"
"231054","513-UM","2018/03/03 20:19:41","新北市新店區檳榔路109號","121.544458333333","24.9617083333333","6500600","新店區"
"231064","515-UM","2018/03/03 20:19:32","新北市新店區安樂街16號","121.520875","24.9733316666667","6500600","新店區"
"231045","617-UM","2018/03/03 20:19:48","新北市新店區新坡一街80-3號","121.546956666667","24.9643116666667","6500600","新店區"
"231044","618-UM","2018/03/03 20:19:43","新北市新店區北新路三段118號","121.54168","24.9816816666667","6500600","新店區"
"231040","619-UM","2018/03/03 20:19:39","新北市新店區中華路74號","121.538625","24.9707816666667","6500600","新店區"
"231042","641-BX","2018/03/03 20:19:37","新北市新店區寶高路120巷1-1號","121.554595","24.9758616666667","6500600","新店區"
"231063","645-TV","2018/03/03 20:19:40","新北市新店區薏仁坑路自強巷6號","121.496611666667","24.9583833333333","6500600","新店區"
"231068","718-UY","2018/03/03 20:19:44","新北市新店區寶安街18號","121.542141666667","24.981925","6500600","新店區"
"231049","719-UM","2018/03/03 20:19:48","新北市新店區永業路23號","121.533243333333","24.9556983333333","6500600","新店區"
"231062","720-UM","2018/03/03 20:19:38","新北市新店區安泰路7巷16號","121.485711666667","24.9509483333333","6500600","新店區"
"231043","899-TW","2018/03/03 20:19:50","新北市新店區建國路133號","121.539381666667","24.97822","6500600","新店區"
"231066","AKT-0513","2018/03/03 20:19:41","新北市新店區安興路112號","121.51461","24.977575","6500600","新店區"
"241028","022-UY","2018/03/03 20:19:42","新北市三重區大同南路103-2號","121.496223333333","25.0586066666667","6500200","三重區"
"241008","059-VK","2018/03/03 20:19:50","新北市三重區永福街211巷11號","121.479486666667","25.07412","6500200","三重區"
"241009","060-VK","2018/03/03 20:19:43","新北市三重區三和路四段382巷48號","121.4809","25.0784266666667","6500200","三重區"
"241015","062-VK","2018/03/03 20:19:43","新北市三重區重新路一段130號","121.50007","25.0629683333333","6500200","三重區"
"241017","063-VK","2018/03/03 20:19:38","新北市三重區自強路一段163號","121.493221666667","25.0672966666667","6500200","三重區"
"241026","066-VK","2018/03/03 20:19:52","新北市三重區和平街37號","121.501456666667","25.06255","6500200","三重區"
"241002","090-VK","2018/03/03 20:19:42","新北市三重區仁義街101巷38號","121.499055","25.0807283333333","6500200","三重區"
"241003","091-VK","2018/03/03 20:19:34","新北市三重區五華街103號","121.491665","25.0838666666667","6500200","三重區"
"241001","156-TC","2018/03/03 20:19:53","新北市三重區自強路四段31巷5號","121.489611666667","25.0766783333333","6500200","三重區"
"241005","262-UM","2018/03/03 20:19:51","新北市三重區碧華街246號","121.487611666667","25.0828283333333","6500200","三重區"
"241016","265-UM","2018/03/03 20:19:49","新北市三重區大同北路56號","121.494308333333","25.0637183333333","6500200","三重區"
"241022","267-UM","2018/03/03 20:19:43","新北市三重區市前街12號","121.489073333333","25.0622616666667","6500200","三重區"
"241018","268-UM","2018/03/03 20:19:41","新北市三重區雙園街105號","121.493673333333","25.067275","6500200","三重區"
"241032","269-UM","2018/03/03 20:19:53","新北市三重區捷運路19巷6弄7號","121.484696666667","25.0569583333333","6500200","三重區"
"241013","270-UM","2018/03/03 20:19:43","新北市三重區三和路三段167巷19號","121.492643333333","25.0742866666667","6500200","三重區"
"241025","271-UM","2018/03/03 20:19:51","新北市三重區自由街18巷9號","121.479308333333","25.0663216666667","6500200","三重區"
"241007","398-BY","2018/03/03 20:19:49","新北市三重區溪尾街108巷35號","121.488123333333","25.0784483333333","6500200","三重區"
"241020","413-TH","2018/03/03 20:19:49","新北市三重區忠孝路一段21巷5弄1號","121.49181","25.0723616666667","6500200","三重區"
"241004","475-VK","2018/03/03 20:19:50","新北市三重區仁愛街368號","121.491256666667","25.080675","6500200","三重區"
"241024","478-VK","2018/03/03 20:19:45","新北市三重區忠孝路三段15巷14號","121.480981666667","25.0676116666667","6500200","三重區"
"241030","480-VK","2018/03/03 20:19:38","新北市三重區環河南路254巷61號","121.487765","25.0523683333333","6500200","三重區"
"241014","543-UM","2018/03/03 20:19:44","新北市三重區龍濱路287號","121.50074","25.07355","6500200","三重區"
"241023","545-UM","2018/03/03 20:19:46","新北市三重區頂崁街145號","121.477973333333","25.0649883333333","6500200","三重區"
"241019","KEA-2593","2018/03/03 20:19:44","新北市三重區自強路二段69號","121.48877","25.069935","6500200","三重區"
"241035","743-BX","2018/03/03 20:19:44","新北市三重區正義北路33巷24號","121.498311666667","25.0638433333333","6500200","三重區"
"241031","887-TS","2018/03/03 20:19:42","新北市三重區三寧街15號","121.489508333333","25.0597816666667","6500200","三重區"
"241012","941-UM","2018/03/03 20:19:41","新北市三重區河邊北街262號","121.50167","25.0763616666667","6500200","三重區"
"241029","942-UM","2018/03/03 20:19:40","新北市三重區重安街92號","121.492406666667","25.056455","6500200","三重區"
"241033","AAC-255","2018/03/03 20:19:41","新北市三重區五谷王北街50巷6號","121.475776666667","25.0514383333333","6500200","三重區"
"235066","003-UY","2018/03/03 20:19:46","新北市中和區保平路336號","121.506706666667","25.0042333333333","6500300","中和區"
"235039","097-UM","2018/03/03 20:19:51","新北市中和區立人街46號","121.51778","24.9940633333333","6500300","中和區"
"235065","098-UM","2018/03/03 20:19:34","新北市中和區福祥路85巷15號","121.498291666667","25.005395","6500300","中和區"
"235068","377-QA","2018/03/03 20:19:35","新北市中和區勝利路2號","121.499206666667","25.0083133333333","6500300","中和區"
"235050","4979-A6","2018/03/03 20:19:45","新北市中和區景平路404號","121.509066666667","24.99315","6500300","中和區"
"235069","4980-A6","2018/03/03 20:19:45","新北市中和區圓通路192號","121.496363333333","24.9946583333333","6500300","中和區"
"235026","800-TS","2018/03/03 20:19:36","新北市中和區員山路36巷16-3號","121.484881666667","24.9916133333333","6500300","中和區"
"235048","896-TW","2018/03/03 20:19:43","新北市板橋區長江路二段311巷18-1號","121.471615","25.0364333333333","6500300","中和區"
"235059","AAC-215","2018/03/03 20:19:39","新北市中和區員山路5-5號","121.483325","24.984605","6500300","中和區"
"247022","893-R6","2018/03/03 20:19:42","新北市蘆洲區三民路263號","121.468091666667","25.08921","6501400","蘆洲區"
"247012","546-UM","2018/03/03 20:19:47","新北市蘆洲區中興街15巷2號","121.480546666667","25.0871733333333","6501400","蘆洲區"
"247020","500-BY","2018/03/03 20:19:54","新北市蘆洲區仁愛街37號","121.472201666667","25.0928116666667","6501400","蘆洲區"
"247010","339-TH","2018/03/03 20:19:40","新北市蘆洲區信義路200號","121.479088333333","25.0846766666667","6501400","蘆洲區"
"247002","337-TH","2018/03/03 20:19:39","新北市蘆洲區長安街331巷36號","121.45583","25.0866066666667","6501400","蘆洲區"
"247004","336-TH","2018/03/03 20:19:46","新北市蘆洲區長安街220巷1號","121.459108333333","25.08496","6501400","蘆洲區"
"247016","057-VK","2018/03/03 20:19:52","新北市蘆洲區光華路132巷28號","121.465681666667","25.0834183333333","6501400","蘆洲區"
"247006","056-VK","2018/03/03 20:19:52","新北市蘆洲區九芎街167巷8號","121.465011666667","25.0785383333333","6501400","蘆洲區"
"247008","053-VK","2018/03/03 20:19:49","新北市蘆洲區集賢路227號","121.482455","25.0861633333333","6501400","蘆洲區"
"247014","007-UY","2018/03/03 20:19:44","新北市蘆洲區中山一路240號","121.472371666667","25.0799816666667","6501400","蘆洲區"
"247024","002-UY","2018/03/03 20:19:35","新北市蘆洲區光榮路120巷8弄39號","121.464623333333","25.087945","6501400","蘆洲區"
"247018","001-UY","2018/03/03 20:19:50","新北市蘆洲區民族路291號","121.475375","25.0911233333333","6501400","蘆洲區"
"226004","205-ST","2018/03/03 20:19:44","新北市平溪區靜安路三段392巷3號","121.784378333333","25.0495083333333","6502400","平溪區"
"224010","AGQ-8101","2018/03/03 20:19:40","新北市瑞芳區豎崎路18號","121.843556666667","25.1087133333333","6501200","瑞芳區"
"222001","KEA-2212","2018/03/03 20:19:33","新北市深坑區北深路三段234號","121.60036","25.0041383333333","6501800","深坑區"
"208003","665-BX","2018/03/03 20:19:52","新北市金山區海興路35-2號","121.629505","25.2367033333333","6502700","金山區"
"251009","008-UM","2018/03/03 20:19:38","新北市淡水區中正路55號","121.441723333333","25.1695383333333","6501000","淡水區"
"251013","179-VK","2018/03/03 20:19:54","新北市淡水區奎柔山路752巷31號","121.47435","25.205255","6501000","淡水區"
"251014","180-VK","2018/03/03 20:19:33","新北市淡水區石頭厝3號","121.45871","25.235545","6501000","淡水區"
"251008","181-VK","2018/03/03 20:19:45","新北市淡水區淡海路180巷27號","121.421798333333","25.18459","6501000","淡水區"
"251015","182-VK","2018/03/03 20:19:47","新北市淡水區淡金路三段405-2號","121.449128333333","25.2086416666667","6501000","淡水區"
"251010","413-VK","2018/03/03 20:19:51","新北市淡水區新民街一段134號","121.427605","25.1888883333333","6501000","淡水區"
"251012","441-VK","2018/03/03 20:19:48","新北市淡水區淡金路三段427號","121.449315","25.2096516666667","6501000","淡水區"
"251016","442-VK","2018/03/03 20:19:42","新北市淡水區番子田47號","121.459925","25.22919","6501000","淡水區"
"251006","561-UM","2018/03/03 20:19:49","新北市淡水區淡金路一段571號","121.452721666667","25.18056","6501000","淡水區"
"251002","672-BX","2018/03/03 20:19:38","新北市淡水區中正路63號","121.441438333333","25.16953","6501000","淡水區"
"251003","673-BX","2018/03/03 20:19:51","新北市淡水區中山北路一段151號","121.443225","25.1773116666667","6501000","淡水區"
"207004","225-TW","2018/03/03 20:19:38","新北市萬里區北基里仁二街2號","121.682646666667","25.175655","6502800","萬里區"
"252002","178-VK","2018/03/03 20:19:49","新北市三芝區中正路一段30號","121.503161666667","25.2584616666667","6502100","三芝區"
"252001","292-VK","2018/03/03 20:19:35","新北市三芝區中山路一段14號","121.500708333333","25.2580166666667","6502100","三芝區"
"237006","5529-G3","2018/03/03 20:19:35","新北市三峽區大利路14號","121.366721666667","24.9116016666667","6500900","三峽區"
"236073","105-UM","2018/03/03 20:19:53","新北市土城區中山路34號","121.424755","24.9637716666667","6501300","土城區"
"236079","166-UM","2018/03/03 20:19:55","新北市土城區民權街14號","121.414993333333","24.9641716666667","6501300","土城區"
"236031","253-BX","2018/03/03 20:19:34","新北市土城區學成路128巷11號","121.449535","24.9900783333333","6501300","土城區"
"236026","269-VK","2018/03/03 20:19:44","新北市土城區裕生路86巷3號","121.446771666667","24.9851666666667","6501300","土城區"
"236015","270-VK","2018/03/03 20:19:52","新北市板橋區信義路26巷10號","121.45618","24.9953233333333","6501300","土城區"
"236038","271-VK","2018/03/03 20:19:53","新北市土城區明德路一段215號","121.463323333333","24.9786383333333","6501300","土城區"
"236023","401-BY","2018/03/03 20:19:50","新北市土城區延吉街11號","121.472186666667","24.9889383333333","6501300","土城區"
"236059","912-UM","2018/03/03 20:19:51","新北市土城區中央路三段65號","121.438786666667","24.9693966666667","6501300","土城區"
"242029","986-R7","2018/03/03 20:19:46","新北市新莊區中華路二段201號","121.452313333333","25.0526716666667","6500500","新莊區"
"242051","751-BX","2018/03/03 20:19:48","新北市新莊區民安西路212巷2弄2號","121.425608333333","25.014845","6500500","新莊區"
"242025","615-BX","2018/03/03 20:19:53","新北市新莊區五工一路80巷3號","121.46164","25.0672033333333","6500500","新莊區"
"242023","613-BX","2018/03/03 20:19:45","新北市新莊區化成路856號","121.464793333333","25.0606433333333","6500500","新莊區"
"242027","612-BX","2018/03/03 20:19:53","新北市新莊區幸福路566號","121.45441","25.049345","6500500","新莊區"
"242039","566-BX","2018/03/03 20:19:42","新北市新莊區龍安路441號","121.424468333333","25.0185583333333","6500500","新莊區"
"242044","497-BY","2018/03/03 20:19:41","新北市新莊區中正路新建巷28弄65號","121.413786666667","25.0211283333333","6500500","新莊區"
"242048","441-UM","2018/03/03 20:19:51","新北市新莊區四維路212巷4弄8號","121.421285","25.0206033333333","6500500","新莊區"
"242053","440-UM","2018/03/03 20:19:49","新北市新莊區民安西路261巷18號","121.426738333333","25.0130633333333","6500500","新莊區"
"242034","415-TV","2018/03/03 20:19:54","新北市新莊區仁愛街54巷12號","121.445075","25.0370933333333","6500500","新莊區"
"242004","413-TV","2018/03/03 20:19:48","新北市新莊區頭前路82號","121.466285","25.052695","6500500","新莊區"
"242042","400-BY","2018/03/03 20:19:35","新北市新莊區中正路694巷65號","121.417475","25.0293766666667","6500500","新莊區"
"242061","362-BY","2018/03/03 20:19:34","新北市新莊區新樹路172-13號","121.434485","25.0217683333333","6500500","新莊區"
"242058","353-BY","2018/03/03 20:19:46","新北市新莊區龍安路278巷8號","121.42208","25.0188633333333","6500500","新莊區"
"242007","132-UY","2018/03/03 20:19:45","新北市新莊區福壽街124巷34弄15號","121.45933","25.0506216666667","6500500","新莊區"
"242036","133-UY","2018/03/03 20:19:37","新北市新莊區建安街62巷1弄12號","121.426445","25.0246033333333","6500500","新莊區"
"242015","135-UY","2018/03/03 20:19:43","新北市新莊區永樂街236號","121.445981666667","25.04443","6500500","新莊區"
"242046","172-VK","2018/03/03 20:19:47","新北市新莊區中正路新生巷40號","121.4171","25.0234033333333","6500500","新莊區"
"242009","173-VK","2018/03/03 20:19:40","新北市新莊區昌平街1號","121.455048333333","25.0512933333333","6500500","新莊區"
"242002","176-VK","2018/03/03 20:19:50","新北市新莊區化成路38號","121.464943333333","25.0430516666667","6500500","新莊區"
"242013","346-TH","2018/03/03 20:19:47","新北市新莊區中和街155巷24弄18號","121.44682","25.0503983333333","6500500","新莊區"
"242019","348-TH","2018/03/03 20:19:52","新北市新莊區民樂街79號","121.457991666667","25.0429333333333","6500500","新莊區"
"242056","349-TH","2018/03/03 20:19:49","新北市新莊區豐年街28巷22號","121.445243333333","25.0323666666667","6500500","新莊區"
"242017","350-TH","2018/03/03 20:19:42","新北市新莊區中港二街98號","121.449121666667","25.0457533333333","6500500","新莊區"
"242011","351-TH","2018/03/03 20:19:45","新北市新莊區中信街23巷1號","121.451036666667","25.0505033333333","6500500","新莊區"
"221008","489-VK","2018/03/03 20:19:49","新北市汐止區康寧街523-1號","121.633453333333","25.0687516666667","6501100","汐止區"
"221036","130-UY","2018/03/03 20:19:32","新北市汐止區福安街57巷13號","121.664273333333","25.064175","6501100","汐止區"
"221015","131-UY","2018/03/03 20:19:43","新北市汐止區建成路142巷19弄17號","121.661755","25.0739116666667","6501100","汐止區"
"221010","269-BY","2018/03/03 20:19:35","新北市汐止區八連路二段324號","121.629415","25.0996916666667","6501100","汐止區"
"221012","278-VK","2018/03/03 20:19:42","新北市汐止區保新街35號","121.684736666667","25.0729366666667","6501100","汐止區"
"221023","279-VK","2018/03/03 20:19:44","新北市汐止區湖東街5巷9號","121.634026666667","25.073","6501100","汐止區"
"221032","280-BY","2018/03/03 20:19:43","新北市汐止區民權街二段70號","121.61921","25.048165","6501100","汐止區"
"221027","281-BY","2018/03/03 20:19:38","新北市汐止區禮門街7號","121.656718333333","25.0674766666667","6501100","汐止區"
"221038","297-VK","2018/03/03 20:19:37","新北市汐止區忠孝東路470號","121.666251666667","25.0732816666667","6501100","汐止區"
"221029","298-VK","2018/03/03 20:19:33","新北市汐止區工建路31號","121.639543333333","25.0634083333333","6501100","汐止區"
"221021","299-VK","2018/03/03 20:19:10","新北市汐止區水源路一段284號","121.654285","25.058275","6501100","汐止區"
"221031","353-TW","2018/03/03 20:19:43","新北市汐止區中興路150巷13號","121.632985","25.0650116666667","6501100","汐止區"
"221035","622-UM","2018/03/03 20:19:38","新北市汐止區長江街101-5號","121.658723333333","25.0731716666667","6501100","汐止區"
"221025","623-UM","2018/03/03 20:19:50","新北市汐止區水源路二段72巷6弄5號","121.655681666667","25.05568","6501100","汐止區"
"221033","647-BX","2018/03/03 20:19:34","新北市汐止區東勢街201巷2號","121.633586666667","25.0421466666667","6501100","汐止區"
"221018","753-BX","2018/03/03 20:19:37","新北市汐止區茄苳路268號","121.67207","25.0681216666667","6501100","汐止區"
"220101","280-UM","2018/03/03 20:19:36","新北市板橋區雙十路二段47巷2弄22號","121.475641666667","25.0267483333333","6500100","板橋區"
"220083","286-VK","2018/03/03 20:19:43","新北市板橋區僑中二街106巷18號","121.445138333333","25.0077316666667","6500100","板橋區"
"220081","287-VK","2018/03/03 20:19:35","新北市板橋區僑中一街102巷1弄2號","121.446651666667","25.0120533333333","6500100","板橋區"
"220061","293-UM","2018/03/03 20:19:43","新北市板橋區館前東路3號","121.45963","25.007425","6500100","板橋區"
"242021","281-VK","2018/03/03 20:19:41","新北市新莊區和興街5號","121.44756","25.0390016666667","6500500","新莊區"
"220092","307-R5","2018/03/03 20:19:53","新北市板橋區長江路二段311巷18-1號","121.47031","25.0360083333333","6500100","板橋區"
"220089","487-VK","2018/03/03 20:19:47","新北市板橋區四維路189號","121.464143333333","25.0268","6500100","板橋區"
"241031","AAD-800","2018/03/03 20:09:18","新北市板橋區民生路二段89-6號","121.470538333333","25.0192483333333","6500200","三重區"
"242031","280-VK","2018/03/03 20:19:36","新北市新莊區三泰路1號","121.440613333333","25.0340016666667","6500500","新莊區"
"220088","491-VK","2018/03/03 20:19:54","新北市五股區成泰路一段98巷77號","121.45137","25.0764133333333","6500100","板橋區"
"220103","561-BX","2018/03/03 20:19:54","新北市板橋區文德路38號","121.462103333333","25.0240916666667","6500100","板橋區"
"220055","568-UM","2018/03/03 20:19:49","新北市板橋區仁愛路17號","121.458776666667","24.9994816666667","6500100","板橋區"
"220054","741-BX","2018/03/03 20:19:35","新北市板橋區民族路90號","121.463296666667","25.0090616666667","6500100","板橋區"
"220102","KEA-2699","2018/03/03 20:19:50","新北市板橋區文化路一段102號","121.464625","25.018025","6500100","板橋區"
"220073","985-R7","2018/03/03 20:19:39","新北市五股區凌雲路三段32號","121.431175","25.1081783333333","6500100","板橋區"
"220097","AAC-210","2018/03/03 20:19:39","新北市板橋區文化路一段101巷1號","121.461025","25.0143966666667","6500100","板橋區"
"220070","AAC-253","2018/03/03 20:19:43","新北市板橋區南雅南路二段114號","121.452708333333","25.00072","6500100","板橋區"
