"lineid","car","time","location","longitude","latitude","cityid","cityname"
"234007","207-UY","2018/03/03 20:29:43","新北市永和區仁愛路306巷77號","121.502","25.0093783333333","6500400","永和區"
"234081","298-R6","2018/03/03 20:29:45","新北市永和區永貞路56號","121.520816666667","25.0057316666667","6500400","永和區"
"234064","337-UY","2018/03/03 20:29:41","新北市永和區中正路528號","121.517246666667","25.0050766666667","6500400","永和區"
"234086","338-UY","2018/03/03 20:29:40","新北市永和區光復街21號","121.516521666667","25.0174266666667","6500400","永和區"
"234070","552-UM","2018/03/03 20:29:47","新北市永和區永亨路7號","121.519423333333","25.0056733333333","6500400","永和區"
"234030","746-BX","2018/03/03 20:29:44","新北市中和區景平路59號","121.521416666667","24.9906583333333","6500400","永和區"
"234054","KEA-2590","2018/03/03 20:29:42","新北市永和區環河東路一段42號","121.518853333333","25.01704","6500400","永和區"
"234013","KEA-2591","2018/03/03 20:29:38","新北市永和區仁愛路296號","121.503726666667","25.00819","6500400","永和區"
"234061","AAD-866","2018/03/03 20:29:54","新北市永和區安樂路194巷37號","121.516466666667","25.001225","6500400","永和區"
"234042","862-TW","2018/03/03 20:29:40","新北市永和區安樂路282號","121.514476666667","25.0044033333333","6500400","永和區"
"234050","863-TW","2018/03/03 20:29:48","新北市永和區新生路179號","121.506936666667","25.0144583333333","6500400","永和區"
"249001","173-UM","2018/03/03 20:29:50","新北市八里區下罟子5-11號","121.386885","25.142255","6502300","八里區"
"249004","303-UY","2018/03/03 20:29:32","新北市八里區中山路一段147號","121.412948333333","25.1590516666667","6502300","八里區"
"249002","305-UY","2018/03/03 20:29:46","新北市八里區龍米路二段125巷13號","121.445895","25.145475","6502300","八里區"
"249003","593-UM","2018/03/03 20:29:44","新北市八里區中山路二段339號","121.399803333333","25.14712","6502300","八里區"
"248002","678-BX","2018/03/03 20:29:45","新北市五股區新五路二段367號","121.44395","25.087865","6501500","五股區"
"234023","9380-KE","2018/03/03 20:29:44","新北市永和區光復街4號","121.516503333333","25.0166683333333","6500400","永和區"
"234077","969-R7","2018/03/03 20:29:46","新北市新店區安興路32號","121.515666666667","24.9700383333333","6500400","永和區"
"234074","AAC-211","2018/03/03 20:29:52","新北市永和區豫溪街217巷25號","121.524393333333","25.0101233333333","6500400","永和區"
"234067","AAC-212","2018/03/03 20:29:44","新北市永和區保平路292巷13弄12號","121.506901666667","25.0054733333333","6500400","永和區"
"234003","AAC-295","2018/03/03 20:29:46","新北市永和區中正路555號","121.51661","25.0083016666667","6500400","永和區"
"243012","AAD-798","2018/03/03 20:29:43","新北市泰山區楓江路14號","121.433718333333","25.062395","6501600","泰山區"
"243011","297-R6","2018/03/03 20:29:29","新北市泰山區明志路三段52號","121.424908333333","25.0422983333333","6501600","泰山區"
"243015","380-SR","2018/03/03 20:29:51","新北市泰山區仁德路105號","121.433141666667","25.0563116666667","6501600","泰山區"
"243014","421-VK","2018/03/03 20:29:42","新北市泰山區泰林路二段536號","121.423625","25.06386","6501600","泰山區"
"243010","KEA-2215","2018/03/03 20:29:40","新北市泰山區新生路33-11號","121.42777","25.0459016666667","6501600","泰山區"
"243009","KEA-2216","2018/03/03 20:29:52","新北市泰山區忠孝街41巷1號","121.428423333333","25.0653833333333","6501600","泰山區"
"243013","646-TV","2018/03/03 20:29:35","新北市泰山區明志路二段137號","121.427683333333","25.050635","6501600","泰山區"
"243016","680-BX","2018/03/03 20:29:34","新北市泰山區新生路7號","121.4267","25.0457433333333","6501600","泰山區"
"222003","436-BY","2018/03/03 20:29:53","新北市深坑區深坑街47號","121.615378333333","25.00183","6501800","深坑區"
"222002","659-BX","2018/03/03 20:29:51","新北市深坑區萬福路16巷16號","121.607166666667","25.008185","6501800","深坑區"
"231041","002-UM","2018/03/03 20:29:48","新北市新店區中正路501-4號","121.533651666667","24.983795","6500600","新店區"
"231059","046-UY","2018/03/03 20:29:41","新北市新店區安豐路46號","121.500065","24.9549083333333","6500600","新店區"
"231061","047-UY","2018/03/03 20:29:42","新北市新店區新和街46號","121.519376666667","24.984935","6500600","新店區"
"231060","106-UY","2018/03/03 20:29:39","新北市新店區錦秀路53號","121.47911","24.943415","6500600","新店區"
"231051","107-UY","2018/03/03 20:29:40","新北市新店區中央七街76號","121.527343333333","24.9766283333333","6500600","新店區"
"231048","108-UY","2018/03/03 20:29:45","新北市新店區寶元路一段15巷11號","121.542005","24.9872183333333","6500600","新店區"
"231052","187-VK","2018/03/03 20:29:46","新北市新店區松林路38號","121.546236666667","24.91024","6500600","新店區"
"231050","KEA-2219","2018/03/03 20:29:46","新北市新店區建興街4號","121.540058333333","24.9764866666667","6500600","新店區"
"231057","256-BX","2018/03/03 20:29:46","新北市新店區花園五路二段1號","121.553513333333","24.9342166666667","6500600","新店區"
"231058","3712-VJ","2018/03/03 20:29:43","新北市新店區自由街43號","121.534605","24.9738766666667","6500600","新店區"
"231056","3713-VJ","2018/03/03 20:29:43","新北市新店區中正路302巷2號","121.537736666667","24.9747116666667","6500600","新店區"
"231065","512-UM","2018/03/03 20:29:42","新北市新店區安祥路102巷46弄87號","121.487265","24.9632033333333","6500600","新店區"
"231054","513-UM","2018/03/03 20:29:41","新北市新店區檳榔路109號","121.544448333333","24.9616933333333","6500600","新店區"
"231064","515-UM","2018/03/03 20:29:52","新北市新店區安和路三段95號","121.517836666667","24.9842666666667","6500600","新店區"
"231045","617-UM","2018/03/03 20:29:48","新北市新店區新坡一街18巷6弄36號","121.548211666667","24.9599233333333","6500600","新店區"
"231044","618-UM","2018/03/03 20:29:43","新北市新店區建國路172-2號","121.538243333333","24.9796416666667","6500600","新店區"
"231040","619-UM","2018/03/03 20:29:42","新北市新店區中正路267號","121.537951666667","24.9741716666667","6500600","新店區"
"231042","641-BX","2018/03/03 20:29:17","新北市新店區寶高路120巷1號","121.55457","24.9760666666667","6500600","新店區"
"231063","645-TV","2018/03/03 20:29:40","新北市新店區玫瑰路4-1號","121.493558333333","24.9513616666667","6500600","新店區"
"231068","718-UY","2018/03/03 20:29:44","新北市新店區中興路三段223號","121.542926666667","24.9828983333333","6500600","新店區"
"231049","719-UM","2018/03/03 20:29:48","新北市新店區永業路81巷1弄1-1號","121.52961","24.949435","6500600","新店區"
"231062","720-UM","2018/03/03 20:29:38","新北市新店區安泰路60巷134弄6號","121.484176666667","24.94419","6500600","新店區"
"231043","899-TW","2018/03/03 20:29:50","新北市新店區建國路88號","121.540435","24.97714","6500600","新店區"
"231066","AKT-0513","2018/03/03 20:29:41","新北市新店區安興路112號","121.514616666667","24.9776533333333","6500600","新店區"
"241011","013-R5","2018/03/03 20:29:43","新北市三重區龍門路66號","121.49677","25.072615","6500200","三重區"
"241028","022-UY","2018/03/03 20:29:42","新北市三重區光興街93號","121.49734","25.0599366666667","6500200","三重區"
"241008","059-VK","2018/03/03 20:29:50","新北市三重區下竹圍街42號","121.481051666667","25.0749","6500200","三重區"
"241009","060-VK","2018/03/03 20:29:35","新北市三重區永福街46-1號","121.482095","25.078245","6500200","三重區"
"241015","062-VK","2018/03/03 20:29:43","新北市三重區長元街2-2號","121.498766666667","25.065865","6500200","三重區"
"241017","063-VK","2018/03/03 20:29:38","新北市三重區自強路一段207號","121.491528333333","25.0684116666667","6500200","三重區"
"241026","066-VK","2018/03/03 20:29:52","新北市三重區環河南路10號","121.503865","25.0630083333333","6500200","三重區"
"241002","090-VK","2018/03/03 20:29:42","新北市三重區仁義街211巷16號","121.497171666667","25.0821816666667","6500200","三重區"
"241003","091-VK","2018/03/03 20:29:34","新北市三重區富華街179號","121.493641666667","25.0852666666667","6500200","三重區"
"241001","156-TC","2018/03/03 20:29:53","新北市三重區自強路三段93號","121.487465","25.0750666666667","6500200","三重區"
"241005","262-UM","2018/03/03 20:29:35","新北市三重區碧華街337號","121.49177","25.0846766666667","6500200","三重區"
"241016","265-UM","2018/03/03 20:29:49","新北市三重區正義北路190巷7號","121.496045","25.0668166666667","6500200","三重區"
"241022","267-UM","2018/03/03 20:29:51","新北市三重區民生街61巷18弄7號","121.487606666667","25.0628716666667","6500200","三重區"
"241018","268-UM","2018/03/03 20:29:41","新北市三重區雙園街70號","121.49567","25.0677","6500200","三重區"
"241032","269-UM","2018/03/03 20:29:45","新北市三重區重陽路一段120巷48號","121.485043333333","25.060155","6500200","三重區"
"241013","270-UM","2018/03/03 20:29:43","新北市三重區溪尾街12號","121.491536666667","25.07485","6500200","三重區"
"241025","271-UM","2018/03/03 20:29:51","新北市三重區頂崁街210巷27號","121.475828333333","25.0681983333333","6500200","三重區"
"241007","398-BY","2018/03/03 20:29:49","新北市三重區自強路四段12號","121.488405","25.0762633333333","6500200","三重區"
"241020","413-TH","2018/03/03 20:29:28","新北市三重區明德街20號","121.492625","25.0721516666667","6500200","三重區"
"241004","475-VK","2018/03/03 20:29:36","新北市三重區溪尾街165巷27號","121.489886666667","25.0803","6500200","三重區"
"241024","478-VK","2018/03/03 20:29:45","新北市三重區忠孝路三段15巷32號","121.480245","25.0679983333333","6500200","三重區"
"241030","480-VK","2018/03/03 20:29:38","新北市三重區成功路62號","121.488561666667","25.0508616666667","6500200","三重區"
"241014","543-UM","2018/03/03 20:29:44","新北市三重區長興街88號","121.501568333333","25.0691783333333","6500200","三重區"
"241023","545-UM","2018/03/03 20:29:46","新北市三重區自由街17巷1號","121.479825","25.06658","6500200","三重區"
"241019","KEA-2593","2018/03/03 20:29:44","新北市三重區重陽路四段81號","121.492648333333","25.0709366666667","6500200","三重區"
"241035","743-BX","2018/03/03 20:29:44","新北市三重區重新路二段60號","121.498008333333","25.0620533333333","6500200","三重區"
"241031","887-TS","2018/03/03 20:29:42","新北市三重區三寧街22號","121.489495","25.05988","6500200","三重區"
"241012","941-UM","2018/03/03 20:29:41","新北市三重區龍濱路277號","121.501393333333","25.0732866666667","6500200","三重區"
"241029","942-UM","2018/03/03 20:29:40","新北市三重區集美街112巷11號","121.489395","25.054115","6500200","三重區"
"241033","AAC-255","2018/03/03 20:29:41","新北市三重區五谷王北街80巷46號","121.475086666667","25.0526733333333","6500200","三重區"
"235066","003-UY","2018/03/03 20:29:47","新北市中和區光華街69號","121.506653333333","25.0028316666667","6500300","中和區"
"235039","097-UM","2018/03/03 20:29:51","新北市中和區大勇街27巷12號","121.516943333333","24.99389","6500300","中和區"
"235065","098-UM","2018/03/03 20:29:34","新北市中和區永和路128巷47號","121.497696666667","25.0068383333333","6500300","中和區"
"235050","4979-A6","2018/03/03 20:29:45","新北市中和區南華路89號","121.505598333333","24.9973816666667","6500300","中和區"
"235069","4980-A6","2018/03/03 20:29:45","新北市中和區中正路448號","121.49089","24.9942166666667","6500300","中和區"
"235026","800-TS","2018/03/03 20:20:34","新北市中和區員山路36巷16-3號","121.484848333333","24.9916616666667","6500300","中和區"
"235059","AAC-215","2018/03/03 20:29:39","新北市中和區員山路49-9號","121.480448333333","24.9912566666667","6500300","中和區"
"247022","893-R6","2018/03/03 20:29:53","新北市蘆洲區中正路245號","121.46779","25.0869766666667","6501400","蘆洲區"
"247012","546-UM","2018/03/03 20:29:47","新北市蘆洲區復興路210號","121.478673333333","25.0890433333333","6501400","蘆洲區"
"247020","500-BY","2018/03/03 20:29:54","新北市蘆洲區仁愛街93巷1號","121.471106666667","25.0939766666667","6501400","蘆洲區"
"247010","339-TH","2018/03/03 20:29:40","新北市蘆洲區信義路283號","121.478895","25.0852766666667","6501400","蘆洲區"
"247002","337-TH","2018/03/03 20:29:39","新北市蘆洲區長安街361巷24號","121.456088333333","25.0876133333333","6501400","蘆洲區"
"247004","336-TH","2018/03/03 20:29:46","新北市蘆洲區永康街63巷2號","121.45633","25.0849283333333","6501400","蘆洲區"
"247016","057-VK","2018/03/03 20:29:32","新北市蘆洲區光華路42號","121.468865","25.0830633333333","6501400","蘆洲區"
"247006","056-VK","2018/03/03 20:29:52","新北市蘆洲區光華路175巷35號","121.465535","25.0810216666667","6501400","蘆洲區"
"247008","053-VK","2018/03/03 20:29:49","新北市蘆洲區重陽二街27號","121.482215","25.0849316666667","6501400","蘆洲區"
"247014","007-UY","2018/03/03 20:29:44","新北市蘆洲區中山二路42號","121.474245","25.0821316666667","6501400","蘆洲區"
"247024","002-UY","2018/03/03 20:29:35","新北市蘆洲區光復路70巷19號","121.464838333333","25.0852716666667","6501400","蘆洲區"
"247018","001-UY","2018/03/03 20:29:53","新北市蘆洲區民族路257巷2號","121.476433333333","25.090575","6501400","蘆洲區"
"226004","205-ST","2018/03/03 20:29:44","新北市平溪區南山里南山坪94號","121.777165","25.0415083333333","6502400","平溪區"
"224010","AGQ-8101","2018/03/03 20:29:40","新北市瑞芳區汽車路3號","121.847363333333","25.1112883333333","6501200","瑞芳區"
"222001","KEA-2212","2018/03/03 20:29:53","新北市深坑區北深路三段327號","121.597348333333","25.0052266666667","6501800","深坑區"
"251001","011-UM","2018/03/03 20:29:42","新北市淡水區新市一路三段3號","121.444976666667","25.1830983333333","6501000","淡水區"
"251013","179-VK","2018/03/03 20:29:34","新北市淡水區後坑子6號","121.46341","25.20671","6501000","淡水區"
"251014","180-VK","2018/03/03 20:29:53","新北市淡水區石頭厝9-2號","121.45874","25.2369933333333","6501000","淡水區"
"251008","181-VK","2018/03/03 20:29:45","新北市淡水區淡海路196號","121.420258333333","25.185385","6501000","淡水區"
"251015","182-VK","2018/03/03 20:29:47","新北市淡水區興仁路162號","121.451643333333","25.2207016666667","6501000","淡水區"
"251010","413-VK","2018/03/03 20:29:51","新北市淡水區沙崙路181巷15號","121.42398","25.1843283333333","6501000","淡水區"
"251012","441-VK","2018/03/03 20:29:48","新北市淡水區頂田寮路182號","121.460943333333","25.2160766666667","6501000","淡水區"
"251016","442-VK","2018/03/03 20:29:42","新北市淡水區新埔子11-5號","121.447955","25.2286283333333","6501000","淡水區"
"251006","561-UM","2018/03/03 20:29:49","新北市淡水區商工路335號","121.466585","25.1855616666667","6501000","淡水區"
"251011","650-BX","2018/03/03 20:29:43","新北市淡水區沙崙路二段112號","121.433348333333","25.1986266666667","6501000","淡水區"
"251002","672-BX","2018/03/03 20:29:38","新北市淡水區中正路11-3號","121.44317","25.169575","6501000","淡水區"
"251003","673-BX","2018/03/03 20:29:50","新北市淡水區新民街32號","121.43922","25.1756333333333","6501000","淡水區"
"252002","178-VK","2018/03/03 20:29:49","新北市三芝區淡金路二段47-1號","121.503596666667","25.260515","6502100","三芝區"
"252001","292-VK","2018/03/03 20:29:55","新北市三芝區中山路一段14號","121.50071","25.2579766666667","6502100","三芝區"
"236079","166-UM","2018/03/03 20:28:35","新北市樹林區中山路三段214號","121.380436666667","24.9679766666667","6501300","土城區"
"236015","270-VK","2018/03/03 20:29:41","新北市板橋區四川路二段239號","121.45079","24.9940116666667","6501300","土城區"
"242029","986-R7","2018/03/03 20:29:46","新北市新莊區昌隆街25號","121.454526666667","25.05101","6500500","新莊區"
"242051","751-BX","2018/03/03 20:29:48","新北市新莊區民安西路189巷10弄30號","121.426451666667","25.0152933333333","6500500","新莊區"
"242025","615-BX","2018/03/03 20:29:33","新北市新莊區五工二路50巷3號","121.461178333333","25.0654966666667","6500500","新莊區"
"242023","613-BX","2018/03/03 20:29:51","新北市新莊區化成路766號","121.465191666667","25.0588166666667","6500500","新莊區"
"242027","612-BX","2018/03/03 20:29:33","新北市新莊區思源路305號","121.459803333333","25.0488866666667","6500500","新莊區"
"242039","566-BX","2018/03/03 20:29:42","新北市新莊區成功街18號","121.425253333333","25.0210283333333","6500500","新莊區"
"242044","497-BY","2018/03/03 20:29:41","新北市新莊區中正路新建巷21號","121.4142","25.0222533333333","6500500","新莊區"
"242048","441-UM","2018/03/03 20:29:51","新北市新莊區龍安路252-5號","121.421115","25.019155","6500500","新莊區"
"242053","440-UM","2018/03/03 20:29:52","新北市新莊區民安西路229巷3號","121.426438333333","25.0142733333333","6500500","新莊區"
"242034","415-TV","2018/03/03 20:29:54","新北市新莊區新泰路160號","121.447593333333","25.0375516666667","6500500","新莊區"
"242004","413-TV","2018/03/03 20:29:48","新北市新莊區福德二街1號","121.463223333333","25.0569883333333","6500500","新莊區"
"242042","400-BY","2018/03/03 20:29:35","新北市新莊區天祥街15巷12號","121.416461666667","25.0276166666667","6500500","新莊區"
"242061","362-BY","2018/03/03 20:29:54","新北市新莊區新樹路244巷74號","121.431131666667","25.0200033333333","6500500","新莊區"
"242058","353-BY","2018/03/03 20:29:42","新北市新莊區四維路159號","121.422523333333","25.0217883333333","6500500","新莊區"
"242007","132-UY","2018/03/03 20:29:45","新北市新莊區思源路333號","121.459846666667","25.0497133333333","6500500","新莊區"
"242036","133-UY","2018/03/03 20:29:32","新北市新莊區後港一路76巷14弄2號","121.42735","25.0256066666667","6500500","新莊區"
"242015","135-UY","2018/03/03 20:29:43","新北市新莊區中平路82巷9號","121.445438333333","25.0448766666667","6500500","新莊區"
"242046","172-VK","2018/03/03 20:29:47","新北市新莊區中正路新雅巷2弄13號","121.41789","25.0249783333333","6500500","新莊區"
"242009","173-VK","2018/03/03 20:29:39","新北市新莊區昌隆街88號","121.45601","25.0508166666667","6500500","新莊區"
"242002","176-VK","2018/03/03 20:29:50","新北市新莊區中正路育農巷1號","121.456948333333","25.0379416666667","6500500","新莊區"
"242013","346-TH","2018/03/03 20:29:50","新北市新莊區中和街191巷71號","121.446583333333","25.051355","6500500","新莊區"
"242019","348-TH","2018/03/03 20:29:52","新北市新莊區銘德街112號","121.45543","25.04327","6500500","新莊區"
"242056","349-TH","2018/03/03 20:29:49","新北市新莊區瓊泰路154號","121.443165","25.03243","6500500","新莊區"
"242017","350-TH","2018/03/03 20:29:54","新北市新莊區中港三街95號","121.449265","25.0461583333333","6500500","新莊區"
"242011","351-TH","2018/03/03 20:29:45","新北市新莊區中榮街102號","121.447296666667","25.0527583333333","6500500","新莊區"
"221008","489-VK","2018/03/03 20:29:49","新北市汐止區康寧街706-2號","121.638525","25.0729983333333","6501100","汐止區"
"221036","130-UY","2018/03/03 20:29:52","新北市汐止區新台五路二段91號","121.66519","25.06726","6501100","汐止區"
"221015","131-UY","2018/03/03 20:29:43","新北市汐止區建成路142巷19弄17號","121.661745","25.0738616666667","6501100","汐止區"
"221010","269-BY","2018/03/03 20:28:35","新北市汐止區八連路二段610巷17號","121.625108333333","25.1120616666667","6501100","汐止區"
"221012","278-VK","2018/03/03 20:29:42","新北市汐止區大同路三段241號","121.672751666667","25.0766633333333","6501100","汐止區"
"221023","279-VK","2018/03/03 20:29:44","新北市汐止區湖東街21號","121.635573333333","25.0726033333333","6501100","汐止區"
"221032","280-BY","2018/03/03 20:29:43","新北市汐止區弘道街53巷16號","121.618725","25.049165","6501100","汐止區"
"221027","281-BY","2018/03/03 20:29:38","新北市汐止區中正路198號","121.658558333333","25.069005","6501100","汐止區"
"221038","297-VK","2018/03/03 20:29:37","新北市汐止區水源路一段56號","121.657455","25.06559","6501100","汐止區"
"221029","298-VK","2018/03/03 20:28:53","新北市汐止區工建路129巷34弄21號","121.640483333333","25.0652833333333","6501100","汐止區"
"221021","299-VK","2018/03/03 20:29:50","新北市汐止區水源路一段284號","121.65427","25.058285","6501100","汐止區"
"221031","353-TW","2018/03/03 20:29:43","新北市汐止區中興路110巷32號","121.634275","25.0646283333333","6501100","汐止區"
"221035","622-UM","2018/03/03 20:29:38","新北市汐止區長江街101-5號","121.658763333333","25.0732483333333","6501100","汐止區"
"221025","623-UM","2018/03/03 20:29:50","新北市汐止區水源路二段110巷1號","121.656653333333","25.05542","6501100","汐止區"
"221033","647-BX","2018/03/03 20:29:34","新北市汐止區林森街73巷15號","121.623866666667","25.041425","6501100","汐止區"
"221018","753-BX","2018/03/03 20:29:37","新北市汐止區茄苳路225巷22號","121.67154","25.06913","6501100","汐止區"
"220101","280-UM","2018/03/03 20:29:39","新北市板橋區萬板路478號","121.479993333333","25.0260166666667","6500100","板橋區"
"220083","286-VK","2018/03/03 20:29:43","新北市板橋區僑中二街116巷39號","121.44404","25.0066366666667","6500100","板橋區"
"220061","293-UM","2018/03/03 20:29:43","新北市板橋區文華街10號","121.457973333333","25.0004416666667","6500100","板橋區"
"242021","281-VK","2018/03/03 20:29:41","新北市新莊區公園路98號","121.450606666667","25.03989","6500500","新莊區"
"220092","307-R5","2018/03/03 20:29:53","新北市五股區凌雲路三段32-1號","121.432426666667","25.1078616666667","6500100","板橋區"
"220089","487-VK","2018/03/03 20:29:47","新北市板橋區四維路268號","121.463293333333","25.0285183333333","6500100","板橋區"
"241031","AAD-800","2018/03/03 20:09:18","新北市板橋區民生路二段89-6號","121.470538333333","25.0192483333333","6500200","三重區"
"242031","280-VK","2018/03/03 20:29:44","新北市新莊區三和路17-3號","121.438295","25.0380183333333","6500500","新莊區"
"220103","561-BX","2018/03/03 20:29:50","新北市板橋區漢生東路33巷17號","121.46579","25.0174316666667","6500100","板橋區"
"220073","985-R7","2018/03/03 20:29:39","新北市八里區中山路三段409號","121.368821666667","25.1356016666667","6500100","板橋區"
"220070","AAC-253","2018/03/03 20:29:43","新北市五股區新五路三段13號","121.445173333333","25.0887216666667","6500100","板橋區"
