"lineid","car","time","location","longitude","latitude","cityid","cityname"
"234064","337-UY","2018/03/03 20:39:41","台北市文山區溪洲街195號","121.535338333333","25.0012","6500400","永和區"
"234061","AAD-866","2018/03/03 20:39:44","新北市永和區秀朗路一段175號","121.51704","25.0036966666667","6500400","永和區"
"234042","862-TW","2018/03/03 20:39:40","新北市永和區安樂路348號","121.514566666667","25.0064083333333","6500400","永和區"
"249001","173-UM","2018/03/03 20:39:50","新北市八里區中山路三段369號","121.373148333333","25.1378516666667","6502300","八里區"
"249004","303-UY","2018/03/03 20:39:52","新北市八里區中山路一段71號","121.418043333333","25.1595","6502300","八里區"
"249002","305-UY","2018/03/03 20:39:46","新北市八里區龍米路三段58號","121.424426666667","25.159135","6502300","八里區"
"234023","9380-KE","2018/03/03 20:39:44","新北市永和區竹林路25巷26號","121.517936666667","25.0148766666667","6500400","永和區"
"234077","969-R7","2018/03/03 20:39:46","新北市新店區安康路二段320巷15弄2號","121.50417","24.9596583333333","6500400","永和區"
"234074","AAC-211","2018/03/03 20:39:52","新北市永和區竹林路119巷16號","121.521025","25.011395","6500400","永和區"
"243011","297-R6","2018/03/03 20:39:49","新北市泰山區公園路89號","121.42445","25.0550916666667","6501600","泰山區"
"243010","KEA-2215","2018/03/03 20:39:40","新北市泰山區公園路89號","121.424925","25.05473","6501600","泰山區"
"243009","KEA-2216","2018/03/03 20:39:52","新北市泰山區泰林路二段542巷1弄1號","121.423333333333","25.0641166666667","6501600","泰山區"
"243013","646-TV","2018/03/03 20:39:36","新北市泰山區橫窠雅36號","121.403115","25.0723816666667","6501600","泰山區"
"243016","680-BX","2018/03/03 20:39:54","新北市泰山區文程路111號","121.430523333333","25.0482283333333","6501600","泰山區"
"222003","436-BY","2018/03/03 20:39:46","新北市深坑區深坑街162號","121.612838333333","25.0011433333333","6501800","深坑區"
"222002","659-BX","2018/03/03 20:39:41","新北市深坑區萬福路45號","121.599465","25.0068116666667","6501800","深坑區"
"231041","002-UM","2018/03/03 20:39:48","新北市新店區中正路568號","121.533863333333","24.9877816666667","6500600","新店區"
"231059","046-UY","2018/03/03 20:39:41","新北市新店區僑愛一路1號","121.499861666667","24.9448116666667","6500600","新店區"
"231061","047-UY","2018/03/03 20:39:42","新北市新店區新和街50號","121.519621666667","24.98521","6500600","新店區"
"231060","106-UY","2018/03/03 20:39:39","新北市新店區安康路三段738號","121.473821666667","24.9420333333333","6500600","新店區"
"231051","107-UY","2018/03/03 20:39:39","新北市新店區中央八街65號","121.52807","24.9766083333333","6500600","新店區"
"231048","108-UY","2018/03/03 20:39:45","新北市新店區復興路4號","121.540508333333","24.9868316666667","6500600","新店區"
"231052","187-VK","2018/03/03 20:39:46","新北市新店區松林路23號","121.547751666667","24.91016","6500600","新店區"
"231050","KEA-2219","2018/03/03 20:39:41","新北市新店區中正路265巷12號","121.537671666667","24.9733733333333","6500600","新店區"
"231057","256-BX","2018/03/03 20:39:46","新北市新店區花園六路二段9號","121.555526666667","24.93301","6500600","新店區"
"231058","3712-VJ","2018/03/03 20:39:43","新北市新店區平等街46巷1號","121.536321666667","24.9731183333333","6500600","新店區"
"231056","3713-VJ","2018/03/03 20:39:43","新北市新店區中央六街28號","121.52922","24.9750733333333","6500600","新店區"
"231065","512-UM","2018/03/03 20:39:42","新北市新店區安祥路102巷107號","121.486641666667","24.9641166666667","6500600","新店區"
"231054","513-UM","2018/03/03 20:39:45","新北市新店區行政街28巷2號","121.542835","24.9656366666667","6500600","新店區"
"231064","515-UM","2018/03/03 20:39:52","新北市新店區安和路三段129號","121.517143333333","24.9852883333333","6500600","新店區"
"231045","617-UM","2018/03/03 20:39:48","新北市新店區長春路50號","121.550706666667","24.957765","6500600","新店區"
"231044","618-UM","2018/03/03 20:39:43","新北市新店區建國路270號","121.537516666667","24.9833283333333","6500600","新店區"
"231040","619-UM","2018/03/03 20:39:39","新北市新店區中正路274號","121.538861666667","24.9736033333333","6500600","新店區"
"231042","641-BX","2018/03/03 20:39:37","新北市新店區寶高路120巷1號","121.554565","24.976065","6500600","新店區"
"231063","645-TV","2018/03/03 20:39:40","新北市新店區玫瑰路4-1號","121.493596666667","24.9513483333333","6500600","新店區"
"231068","718-UY","2018/03/03 20:39:44","新北市新店區寶慶街35巷6號","121.5431","24.9863983333333","6500600","新店區"
"231049","719-UM","2018/03/03 20:39:48","新北市新店區永業路96-1號","121.52985","24.9509283333333","6500600","新店區"
"231062","720-UM","2018/03/03 20:39:38","新北市新店區雙城路4巷1號","121.491331666667","24.95088","6500600","新店區"
"231043","899-TW","2018/03/03 20:39:50","新北市新店區建國路19巷1號","121.540018333333","24.9737733333333","6500600","新店區"
"231066","AKT-0513","2018/03/03 20:39:41","新北市新店區安興路105-1號","121.514678333333","24.97771","6500600","新店區"
"241011","013-R5","2018/03/03 20:39:43","新北市三重區龍濱路221號","121.502076666667","25.07205","6500200","三重區"
"241028","022-UY","2018/03/03 20:39:42","新北市三重區光興街30號","121.497403333333","25.05986","6500200","三重區"
"241008","059-VK","2018/03/03 20:39:50","新北市三重區下竹圍街91號","121.481138333333","25.0748366666667","6500200","三重區"
"241009","060-VK","2018/03/03 20:39:35","新北市三重區碧華街45號","121.4846","25.0812283333333","6500200","三重區"
"241015","062-VK","2018/03/03 20:39:43","新北市三重區文化北路105號","121.497866666667","25.0684583333333","6500200","三重區"
"241017","063-VK","2018/03/03 20:39:38","新北市三重區大同北路271巷1號","121.490875","25.0673616666667","6500200","三重區"
"241026","066-VK","2018/03/03 20:39:52","新北市三重區文化南路7號","121.500005","25.062315","6500200","三重區"
"241002","090-VK","2018/03/03 20:39:42","新北市三重區仁義街167巷22號","121.49782","25.08199","6500200","三重區"
"241003","091-VK","2018/03/03 20:39:34","新北市三重區五華街141巷58號","121.49361","25.08678","6500200","三重區"
"241001","156-TC","2018/03/03 20:39:33","新北市三重區自強路三段110巷27號","121.485951666667","25.0745116666667","6500200","三重區"
"241005","262-UM","2018/03/03 20:39:35","新北市三重區集賢路87-1號","121.493988333333","25.0869583333333","6500200","三重區"
"241016","265-UM","2018/03/03 20:39:49","新北市三重區長壽西街126號","121.495116666667","25.0669383333333","6500200","三重區"
"241022","267-UM","2018/03/03 20:39:43","新北市三重區中山路33巷12號","121.487831666667","25.0620433333333","6500200","三重區"
"241018","268-UM","2018/03/03 20:39:40","新北市三重區自強路一段179號","121.492358333333","25.0677783333333","6500200","三重區"
"241032","269-UM","2018/03/03 20:39:45","新北市三重區重陽路一段120巷35號","121.485036666667","25.060195","6500200","三重區"
"241013","270-UM","2018/03/03 20:39:43","新北市三重區三和路四段146號","121.488593333333","25.0756333333333","6500200","三重區"
"241025","271-UM","2018/03/03 20:39:51","新北市三重區頂崁街206巷40號","121.475758333333","25.0662383333333","6500200","三重區"
"241007","398-BY","2018/03/03 20:39:49","新北市三重區自強路四段12號","121.488413333333","25.0763033333333","6500200","三重區"
"241020","413-TH","2018/03/03 20:39:48","新北市三重區忠孝路一段101號","121.489666666667","25.0721416666667","6500200","三重區"
"241004","475-VK","2018/03/03 20:39:36","新北市三重區仁愛街442號","121.489283333333","25.0819633333333","6500200","三重區"
"241024","478-VK","2018/03/03 20:39:45","新北市三重區大勇街49號","121.481308333333","25.07191","6500200","三重區"
"241030","480-VK","2018/03/03 20:39:38","新北市三重區成功路73巷9號","121.489403333333","25.0518283333333","6500200","三重區"
"241014","543-UM","2018/03/03 20:39:44","新北市三重區萬壽街26號","121.499908333333","25.0695766666667","6500200","三重區"
"241023","545-UM","2018/03/03 20:39:53","新北市三重區自由街37巷1號","121.478855","25.06694","6500200","三重區"
"241019","KEA-2593","2018/03/03 20:39:44","新北市三重區重陽路四段35號","121.491493333333","25.0697733333333","6500200","三重區"
"241035","743-BX","2018/03/03 20:39:44","新北市三重區正義北路268號","121.49583","25.0688616666667","6500200","三重區"
"241031","887-TS","2018/03/03 20:39:42","新北市三重區重陽路一段113巷1弄40號","121.488095","25.0587883333333","6500200","三重區"
"241012","941-UM","2018/03/03 20:39:41","新北市三重區秀江街28號","121.502248333333","25.072995","6500200","三重區"
"241029","942-UM","2018/03/03 20:39:40","新北市三重區集美街126巷25號","121.489976666667","25.053775","6500200","三重區"
"241033","AAC-255","2018/03/03 20:39:41","新北市三重區光復路二段47-5號","121.474138333333","25.0560916666667","6500200","三重區"
"235065","098-UM","2018/03/03 20:39:34","新北市中和區景平路782-2號","121.495966666667","25.0054333333333","6500300","中和區"
"235069","4980-A6","2018/03/03 20:39:45","新北市中和區新生街243號","121.483853333333","24.998875","6500300","中和區"
"235026","800-TS","2018/03/03 20:20:34","新北市中和區員山路36巷16-3號","121.484848333333","24.9916616666667","6500300","中和區"
"247022","893-R6","2018/03/03 20:39:44","新北市蘆洲區中正路263巷10號","121.466883333333","25.0871433333333","6501400","蘆洲區"
"247012","546-UM","2018/03/03 20:39:47","新北市蘆洲區中興街117-2號","121.482183333333","25.089265","6501400","蘆洲區"
"247020","500-BY","2018/03/03 20:39:34","新北市蘆洲區民族路331號","121.473856666667","25.09174","6501400","蘆洲區"
"247010","339-TH","2018/03/03 20:39:40","新北市蘆洲區中山一路113號","121.47624","25.0815566666667","6501400","蘆洲區"
"247002","337-TH","2018/03/03 20:39:39","新北市蘆洲區永樂街2號","121.45922","25.0882533333333","6501400","蘆洲區"
"247004","336-TH","2018/03/03 20:39:51","新北市蘆洲區長安街216號","121.458496666667","25.08426","6501400","蘆洲區"
"247016","057-VK","2018/03/03 20:39:32","新北市蘆洲區中山一路312號","121.469478333333","25.077315","6501400","蘆洲區"
"247006","056-VK","2018/03/03 20:39:52","新北市蘆洲區和平路134號","121.467148333333","25.0804566666667","6501400","蘆洲區"
"247008","053-VK","2018/03/03 20:39:49","新北市蘆洲區重陽街24號","121.480848333333","25.081945","6501400","蘆洲區"
"247014","007-UY","2018/03/03 20:39:44","新北市蘆洲區中山二路99號","121.472751666667","25.0817916666667","6501400","蘆洲區"
"247024","002-UY","2018/03/03 20:39:35","新北市蘆洲區長樂路56-1號","121.462996666667","25.086405","6501400","蘆洲區"
"224010","AGQ-8101","2018/03/03 20:39:40","新北市瑞芳區汽車路5號","121.847491666667","25.111725","6501200","瑞芳區"
"222001","KEA-2212","2018/03/03 20:39:53","新北市深坑區北深路三段220號","121.600961666667","25.0039183333333","6501800","深坑區"
"251001","011-UM","2018/03/03 20:39:42","新北市淡水區淡金路57號","121.456116666667","25.1612916666667","6501000","淡水區"
"251013","179-VK","2018/03/03 20:39:34","新北市淡水區下圭柔山28巷23號","121.45813","25.204075","6501000","淡水區"
"251014","180-VK","2018/03/03 20:39:33","新北市淡水區公埔子25號","121.469835","25.2318133333333","6501000","淡水區"
"251015","182-VK","2018/03/03 20:39:47","新北市淡水區興仁路162號","121.451638333333","25.2207116666667","6501000","淡水區"
"251010","413-VK","2018/03/03 20:39:51","新北市淡水區沙崙路181巷15號","121.423865","25.1844016666667","6501000","淡水區"
"251012","441-VK","2018/03/03 20:39:48","新北市淡水區興仁路108號","121.451658333333","25.2181216666667","6501000","淡水區"
"251016","442-VK","2018/03/03 20:39:45","新北市淡水區後洲子16-1號","121.449383333333","25.2240066666667","6501000","淡水區"
"251006","561-UM","2018/03/03 20:39:49","新北市淡水區商工路198巷7號","121.451296666667","25.18707","6501000","淡水區"
"251011","650-BX","2018/03/03 20:39:43","新北市淡水區新市一路一段361號","121.436256666667","25.1861316666667","6501000","淡水區"
"251002","672-BX","2018/03/03 20:39:38","新北市淡水區中正路36號","121.443745","25.1692083333333","6501000","淡水區"
"251003","673-BX","2018/03/03 20:39:50","新北市淡水區新民街120巷54號","121.438811666667","25.1784516666667","6501000","淡水區"
"252002","178-VK","2018/03/03 20:39:49","新北市三芝區淡金路二段47-1號","121.503653333333","25.2604916666667","6502100","三芝區"
"252001","292-VK","2018/03/03 20:39:35","新北市三芝區長安街55號","121.50121","25.2565466666667","6502100","三芝區"
"242029","986-R7","2018/03/03 20:39:46","新北市新莊區昌隆街10號","121.453121666667","25.05087","6500500","新莊區"
"242051","751-BX","2018/03/03 20:39:48","新北市新莊區民安西路173巷29號","121.427228333333","25.0159416666667","6500500","新莊區"
"242025","615-BX","2018/03/03 20:39:53","新北市三重區大有街23號","121.466821666667","25.065235","6500500","新莊區"
"242023","613-BX","2018/03/03 20:39:45","新北市新莊區復興路三段45號","121.461543333333","25.044525","6500500","新莊區"
"242027","612-BX","2018/03/03 20:39:33","新北市新莊區思源路59號","121.459875","25.0402983333333","6500500","新莊區"
"242039","566-BX","2018/03/03 20:39:42","新北市新莊區民安路314號","121.428491666667","25.02199","6500500","新莊區"
"242044","497-BY","2018/03/03 20:39:41","新北市新莊區中正路新生巷85弄1號","121.417133333333","25.0217583333333","6500500","新莊區"
"242048","441-UM","2018/03/03 20:39:50","新北市新莊區中正路652號","121.42166","25.0285633333333","6500500","新莊區"
"242053","440-UM","2018/03/03 20:39:53","新北市新莊區西盛街324巷2號","121.427811666667","25.0147883333333","6500500","新莊區"
"242034","415-TV","2018/03/03 20:39:51","新北市新莊區中正路334巷25弄47號","121.445335","25.0361833333333","6500500","新莊區"
"242004","413-TV","2018/03/03 20:39:48","新北市五股區成泰路一段98巷1-18號","121.453336666667","25.0741583333333","6500500","新莊區"
"242042","400-BY","2018/03/03 20:39:49","新北市新莊區天祥街47巷4弄1號","121.416338333333","25.0283516666667","6500500","新莊區"
"242061","362-BY","2018/03/03 20:39:54","新北市新莊區新樹路262號","121.432655","25.014825","6500500","新莊區"
"242058","353-BY","2018/03/03 20:39:37","新北市新莊區四維路95號","121.42343","25.02376","6500500","新莊區"
"242007","132-UY","2018/03/03 20:39:45","新北市新莊區福壽街56巷1號","121.458541666667","25.048835","6500500","新莊區"
"242036","133-UY","2018/03/03 20:39:52","新北市新莊區後港一路94巷1弄1號","121.4278","25.0264866666667","6500500","新莊區"
"242015","135-UY","2018/03/03 20:39:43","新北市新莊區中和街8號","121.448435","25.0430183333333","6500500","新莊區"
"242046","172-VK","2018/03/03 20:39:47","新北市新莊區裕民街119號","121.41817","25.0226733333333","6500500","新莊區"
"242009","173-VK","2018/03/03 20:39:39","新北市新莊區福壽街99巷4弄2號","121.457436666667","25.0505116666667","6500500","新莊區"
"242002","176-VK","2018/03/03 20:39:50","新北市新莊區中港路35號","121.455188333333","25.0377183333333","6500500","新莊區"
"242056","349-TH","2018/03/03 20:39:49","新北市新莊區瓊泰路59號","121.443251666667","25.0287","6500500","新莊區"
"242017","350-TH","2018/03/03 20:39:55","新北市新莊區新北大道四段217號","121.443748333333","25.0571416666667","6500500","新莊區"
"242011","351-TH","2018/03/03 20:39:45","新北市新莊區中榮街132號","121.446055","25.052735","6500500","新莊區"
"221008","489-VK","2018/03/03 20:39:49","新北市汐止區康寧街706-2號","121.638498333333","25.072995","6501100","汐止區"
"221036","130-UY","2018/03/03 20:39:52","新北市汐止區忠孝東路255巷12號","121.662473333333","25.0679366666667","6501100","汐止區"
"221015","131-UY","2018/03/03 20:39:43","新北市汐止區建成路37巷1號","121.663723333333","25.07281","6501100","汐止區"
"221023","279-VK","2018/03/03 20:39:44","新北市汐止區康寧街629號","121.637188333333","25.0719366666667","6501100","汐止區"
"221032","280-BY","2018/03/03 20:39:43","新北市汐止區弘道街53巷30弄6號","121.619311666667","25.0500566666667","6501100","汐止區"
"221027","281-BY","2018/03/03 20:39:38","新北市汐止區大同路二段565號","121.66279","25.0699066666667","6501100","汐止區"
"221038","297-VK","2018/03/03 20:39:37","新北市汐止區汐萬路一段169巷55號","121.653091666667","25.0698766666667","6501100","汐止區"
"221029","298-VK","2018/03/03 20:39:47","新北市汐止區大同路一段415號","121.642311666667","25.0612283333333","6501100","汐止區"
"221021","299-VK","2018/03/03 20:39:50","新北市汐止區水源路一段286號","121.654143333333","25.0582133333333","6501100","汐止區"
"221035","622-UM","2018/03/03 20:39:38","新北市汐止區長江街101-5號","121.658683333333","25.0731833333333","6501100","汐止區"
"221025","623-UM","2018/03/03 20:39:50","新北市汐止區水源路二段283巷1號","121.65918","25.0498283333333","6501100","汐止區"
"221033","647-BX","2018/03/03 20:39:54","新北市汐止區合順街18巷8弄5號","121.620305","25.0417983333333","6501100","汐止區"
"221018","753-BX","2018/03/03 20:39:36","新北市汐止區茄苳路105號","121.667501666667","25.0714883333333","6501100","汐止區"
"242021","281-VK","2018/03/03 20:39:41","新北市新莊區中正路206號","121.449263333333","25.0354783333333","6500500","新莊區"
"242031","280-VK","2018/03/03 20:39:56","新北市新莊區中正路508巷18號","121.438583333333","25.034905","6500500","新莊區"
"220103","561-BX","2018/03/03 20:39:35","新北市板橋區漢生東路73巷25號","121.467153333333","25.01698","6500100","板橋區"
"220070","AAC-253","2018/03/03 20:39:43","新北市八里區商港路105巷15-1號","121.391651666667","25.1494583333333","6500100","板橋區"
