"lineid","car","time","location","longitude","latitude","cityid","cityname"
"235010","733-UM","2018/03/03 21:40:25","新北市中和區員山路36巷13號","121.484173333333","24.9908033333333","6500300","中和區"
"247008","053-VK","2018/03/03 21:33:29","新北市五股區新城八路26號","121.44804","25.0897883333333","6501400","蘆洲區"
"251009","008-UM","2018/03/03 21:59:45","新北市淡水區民生路22號","121.461125","25.1378383333333","6501000","淡水區"
"251004","009-UM","2018/03/03 21:59:36","新北市淡水區民權路193-1號","121.459123333333","25.1329583333333","6501000","淡水區"
"251005","010-UM","2018/03/03 21:59:46","新北市淡水區鄧公路30巷1弄68號","121.454515","25.1694816666667","6501000","淡水區"
"251008","181-VK","2018/03/03 21:59:45","新北市淡水區學府路104號","121.449858333333","25.171835","6501000","淡水區"
"251010","413-VK","2018/03/03 21:59:50","新北市淡水區中正路二段206號","121.426261666667","25.1890866666667","6501000","淡水區"
"251006","561-UM","2018/03/03 21:59:48","新北市淡水區中正路11巷11號","121.43775","25.1707883333333","6501000","淡水區"
"251007","577-R6","2018/03/03 21:59:43","新北市淡水區北新路184巷57號","121.451056666667","25.177655","6501000","淡水區"
"251011","650-BX","2018/03/03 21:59:43","新北市淡水區水碓街7號","121.443153333333","25.1771","6501000","淡水區"
"251003","673-BX","2018/03/03 21:59:50","新北市淡水區新春街89號","121.439028333333","25.182555","6501000","淡水區"
"241031","AAD-800","2018/03/03 21:54:56","新北市板橋區民生路二段89-6號","121.47047","25.0192683333333","6500200","三重區"
