"lineid","car","time","location","longitude","latitude","cityid","cityname"
"248005","653-BX","2018/01/20 08:27:02","新北市五股區明德路12巷3號","121.43325","25.0717166666667","6501500","五股區"
"244005","248-BX","2018/01/20 08:29:34","新北市林口區嘉溪雅坑29號","121.31688","25.11965","6501700","林口區"
"244002","657-BX","2018/01/20 08:29:21","新北市林口區粉寮路1號","121.397716666667","25.0801816666667","6501700","林口區"
"222004","289-BY","2018/01/20 08:29:36","新北市深坑區王軍寮1-10號","121.61765","24.988955","6501800","深坑區"
"231007","189-VK","2018/01/20 08:29:20","新北市新店區新潭路二段120號","121.513481666667","24.92264","6500600","新店區"
"231008","192-VK","2018/01/20 08:29:27","新北市新店區櫻花街55巷30號","121.548563333333","24.9262266666667","6500600","新店區"
"235001","611-BX","2018/01/20 08:29:36","新北市中和區員山路425號","121.480983333333","25.003465","6500300","中和區"
"247002","053-VK","2018/01/20 08:26:29","新北市蘆洲區和平路97巷13號","121.467751666667","25.07866","6501400","蘆洲區"
"226005","5620-A6","2018/01/20 08:29:34","新北市平溪區南山里南山坪99號","121.778676666667","25.0428133333333","6502400","平溪區"
"226002","8452-VL","2018/01/20 08:29:25","新北市平溪區東勢里東勢格1號","121.749778333333","25.0053066666667","6502400","平溪區"
"226003","AGD-0702","2018/01/20 08:29:26","新北市平溪區十分里十分街271-3號","121.779085","25.0447866666667","6502400","平溪區"
"223006","022-BY","2018/01/20 08:29:35","新北市深坑區昇高坑路32號","121.627593333333","24.9999616666667","6501900","石碇區"
"223002","198-BX","2018/01/20 08:29:33","新北市石碇區楓子林68號","121.64364","25.009725","6501900","石碇區"
"223008","406-TH","2018/01/20 08:29:23","新北市石碇區十八重溪68-1號","121.6733","25.0166133333333","6501900","石碇區"
"223001","437-BY","2018/01/20 08:29:32","新北市石碇區北宜路六段柑腳巷2號","121.659638333333","24.9380633333333","6501900","石碇區"
"223004","660-BX","2018/01/20 08:29:28","新北市石碇區崩山9號","121.676066666667","24.9756783333333","6501900","石碇區"
"223007","661-BX","2018/01/20 08:29:35","新北市石碇區十八重溪68-1號","121.672876666667","25.0173333333333","6501900","石碇區"
"223005","677-TV","2018/01/20 08:29:25","新北市石碇區碇坪路一段282號","121.676321666667","24.9768733333333","6501900","石碇區"
"227006","282-VK","2018/01/20 08:29:32","新北市雙溪區平林里竹寮坑1號","121.841975","25.03561","6502500","雙溪區"
"252004","249-BX","2018/01/20 08:29:36","新北市三芝區興華里楓子林45-6號","121.501268333333","25.2045583333333","6502100","三芝區"
"252007","AAC-283","2018/01/20 08:29:30","新北市三芝區後厝里番社后39號","121.469355","25.2433966666667","6502100","三芝區"
"237001","159-UY","2018/01/20 08:29:34","新北市三峽區學成路343號","121.376166666667","24.9447416666667","6500900","三峽區"
"236011","165-UM","2018/01/20 08:29:20","新北市土城區金城路二段46巷20號","121.454166666667","24.9736166666667","6501300","土城區"
"236002","339-SR","2018/01/20 08:29:26","新北市土城區中央路四段51號","121.417793333333","24.9584","6501300","土城區"
"236006","498-BY","2018/01/20 08:29:23","新北市土城區中央路三段285號","121.426026666667","24.9628933333333","6501300","土城區"
"220034","461-BY","2018/01/20 08:29:30","新北市土城區城林路6巷80號","121.438105","24.9797816666667","6500100","板橋區"
