"lineid","car","time","location","longitude","latitude","cityid","cityname"
"248005","653-BX","2018/01/20 08:41:56","新北市五股區明德路12巷3號","121.4333","25.0718483333333","6501500","五股區"
"244002","657-BX","2018/01/20 08:59:21","新北市林口區公園路192號","121.374645","25.074595","6501700","林口區"
"222004","289-BY","2018/01/20 08:40:36","新北市深坑區大崙尾1-1號","121.61548","24.9750816666667","6501800","深坑區"
"231007","189-VK","2018/01/20 08:59:40","新北市新店區新潭路三段236號","121.501553333333","24.9032366666667","6500600","新店區"
"231008","192-VK","2018/01/20 08:59:27","新北市新店區廣興路5巷13號","121.54593","24.91259","6500600","新店區"
"235001","611-BX","2018/01/20 08:59:36","新北市中和區民享街283號","121.471383333333","24.9960833333333","6500300","中和區"
"247002","053-VK","2018/01/20 08:59:27","新北市蘆洲區九芎街39號","121.468086666667","25.078595","6501400","蘆洲區"
"226005","5620-A6","2018/01/20 08:59:26","新北市平溪區望古里灰3號","121.758203333333","25.0302466666667","6502400","平溪區"
"226002","8452-VL","2018/01/20 08:59:05","新北市平溪區東勢里芊蓁林9-1號","121.735961666667","24.99102","6502400","平溪區"
"226003","AGD-0702","2018/01/20 08:59:26","新北市平溪區十分里十分街238號","121.77808","25.0441","6502400","平溪區"
"223008","406-TH","2018/01/20 08:59:03","新北市石碇區光明路耳空龜巷12-1號","121.69262","25.0327183333333","6501900","石碇區"
"223001","437-BY","2018/01/20 08:59:32","新北市石碇區北宜路五段十股寮巷12號","121.643531666667","24.95282","6501900","石碇區"
"223004","660-BX","2018/01/20 08:59:28","新北市石碇區碇坪路二段43號","121.687221666667","24.9756266666667","6501900","石碇區"
"223007","661-BX","2018/01/20 08:53:08","新北市石碇區光明路17-1號","121.68548","25.0318383333333","6501900","石碇區"
"223005","677-TV","2018/01/20 08:59:25","新北市石碇區磨石坑7-2號","121.690056666667","24.9756183333333","6501900","石碇區"
"227006","282-VK","2018/01/20 08:59:32","新北市雙溪區上林里內平林134號","121.82118","25.025865","6502500","雙溪區"
"252004","249-BX","2018/01/20 08:59:36","新北市三芝區興華里車埕72-14號","121.49383","25.1972166666667","6502100","三芝區"
"252007","AAC-283","2018/01/20 08:59:31","新北市三芝區錫板里海尾15-12號","121.477188333333","25.2543716666667","6502100","三芝區"
"237001","159-UY","2018/01/20 08:59:34","新北市三峽區國際一街72-1號","121.37184","24.9416","6500900","三峽區"
"236011","165-UM","2018/01/20 08:59:40","新北市土城區中山路28號","121.423013333333","24.963345","6501300","土城區"
"236002","339-SR","2018/01/20 08:59:26","新北市土城區中正路5號","121.442435","24.9750916666667","6501300","土城區"
"236006","498-BY","2018/01/20 08:59:23","新北市土城區中央路三段76巷55號","121.435293333333","24.969595","6501300","土城區"
"239001","417-VK","2018/01/20 08:59:27","新北市鶯歌區二甲路9-2號","121.346538333333","24.936595","6500800","鶯歌區"
