"lineid","car","time","location","longitude","latitude","cityid","cityname"
"248005","653-BX","2018/01/20 09:29:31","新北市五股區登林路76-10號","121.429651666667","25.06944","6501500","五股區"
"244002","657-BX","2018/01/20 09:29:41","新北市林口區公園路192號","121.374611666667","25.0746083333333","6501700","林口區"
"222004","289-BY","2018/01/20 09:29:38","新北市深坑區公館後13號","121.60259","24.9925716666667","6501800","深坑區"
"231007","189-VK","2018/01/20 09:29:20","新北市新店區新潭路三段215巷25號","121.508121666667","24.90404","6500600","新店區"
"231008","192-VK","2018/01/20 09:29:27","新北市新店區平廣路一段50號","121.533381666667","24.9003116666667","6500600","新店區"
"235001","611-BX","2018/01/20 09:29:36","新北市中和區連城路523巷7弄2號","121.48177","24.994775","6500300","中和區"
"247002","053-VK","2018/01/20 09:29:27","新北市蘆洲區三民路611號","121.459891666667","25.0940533333333","6501400","蘆洲區"
"223006","022-BY","2018/01/20 09:07:25","新北市石碇區小粗坑(潭邊里)9-2號","121.678625","24.9856833333333","6501900","石碇區"
"227006","282-VK","2018/01/20 09:27:51","新北市雙溪區長源里柑腳58-1號","121.793933333333","25.006785","6502500","雙溪區"
"252004","249-BX","2018/01/20 09:29:36","新北市三芝區店子里龜子山9-1號","121.508706666667","25.2156583333333","6502100","三芝區"
"252007","AAC-283","2018/01/20 09:29:30","新北市三芝區古庄里山豬堀14-2號","121.492216666667","25.2600166666667","6502100","三芝區"
"237001","159-UY","2018/01/20 09:29:34","新北市樹林區柑園街二段237號","121.374651666667","24.9522633333333","6500900","三峽區"
"236006","498-BY","2018/01/20 09:29:23","新北市土城區忠承路5-1號","121.442215","24.9679683333333","6501300","土城區"
"239001","417-VK","2018/01/20 09:29:27","新北市鶯歌區仁愛路55號","121.35435","24.9556583333333","6500800","鶯歌區"
