"lineid","car","time","location","longitude","latitude","cityid","cityname"
"248005","653-BX","2018/01/20 10:09:31","新北市五股區中興路二段37巷26號","121.460601666667","25.0747533333333","6501500","五股區"
"244002","657-BX","2018/01/20 10:09:21","新北市林口區公園路192號","121.374601666667","25.0746283333333","6501700","林口區"
"231007","189-VK","2018/01/20 10:09:40","新北市新店區新潭路三段215巷25號","121.508088333333","24.9040533333333","6500600","新店區"
"231008","192-VK","2018/01/20 10:09:27","新北市新店區平廣路一段92巷7號","121.52998","24.89834","6500600","新店區"
"247002","053-VK","2018/01/20 10:09:27","新北市蘆洲區三民路611號","121.459845","25.0940566666667","6501400","蘆洲區"
"227006","282-VK","2018/01/20 10:09:32","新北市雙溪區長源里柑腳18號","121.804701666667","25.0143066666667","6502500","雙溪區"
"252004","249-BX","2018/01/20 10:09:36","新北市三芝區福德里埔尾13-3號","121.503963333333","25.24507","6502100","三芝區"
"252007","AAC-283","2018/01/20 10:09:30","新北市三芝區新庄里新庄子51-46號","121.507178333333","25.2781583333333","6502100","三芝區"
"239001","417-VK","2018/01/20 10:09:27","新北市鶯歌區仁愛路55號","121.354433333333","24.9557266666667","6500800","鶯歌區"
