"lineid","car","time","location","longitude","latitude","cityid","cityname"
"244002","657-BX","2018/01/20 10:49:21","新北市林口區公園路225-3號","121.374596666667","25.07466","6501700","林口區"
"231007","189-VK","2018/01/20 10:49:20","新北市新店區新潭路二段136-1號","121.512535","24.9217433333333","6500600","新店區"
"231008","192-VK","2018/01/20 10:49:27","新北市新店區新烏路二段300號","121.548476666667","24.9130016666667","6500600","新店區"
"247002","053-VK","2018/01/20 10:49:27","新北市蘆洲區三民路611號","121.4599","25.09414","6501400","蘆洲區"
"227006","282-VK","2018/01/20 10:49:32","新北市雙溪區新基里新基東街15-2號","121.872416666667","25.04211","6502500","雙溪區"
