"lineid","car","time","location","longitude","latitude","cityid","cityname"
"244002","657-BX","2018/01/20 10:59:41","新北市林口區公園路192號","121.374585","25.074625","6501700","林口區"
"231007","189-VK","2018/01/20 10:59:40","新北市新店區新潭路二段61號","121.521911666667","24.9263016666667","6500600","新店區"
"231008","192-VK","2018/01/20 10:59:27","新北市新店區松林路16巷41號","121.545853333333","24.9069566666667","6500600","新店區"
"247002","053-VK","2018/01/20 10:59:27","新北市蘆洲區永平街30號","121.45881","25.0907833333333","6501400","蘆洲區"
"227006","282-VK","2018/01/20 10:59:32","新北市雙溪區魚行里坤溪14號","121.8732","25.0234566666667","6502500","雙溪區"
