"lineid","car","time","location","longitude","latitude","cityid","cityname"
"244002","657-BX","2018/01/20 11:09:41","新北市林口區文化一路二段2號","121.38003","25.0766266666667","6501700","林口區"
"231007","189-VK","2018/01/20 11:09:40","新北市新店區新潭路一段140巷6號","121.528348333333","24.9348733333333","6500600","新店區"
"231008","192-VK","2018/01/20 11:09:27","新北市新店區松林路83號","121.548518333333","24.90857","6500600","新店區"
"235029","098-UM","2018/01/20 11:09:40","新北市中和區員山路36巷16-3號","121.48518","24.9912216666667","6500300","中和區"
"247002","053-VK","2018/01/20 11:09:27","新北市五股區中興路三段173號","121.445025","25.0806816666667","6501400","蘆洲區"
"227006","282-VK","2018/01/20 11:09:31","新北市雙溪區魚行里坤溪8號","121.866383333333","25.02127","6502500","雙溪區"
