"lineid","car","time","location","longitude","latitude","cityid","cityname"
"244002","657-BX","2018/01/20 11:19:41","新北市林口區粉寮69號","121.404911666667","25.09095","6501700","林口區"
"231007","189-VK","2018/01/20 11:19:40","新北市新店區新潭路一段73號","121.52497","24.9400116666667","6500600","新店區"
"235029","098-UM","2018/01/20 11:19:40","新北市中和區員山路36巷16-3號","121.485098333333","24.991245","6500300","中和區"
"247002","053-VK","2018/01/20 11:19:27","新北市五股區中興路三段163號","121.44912","25.08076","6501400","蘆洲區"
"227006","282-VK","2018/01/20 11:19:32","新北市雙溪區魚行里坤溪8號","121.866306666667","25.021255","6502500","雙溪區"
