"lineid","car","time","location","longitude","latitude","cityid","cityname"
"234044","148-BY","2018/01/20 12:59:32","新北市永和區得和路373巷16弄1號","121.525103333333","25.00037","6500400","永和區"
"234005","207-UY","2018/01/20 12:59:43","新北市永和區中山路一段50號","121.513161666667","25.010625","6500400","永和區"
"234078","298-R6","2018/01/20 12:59:38","新北市永和區永亨路61號","121.521048333333","25.006115","6500400","永和區"
"234036","336-UY","2018/01/20 12:59:43","新北市中和區秀朗路三段38號","121.526425","24.9959","6500400","永和區"
"234062","337-UY","2018/01/20 12:59:38","新北市永和區秀朗路一段146號","121.518333333333","25.0035","6500400","永和區"
"234084","338-UY","2018/01/20 12:59:39","新北市永和區永利路20號","121.518056666667","25.0057733333333","6500400","永和區"
"234068","552-UM","2018/01/20 12:59:39","新北市永和區竹林路96巷21號","121.518646666667","25.011735","6500400","永和區"
"234052","553-UM","2018/01/20 12:59:41","新北市永和區竹林路66巷2號","121.518318333333","25.0133966666667","6500400","永和區"
"234015","745-BX","2018/01/20 12:59:26","新北市永和區永和路二段299號","121.516025","25.0161033333333","6500400","永和區"
"234028","746-BX","2018/01/20 12:59:34","新北市永和區四維街36號","121.52558","24.9981316666667","6500400","永和區"
"234012","KEA-2591","2018/01/20 12:59:27","新北市永和區信義路19號","121.514215","25.0120483333333","6500400","永和區"
"234060","AAD-866","2018/01/20 12:59:26","新北市永和區福和路307號","121.516256666667","25.0070783333333","6500400","永和區"
"234040","862-TW","2018/01/20 12:59:28","新北市永和區永貞路308號","121.511835","25.004865","6500400","永和區"
"234048","863-TW","2018/01/20 12:59:33","新北市永和區文化路194號","121.510785","25.0162766666667","6500400","永和區"
"234025","9371-KE","2018/01/20 12:59:27","新北市永和區永和路一段42號","121.51306","25.0056016666667","6500400","永和區"
"234010","9373-KE","2018/01/20 12:59:33","新北市永和區文化路113巷19號","121.51323","25.0140416666667","6500400","永和區"
"248017","225-UY","2018/01/20 12:59:33","新北市五股區中興路二段83巷26-6號","121.459936666667","25.075205","6501500","五股區"
"234022","9380-KE","2018/01/20 12:59:38","新北市永和區環河東路一段158號","121.52105","25.01451","6500400","永和區"
"234076","969-R7","2018/01/20 12:59:38","新北市永和區民享街8號","121.515153333333","24.9954433333333","6500400","永和區"
"234072","AAC-211","2018/01/20 12:59:32","新北市永和區環河東路二段98號","121.524106666667","25.010405","6500400","永和區"
"234066","AAC-212","2018/01/20 12:59:37","新北市永和區永和路一段1號","121.513016666667","25.0051566666667","6500400","永和區"
"234001","AAC-295","2018/01/20 12:59:38","新北市永和區永平路28號","121.513233333333","25.0087983333333","6500400","永和區"
"231029","001-UM","2018/01/20 12:59:40","新北市新店區安華路28-1號","121.519466666667","24.9609266666667","6500600","新店區"
"231002","002-UM","2018/01/20 12:59:28","新北市新店區安華路28-1號","121.519581666667","24.9609066666667","6500600","新店區"
"231025","0291-UT","2018/01/20 12:59:24","新北市新店區安華路28-1號","121.519281666667","24.960605","6500600","新店區"
"231030","047-UY","2018/01/20 12:59:28","新北市新店區安華路28-1號","121.519315","24.9609183333333","6500600","新店區"
"231018","107-UY","2018/01/20 12:59:34","新北市新店區安華路28-1號","121.519516666667","24.9613316666667","6500600","新店區"
"231012","108-UY","2018/01/20 12:59:43","新北市新店區安華路28-1號","121.5196","24.9609383333333","6500600","新店區"
"231020","188-VK","2018/01/20 12:59:35","新北市新店區安華路28-1號","121.519301666667","24.9612016666667","6500600","新店區"
"231010","278-BY","2018/01/20 12:59:42","新北市新店區安華路28-1號","121.51964","24.961115","6500600","新店區"
"231023","AAD-862","2018/01/20 12:59:38","新北市新店區安華路28-1號","121.519858333333","24.9612266666667","6500600","新店區"
"231027","3712-VJ","2018/01/20 12:59:45","新北市新店區安華路28-1號","121.519285","24.9607366666667","6500600","新店區"
"231024","4716-K9","2018/01/20 12:59:39","新北市新店區安華路28-1號","121.519711666667","24.9610933333333","6500600","新店區"
"231038","4715-K9","2018/01/20 12:59:26","新北市新店區安華路28-1號","121.51944","24.9606383333333","6500600","新店區"
"231036","512-UM","2018/01/20 12:59:35","新北市新店區安華路28-1號","121.519418333333","24.96136","6500600","新店區"
"231035","515-UM","2018/01/20 12:59:43","新北市新店區安華路28-1號","121.519595","24.9613266666667","6500600","新店區"
"231003","616-UM","2018/01/20 12:59:27","新北市新店區安華路1-1號","121.519423333333","24.9605066666667","6500600","新店區"
"231001","619-UM","2018/01/20 12:59:42","新北市新店區安華路28-1號","121.519501666667","24.96098","6500600","新店區"
"231034","645-TV","2018/01/20 12:59:40","新北市新店區安華路28-1號","121.519378333333","24.960745","6500600","新店區"
"231013","719-UM","2018/01/20 12:59:32","新北市新店區安華路28-1號","121.5194","24.9607916666667","6500600","新店區"
"231033","720-UM","2018/01/20 12:59:26","新北市新店區安華路28-1號","121.519408333333","24.9612516666667","6500600","新店區"
"231005","897-TW","2018/01/20 12:59:28","新北市新店區安華路28-1號","121.51953","24.9609533333333","6500600","新店區"
"231004","899-TW","2018/01/20 12:59:42","新北市新店區安華路28-1號","121.519238333333","24.9609266666667","6500600","新店區"
"231037","AKT-0513","2018/01/20 12:59:32","新北市新店區安華路1-1號","121.519471666667","24.9605033333333","6500600","新店區"
"235027","006-UY","2018/01/20 12:59:36","新北市中和區員山路36巷16-3號","121.485001666667","24.991305","6500300","中和區"
"235029","098-UM","2018/01/20 12:59:36","新北市中和區中正路472號","121.489851666667","24.9942383333333","6500300","中和區"
"235004","150-BY","2018/01/20 12:59:04","新北市中和區和城路一段271巷1號","121.485523333333","24.9916483333333","6500300","中和區"
"235022","151-BY","2018/01/20 12:59:38","新北市中和區錦和路350-1號","121.490538333333","24.99356","6500300","中和區"
"235002","185-VK","2018/01/20 12:59:39","新北市永和區成功路二段136巷3號","121.526138333333","24.997225","6500300","中和區"
"235031","255-BX","2018/01/20 12:59:26","新北市中和區中正路889號","121.484171666667","25.0043883333333","6500300","中和區"
"235032","377-QA","2018/01/20 12:59:35","新北市中和區員山路36巷16-2號","121.485446666667","24.9910066666667","6500300","中和區"
"235025","378-QA","2018/01/20 12:47:24","新北市中和區和城路一段271巷1號","121.485715","24.991485","6500300","中和區"
"235006","551-UM","2018/01/20 12:59:35","新北市中和區和城路一段271巷1號","121.4855","24.991715","6500300","中和區"
"235026","800-TS","2018/01/20 12:59:37","新北市中和區中正路395號","121.48949","24.993955","6500300","中和區"
"235005","802-TS","2018/01/20 12:59:29","新北市中和區中正路464號","121.490095","24.9942116666667","6500300","中和區"
"235015","157-BY","2018/01/20 12:59:39","新北市中和區員山路36巷13號","121.484141666667","24.990915","6500300","中和區"
"235001","AAC-213","2018/01/20 12:59:36","新北市中和區中正路395號","121.489908333333","24.9935816666667","6500300","中和區"
"220034","073-UY","2018/01/20 12:48:24","新北市板橋區華東街1-10號","121.448266666667","24.9950866666667","6500100","板橋區"
"235035","251-BX","2018/01/20 12:59:43","新北市中和區中正路637巷52弄3號","121.485208333333","24.993775","6500300","中和區"
"228005","097-TW","2018/01/20 12:59:27","新北市貢寮區福隆里東興街6-1號","121.95146","25.020075","6502600","貢寮區"
"228004","212-TW","2018/01/20 12:59:14","新北市貢寮區吉林里內寮街19號","121.887235","24.9885783333333","6502600","貢寮區"
"208004","AAC-292","2018/01/20 12:59:33","新北市金山區磺港里磺港路169號","121.643593333333","25.2248216666667","6502700","金山區"
"207002","749-BX","2018/01/20 12:59:36","新北市萬里區雙興里大坪路34-6號","121.631398333333","25.1686883333333","6502800","萬里區"
"252005","073-UM","2018/01/20 12:59:25","新北市三芝區埔坪里埔頭坑41號","121.504575","25.2646333333333","6502100","三芝區"
"207001","662-BX","2018/01/20 12:59:34","新北市萬里區萬里里獅頭路23號","121.693096666667","25.1783383333333","6502800","萬里區"
"236006","498-BY","2018/01/20 12:59:32","新北市土城區亞洲路32巷6號","121.435808333333","24.9744916666667","6501300","土城區"
