"lineid","car","time","location","longitude","latitude","cityid","cityname"
"234044","148-BY","2018/01/20 13:09:32","新北市永和區永元路18巷33號","121.523861666667","25.00025","6500400","永和區"
"234005","207-UY","2018/01/20 13:09:43","新北市永和區中山路一段211號","121.508723333333","25.008485","6500400","永和區"
"234078","298-R6","2018/01/20 13:09:38","新北市永和區永貞路39巷9弄2號","121.522088333333","25.0066166666667","6500400","永和區"
"234036","336-UY","2018/01/20 13:09:42","新北市永和區民樂街71巷2號","121.527375","24.997375","6500400","永和區"
"234062","337-UY","2018/01/20 13:09:38","新北市永和區秀朗路二段43號","121.52149","25.002395","6500400","永和區"
"234084","338-UY","2018/01/20 13:09:39","新北市永和區永利路69號","121.519635","25.004695","6500400","永和區"
"234068","552-UM","2018/01/20 13:09:19","新北市永和區豫溪街95巷8號","121.518151666667","25.0107683333333","6500400","永和區"
"234052","553-UM","2018/01/20 13:09:41","新北市永和區中興街133巷10號","121.518585","25.0127666666667","6500400","永和區"
"234015","745-BX","2018/01/20 13:09:39","新北市永和區文化路90巷15弄1號","121.513845","25.0159133333333","6500400","永和區"
"234028","746-BX","2018/01/20 13:09:33","新北市永和區民生路21號","121.522881666667","24.998895","6500400","永和區"
"234012","KEA-2591","2018/01/20 13:09:28","新北市永和區保福路二段55號","121.510826666667","25.0121316666667","6500400","永和區"
"234060","AAD-866","2018/01/20 13:09:26","新北市永和區秀朗路一段62號","121.51516","25.00648","6500400","永和區"
"234040","862-TW","2018/01/20 13:09:29","新北市永和區保平路93巷7號","121.51189","25.0065566666667","6500400","永和區"
"234048","863-TW","2018/01/20 13:09:33","新北市永和區仁愛路104巷7弄62號","121.510768333333","25.0141916666667","6500400","永和區"
"234025","9371-KE","2018/01/20 13:09:27","新北市永和區秀朗路一段10巷19號","121.51348","25.00621","6500400","永和區"
"234010","9373-KE","2018/01/20 13:09:33","新北市永和區仁愛路31巷2弄14號","121.513508333333","25.0129183333333","6500400","永和區"
"248017","225-UY","2018/01/20 13:09:33","新北市五股區成泰路三段101-1號","121.44425","25.09023","6501500","五股區"
"234022","9380-KE","2018/01/20 13:09:38","新北市永和區竹林路75巷15-2號","121.519691666667","25.0137066666667","6500400","永和區"
"234076","969-R7","2018/01/20 13:09:38","新北市永和區民光街1號","121.51527","24.9964983333333","6500400","永和區"
"234072","AAC-211","2018/01/20 13:09:38","新北市永和區竹林路199-1號","121.520626666667","25.009085","6500400","永和區"
"234066","AAC-212","2018/01/20 13:09:37","新北市永和區永和路一段95號","121.513486666667","25.0076233333333","6500400","永和區"
"234001","AAC-295","2018/01/20 13:09:38","新北市永和區永和路二段8號","121.514551666667","25.0100966666667","6500400","永和區"
"231029","001-UM","2018/01/20 13:09:40","新北市新店區安華路28-1號","121.519511666667","24.960855","6500600","新店區"
"231002","002-UM","2018/01/20 13:09:28","新北市新店區安華路28-1號","121.519715","24.9608","6500600","新店區"
"231025","0291-UT","2018/01/20 13:09:44","新北市新店區安康路一段186號","121.524933333333","24.9632833333333","6500600","新店區"
"231028","046-UY","2018/01/20 13:09:25","新北市新店區安華路28-1號","121.519615","24.9609116666667","6500600","新店區"
"231030","047-UY","2018/01/20 13:09:28","新北市新店區安華路28-1號","121.519271666667","24.9609416666667","6500600","新店區"
"231018","107-UY","2018/01/20 13:09:34","新北市新店區安華路28-1號","121.51934","24.9612533333333","6500600","新店區"
"231012","108-UY","2018/01/20 13:09:24","新北市新店區安華路28-1號","121.519565","24.9610083333333","6500600","新店區"
"231020","188-VK","2018/01/20 13:09:35","新北市新店區安華路28-1號","121.51913","24.9611883333333","6500600","新店區"
"231026","256-BX","2018/01/20 13:09:29","新北市新店區安華路28-1號","121.519848333333","24.9611316666667","6500600","新店區"
"231010","278-BY","2018/01/20 13:09:22","新北市新店區安華路28-1號","121.519191666667","24.96109","6500600","新店區"
"231023","AAD-862","2018/01/20 13:09:38","新北市新店區安華路28-1號","121.519681666667","24.9612266666667","6500600","新店區"
"231027","3712-VJ","2018/01/20 13:09:25","新北市新店區安華路28-1號","121.519328333333","24.9606783333333","6500600","新店區"
"231024","4716-K9","2018/01/20 13:09:39","新北市新店區安華路28-1號","121.51966","24.961115","6500600","新店區"
"231038","4715-K9","2018/01/20 13:09:45","新北市新店區安華路28-1號","121.519345","24.9605966666667","6500600","新店區"
"231036","512-UM","2018/01/20 13:09:35","新北市新店區安華路28-1號","121.519341666667","24.9613566666667","6500600","新店區"
"231035","515-UM","2018/01/20 13:09:43","新北市新店區安華路28-1號","121.519823333333","24.9610866666667","6500600","新店區"
"231003","616-UM","2018/01/20 13:09:27","新北市新店區安華路28-1號","121.519435","24.9605433333333","6500600","新店區"
"231006","617-UM","2018/01/20 13:07:33","新北市新店區安華路28-1號","121.519496666667","24.96092","6500600","新店區"
"231001","619-UM","2018/01/20 13:09:42","新北市新店區安華路28-1號","121.519478333333","24.9609666666667","6500600","新店區"
"231034","645-TV","2018/01/20 13:09:40","新北市新店區安華路28-1號","121.519305","24.9607233333333","6500600","新店區"
"231013","719-UM","2018/01/20 13:09:32","新北市新店區安康路一段355-3號","121.519635","24.9615916666667","6500600","新店區"
"231033","720-UM","2018/01/20 13:09:26","新北市新店區安華路28-1號","121.519336666667","24.9611183333333","6500600","新店區"
"231004","899-TW","2018/01/20 13:09:42","新北市新店區安華路28-1號","121.519288333333","24.960955","6500600","新店區"
"231037","AKT-0513","2018/01/20 13:09:33","新北市新店區安華路1-1號","121.519415","24.9605366666667","6500600","新店區"
"235030","003-UY","2018/01/20 13:09:37","新北市中和區圓通路172號","121.497263333333","24.994575","6500300","中和區"
"235028","005-UY","2018/01/20 13:09:33","新北市中和區中正路395號","121.489953333333","24.99357","6500300","中和區"
"235027","006-UY","2018/01/20 13:09:36","新北市中和區員山路36巷16-3號","121.484961666667","24.9913","6500300","中和區"
"235003","097-UM","2018/01/20 13:09:44","新北市中和區員山路36巷16-2號","121.485383333333","24.991675","6500300","中和區"
"235029","098-UM","2018/01/20 13:09:44","新北市中和區福祥路58號","121.499305","25.00471","6500300","中和區"
"235004","150-BY","2018/01/20 13:09:44","新北市中和區中正路358號","121.493755","24.99395","6500300","中和區"
"235022","151-BY","2018/01/20 13:09:38","新北市中和區圓通路367巷33弄15號","121.495008333333","24.98522","6500300","中和區"
"235002","185-VK","2018/01/20 13:09:39","新北市中和區大智街15號","121.519883333333","24.9919483333333","6500300","中和區"
"235031","255-BX","2018/01/20 13:09:46","新北市中和區新生街177巷7號","121.484185","25.000825","6500300","中和區"
"235007","352-BY","2018/01/20 13:09:44","新北市中和區錦和路350-1號","121.490541666667","24.9935516666667","6500300","中和區"
"235032","377-QA","2018/01/20 13:09:35","新北市中和區員山路36巷16-2號","121.485433333333","24.991235","6500300","中和區"
"235025","378-QA","2018/01/20 13:09:28","新北市中和區連城路607號","121.478415","24.9930816666667","6500300","中和區"
"235014","4979-A6","2018/01/20 13:09:24","新北市中和區員山路36巷16-3號","121.484998333333","24.9913783333333","6500300","中和區"
"235033","4980-A6","2018/01/20 13:09:34","新北市中和區圓通路295-6號","121.49502","24.991535","6500300","中和區"
"235006","551-UM","2018/01/20 13:09:35","新北市中和區景新街279號","121.50946","24.9935066666667","6500300","中和區"
"235034","558-UM","2018/01/20 13:08:19","新北市中和區員山路36巷16-2號","121.485456666667","24.9913216666667","6500300","中和區"
"235018","640-BX","2018/01/20 13:09:45","新北市土城區金城路三段259-1號","121.47196","24.990115","6500300","中和區"
"235026","800-TS","2018/01/20 13:09:37","新北市中和區建八路1號","121.485588333333","24.9986566666667","6500300","中和區"
"235021","801-TS","2018/01/20 13:09:28","新北市中和區員山路36巷16-3號","121.484875","24.9917783333333","6500300","中和區"
"235005","802-TS","2018/01/20 13:09:29","新北市中和區建八路1號","121.485581666667","24.9987383333333","6500300","中和區"
"235017","900-TW","2018/01/20 13:09:25","新北市中和區員山路36巷16-2號","121.485041666667","24.9919316666667","6500300","中和區"
"235015","157-BY","2018/01/20 13:09:38","新北市中和區南山路148號","121.5042","24.9922166666667","6500300","中和區"
"235001","AAC-213","2018/01/20 13:09:36","新北市中和區景平路149號","121.51389","24.99216","6500300","中和區"
"220034","073-UY","2018/01/20 12:48:24","新北市板橋區華東街1-10號","121.448266666667","24.9950866666667","6500100","板橋區"
"235035","251-BX","2018/01/20 13:09:43","新北市中和區橋和路81號","121.48945","25.0052416666667","6500300","中和區"
"228005","097-TW","2018/01/20 13:09:27","新北市貢寮區仁理村仁和路200號","121.923533333333","25.0528516666667","6502600","貢寮區"
"228004","212-TW","2018/01/20 13:09:34","新北市貢寮區吉林里內寮街71號","121.89246","24.9732233333333","6502600","貢寮區"
"253003","6232-TK","2018/01/20 13:09:31","新北市石門區石崩山23號","121.566676666667","25.278025","6502200","石門區"
"253001","6251-TK","2018/01/20 13:09:25","新北市石門區老梅路43-2號","121.545356666667","25.2896266666667","6502200","石門區"
"253002","637-UY","2018/01/20 13:09:33","新北市石門區老崩山31號","121.557683333333","25.2769033333333","6502200","石門區"
"253004","8270-PC","2018/01/20 13:09:35","新北市石門區阿里磅1號","121.591208333333","25.2909666666667","6502200","石門區"
"208004","AAC-292","2018/01/20 13:09:33","新北市金山區環金路353號","121.629998333333","25.2234366666667","6502700","金山區"
"207002","749-BX","2018/01/20 13:09:36","新北市萬里區崁腳里內崁路9號","121.644596666667","25.159125","6502800","萬里區"
"252005","073-UM","2018/01/20 13:09:44","新北市三芝區埔坪里埔頭坑169號","121.504975","25.2518166666667","6502100","三芝區"
"207001","662-BX","2018/01/20 13:09:34","新北市萬里區萬里里獅頭路22-1號","121.693031666667","25.1782866666667","6502800","萬里區"
"236006","498-BY","2018/01/20 13:09:32","新北市土城區亞洲路53號","121.433408333333","24.9713416666667","6501300","土城區"
"242046","172-VK","2018/01/20 13:09:32","新北市新莊區泰順街33巷2號","121.446181666667","25.042535","6500500","新莊區"
