"lineid","car","time","location","longitude","latitude","cityid","cityname"
"234044","148-BY","2018/01/20 13:19:32","新北市永和區得和路326號","121.523206666667","24.9995866666667","6500400","永和區"
"234005","207-UY","2018/01/20 13:19:42","新北市永和區中山路一段326號","121.506231666667","25.0066533333333","6500400","永和區"
"234078","298-R6","2018/01/20 13:19:38","新北市永和區福和路7巷14弄2號","121.525471666667","25.0072216666667","6500400","永和區"
"234036","336-UY","2018/01/20 13:19:42","新北市永和區民樂街55巷2號","121.527461666667","24.9984216666667","6500400","永和區"
"234062","337-UY","2018/01/20 13:19:38","新北市永和區永元路17巷6弄1號","121.521435","25.0009366666667","6500400","永和區"
"234084","338-UY","2018/01/20 13:19:39","新北市永和區永亨路11號","121.519383333333","25.00594","6500400","永和區"
"234068","552-UM","2018/01/20 13:19:39","新北市永和區豫溪街84號","121.518118333333","25.0099766666667","6500400","永和區"
"234052","553-UM","2018/01/20 13:19:41","新北市永和區中興街43號","121.516363333333","25.011805","6500400","永和區"
"234015","745-BX","2018/01/20 13:19:26","新北市永和區文化路144巷31弄6-1號","121.512511666667","25.0167816666667","6500400","永和區"
"234028","746-BX","2018/01/20 13:19:34","新北市永和區厚德街46號","121.525076666667","24.99875","6500400","永和區"
"234012","KEA-2591","2018/01/20 13:19:48","新北市永和區信義路23號","121.513805","25.0122366666667","6500400","永和區"
"234060","AAD-866","2018/01/20 13:19:32","新北市永和區永貞路176號","121.516633333333","25.0042633333333","6500400","永和區"
"234040","862-TW","2018/01/20 13:19:28","新北市永和區保平路151巷6弄11號","121.509868333333","25.0049816666667","6500400","永和區"
"234048","863-TW","2018/01/20 13:19:33","新北市永和區保福路二段88巷17號","121.511455","25.0137133333333","6500400","永和區"
"234025","9371-KE","2018/01/20 13:19:27","新北市永和區中正路631號","121.515473333333","25.00991","6500400","永和區"
"234010","9373-KE","2018/01/20 13:19:33","新北市永和區文化路144巷33號","121.512596666667","25.0168083333333","6500400","永和區"
"248017","225-UY","2018/01/20 13:19:33","新北市五股區御史路160號","121.429701666667","25.1030116666667","6501500","五股區"
"234022","9380-KE","2018/01/20 13:19:45","新北市永和區竹林路124巷40號","121.518021666667","25.01125","6500400","永和區"
"234076","969-R7","2018/01/20 13:19:38","新北市永和區民有街69號","121.517843333333","24.99572","6500400","永和區"
"234072","AAC-211","2018/01/20 13:19:32","新北市永和區竹林路35號","121.517778333333","25.0143666666667","6500400","永和區"
"234066","AAC-212","2018/01/20 13:19:37","新北市永和區保平路44號","121.51138","25.0071916666667","6500400","永和區"
"234001","AAC-295","2018/01/20 13:19:38","新北市永和區保福路一段64號","121.512626666667","25.0097266666667","6500400","永和區"
"231029","001-UM","2018/01/20 13:19:40","新北市新店區安華路28-1號","121.519515","24.960985","6500600","新店區"
"231002","002-UM","2018/01/20 13:19:28","新北市新店區安華路28-1號","121.519695","24.9607683333333","6500600","新店區"
"231025","0291-UT","2018/01/20 13:19:44","新北市新店區中央五街40號","121.528393333333","24.974945","6500600","新店區"
"231028","046-UY","2018/01/20 13:19:45","新北市新店區安華路28-1號","121.51964","24.960975","6500600","新店區"
"231030","047-UY","2018/01/20 13:19:28","新北市新店區安華路28-1號","121.51922","24.960865","6500600","新店區"
"231018","107-UY","2018/01/20 13:19:34","新北市新店區安康路一段226號","121.523646666667","24.963615","6500600","新店區"
"231012","108-UY","2018/01/20 13:19:43","新北市新店區安康路一段17號","121.533203333333","24.9604033333333","6500600","新店區"
"231020","188-VK","2018/01/20 13:19:35","新北市新店區光明街9號","121.538111666667","24.95928","6500600","新店區"
"231017","KEA-2219","2018/01/20 13:19:44","新北市新店區安華路28-1號","121.519918333333","24.9612683333333","6500600","新店區"
"231026","256-BX","2018/01/20 13:19:29","新北市新店區安華路28-1號","121.519983333333","24.9611716666667","6500600","新店區"
"231010","278-BY","2018/01/20 13:19:42","新北市新店區溪洲路55號","121.533475","24.960515","6500600","新店區"
"231023","AAD-862","2018/01/20 13:19:38","新北市新店區安康路一段355-3號","121.519781666667","24.9619366666667","6500600","新店區"
"231027","3712-VJ","2018/01/20 13:19:45","新北市新店區環河路1-1號","121.537805","24.961455","6500600","新店區"
"231024","4716-K9","2018/01/20 13:19:39","新北市新店區秀山路14號","121.532695","24.9603516666667","6500600","新店區"
"231038","4715-K9","2018/01/20 13:19:26","新北市新店區安華路28-1號","121.519315","24.960565","6500600","新店區"
"231036","512-UM","2018/01/20 13:19:35","新北市新店區安豐路49號","121.500053333333","24.95407","6500600","新店區"
"231035","515-UM","2018/01/20 13:19:43","新北市新店區安華路28-1號","121.519513333333","24.961165","6500600","新店區"
"231003","616-UM","2018/01/20 13:19:27","新北市新店區安華路30巷1號","121.519431666667","24.9596833333333","6500600","新店區"
"231006","617-UM","2018/01/20 13:19:40","新北市新店區安華路28-1號","121.519456666667","24.9610166666667","6500600","新店區"
"231001","619-UM","2018/01/20 13:19:42","新北市新店區安華路28-1號","121.519521666667","24.9608633333333","6500600","新店區"
"231034","645-TV","2018/01/20 13:19:40","新北市新店區安華路28-1號","121.519305","24.9607033333333","6500600","新店區"
"231013","719-UM","2018/01/20 13:19:32","新北市新店區安康路一段156號","121.526261666667","24.9629966666667","6500600","新店區"
"231033","720-UM","2018/01/20 13:19:26","新北市新店區安華路16號","121.517006666667","24.9581333333333","6500600","新店區"
"231005","897-TW","2018/01/20 13:19:42","新北市新店區光明街209號","121.539938333333","24.9638366666667","6500600","新店區"
"231004","899-TW","2018/01/20 13:19:42","新北市新店區安華路28-1號","121.519328333333","24.9609266666667","6500600","新店區"
"231037","AKT-0513","2018/01/20 13:19:33","新北市新店區安華路28-1號","121.51956","24.96052","6500600","新店區"
"235030","003-UY","2018/01/20 13:19:37","新北市中和區中山路二段64巷14弄1號","121.503466666667","25.0055666666667","6500300","中和區"
"235028","005-UY","2018/01/20 13:19:33","新北市中和區中興街118巷8號","121.499913333333","24.9936266666667","6500300","中和區"
"235027","006-UY","2018/01/20 13:19:36","新北市中和區中正路637巷60弄61號","121.48539","24.9928666666667","6500300","中和區"
"235020","096-UM","2018/01/20 13:19:40","新北市中和區員山路36巷16號","121.48435","24.9915516666667","6500300","中和區"
"235003","097-UM","2018/01/20 13:19:44","新北市中和區景安路102號","121.505478333333","24.9955133333333","6500300","中和區"
"235029","098-UM","2018/01/20 13:19:36","新北市中和區莊敬路49巷20弄22號","121.502761666667","25.005855","6500300","中和區"
"235004","150-BY","2018/01/20 13:19:24","新北市中和區保健路50巷66號","121.509276666667","24.9951766666667","6500300","中和區"
"235022","151-BY","2018/01/20 13:19:38","新北市中和區圓通路367巷57弄6號","121.492933333333","24.98367","6500300","中和區"
"235019","183-VK","2018/01/20 13:19:42","新北市中和區中正路637巷60弄61號","121.485473333333","24.9930333333333","6500300","中和區"
"235002","185-VK","2018/01/20 13:19:39","新北市中和區秀朗路三段128巷7弄7號","121.524265","24.99267","6500300","中和區"
"235013","186-VK","2018/01/20 13:19:39","新北市中和區員山路36巷13號","121.484278333333","24.99084","6500300","中和區"
"235031","255-BX","2018/01/20 13:19:26","新北市中和區員山路146巷19號","121.482501666667","24.9968583333333","6500300","中和區"
"235036","301-VK","2018/01/20 13:19:28","新北市中和區錦和路107號","121.490148333333","24.9952166666667","6500300","中和區"
"235007","352-BY","2018/01/20 13:19:44","新北市中和區景平路377號","121.504123333333","24.9934866666667","6500300","中和區"
"235032","377-QA","2018/01/20 13:19:35","新北市中和區員山路36巷16-2號","121.48529","24.9912083333333","6500300","中和區"
"235025","378-QA","2018/01/20 13:19:28","新北市中和區國光街215巷24弄4號","121.466698333333","25.0001833333333","6500300","中和區"
"235014","4979-A6","2018/01/20 13:19:44","新北市中和區捷運路129號","121.507061666667","24.9908133333333","6500300","中和區"
"235033","4980-A6","2018/01/20 13:19:34","新北市中和區連城路125號","121.49618","24.9991366666667","6500300","中和區"
"235006","551-UM","2018/01/20 13:19:35","新北市中和區大仁街20巷25弄19號","121.518603333333","24.99359","6500300","中和區"
"235034","558-UM","2018/01/20 13:13:39","新北市中和區中正路291號","121.493366666667","24.9935916666667","6500300","中和區"
"235009","565-BX","2018/01/20 13:19:40","新北市中和區復興路310號","121.501141666667","24.990325","6500300","中和區"
"235018","640-BX","2018/01/20 13:19:25","新北市中和區民德路163號","121.468603333333","24.9996683333333","6500300","中和區"
"235024","647-TV","2018/01/20 13:19:26","新北市中和區員山路36巷16-3號","121.48489","24.9917316666667","6500300","中和區"
"235011","732-UM","2018/01/20 13:19:29","新北市中和區建八路1號","121.485685","24.9987383333333","6500300","中和區"
"235026","800-TS","2018/01/20 13:19:37","新北市中和區景平路999巷2號","121.495421666667","25.0060083333333","6500300","中和區"
"235021","801-TS","2018/01/20 13:19:28","新北市中和區員山路36巷13號","121.484205","24.9907666666667","6500300","中和區"
"235005","802-TS","2018/01/20 13:19:29","新北市中和區景安路123號","121.505716666667","24.9961833333333","6500300","中和區"
"235012","896-TW","2018/01/20 13:19:26","新北市中和區中正路395號","121.489853333333","24.9936166666667","6500300","中和區"
"235017","900-TW","2018/01/20 13:19:25","新北市中和區員山路36巷16-2號","121.484981666667","24.9918883333333","6500300","中和區"
"235015","157-BY","2018/01/20 13:19:38","新北市中和區忠孝街39-1號","121.511493333333","24.9836783333333","6500300","中和區"
"235001","AAC-213","2018/01/20 13:19:36","新北市中和區景平路89號","121.51772","24.9915366666667","6500300","中和區"
"235023","AAC-215","2018/01/20 13:19:32","新北市中和區員山路36巷16-3號","121.484993333333","24.991335","6500300","中和區"
"235035","251-BX","2018/01/20 13:19:43","新北市中和區永和路460號","121.483833333333","25.0119766666667","6500300","中和區"
"228005","097-TW","2018/01/20 13:19:27","新北市貢寮區美豐里丹裡街38號","121.909033333333","25.06001","6502600","貢寮區"
"228004","212-TW","2018/01/20 13:19:14","新北市貢寮區吉林里內寮街21號","121.900706666667","24.9823666666667","6502600","貢寮區"
"253003","6232-TK","2018/01/20 13:19:31","新北市石門區內石門50-1號","121.571998333333","25.261815","6502200","石門區"
"253001","6251-TK","2018/01/20 13:19:25","新北市石門區楓林11號","121.53712","25.29479","6502200","石門區"
"253002","637-UY","2018/01/20 13:19:33","新北市石門區大溪墘97-1號","121.55383","25.2747733333333","6502200","石門區"
"253004","8270-PC","2018/01/20 13:19:35","新北市石門區草埔尾5號","121.602086666667","25.2788766666667","6502200","石門區"
"208004","AAC-292","2018/01/20 13:19:33","新北市金山區南勢湖92號","121.605491666667","25.2094383333333","6502700","金山區"
"207002","749-BX","2018/01/20 13:19:36","新北市萬里區崁腳里崁腳路166號","121.645068333333","25.1558883333333","6502800","萬里區"
"252005","073-UM","2018/01/20 13:19:44","新北市三芝區八賢里八連溪24號","121.5114","25.2400716666667","6502100","三芝區"
"207001","662-BX","2018/01/20 13:19:34","新北市萬里區龜吼里光宇一路5號","121.679741666667","25.1905716666667","6502800","萬里區"
"236006","498-BY","2018/01/20 13:19:32","新北市土城區亞洲路11巷3弄3號","121.435391666667","24.97134","6501300","土城區"
"242046","172-VK","2018/01/20 13:19:32","新北市新莊區復興路一段29號","121.446265","25.0418333333333","6500500","新莊區"
"220028","200-UY","2018/01/20 13:19:32","新北市板橋區華東街1-9號","121.448085","24.994865","6500100","板橋區"
