"lineid","car","time","location","longitude","latitude","cityid","cityname"
"234044","148-BY","2018/01/20 13:29:35","新北市永和區秀朗路二段231號","121.526516666667","25.0002333333333","6500400","永和區"
"234005","207-UY","2018/01/20 13:29:42","新北市永和區中山路一段106號","121.510963333333","25.0104133333333","6500400","永和區"
"234078","298-R6","2018/01/20 13:29:45","新北市永和區福和路7巷15弄20號","121.526155","25.00734","6500400","永和區"
"234036","336-UY","2018/01/20 13:29:44","新北市永和區民樂街38號","121.527473333333","25.0007166666667","6500400","永和區"
"234062","337-UY","2018/01/20 13:29:38","新北市永和區中正路368巷1弄88號","121.520476666667","25.0007066666667","6500400","永和區"
"234084","338-UY","2018/01/20 13:29:39","新北市永和區林森路65號","121.524093333333","25.0041066666667","6500400","永和區"
"234068","552-UM","2018/01/20 13:29:39","新北市永和區警光街5-1號","121.519726666667","25.0095166666667","6500400","永和區"
"234052","553-UM","2018/01/20 13:29:41","新北市永和區復興街19巷5號","121.516046666667","25.0130666666667","6500400","永和區"
"234015","745-BX","2018/01/20 13:29:47","新北市永和區環河西路一段87-1號","121.512521666667","25.0180066666667","6500400","永和區"
"234028","746-BX","2018/01/20 13:29:33","新北市永和區民生路69號","121.522635","24.9972133333333","6500400","永和區"
"234012","KEA-2591","2018/01/20 13:29:28","新北市永和區中山路一段184巷9弄19號","121.508306666667","25.0089983333333","6500400","永和區"
"234060","AAD-866","2018/01/20 13:29:46","新北市永和區永貞路210號","121.515513333333","25.0042183333333","6500400","永和區"
"234040","862-TW","2018/01/20 13:29:31","新北市永和區水源街39巷28號","121.51066","25.00315","6500400","永和區"
"234048","863-TW","2018/01/20 13:29:33","新北市永和區信義路126號","121.512401666667","25.0148316666667","6500400","永和區"
"234025","9371-KE","2018/01/20 13:29:27","新北市永和區中正路736號","121.515266666667","25.0101783333333","6500400","永和區"
"234010","9373-KE","2018/01/20 13:29:33","新北市永和區仁愛路141巷5弄6號","121.511911666667","25.0121466666667","6500400","永和區"
"248017","225-UY","2018/01/20 13:29:33","新北市五股區民義路二段52巷27號","121.410641666667","25.1131466666667","6501500","五股區"
"234022","9380-KE","2018/01/20 13:29:38","新北市永和區竹林路91巷21弄9號","121.52086","25.01253","6500400","永和區"
"234076","969-R7","2018/01/20 13:29:38","新北市永和區智光街28號","121.517895","24.998905","6500400","永和區"
"234072","AAC-211","2018/01/20 13:29:32","新北市永和區永和路二段103號","121.514933333333","25.0117833333333","6500400","永和區"
"234066","AAC-212","2018/01/20 13:29:37","新北市永和區保平路176號","121.51078","25.00666","6500400","永和區"
"234001","AAC-295","2018/01/20 13:29:38","新北市永和區自強街2號","121.513996666667","25.00801","6500400","永和區"
"231029","001-UM","2018/01/20 13:29:40","新北市新店區安豐路48號","121.500301666667","24.9541533333333","6500600","新店區"
"231002","002-UM","2018/01/20 13:29:28","新北市新店區環河路62號","121.537205","24.9626633333333","6500600","新店區"
"231025","0291-UT","2018/01/20 13:29:44","新北市新店區中央七街61巷16號","121.528865","24.9761966666667","6500600","新店區"
"231028","046-UY","2018/01/20 13:29:25","新北市新店區安康路一段355-3號","121.51979","24.962225","6500600","新店區"
"231030","047-UY","2018/01/20 13:29:28","新北市新店區安康路一段351-1號","121.519625","24.9639","6500600","新店區"
"231018","107-UY","2018/01/20 13:29:34","新北市新店區中央路167-3號","121.533455","24.9702383333333","6500600","新店區"
"231012","108-UY","2018/01/20 13:29:43","新北市新店區德正街11號","121.543585","24.9730883333333","6500600","新店區"
"231020","188-VK","2018/01/20 13:29:35","新北市新店區永興路88-1號","121.543985","24.93375","6500600","新店區"
"231017","KEA-2219","2018/01/20 13:29:24","新北市新店區新烏路一段8號","121.547218333333","24.9517033333333","6500600","新店區"
"231026","256-BX","2018/01/20 13:29:29","新北市新店區溪洲路55號","121.53326","24.9604916666667","6500600","新店區"
"231010","278-BY","2018/01/20 13:29:42","新北市新店區自由街11號","121.535426666667","24.974985","6500600","新店區"
"231023","AAD-862","2018/01/20 13:29:38","新北市新店區北宜路一段154號","121.540318333333","24.9536633333333","6500600","新店區"
"231027","3712-VJ","2018/01/20 13:29:45","新北市新店區新店後街50號","121.537841666667","24.9538316666667","6500600","新店區"
"231024","4716-K9","2018/01/20 13:29:39","新北市新店區中正路128巷11號","121.542573333333","24.972075","6500600","新店區"
"231038","4715-K9","2018/01/20 13:29:46","新北市新店區安華路30巷1號","121.519595","24.95928","6500600","新店區"
"231036","512-UM","2018/01/20 13:29:35","新北市新店區建業路96號","121.479695","24.9553816666667","6500600","新店區"
"231035","515-UM","2018/01/20 13:29:43","新北市新店區安忠路8-1號","121.514728333333","24.963155","6500600","新店區"
"231003","616-UM","2018/01/20 13:29:27","新北市新店區力行路11巷57號","121.538591666667","24.9617383333333","6500600","新店區"
"231006","617-UM","2018/01/20 13:29:40","新北市新店區安康路一段11號","121.533273333333","24.960455","6500600","新店區"
"231001","619-UM","2018/01/20 13:29:22","新北市新店區環河路116號","121.536916666667","24.9674366666667","6500600","新店區"
"231034","645-TV","2018/01/20 13:29:40","新北市新店區車子路114號","121.505343333333","24.9535283333333","6500600","新店區"
"231013","719-UM","2018/01/20 13:29:32","新北市新店區中正路460號","121.534101666667","24.9791716666667","6500600","新店區"
"231033","720-UM","2018/01/20 13:29:46","新北市新店區安康路一段230-3號","121.522433333333","24.963755","6500600","新店區"
"231005","897-TW","2018/01/20 13:29:42","新北市新店區寶橋路97號","121.547118333333","24.9762983333333","6500600","新店區"
"231004","899-TW","2018/01/20 13:29:42","新北市新店區安康路一段122-1號","121.526923333333","24.9626733333333","6500600","新店區"
"231037","AKT-0513","2018/01/20 13:29:33","新北市新店區安康路二段382號","121.500511666667","24.95708","6500600","新店區"
"235030","003-UY","2018/01/20 13:29:37","新北市中和區中山路二段120號","121.502733333333","25.0037333333333","6500300","中和區"
"235028","005-UY","2018/01/20 13:29:33","新北市中和區圓通路145巷9弄3號","121.498671666667","24.9946433333333","6500300","中和區"
"235027","006-UY","2018/01/20 13:29:36","新北市中和區連城路347巷4弄1-3號","121.488273333333","24.9954933333333","6500300","中和區"
"235020","096-UM","2018/01/20 13:29:40","新北市中和區新民街5號","121.482421666667","25.0058483333333","6500300","中和區"
"235003","097-UM","2018/01/20 13:29:24","新北市中和區景平路172號","121.51707","24.9926566666667","6500300","中和區"
"235029","098-UM","2018/01/20 13:29:16","新北市中和區莊敬路49巷13號","121.501348333333","25.0055633333333","6500300","中和區"
"235004","150-BY","2018/01/20 13:29:44","新北市中和區安平路59號","121.509413333333","24.995165","6500300","中和區"
"235022","151-BY","2018/01/20 13:29:38","新北市中和區圓通路369巷156弄36號","121.489083333333","24.981945","6500300","中和區"
"235019","183-VK","2018/01/20 13:29:42","新北市中和區民享街283號","121.470953333333","24.9958833333333","6500300","中和區"
"235002","185-VK","2018/01/20 13:29:39","新北市中和區立人街14巷40弄7號","121.519028333333","24.99579","6500300","中和區"
"235013","186-VK","2018/01/20 13:29:39","新北市中和區景安路100號","121.505406666667","24.9955883333333","6500300","中和區"
"235031","255-BX","2018/01/20 13:29:26","新北市中和區新生街242巷11弄6號","121.4829","24.997595","6500300","中和區"
"235008","293-VK","2018/01/20 13:29:30","新北市中和區復興路301巷15號","121.501501666667","24.98977","6500300","中和區"
"235036","301-VK","2018/01/20 13:29:28","新北市中和區連城路261-2號","121.492401666667","24.9966933333333","6500300","中和區"
"235007","352-BY","2018/01/20 13:29:43","新北市中和區景平路321號","121.506056666667","24.9933083333333","6500300","中和區"
"235032","377-QA","2018/01/20 13:28:35","新北市中和區圓通路238號","121.494826666667","24.9925866666667","6500300","中和區"
"235025","378-QA","2018/01/20 13:29:28","新北市中和區民享街97巷22號","121.475278333333","25.000005","6500300","中和區"
"235014","4979-A6","2018/01/20 13:29:44","新北市中和區景新街362巷10號","121.511918333333","24.990135","6500300","中和區"
"235033","4980-A6","2018/01/20 13:29:34","新北市中和區連城路99巷61號","121.497285","24.9984933333333","6500300","中和區"
"235006","551-UM","2018/01/20 13:29:35","新北市中和區自立路56巷24號","121.522353333333","24.9916583333333","6500300","中和區"
"235034","558-UM","2018/01/20 13:13:39","新北市中和區中正路291號","121.493366666667","24.9935916666667","6500300","中和區"
"235009","565-BX","2018/01/20 13:29:40","新北市中和區復興路18號","121.50553","24.989875","6500300","中和區"
"235018","640-BX","2018/01/20 13:29:45","新北市中和區民享街95-4號","121.474918333333","25.00001","6500300","中和區"
"235024","647-TV","2018/01/20 13:29:46","新北市中和區員山路149號","121.481106666667","24.9963216666667","6500300","中和區"
"235011","732-UM","2018/01/20 13:29:29","新北市中和區復興路261號","121.502885","24.99029","6500300","中和區"
"235026","800-TS","2018/01/20 13:29:37","新北市中和區景平路752號","121.496503333333","25.004465","6500300","中和區"
"235021","801-TS","2018/01/20 13:29:28","新北市中和區民安街148號","121.477855","24.9998333333333","6500300","中和區"
"235005","802-TS","2018/01/20 13:29:29","新北市中和區中和路324巷6弄2號","121.509706666667","25.000485","6500300","中和區"
"235016","805-TS","2018/01/20 13:29:24","新北市中和區興南路二段96號","121.504938333333","24.984225","6500300","中和區"
"235012","896-TW","2018/01/20 13:29:46","新北市中和區建八路1號","121.485755","24.9986583333333","6500300","中和區"
"235017","900-TW","2018/01/20 13:29:45","新北市中和區民享街469-1號","121.46985","24.992355","6500300","中和區"
"235015","157-BY","2018/01/20 13:29:38","新北市中和區興南路二段142巷20弄3號","121.502473333333","24.9846233333333","6500300","中和區"
"235001","AAC-213","2018/01/20 13:29:36","新北市中和區景德街95-11號","121.515106666667","24.9912083333333","6500300","中和區"
"235023","AAC-215","2018/01/20 13:29:32","新北市中和區員山路36巷16-3號","121.48504","24.991395","6500300","中和區"
"220034","073-UY","2018/01/20 13:29:31","新北市板橋區板城路407號","121.447458333333","24.9952683333333","6500100","板橋區"
"247015","057-VK","2018/01/20 13:29:40","新北市五股區中興路三段163號","121.449245","25.0804883333333","6501400","蘆洲區"
"235035","251-BX","2018/01/20 13:29:43","新北市中和區環中路136號","121.48204","25.01293","6500300","中和區"
"228005","097-TW","2018/01/20 13:29:46","新北市貢寮區美豐里文秀坑8號","121.902471666667","25.0503433333333","6502600","貢寮區"
"228004","212-TW","2018/01/20 13:29:34","新北市貢寮區龍崗里石壁坑街17號","121.910396666667","24.98953","6502600","貢寮區"
"253003","6232-TK","2018/01/20 13:29:31","新北市石門區內石門18-3號","121.573411666667","25.2746983333333","6502200","石門區"
"253001","6251-TK","2018/01/20 13:29:45","新北市石門區下員坑28-2號","121.51857","25.28007","6502200","石門區"
"253002","637-UY","2018/01/20 13:29:33","新北市石門區九芎林6-3號","121.561105","25.26699","6502200","石門區"
"253004","8270-PC","2018/01/20 13:29:35","新北市石門區阿里荖67號","121.609385","25.2728266666667","6502200","石門區"
"208004","AAC-292","2018/01/20 13:29:33","新北市金山區南勢湖69號","121.616541666667","25.2147983333333","6502700","金山區"
"207002","749-BX","2018/01/20 13:29:36","新北市萬里區崁腳里崁腳路166號","121.645186666667","25.1558733333333","6502800","萬里區"
"252005","073-UM","2018/01/20 13:29:44","新北市三芝區八賢里八連溪88號","121.520511666667","25.229265","6502100","三芝區"
"207001","662-BX","2018/01/20 13:29:34","新北市萬里區龜吼里翡翠路17號","121.683285","25.18783","6502800","萬里區"
"236006","498-BY","2018/01/20 13:29:32","新北市土城區慶祥街72號","121.436281666667","24.9736383333333","6501300","土城區"
"242046","172-VK","2018/01/20 13:29:32","新北市新莊區中平路202-1號","121.444833333333","25.0488733333333","6500500","新莊區"
"220027","145-BY","2018/01/20 13:29:43","新北市板橋區大觀路二段153巷46弄11號","121.449281666667","24.998355","6500100","板橋區"
"220028","200-UY","2018/01/20 13:29:32","新北市板橋區華東街1-9號","121.448111666667","24.9948966666667","6500100","板橋區"
"220030","610-BX","2018/01/20 13:29:33","新北市板橋區華東街1-10號","121.448301666667","24.9949166666667","6500100","板橋區"
"220032","296-UM","2018/01/20 13:29:34","新北市板橋區華東街1-9號","121.448138333333","24.9949566666667","6500100","板橋區"
"220023","303-R5","2018/01/20 13:29:35","新北市板橋區華東街1-10號","121.44825","24.994975","6500100","板橋區"
"220012","486-VK","2018/01/20 13:29:26","新北市板橋區華東街1-9號","121.448216666667","24.9949766666667","6500100","板橋區"
"220104","560-BX","2018/01/20 13:29:30","新北市板橋區南雅南路二段114號","121.453358333333","25.0007183333333","6500100","板橋區"
"220011","609-BX","2018/01/20 13:29:46","新北市板橋區民生路二段161巷1號","121.469951666667","25.0201066666667","6500100","板橋區"
"220003","630-UY","2018/01/20 13:29:41","新北市板橋區華東街1-9號","121.44815","24.9949583333333","6500100","板橋區"
"220005","686-BX","2018/01/20 13:29:35","新北市板橋區華東街1-9號","121.448235","24.9949383333333","6500100","板橋區"
"220025","687-BX","2018/01/20 13:29:44","新北市板橋區大觀路二段435-10號","121.445745","24.994195","6500100","板橋區"
"220022","895-R6","2018/01/20 13:29:38","新北市板橋區華東街1-10號","121.448236666667","24.995","6500100","板橋區"
