"lineid","car","time","location","longitude","latitude","cityid","cityname"
"234044","148-BY","2018/01/20 13:59:32","新北市永和區成功路一段77號","121.52692","25.0032183333333","6500400","永和區"
"234005","207-UY","2018/01/20 13:59:42","新北市中和區中和路302-1號","121.508845","24.99998","6500400","永和區"
"234078","298-R6","2018/01/20 13:59:43","新北市永和區國中路10號","121.524301666667","25.004765","6500400","永和區"
"234036","336-UY","2018/01/20 13:59:42","新北市永和區成功路二段185號","121.52665","24.99659","6500400","永和區"
"234062","337-UY","2018/01/20 13:59:38","新北市永和區中正路412巷20弄32號","121.5191","25.0012333333333","6500400","永和區"
"234084","338-UY","2018/01/20 13:59:40","新北市永和區福和路79號","121.522433333333","25.0079533333333","6500400","永和區"
"234068","552-UM","2018/01/20 13:59:39","新北市永和區國光路6號","121.519735","25.0084883333333","6500400","永和區"
"234052","553-UM","2018/01/20 13:59:41","新北市永和區竹林路39巷35-1號","121.520161666667","25.01529","6500400","永和區"
"234015","745-BX","2018/01/20 13:59:47","新北市永和區文化路146號","121.512586666667","25.015285","6500400","永和區"
"234028","746-BX","2018/01/20 13:58:14","新北市永和區四維街75號","121.52526","24.99786","6500400","永和區"
"234012","KEA-2591","2018/01/20 13:59:27","新北市永和區保生路55號","121.504726666667","25.010655","6500400","永和區"
"234060","AAD-866","2018/01/20 13:59:26","新北市永和區中正路129巷2號","121.515965","24.9979","6500400","永和區"
"234040","862-TW","2018/01/20 13:59:43","新北市永和區雙和街17巷21號","121.508971666667","25.001295","6500400","永和區"
"234048","863-TW","2018/01/20 13:59:33","新北市永和區保安路260號","121.506031666667","25.01243","6500400","永和區"
"234010","9373-KE","2018/01/20 13:59:33","新北市永和區仁愛路352巷112弄12號","121.50114","25.0085083333333","6500400","永和區"
"248017","225-UY","2018/01/20 13:59:33","新北市五股區民義路一段222號","121.4294","25.09067","6501500","五股區"
"234022","9380-KE","2018/01/20 13:59:37","新北市永和區復興街1巷6號","121.515845","25.012945","6500400","永和區"
"234076","969-R7","2018/01/20 13:59:38","新北市永和區民權路58巷2弄1號","121.51955","24.9983283333333","6500400","永和區"
"234072","AAC-211","2018/01/20 13:59:32","新北市永和區豫溪街136巷1號","121.521253333333","25.01037","6500400","永和區"
"234066","AAC-212","2018/01/20 13:59:37","新北市永和區永貞路358號","121.510188333333","25.00659","6500400","永和區"
"234001","AAC-295","2018/01/20 13:59:38","新北市永和區福和路316號","121.516038333333","25.0073716666667","6500400","永和區"
"231029","001-UM","2018/01/20 13:59:40","新北市新店區安康路二段78號","121.514178333333","24.96339","6500600","新店區"
"231002","002-UM","2018/01/20 13:59:28","新北市新店區中正路641號","121.53391","24.9895483333333","6500600","新店區"
"231025","0291-UT","2018/01/20 13:59:44","新北市新店區中正路273號","121.537738333333","24.9743083333333","6500600","新店區"
"231028","046-UY","2018/01/20 13:59:45","新北市新店區安和路三段124號","121.516726666667","24.98563","6500600","新店區"
"231030","047-UY","2018/01/20 13:59:28","新北市新店區安民街65巷21-2號","121.515156666667","24.967495","6500600","新店區"
"231018","107-UY","2018/01/20 13:59:34","新北市新店區中央路116號","121.531085","24.9751216666667","6500600","新店區"
"231012","108-UY","2018/01/20 13:59:43","新北市新店區中興路一段282-5號","121.546285","24.968175","6500600","新店區"
"231020","188-VK","2018/01/20 13:59:35","新北市新店區櫻花街150號","121.547538333333","24.9215833333333","6500600","新店區"
"231017","KEA-2219","2018/01/20 13:59:24","新北市新店區郵政路65號","121.555673333333","24.951515","6500600","新店區"
"231026","256-BX","2018/01/20 13:59:29","新北市新店區安康路一段35-1號","121.532116666667","24.9605566666667","6500600","新店區"
"231023","AAD-862","2018/01/20 13:59:38","新北市新店區文中路40號","121.539728333333","24.9565666666667","6500600","新店區"
"231027","3712-VJ","2018/01/20 13:59:25","新北市新店區中興路一段24號","121.538638333333","24.9584666666667","6500600","新店區"
"231024","4716-K9","2018/01/20 13:59:39","新北市新店區北新路一段271巷16號","121.54033","24.9670633333333","6500600","新店區"
"231038","4715-K9","2018/01/20 13:59:45","新北市新店區溪洲路121號","121.531285","24.9627233333333","6500600","新店區"
"231036","512-UM","2018/01/20 13:59:35","新北市新店區安祥路110巷51-1號","121.473506666667","24.9567","6500600","新店區"
"231035","515-UM","2018/01/20 13:59:43","新北市新店區安和路一段52巷2號","121.517651666667","24.9662433333333","6500600","新店區"
"231003","616-UM","2018/01/20 13:59:27","新北市新店區北宜路一段3號","121.538371666667","24.9586066666667","6500600","新店區"
"231006","617-UM","2018/01/20 13:59:40","新北市新店區北宜路二段207號","121.553123333333","24.9533116666667","6500600","新店區"
"231001","619-UM","2018/01/20 13:59:42","新北市新店區三民路45號","121.537125","24.9709516666667","6500600","新店區"
"231034","645-TV","2018/01/20 13:59:40","新北市新店區達觀路14巷2號","121.50351","24.941095","6500600","新店區"
"231013","719-UM","2018/01/20 13:59:32","新北市新店區明德路64號","121.54157","24.9794733333333","6500600","新店區"
"231033","720-UM","2018/01/20 13:59:46","新北市新店區太平路16號","121.533751666667","24.958295","6500600","新店區"
"231005","897-TW","2018/01/20 13:59:42","新北市新店區中興路三段247-1號","121.54279","24.9839416666667","6500600","新店區"
"231004","899-TW","2018/01/20 13:59:42","新北市新店區北新路二段165號","121.542885","24.9763233333333","6500600","新店區"
"231037","AKT-0513","2018/01/20 13:59:33","新北市新店區安康路三段207巷5號","121.487961666667","24.95103","6500600","新店區"
"235030","003-UY","2018/01/20 13:59:37","新北市中和區中山路二段131巷5弄4號","121.502925","25.00286","6500300","中和區"
"235028","005-UY","2018/01/20 13:59:33","新北市中和區景平路634-10號","121.498845","24.9998683333333","6500300","中和區"
"235027","006-UY","2018/01/20 13:59:36","新北市中和區中正路604號","121.485731666667","24.995395","6500300","中和區"
"235020","096-UM","2018/01/20 13:59:40","新北市中和區員山路514巷14弄1號","121.479818333333","25.0092833333333","6500300","中和區"
"235003","097-UM","2018/01/20 13:59:44","新北市中和區景平路64巷14弄15號","121.52274","24.9912833333333","6500300","中和區"
"235029","098-UM","2018/01/20 13:59:42","新北市中和區勝利路31號","121.498983333333","25.0079216666667","6500300","中和區"
"235004","150-BY","2018/01/20 13:59:44","新北市中和區安平路82號","121.511206666667","24.9967783333333","6500300","中和區"
"235022","151-BY","2018/01/20 13:59:38","新北市中和區連城路526-1號","121.475958333333","24.9915383333333","6500300","中和區"
"235019","183-VK","2018/01/20 13:59:42","新北市板橋區民族路310號","121.470736666667","25.00647","6500300","中和區"
"235002","185-VK","2018/01/20 13:59:39","新北市中和區立人街24-5號","121.518813333333","24.9942116666667","6500300","中和區"
"235013","186-VK","2018/01/20 13:59:39","新北市中和區景新街220號","121.507215","24.9950666666667","6500300","中和區"
"235031","255-BX","2018/01/20 13:59:26","新北市中和區新生街268號","121.48348","24.9971216666667","6500300","中和區"
"235008","293-VK","2018/01/20 13:59:30","新北市中和區中興街178號","121.499708333333","24.9910416666667","6500300","中和區"
"235036","301-VK","2018/01/20 13:59:28","新北市中和區中山路二段189號","121.500198333333","25.0027566666667","6500300","中和區"
"235007","352-BY","2018/01/20 13:59:43","新北市中和區秀朗路三段105號","121.52644","24.9947216666667","6500300","中和區"
"235032","377-QA","2018/01/20 13:59:35","新北市中和區圓通路208號","121.495901666667","24.99393","6500300","中和區"
"235025","378-QA","2018/01/20 13:59:28","新北市中和區民享街89巷9弄3號","121.474873333333","25.0020016666667","6500300","中和區"
"235014","4979-A6","2018/01/20 13:59:44","新北市中和區華新街50巷8號","121.507653333333","24.9839433333333","6500300","中和區"
"235033","4980-A6","2018/01/20 13:59:34","新北市中和區中和路217巷20號","121.504765","25.000465","6500300","中和區"
"235006","551-UM","2018/01/20 13:59:35","新北市中和區秀朗路三段50巷2弄8號","121.526115","24.9958833333333","6500300","中和區"
"235034","558-UM","2018/01/20 13:58:39","新北市中和區景新街57巷5號","121.50465","24.99912","6500300","中和區"
"235009","565-BX","2018/01/20 13:59:40","新北市中和區景新街467巷22號","121.514228333333","24.9882866666667","6500300","中和區"
"235018","640-BX","2018/01/20 13:59:44","新北市中和區民享街1號","121.473851666667","25.0058583333333","6500300","中和區"
"235024","647-TV","2018/01/20 13:59:46","新北市中和區中山路三段142號","121.47381","25.006305","6500300","中和區"
"235011","732-UM","2018/01/20 13:59:33","新北市中和區興南路二段74巷10號","121.505191666667","24.9848316666667","6500300","中和區"
"235010","733-UM","2018/01/20 13:59:43","新北市中和區興南路一段135巷20號","121.509211666667","24.9868366666667","6500300","中和區"
"235026","800-TS","2018/01/20 13:59:37","新北市中和區中山路二段342號","121.493568333333","25.002295","6500300","中和區"
"235021","801-TS","2018/01/20 13:59:28","新北市中和區民安街53號","121.479438333333","24.9998883333333","6500300","中和區"
"235005","802-TS","2018/01/20 13:59:29","新北市中和區中安街16號","121.513411666667","25.00325","6500300","中和區"
"235016","805-TS","2018/01/20 13:59:44","新北市中和區興南路二段261巷6-5號","121.502313333333","24.9794316666667","6500300","中和區"
"235012","896-TW","2018/01/20 13:59:26","新北市中和區華新街9號","121.507501666667","24.9851766666667","6500300","中和區"
"235017","900-TW","2018/01/20 13:59:46","新北市中和區壽德街18-1號","121.46606","24.9949366666667","6500300","中和區"
"235015","157-BY","2018/01/20 13:59:38","新北市中和區忠孝街13號","121.510013333333","24.9827766666667","6500300","中和區"
"235001","AAC-213","2018/01/20 13:59:36","新北市中和區自立路99巷4號","121.522395","24.9947616666667","6500300","中和區"
"235023","AAC-215","2018/01/20 13:59:32","新北市中和區圓通路367巷2號","121.491246666667","24.989375","6500300","中和區"
"220013","072-UY","2018/01/20 13:59:30","新北市板橋區漢生東路330-1號","121.471756666667","25.0077966666667","6500100","板橋區"
"220034","073-UY","2018/01/20 13:59:42","新北市板橋區中正路107號","121.456285","25.01482","6500100","板橋區"
"220105","075-UY","2018/01/20 13:59:42","新北市板橋區文化路二段124巷3號","121.470526666667","25.026055","6500100","板橋區"
"220017","AAD-861","2018/01/20 13:59:42","新北市板橋區華興街66號","121.457491666667","25.00496","6500100","板橋區"
"247019","500-BY","2018/01/20 13:59:39","新北市蘆洲區民族路422巷35-1號","121.47357","25.0937066666667","6501400","蘆洲區"
"247007","341-TH","2018/01/20 13:59:39","新北市蘆洲區中山一路6號","121.480945","25.0803416666667","6501400","蘆洲區"
"247009","339-TH","2018/01/20 13:59:34","新北市蘆洲區集賢路224巷12號","121.481943333333","25.0869616666667","6501400","蘆洲區"
"247001","337-TH","2018/01/20 13:59:31","新北市蘆洲區三民路605號","121.460603333333","25.0936683333333","6501400","蘆洲區"
"247003","336-TH","2018/01/20 13:59:45","新北市蘆洲區長榮路38-2號","121.46336","25.08253","6501400","蘆洲區"
"247015","057-VK","2018/01/20 13:59:40","新北市蘆洲區光華路22巷38號","121.468455","25.084825","6501400","蘆洲區"
"247005","056-VK","2018/01/20 13:59:37","新北市蘆洲區永安南路二段76號","121.464675","25.0781466666667","6501400","蘆洲區"
"247013","007-UY","2018/01/20 13:59:30","新北市蘆洲區中正路100號","121.46978","25.0843566666667","6501400","蘆洲區"
"247017","001-UY","2018/01/20 13:59:29","新北市蘆洲區民權路96巷15號","121.475523333333","25.0891783333333","6501400","蘆洲區"
"235035","251-BX","2018/01/20 13:59:43","新北市中和區建一路77號","121.487991666667","25.0030316666667","6500300","中和區"
"228005","097-TW","2018/01/20 13:52:27","新北市貢寮區美豐里雞母嶺街53-1號","121.888585","25.0688566666667","6502600","貢寮區"
"228004","212-TW","2018/01/20 13:59:34","新北市貢寮區龍崗里嵩陽街35-1號","121.906735","25.0175","6502600","貢寮區"
"253003","6232-TK","2018/01/20 13:59:31","新北市石門區尖子鹿19-2號","121.576325","25.276695","6502200","石門區"
"253001","6251-TK","2018/01/20 13:59:25","新北市石門區八甲53號","121.518948333333","25.275495","6502200","石門區"
"253002","637-UY","2018/01/20 13:56:53","新北市石門區尖山湖21號","121.556926666667","25.2485133333333","6502200","石門區"
"253004","8270-PC","2018/01/20 13:59:35","新北市石門區草埔尾29號","121.603378333333","25.264785","6502200","石門區"
"208004","AAC-292","2018/01/20 13:59:48","新北市金山區六股里頂六股2-1號","121.61414","25.2216533333333","6502700","金山區"
"207002","749-BX","2018/01/20 13:57:56","新北市萬里區溪底里烏塗炭9號","121.636773333333","25.1513166666667","6502800","萬里區"
"252005","073-UM","2018/01/20 13:59:44","新北市三芝區圓山里二坪頂67號","121.540731666667","25.2322816666667","6502100","三芝區"
"207001","662-BX","2018/01/20 13:59:34","新北市萬里區磺潭里清水4號","121.641513333333","25.2010566666667","6502800","萬里區"
"236068","105-UM","2018/01/20 13:59:25","新北市土城區和平路2號","121.442528333333","24.9748583333333","6501300","土城區"
"236041","107-UM","2018/01/20 13:59:30","新北市土城區城林路6巷80號","121.438471666667","24.97989","6501300","土城區"
"236075","166-UM","2018/01/20 13:59:23","新北市土城區永寧路32巷10弄3號","121.428853333333","24.961005","6501300","土城區"
"236029","253-BX","2018/01/20 13:59:28","新北市土城區城林路6巷80號","121.43842","24.9798033333333","6501300","土城區"
"236025","269-VK","2018/01/20 13:59:44","新北市土城區忠承路107號","121.437951666667","24.9644283333333","6501300","土城區"
"236013","270-VK","2018/01/20 13:59:43","新北市土城區城林路6巷80號","121.438553333333","24.9797183333333","6501300","土城區"
"236035","271-VK","2018/01/20 13:59:40","新北市土城區城林路6巷80號","121.438533333333","24.9796716666667","6501300","土城區"
"236017","401-BY","2018/01/20 13:59:42","新北市土城區城林路6巷80號","121.438588333333","24.9797633333333","6501300","土城區"
"236006","498-BY","2018/01/20 13:59:32","新北市土城區中華路一段36號","121.446548333333","24.989365","6501300","土城區"
"236057","912-UM","2018/01/20 13:59:25","新北市土城區大安路2號","121.432766666667","24.9655283333333","6501300","土城區"
"236045","913-UM","2018/01/20 13:59:42","新北市土城區中央路二段280號","121.440746666667","24.9739383333333","6501300","土城區"
"236061","915-UM","2018/01/20 13:59:31","新北市土城區城林路6巷80號","121.438463333333","24.9797633333333","6501300","土城區"
"236054","AAC-216","2018/01/20 13:59:24","新北市土城區城林路6巷80號","121.438405","24.9797966666667","6501300","土城區"
"242046","172-VK","2018/01/20 13:59:32","新北市新莊區環河路48-7號","121.436708333333","25.0098533333333","6500500","新莊區"
"220027","145-BY","2018/01/20 13:59:43","新北市板橋區民權路202巷9弄62號","121.459131666667","25.01577","6500100","板橋區"
"220028","200-UY","2018/01/20 13:59:32","新北市板橋區大觀路二段265巷1弄14號","121.443505","24.9984783333333","6500100","板橋區"
"220030","610-BX","2018/01/20 13:59:46","新北市板橋區滿平街74號","121.42744","24.9892333333333","6500100","板橋區"
"220050","245-BX","2018/01/20 13:59:29","新北市板橋區文化路一段362-3號","121.468536666667","25.0234216666667","6500100","板橋區"
"220045","257-TC","2018/01/20 13:59:45","新北市板橋區莒光路93號","121.472226666667","25.02408","6500100","板橋區"
"220004","276-BY","2018/01/20 13:59:41","新北市板橋區信義路80號","121.457678333333","24.993315","6500100","板橋區"
"220020","277-BY","2018/01/20 13:59:32","新北市板橋區篤行路一段29號","121.432068333333","24.99482","6500100","板橋區"
"220019","283-VK","2018/01/20 13:59:48","新北市板橋區忠孝路142號","121.463755","25.0024166666667","6500100","板橋區"
"220043","285-UM","2018/01/20 13:59:42","新北市板橋區莒光路16巷3號","121.469668333333","25.0244666666667","6500100","板橋區"
"220001","285-VK","2018/01/20 13:59:45","新北市板橋區永豐街49巷17號","121.473563333333","25.0176233333333","6500100","板橋區"
"220031","286-VK","2018/01/20 13:59:45","新北市板橋區大觀路一段38巷170弄1號","121.441915","25.0045933333333","6500100","板橋區"
"220029","287-VK","2018/01/20 13:59:29","新北市板橋區光華街39巷2號","121.4536","25.0132283333333","6500100","板橋區"
"220039","288-VK","2018/01/20 13:59:33","新北市板橋區民生路三段64號","121.466863333333","25.0254933333333","6500100","板橋區"
"220009","293-UM","2018/01/20 13:59:40","新北市板橋區永豐街120巷2弄9-2號","121.47636","25.0203616666667","6500100","板橋區"
"220032","296-UM","2018/01/20 13:59:35","新北市板橋區龍興街63巷4號","121.442971666667","25.00132","6500100","板橋區"
"220023","303-R5","2018/01/20 13:59:35","新北市板橋區館前西路219號","121.454695","25.00849","6500100","板橋區"
"220010","305-R5","2018/01/20 13:59:45","新北市板橋區三民路二段245巷63號","121.480901666667","25.01262","6500100","板橋區"
"220041","307-R5","2018/01/20 13:59:42","新北市板橋區文化路一段90號","121.464455","25.0177866666667","6500100","板橋區"
"220047","317-R6","2018/01/20 13:59:24","新北市板橋區民有街33號","121.465916666667","25.0254716666667","6500100","板橋區"
"220012","486-VK","2018/01/20 13:59:46","新北市板橋區漢生東路170號","121.467081666667","25.0147233333333","6500100","板橋區"
"220038","487-VK","2018/01/20 13:59:43","新北市板橋區民生路二段250號","121.468426666667","25.02335","6500100","板橋區"
"220037","491-VK","2018/01/20 13:59:28","新北市板橋區民生路二段216號","121.469355","25.021515","6500100","板橋區"
"220104","560-BX","2018/01/20 13:59:31","新北市板橋區中正路341巷33號","121.454235","25.01978","6500100","板橋區"
"220052","561-BX","2018/01/20 13:59:39","新北市板橋區縣民大道二段279號","121.469918333333","25.01776","6500100","板橋區"
"220011","609-BX","2018/01/20 13:59:46","新北市板橋區中山路二段161號","121.475861666667","25.0167416666667","6500100","板橋區"
"220003","630-UY","2018/01/20 13:59:41","新北市板橋區中山路一段158巷19號","121.466518333333","25.011365","6500100","板橋區"
"220040","637-BX","2018/01/20 13:59:40","新北市板橋區莒光路168號","121.474025","25.0233016666667","6500100","板橋區"
"220005","686-BX","2018/01/20 13:59:41","新北市板橋區館前東路3號","121.459666666667","25.0071866666667","6500100","板橋區"
"220025","687-BX","2018/01/20 13:59:24","新北市板橋區龍興街73巷53號","121.441666666667","25.0029633333333","6500100","板橋區"
"220042","689-BX","2018/01/20 13:59:34","新北市板橋區民生路三段11號","121.467841666667","25.0237233333333","6500100","板橋區"
"220002","741-BX","2018/01/20 13:59:46","新北市板橋區重慶路139巷12號","121.462926666667","25.0045583333333","6500100","板橋區"
"220014","829-TW","2018/01/20 13:59:40","新北市板橋區三民路二段正隆巷12弄23號","121.477378333333","25.0137866666667","6500100","板橋區"
"220051","830-TW","2018/01/20 13:59:31","新北市板橋區雙十路一段44巷36號","121.477186666667","25.0248216666667","6500100","板橋區"
"220022","895-R6","2018/01/20 13:59:38","新北市板橋區館前西路123號","121.456606666667","25.0074583333333","6500100","板橋區"
"220021","985-R7","2018/01/20 13:59:38","新北市板橋區中正路101號","121.456483333333","25.01467","6500100","板橋區"
"220046","AAC-210","2018/01/20 13:59:39","新北市板橋區民生路三段30-5號","121.467398333333","25.0246816666667","6500100","板橋區"
"220018","AAC-253","2018/01/20 13:59:27","新北市板橋區四川路一段292號","121.45867","25.0006433333333","6500100","板橋區"
