"lineid","car","time","location","longitude","latitude","cityid","cityname"
"234062","337-UY","2018/01/20 14:39:38","新北市永和區永和路二段234號","121.515713333333","25.0143233333333","6500400","永和區"
"234084","338-UY","2018/01/20 14:39:39","新北市板橋區萬安街85巷13號","121.484461666667","25.025275","6500400","永和區"
"234028","746-BX","2018/01/20 14:39:33","新北市中和區中正路130號","121.499453333333","24.9937633333333","6500400","永和區"
"234025","9371-KE","2018/01/20 14:39:46","新北市永和區中和路495號","121.51052","25.0022266666667","6500400","永和區"
"234072","AAC-211","2018/01/20 14:39:38","新北市永和區環河東路二段36號","121.522716666667","25.012465","6500400","永和區"
"231029","001-UM","2018/01/20 14:39:42","新北市新店區安康路三段320號","121.48677","24.9518366666667","6500600","新店區"
"231002","002-UM","2018/01/20 14:39:48","新北市新店區中正路468號","121.53397","24.9796266666667","6500600","新店區"
"231025","0291-UT","2018/01/20 14:39:44","新北市新店區民族路161號","121.537781666667","24.9768133333333","6500600","新店區"
"231028","046-UY","2018/01/20 14:39:45","新北市新店區安德街62號","121.510648333333","24.96214","6500600","新店區"
"231030","047-UY","2018/01/20 14:39:32","新北市新店區安民街241號","121.51728","24.9722983333333","6500600","新店區"
"231018","107-UY","2018/01/20 14:39:34","新北市新店區中央五街21號","121.529311666667","24.9745566666667","6500600","新店區"
"231012","108-UY","2018/01/20 14:39:43","新北市新店區寶宏路38號","121.549486666667","24.9756066666667","6500600","新店區"
"231020","188-VK","2018/01/20 14:39:35","新北市新店區金興路12-1號","121.55057","24.92906","6500600","新店區"
"231017","KEA-2219","2018/01/20 14:34:04","新北市新店區北宜路三段221號","121.592251666667","24.953175","6500600","新店區"
"231023","AAD-862","2018/01/20 14:39:38","新北市新店區檳榔路21號","121.541536666667","24.963845","6500600","新店區"
"231027","3712-VJ","2018/01/20 14:39:44","新北市新店區中正路336號","121.536733333333","24.9750683333333","6500600","新店區"
"231024","4716-K9","2018/01/20 14:39:39","新北市新店區中華路83巷67號","121.53836","24.96743","6500600","新店區"
"231038","4715-K9","2018/01/20 14:39:26","新北市新店區安康路一段355號","121.519621666667","24.9632216666667","6500600","新店區"
"231036","512-UM","2018/01/20 14:39:35","新北市新店區安祥路109巷8號","121.475416666667","24.9588516666667","6500600","新店區"
"231035","515-UM","2018/01/20 14:39:43","新北市新店區安康路二段118-8號","121.512758333333","24.9635133333333","6500600","新店區"
"231003","616-UM","2018/01/20 14:39:34","新北市新店區中興路一段292號","121.545963333333","24.9691183333333","6500600","新店區"
"231006","617-UM","2018/01/20 14:39:40","新北市新店區北宜路二段103號","121.550208333333","24.9524333333333","6500600","新店區"
"231001","619-UM","2018/01/20 14:39:42","新北市新店區中正路110號","121.542948333333","24.97068","6500600","新店區"
"231034","645-TV","2018/01/20 14:39:40","新北市新店區黎明路51巷1號","121.501975","24.9493733333333","6500600","新店區"
"231013","719-UM","2018/01/20 14:39:35","新北市新店區北新路二段139巷12弄2號","121.542163333333","24.9759816666667","6500600","新店區"
"231005","897-TW","2018/01/20 14:39:41","新北市新店區復興路94號","121.532323333333","24.9883216666667","6500600","新店區"
"231004","899-TW","2018/01/20 14:39:42","新北市新店區中正路283號","121.537433333333","24.9744933333333","6500600","新店區"
"235030","003-UY","2018/01/20 14:39:37","新北市中和區中和路196巷10號","121.505021666667","24.9990833333333","6500300","中和區"
"235028","005-UY","2018/01/20 14:39:33","新北市中和區南山路127巷18弄22號","121.503516666667","24.9969466666667","6500300","中和區"
"235020","096-UM","2018/01/20 14:39:40","新北市中和區員山路581巷31弄20號","121.47683","25.010365","6500300","中和區"
"235003","097-UM","2018/01/20 14:39:44","新北市中和區宜安路62號","121.511535","24.99702","6500300","中和區"
"235029","098-UM","2018/01/20 14:39:36","新北市中和區中山路二段187號","121.500318333333","25.0027683333333","6500300","中和區"
"235004","150-BY","2018/01/20 14:39:44","新北市中和區宜安路25號","121.512846666667","24.99589","6500300","中和區"
"235022","151-BY","2018/01/20 14:39:38","新北市中和區員山路124巷25號","121.482488333333","24.9961116666667","6500300","中和區"
"235019","183-VK","2018/01/20 14:39:42","新北市中和區民生街15號","121.471303333333","25.00594","6500300","中和區"
"235002","185-VK","2018/01/20 14:39:39","新北市中和區大智街55巷30弄27號","121.52183","24.9933816666667","6500300","中和區"
"235013","186-VK","2018/01/20 14:39:39","新北市中和區景新街273巷32號","121.510866666667","24.9941216666667","6500300","中和區"
"235031","255-BX","2018/01/20 14:39:46","新北市中和區新生街220巷15弄1號","121.482908333333","24.99827","6500300","中和區"
"235008","293-VK","2018/01/20 14:39:30","新北市中和區興南路一段107號","121.509345","24.98815","6500300","中和區"
"235036","301-VK","2018/01/20 14:39:28","新北市中和區連城路144巷4弄11號","121.495628333333","24.998885","6500300","中和區"
"235007","352-BY","2018/01/20 14:39:43","新北市中和區南山路92號","121.502783333333","24.99475","6500300","中和區"
"235032","377-QA","2018/01/20 14:39:35","新北市中和區福祥路28巷2號","121.499721666667","25.0037433333333","6500300","中和區"
"235025","378-QA","2018/01/20 14:39:28","新北市中和區民安街2巷33號","121.480061666667","25.00162","6500300","中和區"
"235014","4979-A6","2018/01/20 14:39:44","新北市中和區錦和路350-1號","121.49053","24.9936016666667","6500300","中和區"
"235033","4980-A6","2018/01/20 14:39:34","新北市中和區中正路637巷52弄1號","121.485453333333","24.9934316666667","6500300","中和區"
"235006","551-UM","2018/01/20 14:39:35","新北市中和區景安路21號","121.507765","24.9989066666667","6500300","中和區"
"235034","558-UM","2018/01/20 14:35:19","新北市中和區南山路41號","121.502058333333","24.998595","6500300","中和區"
"235009","565-BX","2018/01/20 14:39:40","新北市中和區安樂路8-1號","121.511751666667","24.99182","6500300","中和區"
"235018","640-BX","2018/01/20 14:39:44","新北市中和區民德路81號","121.468986666667","25.00119","6500300","中和區"
"235024","647-TV","2018/01/20 14:39:46","新北市中和區中山路二段523巷21號","121.481881666667","25.0039016666667","6500300","中和區"
"235011","732-UM","2018/01/20 14:39:29","新北市中和區捷運路57-1號","121.509158333333","24.9897466666667","6500300","中和區"
"235010","733-UM","2018/01/20 14:39:43","新北市中和區忠孝街112號","121.512213333333","24.985325","6500300","中和區"
"235026","800-TS","2018/01/20 14:39:37","新北市中和區中山路二段352號","121.492823333333","25.0026433333333","6500300","中和區"
"235021","801-TS","2018/01/20 14:39:49","新北市中和區員山路150-26號","121.481398333333","24.9981116666667","6500300","中和區"
"235005","802-TS","2018/01/20 14:39:29","新北市中和區宜安路80號","121.511141666667","24.997415","6500300","中和區"
"235016","805-TS","2018/01/20 14:39:44","新北市中和區華新街204號","121.506631666667","24.9819133333333","6500300","中和區"
"235012","896-TW","2018/01/20 14:39:26","新北市中和區景新街499號","121.514068333333","24.9870333333333","6500300","中和區"
"235017","900-TW","2018/01/20 14:39:25","新北市中和區民德路197號","121.469075","24.9981583333333","6500300","中和區"
"235015","157-BY","2018/01/20 14:39:38","新北市中和區中興街134號","121.49985","24.9921216666667","6500300","中和區"
"235001","AAC-213","2018/01/20 14:39:36","新北市中和區秀朗路三段48號","121.526343333333","24.99552","6500300","中和區"
"235023","AAC-215","2018/01/20 14:39:39","新北市中和區圓通路335巷1弄27號","121.493408333333","24.9906383333333","6500300","中和區"
"220013","072-UY","2018/01/20 14:39:30","新北市板橋區國泰街98號","121.466831666667","25.0064866666667","6500100","板橋區"
"220034","073-UY","2018/01/20 14:39:31","新北市板橋區中正路250巷81號","121.458895","25.0199083333333","6500100","板橋區"
"220105","075-UY","2018/01/20 14:39:42","新北市板橋區文化路二段486號","121.475171666667","25.0330366666667","6500100","板橋區"
"220017","AAD-861","2018/01/20 14:39:42","新北市板橋區縣民大道一段64巷23號","121.456005","25.00338","6500100","板橋區"
"247011","546-UM","2018/01/20 14:39:45","新北市蘆洲區集賢路224巷66號","121.480746666667","25.0882366666667","6501400","蘆洲區"
"247019","500-BY","2018/01/20 14:36:59","新北市蘆洲區民義街86巷16號","121.473871666667","25.090155","6501400","蘆洲區"
"247007","341-TH","2018/01/20 14:39:39","新北市蘆洲區中山一路263號","121.47281","25.0799633333333","6501400","蘆洲區"
"247009","339-TH","2018/01/20 14:39:34","新北市蘆洲區信義路222巷63號","121.481363333333","25.0854083333333","6501400","蘆洲區"
"247001","337-TH","2018/01/20 14:39:32","新北市蘆洲區永樂街31巷1號","121.458141666667","25.08756","6501400","蘆洲區"
"247003","336-TH","2018/01/20 14:39:25","新北市蘆洲區永康街30號","121.458698333333","25.0856433333333","6501400","蘆洲區"
"247015","057-VK","2018/01/20 14:39:40","新北市蘆洲區正和街35號","121.469545","25.081805","6501400","蘆洲區"
"247005","056-VK","2018/01/20 14:39:38","新北市蘆洲區中華街65號","121.462395","25.0808383333333","6501400","蘆洲區"
"247013","007-UY","2018/01/20 14:39:30","新北市蘆洲區得勝街183號","121.47097","25.08272","6501400","蘆洲區"
"247023","002-UY","2018/01/20 14:39:41","新北市蘆洲區正和街63巷22號","121.469293333333","25.08057","6501400","蘆洲區"
"235035","251-BX","2018/01/20 14:39:43","新北市中和區中正路707號","121.485026666667","24.998575","6500300","中和區"
"228005","097-TW","2018/01/20 14:39:46","新北市貢寮區美豐里雞母嶺街7號","121.902115","25.0642666666667","6502600","貢寮區"
"228004","212-TW","2018/01/20 14:39:44","新北市貢寮區福隆里龜壽谷街30號","121.946958333333","25.0131966666667","6502600","貢寮區"
"253003","6232-TK","2018/01/20 14:39:30","新北市石門區尖子鹿114號","121.57551","25.2976616666667","6502200","石門區"
"253001","6251-TK","2018/01/20 14:39:25","新北市石門區崁子腳66號","121.531323333333","25.28444","6502200","石門區"
"253002","637-UY","2018/01/20 14:38:13","新北市三芝區橫山里橫山39-5號","121.545783333333","25.2532633333333","6502200","石門區"
"253004","8270-PC","2018/01/20 14:38:56","新北市石門區內阿里磅55號","121.579153333333","25.24911","6502200","石門區"
"208004","AAC-292","2018/01/20 14:39:33","新北市金山區半嶺41號","121.60149","25.2399366666667","6502700","金山區"
"207002","749-BX","2018/01/20 14:39:36","新北市萬里區崁腳里崁腳路118-1號","121.645081666667","25.1584033333333","6502800","萬里區"
"252005","073-UM","2018/01/20 14:39:44","新北市三芝區橫山里大坑98-2號","121.526375","25.2604216666667","6502100","三芝區"
"207001","662-BX","2018/01/20 14:39:34","新北市萬里區磺潭里員潭路50號","121.643945","25.1944333333333","6502800","萬里區"
"236068","105-UM","2018/01/20 14:39:46","新北市土城區永豐路298號","121.471403333333","24.9777633333333","6501300","土城區"
"236041","107-UM","2018/01/20 14:39:35","新北市土城區裕民路55巷15號","121.449475","24.9888383333333","6501300","土城區"
"236029","253-BX","2018/01/20 14:39:28","新北市土城區中華路二段90號","121.438396666667","24.974905","6501300","土城區"
"236025","269-VK","2018/01/20 14:39:44","新北市土城區和平路5巷2號","121.442695","24.9745333333333","6501300","土城區"
"236013","270-VK","2018/01/20 14:39:43","新北市土城區清水路224號","121.460955","24.982245","6501300","土城區"
"236035","271-VK","2018/01/20 14:39:40","新北市土城區明德路一段291巷14號","121.460308333333","24.9766033333333","6501300","土城區"
"236017","401-BY","2018/01/20 14:39:42","新北市土城區永豐路8號","121.465513333333","24.9847266666667","6501300","土城區"
"236057","912-UM","2018/01/20 14:39:45","新北市土城區中央路四段27巷4號","121.425026666667","24.9626833333333","6501300","土城區"
"236045","913-UM","2018/01/20 14:39:42","新北市土城區金城路三段3號","121.464403333333","24.986115","6501300","土城區"
"236061","915-UM","2018/01/20 14:39:31","新北市土城區延壽路13巷19號","121.469875","24.9913866666667","6501300","土城區"
"236054","AAC-216","2018/01/20 14:39:45","新北市土城區裕民路22號","121.447655","24.9886266666667","6501300","土城區"
"242046","172-VK","2018/01/20 14:39:32","新北市土城區日新街39-1號","121.441721666667","24.9887466666667","6500500","新莊區"
"220027","145-BY","2018/01/20 14:39:43","新北市板橋區復興街108號","121.460188333333","25.0178783333333","6500100","板橋區"
"220028","200-UY","2018/01/20 14:39:32","新北市板橋區大觀路二段37巷61號","121.449588333333","25.0025483333333","6500100","板橋區"
"220030","610-BX","2018/01/20 14:39:33","新北市板橋區大觀路三段160巷36號","121.430015","24.99401","6500100","板橋區"
"220050","245-BX","2018/01/20 14:39:43","新北市板橋區縣民大道三段33巷1弄13號","121.473451666667","25.0204466666667","6500100","板橋區"
"220045","257-TC","2018/01/20 14:39:48","新北市板橋區民生路二段226巷8弄1號","121.470395","25.0217516666667","6500100","板橋區"
"220004","276-BY","2018/01/20 14:39:42","新北市板橋區四川路二段47巷6弄1-2號","121.454276666667","24.9944133333333","6500100","板橋區"
"220020","277-BY","2018/01/20 14:39:32","新北市板橋區金門街253巷17弄1號","121.433251666667","24.988715","6500100","板橋區"
"220019","283-VK","2018/01/20 14:39:28","新北市板橋區信義路279巷23號","121.465","24.9903966666667","6500100","板橋區"
"220043","285-UM","2018/01/20 14:39:42","新北市板橋區宏國路97-3號","121.46979","25.0323516666667","6500100","板橋區"
"220001","285-VK","2018/01/20 14:39:45","新北市板橋區懷仁街77巷23號","121.477601666667","25.0190266666667","6500100","板橋區"
"220031","286-VK","2018/01/20 14:39:25","新北市板橋區龍興街63巷64號","121.441695","25.001935","6500100","板橋區"
"220029","287-VK","2018/01/20 14:39:41","新北市板橋區大觀路一段28巷111弄2號","121.44969","25.0125016666667","6500100","板橋區"
"220039","288-VK","2018/01/20 14:39:33","新北市板橋區長江路1段48巷12-1號","121.459451666667","25.0280033333333","6500100","板橋區"
"220009","293-UM","2018/01/20 14:39:38","新北市板橋區板新路200巷4號","121.469113333333","25.016095","6500100","板橋區"
"220032","296-UM","2018/01/20 14:39:44","新北市板橋區滿平二街45號","121.424965","24.9880033333333","6500100","板橋區"
"220023","303-R5","2018/01/20 14:39:35","新北市板橋區中正路253巷58號","121.453388333333","25.0174583333333","6500100","板橋區"
"220010","305-R5","2018/01/20 14:39:29","新北市板橋區三民路二段81巷25號","121.480443333333","25.0167416666667","6500100","板橋區"
"220041","307-R5","2018/01/20 14:39:42","新北市板橋區文化路一段387巷16號","121.466448333333","25.0221616666667","6500100","板橋區"
"220047","317-R6","2018/01/20 14:39:44","新北市板橋區裕民街108號","121.459738333333","25.02776","6500100","板橋區"
"220012","486-VK","2018/01/20 14:39:33","新北市板橋區民族路19號","121.461785","25.00966","6500100","板橋區"
"220038","487-VK","2018/01/20 14:39:43","新北市板橋區公館街266號","121.459435","25.021405","6500100","板橋區"
"220037","491-VK","2018/01/20 14:39:47","新北市板橋區文化路二段488號","121.47534","25.033125","6500100","板橋區"
"220104","560-BX","2018/01/20 14:39:30","新北市板橋區金華街103號","121.458783333333","25.0208666666667","6500100","板橋區"
"220052","561-BX","2018/01/20 14:39:39","新北市板橋區文化路一段280-3號","121.467351666667","25.0214583333333","6500100","板橋區"
"220011","609-BX","2018/01/20 14:39:42","新北市板橋區三民路一段31巷11號","121.479743333333","25.02315","6500100","板橋區"
"220003","630-UY","2018/01/20 14:39:41","新北市板橋區國慶路149巷21弄8號","121.460536666667","24.9973733333333","6500100","板橋區"
"220040","637-BX","2018/01/20 14:39:38","新北市板橋區懷德街191巷18號","121.48057","25.029685","6500100","板橋區"
"220005","686-BX","2018/01/20 14:39:35","新北市板橋區和平路45號","121.460136666667","24.99457","6500100","板橋區"
"220025","687-BX","2018/01/20 14:39:44","新北市板橋區僑中二街114巷1號","121.445696666667","25.0065983333333","6500100","板橋區"
"220042","689-BX","2018/01/20 14:39:45","新北市板橋區新海路397號","121.458673333333","25.0265416666667","6500100","板橋區"
"220002","741-BX","2018/01/20 14:39:46","新北市板橋區實踐路65巷39號","121.465048333333","25.0064966666667","6500100","板橋區"
"220014","829-TW","2018/01/20 14:39:33","新北市板橋區漢生東路193巷53號","121.4716","25.0116866666667","6500100","板橋區"
"220051","830-TW","2018/01/20 14:39:31","新北市板橋區松柏街34號","121.475283333333","25.0298233333333","6500100","板橋區"
"220022","895-R6","2018/01/20 14:39:38","新北市板橋區府中路29-2號","121.458581666667","25.0080666666667","6500100","板橋區"
"220021","985-R7","2018/01/20 14:39:38","新北市板橋區大仁街89-1號","121.453415","25.0160416666667","6500100","板橋區"
"220046","AAC-210","2018/01/20 14:39:39","新北市板橋區新海路93號","121.46158","25.0217616666667","6500100","板橋區"
"220018","AAC-253","2018/01/20 14:39:27","新北市板橋區民族路296號","121.470465","25.0068033333333","6500100","板橋區"
