"lineid","car","time","location","longitude","latitude","cityid","cityname"
"234007","207-UY","2018/01/20 18:19:43","新北市永和區環河西路二段217巷3號","121.5015","25.01004","6500400","永和區"
"234042","862-TW","2018/01/20 18:19:37","新北市永和區福和路1號","121.526638333333","25.0095983333333","6500400","永和區"
"234026","9371-KE","2018/01/20 18:19:51","新北市永和區豫溪街40號","121.515566666667","25.0097116666667","6500400","永和區"
"234011","9373-KE","2018/01/20 18:19:44","新北市永和區保安路53號","121.509495","25.015825","6500400","永和區"
"249005","172-UM","2018/01/20 18:19:36","新北市八里區荖阡坑路15-16號","121.400238333333","25.140505","6502300","八里區"
"249001","173-UM","2018/01/20 18:19:48","新北市八里區龍米路一段125號","121.45227","25.1264733333333","6502300","八里區"
"249004","303-UY","2018/01/20 18:19:45","新北市八里區文心街75號","121.428096666667","25.16095","6502300","八里區"
"249002","305-UY","2018/01/20 18:19:48","新北市八里區龍形二街48號","121.450433333333","25.13307","6502300","八里區"
"248014","025-BX","2018/01/20 18:19:48","新北市五股區自強路19巷11號","121.43459","25.0736716666667","6501500","五股區"
"248016","026-BX","2018/01/20 18:19:50","新北市五股區成泰路三段477巷18號","121.449885","25.0989316666667","6501500","五股區"
"248008","095-VK","2018/01/20 18:19:32","新北市五股區更洲路32巷8弄17號","121.45927","25.0796266666667","6501500","五股區"
"248018","225-UY","2018/01/20 18:19:40","新北市五股區孝義路47巷23號","121.449681666667","25.109725","6501500","五股區"
"248012","247-BX","2018/01/20 18:19:51","新北市五股區御成路2號","121.441996666667","25.090765","6501500","五股區"
"248010","272-BY","2018/01/20 18:19:34","新北市五股區成泰路一段139巷2弄2號","121.435103333333","25.072965","6501500","五股區"
"248004","677-BX","2018/01/20 18:19:52","新北市五股區成泰路二段149號","121.439143333333","25.0855533333333","6501500","五股區"
"248002","678-BX","2018/01/20 18:04:44","新北市五股區中興路二段182巷3號","121.456041666667","25.0780816666667","6501500","五股區"
"248006","682-TV","2018/01/20 18:19:42","新北市五股區中興路一段142-2號","121.464788333333","25.0737933333333","6501500","五股區"
"232011","375-UM","2018/01/20 18:19:38","新北市坪林區坪雙路一段43號","121.711693333333","24.9424416666667","6502000","坪林區"
"244013","069-UM","2018/01/20 18:19:53","新北市林口區中山路146號","121.391388333333","25.0786766666667","6501700","林口區"
"244007","080-UY","2018/01/20 18:19:45","新北市林口區竹林路548號","121.387563333333","25.08472","6501700","林口區"
"244019","402-UM","2018/01/20 18:19:43","新北市林口區麗園路89號","121.37303","25.068615","6501700","林口區"
"244009","410-SL","2018/01/20 18:19:47","新北市林口區竹林路614號","121.386441666667","25.08247","6501700","林口區"
"244023","483-VK","2018/01/20 18:19:47","新北市林口區仁愛路二段145號","121.38265","25.0743116666667","6501700","林口區"
"244017","485-VK","2018/01/20 18:19:50","新北市林口區八德路20巷3號","121.367951666667","25.0674483333333","6501700","林口區"
"244011","656-BX","2018/01/20 18:19:42","新北市林口區中正路74巷5弄2號","121.394601666667","25.078035","6501700","林口區"
"244021","657-BX","2018/01/20 18:19:41","新北市林口區自強七街1號","121.400211666667","25.076805","6501700","林口區"
"244025","837-TS","2018/01/20 18:19:41","新北市林口區南勢六街57號","121.355591666667","25.0717883333333","6501700","林口區"
"243013","646-TV","2018/01/20 18:19:48","新北市泰山區南林路93號","121.415498333333","25.0511966666667","6501600","泰山區"
"222003","436-BY","2018/01/20 18:19:40","新北市深坑區旺耽路67號","121.626253333333","25.002985","6501800","深坑區"
"222002","659-BX","2018/01/20 18:19:36","新北市深坑區雲鄉路3-1號","121.621233333333","24.9995933333333","6501800","深坑區"
"231060","001-UM","2018/01/20 18:19:36","新北市新店區安華路28-1號","121.519558333333","24.960825","6500600","新店區"
"231041","002-UM","2018/01/20 18:19:37","新北市新店區安華路28-1號","121.519576666667","24.9608833333333","6500600","新店區"
"231059","046-UY","2018/01/20 18:19:34","新北市新店區安華路28-1號","121.519538333333","24.9608466666667","6500600","新店區"
"231061","047-UY","2018/01/20 18:19:42","新北市新店區安華路28-1號","121.519306666667","24.9609883333333","6500600","新店區"
"231051","107-UY","2018/01/20 18:19:37","新北市新店區安華路28-1號","121.519293333333","24.9613883333333","6500600","新店區"
"231052","188-VK","2018/01/20 18:19:35","新北市新店區安康路一段287號","121.523136666667","24.963635","6500600","新店區"
"231050","KEA-2219","2018/01/20 18:19:44","新北市新店區安華路28-1號","121.519646666667","24.9612533333333","6500600","新店區"
"231057","256-BX","2018/01/20 18:19:42","新北市新店區安華路28-1號","121.519645","24.9610133333333","6500600","新店區"
"231046","278-BY","2018/01/20 18:19:42","新北市新店區直潭七街60號","121.532268333333","24.939855","6500600","新店區"
"231054","AAD-862","2018/01/20 18:19:47","新北市新店區安華路28-1號","121.51986","24.961085","6500600","新店區"
"231058","3712-VJ","2018/01/20 18:19:45","新北市新店區環河路27號","121.537303333333","24.9613166666667","6500600","新店區"
"231056","3713-VJ","2018/01/20 18:19:49","新北市新店區中央路131號","121.53035","24.9738633333333","6500600","新店區"
"231055","4716-K9","2018/01/20 18:19:47","新北市新店區安康路一段3-1號","121.534551666667","24.960715","6500600","新店區"
"231067","4772-VM","2018/01/20 18:19:37","新北市新店區安華路28-1號","121.519335","24.960635","6500600","新店區"
"231065","512-UM","2018/01/20 18:19:40","新北市新店區安華路28-1號","121.519191666667","24.9610966666667","6500600","新店區"
"231064","515-UM","2018/01/20 18:19:34","新北市新店區安華路28-1號","121.519673333333","24.9610666666667","6500600","新店區"
"231042","616-UM","2018/01/20 18:19:33","新北市新店區安華路1-1號","121.519543333333","24.9604666666667","6500600","新店區"
"231045","617-UM","2018/01/20 18:19:36","新北市新店區安華路28-1號","121.519456666667","24.96104","6500600","新店區"
"231040","619-UM","2018/01/20 18:19:33","新北市新店區安華路28-1號","121.51965","24.9608166666667","6500600","新店區"
"231063","645-TV","2018/01/20 18:19:33","新北市新店區安華路28-1號","121.519343333333","24.9607516666667","6500600","新店區"
"231049","719-UM","2018/01/20 18:19:36","新北市新店區安華路28-1號","121.519603333333","24.9613516666667","6500600","新店區"
"231062","720-UM","2018/01/20 18:19:40","新北市新店區安華路28-1號","121.519338333333","24.9613783333333","6500600","新店區"
"231044","897-TW","2018/01/20 18:19:52","新北市新店區安華路28-1號","121.519511666667","24.9608916666667","6500600","新店區"
"231043","899-TW","2018/01/20 18:19:51","新北市新店區安華路28-1號","121.519166666667","24.9611716666667","6500600","新店區"
"231066","AKT-0513","2018/01/20 18:19:50","新北市新店區安華路28-1號","121.519518333333","24.9605716666667","6500600","新店區"
"235066","003-UY","2018/01/20 18:19:41","新北市中和區中山路二段122號","121.502663333333","25.00364","6500300","中和區"
"235064","005-UY","2018/01/20 18:19:38","新北市中和區中正路166號","121.498491666667","24.9939116666667","6500300","中和區"
"235063","006-UY","2018/01/20 18:19:39","新北市中和區中正路565號","121.486776666667","24.994385","6500300","中和區"
"235056","096-UM","2018/01/20 18:19:49","新北市中和區新民街5號","121.482461666667","25.0059816666667","6500300","中和區"
"235039","097-UM","2018/01/20 18:19:43","新北市中和區中正路2-1號","121.503188333333","24.9936516666667","6500300","中和區"
"235065","098-UM","2018/01/20 18:19:44","新北市中和區莊敬路49巷18號","121.501648333333","25.00614","6500300","中和區"
"235040","150-BY","2018/01/20 18:19:34","新北市中和區景安路102號","121.5055","24.99551","6500300","中和區"
"235058","151-BY","2018/01/20 18:19:36","新北市中和區圓通路367巷58號","121.492273333333","24.9844833333333","6500300","中和區"
"235055","183-VK","2018/01/20 18:19:36","新北市中和區中正路637巷60弄61號","121.485456666667","24.9930616666667","6500300","中和區"
"235038","185-VK","2018/01/20 18:19:36","新北市中和區秀朗路三段128巷7弄7號","121.524188333333","24.99256","6500300","中和區"
"235049","186-VK","2018/01/20 18:19:44","新北市中和區中正路589巷15號","121.485716666667","24.9936216666667","6500300","中和區"
"235067","255-BX","2018/01/20 18:19:29","新北市中和區和城路一段271巷1號","121.485431666667","24.9917483333333","6500300","中和區"
"235072","301-VK","2018/01/20 18:19:43","新北市中和區錦和路186號","121.490065","24.9952483333333","6500300","中和區"
"235043","352-BY","2018/01/20 18:19:18","新北市中和區景平路379號","121.504076666667","24.99345","6500300","中和區"
"235068","377-QA","2018/01/20 18:15:35","新北市中和區員山路36巷16-3號","121.484766666667","24.9914833333333","6500300","中和區"
"235061","378-QA","2018/01/20 18:19:32","新北市中和區民德路174號","121.468371666667","24.9995116666667","6500300","中和區"
"235050","4979-A6","2018/01/20 18:19:53","新北市中和區捷運路61巷9號","121.50903","24.9893033333333","6500300","中和區"
"235069","4980-A6","2018/01/20 18:19:47","新北市中和區連城路145號","121.495756666667","24.9986966666667","6500300","中和區"
"235042","551-UM","2018/01/20 18:19:46","新北市中和區大仁街20巷25弄6號","121.518725","24.993525","6500300","中和區"
"235070","558-UM","2018/01/20 18:19:10","新北市中和區圓通路207號","121.497228333333","24.9944416666667","6500300","中和區"
"235045","565-BX","2018/01/20 18:19:42","新北市中和區景安路200巷1弄2號","121.503831666667","24.991425","6500300","中和區"
"235054","640-BX","2018/01/20 18:19:51","新北市中和區莒光路203號","121.472531666667","24.9989583333333","6500300","中和區"
"235060","647-TV","2018/01/20 18:19:49","新北市中和區員山路168號","121.481311666667","24.9997933333333","6500300","中和區"
"235047","732-UM","2018/01/20 18:19:37","新北市中和區中興街109號","121.49991","24.9922583333333","6500300","中和區"
"235062","800-TS","2018/01/20 18:19:46","新北市中和區景平路989巷6號","121.495081666667","25.00516","6500300","中和區"
"235057","801-TS","2018/01/20 18:19:49","新北市中和區民享街97巷21號","121.475343333333","24.9995016666667","6500300","中和區"
"235041","802-TS","2018/01/20 18:19:32","新北市中和區中正路250號","121.495766666667","24.9939166666667","6500300","中和區"
"235052","805-TS","2018/01/20 18:19:48","新北市中和區捷運路6號","121.509995","24.989525","6500300","中和區"
"235048","896-TW","2018/01/20 18:19:46","新北市中和區錦和路350-1號","121.490276666667","24.99357","6500300","中和區"
"235053","900-TW","2018/01/20 18:19:50","新北市中和區員山路36巷13號","121.484273333333","24.9906966666667","6500300","中和區"
"235051","157-BY","2018/01/20 18:19:50","新北市中和區南山路312號","121.507903333333","24.9868616666667","6500300","中和區"
"235037","AAC-213","2018/01/20 18:19:50","新北市中和區景平路71-7號","121.518211666667","24.9915233333333","6500300","中和區"
"220065","072-UY","2018/01/20 18:19:31","新北市板橋區華東街1-9號","121.448163333333","24.9949083333333","6500100","板橋區"
"247022","893-R6","2018/01/20 18:09:26","新北市五股區中興路三段163號","121.449155","25.0807566666667","6501400","蘆洲區"
"226004","312-R5","2018/01/20 18:19:43","新北市平溪區靜安路二段10號","121.706715","25.0185966666667","6502400","平溪區"
"228003","097-TW","2018/01/20 18:19:33","新北市貢寮區和美里和美街63號","121.922438333333","25.0709383333333","6502600","貢寮區"
"228001","212-TW","2018/01/20 18:19:37","新北市貢寮區真理里新港街26巷55弄2-1號","121.927408333333","25.0528666666667","6502600","貢寮區"
"228002","663-BX","2018/01/20 18:19:41","新北市貢寮區福連里馬崗街1號","121.99578","25.0160583333333","6502600","貢寮區"
"224006","676-BX","2018/01/20 18:19:36","新北市瑞芳區民權街3-2號","121.80812","25.1074116666667","6501200","瑞芳區"
"224002","639-TC","2018/01/20 18:19:45","新北市瑞芳區三爪子坑路93號","121.811336666667","25.10731","6501200","瑞芳區"
"224009","285-BY","2018/01/20 18:19:33","新北市瑞芳區金光路96號","121.856386666667","25.1073233333333","6501200","瑞芳區"
"224008","275-VK","2018/01/20 18:19:38","新北市瑞芳區明燈路二段56號","121.809996666667","25.10748","6501200","瑞芳區"
"224007","273-VK","2018/01/20 18:19:48","新北市瑞芳區大埔路63號","121.764233333333","25.1018133333333","6501200","瑞芳區"
"224005","271-BY","2018/01/20 18:19:50","新北市瑞芳區建基新村34號","121.812176666667","25.1302266666667","6501200","瑞芳區"
"227010","642-TC","2018/01/20 18:19:45","新北市雙溪區牡丹里牡丹73號","121.851698333333","25.0593633333333","6502500","雙溪區"
"227002","400-TW","2018/01/20 18:19:39","新北市雙溪區共和里中山路2號","121.86382","25.0338283333333","6502500","雙溪區"
"253005","032-BX","2018/01/20 18:19:44","新北市石門區中央路5號","121.566285","25.2915666666667","6502200","石門區"
"253006","295-VK","2018/01/20 18:19:45","新北市石門區老梅路61號","121.545758333333","25.289275","6502200","石門區"
"222001","KEA-2212","2018/01/20 18:19:43","新北市深坑區北深路二段51-1號","121.619053333333","25.0041366666667","6501800","深坑區"
"208002","742-BX","2018/01/20 18:19:51","新北市金山區磺清路135號","121.639446666667","25.2275966666667","6502700","金山區"
"208003","665-BX","2018/01/20 18:19:49","新北市金山區中山路16號","121.641671666667","25.2179166666667","6502700","金山區"
"208001","761-BX","2018/01/20 18:19:49","新北市金山區環金路19號","121.641033333333","25.2176783333333","6502700","金山區"
"251004","009-UM","2018/01/20 18:19:43","新北市淡水區民族路31巷1號","121.462316666667","25.136035","6501000","淡水區"
"251001","011-UM","2018/01/20 18:19:48","新北市淡水區自強路110-9號","121.461995","25.13169","6501000","淡水區"
"251013","179-VK","2018/01/20 18:19:50","新北市淡水區行忠路691號","121.471738333333","25.1994916666667","6501000","淡水區"
"251014","180-VK","2018/01/20 18:19:45","新北市淡水區北勢子13-2號","121.486643333333","25.2227233333333","6501000","淡水區"
"251008","181-VK","2018/01/20 18:19:48","新北市淡水區水源街二段213號","121.458661666667","25.1764933333333","6501000","淡水區"
"251015","182-VK","2018/01/20 18:19:38","新北市淡水區興福寮88巷1號","121.486023333333","25.164875","6501000","淡水區"
"251010","413-VK","2018/01/20 18:19:33","新北市淡水區淡海路180巷12-3號","121.42042","25.1846466666667","6501000","淡水區"
"251012","441-VK","2018/01/20 18:19:30","新北市淡水區北新路二段77-5號","121.480518333333","25.1855483333333","6501000","淡水區"
"251016","442-VK","2018/01/20 18:19:40","新北市淡水區下圭柔山33號","121.450378333333","25.2048133333333","6501000","淡水區"
"251005","443-VK","2018/01/20 18:19:42","新北市淡水區水源街一段122巷39號","121.447093333333","25.1703616666667","6501000","淡水區"
"251006","561-UM","2018/01/20 18:19:30","新北市淡水區新民街76巷47-1號","121.439376666667","25.1780166666667","6501000","淡水區"
"251011","650-BX","2018/01/20 18:19:37","新北市淡水區坪頂路38巷1號","121.45744","25.1622816666667","6501000","淡水區"
"251002","672-BX","2018/01/20 18:19:45","新北市淡水區中正東路一段61-6號","121.453326666667","25.16276","6501000","淡水區"
"251003","766-UM","2018/01/20 18:19:44","新北市淡水區北新路169巷19號","121.449613333333","25.1800266666667","6501000","淡水區"
"207003","550-UM","2018/01/20 18:19:34","新北市萬里區野柳里港東路8-1號","121.686878333333","25.2034766666667","6502800","萬里區"
"207004","225-TW","2018/01/20 18:19:49","新北市萬里區中幅里中福路39-1號","121.677515","25.1660533333333","6502800","萬里區"
"252002","178-VK","2018/01/20 18:19:30","新北市三芝區中山路二段35號","121.502865","25.2551666666667","6502100","三芝區"
"252003","249-BX","2018/01/20 18:19:34","新北市三芝區錫板里南勢崗5-6號","121.4797","25.2623483333333","6502100","三芝區"
"252001","292-VK","2018/01/20 18:19:45","新北市三芝區中興街二段2號","121.498411666667","25.25669","6502100","三芝區"
"237004","078-UY","2018/01/20 18:19:41","新北市三峽區圳頭28號","121.375751666667","24.8889383333333","6500900","三峽區"
"237007","153-BY","2018/01/20 18:19:41","新北市三峽區中正路二段586號","121.35924","24.9059366666667","6500900","三峽區"
"237009","210-TH","2018/01/20 18:19:39","新北市三峽區大勇路36巷31號","121.365136666667","24.9368666666667","6500900","三峽區"
"237013","252-BX","2018/01/20 18:19:40","新北市三峽區永安街5號","121.37782","24.9299733333333","6500900","三峽區"
"237012","275-BY","2018/01/20 18:19:49","新北市三峽區民生街1巷3-7號","121.37707","24.936315","6500900","三峽區"
"237008","302-VK","2018/01/20 18:19:53","新北市三峽區白雞68-47號","121.391888333333","24.9092433333333","6500900","三峽區"
"237006","5529-G3","2018/01/20 18:19:46","新北市三峽區溪東路235號","121.406536666667","24.9326316666667","6500900","三峽區"
"237016","649-BX","2018/01/20 18:19:45","新北市三峽區紫微路6號","121.426391666667","24.9223683333333","6500900","三峽區"
"237010","706-TV","2018/01/20 18:19:37","新北市三峽區中山路143號","121.365053333333","24.9361183333333","6500900","三峽區"
"237005","AKY-6261","2018/01/20 18:19:32","新北市三峽區長福街12號","121.370391666667","24.9337433333333","6500900","三峽區"
"236073","105-UM","2018/01/20 18:19:41","新北市土城區永豐路153巷3號","121.467303333333","24.9821683333333","6501300","土城區"
"236043","107-UM","2018/01/20 18:19:33","新北市土城區裕生路21巷6弄45號","121.448641666667","24.9866016666667","6501300","土城區"
"236031","253-BX","2018/01/20 18:19:39","新北市土城區順風路29號","121.440226666667","24.9770083333333","6501300","土城區"
"236027","269-VK","2018/01/20 18:19:40","新北市土城區承天路75號","121.440175","24.9628966666667","6501300","土城區"
"236015","270-VK","2018/01/20 18:19:31","新北市土城區青雲路39巷7號","121.460303333333","24.9874333333333","6501300","土城區"
"236038","271-VK","2018/01/20 18:19:47","新北市土城區青雲路451巷8弄12號","121.459445","24.9741716666667","6501300","土城區"
"236023","401-BY","2018/01/20 18:19:43","新北市土城區明德路二段8巷1號","121.452045","24.9805083333333","6501300","土城區"
"236059","912-UM","2018/01/20 18:19:45","新北市土城區中央路四段294號","121.41416","24.9562016666667","6501300","土城區"
"236049","913-UM","2018/01/20 18:19:37","新北市土城區明德路一段375-1號","121.454843333333","24.97815","6501300","土城區"
"236063","915-UM","2018/01/20 18:19:38","新北市土城區金城路三段202-3號","121.469451666667","24.98857","6501300","土城區"
"236055","AAC-216","2018/01/20 18:19:46","新北市土城區中華路二段124號","121.437771666667","24.97371","6501300","土城區"
"242031","AAC-296","2018/01/20 18:19:49","新北市新莊區新泰路255巷7號","121.4457","25.0398016666667","6500500","新莊區"
"242029","986-R7","2018/01/20 18:19:37","新北市新莊區中平路120號","121.444876666667","25.0463683333333","6500500","新莊區"
"242025","615-BX","2018/01/20 18:19:37","新北市新莊區五權一路12巷10號","121.457231666667","25.0646216666667","6500500","新莊區"
"242023","613-BX","2018/01/20 18:19:37","新北市新莊區新泰路357巷3弄57號","121.442135","25.0391333333333","6500500","新莊區"
"242027","612-BX","2018/01/20 18:19:30","新北市新莊區幸福路751號","121.448383333333","25.0491416666667","6500500","新莊區"
"242044","442-UM","2018/01/20 18:19:51","新北市新莊區新北大道七段850號","121.413843333333","25.0235233333333","6500500","新莊區"
"242053","440-UM","2018/01/20 18:19:38","新北市新莊區民安西路492號","121.432653333333","25.00718","6500500","新莊區"
"242034","415-TV","2018/01/20 18:19:51","新北市新莊區瓊林路13號","121.449471666667","25.031445","6500500","新莊區"
"242004","413-TV","2018/01/20 18:19:30","新北市新莊區中港一街71號","121.44994","25.0453616666667","6500500","新莊區"
"242042","400-BY","2018/01/20 18:19:34","新北市新莊區天祥街78號","121.415758333333","25.0293983333333","6500500","新莊區"
"242061","362-BY","2018/01/20 18:19:37","新北市新莊區四維路119巷9弄9號","121.42401","25.0233233333333","6500500","新莊區"
"242058","353-BY","2018/01/20 18:19:38","新北市新莊區新北大道七段786號","121.413011666667","25.0246783333333","6500500","新莊區"
"242007","132-UY","2018/01/20 18:19:40","新北市新莊區自強街37巷3號","121.454405","25.0464866666667","6500500","新莊區"
"242036","133-UY","2018/01/20 18:19:50","新北市新莊區後港一路33號","121.42527","25.0262","6500500","新莊區"
"242021","135-UY","2018/01/20 18:19:45","新北市新莊區新興街17號","121.450705","25.036975","6500500","新莊區"
"242046","172-VK","2018/01/20 18:19:40","新北市新莊區中正路829巷22弄41號","121.420768333333","25.0268566666667","6500500","新莊區"
"242009","173-VK","2018/01/20 18:19:30","新北市新莊區昌平街59巷36號","121.453723333333","25.05328","6500500","新莊區"
"242015","175-VK","2018/01/20 18:19:47","新北市新莊區中平路184巷10弄18號","121.44552","25.0483116666667","6500500","新莊區"
"242002","176-VK","2018/01/20 18:19:36","新北市新莊區環漢路二段385號","121.451176666667","25.0326666666667","6500500","新莊區"
"242051","347-TH","2018/01/20 18:19:48","新北市新莊區民本街27巷17號","121.429171666667","25.019285","6500500","新莊區"
"242056","349-TH","2018/01/20 18:19:50","新北市新莊區豐年街53巷48號","121.447943333333","25.0318266666667","6500500","新莊區"
"242011","351-TH","2018/01/20 18:19:43","新北市新莊區中港路615巷21弄1號","121.450028333333","25.0531083333333","6500500","新莊區"
"238015","755-BX","2018/01/20 18:19:45","新北市樹林區文德街4巷2號","121.419246666667","24.9914683333333","6500700","樹林區"
"238023","601-UM","2018/01/20 18:19:49","新北市樹林區三福街85巷11號","121.407366666667","25.0154683333333","6500700","樹林區"
"238019","599-UM","2018/01/20 18:19:47","新北市樹林區中華路70號","121.41975","24.9815383333333","6500700","樹林區"
"238018","571-TV","2018/01/20 18:19:46","新北市樹林區鎮前街78號","121.425535","24.9920716666667","6500700","樹林區"
"238024","5061-A6","2018/01/20 18:19:38","新北市樹林區育英街5號","121.422445","24.98908","6500700","樹林區"
"238021","KEA-2217","2018/01/20 18:19:36","新北市樹林區柑園街二段149巷1號","121.382331666667","24.95387","6500700","樹林區"
"238022","KEA-2213","2018/01/20 18:19:33","新北市樹林區太平路150巷18號","121.41772","24.9776433333333","6500700","樹林區"
"238025","303-VK","2018/01/20 18:19:39","新北市樹林區保安街一段324號","121.418385","24.9976233333333","6500700","樹林區"
"238017","283-BY","2018/01/20 18:19:45","新北市樹林區保安街二段337巷31號","121.411073333333","25.0082333333333","6500700","樹林區"
"238014","282-BY","2018/01/20 18:19:42","新北市樹林區大安路111巷2號","121.42292","24.9975483333333","6500700","樹林區"
"238020","268-VK","2018/01/20 18:19:44","新北市樹林區三俊街65巷20號","121.413355","25.01691","6500700","樹林區"
"238026","172-UY","2018/01/20 18:19:40","新北市樹林區佳園路一段75巷14弄8號","121.395466666667","24.96999","6500700","樹林區"
"238016","169-UY","2018/01/20 18:19:40","新北市樹林區文化街28號","121.419308333333","24.9876816666667","6500700","樹林區"
"239007","AAC-297","2018/01/20 18:19:45","新北市鶯歌區育英街69號","121.347355","24.952","6500800","鶯歌區"
"239006","891-R6","2018/01/20 18:19:37","新北市鶯歌區德昌街140巷4號","121.33199","24.9607066666667","6500800","鶯歌區"
"239008","527-UM","2018/01/20 18:19:38","新北市鶯歌區國際一路179號","121.336216666667","24.9765116666667","6500800","鶯歌區"
"239005","526-UM","2018/01/20 18:19:46","桃園市八德區桃鶯路129號","121.328476666667","24.9697366666667","6500800","鶯歌區"
"239001","417-VK","2018/01/20 18:19:35","新北市鶯歌區國中街209號","121.33786","24.938845","6500800","鶯歌區"
"239003","360-BY","2018/01/20 18:19:50","新北市鶯歌區福安街58號","121.335616666667","24.9652066666667","6500800","鶯歌區"
"239002","359-BY","2018/01/20 18:19:44","新北市鶯歌區中正一路478號","121.36646","24.9568266666667","6500800","鶯歌區"
"239004","193-VK","2018/01/20 18:19:34","新北市鶯歌區中正二路161號","121.344825","24.9492316666667","6500800","鶯歌區"
"221036","130-UY","2018/01/20 18:19:38","新北市汐止區長安路77巷2號","121.669098333333","25.07842","6501100","汐止區"
"221010","269-BY","2018/01/20 18:19:46","新北市汐止區祥雲街2號","121.645676666667","25.0895983333333","6501100","汐止區"
"221012","278-VK","2018/01/20 18:19:49","新北市汐止區保長路35巷13號","121.673176666667","25.0799433333333","6501100","汐止區"
"221023","279-VK","2018/01/20 18:19:39","新北市汐止區康寧街430號","121.63127","25.0675983333333","6501100","汐止區"
"221032","280-BY","2018/01/20 18:19:47","新北市汐止區民權街二段111號","121.618916666667","25.0469283333333","6501100","汐止區"
"221027","281-BY","2018/01/20 18:19:52","新北市汐止區和平街27號","121.662666666667","25.07074","6501100","汐止區"
"221029","298-VK","2018/01/20 18:19:41","新北市汐止區樟樹二路330巷68號","121.64296","25.069835","6501100","汐止區"
"221021","299-VK","2018/01/20 18:19:36","新北市汐止區龍安路202巷47號","121.652603333333","25.0637916666667","6501100","汐止區"
"221031","353-TW","2018/01/20 18:19:48","新北市汐止區大同路一段160-7號","121.635808333333","25.0551716666667","6501100","汐止區"
"221008","358-BY","2018/01/20 18:19:45","新北市汐止區康寧街901號","121.651365","25.075015","6501100","汐止區"
"221015","567-BX","2018/01/20 18:19:38","新北市汐止區鄉長路二段23巷19號","121.667965","25.0827966666667","6501100","汐止區"
"221035","622-UM","2018/01/20 18:19:49","新北市汐止區大同路二段187巷4弄1號","121.652316666667","25.0651483333333","6501100","汐止區"
"221025","623-UM","2018/01/20 18:19:37","新北市汐止區勤進路12巷37號","121.659096666667","25.0626416666667","6501100","汐止區"
"221038","646-BX","2018/01/20 18:19:49","新北市汐止區南昌街16號","121.663066666667","25.0684266666667","6501100","汐止區"
"221033","647-BX","2018/01/20 18:19:37","新北市汐止區宜興街53號","121.622501666667","25.04286","6501100","汐止區"
"221002","707-TV","2018/01/20 18:19:42","新北市汐止區福德一路201巷21號","121.636136666667","25.06479","6501100","汐止區"
"221018","753-BX","2018/01/20 18:19:41","新北市汐止區茄苳路85號","121.666898333333","25.0705583333333","6501100","汐止區"
