"lineid","car","time","location","longitude","latitude","cityid","cityname"
"234046","148-BY","2018/01/20 19:29:32","新北市永和區秀朗路二段257號","121.526335","24.9992883333333","6500400","永和區"
"234007","207-UY","2018/01/20 19:29:43","新北市永和區永和路一段104號","121.51336","25.0071866666667","6500400","永和區"
"234081","298-R6","2018/01/20 19:29:42","新北市永和區福和路5-9號","121.525425","25.0084883333333","6500400","永和區"
"234038","336-UY","2018/01/20 19:29:29","新北市永和區民樂街41巷1號","121.527485","25.000105","6500400","永和區"
"234064","337-UY","2018/01/20 19:29:42","新北市永和區中正路368巷1弄88號","121.520468333333","25.00074","6500400","永和區"
"234086","338-UY","2018/01/20 19:29:44","新北市永和區林森路65號","121.524198333333","25.004035","6500400","永和區"
"234070","552-UM","2018/01/20 19:29:39","新北市永和區警光街5-1號","121.5197","25.00945","6500400","永和區"
"234054","553-UM","2018/01/20 19:29:35","新北市永和區復興街19巷5號","121.516063333333","25.013095","6500400","永和區"
"234017","745-BX","2018/01/20 19:29:37","新北市永和區環河西路一段87號","121.512295","25.017865","6500400","永和區"
"234030","746-BX","2018/01/20 19:29:45","新北市永和區民生路8-1號","121.522643333333","24.9977083333333","6500400","永和區"
"234013","KEA-2591","2018/01/20 19:29:32","新北市永和區中山路一段138-1號","121.510133333333","25.0098416666667","6500400","永和區"
"234061","AAD-866","2018/01/20 19:29:28","新北市永和區永貞路175號","121.51509","25.0038466666667","6500400","永和區"
"234042","862-TW","2018/01/20 19:29:37","新北市永和區中和路519巷4號","121.510923333333","25.00298","6500400","永和區"
"234050","863-TW","2018/01/20 19:29:31","新北市永和區信義路118號","121.512405","25.0145116666667","6500400","永和區"
"234026","9371-KE","2018/01/20 19:29:34","新北市中和區安樂路255號","121.514078333333","24.9999083333333","6500400","永和區"
"234023","9381-KE","2018/01/20 19:29:44","新北市永和區竹林路91巷47弄2號","121.521525","25.0130766666667","6500400","永和區"
"234011","9373-KE","2018/01/20 19:29:44","新北市永和區保福路二段15巷11號","121.510518333333","25.0109616666667","6500400","永和區"
"249002","305-UY","2018/01/20 19:29:43","新北市八里區龍形一街33巷1-6號","121.449453333333","25.1293866666667","6502300","八里區"
"249003","593-UM","2018/01/20 19:29:37","新北市八里區中山路二段500巷30號","121.397161666667","25.1477833333333","6502300","八里區"
"248014","025-BX","2018/01/20 19:29:33","新北市五股區民義路一段185-19號","121.431296666667","25.0874633333333","6501500","五股區"
"248008","095-VK","2018/01/20 19:29:32","新北市五股區中興路一段95巷16號","121.46656","25.0723516666667","6501500","五股區"
"248018","225-UY","2018/01/20 19:29:37","新北市五股區凌雲路三段86號","121.430388333333","25.1182966666667","6501500","五股區"
"248012","247-BX","2018/01/20 19:29:34","新北市五股區中興路四段48巷16號","121.438626666667","25.0834233333333","6501500","五股區"
"248010","272-BY","2018/01/20 19:29:34","新北市五股區自強路90巷72號","121.430975","25.07123","6501500","五股區"
"248004","677-BX","2018/01/20 19:29:37","新北市五股區五福路73號","121.432491666667","25.0901783333333","6501500","五股區"
"248002","678-BX","2018/01/20 19:28:24","新北市五股區凌雲路一段158巷14-2號","121.448081666667","25.1034566666667","6501500","五股區"
"234077","969-R7","2018/01/20 19:29:32","新北市永和區民權路58巷2弄1號","121.519593333333","24.99833","6500400","永和區"
"234074","AAC-211","2018/01/20 19:29:46","新北市永和區環河東路二段48號","121.523116666667","25.0118816666667","6500400","永和區"
"234067","AAC-212","2018/01/20 19:29:36","新北市永和區永貞路360巷6號","121.51056","25.00685","6500400","永和區"
"234003","AAC-295","2018/01/20 19:29:39","新北市永和區福和路352號","121.514661666667","25.00746","6500400","永和區"
"244013","069-UM","2018/01/20 19:29:33","新北市林口區麗園一街1號","121.375698333333","25.07265","6501700","林口區"
"244019","402-UM","2018/01/20 19:29:43","新北市林口區四維路114號","121.377236666667","25.0781066666667","6501700","林口區"
"244009","410-SL","2018/01/20 19:29:47","新北市林口區林口路66號","121.390216666667","25.0793083333333","6501700","林口區"
"244023","483-VK","2018/01/20 19:29:47","新北市林口區仁愛路二段267巷7號","121.373295","25.0769566666667","6501700","林口區"
"243012","AAD-798","2018/01/20 19:29:48","新北市泰山區仁義路228號","121.43311","25.0535783333333","6501600","泰山區"
"243011","297-R6","2018/01/20 19:29:47","新北市泰山區中山路二段567號","121.429623333333","25.0401066666667","6501600","泰山區"
"243015","380-SR","2018/01/20 19:29:46","新北市泰山區明志路二段61號","121.429191666667","25.0526083333333","6501600","泰山區"
"243014","421-VK","2018/01/20 19:29:46","新北市泰山區泰林路二段46號","121.435545","25.05764","6501600","泰山區"
"243010","KEA-2215","2018/01/20 19:29:43","新北市泰山區民生路17巷49號","121.429375","25.0512816666667","6501600","泰山區"
"243009","KEA-2216","2018/01/20 19:29:47","新北市泰山區美寧街58號","121.430753333333","25.0646766666667","6501600","泰山區"
"243013","646-TV","2018/01/20 19:29:35","新北市泰山區明志路三段145巷5弄9號","121.425503333333","25.040285","6501600","泰山區"
"243016","680-BX","2018/01/20 19:29:49","新北市泰山區明志路三段356號","121.421376666667","25.0347183333333","6501600","泰山區"
"222003","436-BY","2018/01/20 19:29:40","新北市深坑區深南路51-1號","121.621136666667","25.0100216666667","6501800","深坑區"
"222002","659-BX","2018/01/20 19:29:36","新北市深坑區北深路一段177號","121.632545","25.0108383333333","6501800","深坑區"
"231060","001-UM","2018/01/20 19:29:37","新北市新店區安康路二段51號","121.514395","24.96343","6500600","新店區"
"231041","002-UM","2018/01/20 19:29:36","新北市新店區中正路543-4號","121.53367","24.98737","6500600","新店區"
"231059","046-UY","2018/01/20 19:29:33","新北市新店區安和路三段97號","121.517761666667","24.984275","6500600","新店區"
"231061","047-UY","2018/01/20 19:29:42","新北市新店區安民街84號","121.516636666667","24.96714","6500600","新店區"
"231051","107-UY","2018/01/20 19:29:37","新北市新店區中央五街21號","121.529405","24.97465","6500600","新店區"
"231048","108-UY","2018/01/20 19:29:41","新北市新店區五峰路157號","121.544958333333","24.9656216666667","6500600","新店區"
"231052","188-VK","2018/01/20 19:29:35","新北市新店區屈尺路2號","121.549341666667","24.9225283333333","6500600","新店區"
"231050","KEA-2219","2018/01/20 19:29:44","新北市新店區北宜路二段239號","121.553866666667","24.9535016666667","6500600","新店區"
"231057","256-BX","2018/01/20 19:29:45","新北市新店區花園一路二段23號","121.551081666667","24.9327083333333","6500600","新店區"
"231046","278-BY","2018/01/20 19:29:42","新北市新店區中正路111號","121.542426666667","24.9706983333333","6500600","新店區"
"231054","AAD-862","2018/01/20 19:29:47","新北市新店區文中路40號","121.539733333333","24.9565283333333","6500600","新店區"
"231058","3712-VJ","2018/01/20 19:29:35","新北市新店區北新路二段230-2號","121.543656666667","24.977685","6500600","新店區"
"231055","4716-K9","2018/01/20 19:29:47","新北市新店區安興路112號","121.515248333333","24.9772783333333","6500600","新店區"
"231065","512-UM","2018/01/20 19:29:40","新北市新店區安祥路109巷1弄27號","121.476541666667","24.9600683333333","6500600","新店區"
"231064","515-UM","2018/01/20 19:29:46","新北市新店區安康路二段85巷30號","121.513845","24.9620783333333","6500600","新店區"
"231042","616-UM","2018/01/20 19:29:33","新北市新店區中興路一段203號","121.543713333333","24.9658333333333","6500600","新店區"
"231045","617-UM","2018/01/20 19:29:37","新北市新店區北宜路二段207號","121.553125","24.9533666666667","6500600","新店區"
"231040","619-UM","2018/01/20 19:29:33","新北市新店區北新路一段311號","121.541445","24.9679116666667","6500600","新店區"
"231063","645-TV","2018/01/20 19:29:33","新北市新店區達觀路16號","121.50307","24.9408583333333","6500600","新店區"
"231049","719-UM","2018/01/20 19:29:36","新北市新店區北新路三段65巷34弄29號","121.539975","24.9820783333333","6500600","新店區"
"231062","720-UM","2018/01/20 19:29:40","新北市新店區莒光路1號","121.527893333333","24.9619033333333","6500600","新店區"
"231044","897-TW","2018/01/20 19:29:31","新北市新店區中興路三段147號","121.544413333333","24.9799416666667","6500600","新店區"
"231043","899-TW","2018/01/20 19:29:31","新北市新店區北新路二段198號","121.543073333333","24.9766716666667","6500600","新店區"
"231066","AKT-0513","2018/01/20 19:29:30","新北市新店區安康路三段207巷28號","121.488365","24.9507433333333","6500600","新店區"
"241028","022-UY","2018/01/20 19:29:28","新北市三重區中寮街90號","121.493215","25.05802","6500200","三重區"
"241008","059-VK","2018/01/20 19:29:29","新北市蘆洲區永安北路一段72巷4號","121.476953333333","25.07713","6500200","三重區"
"241009","060-VK","2018/01/20 19:29:34","新北市三重區溪尾街242巷76號","121.485975","25.081395","6500200","三重區"
"241031","061-VK","2018/01/20 19:29:46","新北市三重區成功路145巷47號","121.488035","25.05362","6500200","三重區"
"241020","156-TC","2018/01/20 19:29:32","新北市三重區三和路四段20巷22-1號","121.490218333333","25.0736766666667","6500200","三重區"
"241026","265-UM","2018/01/20 19:29:44","新北市三重區文化南路47巷30號","121.49918","25.0610766666667","6500200","三重區"
"241022","267-UM","2018/01/20 19:29:32","新北市三重區三民街141-2號","121.48451","25.0641466666667","6500200","三重區"
"241032","269-UM","2018/01/20 19:29:43","新北市三重區三陽路31號","121.485415","25.05885","6500200","三重區"
"241025","271-UM","2018/01/20 19:29:29","新北市三重區頂崁街210巷28弄9號","121.475775","25.0671666666667","6500200","三重區"
"241007","398-BY","2018/01/20 19:29:42","新北市三重區溪尾街124-2號","121.489386666667","25.07943","6500200","三重區"
"241035","462-BY","2018/01/20 19:29:40","新北市三重區長元西街37號","121.498056666667","25.0653183333333","6500200","三重區"
"241030","480-VK","2018/01/20 19:29:43","新北市三重區成功路41巷9號","121.490255","25.0514933333333","6500200","三重區"
"241006","AAD-863","2018/01/20 19:29:47","新北市三重區自強路三段75號","121.486966666667","25.0738266666667","6500200","三重區"
"241017","887-TS","2018/01/20 19:29:33","新北市三重區中正北路35號","121.491411666667","25.0626966666667","6500200","三重區"
"241029","942-UM","2018/01/20 19:29:28","新北市三重區中正南路216號","121.49373","25.0550066666667","6500200","三重區"
"235066","003-UY","2018/01/20 19:29:41","新北市中和區景新街38號","121.5034","24.9992933333333","6500300","中和區"
"235064","005-UY","2018/01/20 19:29:38","新北市中和區南山路81巷60號","121.504068333333","24.9979966666667","6500300","中和區"
"235063","006-UY","2018/01/20 19:29:39","新北市中和區連城路219巷22弄1號","121.494835","24.9963166666667","6500300","中和區"
"235056","096-UM","2018/01/20 19:29:49","新北市中和區民富街9號","121.476606666667","25.00723","6500300","中和區"
"235039","097-UM","2018/01/20 19:29:43","新北市中和區秀峰街80號","121.520116666667","24.9907483333333","6500300","中和區"
"235065","098-UM","2018/01/20 19:29:45","新北市中和區中山路二段64巷16弄5號","121.503461666667","25.00605","6500300","中和區"
"235040","150-BY","2018/01/20 19:29:34","新北市中和區保健路46巷39弄1號","121.508686666667","24.9955083333333","6500300","中和區"
"235058","151-BY","2018/01/20 19:29:35","新北市中和區員山路36巷16-8號","121.48545","24.9923166666667","6500300","中和區"
"235055","183-VK","2018/01/20 19:29:36","新北市中和區莒光路120巷54號","121.471653333333","25.0010233333333","6500300","中和區"
"235038","185-VK","2018/01/20 19:29:35","新北市中和區自立路127號","121.521901666667","24.9940783333333","6500300","中和區"
"235049","186-VK","2018/01/20 19:29:44","新北市中和區景新街273巷9號","121.509696666667","24.9938216666667","6500300","中和區"
"235067","255-BX","2018/01/20 19:29:49","新北市中和區連城路302號","121.483835","24.9962816666667","6500300","中和區"
"235044","293-VK","2018/01/20 19:29:41","新北市中和區捷運路161號","121.506275","24.9910783333333","6500300","中和區"
"235072","301-VK","2018/01/20 19:29:43","新北市中和區連城路265巷12弄2號","121.491725","24.99517","6500300","中和區"
"235043","352-BY","2018/01/20 19:29:38","新北市中和區景新街157號","121.506661666667","24.996455","6500300","中和區"
"235061","378-QA","2018/01/20 19:29:32","新北市中和區員山路362號","121.48097","25.0037566666667","6500300","中和區"
"235050","4979-A6","2018/01/20 19:29:33","新北市中和區中正路521號","121.488201666667","24.99383","6500300","中和區"
"235069","4980-A6","2018/01/20 19:29:47","新北市中和區福美路269號","121.498115","25.0050166666667","6500300","中和區"
"235042","551-UM","2018/01/20 19:29:46","新北市中和區中安街178巷2號","121.510993333333","24.9996183333333","6500300","中和區"
"235070","558-UM","2018/01/20 19:29:50","新北市中和區中和路6號","121.499513333333","25.0022516666667","6500300","中和區"
"235045","565-BX","2018/01/20 19:29:44","新北市中和區景新街402號","121.512673333333","24.9895","6500300","中和區"
"235054","640-BX","2018/01/20 19:29:30","新北市中和區國光街110號","121.469958333333","25.000695","6500300","中和區"
"235060","647-TV","2018/01/20 19:29:49","新北市中和區新生街114巷37弄12號","121.482403333333","25.0018266666667","6500300","中和區"
"235047","732-UM","2018/01/20 19:29:34","新北市中和區景平路259巷45號","121.506308333333","24.9928333333333","6500300","中和區"
"235046","733-UM","2018/01/20 19:29:34","新北市中和區忠孝街37巷47號","121.510805","24.9842333333333","6500300","中和區"
"235057","801-TS","2018/01/20 19:29:28","新北市中和區員山路423巷2弄1號","121.480625","25.0033616666667","6500300","中和區"
"235041","802-TS","2018/01/20 19:29:32","新北市中和區中安街80號","121.512336666667","25.001805","6500300","中和區"
"235052","805-TS","2018/01/20 19:29:28","新北市中和區華新街143巷67弄16號","121.507271666667","24.9790616666667","6500300","中和區"
"235048","896-TW","2018/01/20 19:29:46","新北市中和區忠孝街144號","121.51254","24.9871816666667","6500300","中和區"
"235053","900-TW","2018/01/20 19:29:30","新北市中和區華順街59號","121.466335","24.9983683333333","6500300","中和區"
"235051","157-BY","2018/01/20 19:29:30","新北市中和區景新街168-1號","121.505875","24.9969616666667","6500300","中和區"
"235037","AAC-213","2018/01/20 19:29:29","新北市中和區秀朗路三段10巷14弄43號","121.524006666667","24.9964916666667","6500300","中和區"
"235059","AAC-215","2018/01/20 19:29:42","新北市中和區圓通路252巷2-6號","121.49343","24.9916166666667","6500300","中和區"
"220065","072-UY","2018/01/20 19:29:31","新北市板橋區國泰街111巷17號","121.466121666667","25.0058833333333","6500100","板橋區"
"220086","073-UY","2018/01/20 19:29:40","新北市板橋區中正路216巷69號","121.457806666667","25.01898","6500100","板橋區"
"220106","075-UY","2018/01/20 19:29:38","新北市板橋區長江路三段49號","121.473575","25.0340316666667","6500100","板橋區"
"220069","AAD-861","2018/01/20 19:29:48","新北市板橋區貴興路49號","121.457351666667","25.0031983333333","6500100","板橋區"
"247004","336-TH","2018/01/20 19:29:35","新北市蘆洲區長安街247號","121.459033333333","25.0833116666667","6501400","蘆洲區"
"226004","312-R5","2018/01/20 19:29:43","新北市平溪區十分里十分街199號","121.778548333333","25.04392","6502400","平溪區"
"235071","251-BX","2018/01/20 19:29:32","新北市中和區連城路469巷21弄3號","121.483961666667","24.9951083333333","6500300","中和區"
"228003","097-TW","2018/01/20 19:29:33","新北市貢寮區和美里和美街19-2號","121.91284","25.0825916666667","6502600","貢寮區"
"228001","212-TW","2018/01/20 19:29:37","新北市貢寮區真理里延平街68-1號","121.925361666667","25.0574566666667","6502600","貢寮區"
"228002","663-BX","2018/01/20 19:29:40","新北市貢寮區龍門里龍門街62-5號","121.931648333333","25.0271233333333","6502600","貢寮區"
"224006","676-BX","2018/01/20 19:29:26","新北市瑞芳區東和路3號","121.80455","25.1061266666667","6501200","瑞芳區"
"224002","639-TC","2018/01/20 19:29:43","新北市瑞芳區三爪子坑路13巷25號","121.814136666667","25.1069266666667","6501200","瑞芳區"
"224008","275-VK","2018/01/20 19:29:38","新北市瑞芳區一坑路285號","121.801161666667","25.108495","6501200","瑞芳區"
"224007","272-VK","2018/01/20 19:29:40","新北市瑞芳區濱二路40號","121.832796666667","25.1167633333333","6501200","瑞芳區"
"224005","271-BY","2018/01/20 19:10:34","新北市瑞芳區大寮路356-1號","121.784711666667","25.1032133333333","6501200","瑞芳區"
"227010","642-TC","2018/01/20 19:29:45","新北市雙溪區新基里新基北街43號","121.868155","25.0397116666667","6502500","雙溪區"
"227002","400-TW","2018/01/20 19:29:39","新北市雙溪區雙溪里光復街18號","121.865123333333","25.0354616666667","6502500","雙溪區"
"253005","032-BX","2018/01/20 19:29:44","新北市石門區小坑9號","121.594365","25.2886183333333","6502200","石門區"
"253006","295-VK","2018/01/20 19:29:45","新北市石門區老梅路14號","121.544861666667","25.28781","6502200","石門區"
"222001","KEA-2212","2018/01/20 19:29:43","新北市深坑區北深路二段134號","121.615875","25.0030016666667","6501800","深坑區"
"208002","742-BX","2018/01/20 19:29:31","新北市金山區仁愛路78巷2號","121.634723333333","25.2215716666667","6502700","金山區"
"208003","665-BX","2018/01/20 19:29:29","新北市金山區中山路263巷10號","121.636343333333","25.221615","6502700","金山區"
"208001","761-BX","2018/01/20 19:29:49","新北市金山區金包里街舊市場24號","121.638695","25.2216316666667","6502700","金山區"
"251009","008-UM","2018/01/20 19:29:34","新北市淡水區大忠街5巷6號","121.44328","25.17647","6501000","淡水區"
"251001","011-UM","2018/01/20 19:29:28","新北市淡水區民權路135號","121.460033333333","25.13659","6501000","淡水區"
"251013","179-VK","2018/01/20 19:29:30","新北市淡水區大牛稠6號","121.469896666667","25.2175566666667","6501000","淡水區"
"251014","180-VK","2018/01/20 19:29:45","新北市淡水區小中寮19-7號","121.484753333333","25.2296283333333","6501000","淡水區"
"251015","182-VK","2018/01/20 19:29:38","新北市淡水區北新路三段38巷3號","121.484475","25.18707","6501000","淡水區"
"251010","413-VK","2018/01/20 19:29:33","新北市淡水區中正路二段151號","121.422815","25.1876983333333","6501000","淡水區"
"251012","441-VK","2018/01/20 19:29:30","新北市淡水區中山北路三段164號","121.44572","25.19657","6501000","淡水區"
"251016","442-VK","2018/01/20 19:29:39","新北市淡水區淡金路三段350巷18號","121.45082","25.2083866666667","6501000","淡水區"
"251005","443-VK","2018/01/20 19:29:35","新北市淡水區水源街一段71巷18號","121.444285","25.172945","6501000","淡水區"
"251006","561-UM","2018/01/20 19:29:36","新北市淡水區大義街32號","121.442391666667","25.178315","6501000","淡水區"
"251007","577-R6","2018/01/20 19:29:44","新北市淡水區坪頂路52巷18號","121.457673333333","25.162425","6501000","淡水區"
"251011","650-BX","2018/01/20 19:29:42","新北市淡水區中正東路二段161巷11弄14號","121.460558333333","25.146355","6501000","淡水區"
"207003","550-UM","2018/01/20 19:29:34","新北市萬里區大鵬里萬里加投193號","121.644401666667","25.214535","6502800","萬里區"
"207004","225-TW","2018/01/20 19:29:28","新北市萬里區萬里里瑪鋉路127-8號","121.688911666667","25.1778583333333","6502800","萬里區"
"252002","178-VK","2018/01/20 19:29:30","新北市三芝區淡金路二段21號","121.502733333333","25.259535","6502100","三芝區"
"252001","292-VK","2018/01/20 19:29:45","新北市三芝區長勤街63-3號","121.500085","25.2557616666667","6502100","三芝區"
"237004","078-UY","2018/01/20 19:29:41","新北市三峽區有木111-1號","121.43481","24.85968","6500900","三峽區"
"237007","153-BY","2018/01/20 19:29:41","新北市三峽區二鬮路178號","121.35907","24.9068566666667","6500900","三峽區"
"237009","210-TH","2018/01/20 19:29:39","新北市三峽區中山路11號","121.369451666667","24.9343666666667","6500900","三峽區"
"237013","252-BX","2018/01/20 19:29:40","新北市三峽區介壽路一段316-1號","121.380736666667","24.930205","6500900","三峽區"
"237012","275-BY","2018/01/20 19:29:29","新北市三峽區三樹路98巷171號","121.38456","24.9398883333333","6500900","三峽區"
"237008","302-VK","2018/01/20 19:29:33","新北市三峽區中正路一段231號","121.372003333333","24.926945","6500900","三峽區"
"237006","5529-G3","2018/01/20 19:29:46","新北市三峽區中正路一段292巷29弄8號","121.369918333333","24.9254716666667","6500900","三峽區"
"237016","649-BX","2018/01/20 19:29:45","新北市三峽區溪東路416號","121.41487","24.9276733333333","6500900","三峽區"
"237010","706-TV","2018/01/20 19:29:37","新北市三峽區復興路30-4號","121.374198333333","24.9362133333333","6500900","三峽區"
"237005","AKY-6261","2018/01/20 19:29:32","新北市三峽區復興路367巷1弄15號","121.364015","24.9380066666667","6500900","三峽區"
"236073","105-UM","2018/01/20 19:29:41","新北市土城區學府路一段157號","121.453191666667","24.985935","6501300","土城區"
"236031","253-BX","2018/01/20 19:29:39","新北市土城區中央路一段332號","121.443138333333","24.9813716666667","6501300","土城區"
"236027","269-VK","2018/01/20 19:29:38","新北市土城區中央路二段61巷26號","121.44325","24.9787116666667","6501300","土城區"
"236023","401-BY","2018/01/20 19:29:43","新北市土城區明峰街83號","121.468878333333","24.9873916666667","6501300","土城區"
"236059","912-UM","2018/01/20 19:29:45","新北市土城區光明街28巷34號","121.441213333333","24.9741666666667","6501300","土城區"
"236049","913-UM","2018/01/20 19:29:37","新北市土城區清水路232號","121.461041666667","24.98241","6501300","土城區"
"236063","915-UM","2018/01/20 19:29:38","新北市土城區金城路三段202-3號","121.469453333333","24.98853","6501300","土城區"
"242044","442-UM","2018/01/20 19:29:31","新北市新莊區雙鳳路134巷2號","121.413045","25.0278866666667","6500500","新莊區"
"242034","415-TV","2018/01/20 19:29:30","新北市新莊區環河路462號","121.44008","25.0198583333333","6500500","新莊區"
"238015","755-BX","2018/01/20 19:29:45","新北市樹林區啟智街127巷27號","121.419265","24.9899266666667","6500700","樹林區"
"238023","601-UM","2018/01/20 19:29:29","新北市樹林區中正路865號","121.40877","25.0181883333333","6500700","樹林區"
"238019","599-UM","2018/01/20 19:29:27","新北市樹林區大同街5號","121.418663333333","24.9827916666667","6500700","樹林區"
"238018","571-TV","2018/01/20 19:29:45","新北市樹林區中華路77號","121.422953333333","24.982995","6500700","樹林區"
"238024","5061-A6","2018/01/20 19:29:38","新北市樹林區中山路三段245號","121.392735","24.9721566666667","6500700","樹林區"
"238021","KEA-2217","2018/01/20 19:29:38","新北市樹林區柑園街二段203巷16號","121.376783333333","24.9510933333333","6500700","樹林區"
"238022","KEA-2213","2018/01/20 19:29:33","新北市樹林區名園街21號","121.41935","24.97927","6500700","樹林區"
"238025","303-VK","2018/01/20 19:29:39","新北市樹林區中山路一段103號","121.423158333333","24.991055","6500700","樹林區"
"238017","283-BY","2018/01/20 19:29:45","新北市樹林區光華街2號","121.413566666667","25.0037066666667","6500700","樹林區"
"238014","282-BY","2018/01/20 19:29:41","新北市樹林區保安二街64巷29號","121.424446666667","24.99677","6500700","樹林區"
"238020","268-VK","2018/01/20 19:29:36","新北市樹林區俊英街111巷1-5號","121.42427","25.0094283333333","6500700","樹林區"
"238026","172-UY","2018/01/20 19:29:34","新北市樹林區佳園路二段138號","121.389481666667","24.9561266666667","6500700","樹林區"
"238016","169-UY","2018/01/20 19:29:44","新北市樹林區復興路410號","121.414348333333","24.9847766666667","6500700","樹林區"
"239007","AAC-297","2018/01/20 19:29:45","新北市鶯歌區中山路138巷3-10號","121.349551666667","24.9585516666667","6500800","鶯歌區"
"239006","891-R6","2018/01/20 19:29:41","新北市鶯歌區建國路512巷24號","121.340013333333","24.951115","6500800","鶯歌區"
"239008","527-UM","2018/01/20 19:29:38","新北市鶯歌區大湖路335號","121.341698333333","24.9725616666667","6500800","鶯歌區"
"239001","417-VK","2018/01/20 19:29:38","新北市鶯歌區尖山埔路130號","121.34386","24.94983","6500800","鶯歌區"
"239003","360-BY","2018/01/20 19:29:30","新北市鶯歌區國華路31號","121.34284","24.9556333333333","6500800","鶯歌區"
"239002","359-BY","2018/01/20 19:29:44","新北市鶯歌區大湖路420號","121.342355","24.9729483333333","6500800","鶯歌區"
"239004","193-VK","2018/01/20 19:29:34","新北市鶯歌區二甲路中心巷13弄1號","121.337758333333","24.9354633333333","6500800","鶯歌區"
"221036","130-UY","2018/01/20 19:29:38","新北市汐止區汐萬路一段256巷1號","121.651933333333","25.0747666666667","6501100","汐止區"
"221010","269-BY","2018/01/20 19:29:46","新北市汐止區連峰街1巷1號","121.646491666667","25.07601","6501100","汐止區"
"221012","278-VK","2018/01/20 19:29:45","新北市汐止區大同路三段174號","121.67403","25.0750533333333","6501100","汐止區"
"221023","279-VK","2018/01/20 19:29:39","新北市汐止區康寧街607號","121.63605","25.0708816666667","6501100","汐止區"
"221032","280-BY","2018/01/20 19:29:31","新北市汐止區康寧街901號","121.650996666667","25.0752133333333","6501100","汐止區"
"221027","281-BY","2018/01/20 19:29:32","新北市汐止區忠孝東路9號","121.658288333333","25.0659583333333","6501100","汐止區"
"221029","298-VK","2018/01/20 19:27:41","新北市汐止區康寧街901號","121.651663333333","25.0748666666667","6501100","汐止區"
"221031","353-TW","2018/01/20 19:29:28","新北市汐止區康寧街901號","121.651466666667","25.074995","6501100","汐止區"
"221008","358-BY","2018/01/20 19:29:32","新北市汐止區康寧街241號","121.624665","25.0668333333333","6501100","汐止區"
"221015","567-BX","2018/01/20 19:29:38","新北市汐止區康寧街901號","121.651655","25.0749633333333","6501100","汐止區"
"221025","623-UM","2018/01/20 19:29:37","新北市汐止區新台五路二段22號","121.660608333333","25.065135","6501100","汐止區"
"221038","646-BX","2018/01/20 19:29:29","新北市汐止區汐萬路一段115巷1號","121.65447","25.0705183333333","6501100","汐止區"
"221033","647-BX","2018/01/20 19:29:37","新北市汐止區南勢街3號","121.627058333333","25.0373916666667","6501100","汐止區"
"221002","707-TV","2018/01/20 19:29:41","新北市汐止區大同路一段344號","121.638116666667","25.0590383333333","6501100","汐止區"
"220079","145-BY","2018/01/20 19:29:46","新北市板橋區民權路202巷13弄12號","121.459295","25.0162533333333","6500100","板橋區"
"220080","200-UY","2018/01/20 19:29:42","新北市板橋區大觀路二段3巷55號","121.449256666667","25.0034966666667","6500100","板橋區"
"220082","610-BX","2018/01/20 19:29:37","新北市板橋區金門街116-3號","121.43298","24.9917816666667","6500100","板橋區"
"220101","245-BX","2018/01/20 19:29:39","新北市板橋區縣民大道三段135號","121.477635","25.023345","6500100","板橋區"
"220096","257-TC","2018/01/20 19:29:30","新北市板橋區大同街35巷21號","121.47682","25.027765","6500100","板橋區"
"220056","276-BY","2018/01/20 19:29:41","新北市板橋區信義路1巷26弄13號","121.45844","24.9967966666667","6500100","板橋區"
"220072","277-BY","2018/01/20 19:29:44","新北市板橋區金門街339-2號","121.429298333333","24.9856316666667","6500100","板橋區"
"220071","283-VK","2018/01/20 19:29:42","新北市板橋區忠孝路24巷15號","121.460206666667","25.0013183333333","6500100","板橋區"
"220094","285-UM","2018/01/20 19:29:40","新北市板橋區吳鳳路50巷8號","121.468773333333","25.0301783333333","6500100","板橋區"
"220053","285-VK","2018/01/20 19:29:29","新北市板橋區永豐街104號","121.476023333333","25.02054","6500100","板橋區"
"220083","286-VK","2018/01/20 19:29:40","新北市板橋區龍興街73巷29號","121.442675","25.0026433333333","6500100","板橋區"
"220081","287-VK","2018/01/20 19:29:29","新北市板橋區南雅南路一段106號","121.454961666667","25.00431","6500100","板橋區"
"220090","288-VK","2018/01/20 19:29:38","新北市板橋區長江路一段106巷20弄11號","121.460153333333","25.0282483333333","6500100","板橋區"
"220061","293-UM","2018/01/20 19:29:40","新北市板橋區中山路二段257號","121.47728","25.0177666666667","6500100","板橋區"
"220084","296-UM","2018/01/20 19:29:44","新北市板橋區滿平街139號","121.428955","24.98816","6500100","板橋區"
"220075","303-R5","2018/01/20 19:29:40","新北市板橋區中正路253巷7號","121.455305","25.0181633333333","6500100","板橋區"
"220062","305-R5","2018/01/20 19:29:38","新北市板橋區三民路二段123巷20號","121.480216666667","25.01556","6500100","板橋區"
"220092","307-R5","2018/01/20 19:29:27","新北市板橋區文化路二段125巷15號","121.469473333333","25.027005","6500100","板橋區"
"220098","317-R6","2018/01/20 19:29:26","新北市板橋區四維路266巷5弄15號","121.463603333333","25.0289033333333","6500100","板橋區"
"220064","486-VK","2018/01/20 19:29:47","新北市板橋區館前東路21號","121.460286666667","25.0072466666667","6500100","板橋區"
"220089","487-VK","2018/01/20 19:29:45","新北市板橋區文化路一段135號","121.462171666667","25.0151866666667","6500100","板橋區"
"220088","491-VK","2018/01/20 19:29:44","新北市板橋區雙十路二段39-1號","121.476693333333","25.0260883333333","6500100","板橋區"
"220035","560-BX","2018/01/20 19:29:30","新北市板橋區中正路411號","121.453978333333","25.0225733333333","6500100","板橋區"
"220103","561-BX","2018/01/20 19:29:44","新北市板橋區文化路一段270巷3弄2號","121.467498333333","25.0208933333333","6500100","板橋區"
"220063","609-BX","2018/01/20 19:29:45","新北市板橋區三民路一段31巷89弄2號","121.481538333333","25.023445","6500100","板橋區"
"220055","630-UY","2018/01/20 19:29:43","新北市板橋區重慶路290巷22弄14號","121.462223333333","24.9994433333333","6500100","板橋區"
"220091","637-BX","2018/01/20 19:29:43","新北市板橋區文聖街149巷23弄16號","121.479171666667","25.0289466666667","6500100","板橋區"
"220057","686-BX","2018/01/20 19:29:40","新北市板橋區五權街28號","121.464603333333","24.9936216666667","6500100","板橋區"
"220077","687-BX","2018/01/20 19:29:42","新北市板橋區僑中二街116巷1號","121.445643333333","25.0062383333333","6500100","板橋區"
"220093","689-BX","2018/01/20 19:29:45","新北市板橋區英士路49-1號","121.461063333333","25.0245516666667","6500100","板橋區"
"220054","741-BX","2018/01/20 19:29:49","新北市板橋區光明街4號","121.459941666667","25.002505","6500100","板橋區"
"220067","829-TW","2018/01/20 19:29:30","新北市板橋區漢生東路339號","121.472196666667","25.007295","6500100","板橋區"
"220102","830-TW","2018/01/20 19:29:31","新北市板橋區雙十路二段130巷2弄1號","121.474233333333","25.029235","6500100","板橋區"
"220074","895-R6","2018/01/20 19:29:36","新北市板橋區西門街14號","121.455393333333","25.0115283333333","6500100","板橋區"
"220073","985-R7","2018/01/20 19:29:36","新北市板橋區中正路316號","121.4548","25.0208","6500100","板橋區"
"220097","AAC-210","2018/01/20 19:29:42","新北市板橋區新海路135巷1號","121.460583333333","25.0234183333333","6500100","板橋區"
"220070","AAC-253","2018/01/20 19:29:36","新北市板橋區四川路一段46號","121.45948","25.005945","6500100","板橋區"
