"lineid","car","time","location","longitude","latitude","cityid","cityname"
"234046","148-BY","2018/01/20 19:59:32","新北市永和區成功路一段77號","121.526885","25.0031633333333","6500400","永和區"
"234007","207-UY","2018/01/20 19:59:42","新北市永和區中山路一段238號","121.507455","25.00764","6500400","永和區"
"234081","298-R6","2018/01/20 19:59:36","新北市永和區永亨路98號","121.523033333333","25.004665","6500400","永和區"
"234038","336-UY","2018/01/20 19:59:29","新北市永和區成功路二段177-1號","121.526648333333","24.99672","6500400","永和區"
"234064","337-UY","2018/01/20 19:59:42","新北市永和區中正路412巷2弄11號","121.518511666667","25.0019516666667","6500400","永和區"
"234086","338-UY","2018/01/20 19:59:44","新北市永和區福和路10巷2號","121.524755","25.008735","6500400","永和區"
"234070","552-UM","2018/01/20 19:59:38","新北市永和區國光路6號","121.519711666667","25.0086083333333","6500400","永和區"
"234054","553-UM","2018/01/20 19:59:50","新北市永和區環河東路一段122號","121.520706666667","25.0156516666667","6500400","永和區"
"234017","745-BX","2018/01/20 19:59:45","新北市永和區文化路65號","121.514025","25.0150566666667","6500400","永和區"
"234030","746-BX","2018/01/20 19:59:45","新北市永和區民生路22巷5號","121.522108333333","24.99724","6500400","永和區"
"234013","KEA-2591","2018/01/20 19:59:32","新北市永和區保生路55號","121.5047","25.0104516666667","6500400","永和區"
"234061","AAD-866","2018/01/20 19:59:48","新北市永和區得和路78號","121.516585","25.00008","6500400","永和區"
"234042","862-TW","2018/01/20 19:59:37","新北市永和區中和路305巷4弄25號","121.507486666667","25.00036","6500400","永和區"
"234050","863-TW","2018/01/20 19:59:31","新北市永和區保安路250號","121.506381666667","25.01253","6500400","永和區"
"234026","9371-KE","2018/01/20 19:59:31","新北市永和區水源街21巷2號","121.511351666667","25.0045633333333","6500400","永和區"
"234023","9381-KE","2018/01/20 19:59:42","新北市永和區中正路702巷18號","121.51648","25.01048","6500400","永和區"
"234011","9373-KE","2018/01/20 19:59:44","新北市永和區仁愛路352巷112弄12號","121.501206666667","25.008475","6500400","永和區"
"249005","172-UM","2018/01/20 19:59:36","新北市八里區楓林路3-2號","121.382181666667","25.1302666666667","6502300","八里區"
"249001","173-UM","2018/01/20 19:59:29","新北市八里區中華路二段310號","121.40376","25.1484516666667","6502300","八里區"
"249004","303-UY","2018/01/20 19:59:39","新北市八里區中華路一段333-1號","121.412985","25.154275","6502300","八里區"
"249002","305-UY","2018/01/20 19:59:43","新北市八里區龍米路一段87巷1號","121.454346666667","25.1233683333333","6502300","八里區"
"249003","593-UM","2018/01/20 19:59:37","新北市八里區中華路二段560巷1號","121.398718333333","25.1450333333333","6502300","八里區"
"248014","025-BX","2018/01/20 19:59:33","新北市五股區五福路14巷8號","121.43479","25.0887466666667","6501500","五股區"
"248016","026-BX","2018/01/20 19:59:41","新北市五股區成泰路三段577巷80弄25號","121.449598333333","25.1045266666667","6501500","五股區"
"248008","095-VK","2018/01/20 19:59:11","新北市五股區四維路153號","121.467763333333","25.0744916666667","6501500","五股區"
"248018","225-UY","2018/01/20 19:59:37","新北市五股區凌雲路三段24巷24號","121.435336666667","25.1043566666667","6501500","五股區"
"248012","247-BX","2018/01/20 19:59:34","新北市五股區民義路一段112-5號","121.435255","25.0853366666667","6501500","五股區"
"248010","272-BY","2018/01/20 19:59:34","新北市五股區登林路88號","121.42909","25.0694483333333","6501500","五股區"
"248004","677-BX","2018/01/20 19:59:37","新北市五股區成泰路一段48-1號","121.435423333333","25.069085","6501500","五股區"
"248002","678-BX","2018/01/20 19:59:45","新北市五股區成泰路三段350號","121.450675","25.0987783333333","6501500","五股區"
"234077","969-R7","2018/01/20 19:59:36","新北市永和區智光街101號","121.51625","24.9968683333333","6500400","永和區"
"234074","AAC-211","2018/01/20 19:59:42","新北市永和區豫溪街191巷1弄2號","121.523231666667","25.0103266666667","6500400","永和區"
"234067","AAC-212","2018/01/20 19:59:39","新北市永和區中山路一段283號","121.506981666667","25.0069633333333","6500400","永和區"
"234003","AAC-295","2018/01/20 19:59:39","新北市永和區中正路706號","121.516138333333","25.00991","6500400","永和區"
"243012","AAD-798","2018/01/20 19:59:46","新北市泰山區全興路24號","121.43247","25.0586666666667","6501600","泰山區"
"243011","297-R6","2018/01/20 19:59:47","新北市泰山區明志路三段182巷56號","121.422793333333","25.039805","6501600","泰山區"
"243015","380-SR","2018/01/20 19:59:45","新北市泰山區明志路二段214巷9號","121.426731666667","25.0488783333333","6501600","泰山區"
"243014","421-VK","2018/01/20 19:59:46","新北市泰山區泰林路二段118號","121.434526666667","25.0593066666667","6501600","泰山區"
"243010","KEA-2215","2018/01/20 19:59:31","新北市泰山區中華街10巷1號","121.427896666667","25.0524916666667","6501600","泰山區"
"243009","KEA-2216","2018/01/20 19:59:27","新北市泰山區泰林路二段164巷30號","121.434431666667","25.06113","6501600","泰山區"
"243013","646-TV","2018/01/20 19:59:48","新北市泰山區明志路三段6巷16號","121.424066666667","25.0435433333333","6501600","泰山區"
"243016","680-BX","2018/01/20 19:59:09","新北市泰山區貴鳳街17號","121.42199","25.0318166666667","6501600","泰山區"
"222003","436-BY","2018/01/20 19:59:33","新北市深坑區埔新街14號","121.620763333333","25.0039216666667","6501800","深坑區"
"222002","659-BX","2018/01/20 19:59:36","新北市深坑區埔新街112巷10號","121.61843","25.0023333333333","6501800","深坑區"
"231060","001-UM","2018/01/20 19:59:35","新北市新店區安康路二段436號","121.49576","24.95494","6500600","新店區"
"231041","002-UM","2018/01/20 19:59:36","新北市新店區中正路352號","121.535951666667","24.9755066666667","6500600","新店區"
"231059","046-UY","2018/01/20 19:59:33","新北市新店區安康路二段147號","121.51124","24.959975","6500600","新店區"
"231061","047-UY","2018/01/20 19:59:42","新北市新店區安民街166號","121.516805","24.9705966666667","6500600","新店區"
"231051","107-UY","2018/01/20 19:59:37","新北市新店區中央二街12號","121.529","24.9732233333333","6500600","新店區"
"231048","108-UY","2018/01/20 19:59:41","新北市新店區寶橋路138號","121.547705","24.9764716666667","6500600","新店區"
"231052","188-VK","2018/01/20 19:59:35","新北市新店區新烏路三段寶島巷4號","121.55153","24.8994333333333","6500600","新店區"
"231050","KEA-2219","2018/01/20 19:59:44","新北市新店區北宜路一段59號","121.538353333333","24.9567033333333","6500600","新店區"
"231057","256-BX","2018/01/20 19:59:35","新北市新店區花園二路一段11號","121.55543","24.9325833333333","6500600","新店區"
"231054","AAD-862","2018/01/20 19:59:47","新北市新店區光明街182號","121.539766666667","24.9621583333333","6500600","新店區"
"231056","3713-VJ","2018/01/20 19:59:28","新北市新店區北新路三段105巷1號","121.541145","24.98205","6500600","新店區"
"231055","4716-K9","2018/01/20 19:59:27","新北市新店區中華路83巷67號","121.538226666667","24.9672033333333","6500600","新店區"
"231067","4772-VM","2018/01/20 19:59:37","新北市新店區秀山路11巷12弄15號","121.531443333333","24.959555","6500600","新店區"
"231065","512-UM","2018/01/20 19:59:40","新北市新店區安祥路108巷3號","121.475056666667","24.9588716666667","6500600","新店區"
"231064","515-UM","2018/01/20 19:59:46","新北市新店區光華街22號","121.516966666667","24.9692683333333","6500600","新店區"
"231042","616-UM","2018/01/20 19:59:33","新北市新店區中興路二段100巷1號","121.547548333333","24.9715883333333","6500600","新店區"
"231045","617-UM","2018/01/20 19:59:37","新北市新店區北宜路二段148號","121.557651666667","24.953885","6500600","新店區"
"231040","619-UM","2018/01/20 19:59:32","新北市新店區中正路62號","121.544271666667","24.9701533333333","6500600","新店區"
"231063","645-TV","2018/01/20 19:59:33","新北市新店區黎明路11號","121.502051666667","24.9499966666667","6500600","新店區"
"231068","718-UY","2018/01/20 19:59:40","新北市新店區安華路28-1號","121.519318333333","24.960905","6500600","新店區"
"231049","719-UM","2018/01/20 19:59:36","新北市新店區明德路38號","121.54142","24.977845","6500600","新店區"
"231062","720-UM","2018/01/20 19:59:40","新北市新店區華城路10巷1-3號","121.52881","24.957785","6500600","新店區"
"231044","897-TW","2018/01/20 19:59:31","新北市新店區復興路27號","121.539055","24.9867016666667","6500600","新店區"
"231043","899-TW","2018/01/20 19:59:31","新北市新店區中正路263-2號","121.538451666667","24.9737883333333","6500600","新店區"
"231066","AKT-0513","2018/01/20 19:59:30","新北市新店區柴埕路29號","121.513941666667","24.9657933333333","6500600","新店區"
"241011","013-R5","2018/01/20 19:59:38","新北市三重區介壽路11號","121.49891","25.0692333333333","6500200","三重區"
"241028","022-UY","2018/01/20 19:59:28","新北市三重區中正南路22號","121.493588333333","25.0603783333333","6500200","三重區"
"241008","059-VK","2018/01/20 19:59:45","新北市三重區永福街179巷28號","121.478035","25.0747616666667","6500200","三重區"
"241009","060-VK","2018/01/20 19:59:34","新北市三重區三和路四段390巷25號","121.480801666667","25.078745","6500200","三重區"
"241031","061-VK","2018/01/20 19:59:46","新北市三重區重新路四段144巷17號","121.487015","25.05532","6500200","三重區"
"241015","062-VK","2018/01/20 19:59:36","新北市三重區三和路二段31號","121.50096","25.0671316666667","6500200","三重區"
"241024","065-VK","2018/01/20 19:59:34","新北市三重區力行路一段277號","121.482196666667","25.0714116666667","6500200","三重區"
"241002","090-VK","2018/01/20 19:59:31","新北市三重區仁愛街357巷3號","121.492273333333","25.0800616666667","6500200","三重區"
"241003","091-VK","2018/01/20 19:59:35","新北市三重區仁愛街445巷39號","121.490965","25.08299","6500200","三重區"
"241020","156-TC","2018/01/20 19:59:32","新北市三重區三和路三段170巷63號","121.490388333333","25.072585","6500200","三重區"
"241005","262-UM","2018/01/20 19:59:41","新北市三重區五華街251號","121.489025","25.086305","6500200","三重區"
"241026","265-UM","2018/01/20 19:59:44","新北市三重區重新路一段102號","121.501195","25.063185","6500200","三重區"
"241016","266-UM","2018/01/20 19:59:43","新北市三重區正義北路36巷10號","121.496756666667","25.0633316666667","6500200","三重區"
"241022","267-UM","2018/01/20 19:59:32","新北市三重區過圳街31巷5號","121.489296666667","25.0604616666667","6500200","三重區"
"241018","268-UM","2018/01/20 19:59:40","新北市三重區雙園街92號","121.495255","25.0675466666667","6500200","三重區"
"241032","269-UM","2018/01/20 19:59:35","新北市三重區朝陽街55號","121.483538333333","25.0574916666667","6500200","三重區"
"241013","270-UM","2018/01/20 19:59:30","新北市三重區三和路三段113巷18號","121.493953333333","25.0734783333333","6500200","三重區"
"241025","271-UM","2018/01/20 19:59:49","新北市三重區頂崁街210巷16號","121.476431666667","25.067785","6500200","三重區"
"241007","398-BY","2018/01/20 19:59:48","新北市三重區溪尾街124-2號","121.489383333333","25.0794483333333","6500200","三重區"
"241035","462-BY","2018/01/20 19:59:40","新北市三重區大榮街13號","121.498303333333","25.0630933333333","6500200","三重區"
"241004","475-VK","2018/01/20 19:59:28","新北市三重區五華街74號","121.493451666667","25.0819966666667","6500200","三重區"
"241019","478-VK","2018/01/20 19:59:45","新北市三重區重陽路四段11號","121.491068333333","25.0691116666667","6500200","三重區"
"241030","480-VK","2018/01/20 19:59:43","新北市三重區重新路四段254號","121.485753333333","25.0531733333333","6500200","三重區"
"241014","543-UM","2018/01/20 19:59:35","新北市三重區三和路二段156號","121.499351666667","25.068565","6500200","三重區"
"241023","545-UM","2018/01/20 19:59:49","新北市三重區大有街1-9號","121.477593333333","25.0660233333333","6500200","三重區"
"241001","547-UM","2018/01/20 19:59:47","新北市三重區福隆路14號","121.491366666667","25.0778716666667","6500200","三重區"
"241033","557-UM","2018/01/20 19:59:50","新北市三重區中興北街20號","121.469643333333","25.0484833333333","6500200","三重區"
"241006","AAD-863","2018/01/20 19:59:47","新北市三重區力行路二段122號","121.482116666667","25.0749383333333","6500200","三重區"
"241017","887-TS","2018/01/20 19:59:33","新北市三重區自強路一段298號","121.49142","25.0683033333333","6500200","三重區"
"241012","941-UM","2018/01/20 19:59:41","新北市三重區仁義街27號","121.499941666667","25.0763633333333","6500200","三重區"
"241029","942-UM","2018/01/20 19:59:28","新北市三重區重安街1號","121.489973333333","25.0582266666667","6500200","三重區"
"235066","003-UY","2018/01/20 19:59:41","新北市中和區光華街28號","121.504706666667","25.0041266666667","6500300","中和區"
"235056","096-UM","2018/01/20 19:59:49","新北市中和區中山路三段170巷8弄19號","121.473086666667","25.007715","6500300","中和區"
"235039","097-UM","2018/01/20 19:59:43","新北市中和區大勇街25巷29弄2號","121.515236666667","24.9939316666667","6500300","中和區"
"235065","098-UM","2018/01/20 19:59:44","新北市中和區福祥路102號","121.499085","25.0060933333333","6500300","中和區"
"235040","150-BY","2018/01/20 19:59:33","新北市中和區保健路17號","121.50812","24.998235","6500300","中和區"
"235058","151-BY","2018/01/20 19:59:36","新北市中和區員山路150巷2弄57號","121.481823333333","24.9973516666667","6500300","中和區"
"235055","183-VK","2018/01/20 19:59:36","新北市中和區民生街21-6號","121.4708","25.0055183333333","6500300","中和區"
"235049","186-VK","2018/01/20 19:59:44","新北市中和區景平路526號","121.502973333333","24.994255","6500300","中和區"
"235067","255-BX","2018/01/20 19:59:49","新北市中和區中正路751巷1弄8號","121.484595","24.9993633333333","6500300","中和區"
"235044","293-VK","2018/01/20 19:59:43","新北市中和區中正路67號","121.501163333333","24.9934833333333","6500300","中和區"
"235043","352-BY","2018/01/20 19:59:38","新北市中和區興南路二段159巷12號","121.505186666667","24.9831766666667","6500300","中和區"
"235061","378-QA","2018/01/20 19:59:32","新北市中和區員山路226巷9弄1號","121.481865","25.0004383333333","6500300","中和區"
"235050","4979-A6","2018/01/20 19:59:33","新北市中和區景平路155巷2弄1號","121.513298333333","24.9917833333333","6500300","中和區"
"235069","4980-A6","2018/01/20 19:59:47","新北市中和區中正路466號","121.490053333333","24.9939383333333","6500300","中和區"
"235070","558-UM","2018/01/20 19:58:10","新北市中和區圓通路137號","121.499011666667","24.9956733333333","6500300","中和區"
"235054","640-BX","2018/01/20 19:59:30","新北市中和區莒光路175-4號","121.472738333333","24.9994066666667","6500300","中和區"
"235046","733-UM","2018/01/20 19:59:34","新北市中和區興南路一段93巷43號","121.510128333333","24.98759","6500300","中和區"
"235041","802-TS","2018/01/20 19:59:32","新北市中和區安平路136號","121.512256666667","24.9979166666667","6500300","中和區"
"235052","805-TS","2018/01/20 19:59:28","新北市中和區華新街144巷14號","121.5076","24.983065","6500300","中和區"
"235048","896-TW","2018/01/20 19:59:46","新北市中和區景新街397號","121.512518333333","24.9899833333333","6500300","中和區"
"235053","900-TW","2018/01/20 19:59:50","新北市中和區國光街140巷1號","121.468303333333","25.0014066666667","6500300","中和區"
"235051","157-BY","2018/01/20 19:59:30","新北市中和區復興路301巷16號","121.50138","24.9895783333333","6500300","中和區"
"235037","AAC-213","2018/01/20 19:59:29","新北市中和區自立路18號","121.522196666667","24.9935116666667","6500300","中和區"
"235059","AAC-215","2018/01/20 19:59:42","新北市中和區圓通路347號","121.491498333333","24.9903083333333","6500300","中和區"
"220065","072-UY","2018/01/20 19:59:31","新北市板橋區區運路22號","121.465365","25.0093116666667","6500100","板橋區"
"220106","075-UY","2018/01/20 19:59:38","新北市板橋區民治街96巷16號","121.478635","25.0321116666667","6500100","板橋區"
"220069","AAD-861","2018/01/20 19:59:28","新北市板橋區大明街19號","121.458773333333","25.0025766666667","6500100","板橋區"
"247022","893-R6","2018/01/20 19:59:40","新北市蘆洲區中正路184號","121.466996666667","25.0879616666667","6501400","蘆洲區"
"247020","500-BY","2018/01/20 19:59:44","新北市蘆洲區民義街57號","121.472761666667","25.089905","6501400","蘆洲區"
"247008","341-TH","2018/01/20 19:59:32","新北市蘆洲區信義路93號","121.477673333333","25.0800416666667","6501400","蘆洲區"
"247010","339-TH","2018/01/20 19:59:38","新北市三重區集賢路195號","121.484036666667","25.0877966666667","6501400","蘆洲區"
"247002","337-TH","2018/01/20 19:59:43","新北市蘆洲區長安街274巷20弄1號","121.458261666667","25.0868716666667","6501400","蘆洲區"
"247004","336-TH","2018/01/20 19:59:35","新北市蘆洲區永康街75號","121.455808333333","25.0851766666667","6501400","蘆洲區"
"247016","057-VK","2018/01/20 19:59:47","新北市蘆洲區光華路13號","121.46983","25.083315","6501400","蘆洲區"
"247006","056-VK","2018/01/20 19:59:37","新北市蘆洲區九芎街111號","121.46562","25.079685","6501400","蘆洲區"
"247014","007-UY","2018/01/20 19:59:37","新北市蘆洲區成功路115號","121.472565","25.0820466666667","6501400","蘆洲區"
"247024","002-UY","2018/01/20 19:59:43","新北市蘆洲區光榮路120巷8弄29號","121.465345","25.0876083333333","6501400","蘆洲區"
"226004","312-R5","2018/01/20 19:59:43","新北市平溪區靜安路三段10號","121.751875","25.0264966666667","6502400","平溪區"
"228003","097-TW","2018/01/20 19:59:50","新北市貢寮區仁理村仁和路110號","121.922895","25.0508233333333","6502600","貢寮區"
"224010","AGQ-8101","2018/01/20 19:59:41","新北市瑞芳區基山街220號","121.841716666667","25.10702","6501200","瑞芳區"
"224007","272-VK","2018/01/20 19:59:39","新北市瑞芳區員山子路3-5號","121.81946","25.1044366666667","6501200","瑞芳區"
"227010","642-TC","2018/01/20 19:59:45","新北市雙溪區新基里朝陽街3號","121.866206666667","25.0382216666667","6502500","雙溪區"
"227002","400-TW","2018/01/20 19:59:38","新北市雙溪區雙溪里長安街16號","121.865","25.03467","6502500","雙溪區"
"222001","KEA-2212","2018/01/20 19:59:43","新北市深坑區北深路三段165-1號","121.602195","25.0034183333333","6501800","深坑區"
"208002","742-BX","2018/01/20 19:59:31","新北市金山區環金路19號","121.640836666667","25.21761","6502700","金山區"
"208003","665-BX","2018/01/20 19:59:49","新北市金山區海興路1-3號","121.634195","25.2452366666667","6502700","金山區"
"208001","761-BX","2018/01/20 19:59:49","新北市金山區南勢湖39號","121.611848333333","25.2177983333333","6502700","金山區"
"251009","008-UM","2018/01/20 19:59:34","新北市淡水區英專路21巷12-3號","121.444973333333","25.16977","6501000","淡水區"
"251004","009-UM","2018/01/20 19:59:31","新北市淡水區民權路173巷15號","121.460708333333","25.1355616666667","6501000","淡水區"
"251001","011-UM","2018/01/20 19:59:48","新北市淡水區淡金路二段62號","121.450815","25.182165","6501000","淡水區"
"251013","179-VK","2018/01/20 19:59:30","新北市淡水區奎柔山路63號","121.451735","25.2061383333333","6501000","淡水區"
"251014","180-VK","2018/01/20 19:59:45","新北市淡水區石頭厝2-7號","121.459691666667","25.2364166666667","6501000","淡水區"
"251008","181-VK","2018/01/20 19:59:43","新北市淡水區淡海路63巷2號","121.422831666667","25.1809916666667","6501000","淡水區"
"251015","182-VK","2018/01/20 19:59:38","新北市淡水區埤島80-1號","121.449516666667","25.1896466666667","6501000","淡水區"
"251010","413-VK","2018/01/20 19:59:33","新北市淡水區崁頂三路167號","121.430636666667","25.20125","6501000","淡水區"
"251012","441-VK","2018/01/20 19:59:50","新北市淡水區下圭柔山61-1號","121.448486666667","25.204525","6501000","淡水區"
"251016","442-VK","2018/01/20 19:59:39","新北市淡水區番子田16-13號","121.453703333333","25.2317216666667","6501000","淡水區"
"251005","443-VK","2018/01/20 19:59:35","新北市淡水區學府路136巷43號","121.452055","25.1727083333333","6501000","淡水區"
"251006","561-UM","2018/01/20 19:59:30","新北市淡水區水碓街55號","121.444271666667","25.1775216666667","6501000","淡水區"
"251011","650-BX","2018/01/20 19:59:42","新北市淡水區崁頂57號","121.442603333333","25.1971483333333","6501000","淡水區"
"251002","672-BX","2018/01/20 19:59:45","新北市淡水區中正路二段12號","121.4205","25.1803866666667","6501000","淡水區"
"207003","550-UM","2018/01/20 19:59:34","新北市萬里區大鵬里萬里加投40-1號","121.638606666667","25.2074883333333","6502800","萬里區"
"207004","225-TW","2018/01/20 19:59:28","新北市萬里區北基里忠二街35號","121.685625","25.1757666666667","6502800","萬里區"
"252002","178-VK","2018/01/20 19:59:50","新北市三芝區忠孝街116-3號","121.505506666667","25.2575516666667","6502100","三芝區"
"252001","292-VK","2018/01/20 19:59:45","新北市三芝區公正街9號","121.499721666667","25.2575633333333","6502100","三芝區"
"237007","153-BY","2018/01/20 19:59:41","新北市三峽區二鬮路136巷137號","121.356641666667","24.9106716666667","6500900","三峽區"
"237009","210-TH","2018/01/20 19:59:39","新北市三峽區中園街69號","121.368315","24.9255183333333","6500900","三峽區"
"237012","275-BY","2018/01/20 19:59:29","新北市三峽區中華路3巷6-1號","121.374971666667","24.93125","6500900","三峽區"
"237008","302-VK","2018/01/20 19:59:33","新北市三峽區中正路一段108巷7弄5號","121.373698333333","24.9298116666667","6500900","三峽區"
"237006","5529-G3","2018/01/20 19:59:46","新北市三峽區中正路二段168號","121.365946666667","24.9157166666667","6500900","三峽區"
"237005","AKY-6261","2018/01/20 19:59:32","新北市三峽區民生街1巷19-15號","121.379295","24.936275","6500900","三峽區"
"236073","105-UM","2018/01/20 19:59:41","新北市土城區忠義路77號","121.442961666667","24.9651266666667","6501300","土城區"
"236043","107-UM","2018/01/20 19:59:33","新北市土城區學成路1號","121.453526666667","24.986255","6501300","土城區"
"236031","253-BX","2018/01/20 19:59:39","新北市土城區中央路一段250巷2-1號","121.444136666667","24.9847583333333","6501300","土城區"
"236027","269-VK","2018/01/20 19:59:38","新北市土城區中央路一段299號","121.444065","24.9836616666667","6501300","土城區"
"236015","270-VK","2018/01/20 19:59:30","新北市土城區廣福街128號","121.456315","24.9928183333333","6501300","土城區"
"236038","271-VK","2018/01/20 19:59:47","新北市土城區國際路93號","121.467343333333","24.9757583333333","6501300","土城區"
"236023","401-BY","2018/01/20 19:59:43","新北市土城區延吉街137巷12弄7號","121.470665","24.98537","6501300","土城區"
"236059","912-UM","2018/01/20 19:59:45","新北市土城區中央路一段128號","121.446321666667","24.9878483333333","6501300","土城區"
"236049","913-UM","2018/01/20 19:59:37","新北市土城區金城路三段257號","121.471813333333","24.9899766666667","6501300","土城區"
"236063","915-UM","2018/01/20 19:59:38","新北市土城區金城路三段73巷9弄3號","121.466116666667","24.987615","6501300","土城區"
"236055","AAC-216","2018/01/20 19:59:45","新北市土城區青雲路35號","121.460095","24.9883933333333","6501300","土城區"
"242031","AAC-296","2018/01/20 19:59:47","新北市新莊區忠孝街15號","121.443898333333","25.0350116666667","6500500","新莊區"
"242029","986-R7","2018/01/20 19:59:47","新北市新莊區中平路260號","121.445073333333","25.0498216666667","6500500","新莊區"
"242025","615-BX","2018/01/20 19:59:37","新北市新莊區五工一路86號","121.461345","25.0674316666667","6500500","新莊區"
"242023","613-BX","2018/01/20 19:59:43","新北市新莊區化成路392號","121.46595","25.0503683333333","6500500","新莊區"
"242027","612-BX","2018/01/20 19:59:44","新北市新莊區幸福路900號","121.443218333333","25.0493533333333","6500500","新莊區"
"242039","566-BX","2018/01/20 19:59:42","新北市新莊區民安路299巷25弄13號","121.428885","25.0234033333333","6500500","新莊區"
"242044","442-UM","2018/01/20 19:59:31","新北市新莊區中正路742巷3弄9號","121.413018333333","25.0229816666667","6500500","新莊區"
"242048","441-UM","2018/01/20 19:59:46","新北市新莊區富國路109巷1號","121.423666666667","25.0251716666667","6500500","新莊區"
"242053","440-UM","2018/01/20 19:59:38","新北市新莊區西盛街418號","121.427218333333","25.0122016666667","6500500","新莊區"
"242034","415-TV","2018/01/20 19:59:30","新北市新莊區建中街106號","121.446271666667","25.0365716666667","6500500","新莊區"
"242004","413-TV","2018/01/20 19:59:30","新北市新莊區化成路205-3號","121.46549","25.0510266666667","6500500","新莊區"
"242042","400-BY","2018/01/20 19:59:43","新北市新莊區青山路一段177號","121.40085","25.0299666666667","6500500","新莊區"
"242061","362-BY","2018/01/20 19:59:42","新北市新莊區瓊泰路8號","121.444816666667","25.02865","6500500","新莊區"
"242058","353-BY","2018/01/20 19:59:47","新北市新莊區八德街133巷2弄8號","121.423898333333","25.0200083333333","6500500","新莊區"
"242007","132-UY","2018/01/20 19:59:40","新北市新莊區思源路593巷12號","121.458821666667","25.05967","6500500","新莊區"
"242036","133-UY","2018/01/20 19:59:30","新北市新莊區建安街41巷5號","121.429166666667","25.025215","6500500","新莊區"
"242021","135-UY","2018/01/20 19:59:37","新北市新莊區建中街16巷33號","121.448798333333","25.0385466666667","6500500","新莊區"
"242009","173-VK","2018/01/20 19:59:30","新北市新莊區幸福路776號","121.446866666667","25.0491766666667","6500500","新莊區"
"242015","175-VK","2018/01/20 19:59:47","新北市新莊區泰順街33巷9號","121.44609","25.0427433333333","6500500","新莊區"
"242002","176-VK","2018/01/20 19:59:36","新北市新莊區新泰路72號","121.44915","25.0350066666667","6500500","新莊區"
"242013","346-TH","2018/01/20 19:59:45","新北市新莊區中港路471號","121.452325","25.0491583333333","6500500","新莊區"
"242051","347-TH","2018/01/20 19:59:27","新北市新莊區西盛街137號","121.428371666667","25.01848","6500500","新莊區"
"242019","348-TH","2018/01/20 19:59:43","新北市新莊區民樂街65巷22號","121.456928333333","25.0418366666667","6500500","新莊區"
"242056","349-TH","2018/01/20 19:59:50","新北市新莊區中正路347巷17弄10號","121.447498333333","25.0343033333333","6500500","新莊區"
"242017","350-TH","2018/01/20 19:59:28","新北市新莊區中港路318號","121.452601666667","25.0457766666667","6500500","新莊區"
"242011","351-TH","2018/01/20 19:59:43","新北市新莊區中港路531巷110號","121.449995","25.0518533333333","6500500","新莊區"
"238015","755-BX","2018/01/20 19:59:45","新北市樹林區中山路三段210-2號","121.380718333333","24.96693","6500700","樹林區"
"238021","KEA-2217","2018/01/20 19:59:39","新北市樹林區佳園路三段113巷5-1號","121.387105","24.9502633333333","6500700","樹林區"
"238020","268-VK","2018/01/20 19:59:36","新北市樹林區中山路三段214號","121.3799","24.9675533333333","6500700","樹林區"
"239007","AAC-297","2018/01/20 19:59:44","新北市鶯歌區大湖路366號","121.346196666667","24.9726766666667","6500800","鶯歌區"
"239006","891-R6","2018/01/20 19:59:36","新北市鶯歌區文化路117巷50號","121.35785","24.9550916666667","6500800","鶯歌區"
"221036","130-UY","2018/01/20 19:59:38","新北市汐止區新台五路二段85巷14號","121.66442","25.0673416666667","6501100","汐止區"
"221010","269-BY","2018/01/20 19:59:46","新北市汐止區八連路一段86巷14號","121.644491666667","25.0806016666667","6501100","汐止區"
"221012","278-VK","2018/01/20 19:59:49","新北市汐止區汐平路一段51號","121.68238","25.0705516666667","6501100","汐止區"
"221023","279-VK","2018/01/20 19:59:47","新北市汐止區明峰街218號","121.626726666667","25.0686633333333","6501100","汐止區"
"221032","280-BY","2018/01/20 19:59:32","新北市汐止區橫科路18巷33弄3號","121.617511666667","25.049695","6501100","汐止區"
"221027","281-BY","2018/01/20 19:59:32","新北市汐止區中正路36號","121.662241666667","25.0702866666667","6501100","汐止區"
"221029","298-VK","2018/01/20 19:59:41","新北市汐止區樟樹一路137巷26號","121.64104","25.066035","6501100","汐止區"
"221021","299-VK","2018/01/20 19:59:36","新北市汐止區水源路一段176號","121.655105","25.061905","6501100","汐止區"
"221031","353-TW","2018/01/20 19:59:28","新北市汐止區福德一路260號","121.63313","25.0644533333333","6501100","汐止區"
"221008","358-BY","2018/01/20 19:59:32","台北市內湖區康樂街125巷2號","121.619713333333","25.0733666666667","6501100","汐止區"
"221015","567-BX","2018/01/20 19:59:38","新北市汐止區忠孝東路487-12號","121.665245","25.0740133333333","6501100","汐止區"
"221035","622-UM","2018/01/20 19:59:45","新北市汐止區長江街57巷4號","121.656263333333","25.0717183333333","6501100","汐止區"
"221025","623-UM","2018/01/20 19:59:37","新北市汐止區秀峰路107號","121.660123333333","25.0634616666667","6501100","汐止區"
"221038","646-BX","2018/01/20 19:59:29","新北市汐止區忠孝東路486號","121.666288333333","25.0739333333333","6501100","汐止區"
"221033","647-BX","2018/01/20 19:59:37","新北市汐止區東勢街201巷104號","121.633486666667","25.0429666666667","6501100","汐止區"
"221018","753-BX","2018/01/20 19:59:41","新北市汐止區茄苳路290號","121.672985","25.06723","6501100","汐止區"
"220079","145-BY","2018/01/20 19:59:43","新北市板橋區南雅西路二段160號","121.45177","25.0134633333333","6500100","板橋區"
"220080","200-UY","2018/01/20 19:59:42","新北市板橋區大觀路二段163巷23號","121.446576666667","25.0000933333333","6500100","板橋區"
"220082","610-BX","2018/01/20 19:59:36","新北市板橋區篤行路二段112號","121.431203333333","24.99105","6500100","板橋區"
"220101","245-BX","2018/01/20 19:59:39","新北市板橋區莒光路215號","121.474263333333","25.022845","6500100","板橋區"
"220096","257-TC","2018/01/20 19:59:30","新北市板橋區莒光路16巷7號","121.469593333333","25.0243283333333","6500100","板橋區"
"220072","277-BY","2018/01/20 19:59:44","新北市板橋區金門街204-4號","121.43252","24.9902133333333","6500100","板橋區"
"220071","283-VK","2018/01/20 19:59:42","新北市板橋區五權街30巷12弄24號","121.464025","24.9941883333333","6500100","板橋區"
"220094","285-UM","2018/01/20 19:59:40","新北市板橋區文德路9號","121.462736666667","25.0243366666667","6500100","板橋區"
"220053","285-VK","2018/01/20 19:59:30","新北市板橋區永豐街50-2號","121.474685","25.01974","6500100","板橋區"
"220083","286-VK","2018/01/20 19:59:41","新北市板橋區僑中二街10巷34號","121.44562","25.01117","6500100","板橋區"
"220081","287-VK","2018/01/20 19:59:35","新北市板橋區僑中一街124巷20弄41號","121.44781","25.0138833333333","6500100","板橋區"
"220090","288-VK","2018/01/20 19:59:38","新北市板橋區新海路135巷1號","121.460756666667","25.0233766666667","6500100","板橋區"
"220061","293-UM","2018/01/20 19:59:35","新北市板橋區觀光街1巷5號","121.472085","25.0153483333333","6500100","板橋區"
"220084","296-UM","2018/01/20 19:59:44","新北市板橋區溪崑二街112巷8號","121.426168333333","24.988995","6500100","板橋區"
"220075","303-R5","2018/01/20 19:59:40","新北市板橋區金華街10巷48弄64號","121.45952","25.02021","6500100","板橋區"
"220062","305-R5","2018/01/20 19:59:38","新北市板橋區萬安街85巷2弄11號","121.484553333333","25.0247033333333","6500100","板橋區"
"220092","307-R5","2018/01/20 19:59:47","新北市板橋區四維路259巷59號","121.461206666667","25.0269016666667","6500100","板橋區"
"220098","317-R6","2018/01/20 19:59:46","新北市板橋區漢生西路153巷5號","121.462876666667","25.02273","6500100","板橋區"
"220064","486-VK","2018/01/20 19:59:47","新北市板橋區實踐路13號","121.463596666667","25.0074433333333","6500100","板橋區"
"220089","487-VK","2018/01/20 19:59:41","新北市板橋區新海路385巷34弄2號","121.457391666667","25.0255383333333","6500100","板橋區"
"220088","491-VK","2018/01/20 19:59:46","新北市板橋區懷德街191巷2號","121.480095","25.029375","6500100","板橋區"
"220103","561-BX","2018/01/20 19:59:44","新北市板橋區陽明街27巷2號","121.465513333333","25.02191","6500100","板橋區"
"220063","609-BX","2018/01/20 19:59:43","新北市板橋區中山路二段64號","121.474246666667","25.0158666666667","6500100","板橋區"
"220055","630-UY","2018/01/20 19:59:43","新北市板橋區仁愛路62巷17弄1號","121.460038333333","24.9982516666667","6500100","板橋區"
"220091","637-BX","2018/01/20 19:59:43","新北市板橋區文聖街89巷28號","121.478315","25.03021","6500100","板橋區"
"220057","686-BX","2018/01/20 19:59:40","新北市板橋區四川路二段2號","121.456636666667","24.9966083333333","6500100","板橋區"
"220093","689-BX","2018/01/20 19:59:45","新北市板橋區文化路二段620號","121.477983333333","25.035525","6500100","板橋區"
"220054","741-BX","2018/01/20 19:59:35","新北市板橋區忠孝路201巷69號","121.46472","25.0041516666667","6500100","板橋區"
"220067","829-TW","2018/01/20 19:59:30","新北市板橋區漢生東路193巷69弄4號","121.472398333333","25.0121333333333","6500100","板橋區"
"220102","830-TW","2018/01/20 19:59:31","新北市板橋區仁化街67號","121.47562","25.0318766666667","6500100","板橋區"
"220074","895-R6","2018/01/20 19:59:44","新北市板橋區民權路65號","121.461523333333","25.0112716666667","6500100","板橋區"
"220073","985-R7","2018/01/20 19:59:43","新北市板橋區南雅西路二段126號","121.452088333333","25.0125716666667","6500100","板橋區"
"220097","AAC-210","2018/01/20 19:59:48","新北市板橋區漢生西路58巷10號","121.463573333333","25.0189416666667","6500100","板橋區"
"220070","AAC-253","2018/01/20 19:59:40","新北市板橋區成都街69號","121.462161666667","25.0050166666667","6500100","板橋區"
