"lineid","car","time","location","longitude","latitude","cityid","cityname"
"234007","207-UY","2018/01/20 20:19:42","新北市永和區仁愛路306巷23號","121.502795","25.00853","6500400","永和區"
"234081","298-R6","2018/01/20 20:19:36","新北市永和區國中路132巷8號","121.523883333333","25.0073683333333","6500400","永和區"
"234038","336-UY","2018/01/20 20:19:49","新北市永和區成功路一段77號","121.526823333333","25.0031266666667","6500400","永和區"
"234064","337-UY","2018/01/20 20:19:42","新北市永和區中正路342號","121.51784","25.0001866666667","6500400","永和區"
"234086","338-UY","2018/01/20 20:19:44","新北市永和區永和路二段182號","121.51546","25.01346","6500400","永和區"
"234070","552-UM","2018/01/20 20:19:39","新北市永和區永利路27號","121.518353333333","25.00605","6500400","永和區"
"234054","553-UM","2018/01/20 20:19:35","新北市永和區光復街2巷41號","121.517581666667","25.0166683333333","6500400","永和區"
"234017","745-BX","2018/01/20 20:19:37","新北市永和區仁愛路35號","121.514163333333","25.0133033333333","6500400","永和區"
"234030","746-BX","2018/01/20 20:19:44","新北市永和區民有街69號","121.517943333333","24.9957066666667","6500400","永和區"
"234061","AAD-866","2018/01/20 20:19:48","新北市永和區安樂路96號","121.514386666667","24.99921","6500400","永和區"
"234042","862-TW","2018/01/20 20:19:37","新北市永和區雙和街2號","121.509886666667","25.00172","6500400","永和區"
"234050","863-TW","2018/01/20 20:19:31","新北市永和區新生路2-7號","121.509365","25.017045","6500400","永和區"
"234023","9381-KE","2018/01/20 20:19:42","新北市永和區勵行街10號","121.516163333333","25.0143433333333","6500400","永和區"
"249005","172-UM","2018/01/20 20:19:36","新北市八里區下罟子2-19號","121.388018333333","25.1417516666667","6502300","八里區"
"249001","173-UM","2018/01/20 20:19:29","新北市八里區中華路二段462號","121.400905","25.1462483333333","6502300","八里區"
"249004","303-UY","2018/01/20 20:19:39","新北市八里區中山路一段129巷27號","121.414011666667","25.15863","6502300","八里區"
"249002","305-UY","2018/01/20 20:19:43","新北市八里區龍米路二段58-2號","121.448428333333","25.1410633333333","6502300","八里區"
"249003","593-UM","2018/01/20 20:19:37","新北市八里區訊埔路18號","121.397358333333","25.14546","6502300","八里區"
"248016","026-BX","2018/01/20 20:19:30","新北市五股區凌雲路一段158巷38號","121.447311666667","25.1038533333333","6501500","五股區"
"248012","247-BX","2018/01/20 20:19:34","新北市五股區六合街91號","121.430148333333","25.0897216666667","6501500","五股區"
"248004","677-BX","2018/01/20 20:19:37","新北市五股區成泰路二段24號","121.436936666667","25.08095","6501500","五股區"
"248002","678-BX","2018/01/20 20:19:44","新北市五股區成泰路三段150-2號","121.445276666667","25.0908933333333","6501500","五股區"
"234077","969-R7","2018/01/20 20:19:32","新北市永和區民享街1巷1號","121.514726666667","24.9958616666667","6500400","永和區"
"234074","AAC-211","2018/01/20 20:19:42","新北市永和區竹林路201巷22弄9號","121.5225","25.00934","6500400","永和區"
"234067","AAC-212","2018/01/20 20:19:36","新北市永和區保平路266號","121.508693333333","25.00517","6500400","永和區"
"234003","AAC-295","2018/01/20 20:19:38","新北市永和區大新街6號","121.514568333333","25.0085566666667","6500400","永和區"
"243011","297-R6","2018/01/20 20:19:27","新北市泰山區壽山路134巷24號","121.418443333333","25.0311633333333","6501600","泰山區"
"243015","380-SR","2018/01/20 20:19:45","新北市泰山區明志路一段432號","121.430618333333","25.0563016666667","6501600","泰山區"
"243014","421-VK","2018/01/20 20:19:46","新北市泰山區泰林路二段369號","121.4279","25.0640416666667","6501600","泰山區"
"243010","KEA-2215","2018/01/20 20:19:45","新北市泰山區明志路二段246巷7號","121.426431666667","25.0478716666667","6501600","泰山區"
"243009","KEA-2216","2018/01/20 20:19:47","新北市泰山區明志路一段195號","121.432761666667","25.0615216666667","6501600","泰山區"
"243013","646-TV","2018/01/20 20:19:48","新北市泰山區中央路5巷14號","121.427248333333","25.0432116666667","6501600","泰山區"
"243016","680-BX","2018/01/20 20:19:38","新北市泰山區明志路三段123巷2號","121.425243333333","25.0404733333333","6501600","泰山區"
"222003","436-BY","2018/01/20 20:19:33","新北市深坑區文化街43號","121.617673333333","25.001815","6501800","深坑區"
"222002","659-BX","2018/01/20 20:19:36","新北市深坑區萬福路75巷48號","121.598283333333","25.0099066666667","6501800","深坑區"
"231060","001-UM","2018/01/20 20:19:35","新北市新店區錦秀路1-2號","121.479033333333","24.9455366666667","6500600","新店區"
"231041","002-UM","2018/01/20 20:19:36","新北市新店區民權路46號","121.540091666667","24.9829966666667","6500600","新店區"
"231059","046-UY","2018/01/20 20:19:33","新北市新店區安德街155號","121.508331666667","24.9596916666667","6500600","新店區"
"231061","047-UY","2018/01/20 20:19:42","新北市新店區安興路137號","121.516365","24.9793016666667","6500600","新店區"
"231051","107-UY","2018/01/20 20:19:37","新北市新店區中央六街57號","121.527941666667","24.975895","6500600","新店區"
"231048","108-UY","2018/01/20 20:19:41","新北市新店區中興路三段258號","121.542785","24.9843283333333","6500600","新店區"
"231052","188-VK","2018/01/20 20:19:35","新北市新店區新烏路二段321號","121.549948333333","24.910875","6500600","新店區"
"231050","KEA-2219","2018/01/20 20:19:44","新北市新店區中正路160號","121.541385","24.9718","6500600","新店區"
"231057","256-BX","2018/01/20 20:19:45","新北市新店區花園五路二段19號","121.554241666667","24.9345733333333","6500600","新店區"
"231054","AAD-862","2018/01/20 20:19:47","新北市新店區檳榔路69號","121.544186666667","24.9620833333333","6500600","新店區"
"231058","3712-VJ","2018/01/20 20:19:34","新北市新店區中正路360號","121.53563","24.9758666666667","6500600","新店區"
"231056","3713-VJ","2018/01/20 20:19:37","新北市新店區中正路330號","121.536968333333","24.9750466666667","6500600","新店區"
"231055","4716-K9","2018/01/20 20:19:47","新北市新店區北新路一段72號","121.541421666667","24.967225","6500600","新店區"
"231067","4772-VM","2018/01/20 20:19:37","新北市新店區溪洲路101-1號","121.53254","24.9618483333333","6500600","新店區"
"231065","512-UM","2018/01/20 20:19:40","新北市新店區安祥路104巷6弄36號","121.483101666667","24.962975","6500600","新店區"
"231064","515-UM","2018/01/20 20:19:46","新北市新店區安樂街1-1號","121.519991666667","24.9736816666667","6500600","新店區"
"231042","616-UM","2018/01/20 20:19:33","新北市新店區中興路二段237號","121.547265","24.9753683333333","6500600","新店區"
"231045","617-UM","2018/01/20 20:19:37","新北市新店區新坡一街16號","121.548475","24.9619633333333","6500600","新店區"
"231040","619-UM","2018/01/20 20:19:32","新北市新店區三民路53號","121.536938333333","24.9709933333333","6500600","新店區"
"231063","645-TV","2018/01/20 20:19:33","新北市新店區車子路1-1號","121.504668333333","24.9576816666667","6500600","新店區"
"231068","718-UY","2018/01/20 20:19:40","新北市新店區寶安街35號","121.541963333333","24.9825483333333","6500600","新店區"
"231049","719-UM","2018/01/20 20:19:36","新北市新店區安康路一段3-1號","121.535445","24.9610533333333","6500600","新店區"
"231062","720-UM","2018/01/20 20:19:40","新北市新店區安泰路7巷16號","121.485726666667","24.950925","6500600","新店區"
"231044","897-TW","2018/01/20 20:19:31","新北市新店區北新路三段196號","121.541551666667","24.9833216666667","6500600","新店區"
"231043","899-TW","2018/01/20 20:19:51","新北市新店區建國路133號","121.539333333333","24.9781683333333","6500600","新店區"
"231066","AKT-0513","2018/01/20 20:19:30","新北市新店區安興路112號","121.514565","24.9776433333333","6500600","新店區"
"241011","013-R5","2018/01/20 20:19:38","新北市三重區龍濱路283巷8號","121.501148333333","25.0736983333333","6500200","三重區"
"241028","022-UY","2018/01/20 20:19:28","新北市三重區大同南路162號","121.496718333333","25.0574416666667","6500200","三重區"
"241008","059-VK","2018/01/20 20:19:49","新北市三重區永福街158號","121.480491666667","25.0744116666667","6500200","三重區"
"241009","060-VK","2018/01/20 20:19:34","新北市三重區三和路四段382巷44號","121.481175","25.0785016666667","6500200","三重區"
"241031","061-VK","2018/01/20 20:19:46","新北市三重區三寧街18號","121.489366666667","25.05988","6500200","三重區"
"241015","062-VK","2018/01/20 20:19:36","新北市三重區重新路一段122號","121.50041","25.0628616666667","6500200","三重區"
"241024","065-VK","2018/01/20 20:19:34","新北市三重區忠孝路三段15巷17號","121.481068333333","25.06758","6500200","三重區"
"241002","090-VK","2018/01/20 20:19:31","新北市三重區五華街26號","121.494666666667","25.0806183333333","6500200","三重區"
"241003","091-VK","2018/01/20 20:19:35","新北市三重區富華街102號","121.491285","25.083735","6500200","三重區"
"241020","156-TC","2018/01/20 20:19:32","新北市三重區三和路三段144巷25號","121.491828333333","25.07228","6500200","三重區"
"241005","262-UM","2018/01/20 20:19:50","新北市三重區碧華街246號","121.487623333333","25.0827933333333","6500200","三重區"
"241026","265-UM","2018/01/20 20:19:44","新北市三重區福德南路40號","121.503013333333","25.0626366666667","6500200","三重區"
"241016","266-UM","2018/01/20 20:19:43","新北市三重區大同北路54巷1號","121.494281666667","25.0635166666667","6500200","三重區"
"241022","267-UM","2018/01/20 20:19:33","新北市三重區市前街14號","121.489173333333","25.0623816666667","6500200","三重區"
"241018","268-UM","2018/01/20 20:19:40","新北市三重區自強路一段155-1號","121.493501666667","25.0671333333333","6500200","三重區"
"241032","269-UM","2018/01/20 20:19:35","新北市三重區捷運路19巷6弄2號","121.484908333333","25.0569733333333","6500200","三重區"
"241013","270-UM","2018/01/20 20:19:30","新北市三重區三和路三段167巷1號","121.492056666667","25.0739716666667","6500200","三重區"
"241025","271-UM","2018/01/20 20:19:28","新北市三重區忠孝路三段75巷19號","121.479641666667","25.0662216666667","6500200","三重區"
"241007","398-BY","2018/01/20 20:19:48","新北市三重區溪尾街108巷46弄10號","121.488023333333","25.0781883333333","6500200","三重區"
"241035","462-BY","2018/01/20 20:19:40","新北市三重區文化北路20號","121.499166666667","25.06396","6500200","三重區"
"241004","475-VK","2018/01/20 20:19:27","新北市三重區溪尾街165巷45號","121.49058","25.08042","6500200","三重區"
"241019","478-VK","2018/01/20 20:19:45","新北市三重區自強路二段70號","121.488578333333","25.06994","6500200","三重區"
"241030","480-VK","2018/01/20 20:19:43","新北市三重區集美街89巷30號","121.488323333333","25.0524","6500200","三重區"
"241014","543-UM","2018/01/20 20:19:35","新北市三重區龍濱路64號","121.502553333333","25.069255","6500200","三重區"
"241023","545-UM","2018/01/20 20:19:49","新北市三重區忠孝路三段84巷1號","121.480273333333","25.0646616666667","6500200","三重區"
"241001","547-UM","2018/01/20 20:19:39","新北市三重區溪尾街42-1號","121.49104","25.0769516666667","6500200","三重區"
"241033","557-UM","2018/01/20 20:19:30","新北市三重區五谷王北街50巷2號","121.47601","25.0514333333333","6500200","三重區"
"241017","887-TS","2018/01/20 20:19:33","新北市三重區自強路一段157號","121.493475","25.0671066666667","6500200","三重區"
"241012","941-UM","2018/01/20 20:19:41","新北市三重區河邊北街375號","121.501873333333","25.0763483333333","6500200","三重區"
"241029","942-UM","2018/01/20 20:19:47","新北市三重區光明路100號","121.4925","25.05651","6500200","三重區"
"235066","003-UY","2018/01/20 20:19:41","新北市中和區南工路94巷3號","121.507261666667","25.002975","6500300","中和區"
"235039","097-UM","2018/01/20 20:19:43","新北市中和區立人街24-5號","121.518903333333","24.99418","6500300","中和區"
"235065","098-UM","2018/01/20 20:19:44","新北市中和區永和路55號","121.497041666667","25.0054266666667","6500300","中和區"
"235050","4979-A6","2018/01/20 20:19:33","新北市中和區景安路177巷10號","121.505781666667","24.9940566666667","6500300","中和區"
"235069","4980-A6","2018/01/20 20:19:47","新北市中和區南山路81巷25號","121.502711666667","24.99816","6500300","中和區"
"235070","558-UM","2018/01/20 20:13:50","新北市中和區中正路633號","121.485323333333","24.9950866666667","6500300","中和區"
"235052","805-TS","2018/01/20 20:19:28","新北市中和區四維街7號","121.513515","24.987235","6500300","中和區"
"235059","AAC-215","2018/01/20 20:19:42","新北市中和區圓通路332號","121.484408333333","24.986475","6500300","中和區"
"247022","893-R6","2018/01/20 20:19:40","新北市蘆洲區中正路192巷2弄1號","121.46767","25.0884133333333","6501400","蘆洲區"
"247012","546-UM","2018/01/20 20:19:43","新北市蘆洲區中興街15巷5號","121.480446666667","25.0872766666667","6501400","蘆洲區"
"247020","500-BY","2018/01/20 20:19:43","新北市蘆洲區仁愛街37號","121.472218333333","25.0929016666667","6501400","蘆洲區"
"247008","341-TH","2018/01/20 20:19:32","新北市蘆洲區集賢路235號","121.48197","25.08553","6501400","蘆洲區"
"247010","339-TH","2018/01/20 20:19:38","新北市蘆洲區信義路188巷25弄1號","121.480375","25.0846133333333","6501400","蘆洲區"
"247002","337-TH","2018/01/20 20:19:43","新北市蘆洲區環堤大道108號","121.45545","25.08666","6501400","蘆洲區"
"247004","336-TH","2018/01/20 20:19:35","新北市蘆洲區長安街220巷22號","121.459506666667","25.0849866666667","6501400","蘆洲區"
"247016","057-VK","2018/01/20 20:19:51","新北市蘆洲區中正路185巷47號","121.46565","25.0839266666667","6501400","蘆洲區"
"247006","056-VK","2018/01/20 20:19:37","新北市蘆洲區九芎街136號","121.465081666667","25.0790616666667","6501400","蘆洲區"
"247014","007-UY","2018/01/20 20:19:37","新北市蘆洲區中山二路137巷27號","121.472386666667","25.08086","6501400","蘆洲區"
"247024","002-UY","2018/01/20 20:19:42","新北市蘆洲區光榮路120巷8弄39號","121.46457","25.087925","6501400","蘆洲區"
"247018","001-UY","2018/01/20 20:19:48","新北市蘆洲區民族路315號","121.474646666667","25.0914166666667","6501400","蘆洲區"
"224007","272-VK","2018/01/20 20:11:35","新北市瑞芳區大寮路356-1號","121.78491","25.10318","6501200","瑞芳區"
"222001","KEA-2212","2018/01/20 20:19:43","新北市深坑區北深路三段253號","121.599165","25.0043883333333","6501800","深坑區"
"208003","665-BX","2018/01/20 20:19:48","新北市金山區海興路128號","121.631675","25.2392666666667","6502700","金山區"
"251009","008-UM","2018/01/20 20:19:34","新北市淡水區清水街56巷1號","121.444151666667","25.1702083333333","6501000","淡水區"
"251013","179-VK","2018/01/20 20:19:50","新北市淡水區奎柔山路752巷79號","121.475168333333","25.204765","6501000","淡水區"
"251014","180-VK","2018/01/20 20:19:44","新北市淡水區石頭厝3號","121.458701666667","25.23554","6501000","淡水區"
"251008","181-VK","2018/01/20 20:19:28","新北市淡水區淡海路150巷6號","121.422086666667","25.1839666666667","6501000","淡水區"
"251015","182-VK","2018/01/20 20:19:38","新北市淡水區興仁路40巷7號","121.452966666667","25.21612","6501000","淡水區"
"251010","413-VK","2018/01/20 20:19:33","新北市淡水區新民街一段136號","121.42758","25.1891583333333","6501000","淡水區"
"251012","441-VK","2018/01/20 20:19:30","新北市淡水區淡金路三段344號","121.449276666667","25.2087816666667","6501000","淡水區"
"251016","442-VK","2018/01/20 20:19:39","新北市淡水區新埔子15-1號","121.449143333333","25.2282416666667","6501000","淡水區"
"251006","561-UM","2018/01/20 20:19:30","新北市淡水區淡金路一段571號","121.452718333333","25.1804933333333","6501000","淡水區"
"251002","672-BX","2018/01/20 20:19:46","新北市淡水區中正路114號","121.441726666667","25.1695833333333","6501000","淡水區"
"251003","766-UM","2018/01/20 20:19:44","新北市淡水區中山北路一段136號","121.443308333333","25.1773766666667","6501000","淡水區"
"207004","225-TW","2018/01/20 20:19:28","新北市萬里區北基里大仁路5號","121.682143333333","25.1753016666667","6502800","萬里區"
"252002","178-VK","2018/01/20 20:19:30","新北市三芝區中正路一段24號","121.503056666667","25.2586383333333","6502100","三芝區"
"252001","292-VK","2018/01/20 20:19:45","新北市三芝區中山路一段14號","121.500736666667","25.2580033333333","6502100","三芝區"
"237007","153-BY","2018/01/20 20:19:41","新北市三峽區麻園8號","121.362548333333","24.9189033333333","6500900","三峽區"
"237006","5529-G3","2018/01/20 20:19:46","新北市三峽區中正路二段41號","121.36671","24.9188466666667","6500900","三峽區"
"236073","105-UM","2018/01/20 20:19:41","新北市土城區三民路55號","121.419746666667","24.9642666666667","6501300","土城區"
"236031","253-BX","2018/01/20 20:19:39","新北市土城區學成路128巷5號","121.449333333333","24.9898733333333","6501300","土城區"
"236027","269-VK","2018/01/20 20:19:41","新北市土城區裕生路82巷1號","121.447318333333","24.985625","6501300","土城區"
"236015","270-VK","2018/01/20 20:19:30","新北市土城區廣明街90巷16號","121.45554","24.994305","6501300","土城區"
"236038","271-VK","2018/01/20 20:19:47","新北市土城區明德路一段233號","121.46287","24.9783416666667","6501300","土城區"
"236023","401-BY","2018/01/20 20:19:43","新北市土城區和城路二段253-8號","121.473838333333","24.98729","6501300","土城區"
"236059","912-UM","2018/01/20 20:19:44","新北市土城區中央路二段235號","121.440391666667","24.972335","6501300","土城區"
"242031","AAC-296","2018/01/20 20:19:34","新北市新莊區中正路449號","121.443176666667","25.0339883333333","6500500","新莊區"
"242029","986-R7","2018/01/20 20:19:47","新北市新莊區中平路378號","121.444653333333","25.0534616666667","6500500","新莊區"
"242025","615-BX","2018/01/20 20:19:40","新北市新莊區五工一路80巷14號","121.461203333333","25.0668516666667","6500500","新莊區"
"242023","613-BX","2018/01/20 20:19:26","新北市新莊區化成路780號","121.465211666667","25.0591183333333","6500500","新莊區"
"242027","612-BX","2018/01/20 20:19:44","新北市新莊區幸福路588號","121.45369","25.0492933333333","6500500","新莊區"
"242039","566-BX","2018/01/20 20:19:42","新北市新莊區龍安路459號","121.42472","25.0185083333333","6500500","新莊區"
"242044","442-UM","2018/01/20 20:19:31","新北市新莊區中正路新建巷28弄12號","121.41384","25.021585","6500500","新莊區"
"242048","441-UM","2018/01/20 20:19:46","新北市新莊區龍安路242號","121.420986666667","25.0196683333333","6500500","新莊區"
"242053","440-UM","2018/01/20 20:19:38","新北市新莊區西盛街388巷2號","121.42747","25.0131383333333","6500500","新莊區"
"242034","415-TV","2018/01/20 20:19:30","新北市新莊區建中街116巷3弄19號","121.445108333333","25.036965","6500500","新莊區"
"242004","413-TV","2018/01/20 20:19:39","新北市新莊區頭前路30號","121.467675","25.05254","6500500","新莊區"
"242042","400-BY","2018/01/20 20:19:38","新北市新莊區中正路694巷104號","121.417035","25.0297166666667","6500500","新莊區"
"242061","362-BY","2018/01/20 20:19:41","新北市新莊區新樹路172-13號","121.43459","25.0216983333333","6500500","新莊區"
"242058","353-BY","2018/01/20 20:19:33","新北市新莊區四維路201-1號","121.421936666667","25.020545","6500500","新莊區"
"242007","132-UY","2018/01/20 20:19:40","新北市新莊區福壽街124巷41弄8號","121.459283333333","25.0515233333333","6500500","新莊區"
"242036","133-UY","2018/01/20 20:19:42","新北市新莊區建安街76巷3弄1號","121.42631","25.0247566666667","6500500","新莊區"
"242021","135-UY","2018/01/20 20:19:37","新北市新莊區復興路一段19號","121.446025","25.0416183333333","6500500","新莊區"
"242046","172-VK","2018/01/20 20:19:40","新北市新莊區中正路新生巷41號","121.417433333333","25.0233483333333","6500500","新莊區"
"242009","173-VK","2018/01/20 20:19:50","新北市新莊區昌平街1號","121.454813333333","25.051365","6500500","新莊區"
"242015","175-VK","2018/01/20 20:19:47","新北市新莊區永樂街228號","121.446361666667","25.044415","6500500","新莊區"
"242002","176-VK","2018/01/20 20:19:36","新北市新莊區化成路26號","121.46477","25.04255","6500500","新莊區"
"242013","346-TH","2018/01/20 20:19:46","新北市新莊區中和街186巷1號","121.447638333333","25.04987","6500500","新莊區"
"242051","347-TH","2018/01/20 20:19:46","新北市新莊區民安西路212巷10號","121.425128333333","25.0149666666667","6500500","新莊區"
"242019","348-TH","2018/01/20 20:19:43","新北市新莊區復興路二段196巷3號","121.459451666667","25.0439266666667","6500500","新莊區"
"242056","349-TH","2018/01/20 20:19:50","新北市新莊區豐年街28巷14號","121.445648333333","25.0324083333333","6500500","新莊區"
"242017","350-TH","2018/01/20 20:19:47","新北市新莊區中港一街119號","121.448536666667","25.0451033333333","6500500","新莊區"
"242011","351-TH","2018/01/20 20:19:43","新北市新莊區中信街30號","121.450355","25.0508933333333","6500500","新莊區"
"221036","130-UY","2018/01/20 20:19:38","新北市汐止區福安街59巷2號","121.664123333333","25.063595","6501100","汐止區"
"221010","269-BY","2018/01/20 20:19:46","新北市汐止區八連路二段494號","121.628971666667","25.1061683333333","6501100","汐止區"
"221012","278-VK","2018/01/20 20:19:49","新北市汐止區保新街63號","121.685825","25.0724683333333","6501100","汐止區"
"221023","279-VK","2018/01/20 20:19:39","新北市汐止區湖東街5巷10號","121.63384","25.0728783333333","6501100","汐止區"
"221032","280-BY","2018/01/20 20:19:31","新北市汐止區民權街二段30號","121.619451666667","25.0498333333333","6501100","汐止區"
"221027","281-BY","2018/01/20 20:19:39","新北市汐止區大同路二段507號","121.661263333333","25.0686933333333","6501100","汐止區"
"221029","298-VK","2018/01/20 20:19:41","新北市汐止區樟樹二路106-1號","121.639473333333","25.06386","6501100","汐止區"
"221021","299-VK","2018/01/20 20:19:36","新北市汐止區水源路一段284號","121.654183333333","25.0583233333333","6501100","汐止區"
"221031","353-TW","2018/01/20 20:19:48","新北市汐止區中興路150巷1號","121.63249","25.06461","6501100","汐止區"
"221008","358-BY","2018/01/20 20:19:32","新北市汐止區康寧街378號","121.629106666667","25.06768","6501100","汐止區"
"221015","567-BX","2018/01/20 20:19:38","新北市汐止區建成路142巷19弄15號","121.661878333333","25.073845","6501100","汐止區"
"221035","622-UM","2018/01/20 20:19:45","新北市汐止區長江街101-5號","121.658673333333","25.073205","6501100","汐止區"
"221025","623-UM","2018/01/20 20:19:37","新北市汐止區水源路二段72巷6弄5號","121.655663333333","25.05568","6501100","汐止區"
"221038","646-BX","2018/01/20 20:19:49","新北市汐止區忠孝東路458-1號","121.666471666667","25.0730416666667","6501100","汐止區"
"221033","647-BX","2018/01/20 20:19:37","新北市汐止區東勢街201巷104號","121.633591666667","25.0428116666667","6501100","汐止區"
"221002","707-TV","2018/01/20 20:19:41","新北市汐止區福德三路97號","121.635978333333","25.068805","6501100","汐止區"
"221018","753-BX","2018/01/20 20:19:41","新北市汐止區茄安路14號","121.673076666667","25.0678666666667","6501100","汐止區"
"220072","277-BY","2018/01/20 20:19:44","新北市板橋區金門街109巷2號","121.433438333333","24.9919583333333","6500100","板橋區"
"220083","286-VK","2018/01/20 20:19:40","新北市板橋區僑中二街92巷10號","121.445788333333","25.009035","6500100","板橋區"
"220081","287-VK","2018/01/20 20:19:49","新北市板橋區僑中二街152號","121.445073333333","25.0044783333333","6500100","板橋區"
"220061","293-UM","2018/01/20 20:19:35","新北市板橋區中山路一段8號","121.459955","25.0077616666667","6500100","板橋區"
"220092","307-R5","2018/01/20 20:19:47","新北市板橋區民權路99號","121.459518333333","25.0130483333333","6500100","板橋區"
"220089","487-VK","2018/01/20 20:19:48","新北市板橋區四維路195號","121.464126666667","25.0269283333333","6500100","板橋區"
"220103","561-BX","2018/01/20 20:19:44","新北市板橋區陽明街279巷1弄1號","121.461843333333","25.0260616666667","6500100","板橋區"
"220055","630-UY","2018/01/20 20:19:43","新北市板橋區忠孝路48巷11弄13號","121.461916666667","24.9998783333333","6500100","板橋區"
"220102","830-TW","2018/01/20 20:19:31","新北市板橋區縣民大道三段91號","121.475765","25.02196","6500100","板橋區"
"220097","AAC-210","2018/01/20 20:19:42","新北市板橋區光正街45巷2弄18號","121.460961666667","25.0174133333333","6500100","板橋區"
"220070","AAC-253","2018/01/20 20:19:36","新北市板橋區四川路二段245巷20-1號","121.451185","24.992965","6500100","板橋區"
