"lineid","car","time","location","longitude","latitude","cityid","cityname"
"248005","653-BX","2018/05/10 07:59:00","新北市五股區明德路12巷3號","121.433253333333","25.0717783333333","6501500","五股區"
"232001","290-BY","2018/05/10 07:58:55","新北市坪林區下坑子口6-15號","121.711423333333","24.9433733333333","6502000","坪林區"
"232014","291-BY","2018/05/10 07:58:47","新北市坪林區金瓜寮24-2號","121.680251666667","24.9080583333333","6502000","坪林區"
"232010","375-UM","2018/05/10 07:39:35","新北市坪林區厚德岡坑2-1號","121.727805","24.9412016666667","6502000","坪林區"
"232007","758-BX","2018/05/10 07:58:55","新北市坪林區九芎林32號","121.70259","24.9215116666667","6502000","坪林區"
"244006","080-UY","2018/05/10 07:58:48","新北市林口區粉寮路一段77號","121.39692","25.0789416666667","6501700","林口區"
"244003","248-BX","2018/05/10 07:58:58","新北市林口區頂福里5鄰34號","121.351876666667","25.0999416666667","6501700","林口區"
"244018","403-UM","2018/05/10 07:58:51","新北市林口區中山路37號","121.394998333333","25.0784316666667","6501700","林口區"
"244008","410-SL","2018/05/10 07:58:46","新北市林口區粉寮69號","121.405063333333","25.09083","6501700","林口區"
"244022","483-VK","2018/05/10 07:58:56","新北市林口區粉寮69號","121.404975","25.0908033333333","6501700","林口區"
"244024","837-TS","2018/05/10 07:59:07","新北市林口區粉寮路二段160巷28號","121.405208333333","25.0907533333333","6501700","林口區"
"244020","838-TS","2018/05/10 07:58:54","新北市林口區粉寮69號","121.404826666667","25.0908","6501700","林口區"
"222006","289-BY","2018/05/10 07:58:38","新北市深坑區文化街45號","121.616986666667","25.0017766666667","6501800","深坑區"
"231069","189-VK","2018/05/10 07:58:49","新北市新店區華潭街52號","121.528443333333","24.9545916666667","6500600","新店區"
"231008","192-VK","2018/05/10 07:59:06","新北市新店區安華路28-1號","121.519703333333","24.961495","6500600","新店區"
"235001","611-BX","2018/05/10 07:58:54","新北市中和區圓通路367巷4號","121.491458333333","24.9893133333333","6500300","中和區"
"226005","5620-A6","2018/05/10 07:58:51","新北市平溪區石底里公園街18-3號","121.733283333333","25.0258233333333","6502400","平溪區"
"226007","7418-A5","2018/05/10 07:58:56","新北市平溪區南山里南山坪136號","121.782968333333","25.0464716666667","6502400","平溪區"
"226003","AGD-0702","2018/05/10 07:58:56","新北市平溪區新寮里頂寮子4號","121.773706666667","25.05182","6502400","平溪區"
"223006","022-BY","2018/05/10 07:58:50","新北市石碇區八分寮31-3號","121.642876666667","25.012005","6501900","石碇區"
"223002","KEA-2673","2018/05/10 07:58:48","新北市石碇區北宜路五段濕水子巷9號","121.636026666667","24.94618","6501900","石碇區"
"223001","205-TH","2018/05/10 07:58:46","新北市石碇區小粗坑(格頭里)1號","121.653031666667","24.9541216666667","6501900","石碇區"
"223008","406-TH","2018/05/10 07:58:50","新北市石碇區大溪墘8-1號","121.69752","25.007485","6501900","石碇區"
"223001","592-UM","2018/05/10 07:58:39","新北市石碇區小粗坑(格頭里)1號","121.652115","24.9527533333333","6501900","石碇區"
"223004","660-BX","2018/05/10 07:58:50","新北市深坑區文山路一段7號","121.64472","25.0086633333333","6501900","石碇區"
"223005","677-TV","2018/05/10 07:55:32","新北市石碇區靜安路一段5號","121.641611666667","25.01157","6501900","石碇區"
"227007","282-VK","2018/05/10 07:58:53","新北市雙溪區平林里梅竹蹊16號","121.862026666667","25.0359633333333","6502500","雙溪區"
"252004","249-BX","2018/05/10 07:58:50","新北市三芝區興華里車埕16-2號","121.506258333333","25.20049","6502100","三芝區"
"252007","AAC-283","2018/05/10 07:58:52","新北市三芝區後厝里芝麻一街1-1號","121.474146666667","25.2457216666667","6502100","三芝區"
"237001","159-UY","2018/05/10 07:59:04","新北市三峽區大學路33號","121.377308333333","24.9403466666667","6500900","三峽區"
"236009","165-UM","2018/05/10 07:58:54","新北市土城區青雲路232號","121.45901","24.9807466666667","6501300","土城區"
"236003","339-SR","2018/05/10 07:59:04","新北市土城區龍泉路89號","121.445951666667","24.9424783333333","6501300","土城區"
"236005","498-BY","2018/05/10 07:59:06","新北市土城區永平街51號","121.427631666667","24.9591733333333","6501300","土城區"
"242033","AAC-296","2018/05/10 07:59:05","新北市新莊區瓊林路13-9號","121.447931666667","25.0300283333333","6500500","新莊區"
"242057","986-R7","2018/05/10 07:59:01","新北市新莊區福營路98號","121.436685","25.0330033333333","6500500","新莊區"
"242052","751-BX","2018/05/10 07:58:59","新北市新莊區瓊林南路305巷3號","121.434776666667","25.0054583333333","6500500","新莊區"
"242026","615-BX","2018/05/10 07:58:58","新北市新莊區思源路103號","121.460183333333","25.041665","6500500","新莊區"
"242024","613-BX","2018/05/10 07:59:01","新北市新莊區復興路二段31號","121.454363333333","25.04407","6500500","新莊區"
"242028","612-BX","2018/05/10 07:59:01","新北市新莊區幸福路36號","121.45842","25.0495016666667","6500500","新莊區"
"242045","497-BY","2018/05/10 07:59:03","新北市新莊區新樹路49號","121.440171666667","25.03203","6500500","新莊區"
"242040","442-UM","2018/05/10 07:58:47","新北市新莊區新樹路113巷15號","121.43835","25.0267266666667","6500500","新莊區"
"242049","441-UM","2018/05/10 07:59:03","新北市新莊區西盛街245巷27弄9號","121.429358333333","25.016425","6500500","新莊區"
"242055","440-UM","2018/05/10 07:58:56","新北市新莊區新泰路53號","121.44946","25.033955","6500500","新莊區"
"242006","413-TV","2018/05/10 07:58:52","新北市新莊區福樂街118巷16號","121.457498333333","25.048315","6500500","新莊區"
"242022","362-BY","2018/05/10 07:58:58","新北市新莊區公園路138號","121.452866666667","25.0400383333333","6500500","新莊區"
"242059","353-BY","2018/05/10 07:56:59","新北市新莊區瓊林路190-2號","121.439495","25.0209983333333","6500500","新莊區"
"242038","133-UY","2018/05/10 07:58:56","新北市新莊區民安路274號","121.42767","25.021405","6500500","新莊區"
"242030","135-UY","2018/05/10 07:58:52","新北市新莊區新泰路401巷29-1號","121.442468333333","25.0439633333333","6500500","新莊區"
"242047","172-VK","2018/05/10 07:59:02","新北市新莊區四維路210號","121.421396666667","25.020135","6500500","新莊區"
"242010","173-VK","2018/05/10 07:58:48","新北市新莊區中華路二段83號","121.452491666667","25.0480283333333","6500500","新莊區"
"242016","175-VK","2018/05/10 07:59:04","新北市新莊區復興路一段213號","121.452511666667","25.0437133333333","6500500","新莊區"
"242003","176-VK","2018/05/10 07:58:46","新北市新莊區中港路278號","121.453018333333","25.04407","6500500","新莊區"
"242014","346-TH","2018/05/10 07:59:03","新北市新莊區建中街69號","121.447573333333","25.0368833333333","6500500","新莊區"
"242020","347-TH","2018/05/10 07:58:59","新北市新莊區中正路130號","121.452861666667","25.0361933333333","6500500","新莊區"
"242044","348-TH","2018/05/10 07:58:41","新北市新莊區富國路87號","121.420498333333","25.0257816666667","6500500","新莊區"
"242035","349-TH","2018/05/10 07:59:00","新北市新莊區建國二路5-3號","121.434845","25.0236766666667","6500500","新莊區"
"242018","350-TH","2018/05/10 07:59:04","新北市新莊區中港路54號","121.455421666667","25.0385233333333","6500500","新莊區"
"242012","351-TH","2018/05/10 07:59:08","新北市新莊區中誠街16巷8號","121.45203","25.0485366666667","6500500","新莊區"
"242001","KEA-2550","2018/05/10 07:59:03","新北市新莊區新莊路154號","121.455218333333","25.0354116666667","6500500","新莊區"
"220070","282-UM","2018/05/10 07:58:48","新北市板橋區板城路303號","121.45203","25.0019516666667","6500100","板橋區"
"242008","281-VK","2018/05/10 07:59:04","新北市新莊區中原路228號","121.453116666667","25.054465","6500500","新莊區"
