"lineid","car","time","location","longitude","latitude","cityid","cityname"
"248005","653-BX","2018/05/10 08:49:00","新北市五股區明德路12巷6號","121.433401666667","25.071785","6501500","五股區"
"232001","290-BY","2018/05/10 08:48:55","新北市坪林區九芎坑15號","121.738628333333","24.9492583333333","6502000","坪林區"
"244012","069-UM","2018/05/10 08:48:52","新北市林口區中山路68-1號","121.393421666667","25.0786116666667","6501700","林口區"
"244006","080-UY","2018/05/10 08:48:48","新北市林口區竹林路276巷1號","121.389913333333","25.081475","6501700","林口區"
"244003","248-BX","2018/05/10 08:48:58","新北市林口區下福99號","121.291995","25.1179383333333","6501700","林口區"
"244018","403-UM","2018/05/10 08:48:51","新北市林口區忠孝路512巷42號","121.371833333333","25.068505","6501700","林口區"
"244008","410-SL","2018/05/10 08:49:06","新北市林口區佳林路70號","121.386138333333","25.081145","6501700","林口區"
"244022","483-VK","2018/05/10 08:48:56","新北市林口區東湖路12巷58號","121.388676666667","25.0751516666667","6501700","林口區"
"244016","485-VK","2018/05/10 08:48:59","新北市林口區文化一路一段57-2號","121.371028333333","25.0698716666667","6501700","林口區"
"244010","657-BX","2018/05/10 08:48:50","新北市林口區新生街11號","121.394156666667","25.0767516666667","6501700","林口區"
"244024","837-TS","2018/05/10 08:49:07","新北市林口區南勢四街328號","121.357533333333","25.0762966666667","6501700","林口區"
"244020","838-TS","2018/05/10 08:48:54","新北市林口區自強六街14號","121.399696666667","25.0765516666667","6501700","林口區"
"222006","289-BY","2018/05/10 08:48:48","新北市深坑區風格街31巷3號","121.62781","25.0172966666667","6501800","深坑區"
"231069","189-VK","2018/05/10 08:39:08","新北市新店區新潭路三段275-1號","121.50185","24.903035","6500600","新店區"
"231008","192-VK","2018/05/10 08:48:45","新北市新店區新烏路三段366-1號","121.546353333333","24.8930566666667","6500600","新店區"
"235001","611-BX","2018/05/10 08:48:54","新北市中和區國光街60號","121.47052","25.0002716666667","6500300","中和區"
"226005","5620-A6","2018/05/10 08:48:51","新北市平溪區十分里十分街118號","121.77696","25.04313","6502400","平溪區"
"226007","7418-A5","2018/05/10 08:48:56","新北市平溪區東勢里芊蓁坑30號","121.727528333333","24.9791966666667","6502400","平溪區"
"226003","AGD-0702","2018/05/10 08:48:56","新北市平溪區十分里十分街271-2號","121.779076666667","25.044815","6502400","平溪區"
"223006","022-BY","2018/05/10 08:48:50","新北市石碇區碇坪路一段56號","121.65701","24.9915083333333","6501900","石碇區"
"223001","205-TH","2018/05/10 08:49:06","新北市石碇區北宜路六段柑腳巷2號","121.659556666667","24.9380616666667","6501900","石碇區"
"223008","406-TH","2018/05/10 08:48:50","新北市石碇區光明路8號","121.679075","25.0271266666667","6501900","石碇區"
"223001","592-UM","2018/05/10 08:48:59","新北市石碇區北宜路六段柑腳巷2號","121.659598333333","24.938055","6501900","石碇區"
"223004","660-BX","2018/05/10 08:48:50","新北市石碇區崩山24-2號","121.678661666667","24.96786","6501900","石碇區"
"223005","677-TV","2018/05/10 08:49:04","新北市石碇區崩山24-2號","121.6786","24.9678466666667","6501900","石碇區"
"252004","249-BX","2018/05/10 08:48:50","新北市三芝區興華里田心子16號","121.493316666667","25.2043433333333","6502100","三芝區"
"252007","AAC-283","2018/05/10 08:48:52","新北市三芝區後厝里北勢子12-9號","121.474603333333","25.2549033333333","6502100","三芝區"
"236009","165-UM","2018/05/10 08:48:54","新北市土城區明德路一段375-1號","121.455018333333","24.9774566666667","6501300","土城區"
"236003","339-SR","2018/05/10 08:49:04","新北市土城區中央路三段153號","121.432123333333","24.965435","6501300","土城區"
"236005","498-BY","2018/05/10 08:48:46","新北市土城區永和街79-1號","121.435846666667","24.9582533333333","6501300","土城區"
"242033","AAC-296","2018/05/10 08:49:05","新北市新莊區仁愛街54巷1號","121.444891666667","25.0371483333333","6500500","新莊區"
"242057","986-R7","2018/05/10 08:48:50","新北市新莊區中正路881-8號","121.417363333333","25.0253866666667","6500500","新莊區"
"242052","751-BX","2018/05/10 08:48:59","新北市新莊區光華街64號","121.42826","25.0120183333333","6500500","新莊區"
"242026","615-BX","2018/05/10 08:48:57","新北市新莊區中平路377巷45號","121.443121666667","25.0526","6500500","新莊區"
"242024","613-BX","2018/05/10 08:49:01","新北市新莊區五權一路12巷12號","121.457305","25.064535","6500500","新莊區"
"242028","612-BX","2018/05/10 08:49:01","新北市新莊區中榮街152巷40號","121.445531666667","25.0538066666667","6500500","新莊區"
"242045","497-BY","2018/05/10 08:49:03","新北市新莊區中正路803巷23號","121.421861666667","25.0278433333333","6500500","新莊區"
"242040","442-UM","2018/05/10 08:48:47","新北市新莊區天祥街53號","121.415001666667","25.0303816666667","6500500","新莊區"
"242049","441-UM","2018/05/10 08:49:02","新北市新莊區民安西路212巷12號","121.425043333333","25.01509","6500500","新莊區"
"242055","440-UM","2018/05/10 08:48:56","新北市新莊區瓊林路59-13號","121.442196666667","25.0250783333333","6500500","新莊區"
"242006","413-TV","2018/05/10 08:48:52","新北市新莊區福壽街94巷17號","121.459298333333","25.050125","6500500","新莊區"
"242022","362-BY","2018/05/10 08:48:58","新北市新莊區化成路606號","121.466186666667","25.0546433333333","6500500","新莊區"
"242059","353-BY","2018/05/10 08:48:59","新北市新莊區四維路25號","121.424126666667","25.02364","6500500","新莊區"
"242038","133-UY","2018/05/10 08:48:56","新北市新莊區民安路318號","121.42866","25.0220483333333","6500500","新莊區"
"242030","135-UY","2018/05/10 08:48:52","新北市新莊區新泰路240號","121.44639","25.039425","6500500","新莊區"
"242047","172-VK","2018/05/10 08:49:02","新北市新莊區建安街92巷7號","121.425911666667","25.0241733333333","6500500","新莊區"
"242010","173-VK","2018/05/10 08:48:48","新北市新莊區中港路中慶巷27弄13號","121.450158333333","25.0532933333333","6500500","新莊區"
"242016","175-VK","2018/05/10 08:48:54","新北市新莊區中港一街95號","121.449241666667","25.0452733333333","6500500","新莊區"
"242003","176-VK","2018/05/10 08:49:06","新北市新莊區復興路三段59號","121.462058333333","25.0445016666667","6500500","新莊區"
"242014","346-TH","2018/05/10 08:49:03","新北市新莊區復興路一段4號","121.445608333333","25.0413766666667","6500500","新莊區"
"242020","347-TH","2018/05/10 08:48:59","新北市新莊區中興街59號","121.449116666667","25.0374033333333","6500500","新莊區"
"242044","348-TH","2018/05/10 08:49:01","新北市新莊區龍安路71-1號","121.416011666667","25.021805","6500500","新莊區"
"242035","349-TH","2018/05/10 08:49:00","新北市新莊區民安路207巷30弄14號","121.427933333333","25.02386","6500500","新莊區"
"242018","350-TH","2018/05/10 08:49:04","新北市新莊區民樂街65巷8號","121.457505","25.041855","6500500","新莊區"
"242012","351-TH","2018/05/10 08:49:02","新北市新莊區幸福路710巷1弄2號","121.449628333333","25.049615","6500500","新莊區"
"242001","KEA-2550","2018/05/10 08:49:03","新北市新莊區中正路219號","121.450948333333","25.0358066666667","6500500","新莊區"
"242008","281-VK","2018/05/10 08:49:04","新北市新莊區昌盛街37號","121.454125","25.0500116666667","6500500","新莊區"
