"lineid","car","time","location","longitude","latitude","cityid","cityname"
"248005","653-BX","2018/05/10 08:59:00","新北市五股區明德路12巷6號","121.433428333333","25.0717816666667","6501500","五股區"
"244012","069-UM","2018/05/10 08:58:52","新北市林口區中山路150-1號","121.39112","25.0787266666667","6501700","林口區"
"244006","080-UY","2018/05/10 08:59:08","新北市林口區林口路124巷8號","121.388985","25.0817916666667","6501700","林口區"
"244003","248-BX","2018/05/10 08:57:58","新北市林口區寶斗厝坑83號","121.332658333333","25.12025","6501700","林口區"
"244018","403-UM","2018/05/10 08:58:51","新北市林口區忠孝路542巷10弄3號","121.372361666667","25.0669233333333","6501700","林口區"
"244008","410-SL","2018/05/10 08:59:06","新北市林口區福林路115號","121.377446666667","25.089305","6501700","林口區"
"244022","483-VK","2018/05/10 08:58:56","新北市林口區東湖路93巷87-1號","121.385548333333","25.0707966666667","6501700","林口區"
"244016","485-VK","2018/05/10 08:58:59","新北市林口區公園路42號","121.367288333333","25.0681666666667","6501700","林口區"
"244010","657-BX","2018/05/10 08:59:02","新北市林口區興林路9號","121.389803333333","25.077245","6501700","林口區"
"244024","837-TS","2018/05/10 08:59:07","新北市林口區南勢二街156號","121.358966666667","25.0744116666667","6501700","林口區"
"244020","838-TS","2018/05/10 08:58:54","新北市林口區工六路68號","121.40005","25.0774833333333","6501700","林口區"
"222006","289-BY","2018/05/10 08:55:33","新北市深坑區土庫尖路75-1號","121.63116","25.0181766666667","6501800","深坑區"
"231069","189-VK","2018/05/10 08:58:49","新北市新店區新潭路三段256號","121.508898333333","24.9041333333333","6500600","新店區"
"231008","192-VK","2018/05/10 08:59:05","新北市新店區松林路7號","121.547103333333","24.91118","6500600","新店區"
"235001","611-BX","2018/05/10 08:58:54","新北市中和區華安街16巷2號","121.465943333333","24.9981416666667","6500300","中和區"
"226007","7418-A5","2018/05/10 08:58:56","新北市平溪區東勢里芊蓁坑30號","121.727525","24.97918","6502400","平溪區"
"226003","AGD-0702","2018/05/10 08:58:56","新北市平溪區十分里十分街236號","121.778135","25.0440766666667","6502400","平溪區"
"223006","022-BY","2018/05/10 08:58:50","新北市石碇區烏塗窟8-3號","121.655753333333","24.9754016666667","6501900","石碇區"
"223001","205-TH","2018/05/10 08:59:06","新北市石碇區北宜路六段水底寮巷11-1號","121.66471","24.9453633333333","6501900","石碇區"
"223008","406-TH","2018/05/10 08:58:50","新北市石碇區光明路13號","121.680066666667","25.0336783333333","6501900","石碇區"
"223001","592-UM","2018/05/10 08:58:59","新北市石碇區北宜路六段水底寮巷9號","121.664676666667","24.9478133333333","6501900","石碇區"
"223004","660-BX","2018/05/10 08:58:50","新北市石碇區崩山53號","121.682366666667","24.9688733333333","6501900","石碇區"
"223005","677-TV","2018/05/10 08:58:18","新北市石碇區崩山53號","121.68239","24.9688916666667","6501900","石碇區"
"252004","249-BX","2018/05/10 08:58:50","新北市三芝區興華里田心子31號","121.488803333333","25.200475","6502100","三芝區"
"252007","AAC-283","2018/05/10 08:58:52","新北市三芝區古庄里四棧橋24號","121.486855","25.2603966666667","6502100","三芝區"
"236009","165-UM","2018/05/10 08:58:54","新北市土城區金城路二段46巷1-24號","121.453681666667","24.9755766666667","6501300","土城區"
"236003","339-SR","2018/05/10 08:59:04","新北市土城區和平路46-1號","121.442721666667","24.970015","6501300","土城區"
"236005","498-BY","2018/05/10 08:59:06","新北市土城區承天路4巷2-16號","121.436385","24.9627833333333","6501300","土城區"
"242033","AAC-296","2018/05/10 08:59:05","新北市新莊區建中街98號","121.446565","25.0365616666667","6500500","新莊區"
"242057","986-R7","2018/05/10 08:59:01","新北市新莊區八德街57號","121.42479","25.0221216666667","6500500","新莊區"
"242052","751-BX","2018/05/10 08:58:59","新北市新莊區西盛街409號","121.427526666667","25.0125116666667","6500500","新莊區"
"242026","615-BX","2018/05/10 08:58:57","新北市新莊區立信三街73號","121.44408","25.05098","6500500","新莊區"
"242024","613-BX","2018/05/10 08:59:01","新北市新莊區五工一路88號","121.461243333333","25.0674766666667","6500500","新莊區"
"242028","612-BX","2018/05/10 08:59:01","新北市新莊區中原路299號","121.447581666667","25.0544166666667","6500500","新莊區"
"242045","497-BY","2018/05/10 08:59:04","新北市新莊區裕民街37巷7號","121.419465","25.0248783333333","6500500","新莊區"
"242040","442-UM","2018/05/10 08:59:08","新北市新莊區青山路一段26號","121.41094","25.0275783333333","6500500","新莊區"
"242049","441-UM","2018/05/10 08:59:02","新北市新莊區民安西路213號","121.426031666667","25.0145916666667","6500500","新莊區"
"242055","440-UM","2018/05/10 08:58:56","新北市新莊區瓊林路34號","121.44873","25.0309833333333","6500500","新莊區"
"242006","413-TV","2018/05/10 08:58:52","新北市新莊區思源路287巷4號","121.45915","25.0483083333333","6500500","新莊區"
"242022","362-BY","2018/05/10 08:58:57","新北市新莊區化成路802號","121.465036666667","25.0595666666667","6500500","新莊區"
"242059","353-BY","2018/05/10 08:59:07","新北市新莊區瓊林路104號","121.443271666667","25.0262666666667","6500500","新莊區"
"242038","133-UY","2018/05/10 08:58:56","新北市新莊區龍安路499號","121.426098333333","25.0180816666667","6500500","新莊區"
"242030","135-UY","2018/05/10 08:58:52","新北市新莊區公園一路138號","121.446338333333","25.0381666666667","6500500","新莊區"
"242047","172-VK","2018/05/10 08:59:02","新北市新莊區後港二路6號","121.422985","25.02426","6500500","新莊區"
"242010","173-VK","2018/05/10 08:59:08","新北市新莊區中港路531巷140號","121.449491666667","25.0515583333333","6500500","新莊區"
"242016","175-VK","2018/05/10 08:58:54","新北市新莊區中港三街11號","121.451","25.046475","6500500","新莊區"
"242003","176-VK","2018/05/10 08:59:06","新北市新莊區化成路63巷21-1號","121.464251666667","25.0458583333333","6500500","新莊區"
"242014","346-TH","2018/05/10 08:59:04","新北市新莊區永樂街235巷8號","121.446711666667","25.0441316666667","6500500","新莊區"
"242020","347-TH","2018/05/10 08:58:59","新北市新莊區建中街34號","121.448985","25.0374666666667","6500500","新莊區"
"242044","348-TH","2018/05/10 08:59:01","新北市新莊區新北大道七段295號","121.412125","25.0276033333333","6500500","新莊區"
"242035","349-TH","2018/05/10 08:59:06","新北市新莊區建安街17巷14號","121.42962","25.0263283333333","6500500","新莊區"
"242018","350-TH","2018/05/10 08:59:04","新北市新莊區博愛路6巷2號","121.456343333333","25.0432833333333","6500500","新莊區"
"242012","351-TH","2018/05/10 08:59:02","新北市新莊區中平路270巷7弄11-2號","121.44537","25.0509133333333","6500500","新莊區"
"242001","KEA-2550","2018/05/10 08:59:03","新北市新莊區思源路23號","121.460181666667","25.03875","6500500","新莊區"
"242008","281-VK","2018/05/10 08:59:04","新北市新莊區昌盛街67號","121.454963333333","25.0499383333333","6500500","新莊區"
