"lineid","car","time","location","longitude","latitude","cityid","cityname"
"248005","653-BX","2018/05/10 09:09:00","新北市五股區水碓路19號","121.433293333333","25.072635","6501500","五股區"
"244012","069-UM","2018/05/10 09:08:52","新北市林口區中山路262-1號","121.384826666667","25.0799366666667","6501700","林口區"
"244006","080-UY","2018/05/10 09:09:08","新北市林口區湖子36-1號","121.38611","25.0943416666667","6501700","林口區"
"244003","248-BX","2018/05/10 09:08:58","新北市林口區中華路329號","121.381743333333","25.0921616666667","6501700","林口區"
"244018","403-UM","2018/05/10 09:08:51","新北市林口區文化一路一段133號","121.373858333333","25.0717066666667","6501700","林口區"
"244008","410-SL","2018/05/10 09:08:46","新北市林口區文林一街42號","121.377436666667","25.086585","6501700","林口區"
"244022","483-VK","2018/05/10 09:08:56","新北市林口區東湖路153巷135號","121.382156666667","25.0737033333333","6501700","林口區"
"244016","485-VK","2018/05/10 09:08:59","新北市林口區文化二路一段279號","121.36775","25.07103","6501700","林口區"
"244010","657-BX","2018/05/10 09:08:50","新北市林口區中正路26號","121.395856666667","25.0774783333333","6501700","林口區"
"244024","837-TS","2018/05/10 09:09:07","新北市林口區文化三路一段447巷29號","121.36769","25.0751183333333","6501700","林口區"
"222006","289-BY","2018/05/10 09:09:07","新北市深坑區土庫尖路45號","121.635055","25.01738","6501800","深坑區"
"231069","189-VK","2018/05/10 09:09:08","新北市新店區新潭路三段215巷25號","121.508128333333","24.90406","6500600","新店區"
"231008","192-VK","2018/05/10 09:09:06","新北市新店區廣興路60巷12-1號","121.540383333333","24.9146716666667","6500600","新店區"
"235001","611-BX","2018/05/10 09:08:54","新北市中和區莒光路220號","121.470085","24.9959916666667","6500300","中和區"
"226007","7418-A5","2018/05/10 09:08:56","新北市平溪區東勢里芊蓁坑29號","121.730631666667","24.97912","6502400","平溪區"
"226003","AGD-0702","2018/05/10 09:09:00","新北市平溪區望古里望古坑26號","121.763486666667","25.0341866666667","6502400","平溪區"
"223001","205-TH","2018/05/10 09:09:06","新北市石碇區北宜路五段66號","121.638318333333","24.953695","6501900","石碇區"
"223008","406-TH","2018/05/10 09:08:10","新北市石碇區光明路17-2號","121.686078333333","25.0324583333333","6501900","石碇區"
"223001","592-UM","2018/05/10 09:08:59","新北市石碇區北宜路五段76號","121.645596666667","24.9530233333333","6501900","石碇區"
"223004","660-BX","2018/05/10 09:08:50","新北市石碇區磨石坑36號","121.691796666667","24.96687","6501900","石碇區"
"223005","677-TV","2018/05/10 09:08:55","新北市石碇區磨石坑36號","121.69183","24.9668633333333","6501900","石碇區"
"252004","249-BX","2018/05/10 09:08:50","新北市淡水區大埤頭1-2號","121.492863333333","25.19457","6502100","三芝區"
"252007","AAC-283","2018/05/10 09:08:52","新北市三芝區古庄里四棧橋18號","121.490041666667","25.2605133333333","6502100","三芝區"
"236009","165-UM","2018/05/10 09:08:54","新北市土城區中央路三段73-2號","121.438953333333","24.9688266666667","6501300","土城區"
"236003","339-SR","2018/05/10 09:09:04","新北市土城區中央路二段276-1號","121.440795","24.97433","6501300","土城區"
"236005","498-BY","2018/05/10 09:09:06","新北市土城區中央路三段92號","121.43606","24.9666866666667","6501300","土城區"
"242033","AAC-296","2018/05/10 09:09:05","新北市新莊區中正路320號","121.446221666667","25.03496","6500500","新莊區"
"242057","986-R7","2018/05/10 09:09:01","新北市新莊區八德街139號","121.423681666667","25.0200466666667","6500500","新莊區"
"242052","751-BX","2018/05/10 09:09:07","新北市新莊區西盛街394號","121.427595","25.0126916666667","6500500","新莊區"
"242026","615-BX","2018/05/10 09:08:57","新北市新莊區幸福路560號","121.454623333333","25.0493683333333","6500500","新莊區"
"242024","613-BX","2018/05/10 09:09:01","新北市新莊區五工三路70巷2-1號","121.459458333333","25.0649133333333","6500500","新莊區"
"242028","612-BX","2018/05/10 09:09:01","新北市新莊區昌隆街12號","121.453471666667","25.05087","6500500","新莊區"
"242045","497-BY","2018/05/10 09:09:03","新北市新莊區裕民街126號","121.418056666667","25.0224566666667","6500500","新莊區"
"242040","442-UM","2018/05/10 09:09:07","新北市新莊區壽山路61-1號","121.41029","25.0326533333333","6500500","新莊區"
"242049","441-UM","2018/05/10 09:09:02","新北市新莊區民安西路135號","121.426475","25.0176066666667","6500500","新莊區"
"242055","440-UM","2018/05/10 09:09:00","新北市新莊區新豐街38號","121.447751666667","25.0340433333333","6500500","新莊區"
"242006","413-TV","2018/05/10 09:08:52","新北市新莊區中正路106號","121.453871666667","25.0367333333333","6500500","新莊區"
"242022","362-BY","2018/05/10 09:08:58","新北市新莊區化成路896號","121.464553333333","25.0615416666667","6500500","新莊區"
"242059","353-BY","2018/05/10 09:09:05","新北市新莊區瓊林路瓊英巷8弄5號","121.443116666667","25.02796","6500500","新莊區"
"242038","133-UY","2018/05/10 09:08:56","新北市新莊區成功街6巷2號","121.425715","25.0217733333333","6500500","新莊區"
"242030","135-UY","2018/05/10 09:08:52","新北市新莊區中正路352號","121.443981666667","25.0343266666667","6500500","新莊區"
"242047","172-VK","2018/05/10 09:09:02","新北市新莊區四維路186巷9號","121.421363333333","25.0211766666667","6500500","新莊區"
"242010","173-VK","2018/05/10 09:07:48","新北市新莊區中信街37巷2弄12號","121.449813333333","25.050595","6500500","新莊區"
"242016","175-VK","2018/05/10 09:08:54","新北市新莊區中平路202號","121.444841666667","25.0487566666667","6500500","新莊區"
"242003","176-VK","2018/05/10 09:09:06","新北市新莊區頭前路149號","121.461023333333","25.0525666666667","6500500","新莊區"
"242014","346-TH","2018/05/10 09:09:03","新北市新莊區中平路46巷32號","121.446005","25.0438283333333","6500500","新莊區"
"242020","347-TH","2018/05/10 09:08:59","新北市新莊區新泰路275號","121.445788333333","25.04041","6500500","新莊區"
"242044","348-TH","2018/05/10 09:09:01","桃園市龜山區萬壽路一段21巷12號","121.41056","25.0201916666667","6500500","新莊區"
"242035","349-TH","2018/05/10 09:09:00","新北市新莊區建安街50號","121.427398333333","25.0247283333333","6500500","新莊區"
"242018","350-TH","2018/05/10 09:09:04","新北市新莊區民樂街78號","121.457921666667","25.0437033333333","6500500","新莊區"
"242012","351-TH","2018/05/10 09:09:02","新北市新莊區中和街175巷11號","121.447186666667","25.050585","6500500","新莊區"
"242001","KEA-2550","2018/05/10 09:09:03","新北市三重區重新路五段673號","121.466123333333","25.0425433333333","6500500","新莊區"
"242008","281-VK","2018/05/10 09:09:04","新北市新莊區福壽街99巷15弄1號","121.45678","25.0503733333333","6500500","新莊區"
