"lineid","car","time","location","longitude","latitude","cityid","cityname"
"248005","653-BX","2018/05/10 09:59:00","新北市五股區蓬萊路6巷10號","121.435768333333","25.0799483333333","6501500","五股區"
"244012","069-UM","2018/05/10 09:58:52","新北市林口區麗園一街1號","121.375683333333","25.0725233333333","6501700","林口區"
"244018","403-UM","2018/05/10 09:58:51","新北市林口區麗園二街87號","121.382688333333","25.0667583333333","6501700","林口區"
"244022","483-VK","2018/05/10 09:58:56","新北市林口區文林六街18號","121.370833333333","25.0802783333333","6501700","林口區"
"222006","289-BY","2018/05/10 09:59:07","新北市深坑區王軍寮14-1號","121.622578333333","24.9857616666667","6501800","深坑區"
"231069","189-VK","2018/05/10 09:59:08","新北市新店區新潭路三段215巷25號","121.508151666667","24.90408","6500600","新店區"
"231008","192-VK","2018/05/10 09:59:05","新北市新店區平廣路一段216號","121.511863333333","24.8887216666667","6500600","新店區"
"252004","249-BX","2018/05/10 09:58:30","新北市三芝區錫板里棟板頭24號","121.51445","25.2282583333333","6502100","三芝區"
"252007","AAC-283","2018/05/10 09:57:12","新北市三芝區新庄里新庄子56-2號","121.505188333333","25.2759783333333","6502100","三芝區"
"237001","159-UY","2018/05/10 09:59:03","新北市三峽區國際一街88號","121.370951666667","24.9414633333333","6500900","三峽區"
"236005","498-BY","2018/05/10 09:59:06","新北市土城區中央路二段390巷41號","121.438143333333","24.9721983333333","6501300","土城區"
"242049","441-UM","2018/05/10 09:59:01","新北市八里區中華路三段15號","121.396961666667","25.143555","6500500","新莊區"
"242010","173-VK","2018/05/10 09:59:08","新北市八里區中山路三段390號","121.368451666667","25.1355883333333","6500500","新莊區"
"242003","176-VK","2018/05/10 09:59:06","新北市三重區光復路二段170號","121.472148333333","25.0613416666667","6500500","新莊區"
