"lineid","car","time","location","longitude","latitude","cityid","cityname"
"248005","653-BX","2018/05/10 10:08:20","新北市五股區中興路二段83巷26-3號","121.460045","25.0753766666667","6501500","五股區"
"244018","403-UM","2018/05/10 10:08:31","新北市林口區麗園二街1巷9-1號","121.37898","25.07012","6501700","林口區"
"244022","483-VK","2018/05/10 10:08:35","新北市林口區民族路216巷13號","121.36938","25.0773416666667","6501700","林口區"
"222006","289-BY","2018/05/10 10:08:27","新北市深坑區王軍寮7-5號","121.614446666667","24.9840066666667","6501800","深坑區"
"231069","189-VK","2018/05/10 10:08:29","新北市新店區新潭路三段215巷25號","121.508128333333","24.904065","6500600","新店區"
"231008","192-VK","2018/05/10 10:08:25","新北市新店區小坑一路6號","121.535688333333","24.9116516666667","6500600","新店區"
"252004","249-BX","2018/05/10 10:08:30","新北市三芝區福德里埔尾2號","121.501996666667","25.246945","6502100","三芝區"
"252007","AAC-283","2018/05/10 10:08:32","新北市三芝區新庄里番社后16號","121.495756666667","25.2705416666667","6502100","三芝區"
"237001","159-UY","2018/05/10 10:08:24","新北市三峽區國際一街39號","121.373045","24.9419783333333","6500900","三峽區"
"242049","441-UM","2018/05/10 10:08:22","新北市五股區新城六路235號","121.447606666667","25.0919433333333","6500500","新莊區"
"242010","173-VK","2018/05/10 10:06:07","新北市八里區中山路三段409號","121.368363333333","25.1350616666667","6500500","新莊區"
