"lineid","car","time","location","longitude","latitude","cityid","cityname"
"244018","403-UM","2018/05/10 10:18:31","新北市林口區四維路110號","121.376933333333","25.0784783333333","6501700","林口區"
"244022","483-VK","2018/05/10 10:18:35","新北市林口區文化北路二段70號","121.370528333333","25.0825016666667","6501700","林口區"
"222006","289-BY","2018/05/10 10:18:47","新北市深坑區王軍寮15號","121.613795","24.9813083333333","6501800","深坑區"
"231069","189-VK","2018/05/10 10:18:49","新北市新店區新潭路三段181號","121.50888","24.9056783333333","6500600","新店區"
"231008","192-VK","2018/05/10 10:18:05","新北市新店區小坑一路71號","121.531421666667","24.9083983333333","6500600","新店區"
"252007","AAC-283","2018/05/10 10:18:32","新北市三芝區新庄里番社后8-3號","121.502071666667","25.2689066666667","6502100","三芝區"
"237001","159-UY","2018/05/10 10:18:44","新北市三峽區大觀路303號","121.373471666667","24.9470366666667","6500900","三峽區"
"242049","441-UM","2018/05/10 10:18:42","新北市新莊區立信一街37號","121.442151666667","25.04925","6500500","新莊區"
"242010","173-VK","2018/05/10 10:16:48","新北市八里區荖阡坑路34號","121.401528333333","25.12972","6500500","新莊區"
