"lineid","car","time","location","longitude","latitude","cityid","cityname"
"234025","9371-KE","2018/05/10 15:09:17","新北市永和區永貞路8號","121.520931666667","25.0072316666667","6500400","永和區"
"248007","095-VK","2018/05/10 15:09:18","新北市五股區中興路一段1巷20號","121.469803333333","25.07088","6501500","五股區"
"248017","225-UY","2018/05/10 15:09:21","新北市五股區登林路99-9號","121.41571","25.0754733333333","6501500","五股區"
"248003","677-BX","2018/05/10 15:09:13","新北市五股區成泰路一段138號","121.435088333333","25.0756133333333","6501500","五股區"
"244003","248-BX","2018/05/10 15:09:10","新北市林口區竹林路266號","121.389706666667","25.0807783333333","6501700","林口區"
"243001","297-R6","2018/05/10 15:09:22","新北市泰山區泰林路二段542巷1弄29號","121.422608333333","25.064025","6501600","泰山區"
"243008","380-SR","2018/05/10 15:09:11","新北市泰山區新生路11號","121.426818333333","25.0457433333333","6501600","泰山區"
"243007","421-VK","2018/05/10 15:09:16","新北市泰山區泰林路二段607巷1-7號","121.42083","25.0641716666667","6501600","泰山區"
"243003","KEA-2215","2018/05/10 15:09:21","新北市泰山區新北大道六段311號","121.423791666667","25.03371","6501600","泰山區"
"243002","KEA-2216","2018/05/10 15:09:19","新北市泰山區泰林路二段608號","121.421281666667","25.0637983333333","6501600","泰山區"
"243004","646-TV","2018/05/10 15:09:26","新北市泰山區美寧街108號","121.432673333333","25.06442","6501600","泰山區"
"243006","680-BX","2018/05/10 15:09:18","新北市泰山區橫窠雅2號","121.402803333333","25.0732","6501600","泰山區"
"231005","001-UM","2018/05/10 15:09:27","新北市新店區中興路三段133號","121.54456","24.9795666666667","6500600","新店區"
"231002","002-UM","2018/05/10 15:09:18","新北市新店區中正路501-5號","121.533676666667","24.9839133333333","6500600","新店區"
"231028","046-UY","2018/05/10 15:09:13","新北市新店區僑信路106號","121.500145","24.9471366666667","6500600","新店區"
"231001","047-UY","2018/05/10 15:09:28","新北市新店區中正路255號","121.538876666667","24.9735483333333","6500600","新店區"
"231021","108-UY","2018/05/10 15:09:28","新北市新店區湖興路128-7號","121.56055","24.9304583333333","6500600","新店區"
"231011","187-VK","2018/05/10 15:09:19","新北市新店區寶元路一段65號","121.54221","24.9858316666667","6500600","新店區"
"231023","KEA-2219","2018/05/10 15:09:23","新北市新店區檳榔路109號","121.544288333333","24.961725","6500600","新店區"
"231003","268-BY","2018/05/10 15:09:20","新北市新店區寶橋路213號","121.548613333333","24.9770833333333","6500600","新店區"
"231018","278-BY","2018/05/10 15:09:21","新北市新店區溪園路423號","121.524825","24.9782333333333","6500600","新店區"
"231017","AAD-862","2018/05/10 15:05:24","新北市新店區明山路67號","121.565856666667","24.9576516666667","6500600","新店區"
"231038","3712-VJ","2018/05/10 15:09:28","新北市新店區安華路28-1號","121.519566666667","24.9613383333333","6500600","新店區"
"231037","4716-K9","2018/05/10 15:09:12","新北市新店區安興路56號","121.516571666667","24.9749583333333","6500600","新店區"
"231025","4715-K9","2018/05/10 15:09:15","新北市新店區二十張路46巷37弄22號","121.536233333333","24.9816766666667","6500600","新店區"
"231036","512-UM","2018/05/10 15:09:20","新北市新店區安祥路102巷71號","121.486513333333","24.963715","6500600","新店區"
"231034","616-UM","2018/05/10 15:08:55","新北市新店區玫瑰路4-1號","121.49353","24.9513866666667","6500600","新店區"
"231030","619-UM","2018/05/10 15:09:21","新北市新店區安民街341-1號","121.516798333333","24.9749383333333","6500600","新店區"
"231039","718-UY","2018/05/10 15:09:24","新北市新店區寶安街2巷1號","121.542323333333","24.9808066666667","6500600","新店區"
"231035","719-UM","2018/05/10 15:09:14","新北市新店區永安街56巷11號","121.518641666667","24.98615","6500600","新店區"
"231031","720-UM","2018/05/10 15:09:12","新北市新店區安泰路103號","121.486408333333","24.9438833333333","6500600","新店區"
"231029","897-TW","2018/05/10 15:09:29","新北市新店區安康路三段738號","121.473866666667","24.9420066666667","6500600","新店區"
"231006","898-TW","2018/05/10 15:09:22","新北市新店區新坡一街18巷5弄2號","121.55014","24.9612616666667","6500600","新店區"
"231004","899-TW","2018/05/10 15:09:12","新北市新店區建國路37巷1號","121.540475","24.9748116666667","6500600","新店區"
"231024","AKT-0513","2018/05/10 15:09:11","新北市新店區北新路一段297巷12號","121.540918333333","24.9677683333333","6500600","新店區"
"235020","096-UM","2018/05/10 15:09:20","新北市板橋區漢生東路338號","121.471843333333","25.00752","6500300","中和區"
"235003","097-UM","2018/05/10 15:09:14","新北市中和區宜安路52巷19號","121.512531666667","24.997425","6500300","中和區"
"235004","150-BY","2018/05/10 15:09:26","新北市中和區保健路19巷2弄1號","121.5084","24.9984083333333","6500300","中和區"
"235036","301-VK","2018/05/10 15:09:20","新北市中和區中和路98號","121.501386666667","25.0002466666667","6500300","中和區"
"235007","352-BY","2018/05/10 15:09:08","新北市中和區興南路二段159巷1號","121.505175","24.983245","6500300","中和區"
"235014","4979-A6","2018/05/10 15:09:24","新北市中和區景新街274巷18號","121.510243333333","24.992075","6500300","中和區"
"235034","558-UM","2018/05/10 15:09:24","新北市中和區中正路366號","121.493428333333","24.9941366666667","6500300","中和區"
"235018","640-BX","2018/05/10 15:09:25","新北市中和區民享街41號","121.474036666667","25.00308","6500300","中和區"
"235035","783-BX","2018/05/10 15:09:28","新北市中和區中山路二段439巷1號","121.484973333333","25.0045883333333","6500300","中和區"
"235012","896-TW","2018/05/10 15:09:29","新北市中和區興南路二段32巷1號","121.507275","24.98551","6500300","中和區"
"235030","911-UM","2018/05/10 15:09:30","新北市中和區水源路154巷2號","121.508128333333","25.003345","6500300","中和區"
"235001","AAC-213","2018/05/10 15:09:25","新北市中和區立人街33-3號","121.521006666667","24.9942266666667","6500300","中和區"
"235023","AAC-215","2018/05/10 15:09:22","新北市中和區圓通路335巷37弄10號","121.493638333333","24.9890333333333","6500300","中和區"
"220016","013-TV","2018/05/10 15:09:24","新北市板橋區光復街230號","121.484753333333","25.02135","6500100","板橋區"
"220017","AAD-861","2018/05/10 15:09:23","新北市板橋區貴興路86號","121.45597","25.0027166666667","6500100","板橋區"
"228004","212-TW","2018/05/10 15:07:49","新北市貢寮區雙玉里田寮洋街16-2號","121.921858333333","25.0251116666667","6502600","貢寮區"
"253003","6232-TK","2018/05/10 15:09:18","新北市石門區小坑9號","121.594536666667","25.289205","6502200","石門區"
"253001","6251-TK","2018/05/10 15:09:11","新北市石門區崁子腳30-1號","121.53551","25.2884616666667","6502200","石門區"
"253002","637-UY","2018/05/10 15:09:21","新北市石門區中央路2-1號","121.565013333333","25.291135","6502200","石門區"
"253004","8270-PC","2018/05/10 15:09:21","新北市石門區小坑9號","121.594078333333","25.288785","6502200","石門區"
"207002","749-BX","2018/05/10 15:09:30","新北市萬里區崁腳里內中福路83號","121.657446666667","25.1671083333333","6502800","萬里區"
"207001","662-BX","2018/05/10 15:04:30","新北市萬里區雙興里麗水路3-1號","121.653048333333","25.1798683333333","6502800","萬里區"
"236068","105-UM","2018/05/10 15:09:08","新北市土城區中央路一段67-1號","121.44774","24.9898266666667","6501300","土城區"
"236040","107-UM","2018/05/10 15:09:09","新北市土城區裕民路253-2號","121.454601666667","24.982995","6501300","土城區"
"236074","166-UM","2018/05/10 15:09:09","新北市土城區中州路1-6號","121.414393333333","24.9571866666667","6501300","土城區"
"236029","253-BX","2018/05/10 15:09:27","新北市土城區福祥街56號","121.441461666667","24.981355","6501300","土城區"
"236024","269-VK","2018/05/10 15:09:26","新北市土城區中央路二段177巷9號","121.443258333333","24.976175","6501300","土城區"
"236012","270-VK","2018/05/10 15:09:12","新北市土城區學府路一段96號","121.456135","24.987935","6501300","土城區"
"236032","271-VK","2018/05/10 15:09:20","新北市土城區青雲路295巷16弄25號","121.460233333333","24.9793733333333","6501300","土城區"
"236017","401-BY","2018/05/10 15:09:16","新北市土城區延峰街31巷3號","121.46973","24.9849783333333","6501300","土城區"
"236057","912-UM","2018/05/10 15:09:22","新北市土城區金城路一段131號","121.44478","24.9737566666667","6501300","土城區"
"236045","913-UM","2018/05/10 15:09:25","新北市土城區清水路203號","121.459981666667","24.981755","6501300","土城區"
"236054","AAC-216","2018/05/10 15:09:23","新北市土城區學府路一段211號","121.451571666667","24.9845233333333","6501300","土城區"
"238010","601-UM","2018/05/10 15:09:23","新北市樹林區大安路221號","121.420226666667","24.9952316666667","6500700","樹林區"
"238006","599-UM","2018/05/10 15:09:16","新北市樹林區八德街170號","121.421688333333","24.9781316666667","6500700","樹林區"
"238005","571-TV","2018/05/10 15:09:23","新北市樹林區中正路7-1號","121.430238333333","24.9976366666667","6500700","樹林區"
"238008","KEA-2217","2018/05/10 15:09:27","新北市樹林區西圳街一段165巷20弄11號","121.395666666667","24.9602066666667","6500700","樹林區"
"238012","303-VK","2018/05/10 15:09:23","新北市樹林區中山路一段249號","121.420498333333","24.9865016666667","6500700","樹林區"
"238001","283-BY","2018/05/10 15:09:23","新北市樹林區福德街3號","121.401663333333","24.97566","6500700","樹林區"
"238007","268-VK","2018/05/10 15:09:11","新北市樹林區俊英街48-1號","121.428711666667","25.00288","6500700","樹林區"
"238013","172-UY","2018/05/10 15:09:17","新北市樹林區東順街86號","121.408398333333","24.9757","6500700","樹林區"
"238003","169-UY","2018/05/10 15:09:11","新北市樹林區大安路586號","121.41169","24.9833833333333","6500700","樹林區"
"221032","280-BY","2018/05/10 15:09:11","新北市汐止區樟樹二路330巷76號","121.643213333333","25.0702466666667","6501100","汐止區"
"220050","245-BX","2018/05/10 15:09:22","新北市板橋區萬板路116號","121.474676666667","25.023405","6500100","板橋區"
"220019","283-VK","2018/05/10 15:09:22","新北市板橋區廣權路111號","121.464833333333","24.9929683333333","6500100","板橋區"
"220001","285-VK","2018/05/10 15:09:18","新北市板橋區永豐街145號","121.475066666667","25.02005","6500100","板橋區"
"220031","286-VK","2018/05/10 15:09:22","新北市板橋區僑中二街108巷16號","121.44509","25.0075066666667","6500100","板橋區"
"220029","287-VK","2018/05/10 15:09:25","新北市板橋區僑中一街102巷7弄1號","121.446768333333","25.01286","6500100","板橋區"
"220009","293-UM","2018/05/10 15:09:23","新北市板橋區民生路二段89-1號","121.471281666667","25.0180066666667","6500100","板橋區"
"220010","305-R5","2018/05/10 15:09:26","新北市板橋區萬安街20巷4弄16號","121.485168333333","25.0228866666667","6500100","板橋區"
"220041","307-R5","2018/05/10 15:09:11","新北市板橋區新海路404號","121.458575","25.026875","6500100","板橋區"
"220047","317-R6","2018/05/10 15:09:12","新北市板橋區新海路72巷5弄28-3號","121.46166","25.0228533333333","6500100","板橋區"
"220012","486-VK","2018/05/10 15:09:22","新北市板橋區漢生東路193巷9號","121.470353333333","25.011905","6500100","板橋區"
"220037","491-VK","2018/05/10 15:09:26","新北市板橋區大同街89號","121.479895","25.0283266666667","6500100","板橋區"
"220052","561-BX","2018/05/10 15:09:19","新北市板橋區文化路一段421巷11弄15號","121.466826666667","25.02259","6500100","板橋區"
"220011","609-BX","2018/05/10 15:09:19","新北市板橋區中山路二段422-10號","121.48352","25.0214116666667","6500100","板橋區"
"220003","630-UY","2018/05/10 15:09:29","新北市板橋區國慶路149巷4弄16-4號","121.461878333333","24.9970066666667","6500100","板橋區"
"220040","637-BX","2018/05/10 15:09:11","新北市板橋區文聖街72-5號","121.477181666667","25.0304883333333","6500100","板橋區"
"220005","686-BX","2018/05/10 15:09:21","新北市板橋區南雅南路二段116號","121.452513333333","25.0006483333333","6500100","板橋區"
"220025","687-BX","2018/05/10 15:09:23","新北市板橋區僑中一街124巷20弄2號","121.446175","25.0139533333333","6500100","板橋區"
"220042","689-BX","2018/05/10 15:09:23","新北市板橋區文化路二段652號","121.478616666667","25.0357483333333","6500100","板橋區"
"220051","KEA-2699","2018/05/10 15:09:19","新北市板橋區民治街137號","121.477641666667","25.030715","6500100","板橋區"
"220014","829-TW","2018/05/10 15:09:22","新北市板橋區中山路一段295號","121.471156666667","25.0145033333333","6500100","板橋區"
"220045","830-TW","2018/05/10 15:09:13","新北市板橋區莒光路79巷1號","121.471805","25.0244283333333","6500100","板橋區"
"220038","833-TW","2018/05/10 15:09:26","新北市板橋區龍泉街126號","121.456846666667","25.0238933333333","6500100","板橋區"
"220046","AAC-210","2018/05/10 15:09:20","新北市板橋區光正街56號","121.461683333333","25.0178616666667","6500100","板橋區"
"220018","AAC-253","2018/05/10 15:09:14","新北市板橋區成都街43號","121.461343333333","25.00496","6500100","板橋區"
