"lineid","car","time","location","longitude","latitude","cityid","cityname"
"244003","248-BX","2018/05/10 15:19:30","新北市林口區粉寮路一段84號","121.39729","25.079375","6501700","林口區"
"243008","380-SR","2018/05/10 15:19:31","新北市泰山區文程路111號","121.430488333333","25.04822","6501600","泰山區"
"231005","001-UM","2018/05/10 15:19:27","新北市新店區順安街60號","121.540861666667","24.9862283333333","6500600","新店區"
"231002","002-UM","2018/05/10 15:19:38","新北市新店區中正路700巷1號","121.533986666667","24.99135","6500600","新店區"
"231028","046-UY","2018/05/10 15:19:33","新北市新店區僑信路114巷42號","121.499123333333","24.9462733333333","6500600","新店區"
"231001","047-UY","2018/05/10 15:19:28","新北市新店區北新路一段319號","121.541595","24.9681566666667","6500600","新店區"
"231021","108-UY","2018/05/10 15:19:28","新北市新店區湖興路131-1號","121.563106666667","24.9372","6500600","新店區"
"231011","187-VK","2018/05/10 15:19:39","新北市新店區寶慶街66號","121.541958333333","24.9867483333333","6500600","新店區"
"231023","KEA-2219","2018/05/10 15:19:30","新北市新店區北新路一段64巷35號","121.542271666667","24.965765","6500600","新店區"
"231003","268-BY","2018/05/10 15:19:40","新北市新店區寶橋路212號","121.550975","24.9786533333333","6500600","新店區"
"231018","278-BY","2018/05/10 15:19:21","新北市新店區中央七街59號","121.52812","24.97625","6500600","新店區"
"231017","AAD-862","2018/05/10 15:19:24","新北市新店區明山路45號","121.563871666667","24.9558066666667","6500600","新店區"
"231038","3712-VJ","2018/05/10 15:19:28","新北市新店區安華路28-1號","121.519646666667","24.9613133333333","6500600","新店區"
"231037","4716-K9","2018/05/10 15:19:32","新北市新店區安興路56號","121.516588333333","24.9748866666667","6500600","新店區"
"231025","4715-K9","2018/05/10 15:19:34","新北市新店區中央路60號","121.53286","24.9777166666667","6500600","新店區"
"231036","512-UM","2018/05/10 15:19:20","新北市新店區安祥路104巷6弄46號","121.483298333333","24.9636483333333","6500600","新店區"
"231034","616-UM","2018/05/10 15:19:35","新北市新店區如意街2巷2號","121.495818333333","24.9496583333333","6500600","新店區"
"231039","718-UY","2018/05/10 15:19:24","新北市新店區寶元路一段65號","121.542256666667","24.985755","6500600","新店區"
"231035","719-UM","2018/05/10 15:19:34","新北市新店區永平街23巷12號","121.516636666667","24.9829916666667","6500600","新店區"
"231031","720-UM","2018/05/10 15:19:32","新北市新店區和成街16巷2號","121.487701666667","24.9468616666667","6500600","新店區"
"231029","897-TW","2018/05/10 15:19:29","新北市新店區安康路三段740號","121.473826666667","24.9419583333333","6500600","新店區"
"231006","898-TW","2018/05/10 15:19:23","新北市新店區北新路一段2號","121.540865","24.9651233333333","6500600","新店區"
"231004","899-TW","2018/05/10 15:19:32","新北市新店區建國路31號","121.540241666667","24.9741316666667","6500600","新店區"
"231024","AKT-0513","2018/05/10 15:19:31","新北市新店區安康路一段148號","121.526391666667","24.9629183333333","6500600","新店區"
"241013","270-UM","2018/05/10 15:19:39","新北市三重區重新路四段121號","121.484851666667","25.0525933333333","6500200","三重區"
"241020","413-TH","2018/05/10 15:19:28","新北市三重區新北大道一段250號","121.47984","25.0610816666667","6500200","三重區"
"235003","097-UM","2018/05/10 15:19:34","新北市中和區安平路38號","121.509748333333","24.9949516666667","6500300","中和區"
"235004","150-BY","2018/05/10 15:19:26","新北市中和區安平路59號","121.509698333333","24.9949733333333","6500300","中和區"
"235036","301-VK","2018/05/10 15:19:40","新北市中和區板南路399巷2號","121.493541666667","24.9989083333333","6500300","中和區"
"235014","4979-A6","2018/05/10 15:19:25","新北市中和區景新街160巷19號","121.504985","24.99654","6500300","中和區"
"235035","783-BX","2018/05/10 15:19:28","新北市板橋區三民路二段62-1號","121.482056666667","25.0115133333333","6500300","中和區"
"235012","896-TW","2018/05/10 15:19:29","新北市中和區興南路一段14號","121.511436666667","24.9912416666667","6500300","中和區"
"235030","911-UM","2018/05/10 15:19:30","新北市中和區保平路326巷7號","121.506878333333","25.0043916666667","6500300","中和區"
"235023","AAC-215","2018/05/10 15:19:22","新北市中和區圓通路435巷2-7號","121.487058333333","24.9867633333333","6500300","中和區"
"253003","6232-TK","2018/05/10 15:19:38","新北市石門區小坑9號","121.594406666667","25.2883733333333","6502200","石門區"
"253001","6251-TK","2018/05/10 15:19:31","新北市石門區中央路37-5號","121.569885","25.2965483333333","6502200","石門區"
"253002","637-UY","2018/05/10 15:19:41","新北市石門區尖子鹿103-3號","121.581821666667","25.2953683333333","6502200","石門區"
"253004","8270-PC","2018/05/10 15:19:41","新北市石門區小坑9號","121.593781666667","25.2885583333333","6502200","石門區"
"207002","749-BX","2018/05/10 15:19:30","新北市萬里區崁腳里內中福路2-1號","121.669215","25.1654983333333","6502800","萬里區"
"207001","662-BX","2018/05/10 15:19:40","新北市萬里區雙興里麗水路3-1號","121.653163333333","25.179815","6502800","萬里區"
"236068","105-UM","2018/05/10 15:19:29","新北市土城區裕民路185巷36弄10號","121.454355","24.9845783333333","6501300","土城區"
"236040","107-UM","2018/05/10 15:19:29","新北市土城區金城路二段245巷15號","121.455353333333","24.9831883333333","6501300","土城區"
"236074","166-UM","2018/05/10 15:19:29","新北市土城區中州路27巷74號","121.41264","24.9564683333333","6501300","土城區"
"236029","253-BX","2018/05/10 15:19:37","新北市土城區中央路一段262巷33號","121.442498333333","24.98428","6501300","土城區"
"236024","269-VK","2018/05/10 15:19:26","新北市土城區員林街61巷1弄1號","121.444073333333","24.9777683333333","6501300","土城區"
"236012","270-VK","2018/05/10 15:19:32","新北市土城區廣福街68巷22號","121.458593333333","24.9903116666667","6501300","土城區"
"236032","271-VK","2018/05/10 15:19:20","新北市土城區國際路139巷53號","121.468373333333","24.9776116666667","6501300","土城區"
"236017","401-BY","2018/05/10 15:19:36","新北市土城區明峰街75號","121.468565","24.987015","6501300","土城區"
"236057","912-UM","2018/05/10 15:19:41","新北市土城區中央路二段223-13號","121.440518333333","24.973035","6501300","土城區"
"236045","913-UM","2018/05/10 15:19:41","新北市土城區延吉街329-2號","121.465506666667","24.9840483333333","6501300","土城區"
"236060","915-UM","2018/05/10 15:19:33","新北市土城區延平街71號","121.467573333333","24.99293","6501300","土城區"
"236054","AAC-216","2018/05/10 15:19:39","新北市土城區學府路一段52號","121.457466666667","24.9884966666667","6501300","土城區"
"238010","601-UM","2018/05/10 15:19:43","新北市樹林區中正路433號","121.415046666667","25.0085433333333","6500700","樹林區"
"238006","599-UM","2018/05/10 15:19:36","新北市樹林區太平路51號","121.41926","24.9825483333333","6500700","樹林區"
"238005","571-TV","2018/05/10 15:19:23","新北市樹林區樹新路86號","121.42928","24.99745","6500700","樹林區"
"238008","KEA-2217","2018/05/10 15:19:35","新北市樹林區西圳街一段165巷12號","121.395645","24.9616216666667","6500700","樹林區"
"238009","KEA-2213","2018/05/10 15:19:24","新北市樹林區忠孝街15號","121.423388333333","24.98264","6500700","樹林區"
"238012","303-VK","2018/05/10 15:19:23","新北市樹林區中山路一段115-2號","121.422756666667","24.9903533333333","6500700","樹林區"
"238001","283-BY","2018/05/10 15:19:43","新北市樹林區保安街二段37-1號","121.41623","25.0000266666667","6500700","樹林區"
"238007","268-VK","2018/05/10 15:19:31","新北市樹林區俊英街158號","121.426845","25.0064233333333","6500700","樹林區"
"238013","172-UY","2018/05/10 15:19:37","新北市樹林區新興街2-1號","121.400281666667","24.9744283333333","6500700","樹林區"
"238003","169-UY","2018/05/10 15:19:31","新北市樹林區八德街1號","121.417555","24.9849616666667","6500700","樹林區"
"220050","245-BX","2018/05/10 15:19:22","新北市板橋區雙十路二段47巷17號","121.475645","25.0257683333333","6500100","板橋區"
"220029","287-VK","2018/05/10 15:19:25","新北市板橋區僑中一街86號","121.447278333333","25.011685","6500100","板橋區"
"220009","293-UM","2018/05/10 15:19:23","新北市板橋區四川路一段123號","121.459758333333","25.0048916666667","6500100","板橋區"
"220041","307-R5","2018/05/10 15:19:31","新北市板橋區民權路174號","121.45956","25.01327","6500100","板橋區"
"220047","317-R6","2018/05/10 15:19:32","新北市板橋區長江路二段311巷18-1號","121.470423333333","25.03601","6500100","板橋區"
"220037","491-VK","2018/05/10 15:19:41","新北市板橋區民治街57巷2號","121.479491666667","25.03333","6500100","板橋區"
"220052","561-BX","2018/05/10 15:19:39","新北市板橋區陽明街279巷2-1號","121.461806666667","25.0261166666667","6500100","板橋區"
"220011","609-BX","2018/05/10 15:19:40","新北市板橋區三民路一段175號","121.479235","25.0195666666667","6500100","板橋區"
"220005","686-BX","2018/05/10 15:19:41","新北市五股區成泰路一段90號","121.437466666667","25.069435","6500100","板橋區"
"220042","689-BX","2018/05/10 15:19:35","新北市板橋區長江路二段195號","121.467291666667","25.0322016666667","6500100","板橋區"
"220051","KEA-2699","2018/05/10 15:19:39","新北市板橋區漢生東路7號","121.464631666667","25.0174933333333","6500100","板橋區"
"220014","829-TW","2018/05/10 15:19:22","新北市板橋區中山路一段214號","121.470046666667","25.0138966666667","6500100","板橋區"
"220038","833-TW","2018/05/10 15:19:26","新北市板橋區新海路386號","121.459023333333","25.02629","6500100","板橋區"
"220018","AAC-253","2018/05/10 15:19:34","新北市板橋區德興街31號","121.453491666667","24.9939783333333","6500100","板橋區"
