"lineid","car","time","location","longitude","latitude","cityid","cityname"
"249005","172-UM","2018/05/10 16:39:22","新北市八里區挖子尾街6號","121.415448333333","25.1642133333333","6502300","八里區"
"243014","680-BX","2018/05/10 16:29:36","新北市泰山區犁頭窠12鄰3號","121.422101666667","25.0599283333333","6501600","泰山區"
"231046","107-UY","2018/05/10 16:39:19","新北市新店區灣潭路1號","121.540228333333","24.9473333333333","6500600","新店區"
"241011","013-R5","2018/05/10 16:39:31","新北市三重區仁愛街39號","121.496635","25.071595","6500200","三重區"
"241008","059-VK","2018/05/10 16:39:19","新北市三重區永安北路一段27巷27號","121.477273333333","25.0754983333333","6500200","三重區"
"241009","060-VK","2018/05/10 16:39:27","新北市三重區三和路四段203巷86號","121.484093333333","25.0800283333333","6500200","三重區"
"241031","061-VK","2018/05/10 16:39:30","新北市三重區重新路四段41巷5弄1號","121.487455","25.05815","6500200","三重區"
"241015","062-VK","2018/05/10 16:39:19","新北市三重區文化北路37號","121.498978333333","25.0649416666667","6500200","三重區"
"241017","063-VK","2018/05/10 16:39:30","新北市三重區中正北路25巷2號","121.493251666667","25.0627283333333","6500200","三重區"
"241024","065-VK","2018/05/10 16:39:21","新北市三重區中正北路315巷6弄33號","121.47585","25.0720266666667","6500200","三重區"
"241026","066-VK","2018/05/10 16:39:24","新北市三重區和平街57號","121.502015","25.0626366666667","6500200","三重區"
"241002","090-VK","2018/05/10 16:39:26","新北市三重區自強路五段121號","121.496206666667","25.0825266666667","6500200","三重區"
"241003","091-VK","2018/05/10 16:39:20","","121.493153333333","25.0833316666667","6500200","三重區"
"241005","262-UM","2018/05/10 16:39:33","新北市三重區仁華街118巷49號","121.485788333333","25.0839766666667","6500200","三重區"
"241028","265-UM","2018/05/10 16:39:17","","121.493613333333","25.06037","6500200","三重區"
"241016","266-UM","2018/05/10 16:39:15","新北市三重區大智街17號","121.494513333333","25.0653233333333","6500200","三重區"
"241022","267-UM","2018/05/10 16:39:31","新北市三重區新北大道一段92巷6號","121.48575","25.0617216666667","6500200","三重區"
"241018","268-UM","2018/05/10 16:39:31","新北市三重區正義北路338巷48號","121.493178333333","25.0703666666667","6500200","三重區"
"241032","269-UM","2018/05/10 16:39:27","新北市三重區新北大道一段117號","121.48351","25.0612166666667","6500200","三重區"
"241013","270-UM","2018/05/10 16:39:25","新北市三重區三和路三段91巷1號","121.494901666667","25.0724433333333","6500200","三重區"
"241025","271-UM","2018/05/10 16:39:27","新北市三重區中正北路428巷11號","121.474535","25.0702116666667","6500200","三重區"
"241007","398-BY","2018/05/10 16:39:26","新北市三重區三和路四段167巷43號","121.485088333333","25.0793816666667","6500200","三重區"
"241020","413-TH","2018/05/10 16:39:32","新北市三重區後竹圍街206號","121.485991666667","25.071785","6500200","三重區"
"241004","475-VK","2018/05/10 16:39:31","新北市三重區五福街1號","121.493111666667","25.0817233333333","6500200","三重區"
"241030","480-VK","2018/05/10 16:39:29","新北市三重區成功路50巷34號","121.48867","25.049145","6500200","三重區"
"241014","543-UM","2018/05/10 16:39:35","新北市三重區龍濱路32號","121.502883333333","25.0681333333333","6500200","三重區"
"241023","545-UM","2018/05/10 16:39:22","新北市三重區忠孝路三段50巷43號","121.482793333333","25.0643066666667","6500200","三重區"
"241001","547-UM","2018/05/10 16:39:37","新北市三重區仁愛街266號","121.493005","25.07827","6500200","三重區"
"241006","AAD-863","2018/05/10 16:39:30","新北市三重區車路頭街138-6號","121.48386","25.075515","6500200","三重區"
"241019","887-TS","2018/05/10 16:39:21","新北市三重區安慶街295號","121.488703333333","25.0673216666667","6500200","三重區"
"241012","941-UM","2018/05/10 16:39:19","新北市三重區仁興街2號","121.499923333333","25.0737833333333","6500200","三重區"
"241029","942-UM","2018/05/10 16:39:29","新北市三重區集美街162號","121.489965","25.0530016666667","6500200","三重區"
"241033","AAC-255","2018/05/10 16:39:32","新北市三重區光復路一段138-1號","121.47215","25.05286","6500200","三重區"
"235072","301-VK","2018/05/10 16:18:27","新北市中和區員山路36巷13號","121.484","24.990945","6500300","中和區"
"235046","733-UM","2018/05/10 16:39:30","新北市中和區員山路36巷13號","121.4842","24.9908233333333","6500300","中和區"
"247006","336-TH","2018/05/10 16:39:25","新北市五股區中興路三段198號","121.441655","25.0820066666667","6501400","蘆洲區"
"247008","056-VK","2018/05/10 16:39:26","新北市五股區中興路三段163號","121.448623333333","25.079865","6501400","蘆洲區"
"224006","676-BX","2018/05/10 16:39:23","新北市瑞芳區大寮路356-1號","121.784853333333","25.1031733333333","6501200","瑞芳區"
"224007","275-VK","2018/05/10 16:39:31","新北市瑞芳區月眉路31號","121.760865","25.1087366666667","6501200","瑞芳區"
"224005","271-BY","2018/05/10 16:39:29","新北市瑞芳區洞頂路136號","121.862363333333","25.1241116666667","6501200","瑞芳區"
"227010","642-TC","2018/05/10 16:39:20","新北市雙溪區牡丹里中正路59號","121.865841666667","25.04082","6502500","雙溪區"
"227004","400-TW","2018/05/10 16:39:25","新北市雙溪區外柑里外柑腳56號","121.807978333333","25.0178716666667","6502500","雙溪區"
"251013","KEA-2871","2018/05/10 16:38:16","新北市淡水區楓樹湖3-6號","121.497161666667","25.189025","6501000","淡水區"
"251014","180-VK","2018/05/10 16:39:32","新北市淡水區新民街一段117號","121.42816","25.1877666666667","6501000","淡水區"
"251008","181-VK","2018/05/10 16:39:31","新北市淡水區民生路169號","121.469793333333","25.142175","6501000","淡水區"
"251012","441-VK","2018/05/10 16:39:24","新北市淡水區中正路二段31號","121.41972","25.1815216666667","6501000","淡水區"
"251016","575-R6","2018/05/10 16:39:24","新北市淡水區新春街126巷13號","121.44024","25.180885","6501000","淡水區"
"252002","178-VK","2018/05/10 16:39:21","新北市三芝區芝柏路27號","121.511911666667","25.255635","6502100","三芝區"
"236017","752-BX","2018/05/10 16:33:18","新北市樹林區中山路三段210-2號","121.381731666667","24.9656366666667","6501300","土城區"
"242015","346-TH","2018/05/10 16:39:18","新北市新莊區三和路12-16號","121.441871666667","25.0374533333333","6500500","新莊區"
"238021","KEA-2217","2018/05/10 16:16:43","新北市樹林區中山路三段204號","121.386761666667","24.9682266666667","6500700","樹林區"
"238001","283-BY","2018/05/10 16:39:23","新北市樹林區中正路433-2號","121.41489","25.0081833333333","6500700","樹林區"
"220050","245-BX","2018/05/10 16:39:22","新北市五股區成泰路三段590-3號","121.45357","25.1054866666667","6500100","板橋區"
"220018","AAC-253","2018/05/10 16:39:34","新北市板橋區華東街1-9號","121.448251666667","24.9948733333333","6500100","板橋區"
