"lineid","car","time","location","longitude","latitude","cityid","cityname"
"249005","172-UM","2018/05/10 16:49:02","新北市八里區大堀湖2-3號","121.422355","25.1537066666667","6502300","八里區"
"249002","305-UY","2018/05/10 16:49:02","新北市八里區牛寮埔31號","121.429895","25.1457433333333","6502300","八里區"
"249003","759-BX","2018/05/10 16:49:16","新北市八里區中山路二段212號","121.402993333333","25.1523333333333","6502300","八里區"
"244011","657-BX","2018/05/10 16:49:03","新北市林口區粉寮路二段160巷28號","121.405206666667","25.0907733333333","6501700","林口區"
"243011","KEA-2215","2018/05/10 16:46:29","新北市泰山區黎明路25號","121.422025","25.0609183333333","6501600","泰山區"
"243014","680-BX","2018/05/10 16:29:36","新北市泰山區犁頭窠12鄰3號","121.422101666667","25.0599283333333","6501600","泰山區"
"231046","107-UY","2018/05/10 16:48:59","新北市新店區灣潭路15-12號","121.5416","24.9419116666667","6500600","新店區"
"241011","013-R5","2018/05/10 16:49:11","新北市三重區仁愛街53巷182號","121.500211666667","25.0729816666667","6500200","三重區"
"241008","059-VK","2018/05/10 16:49:02","新北市三重區永福街177巷26號","121.477935","25.0751383333333","6500200","三重區"
"241009","060-VK","2018/05/10 16:48:47","新北市三重區三和路四段203巷237號","121.487101666667","25.0808783333333","6500200","三重區"
"241031","061-VK","2018/05/10 16:49:10","新北市三重區過圳街42-2號","121.488073333333","25.0600666666667","6500200","三重區"
"241015","062-VK","2018/05/10 16:48:59","新北市三重區文化北路43巷10號","121.499238333333","25.0655616666667","6500200","三重區"
"241017","063-VK","2018/05/10 16:49:10","新北市三重區國隆路8巷1號","121.493318333333","25.06361","6500200","三重區"
"241024","065-VK","2018/05/10 16:49:01","新北市三重區國道路一段139號","121.475471666667","25.07367","6500200","三重區"
"241026","066-VK","2018/05/10 16:49:04","新北市三重區文化南路12號","121.500343333333","25.0620566666667","6500200","三重區"
"241002","090-VK","2018/05/10 16:48:57","新北市三重區仁義街221號","121.496643333333","25.0820433333333","6500200","三重區"
"241003","091-VK","2018/05/10 16:48:59","新北市三重區五華街87巷36號","121.493171666667","25.0841333333333","6500200","三重區"
"241005","262-UM","2018/05/10 16:49:13","新北市三重區仁華街78號","121.484721666667","25.0831833333333","6500200","三重區"
"241028","265-UM","2018/05/10 16:48:57","新北市三重區光興街89號","121.497488333333","25.0600066666667","6500200","三重區"
"241016","266-UM","2018/05/10 16:49:15","新北市三重區大同北路115巷7號","121.493921666667","25.0646483333333","6500200","三重區"
"241022","267-UM","2018/05/10 16:49:11","新北市三重區三民街112號","121.48493","25.06336","6500200","三重區"
"241018","268-UM","2018/05/10 16:49:11","新北市三重區正義北路300號","121.495383333333","25.0697966666667","6500200","三重區"
"241032","269-UM","2018/05/10 16:49:06","新北市三重區重陽路一段120巷21號","121.485845","25.060175","6500200","三重區"
"241013","270-UM","2018/05/10 16:48:59","新北市三重區三和路三段101巷92號","121.497063333333","25.0732783333333","6500200","三重區"
"241025","271-UM","2018/05/10 16:49:07","新北市三重區中正北路530巷7-1號","121.471598333333","25.0710083333333","6500200","三重區"
"241007","398-BY","2018/05/10 16:49:06","新北市三重區三和路四段181巷41號","121.483793333333","25.079305","6500200","三重區"
"241020","413-TH","2018/05/10 16:49:12","新北市三重區忠孝路二段34號","121.4858","25.071075","6500200","三重區"
"241004","475-VK","2018/05/10 16:49:12","新北市三重區仁愛街416號","121.490618333333","25.0813133333333","6500200","三重區"
"241030","480-VK","2018/05/10 16:49:08","新北市三重區新興路2巷3號","121.492616666667","25.0526833333333","6500200","三重區"
"241014","543-UM","2018/05/10 16:49:15","新北市三重區長榮路75號","121.502593333333","25.0691083333333","6500200","三重區"
"241023","545-UM","2018/05/10 16:49:01","新北市三重區新北大道一段206巷15號","121.482491666667","25.0625616666667","6500200","三重區"
"241001","547-UM","2018/05/10 16:48:56","新北市三重區仁政街53號","121.493068333333","25.0771966666667","6500200","三重區"
"241006","AAD-863","2018/05/10 16:49:07","新北市三重區力行路二段145號","121.483456666667","25.0772983333333","6500200","三重區"
"241019","887-TS","2018/05/10 16:49:02","新北市三重區力行路一段173號","121.484576666667","25.069445","6500200","三重區"
"241012","941-UM","2018/05/10 16:49:00","新北市三重區仁興街11巷57號","121.501128333333","25.0744933333333","6500200","三重區"
"241029","942-UM","2018/05/10 16:49:13","新北市三重區集美街211號","121.491775","25.0544866666667","6500200","三重區"
"241033","AAC-255","2018/05/10 16:49:12","新北市三重區新北大道二段139巷19號","121.466523333333","25.060475","6500200","三重區"
"235046","733-UM","2018/05/10 16:39:30","新北市中和區員山路36巷13號","121.4842","24.9908233333333","6500300","中和區"
"247024","893-R6","2018/05/10 16:49:01","新北市蘆洲區長興路202號","121.460591666667","25.08748","6501400","蘆洲區"
"247006","336-TH","2018/05/10 16:49:05","新北市蘆洲區永安南路二段132-1號","121.462598333333","25.0785816666667","6501400","蘆洲區"
"247008","056-VK","2018/05/10 16:49:06","新北市蘆洲區中山一路174號","121.474325","25.0812966666667","6501400","蘆洲區"
"247020","001-UY","2018/05/10 16:48:58","新北市蘆洲區民族路422巷9弄2號","121.474091666667","25.0921183333333","6501400","蘆洲區"
"228003","097-TW","2018/05/10 16:49:01","新北市貢寮區貢寮里朝陽街1-2號","121.912365","25.02128","6502600","貢寮區"
"228002","585-TW","2018/05/10 16:48:58","新北市貢寮區貢寮里朝陽街120巷28號","121.90805","25.023045","6502600","貢寮區"
"224006","676-BX","2018/05/10 16:49:03","新北市瑞芳區大寮路356-1號","121.784898333333","25.10314","6501200","瑞芳區"
"224007","275-VK","2018/05/10 16:49:14","新北市瑞芳區中央路48巷56-7號","121.760466666667","25.1036266666667","6501200","瑞芳區"
"224009","273-VK","2018/05/10 16:49:09","新北市瑞芳區中山路205號","121.801356666667","25.106715","6501200","瑞芳區"
"224005","271-BY","2018/05/10 16:49:09","新北市瑞芳區洞頂路116號","121.861211666667","25.1233033333333","6501200","瑞芳區"
"227010","642-TC","2018/05/10 16:49:09","新北市雙溪區牡丹里五分10-1號","121.866335","25.0471316666667","6502500","雙溪區"
"227004","400-TW","2018/05/10 16:49:06","新北市雙溪區外柑里外柑腳71號","121.807143333333","25.0176133333333","6502500","雙溪區"
"251013","KEA-2871","2018/05/10 16:49:16","新北市淡水區泉洲厝32號","121.489301666667","25.1925916666667","6501000","淡水區"
"251014","180-VK","2018/05/10 16:49:12","新北市淡水區淡金路三段338號","121.449246666667","25.20863","6501000","淡水區"
"251008","181-VK","2018/05/10 16:49:11","新北市淡水區樹梅坑45號","121.47466","25.1445233333333","6501000","淡水區"
"251015","182-VK","2018/05/10 16:49:13","新北市淡水區忠愛街6號","121.460775","25.17155","6501000","淡水區"
"251010","413-VK","2018/05/10 16:48:57","新北市淡水區中正路二段31號","121.419455","25.1815016666667","6501000","淡水區"
"251012","441-VK","2018/05/10 16:49:04","新北市淡水區中正路二段31號","121.419683333333","25.181555","6501000","淡水區"
"251007","442-VK","2018/05/10 16:49:03","新北市淡水區中正路一段66號","121.425293333333","25.17701","6501000","淡水區"
"251006","561-UM","2018/05/10 16:49:00","新北市淡水區中正路二段31號","121.419418333333","25.18166","6501000","淡水區"
"251016","575-R6","2018/05/10 16:49:04","新北市淡水區水頭42號","121.478208333333","25.1850983333333","6501000","淡水區"
"251011","650-BX","2018/05/10 16:49:06","新北市淡水區中正路二段16號","121.420223333333","25.180985","6501000","淡水區"
"252002","178-VK","2018/05/10 16:49:02","新北市三芝區忠孝街63號","121.505986666667","25.2563783333333","6502100","三芝區"
"252001","292-VK","2018/05/10 16:49:00","新北市三芝區淡金路二段89號","121.503898333333","25.2608033333333","6502100","三芝區"
"236017","752-BX","2018/05/10 16:48:58","新北市樹林區柑園街一段26號","121.405885","24.9620833333333","6501300","土城區"
"242023","362-BY","2018/05/10 16:49:13","新北市新莊區新泰路255巷83號","121.442241666667","25.038945","6500500","新莊區"
"242015","346-TH","2018/05/10 16:49:18","新北市新莊區三和路12-16號","121.442056666667","25.03747","6500500","新莊區"
"242036","349-TH","2018/05/10 16:49:04","新北市新莊區三和路12-15號","121.441968333333","25.0373016666667","6500500","新莊區"
"238001","283-BY","2018/05/10 16:49:03","新北市樹林區中正路433-2號","121.414903333333","25.00818","6500700","樹林區"
"239005","526-UM","2018/05/10 16:48:57","新北市鶯歌區二甲路13-16號","121.345066666667","24.935305","6500800","鶯歌區"
"220050","245-BX","2018/05/10 16:49:02","新北市板橋區民生路三段243號","121.464735","25.0288933333333","6500100","板橋區"
"220018","AAC-253","2018/05/10 16:49:14","新北市板橋區華東街1-9號","121.448256666667","24.9948816666667","6500100","板橋區"
