"lineid","car","time","location","longitude","latitude","cityid","cityname"
"249005","172-UM","2018/05/10 17:19:22","新北市八里區荖阡坑路46號","121.40982","25.1216883333333","6502300","八里區"
"249001","173-UM","2018/05/10 17:19:18","新北市八里區中華路二段165巷3號","121.407643333333","25.150865","6502300","八里區"
"249004","303-UY","2018/05/10 17:19:30","新北市八里區賢三街18號","121.418781666667","25.1589166666667","6502300","八里區"
"249002","305-UY","2018/05/10 17:19:22","新北市八里區龍米路二段117巷29-1號","121.446356666667","25.1428316666667","6502300","八里區"
"249003","759-BX","2018/05/10 17:19:16","新北市八里區商港路48號","121.395941666667","25.1452983333333","6502300","八里區"
"244013","069-UM","2018/05/10 17:19:19","新北市林口區粉寮69號","121.405046666667","25.09088","6501700","林口區"
"244007","080-UY","2018/05/10 17:19:19","新北市林口區菁埔路31號","121.377518333333","25.0970483333333","6501700","林口區"
"244019","403-UM","2018/05/10 17:19:29","新北市林口區文化一路一段205號","121.378876666667","25.0754966666667","6501700","林口區"
"244009","410-SL","2018/05/10 17:19:11","新北市林口區松柏路35-2號","121.379736666667","25.0910633333333","6501700","林口區"
"244023","483-VK","2018/05/10 17:19:18","新北市林口區仁愛路一段665號","121.387721666667","25.0764316666667","6501700","林口區"
"244017","485-VK","2018/05/10 17:19:08","新北市林口區粉寮69號","121.404986666667","25.0908783333333","6501700","林口區"
"244011","657-BX","2018/05/10 17:19:23","新北市林口區粉寮路二段14號","121.40135","25.085115","6501700","林口區"
"244025","837-TS","2018/05/10 17:19:21","新北市林口區中山路581號","121.38038","25.0823283333333","6501700","林口區"
"244021","838-TS","2018/05/10 17:19:22","新北市林口區粉寮路二段92號","121.404673333333","25.088505","6501700","林口區"
"243015","421-VK","2018/05/10 17:19:16","新北市泰山區犁頭窠3-1號","121.421955","25.0605233333333","6501600","泰山區"
"243014","680-BX","2018/05/10 17:19:25","新北市泰山區黎明路37-2號","121.42199","25.06003","6501600","泰山區"
"231046","107-UY","2018/05/10 17:19:19","新北市新店區直潭路92號","121.530911666667","24.9376366666667","6500600","新店區"
"241011","013-R5","2018/05/10 17:19:11","新北市三重區介壽路39巷168號","121.502105","25.0708683333333","6500200","三重區"
"241008","059-VK","2018/05/10 17:19:19","新北市三重區下竹圍街14號","121.480995","25.07578","6500200","三重區"
"241009","060-VK","2018/05/10 17:19:27","新北市三重區仁愛街602號","121.483986666667","25.0810483333333","6500200","三重區"
"241015","062-VK","2018/05/10 17:19:19","新北市三重區長元街82-1號","121.50185","25.0663266666667","6500200","三重區"
"241017","063-VK","2018/05/10 17:19:11","新北市三重區大同北路52號","121.49505","25.0630916666667","6500200","三重區"
"241024","065-VK","2018/05/10 17:19:21","新北市三重區中正北路201號","121.477086666667","25.069915","6500200","三重區"
"241026","066-VK","2018/05/10 17:19:24","新北市三重區文化南路31-2號","121.500061666667","25.0617633333333","6500200","三重區"
"241002","090-VK","2018/05/10 17:19:16","新北市三重區仁愛街367號","121.491838333333","25.0801483333333","6500200","三重區"
"241003","091-VK","2018/05/10 17:19:19","新北市三重區五華街146號","121.491193333333","25.0839566666667","6500200","三重區"
"241005","262-UM","2018/05/10 17:19:13","新北市三重區永安北路二段11號","121.48193","25.0814566666667","6500200","三重區"
"241028","265-UM","2018/05/10 17:19:17","新北市三重區仁化商場15號","121.493785","25.0592333333333","6500200","三重區"
"241016","266-UM","2018/05/10 17:19:15","新北市三重區大同北路54巷1號","121.494245","25.0635616666667","6500200","三重區"
"241022","267-UM","2018/05/10 17:19:31","新北市三重區中正北路64巷9號","121.486396666667","25.0641366666667","6500200","三重區"
"241018","268-UM","2018/05/10 17:19:11","新北市三重區安慶街142-1號","121.49449","25.068765","6500200","三重區"
"241032","269-UM","2018/05/10 17:19:27","新北市三重區興華街123號","121.483408333333","25.0598366666667","6500200","三重區"
"241013","270-UM","2018/05/10 17:19:19","新北市三重區仁福街21號","121.496215","25.074345","6500200","三重區"
"241025","271-UM","2018/05/10 17:19:27","新北市三重區中正北路422號","121.474821666667","25.071015","6500200","三重區"
"241007","398-BY","2018/05/10 17:19:26","新北市三重區三和路四段157號","121.483741666667","25.07849","6500200","三重區"
"241024","KEA-2210","2018/05/10 17:19:14","新北市三重區國道路一段85巷9號","121.47998","25.0723866666667","6500200","三重區"
"241020","413-TH","2018/05/10 17:19:24","新北市三重區忠孝路一段143號","121.488221666667","25.072225","6500200","三重區"
"241004","475-VK","2018/05/10 17:19:11","新北市三重區五華街110巷17弄7號","121.490855","25.0825183333333","6500200","三重區"
"241030","480-VK","2018/05/10 17:19:28","新北市三重區成功路73巷26號","121.489581666667","25.0521733333333","6500200","三重區"
"241014","543-UM","2018/05/10 17:19:15","新北市三重區長壽街120巷8弄97-1號","121.499995","25.0684933333333","6500200","三重區"
"241023","545-UM","2018/05/10 17:19:21","新北市三重區三民街197號","121.482033333333","25.06571","6500200","三重區"
"241001","547-UM","2018/05/10 17:19:24","新北市三重區仁愛街302-1號","121.492223333333","25.0794866666667","6500200","三重區"
"241006","AAD-863","2018/05/10 17:19:27","新北市三重區三和路四段218巷15號","121.485601666667","25.0764516666667","6500200","三重區"
"241019","887-TS","2018/05/10 17:19:21","新北市三重區三張街149巷2號","121.486641666667","25.069635","6500200","三重區"
"241012","941-UM","2018/05/10 17:19:19","新北市三重區龍門路274巷51號","121.500941666667","25.075775","6500200","三重區"
"241029","942-UM","2018/05/10 17:19:09","新北市三重區重新路三段89-5號","121.491678333333","25.060015","6500200","三重區"
"241033","AAC-255","2018/05/10 17:19:12","新北市三重區中興北街191號","121.469065","25.0565166666667","6500200","三重區"
"235061","378-QA","2018/05/10 17:03:53","新北市中和區員山路36巷8-1號","121.483488333333","24.99095","6500300","中和區"
"235046","733-UM","2018/05/10 17:19:22","新北市中和區員山路36巷13號","121.484151666667","24.9908883333333","6500300","中和區"
"247024","893-R6","2018/05/10 17:19:21","新北市蘆洲區長榮路233號","121.46036","25.0857133333333","6501400","蘆洲區"
"247014","546-UM","2018/05/10 17:19:20","新北市蘆洲區得勝街118號","121.471011666667","25.0827616666667","6501400","蘆洲區"
"247022","500-BY","2018/05/10 17:19:10","新北市蘆洲區三民路128巷15號","121.470461666667","25.08868","6501400","蘆洲區"
"247010","341-TH","2018/05/10 17:19:20","新北市蘆洲區中山一路120巷7弄4號","121.477543333333","25.0820566666667","6501400","蘆洲區"
"247012","339-TH","2018/05/10 17:19:20","新北市蘆洲區信義路319巷12號","121.477716666667","25.0862016666667","6501400","蘆洲區"
"247004","337-TH","2018/05/10 17:19:21","新北市蘆洲區永安南路二段286號","121.457653333333","25.0813733333333","6501400","蘆洲區"
"247006","336-TH","2018/05/10 17:19:25","新北市蘆洲區長安街73巷19號","121.462061666667","25.07941","6501400","蘆洲區"
"247018","057-VK","2018/05/10 17:19:26","新北市蘆洲區民權路68巷9號","121.475221666667","25.0877983333333","6501400","蘆洲區"
"247008","056-VK","2018/05/10 17:19:26","新北市蘆洲區永安北路一段72巷32號","121.476461666667","25.0770366666667","6501400","蘆洲區"
"247016","007-UY","2018/05/10 17:19:11","新北市蘆洲區正和街96巷16號","121.467838333333","25.081135","6501400","蘆洲區"
"247002","002-UY","2018/05/10 17:19:20","新北市蘆洲區永樂街38巷33弄31號","121.456743333333","25.0897216666667","6501400","蘆洲區"
"247020","001-UY","2018/05/10 17:19:18","新北市蘆洲區民族路341號","121.472776666667","25.091905","6501400","蘆洲區"
"228003","097-TW","2018/05/10 17:19:21","新北市貢寮區福隆里興隆街24-1號","121.944411666667","25.0166166666667","6502600","貢寮區"
"228001","212-TW","2018/05/10 17:19:20","新北市貢寮區仁理村尖山腳街18-3號","121.925526666667","25.0483216666667","6502600","貢寮區"
"228002","585-TW","2018/05/10 17:19:18","新北市貢寮區雙玉里下雙溪街24號","121.920918333333","25.0099766666667","6502600","貢寮區"
"224006","676-BX","2018/05/10 17:19:23","新北市瑞芳區傑魚坑路263號","121.787188333333","25.10611","6501200","瑞芳區"
"224008","285-BY","2018/05/10 17:19:15","新北市瑞芳區侯硐路178號","121.828823333333","25.0868783333333","6501200","瑞芳區"
"224009","273-VK","2018/05/10 17:19:29","新北市瑞芳區汽車路101-2號","121.841298333333","25.10852","6501200","瑞芳區"
"224005","271-BY","2018/05/10 17:19:09","新北市瑞芳區鼻頭路247號","121.912585","25.1238883333333","6501200","瑞芳區"
"227010","642-TC","2018/05/10 17:19:20","新北市雙溪區三貂里定福路1號","121.84933","25.0642366666667","6502500","雙溪區"
"227004","400-TW","2018/05/10 17:19:25","新北市雙溪區上林里內平林90號","121.827551666667","25.0274866666667","6502500","雙溪區"
"251009","008-UM","2018/05/10 17:19:19","新北市淡水區三民街20號","121.439035","25.17177","6501000","淡水區"
"251004","009-UM","2018/05/10 17:19:25","新北市淡水區中正東路二段48巷20號","121.45702","25.1585866666667","6501000","淡水區"
"251005","010-UM","2018/05/10 17:19:25","新北市淡水區鄧公路19-1號","121.450333333333","25.1700133333333","6501000","淡水區"
"251013","KEA-2871","2018/05/10 17:19:16","新北市淡水區大竹圍6號","121.469788333333","25.19522","6501000","淡水區"
"251014","180-VK","2018/05/10 17:19:15","新北市淡水區公埔子30-2號","121.465693333333","25.2286466666667","6501000","淡水區"
"251008","181-VK","2018/05/10 17:19:31","新北市淡水區大同路269號","121.467163333333","25.142295","6501000","淡水區"
"251015","182-VK","2018/05/10 17:19:13","新北市淡水區三空泉20號","121.46924","25.1656316666667","6501000","淡水區"
"251010","413-VK","2018/05/10 17:19:17","新北市淡水區中正路二段211號","121.426223333333","25.189145","6501000","淡水區"
"251012","441-VK","2018/05/10 17:19:24","新北市淡水區中山北路一段158號","121.444273333333","25.1778683333333","6501000","淡水區"
"251007","442-VK","2018/05/10 17:19:23","新北市淡水區民生路60號","121.462178333333","25.1379416666667","6501000","淡水區"
"251006","561-UM","2018/05/10 17:19:26","新北市淡水區中山路189號","121.441303333333","25.174485","6501000","淡水區"
"251016","575-R6","2018/05/10 17:19:24","新北市淡水區社厝坑5-1號","121.470568333333","25.1901883333333","6501000","淡水區"
"251011","650-BX","2018/05/10 17:19:26","新北市淡水區坪頂路128號","121.465175","25.16136","6501000","淡水區"
"251002","672-BX","2018/05/10 17:19:23","新北市淡水區中正路二段31號","121.419356666667","25.1816683333333","6501000","淡水區"
"251003","766-UM","2018/05/10 17:19:24","新北市淡水區中正路二段31號","121.419501666667","25.18149","6501000","淡水區"
"207003","550-UM","2018/05/10 17:19:24","新北市萬里區萬里里瑪鋉路340號","121.687971666667","25.1826416666667","6502800","萬里區"
"252002","178-VK","2018/05/10 17:19:22","新北市三芝區忠孝街1-14號","121.50555","25.2539633333333","6502100","三芝區"
"252001","292-VK","2018/05/10 17:19:20","新北市三芝區長安街119號","121.498045","25.259665","6502100","三芝區"
"237010","706-TV","2018/05/10 17:19:24","新北市三峽區中山路459巷163-3號","121.34861","24.93282","6500900","三峽區"
"242034","AAC-296","2018/05/10 17:19:30","新北市新莊區瓊林路21-7號","121.446251666667","25.0285666666667","6500500","新莊區"
"242058","986-R7","2018/05/10 17:19:15","新北市新莊區新泰路357巷3弄1號","121.442345","25.0416366666667","6500500","新莊區"
"242027","615-BX","2018/05/10 17:19:16","新北市新莊區中平路82巷36-2號","121.446431666667","25.0449466666667","6500500","新莊區"
"242025","613-BX","2018/05/10 17:19:11","新北市新莊區中平路82巷36-2號","121.446293333333","25.0448616666667","6500500","新莊區"
"242029","612-BX","2018/05/10 17:19:10","新北市新莊區中和街125巷10弄6號","121.447203333333","25.048885","6500500","新莊區"
"242046","497-BY","2018/05/10 17:19:19","新北市新莊區新樹路65-7號","121.439388333333","25.030755","6500500","新莊區"
"242041","442-UM","2018/05/10 17:19:28","新北市新莊區中正路475號","121.44152","25.0338383333333","6500500","新莊區"
"242051","441-UM","2018/05/10 17:19:19","新北市新莊區瓊林南路33-9號","121.436018333333","25.0178483333333","6500500","新莊區"
"242056","440-UM","2018/05/10 17:19:17","新北市新莊區中正路473-1號","121.442043333333","25.0331483333333","6500500","新莊區"
"242007","413-TV","2018/05/10 17:19:23","新北市新莊區中平路82巷29號","121.446128333333","25.0449016666667","6500500","新莊區"
"242023","362-BY","2018/05/10 17:19:13","新北市新莊區中平路82巷24號","121.445861666667","25.04477","6500500","新莊區"
"242061","353-BY","2018/05/10 17:19:13","新北市新莊區新泰路357巷3弄39號","121.441973333333","25.0403533333333","6500500","新莊區"
"242039","133-UY","2018/05/10 17:19:30","新北市新莊區民安路304號","121.428311666667","25.02192","6500500","新莊區"
"242031","135-UY","2018/05/10 17:19:27","新北市新莊區三和路12-10號","121.442296666667","25.0367283333333","6500500","新莊區"
"242048","172-VK","2018/05/10 17:19:14","新北市新莊區龍安路249-1號","121.419366666667","25.022085","6500500","新莊區"
"242017","175-VK","2018/05/10 17:19:17","新北市新莊區中環路二段392-1號","121.442456666667","25.0455366666667","6500500","新莊區"
"242004","176-VK","2018/05/10 17:19:31","新北市新莊區中環路二段392-1號","121.442495","25.045385","6500500","新莊區"
"242015","346-TH","2018/05/10 17:19:18","新北市新莊區新泰路273號","121.445761666667","25.0403533333333","6500500","新莊區"
"242021","347-TH","2018/05/10 17:19:13","新北市新莊區新泰路357巷3弄45號","121.441963333333","25.04017","6500500","新莊區"
"242036","349-TH","2018/05/10 17:19:24","新北市新莊區中正路481號","121.441351666667","25.0337983333333","6500500","新莊區"
"242019","350-TH","2018/05/10 17:19:27","新北市新莊區中環路二段392-1號","121.442438333333","25.0454766666667","6500500","新莊區"
"242013","351-TH","2018/05/10 17:19:25","新北市新莊區新泰路421-7號","121.442481666667","25.045205","6500500","新莊區"
"238019","599-UM","2018/05/10 17:19:16","新北市樹林區八德街100號","121.42089","24.9801633333333","6500700","樹林區"
"238018","571-TV","2018/05/10 17:19:14","新北市樹林區中華路6-8號","121.42302","24.984245","6500700","樹林區"
"238024","5061-A6","2018/05/10 17:19:19","新北市樹林區保安街一段48巷25號","121.42648","24.9951633333333","6500700","樹林區"
"238021","KEA-2217","2018/05/10 17:19:27","新北市樹林區西圳街一段98號","121.400158333333","24.9634116666667","6500700","樹林區"
"238022","KEA-2213","2018/05/10 17:19:24","新北市樹林區仁愛街73巷1號","121.423506666667","24.982755","6500700","樹林區"
"238025","303-VK","2018/05/10 17:19:17","新北市樹林區保安二街52號","121.42438","24.995195","6500700","樹林區"
"238017","283-BY","2018/05/10 17:19:23","新北市樹林區光武街32-2號","121.416563333333","25.0062083333333","6500700","樹林區"
"238014","282-BY","2018/05/10 17:19:19","新北市樹林區長壽街70巷19-1號","121.421903333333","24.9947416666667","6500700","樹林區"
"238020","268-VK","2018/05/10 17:19:11","新北市樹林區中正路17號","121.427825","24.9992533333333","6500700","樹林區"
"238026","172-UY","2018/05/10 17:19:18","新北市樹林區東大街146號","121.40996","24.97592","6500700","樹林區"
"238016","169-UY","2018/05/10 17:19:11","新北市樹林區中山路二段10號","121.417551666667","24.9850116666667","6500700","樹林區"
"239006","891-R6","2018/05/10 17:19:28","新北市鶯歌區德昌二街73號","121.333403333333","24.9578883333333","6500800","鶯歌區"
"239008","527-UM","2018/05/10 17:19:19","新北市鶯歌區西湖街289巷10號","121.340711666667","24.96904","6500800","鶯歌區"
"239005","526-UM","2018/05/10 17:19:17","新北市鶯歌區福德二街14號","121.329808333333","24.967365","6500800","鶯歌區"
"239001","417-VK","2018/05/10 17:19:14","新北市鶯歌區尖山路203號","121.343796666667","24.9470233333333","6500800","鶯歌區"
"239003","360-BY","2018/05/10 17:19:24","新北市鶯歌區德昌街50號","121.333218333333","24.9597166666667","6500800","鶯歌區"
"239002","359-BY","2018/05/10 17:19:19","新北市鶯歌區南昌街20號","121.349706666667","24.9541133333333","6500800","鶯歌區"
"239004","193-VK","2018/05/10 17:19:21","新北市鶯歌區文化路300號","121.352386666667","24.9467216666667","6500800","鶯歌區"
"242002","KEA-2550","2018/05/10 17:19:15","新北市新莊區新泰路76號","121.44905","25.0350066666667","6500500","新莊區"
"242009","281-VK","2018/05/10 17:19:25","新北市新莊區中環路二段392-1號","121.442468333333","25.0454016666667","6500500","新莊區"
"242053","280-VK","2018/05/10 17:19:17","新北市新莊區瓊林路61巷3號","121.439751666667","25.0195683333333","6500500","新莊區"
"220018","AAC-253","2018/05/10 16:49:39","新北市板橋區華東街1-9號","121.448255","24.9948816666667","6500100","板橋區"
