"lineid","car","time","location","longitude","latitude","cityid","cityname"
"234026","9371-KE","2018/05/10 17:49:12","新北市永和區中山路一段17巷4弄15號","121.513465","25.010175","6500400","永和區"
"249005","172-UM","2018/05/10 17:49:01","新北市八里區荖阡坑路41-6號","121.40231","25.1324183333333","6502300","八里區"
"249001","173-UM","2018/05/10 17:49:18","新北市八里區龍米路二段131號","121.445345","25.14745","6502300","八里區"
"249004","303-UY","2018/05/10 17:49:10","新北市八里區中華路一段81巷32號","121.418725","25.152025","6502300","八里區"
"249002","305-UY","2018/05/10 17:49:02","新北市八里區龍形五街37巷8-3號","121.447651666667","25.1339683333333","6502300","八里區"
"249003","759-BX","2018/05/10 17:48:56","新北市八里區中山路二段125號","121.40528","25.1518616666667","6502300","八里區"
"248016","026-BX","2018/05/10 17:49:10","新北市五股區中興路二段83巷26-6號","121.459923333333","25.0752216666667","6501500","五股區"
"248006","077-UY","2018/05/10 17:49:06","新北市五股區中興路二段37巷28號","121.460298333333","25.0747866666667","6501500","五股區"
"248008","095-VK","2018/05/10 17:49:13","新北市五股區中興路二段37巷28號","121.460241666667","25.0748966666667","6501500","五股區"
"248002","678-BX","2018/05/10 17:49:14","新北市五股區中興路二段37巷26號","121.460436666667","25.0747583333333","6501500","五股區"
"232011","375-UM","2018/05/10 17:49:08","新北市坪林區北宜路八段222號","121.708766666667","24.9348316666667","6502000","坪林區"
"244013","069-UM","2018/05/10 17:48:59","新北市林口區中正路495號","121.38356","25.0777216666667","6501700","林口區"
"244007","080-UY","2018/05/10 17:49:00","新北市林口區林口路272巷11號","121.386438333333","25.0847233333333","6501700","林口區"
"244019","403-UM","2018/05/10 17:49:09","新北市林口區文化一路一段83巷14弄92號","121.372726666667","25.0716166666667","6501700","林口區"
"244009","410-SL","2018/05/10 17:49:11","新北市林口區文化一路二段179號","121.383593333333","25.081725","6501700","林口區"
"244023","483-VK","2018/05/10 17:49:18","新北市林口區東湖路84號","121.386658333333","25.0739933333333","6501700","林口區"
"244017","485-VK","2018/05/10 17:49:08","新北市林口區文化二路一段256號","121.370563333333","25.0733683333333","6501700","林口區"
"244011","657-BX","2018/05/10 17:49:03","新北市林口區佳林路257號","121.382703333333","25.0760683333333","6501700","林口區"
"244025","837-TS","2018/05/10 17:49:01","新北市林口區忠孝三路42號","121.360248333333","25.07","6501700","林口區"
"244021","838-TS","2018/05/10 17:49:02","新北市林口區仁愛路一段159巷42號","121.397955","25.0722133333333","6501700","林口區"
"243009","297-R6","2018/05/10 17:35:31","新北市泰山區黎明路25號","121.421866666667","25.0610016666667","6501600","泰山區"
"243011","KEA-2215","2018/05/10 17:49:06","新北市泰山區黎明路26號","121.42088","25.06063","6501600","泰山區"
"222003","436-BY","2018/05/10 17:49:06","新北市深坑區阿柔洋60-1號","121.608605","24.9985133333333","6501800","深坑區"
"222002","659-BX","2018/05/10 17:49:07","新北市深坑區平埔街22巷17弄1號","121.614918333333","25.0008116666667","6501800","深坑區"
"231046","107-UY","2018/05/10 17:49:14","新北市新店區下石厝路19-2號","121.531893333333","24.9276583333333","6500600","新店區"
"231055","AKT-0513","2018/05/10 17:48:59","新北市新店區安華路28-1號","121.519586666667","24.9605333333333","6500600","新店區"
"241024","065-VK","2018/05/10 17:49:00","新北市三重區忠孝路三段84巷5號","121.480166666667","25.0644516666667","6500200","三重區"
"241005","262-UM","2018/05/10 17:49:13","新北市三重區仁愛街512號","121.487338333333","25.0821566666667","6500200","三重區"
"241016","266-UM","2018/05/10 17:49:15","新北市三重區新北大道一段7號","121.489593333333","25.0612033333333","6500200","三重區"
"241024","KEA-2210","2018/05/10 17:49:14","新北市三重區力行路二段9巷12號","121.482971666667","25.0723283333333","6500200","三重區"
"241019","887-TS","2018/05/10 17:49:05","新北市三重區力行路一段87號","121.486541666667","25.0681716666667","6500200","三重區"
"241033","AAC-255","2018/05/10 17:49:11","新北市三重區光復路一段7號","121.472141666667","25.0470866666667","6500200","三重區"
"235063","006-UY","2018/05/10 17:48:58","新北市中和區員山路36巷16-3號","121.484918333333","24.99124","6500300","中和區"
"235046","733-UM","2018/05/10 17:49:02","新北市中和區員山路36巷12號","121.483966666667","24.9909283333333","6500300","中和區"
"247024","893-R6","2018/05/10 17:49:05","新北市蘆洲區長樂路120巷8號","121.462373333333","25.0896833333333","6501400","蘆洲區"
"247014","546-UM","2018/05/10 17:49:14","新北市蘆洲區保和街77號","121.469195","25.0860816666667","6501400","蘆洲區"
"247022","500-BY","2018/05/10 17:49:10","新北市蘆洲區中正路270巷19號","121.465958333333","25.0901216666667","6501400","蘆洲區"
"247010","341-TH","2018/05/10 17:49:15","新北市蘆洲區民族路46號","121.476881666667","25.084445","6501400","蘆洲區"
"247012","339-TH","2018/05/10 17:48:59","新北市蘆洲區復興路158號","121.477431666667","25.0880816666667","6501400","蘆洲區"
"247004","337-TH","2018/05/10 17:49:00","新北市蘆洲區長安街194巷24號","121.459763333333","25.0844166666667","6501400","蘆洲區"
"247006","336-TH","2018/05/10 17:49:05","新北市蘆洲區長安街22巷16號","121.46464","25.0797333333333","6501400","蘆洲區"
"247018","057-VK","2018/05/10 17:48:46","新北市蘆洲區復興路227巷2弄11號","121.480438333333","25.090495","6501400","蘆洲區"
"247008","056-VK","2018/05/10 17:49:12","新北市蘆洲區中山一路225號","121.47375","25.0807666666667","6501400","蘆洲區"
"247016","007-UY","2018/05/10 17:49:11","新北市蘆洲區中正路185巷23弄26號","121.467581666667","25.0839483333333","6501400","蘆洲區"
"247002","002-UY","2018/05/10 17:49:00","新北市蘆洲區永平街32巷21弄27號","121.458151666667","25.0920983333333","6501400","蘆洲區"
"247020","001-UY","2018/05/10 17:49:18","新北市蘆洲區民義街73號","121.473085","25.0902133333333","6501400","蘆洲區"
"235065","251-BX","2018/05/10 17:48:59","新北市中和區員山路36巷16-3號","121.484893333333","24.9913583333333","6500300","中和區"
"228003","097-TW","2018/05/10 17:49:01","新北市貢寮區真理里延平街147號","121.925053333333","25.057865","6502600","貢寮區"
"228001","212-TW","2018/05/10 17:49:00","新北市貢寮區仁理村仁愛路95-1號","121.927656666667","25.05544","6502600","貢寮區"
"228002","585-TW","2018/05/10 17:48:58","新北市貢寮區福隆里外隆林街15-3號","121.95856","25.0040466666667","6502600","貢寮區"
"224010","AGQ-8101","2018/05/10 17:48:51","新北市瑞芳區明燈路一段15號","121.823688333333","25.1073583333333","6501200","瑞芳區"
"224006","676-BX","2018/05/10 17:49:03","新北市瑞芳區瑞興新村12巷1號","121.78843","25.108315","6501200","瑞芳區"
"224008","285-BY","2018/05/10 17:49:15","新北市瑞芳區明燈路一段222號","121.818121666667","25.108335","6501200","瑞芳區"
"224009","273-VK","2018/05/10 17:49:09","新北市瑞芳區新山路26號","121.852473333333","25.1096016666667","6501200","瑞芳區"
"224005","271-BY","2018/05/10 17:49:09","新北市瑞芳區瑞濱路85號","121.82165","25.121085","6501200","瑞芳區"
"227010","642-TC","2018/05/10 17:49:00","新北市雙溪區三貂里定福路1-2號","121.850768333333","25.0634933333333","6502500","雙溪區"
"253006","295-VK","2018/05/10 17:49:18","新北市石門區中山路37號","121.566835","25.2911433333333","6502200","石門區"
"222001","KEA-2212","2018/05/10 17:49:17","新北市深坑區文山路三段110號","121.608656666667","24.9994416666667","6501800","深坑區"
"251009","008-UM","2018/05/10 17:49:19","新北市淡水區長興街45號","121.444211666667","25.1717566666667","6501000","淡水區"
"251004","009-UM","2018/05/10 17:49:10","新北市淡水區民權一街24號","121.458665","25.136735","6501000","淡水區"
"251005","010-UM","2018/05/10 17:49:06","新北市淡水區學府路102巷12號","121.450745","25.1717983333333","6501000","淡水區"
"251001","011-UM","2018/05/10 17:49:19","新北市淡水區民權路92巷35-1號","121.46215","25.1267516666667","6501000","淡水區"
"251013","KEA-2871","2018/05/10 17:49:16","新北市淡水區泉洲厝31號","121.479601666667","25.191055","6501000","淡水區"
"251014","180-VK","2018/05/10 17:49:12","新北市淡水區公埔子16-6號","121.481025","25.224545","6501000","淡水區"
"251008","181-VK","2018/05/10 17:49:11","新北市淡水區八勢路一段125號","121.467195","25.1569816666667","6501000","淡水區"
"251015","182-VK","2018/05/10 17:49:17","新北市淡水區興福寮25號","121.493355","25.164115","6501000","淡水區"
"251010","413-VK","2018/05/10 17:49:17","新北市淡水區淡海路280巷33弄34-2號","121.41877","25.1886383333333","6501000","淡水區"
"251012","441-VK","2018/05/10 17:49:04","新北市淡水區水頭43-1號","121.476835","25.1857033333333","6501000","淡水區"
"251007","442-VK","2018/05/10 17:49:04","新北市淡水區民生路16巷22號","121.461533333333","25.13744","6501000","淡水區"
"251006","561-UM","2018/05/10 17:49:06","新北市淡水區大信街1巷16號","121.440275","25.1767733333333","6501000","淡水區"
"251016","575-R6","2018/05/10 17:49:04","新北市淡水區埤島39-15號","121.452748333333","25.1959316666667","6501000","淡水區"
"251011","650-BX","2018/05/10 17:48:06","新北市淡水區吳(仔)厝25號","121.47946","25.1489383333333","6501000","淡水區"
"251002","672-BX","2018/05/10 17:49:03","新北市淡水區中山路68號","121.443445","25.170605","6501000","淡水區"
"251003","766-UM","2018/05/10 17:49:04","新北市淡水區大忠街5巷1號","121.443108333333","25.1764283333333","6501000","淡水區"
"207003","550-UM","2018/05/10 17:49:03","新北市萬里區野柳里東澳路66號","121.692765","25.200945","6502800","萬里區"
"207004","225-TW","2018/05/10 17:49:15","新北市萬里區萬里里瑪鋉頂街61號","121.688251666667","25.1805633333333","6502800","萬里區"
"252002","178-VK","2018/05/10 17:49:01","新北市三芝區智成街30號","121.50399","25.2565666666667","6502100","三芝區"
"252001","292-VK","2018/05/10 17:49:00","新北市三芝區淡金路一段14號","121.499343333333","25.259505","6502100","三芝區"
"208001","170-UY","2018/05/10 17:49:04","新北市金山區磺清路108巷2號","121.639958333333","25.2282116666667","6502700","金山區"
"237004","KEA-2597","2018/05/10 17:49:16","新北市三峽區中山路146號","121.365","24.9362883333333","6500900","三峽區"
"237011","572-TV","2018/05/10 17:49:05","新北市三峽區光明路69巷7號","121.376046666667","24.9288683333333","6500900","三峽區"
"237009","210-TH","2018/05/10 17:48:57","新北市三峽區大勇路17號","121.367161666667","24.9366966666667","6500900","三峽區"
"237013","252-BX","2018/05/10 17:49:09","新北市三峽區愛國路16巷5號","121.373926666667","24.9333966666667","6500900","三峽區"
"237012","275-BY","2018/05/10 17:49:18","新北市三峽區文化路61號","121.37217","24.9361366666667","6500900","三峽區"
"237008","302-VK","2018/05/10 17:49:04","新北市三峽區中園街237-1號","121.36686","24.9195316666667","6500900","三峽區"
"237014","433-BY","2018/05/10 17:49:07","新北市三峽區文化路120巷3號","121.371006666667","24.93645","6500900","三峽區"
"237006","5529-G3","2018/05/10 17:49:01","新北市三峽區介壽路二段136巷106弄16號","121.39179","24.93331","6500900","三峽區"
"237010","706-TV","2018/05/10 17:49:04","新北市三峽區和平街26號","121.370188333333","24.9367533333333","6500900","三峽區"
"237005","AKY-6261","2018/05/10 17:48:44","新北市三峽區中山路459巷90-1號","121.354973333333","24.9361716666667","6500900","三峽區"
"236070","105-UM","2018/05/10 17:49:03","新北市土城區明德路一段280號","121.45767","24.9773433333333","6501300","土城區"
"236042","107-UM","2018/05/10 17:49:06","新北市土城區城林路6巷80號","121.438495","24.979625","6501300","土城區"
"236078","166-UM","2018/05/10 17:49:11","新北市土城區中華路二段201號","121.437923333333","24.97391","6501300","土城區"
"236030","253-BX","2018/05/10 17:49:03","新北市土城區城林路6巷80號","121.438633333333","24.9796883333333","6501300","土城區"
"236026","269-VK","2018/05/10 17:49:00","新北市土城區城林路6巷80號","121.438523333333","24.979575","6501300","土城區"
"236014","270-VK","2018/05/10 17:49:16","新北市土城區城林路6巷80號","121.438488333333","24.979625","6501300","土城區"
"236038","271-VK","2018/05/10 17:49:03","新北市土城區城林路6巷80號","121.438516666667","24.9797666666667","6501300","土城區"
"236059","912-UM","2018/05/10 17:49:10","新北市土城區中華路二段90號","121.438368333333","24.9747966666667","6501300","土城區"
"236049","913-UM","2018/05/10 17:49:13","新北市土城區城林路6巷80號","121.438585","24.9797083333333","6501300","土城區"
"236063","915-UM","2018/05/10 17:49:07","新北市土城區城林路6巷80號","121.438421666667","24.9796566666667","6501300","土城區"
"236055","AAC-216","2018/05/10 17:48:57","新北市土城區城林路6巷80號","121.438485","24.9797483333333","6501300","土城區"
"242034","AAC-296","2018/05/10 17:49:10","新北市新莊區新莊路666號","121.441595","25.03271","6500500","新莊區"
"242058","986-R7","2018/05/10 17:49:15","新北市新莊區中正路726-5號","121.41578","25.0241916666667","6500500","新莊區"
"242027","615-BX","2018/05/10 17:48:56","新北市新莊區福壽街206號","121.458106666667","25.053845","6500500","新莊區"
"242025","613-BX","2018/05/10 17:49:11","新北市三重區新北大道二段166號","121.468956666667","25.0615383333333","6500500","新莊區"
"242029","612-BX","2018/05/10 17:49:10","新北市新莊區復興路一段37號","121.446668333333","25.0419666666667","6500500","新莊區"
"242046","497-BY","2018/05/10 17:49:19","新北市新莊區福營路125巷17號","121.433485","25.031015","6500500","新莊區"
"242042","442-UM","2018/05/10 17:49:08","新北市泰山區新北大道六段462號","121.422135","25.0328883333333","6500500","新莊區"
"242051","441-UM","2018/05/10 17:48:58","新北市新莊區西盛街244號","121.428041666667","25.0162133333333","6500500","新莊區"
"242056","440-UM","2018/05/10 17:49:17","新北市新莊區瓊林路40巷34號","121.446625","25.0302683333333","6500500","新莊區"
"242007","413-TV","2018/05/10 17:49:03","新北市新莊區福樂街132巷18號","121.456886666667","25.04855","6500500","新莊區"
"242023","362-BY","2018/05/10 17:49:13","新北市新莊區福壽街9號","121.45773","25.0478433333333","6500500","新莊區"
"242061","353-BY","2018/05/10 17:49:13","新北市新莊區瓊林南路204號","121.434093333333","25.0065983333333","6500500","新莊區"
"242039","133-UY","2018/05/10 17:49:10","新北市新莊區民安路179號","121.425943333333","25.0231216666667","6500500","新莊區"
"242031","135-UY","2018/05/10 17:49:07","新北市新莊區新泰路321巷35號","121.443176666667","25.0410316666667","6500500","新莊區"
"242048","172-VK","2018/05/10 17:49:13","新北市新莊區萬安街102巷16號","121.420425","25.0228916666667","6500500","新莊區"
"242017","175-VK","2018/05/10 17:48:57","新北市新莊區永安街93號","121.450561666667","25.0445766666667","6500500","新莊區"
"242004","176-VK","2018/05/10 17:49:11","新北市新莊區福樂街58號","121.457888333333","25.0460766666667","6500500","新莊區"
"242015","346-TH","2018/05/10 17:49:18","新北市新莊區新泰路417-2號","121.4431","25.0446166666667","6500500","新莊區"
"242021","347-TH","2018/05/10 17:49:13","新北市新莊區復興路一段220號","121.453003333333","25.0437983333333","6500500","新莊區"
"242036","349-TH","2018/05/10 17:49:16","新北市新莊區建福路76號","121.426893333333","25.0266716666667","6500500","新莊區"
"242019","350-TH","2018/05/10 17:49:20","新北市新莊區民樂街72號","121.457968333333","25.0433916666667","6500500","新莊區"
"242013","351-TH","2018/05/10 17:49:04","新北市新莊區中誠街167號","121.448185","25.04724","6500500","新莊區"
"238015","755-BX","2018/05/10 17:49:03","新北市樹林區長壽街70巷1弄15號","121.421203333333","24.9944566666667","6500700","樹林區"
"238023","601-UM","2018/05/10 17:49:02","新北市樹林區龍興街14巷9號","121.402393333333","25.016075","6500700","樹林區"
"238019","599-UM","2018/05/10 17:49:16","新北市樹林區太平路176號","121.418431666667","24.9768066666667","6500700","樹林區"
"238018","571-TV","2018/05/10 17:49:14","新北市樹林區博愛街92號","121.42698","24.9917733333333","6500700","樹林區"
"238024","5061-A6","2018/05/10 17:49:18","新北市樹林區中山路三段210-2號","121.380726666667","24.9667416666667","6500700","樹林區"
"238021","KEA-2217","2018/05/10 17:49:07","新北市樹林區柑園街一段127號","121.401123333333","24.9594733333333","6500700","樹林區"
"238022","KEA-2213","2018/05/10 17:49:06","新北市樹林區福順街59號","121.416191666667","24.9784083333333","6500700","樹林區"
"238025","303-VK","2018/05/10 17:49:17","新北市樹林區俊興街209-3號","121.417423333333","25.0141233333333","6500700","樹林區"
"238017","283-BY","2018/05/10 17:49:03","新北市樹林區俊德街5號","121.414913333333","25.0148483333333","6500700","樹林區"
"238014","282-BY","2018/05/10 17:48:58","新北市樹林區保安街一段289巷56號","121.417255","24.9961916666667","6500700","樹林區"
"238020","268-VK","2018/05/10 17:49:19","新北市樹林區三俊街215號","121.421183333333","25.0150966666667","6500700","樹林區"
"238026","172-UY","2018/05/10 17:49:18","新北市樹林區新興街23號","121.400405","24.9725916666667","6500700","樹林區"
"238016","169-UY","2018/05/10 17:49:11","新北市樹林區復興路306號","121.416893333333","24.9870966666667","6500700","樹林區"
"239006","891-R6","2018/05/10 17:49:08","新北市鶯歌區永和街115巷66-1號","121.333406666667","24.9698266666667","6500800","鶯歌區"
"239008","527-UM","2018/05/10 17:49:19","新北市鶯歌區香賓街9巷2號","121.33668","24.9792283333333","6500800","鶯歌區"
"239005","526-UM","2018/05/10 17:49:17","新北市鶯歌區鳳吉五街29號","121.327303333333","24.97274","6500800","鶯歌區"
"239001","417-VK","2018/05/10 17:49:14","新北市鶯歌區中正三路387號","121.326508333333","24.9345216666667","6500800","鶯歌區"
"239003","360-BY","2018/05/10 17:49:04","新北市鶯歌區鶯桃路285巷8號","121.334256666667","24.9590433333333","6500800","鶯歌區"
"239002","359-BY","2018/05/10 17:48:59","新北市鶯歌區光明街107號","121.344448333333","24.9557083333333","6500800","鶯歌區"
"239004","193-VK","2018/05/10 17:49:01","新北市鶯歌區文化路136巷6號","121.351751666667","24.9512866666667","6500800","鶯歌區"
"221008","489-VK","2018/05/10 17:49:09","新北市汐止區康寧街901號","121.651306666667","25.0749666666667","6501100","汐止區"
"221036","130-UY","2018/05/10 17:49:15","新北市汐止區汐萬路一段191號","121.652465","25.0716983333333","6501100","汐止區"
"221015","131-UY","2018/05/10 17:49:12","新北市汐止區長江街249-1號","121.662833333333","25.079375","6501100","汐止區"
"221010","269-BY","2018/05/10 17:49:02","新北市汐止區汐萬路二段216巷7號","121.647475","25.0873966666667","6501100","汐止區"
"221012","278-VK","2018/05/10 17:49:01","新北市汐止區長江街244號","121.663136666667","25.0790233333333","6501100","汐止區"
"221023","279-VK","2018/05/10 17:49:11","新北市汐止區康寧街591巷4號","121.634891666667","25.0704916666667","6501100","汐止區"
"221032","280-BY","2018/05/10 17:49:17","新北市汐止區工建路332號","121.63347","25.0596733333333","6501100","汐止區"
"221027","281-BY","2018/05/10 17:49:13","新北市汐止區康寧街901號","121.651485","25.075075","6501100","汐止區"
"221029","298-VK","2018/05/10 17:49:13","新北市汐止區康寧街901號","121.651691666667","25.074985","6501100","汐止區"
"221021","299-VK","2018/05/10 17:49:11","新北市汐止區水源路一段5號","121.657215","25.0670116666667","6501100","汐止區"
"221031","353-TW","2018/05/10 17:49:05","新北市汐止區中興路98號","121.634598333333","25.0623116666667","6501100","汐止區"
"221035","622-UM","2018/05/10 17:49:02","新北市汐止區汐萬路一段140號","121.653286666667","25.07113","6501100","汐止區"
"221025","623-UM","2018/05/10 17:49:12","新北市汐止區大同路二段169巷22弄32號","121.65174","25.06533","6501100","汐止區"
"221038","646-BX","2018/05/10 17:49:04","新北市汐止區汐萬路一段312號","121.650376666667","25.0750433333333","6501100","汐止區"
"221033","647-BX","2018/05/10 17:39:09","新北市汐止區林森街132巷6弄6號","121.624526666667","25.0405366666667","6501100","汐止區"
"221002","707-TV","2018/05/10 17:49:14","新北市汐止區康寧街901號","121.651468333333","25.07497","6501100","汐止區"
"221018","753-BX","2018/05/10 17:49:09","新北市汐止區忠孝東路363號","121.665641666667","25.0708183333333","6501100","汐止區"
"242002","KEA-2550","2018/05/10 17:49:15","新北市新莊區新泰路49號","121.449458333333","25.0336983333333","6500500","新莊區"
"242009","281-VK","2018/05/10 17:49:05","新北市新莊區昌明街42號","121.4563","25.052295","6500500","新莊區"
"242053","280-VK","2018/05/10 17:49:17","新北市新莊區新樹路653號","121.432705","25.00319","6500500","新莊區"
