"lineid","car","time","location","longitude","latitude","cityid","cityname"
"234026","9371-KE","2018/05/10 17:59:12","新北市永和區永和路一段41號","121.512781666667","25.0062183333333","6500400","永和區"
"249005","172-UM","2018/05/10 17:59:21","新北市八里區荖阡坑路16-8號","121.398688333333","25.1386383333333","6502300","八里區"
"249001","173-UM","2018/05/10 17:59:18","新北市八里區龍米路二段30號","121.448556666667","25.14001","6502300","八里區"
"249004","303-UY","2018/05/10 17:59:30","新北市八里區龍米路三段46號","121.427863333333","25.159215","6502300","八里區"
"249002","305-UY","2018/05/10 17:59:22","新北市八里區龍米路一段259號","121.450811666667","25.13368","6502300","八里區"
"249003","759-BX","2018/05/10 17:59:16","新北市八里區中山路二段306號","121.40469","25.150145","6502300","八里區"
"248014","025-BX","2018/05/10 17:59:27","新北市五股區中興路二段180-1號","121.45756","25.07785","6501500","五股區"
"248016","026-BX","2018/05/10 17:59:10","新北市五股區中興路二段103巷14號","121.458288333333","25.0765166666667","6501500","五股區"
"248006","077-UY","2018/05/10 17:59:26","新北市五股區中興路二段83巷26-6號","121.459988333333","25.0750166666667","6501500","五股區"
"248008","095-VK","2018/05/10 17:59:13","新北市五股區中興路二段150號","121.458598333333","25.0785766666667","6501500","五股區"
"248020","225-UY","2018/05/10 17:59:13","新北市五股區中興路二段83巷26-6號","121.46003","25.0751433333333","6501500","五股區"
"248012","247-BX","2018/05/10 17:59:17","新北市五股區中興路二段37巷28號","121.460176666667","25.07498","6501500","五股區"
"248010","272-BY","2018/05/10 17:59:21","新北市五股區中興路二段163號","121.457666666667","25.0775166666667","6501500","五股區"
"248002","678-BX","2018/05/10 17:59:15","新北市五股區中興路二段37巷28號","121.460096666667","25.0749566666667","6501500","五股區"
"232011","375-UM","2018/05/10 17:59:28","新北市坪林區北宜路八段349號","121.710338333333","24.9335","6502000","坪林區"
"244013","069-UM","2018/05/10 17:59:19","新北市林口區林口路39號","121.390251666667","25.0788033333333","6501700","林口區"
"244007","080-UY","2018/05/10 17:59:19","新北市林口區竹林路155號","121.388701666667","25.0798833333333","6501700","林口區"
"244019","403-UM","2018/05/10 17:59:29","新北市林口區忠孝路512-1號","121.371711666667","25.0691633333333","6501700","林口區"
"244009","410-SL","2018/05/10 17:59:11","新北市林口區佳林路56巷43號","121.385158333333","25.0807683333333","6501700","林口區"
"244023","483-VK","2018/05/10 17:59:18","新北市林口區東湖路105巷27號","121.384401666667","25.072195","6501700","林口區"
"244017","485-VK","2018/05/10 17:59:28","新北市林口區文化二路一段341號","121.370406666667","25.0733416666667","6501700","林口區"
"244011","657-BX","2018/05/10 17:59:23","新北市林口區中正路224號","121.390406666667","25.0776866666667","6501700","林口區"
"244025","837-TS","2018/05/10 17:59:21","新北市林口區惠民街47號","121.356828333333","25.066915","6501700","林口區"
"244021","838-TS","2018/05/10 17:58:42","新北市林口區新寮43-2號","121.402706666667","25.0656633333333","6501700","林口區"
"243009","297-R6","2018/05/10 17:35:31","新北市泰山區黎明路25號","121.421866666667","25.0610016666667","6501600","泰山區"
"243011","KEA-2215","2018/05/10 17:58:46","新北市泰山區犁頭窠16-1號","121.420805","25.0535683333333","6501600","泰山區"
"222003","436-BY","2018/05/10 17:59:26","新北市深坑區炮子崙24號","121.604456666667","24.9871266666667","6501800","深坑區"
"222002","659-BX","2018/05/10 17:59:28","新北市深坑區深坑街35號","121.615943333333","25.00185","6501800","深坑區"
"231046","107-UY","2018/05/10 17:58:59","新北市新店區康雅崙路50-1號","121.534281666667","24.926805","6500600","新店區"
"231054","KEA-2219","2018/05/10 17:59:22","新北市新店區安一路一段1-1號","121.519848333333","24.9611983333333","6500600","新店區"
"231055","AKT-0513","2018/05/10 17:59:20","新北市新店區安華路1-1號","121.5195","24.9605133333333","6500600","新店區"
"241016","266-UM","2018/05/10 17:59:15","新北市五股區中興路三段1-7號","121.452293333333","25.07533","6500200","三重區"
"241024","KEA-2210","2018/05/10 17:59:14","新北市三重區大勇街82巷4號","121.479343333333","25.071465","6500200","三重區"
"241033","AAC-255","2018/05/10 17:59:32","新北市三重區重新路五段594號","121.469323333333","25.045345","6500200","三重區"
"235064","005-UY","2018/05/10 17:59:27","新北市中和區員山路36巷16-3號","121.484996666667","24.9912716666667","6500300","中和區"
"235063","006-UY","2018/05/10 17:59:17","新北市中和區員山路36巷16-3號","121.48493","24.9913333333333","6500300","中和區"
"235058","151-BY","2018/05/10 17:59:23","新北市中和區錦和路350-1號","121.490443333333","24.9935433333333","6500300","中和區"
"235038","185-VK","2018/05/10 17:59:25","新北市中和區中正路169號","121.498053333333","24.993635","6500300","中和區"
"235061","378-QA","2018/05/10 17:59:14","新北市中和區員山路36巷8-1號","121.483488333333","24.99095","6500300","中和區"
"235042","551-UM","2018/05/10 17:59:31","新北市中和區中正路637巷60弄61號","121.485411666667","24.9932366666667","6500300","中和區"
"235054","640-BX","2018/05/10 17:59:19","新北市中和區中正路637巷52弄1號","121.485421666667","24.9934366666667","6500300","中和區"
"235046","733-UM","2018/05/10 17:59:22","新北市中和區員山路36巷13號","121.484108333333","24.9908633333333","6500300","中和區"
"235051","157-BY","2018/05/10 17:59:15","新北市中和區中正路637巷60弄61號","121.485385","24.9932433333333","6500300","中和區"
"235037","AAC-213","2018/05/10 17:59:31","新北市中和區錦和路350-1號","121.490225","24.9936216666667","6500300","中和區"
"247024","893-R6","2018/05/10 17:59:21","新北市蘆洲區光復路39號","121.46313","25.0848833333333","6501400","蘆洲區"
"247014","546-UM","2018/05/10 17:59:26","新北市蘆洲區忠孝路78號","121.471503333333","25.08563","6501400","蘆洲區"
"247022","500-BY","2018/05/10 17:59:10","新北市蘆洲區中正路516巷18-1號","121.462756666667","25.098155","6501400","蘆洲區"
"247010","341-TH","2018/05/10 17:59:09","新北市蘆洲區信義路192號","121.479143333333","25.0844816666667","6501400","蘆洲區"
"247012","339-TH","2018/05/10 17:59:20","新北市蘆洲區民族路184號","121.479913333333","25.0869883333333","6501400","蘆洲區"
"247006","336-TH","2018/05/10 17:59:25","新北市蘆洲區中華街37號","121.46304","25.0812616666667","6501400","蘆洲區"
"247018","057-VK","2018/05/10 17:59:26","新北市蘆洲區復興路201號","121.479591666667","25.0897966666667","6501400","蘆洲區"
"247016","007-UY","2018/05/10 17:59:11","新北市蘆洲區光華路132巷41號","121.46579","25.0839833333333","6501400","蘆洲區"
"247002","002-UY","2018/05/10 17:59:20","新北市蘆洲區永平街32巷45弄32號","121.458438333333","25.0930633333333","6501400","蘆洲區"
"247020","001-UY","2018/05/10 17:59:18","新北市蘆洲區民義街35巷5號","121.471696666667","25.0894433333333","6501400","蘆洲區"
"235065","251-BX","2018/05/10 17:59:19","新北市中和區民樂路81號","121.484706666667","25.0013566666667","6500300","中和區"
"228003","097-TW","2018/05/10 17:59:21","新北市貢寮區真理里美艷山街6-2號","121.92886","25.0607216666667","6502600","貢寮區"
"228001","212-TW","2018/05/10 17:59:20","新北市貢寮區真理里新港街26巷53號","121.927911666667","25.0534016666667","6502600","貢寮區"
"228002","585-TW","2018/05/10 17:59:17","新北市貢寮區福隆里桂安街17號","121.96658","25.0227733333333","6502600","貢寮區"
"224010","AGQ-8101","2018/05/10 17:56:31","新北市瑞芳區金光路372號","121.848728333333","25.1106183333333","6501200","瑞芳區"
"224006","676-BX","2018/05/10 17:59:23","新北市瑞芳區大寮路356-1號","121.784861666667","25.10319","6501200","瑞芳區"
"224002","639-TC","2018/05/10 17:59:23","新北市瑞芳區三爪子坑路149號","121.81056","25.1063016666667","6501200","瑞芳區"
"224008","285-BY","2018/05/10 17:59:15","新北市瑞芳區明燈路一段45巷95號","121.822066666667","25.1042816666667","6501200","瑞芳區"
"224009","273-VK","2018/05/10 17:59:28","新北市瑞芳區金光路255號","121.849926666667","25.1077466666667","6501200","瑞芳區"
"224005","271-BY","2018/05/10 17:59:29","新北市瑞芳區深澳路18號","121.820503333333","25.1328466666667","6501200","瑞芳區"
"227010","642-TC","2018/05/10 17:59:20","新北市雙溪區三貂里定福路1-2號","121.850798333333","25.0634583333333","6502500","雙溪區"
"253005","032-BX","2018/05/10 17:59:14","新北市石門區中山路62-11號","121.567531666667","25.2896916666667","6502200","石門區"
"253006","295-VK","2018/05/10 17:59:18","新北市石門區大丘田45-2號","121.549813333333","25.2748816666667","6502200","石門區"
"222001","KEA-2212","2018/05/10 17:59:16","新北市深坑區北深路三段34號","121.609071666667","25.0010083333333","6501800","深坑區"
"208002","KEA-2872","2018/05/10 17:59:10","新北市金山區三界壇路87號","121.625055","25.228575","6502700","金山區"
"208003","665-BX","2018/05/10 17:59:22","新北市金山區磺港里磺港路306號","121.643895","25.22721","6502700","金山區"
"251009","008-UM","2018/05/10 17:59:19","新北市淡水區大仁街6巷1號","121.442418333333","25.1746266666667","6501000","淡水區"
"251004","009-UM","2018/05/10 17:59:10","新北市淡水區民權路84號","121.459168333333","25.1334983333333","6501000","淡水區"
"251005","010-UM","2018/05/10 17:59:25","新北市淡水區英專路120號","121.44589","25.1724166666667","6501000","淡水區"
"251001","011-UM","2018/05/10 17:59:19","新北市淡水區民權路94巷1號","121.463081666667","25.1248316666667","6501000","淡水區"
"251013","KEA-2871","2018/05/10 17:59:16","新北市淡水區泉洲厝31號","121.479561666667","25.191055","6501000","淡水區"
"251014","180-VK","2018/05/10 17:59:12","新北市淡水區公埔子16-6號","121.481016666667","25.2245266666667","6501000","淡水區"
"251008","181-VK","2018/05/10 17:59:31","新北市淡水區八勢一街32巷2號","121.461923333333","25.1561316666667","6501000","淡水區"
"251015","182-VK","2018/05/10 17:59:13","新北市淡水區興福寮66巷541號","121.484613333333","25.1651533333333","6501000","淡水區"
"251010","413-VK","2018/05/10 17:59:17","新北市淡水區中正路一段87巷1號","121.421783333333","25.17915","6501000","淡水區"
"251012","441-VK","2018/05/10 17:59:24","新北市淡水區北新路三段38巷7號","121.484525","25.18702","6501000","淡水區"
"251006","561-UM","2018/05/10 17:59:26","新北市淡水區真理街2號","121.438873333333","25.1730766666667","6501000","淡水區"
"251016","575-R6","2018/05/10 17:59:24","新北市淡水區埤島30-14號","121.448236666667","25.1980333333333","6501000","淡水區"
"251011","650-BX","2018/05/10 17:59:25","新北市淡水區三空泉9-2號","121.474083333333","25.163705","6501000","淡水區"
"251002","672-BX","2018/05/10 17:59:23","新北市淡水區中正東路34-2號","121.448491666667","25.1660283333333","6501000","淡水區"
"251003","766-UM","2018/05/10 17:59:24","新北市淡水區大忠街51號","121.444886666667","25.176485","6501000","淡水區"
"207003","550-UM","2018/05/10 17:59:23","新北市萬里區港東路野柳風景區攤販66號","121.691316666667","25.2058666666667","6502800","萬里區"
"207004","225-TW","2018/05/10 17:59:15","新北市萬里區中幅里中福路48號","121.68327","25.174005","6502800","萬里區"
"252002","178-VK","2018/05/10 17:59:21","新北市三芝區中山路二段43號","121.502998333333","25.2550683333333","6502100","三芝區"
"252001","292-VK","2018/05/10 17:59:20","新北市三芝區中興街一段43號","121.497753333333","25.2575583333333","6502100","三芝區"
"208001","170-UY","2018/05/10 17:59:24","新北市金山區磺港里青年路1號","121.640123333333","25.2253233333333","6502700","金山區"
"237004","KEA-2597","2018/05/10 17:59:16","新北市三峽區中園街175號","121.367098333333","24.9217716666667","6500900","三峽區"
"237007","153-BY","2018/05/10 17:59:16","新北市三峽區中園街221號","121.367023333333","24.920175","6500900","三峽區"
"237011","572-TV","2018/05/10 17:59:25","新北市三峽區大同路34號","121.377526666667","24.9290416666667","6500900","三峽區"
"237009","210-TH","2018/05/10 17:59:18","新北市三峽區中山路106巷16號","121.36612","24.9363033333333","6500900","三峽區"
"237013","252-BX","2018/05/10 17:59:29","新北市三峽區介壽路一段135號","121.376255","24.9317366666667","6500900","三峽區"
"237012","275-BY","2018/05/10 17:59:18","新北市三峽區民生街27巷2號","121.37602","24.9361616666667","6500900","三峽區"
"237008","302-VK","2018/05/10 17:59:24","新北市三峽區白雞22-1號","121.36826","24.9127033333333","6500900","三峽區"
"237014","433-BY","2018/05/10 17:59:27","新北市三峽區復興路101巷1弄79號","121.370981666667","24.937695","6500900","三峽區"
"237006","5529-G3","2018/05/10 17:59:21","新北市三峽區介壽路二段138巷1弄98號","121.397565","24.931565","6500900","三峽區"
"237010","706-TV","2018/05/10 17:59:24","新北市三峽區中山路47號","121.368041666667","24.9345433333333","6500900","三峽區"
"237005","AKY-6261","2018/05/10 17:59:24","新北市三峽區復興路235號","121.368175","24.9387866666667","6500900","三峽區"
"236070","105-UM","2018/05/10 17:59:23","新北市土城區青雲路665-1號","121.466113333333","24.9649483333333","6501300","土城區"
"236042","107-UM","2018/05/10 17:59:26","新北市土城區城林路6巷80號","121.43852","24.9796216666667","6501300","土城區"
"236078","166-UM","2018/05/10 17:59:11","新北市土城區永寧路32巷1號","121.429258333333","24.96047","6501300","土城區"
"236030","253-BX","2018/05/10 17:59:23","新北市土城區城林路6巷80號","121.438633333333","24.9796883333333","6501300","土城區"
"236026","269-VK","2018/05/10 17:59:20","新北市土城區承天路1號","121.435896666667","24.9666016666667","6501300","土城區"
"236014","270-VK","2018/05/10 17:59:16","新北市土城區城林路6巷80號","121.438485","24.9796333333333","6501300","土城區"
"236038","271-VK","2018/05/10 17:59:23","新北市土城區中央路二段280號","121.440678333333","24.9740616666667","6501300","土城區"
"236021","752-BX","2018/05/10 17:59:20","新北市土城區城林路6巷80號","121.4385","24.9797933333333","6501300","土城區"
"236059","912-UM","2018/05/10 17:59:30","新北市土城區中央路三段244巷5號","121.427775","24.9642533333333","6501300","土城區"
"236049","913-UM","2018/05/10 17:59:13","新北市土城區城林路6巷80號","121.438586666667","24.9796966666667","6501300","土城區"
"236063","915-UM","2018/05/10 17:59:27","新北市土城區城林路6巷80號","121.438435","24.9796616666667","6501300","土城區"
"236055","AAC-216","2018/05/10 17:59:17","新北市土城區城林路6巷80號","121.43848","24.9797466666667","6501300","土城區"
"242034","AAC-296","2018/05/10 17:58:54","新北市新莊區福海街31巷1號","121.445021666667","25.0337566666667","6500500","新莊區"
"242058","986-R7","2018/05/10 17:59:15","新北市新莊區雙鳳路134巷5號","121.412725","25.0280833333333","6500500","新莊區"
"242027","615-BX","2018/05/10 17:59:16","新北市新莊區思源路338號","121.46025","25.051265","6500500","新莊區"
"242025","613-BX","2018/05/10 17:59:31","新北市新莊區五工路58號","121.458758333333","25.0629016666667","6500500","新莊區"
"242029","612-BX","2018/05/10 17:59:30","新北市新莊區中平路49號","121.444636666667","25.044265","6500500","新莊區"
"242046","497-BY","2018/05/10 17:59:19","新北市新莊區福營路183號","121.43145","25.03077","6500500","新莊區"
"242042","442-UM","2018/05/10 17:59:28","新北市新莊區丹鳳街34號","121.421613333333","25.0295033333333","6500500","新莊區"
"242051","441-UM","2018/05/10 17:59:19","新北市新莊區西盛街204巷1號","121.427955","25.0180016666667","6500500","新莊區"
"242056","440-UM","2018/05/10 17:59:17","新北市新莊區豐年街122-3號","121.446496666667","25.0298316666667","6500500","新莊區"
"242007","413-TV","2018/05/10 17:59:23","新北市新莊區自信街24號","121.454031666667","25.0482533333333","6500500","新莊區"
"242023","362-BY","2018/05/10 17:59:13","新北市新莊區幸福路577號","121.453931666667","25.0491216666667","6500500","新莊區"
"242061","353-BY","2018/05/10 17:59:13","新北市新莊區新樹路541號","121.432846666667","25.0082966666667","6500500","新莊區"
"242039","133-UY","2018/05/10 17:59:30","新北市新莊區民安路106號","121.424256666667","25.0256466666667","6500500","新莊區"
"242031","135-UY","2018/05/10 17:59:27","新北市新莊區新泰路305巷15號","121.444716666667","25.040755","6500500","新莊區"
"242048","172-VK","2018/05/10 17:59:13","新北市新莊區萬安街57巷25號","121.422635","25.0240166666667","6500500","新莊區"
"242011","173-VK","2018/05/10 17:59:29","新北市新莊區中港路中慶巷27弄4號","121.449991666667","25.0535733333333","6500500","新莊區"
"242017","175-VK","2018/05/10 17:59:17","新北市新莊區永樂街166號","121.448728333333","25.0448183333333","6500500","新莊區"
"242004","176-VK","2018/05/10 17:59:11","新北市新莊區自由街8號","121.455808333333","25.0476733333333","6500500","新莊區"
"242015","346-TH","2018/05/10 17:59:27","新北市新莊區中平路119巷20號","121.443938333333","25.046705","6500500","新莊區"
"242021","347-TH","2018/05/10 17:59:13","新北市新莊區中華路一段6號","121.451875","25.03661","6500500","新莊區"
"242036","349-TH","2018/05/10 17:59:24","新北市新莊區建福路22號","121.426293333333","25.028885","6500500","新莊區"
"242019","350-TH","2018/05/10 17:59:27","新北市新莊區明中街49巷15號","121.45674","25.039025","6500500","新莊區"
"242013","351-TH","2018/05/10 17:59:24","新北市新莊區中和街125巷5號","121.447013333333","25.0484533333333","6500500","新莊區"
"238015","755-BX","2018/05/10 17:59:03","新北市樹林區啟智街80巷6號","121.419181666667","24.9922883333333","6500700","樹林區"
"238023","601-UM","2018/05/10 17:59:22","新北市樹林區龍興街55號","121.40322","25.0153133333333","6500700","樹林區"
"238019","599-UM","2018/05/10 17:59:16","新北市樹林區水源街15號","121.425051666667","24.9831166666667","6500700","樹林區"
"238018","571-TV","2018/05/10 17:59:13","新北市樹林區樹新路108號","121.42984","24.9978933333333","6500700","樹林區"
"238021","KEA-2217","2018/05/10 17:59:27","新北市樹林區柑園街一段33巷33-8號","121.405535","24.9566016666667","6500700","樹林區"
"238022","KEA-2213","2018/05/10 17:59:24","新北市樹林區太平路150巷25號","121.417518333333","24.9774966666667","6500700","樹林區"
"238025","303-VK","2018/05/10 17:59:17","新北市樹林區三俊街14號","121.411121666667","25.01538","6500700","樹林區"
"238017","283-BY","2018/05/10 17:59:23","新北市樹林區中正路648號","121.409741666667","25.016335","6500700","樹林區"
"238014","282-BY","2018/05/10 17:59:19","新北市樹林區大安路11號","121.42502","25.00045","6500700","樹林區"
"238020","268-VK","2018/05/10 17:59:11","新北市樹林區三俊街141號","121.418465","25.0156233333333","6500700","樹林區"
"238026","172-UY","2018/05/10 17:59:18","新北市樹林區中洲街30巷13弄25號","121.398193333333","24.9721766666667","6500700","樹林區"
"238016","169-UY","2018/05/10 17:59:11","新北市樹林區育英街135巷3號","121.419585","24.9887816666667","6500700","樹林區"
"239006","891-R6","2018/05/10 17:59:28","新北市鶯歌區鶯桃路413巷52號","121.33029","24.9632233333333","6500800","鶯歌區"
"239008","527-UM","2018/05/10 17:59:19","新北市鶯歌區朝陽街4號","121.336235","24.9766433333333","6500800","鶯歌區"
"239005","526-UM","2018/05/10 17:59:17","新北市鶯歌區鶯桃路668巷74-1號","121.330961666667","24.9725116666667","6500800","鶯歌區"
"239001","417-VK","2018/05/10 17:59:14","新北市鶯歌區中正三路273號","121.332523333333","24.9380366666667","6500800","鶯歌區"
"239003","360-BY","2018/05/10 17:59:24","新北市鶯歌區永吉街9巷1號","121.336541666667","24.9583716666667","6500800","鶯歌區"
"239002","359-BY","2018/05/10 17:59:19","新北市鶯歌區育英街17巷1弄3號","121.347733333333","24.95525","6500800","鶯歌區"
"221008","489-VK","2018/05/10 17:59:29","新北市汐止區民族二街32巷6號","121.634641666667","25.071245","6501100","汐止區"
"221036","130-UY","2018/05/10 17:59:15","新北市汐止區大同路三段62巷1號","121.667611666667","25.07711","6501100","汐止區"
"221015","131-UY","2018/05/10 17:59:12","新北市汐止區長江街333號","121.666885","25.0818383333333","6501100","汐止區"
"221010","269-BY","2018/05/10 17:59:22","新北市汐止區汐萬路二段275巷1弄25號","121.646358333333","25.08819","6501100","汐止區"
"221012","278-VK","2018/05/10 17:59:20","新北市汐止區保一街8巷8號","121.67337","25.0813233333333","6501100","汐止區"
"221023","279-VK","2018/05/10 17:59:27","新北市汐止區民族六街1巷1號","121.629105","25.0708483333333","6501100","汐止區"
"221032","280-BY","2018/05/10 17:59:17","新北市汐止區民權街一段16號","121.621326666667","25.0535016666667","6501100","汐止區"
"221027","281-BY","2018/05/10 17:59:13","新北市汐止區大同路二段370號","121.657651666667","25.0671916666667","6501100","汐止區"
"221029","298-VK","2018/05/10 17:59:13","新北市汐止區樟樹二路294-1號","121.641233333333","25.0691216666667","6501100","汐止區"
"221021","299-VK","2018/05/10 17:59:11","新北市汐止區新興路12號","121.656323333333","25.0647816666667","6501100","汐止區"
"221031","353-TW","2018/05/10 17:59:28","新北市汐止區中興路208號","121.631218333333","25.0660683333333","6501100","汐止區"
"221035","622-UM","2018/05/10 17:59:22","新北市汐止區汐萬路一段132號","121.653498333333","25.071215","6501100","汐止區"
"221025","623-UM","2018/05/10 17:59:12","新北市汐止區仁愛路21號","121.659255","25.0638683333333","6501100","汐止區"
"221038","646-BX","2018/05/10 17:59:25","新北市汐止區連興街128巷7弄4號","121.653418333333","25.061525","6501100","汐止區"
"221033","647-BX","2018/05/10 17:59:09","新北市汐止區合順街35號","121.620556666667","25.0432916666667","6501100","汐止區"
"221002","707-TV","2018/05/10 17:59:14","新北市汐止區中興路62號","121.635528333333","25.06148","6501100","汐止區"
"221018","753-BX","2018/05/10 17:59:29","新北市汐止區招商街5號","121.666523333333","25.06904","6501100","汐止區"
"242002","KEA-2550","2018/05/10 17:59:15","新北市新莊區大觀街39巷3號","121.453565","25.035505","6500500","新莊區"
"242009","281-VK","2018/05/10 17:59:25","新北市新莊區中原路191號","121.452361666667","25.053925","6500500","新莊區"
"242053","280-VK","2018/05/10 17:59:17","新北市新莊區民安西路411號","121.430641666667","25.008805","6500500","新莊區"
