"lineid","car","time","location","longitude","latitude","cityid","cityname"
"234046","149-BY","2018/05/10 18:59:20","新北市永和區得和路373巷16弄2號","121.525188333333","25.0000666666667","6500400","永和區"
"234007","207-UY","2018/05/10 18:59:08","新北市永和區永和路二段94號","121.515063333333","25.01158","6500400","永和區"
"234081","298-R6","2018/05/10 18:59:17","新北市永和區永貞路29號","121.520943333333","25.0066866666667","6500400","永和區"
"234038","336-UY","2018/05/10 18:59:08","新北市永和區成功路二段207號","121.526613333333","24.9959566666667","6500400","永和區"
"234064","337-UY","2018/05/10 18:59:20","新北市永和區秀朗路一段199號","121.518085","25.0035433333333","6500400","永和區"
"234086","338-UY","2018/05/10 18:59:13","新北市永和區永寧街66號","121.517983333333","25.005125","6500400","永和區"
"234070","552-UM","2018/05/10 18:59:09","新北市永和區竹林路96巷4號","121.51913","25.0121383333333","6500400","永和區"
"234017","745-BX","2018/05/10 18:59:09","新北市永和區永和路二段299號","121.516113333333","25.0162083333333","6500400","永和區"
"234030","746-BX","2018/05/10 18:59:12","新北市永和區秀朗路二段274號","121.526031666667","24.9980166666667","6500400","永和區"
"234054","KEA-2590","2018/05/10 18:59:14","新北市永和區竹林路64號","121.518318333333","25.0135733333333","6500400","永和區"
"234013","KEA-2591","2018/05/10 18:59:09","新北市永和區中山路一段60巷4號","121.513043333333","25.0109","6500400","永和區"
"234061","AAD-866","2018/05/10 18:59:05","新北市永和區福和路313號","121.516175","25.0071783333333","6500400","永和區"
"234042","862-TW","2018/05/10 18:59:25","新北市永和區永貞路324號","121.511405","25.0051583333333","6500400","永和區"
"234050","863-TW","2018/05/10 18:59:17","新北市永和區文化路143號","121.510843333333","25.0160433333333","6500400","永和區"
"234026","9371-KE","2018/05/10 18:59:25","新北市永和區安樂路467號","121.514336666667","25.0054983333333","6500400","永和區"
"234011","9373-KE","2018/05/10 18:59:12","新北市永和區仁愛路100號","121.512211666667","25.0131266666667","6500400","永和區"
"249005","172-UM","2018/05/10 18:59:01","新北市八里區長道坑2號","121.393786666667","25.1244583333333","6502300","八里區"
"249001","173-UM","2018/05/10 18:59:18","新北市八里區龍米路二段228-1號","121.432761666667","25.1584433333333","6502300","八里區"
"248016","026-BX","2018/05/10 18:59:10","新北市五股區成泰路三段543巷18號","121.450878333333","25.1022466666667","6501500","五股區"
"248006","077-UY","2018/05/10 18:59:20","新北市五股區中興路一段40號","121.468316666667","25.0725183333333","6501500","五股區"
"248008","095-VK","2018/05/10 18:59:13","新北市五股區中興路一段124號","121.465555","25.0735483333333","6501500","五股區"
"248020","225-UY","2018/05/10 18:55:00","新北市五股區凌雲路三段57號","121.425268333333","25.125035","6501500","五股區"
"248012","247-BX","2018/05/10 18:59:21","新北市五股區成泰路二段148號","121.438441666667","25.0839","6501500","五股區"
"248010","272-BY","2018/05/10 18:59:21","新北市五股區水碓一路23號","121.430633333333","25.07133","6501500","五股區"
"248004","677-BX","2018/05/10 18:59:23","新北市五股區民義路二段24-3號","121.4199","25.0970183333333","6501500","五股區"
"248002","678-BX","2018/05/10 18:59:15","新北市五股區凌雲路一段163號","121.448826666667","25.1025733333333","6501500","五股區"
"234023","9380-KE","2018/05/10 18:59:20","新北市永和區環河東路一段158號","121.5211","25.0145533333333","6500400","永和區"
"234077","969-R7","2018/05/10 18:59:18","新北市永和區智光街20號","121.51794","24.99934","6500400","永和區"
"234074","AAC-211","2018/05/10 18:59:24","新北市永和區環河東路二段98號","121.524098333333","25.0103333333333","6500400","永和區"
"234067","AAC-212","2018/05/10 18:59:08","新北市永和區永和路一段22號","121.513018333333","25.0048783333333","6500400","永和區"
"234003","AAC-295","2018/05/10 18:59:08","新北市永和區和平街15號","121.513818333333","25.009855","6500400","永和區"
"232011","375-UM","2018/05/10 18:59:10","新北市坪林區坪林街11號","121.711825","24.9360483333333","6502000","坪林區"
"244013","069-UM","2018/05/10 18:59:19","新北市林口區文化一路一段133號","121.373756666667","25.07177","6501700","林口區"
"244007","080-UY","2018/05/10 18:59:19","新北市林口區太平里5鄰27-2號","121.377173333333","25.11745","6501700","林口區"
"244019","403-UM","2018/05/10 18:59:09","新北市林口區麗園二街47巷11號","121.38141","25.0693916666667","6501700","林口區"
"244009","410-SL","2018/05/10 18:59:11","新北市林口區台電新村86號","121.388423333333","25.0870666666667","6501700","林口區"
"244023","483-VK","2018/05/10 18:59:18","新北市林口區文林六街30號","121.37126","25.0808833333333","6501700","林口區"
"244017","485-VK","2018/05/10 18:59:08","新北市林口區文化二路一段120巷1-1號","121.36809","25.0705883333333","6501700","林口區"
"244011","657-BX","2018/05/10 18:59:23","新北市林口區仁愛路一段266號","121.393858333333","25.0759683333333","6501700","林口區"
"244025","837-TS","2018/05/10 18:59:21","新北市林口區文化北路一段472號","121.365533333333","25.0775166666667","6501700","林口區"
"243013","AAD-798","2018/05/10 18:59:16","新北市泰山區明志路三段257號","121.423341666667","25.0373816666667","6501600","泰山區"
"243009","297-R6","2018/05/10 18:59:21","新北市泰山區泰林路二段365號","121.427975","25.06371","6501600","泰山區"
"243016","380-SR","2018/05/10 18:59:08","新北市泰山區明志路二段152-3號","121.427328333333","25.0505983333333","6501600","泰山區"
"243011","KEA-2215","2018/05/10 18:59:15","新北市泰山區明志路二段246-1號","121.427103333333","25.048195","6501600","泰山區"
"243010","KEA-2216","2018/05/10 18:59:17","新北市泰山區辭修路28號","121.429003333333","25.05822","6501600","泰山區"
"243012","646-TV","2018/05/10 18:59:09","新北市泰山區全興路184號","121.433445","25.0573816666667","6501600","泰山區"
"243014","680-BX","2018/05/10 18:59:22","新北市泰山區泰林路二段595號","121.421655","25.06349","6501600","泰山區"
"222003","436-BY","2018/05/10 18:59:06","新北市深坑區深南路51-1號","121.621341666667","25.010165","6501800","深坑區"
"222002","659-BX","2018/05/10 18:59:20","新北市深坑區文山路一段33號","121.62964","25.0037233333333","6501800","深坑區"
"231041","002-UM","2018/05/10 18:59:07","新北市新店區秀山路20號","121.532545","24.9603616666667","6500600","新店區"
"231059","046-UY","2018/05/10 18:59:14","新北市新店區安華路28-1號","121.519553333333","24.9607816666667","6500600","新店區"
"231040","047-UY","2018/05/10 18:59:22","新北市新店區中正路420號","121.534253333333","24.9778666666667","6500600","新店區"
"231044","106-UY","2018/05/10 18:59:11","新北市新店區寶中路72號","121.54786","24.9806166666667","6500600","新店區"
"231046","107-UY","2018/05/10 18:59:19","新北市新店區直潭六街20號","121.534346666667","24.9407483333333","6500600","新店區"
"231052","108-UY","2018/05/10 18:59:16","新北市新店區屈尺路16號","121.548743333333","24.9226066666667","6500600","新店區"
"231047","187-VK","2018/05/10 18:59:05","新北市新店區德正街23巷12-1號","121.544696666667","24.97214","6500600","新店區"
"231054","KEA-2219","2018/05/10 18:59:03","新北市新店區新店路13號","121.540295","24.9528916666667","6500600","新店區"
"231042","268-BY","2018/05/10 18:59:12","新北市新店區中興路一段289號","121.54563","24.9687","6500600","新店區"
"231051","278-BY","2018/05/10 18:59:19","新北市新店區百忍街25號","121.533876666667","24.97567","6500600","新店區"
"231050","AAD-862","2018/05/10 18:59:14","新北市新店區新烏路一段11巷21號","121.547793333333","24.95082","6500600","新店區"
"231058","3713-VJ","2018/05/10 18:59:07","新北市新店區中興路一段185號","121.5431","24.964885","6500600","新店區"
"231066","4716-K9","2018/05/10 18:59:10","新北市新店區安祥路22號","121.493223333333","24.95572","6500600","新店區"
"231056","4715-K9","2018/05/10 18:59:14","新北市新店區大同街8巷21號","121.539065","24.9808133333333","6500600","新店區"
"231067","4772-VM","2018/05/10 18:59:03","新北市新店區安康路一段247巷31號","121.524813333333","24.9619333333333","6500600","新店區"
"231065","512-UM","2018/05/10 18:59:11","新北市新店區安祥路160號","121.477245","24.9561933333333","6500600","新店區"
"231049","513-UM","2018/05/10 18:59:16","新北市新店區中正路454-5號","121.534561666667","24.978995","6500600","新店區"
"231063","616-UM","2018/05/10 18:59:13","新北市新店區安華路16號","121.516938333333","24.95808","6500600","新店區"
"231061","619-UM","2018/05/10 18:59:12","新北市新店區安華路28-1號","121.519558333333","24.96067","6500600","新店區"
"231064","719-UM","2018/05/10 18:59:07","新北市新店區安一路一段1-1號","121.519506666667","24.9610466666667","6500600","新店區"
"231062","720-UM","2018/05/10 18:59:21","新北市新店區安民街35巷9弄18號","121.514386666667","24.9652216666667","6500600","新店區"
"231060","897-TW","2018/05/10 18:59:04","新北市新店區安華路16號","121.51614","24.9580283333333","6500600","新店區"
"231045","898-TW","2018/05/10 18:59:11","新北市新店區光明街7號","121.538225","24.95925","6500600","新店區"
"231043","899-TW","2018/05/10 18:59:18","新北市新店區北新路二段2號","121.542578333333","24.9706383333333","6500600","新店區"
"231055","AKT-0513","2018/05/10 18:59:20","新北市新店區力行路5號","121.539346666667","24.9646066666667","6500600","新店區"
"241035","462-BY","2018/05/10 18:59:07","新北市三重區重新路四段121號","121.484861666667","25.0519616666667","6500200","三重區"
"241029","942-UM","2018/05/10 18:59:02","新北市三重區重安街14號","121.490265","25.0582083333333","6500200","三重區"
"235064","005-UY","2018/05/10 18:59:07","新北市中和區泰和街44巷24號","121.498471666667","25.000685","6500300","中和區"
"235063","006-UY","2018/05/10 18:59:17","新北市中和區錦和路105號","121.490086666667","24.995305","6500300","中和區"
"235047","031-BX","2018/05/10 18:59:13","新北市中和區興南路二段80號","121.505765","24.9845716666667","6500300","中和區"
"235056","096-UM","2018/05/10 18:59:13","新北市中和區員山路466巷17弄37號","121.480448333333","25.0075116666667","6500300","中和區"
"235039","097-UM","2018/05/10 18:59:12","新北市中和區安樂路217巷47號","121.51319","24.9977433333333","6500300","中和區"
"235058","151-BY","2018/05/10 18:59:23","新北市中和區連城路428巷13號","121.479763333333","24.9955466666667","6500300","中和區"
"235055","183-VK","2018/05/10 18:59:08","新北市中和區民德路10號","121.4687","25.002755","6500300","中和區"
"235038","185-VK","2018/05/10 18:59:05","新北市中和區立人街24-5號","121.518806666667","24.99416","6500300","中和區"
"235049","186-VK","2018/05/10 18:59:21","新北市中和區景新街210巷2弄6號","121.506953333333","24.9942183333333","6500300","中和區"
"235067","255-BX","2018/05/10 18:59:12","新北市中和區民樂路78號","121.484486666667","25.0012566666667","6500300","中和區"
"235044","293-VK","2018/05/10 18:59:11","新北市中和區復興路280巷33弄18號","121.501366666667","24.9912516666667","6500300","中和區"
"235072","301-VK","2018/05/10 18:59:09","新北市中和區永和路24號","121.499343333333","25.0036016666667","6500300","中和區"
"235043","352-BY","2018/05/10 18:59:25","新北市中和區成功路38號","121.525946666667","24.9930733333333","6500300","中和區"
"235068","377-QA","2018/05/10 18:58:26","新北市中和區中正路271-3號","121.495805","24.9934616666667","6500300","中和區"
"235061","378-QA","2018/05/10 18:59:15","新北市中和區民享街34號","121.47389","25.0031733333333","6500300","中和區"
"235050","4979-A6","2018/05/10 18:59:14","新北市中和區忠孝街7號","121.509893333333","24.98278","6500300","中和區"
"235069","4980-A6","2018/05/10 18:59:22","新北市中和區景平路618巷8號","121.500976666667","24.9971166666667","6500300","中和區"
"235042","551-UM","2018/05/10 18:59:10","新北市中和區秀朗路三段70巷14號","121.525883333333","24.9945483333333","6500300","中和區"
"235070","558-UM","2018/05/10 18:59:09","新北市中和區中和路257號","121.505051666667","24.99973","6500300","中和區"
"235045","565-BX","2018/05/10 18:59:14","新北市中和區景新街469號","121.513506666667","24.98813","6500300","中和區"
"235054","640-BX","2018/05/10 18:59:19","新北市中和區民享街1號","121.473848333333","25.005785","6500300","中和區"
"235060","647-TV","2018/05/10 18:59:06","新北市中和區民治街6巷1號","121.47484","25.0053583333333","6500300","中和區"
"235046","733-UM","2018/05/10 18:59:22","新北市中和區興南路一段135巷22弄12號","121.509076666667","24.986795","6500300","中和區"
"235071","783-BX","2018/05/10 18:59:17","新北市中和區員山路36巷16-2號","121.485276666667","24.9911666666667","6500300","中和區"
"235057","801-TS","2018/05/10 18:59:03","新北市中和區民利街40巷3弄11號","121.478828333333","24.99915","6500300","中和區"
"235041","802-TS","2018/05/10 18:59:09","新北市中和區宜安路120號","121.510191666667","24.9979916666667","6500300","中和區"
"235052","805-TS","2018/05/10 18:59:05","新北市中和區興南路二段347號","121.500115","24.9801216666667","6500300","中和區"
"235048","896-TW","2018/05/10 18:59:20","新北市中和區華新街109巷16號","121.508688333333","24.9810016666667","6500300","中和區"
"235053","900-TW","2018/05/10 18:59:02","新北市中和區民德路358號","121.466453333333","24.9939683333333","6500300","中和區"
"235066","911-UM","2018/05/10 18:59:05","新北市中和區中山路二段131巷8號","121.502733333333","25.0023566666667","6500300","中和區"
"235051","157-BY","2018/05/10 18:59:17","新北市中和區忠孝街24號","121.510466666667","24.9829133333333","6500300","中和區"
"235037","AAC-213","2018/05/10 18:59:11","新北市中和區自立路35號","121.522143333333","24.9954216666667","6500300","中和區"
"235059","AAC-215","2018/05/10 18:59:22","新北市中和區圓通路367巷20弄7號","121.491916666667","24.98847","6500300","中和區"
"220068","013-TV","2018/05/10 18:59:12","新北市板橋區三民路一段31巷42號","121.481081666667","25.0229883333333","6500100","板橋區"
"220065","072-UY","2018/05/10 18:59:15","新北市板橋區民族路287巷5號","121.4711","25.007175","6500100","板橋區"
"220086","073-UY","2018/05/10 18:59:17","新北市板橋區中正路166號","121.456475","25.016995","6500100","板橋區"
"220106","075-UY","2018/05/10 18:59:08","新北市板橋區文化路二段124巷16號","121.470921666667","25.025805","6500100","板橋區"
"220069","AAD-861","2018/05/10 18:59:01","新北市板橋區華興街73-1號","121.45705","25.0050216666667","6500100","板橋區"
"226004","312-R5","2018/05/10 18:50:59","新北市平溪區靜安路二段372號","121.738023333333","25.024535","6502400","平溪區"
"235065","251-BX","2018/05/10 18:59:19","新北市中和區勝利路35巷1弄36號","121.50062","25.0079083333333","6500300","中和區"
"228003","097-TW","2018/05/10 18:59:21","新北市貢寮區和美里龍洞街60號","121.913361666667","25.1152633333333","6502600","貢寮區"
"228001","212-TW","2018/05/10 18:59:20","新北市貢寮區仁理村保健街69號","121.923678333333","25.05163","6502600","貢寮區"
"228002","585-TW","2018/05/10 18:59:17","新北市貢寮區福隆里東興街102號","121.946151666667","25.0169133333333","6502600","貢寮區"
"224006","676-BX","2018/05/10 18:59:22","新北市瑞芳區三爪子坑路106巷190號","121.808801666667","25.1033533333333","6501200","瑞芳區"
"224008","285-BY","2018/05/10 18:59:15","新北市瑞芳區逢甲路343-15號","121.799021666667","25.1124583333333","6501200","瑞芳區"
"224009","273-VK","2018/05/10 18:59:08","新北市瑞芳區長仁路40號","121.864626666667","25.1185583333333","6501200","瑞芳區"
"224005","271-BY","2018/05/10 18:59:09","新北市瑞芳區瑞濱路67號","121.822256666667","25.120925","6501200","瑞芳區"
"227010","642-TC","2018/05/10 18:59:20","新北市雙溪區牡丹里中正路58巷23號","121.866426666667","25.0416266666667","6502500","雙溪區"
"227004","400-TW","2018/05/10 18:59:05","新北市雙溪區平林里康福家園10號","121.858808333333","25.0373533333333","6502500","雙溪區"
"253005","032-BX","2018/05/10 18:59:14","新北市石門區中央路37-5號","121.568775","25.29582","6502200","石門區"
"253006","295-VK","2018/05/10 18:59:18","新北市石門區下員坑42-2號","121.51752","25.27736","6502200","石門區"
"222001","KEA-2212","2018/05/10 18:59:16","新北市深坑區北深路一段196號","121.63344","25.0108","6501800","深坑區"
"208002","KEA-2872","2018/05/10 18:59:10","新北市金山區信義路72號","121.635198333333","25.2196266666667","6502700","金山區"
"208003","665-BX","2018/05/10 18:59:22","新北市金山區中正路20號","121.635946666667","25.22228","6502700","金山區"
"251009","008-UM","2018/05/10 18:59:19","新北市淡水區重建街44號","121.439855","25.1714566666667","6501000","淡水區"
"251001","011-UM","2018/05/10 18:59:19","新北市淡水區自強路60號","121.463096666667","25.127575","6501000","淡水區"
"251013","KEA-2871","2018/05/10 18:59:16","新北市淡水區安子內12-1號","121.481528333333","25.2191233333333","6501000","淡水區"
"251014","180-VK","2018/05/10 18:59:22","新北市淡水區小中寮30號","121.490038333333","25.2277966666667","6501000","淡水區"
"251015","182-VK","2018/05/10 18:59:13","新北市淡水區糞箕湖60號","121.485185","25.1722883333333","6501000","淡水區"
"251010","413-VK","2018/05/10 18:59:17","新北市淡水區淡海路100號","121.422511666667","25.1822583333333","6501000","淡水區"
"251007","442-VK","2018/05/10 18:59:23","新北市淡水區民生路113巷1弄39號","121.463005","25.1386366666667","6501000","淡水區"
"251016","575-R6","2018/05/10 18:59:04","新北市淡水區淡金路三段331巷3號","121.448571666667","25.206175","6501000","淡水區"
"251002","672-BX","2018/05/10 18:59:06","新北市淡水區中正東路63號","121.447073333333","25.167745","6501000","淡水區"
"251003","766-UM","2018/05/10 18:59:04","新北市淡水區中山北路一段149巷28號","121.443003333333","25.1780933333333","6501000","淡水區"
"207003","550-UM","2018/05/10 18:59:23","新北市萬里區大鵬里頂社24-5號","121.657733333333","25.2102183333333","6502800","萬里區"
"207004","225-TW","2018/05/10 18:59:15","新北市萬里區萬里里獅頭路23號","121.693151666667","25.1783616666667","6502800","萬里區"
"252002","178-VK","2018/05/10 18:59:01","新北市三芝區民生街4號","121.503835","25.2574333333333","6502100","三芝區"
"252003","249-BX","2018/05/10 18:59:10","新北市三芝區後厝里北勢子42-1號","121.471998333333","25.252425","6502100","三芝區"
"252001","292-VK","2018/05/10 18:59:20","新北市三芝區中興街二段260號","121.501763333333","25.25305","6502100","三芝區"
"208001","170-UY","2018/05/10 18:59:24","新北市金山區中山路95號","121.640055","25.21892","6502700","金山區"
"237004","KEA-2597","2018/05/10 18:59:16","新北市三峽區有木111-1號","121.434896666667","24.8594216666667","6500900","三峽區"
"237007","153-BY","2018/05/10 18:59:16","新北市三峽區中正路二段275號","121.365946666667","24.9114583333333","6500900","三峽區"
"237011","572-TV","2018/05/10 18:59:05","新北市三峽區介壽路三段147號","121.4003","24.94287","6500900","三峽區"
"237013","252-BX","2018/05/10 18:59:09","新北市三峽區光明路69巷25號","121.37673","24.9291916666667","6500900","三峽區"
"237012","275-BY","2018/05/10 18:59:18","新北市三峽區三樹路222巷196-31號","121.389236666667","24.9426683333333","6500900","三峽區"
"237008","302-VK","2018/05/10 18:59:04","新北市三峽區中正路一段290-1號","121.371626666667","24.925935","6500900","三峽區"
"237014","433-BY","2018/05/10 18:59:07","新北市三峽區隆恩街158巷44號","121.365471666667","24.9458483333333","6500900","三峽區"
"237006","5529-G3","2018/05/10 18:59:21","新北市三峽區溪東路233巷45弄12號","121.409745","24.9336716666667","6500900","三峽區"
"237010","706-TV","2018/05/10 18:59:24","新北市三峽區復興路174巷4號","121.370746666667","24.9389683333333","6500900","三峽區"
"237005","AKY-6261","2018/05/10 18:59:24","新北市三峽區中山路459巷163-3號","121.349148333333","24.93343","6500900","三峽區"
"236070","105-UM","2018/05/10 18:59:23","新北市土城區清水路99巷13號","121.456781666667","24.98242","6501300","土城區"
"236042","107-UM","2018/05/10 18:59:06","新北市土城區學府路一段258號","121.45127","24.9845516666667","6501300","土城區"
"236078","166-UM","2018/05/10 18:59:11","新北市土城區中央路四段125巷2弄18號","121.416421666667","24.9569216666667","6501300","土城區"
"236030","253-BX","2018/05/10 18:59:23","新北市土城區慶利街11號","121.439526666667","24.9736583333333","6501300","土城區"
"236026","269-VK","2018/05/10 18:59:20","新北市土城區中正路56巷10號","121.443993333333","24.9750033333333","6501300","土城區"
"236014","270-VK","2018/05/10 18:59:16","新北市土城區延和路11號","121.463833333333","24.9880816666667","6501300","土城區"
"236038","271-VK","2018/05/10 18:59:13","新北市土城區仁愛路20-3號","121.461098333333","24.980035","6501300","土城區"
"236021","752-BX","2018/05/10 18:59:20","新北市土城區明峰街50號","121.467723333333","24.9864633333333","6501300","土城區"
"236059","912-UM","2018/05/10 18:59:10","新北市土城區金城路二段200號","121.454705","24.98165","6501300","土城區"
"236049","913-UM","2018/05/10 18:59:19","新北市土城區青雲路240號","121.458998333333","24.9804533333333","6501300","土城區"
"236063","915-UM","2018/05/10 18:59:06","新北市土城區延和路41巷6弄16號","121.466665","24.9902566666667","6501300","土城區"
"236055","AAC-216","2018/05/10 18:59:17","新北市土城區學成路164號","121.448065","24.9890783333333","6501300","土城區"
"238023","601-UM","2018/05/10 18:59:02","新北市樹林區大慶街156號","121.39686","25.0131266666667","6500700","樹林區"
"238019","599-UM","2018/05/10 18:59:16","新北市樹林區東榮街91巷2弄2號","121.416008333333","24.9823616666667","6500700","樹林區"
"238018","571-TV","2018/05/10 18:59:13","新北市樹林區大同街10巷4號","121.41862","24.9831266666667","6500700","樹林區"
"238024","5061-A6","2018/05/10 18:58:38","新北市樹林區民和街1號","121.38485","24.967655","6500700","樹林區"
"238021","KEA-2217","2018/05/10 18:59:19","新北市樹林區柑園街二段278號","121.374306666667","24.9521283333333","6500700","樹林區"
"238022","KEA-2213","2018/05/10 18:59:18","新北市樹林區中山路二段151巷15號","121.408038333333","24.97771","6500700","樹林區"
"238025","303-VK","2018/05/10 18:59:17","新北市樹林區民和街80號","121.380818333333","24.9715483333333","6500700","樹林區"
"238017","283-BY","2018/05/10 18:59:03","新北市樹林區中山路三段125-11號","121.398731666667","24.97389","6500700","樹林區"
"238014","282-BY","2018/05/10 18:59:18","新北市樹林區潭興街127巷3弄4號","121.42542","24.9993466666667","6500700","樹林區"
"238020","268-VK","2018/05/10 18:59:11","新北市樹林區俊英街79號","121.426091666667","25.0075883333333","6500700","樹林區"
"238026","172-UY","2018/05/10 18:59:18","新北市樹林區德和街46號","121.389751666667","24.9797733333333","6500700","樹林區"
"238016","169-UY","2018/05/10 18:59:11","新北市樹林區復興路373巷7弄3號","121.417446666667","24.9866033333333","6500700","樹林區"
"239007","AAC-297","2018/05/10 18:59:24","新北市鶯歌區中正一路333-1號","121.356558333333","24.9578666666667","6500800","鶯歌區"
"239006","891-R6","2018/05/10 18:59:08","新北市鶯歌區鶯桃路296巷53號","121.335863333333","24.961345","6500800","鶯歌區"
"239008","527-UM","2018/05/10 18:59:20","新北市鶯歌區國際二路12巷13號","121.338065","24.97462","6500800","鶯歌區"
"239005","526-UM","2018/05/10 18:59:17","新北市鶯歌區大湖路361巷58號","121.330996666667","24.9773933333333","6500800","鶯歌區"
"239001","417-VK","2018/05/10 18:59:14","新北市鶯歌區永明街60巷58弄2號","121.340788333333","24.9547783333333","6500800","鶯歌區"
"239003","360-BY","2018/05/10 18:59:04","新北市鶯歌區鶯桃路563號","121.330061666667","24.9682983333333","6500800","鶯歌區"
"239004","193-VK","2018/05/10 18:59:20","新北市鶯歌區中正三路237號","121.334236666667","24.9388683333333","6500800","鶯歌區"
"221008","489-VK","2018/05/10 18:59:09","新北市汐止區康寧街753巷2弄28號","121.640506666667","25.074755","6501100","汐止區"
"221036","130-UY","2018/05/10 18:59:15","新北市汐止區信義路1號","121.662755","25.06906","6501100","汐止區"
"221015","131-UY","2018/05/10 18:59:12","新北市汐止區大同路二段667號","121.664916666667","25.0718383333333","6501100","汐止區"
"221010","269-BY","2018/05/10 18:59:22","新北市汐止區康寧街901號","121.65141","25.0751066666667","6501100","汐止區"
"221012","278-VK","2018/05/10 18:59:20","新北市汐止區康寧街901號","121.650783333333","25.0752866666667","6501100","汐止區"
"221023","279-VK","2018/05/10 18:59:11","新北市汐止區康寧街901號","121.650961666667","25.0751983333333","6501100","汐止區"
"221032","280-BY","2018/05/10 18:59:17","新北市汐止區橫科路407巷81弄1號","121.62825","25.0484416666667","6501100","汐止區"
"221027","281-BY","2018/05/10 18:59:13","新北市汐止區康寧街901號","121.651446666667","25.075015","6501100","汐止區"
"221029","298-VK","2018/05/10 18:59:13","新北市汐止區樟樹一路254號","121.642418333333","25.0672683333333","6501100","汐止區"
"221031","353-TW","2018/05/10 18:59:25","新北市汐止區福德二路156巷20號","121.630231666667","25.0657566666667","6501100","汐止區"
"221035","622-UM","2018/05/10 18:59:22","新北市汐止區汐萬路一段312號","121.650526666667","25.07527","6501100","汐止區"
"221025","623-UM","2018/05/10 18:59:12","新北市汐止區汐萬路一段125號","121.654065","25.071195","6501100","汐止區"
"221038","646-BX","2018/05/10 18:59:04","新北市汐止區康寧街901號","121.650725","25.0752766666667","6501100","汐止區"
"221033","647-BX","2018/05/10 18:59:08","新北市汐止區南勢街1巷1號","121.626968333333","25.0373133333333","6501100","汐止區"
"221002","707-TV","2018/05/10 18:59:14","新北市汐止區大同路一段4號","121.621156666667","25.05505","6501100","汐止區"
"221018","753-BX","2018/05/10 18:59:09","新北市汐止區茄苳路66號","121.666518333333","25.070645","6501100","汐止區"
"220079","145-BY","2018/05/10 18:59:18","新北市板橋區民權路202巷14弄1號","121.460611666667","25.0159783333333","6500100","板橋區"
"220080","200-UY","2018/05/10 18:59:21","新北市板橋區大觀路二段文和巷71號","121.443776666667","24.9985183333333","6500100","板橋區"
"242002","KEA-2550","2018/05/10 18:59:15","新北市新莊區三和路12-21號","121.441995","25.03808","6500500","新莊區"
"220082","610-BX","2018/05/10 18:59:13","新北市板橋區滿平街144號","121.428986666667","24.9880466666667","6500100","板橋區"
"220056","276-BY","2018/05/10 18:59:09","新北市板橋區信義路152號","121.458945","24.991695","6500100","板橋區"
"220071","283-VK","2018/05/10 18:59:13","新北市板橋區重慶路243號","121.463333333333","25.0006633333333","6500100","板橋區"
"220094","285-UM","2018/05/10 18:59:17","新北市板橋區文化路二段76號","121.46935","25.024965","6500100","板橋區"
"220053","285-VK","2018/05/10 18:59:22","新北市板橋區中山路二段89巷45號","121.473695","25.01726","6500100","板橋區"
"220083","286-VK","2018/05/10 18:59:11","新北市板橋區大觀路一段38巷156弄4-1號","121.442473333333","25.00454","6500100","板橋區"
"220081","287-VK","2018/05/10 18:59:21","新北市板橋區南雅西路二段102號","121.45233","25.0117733333333","6500100","板橋區"
"220090","288-VK","2018/05/10 18:59:20","新北市板橋區四維路179號","121.464291666667","25.0263616666667","6500100","板橋區"
"220061","293-UM","2018/05/10 18:59:07","新北市板橋區富山街109巷120號","121.474683333333","25.0208266666667","6500100","板橋區"
"220084","296-UM","2018/05/10 18:59:09","新北市板橋區龍興街65巷7號","121.443153333333","25.0013616666667","6500100","板橋區"
"220075","303-R5","2018/05/10 18:59:20","新北市板橋區茶館街25號","121.456378333333","25.0105466666667","6500100","板橋區"
"220062","305-R5","2018/05/10 18:59:10","新北市板橋區中山路二段175號","121.476076666667","25.016825","6500100","板橋區"
"220092","307-R5","2018/05/10 18:59:05","新北市板橋區文化路一段88號","121.46436","25.01745","6500100","板橋區"
"220098","317-R6","2018/05/10 18:59:07","新北市板橋區民有街13號","121.4663","25.024785","6500100","板橋區"
"220064","486-VK","2018/05/10 18:59:25","新北市板橋區板新路164號","121.470086666667","25.0156533333333","6500100","板橋區"
"220088","491-VK","2018/05/10 18:59:15","新北市板橋區民生路二段206號","121.469621666667","25.020995","6500100","板橋區"
"220035","560-BX","2018/05/10 18:59:18","新北市板橋區中正路343號","121.454775","25.0204933333333","6500100","板橋區"
"220103","561-BX","2018/05/10 18:59:20","新北市板橋區介壽街119號","121.47055","25.0186566666667","6500100","板橋區"
"220063","609-BX","2018/05/10 18:59:19","新北市板橋區中山路二段163號","121.47588","25.0167366666667","6500100","板橋區"
"220055","630-UY","2018/05/10 18:59:17","新北市板橋區中山路一段158巷27-4號","121.466533333333","25.0110816666667","6500100","板橋區"
"220091","637-BX","2018/05/10 18:59:14","新北市板橋區莒光路165巷14-1號","121.474093333333","25.0242833333333","6500100","板橋區"
"220057","686-BX","2018/05/10 18:59:20","新北市板橋區重慶路104號","121.462026666667","25.0057033333333","6500100","板橋區"
"220077","687-BX","2018/05/10 18:59:15","新北市板橋區龍興街43號","121.443038333333","25.0006616666667","6500100","板橋區"
"220093","689-BX","2018/05/10 18:59:17","新北市板橋區民生路三段64號","121.467126666667","25.0255983333333","6500100","板橋區"
"220054","741-BX","2018/05/10 18:59:20","新北市板橋區重慶路127巷17號","121.463486666667","25.0049583333333","6500100","板橋區"
"220102","KEA-2699","2018/05/10 18:59:18","新北市板橋區萬板路710號","121.481941666667","25.0270783333333","6500100","板橋區"
"220067","829-TW","2018/05/10 18:59:08","新北市板橋區三民路二段正隆巷12弄6號","121.478148333333","25.0131","6500100","板橋區"
"220096","830-TW","2018/05/10 18:59:20","新北市板橋區莒光路123號","121.472686666667","25.0241216666667","6500100","板橋區"
"220089","833-TW","2018/05/10 18:59:21","新北市板橋區文化路二段437號","121.474758333333","25.0333616666667","6500100","板橋區"
"220074","895-R6","2018/05/10 18:59:12","新北市板橋區林園街2號","121.454271666667","25.0091566666667","6500100","板橋區"
"220073","985-R7","2018/05/10 18:59:18","新北市板橋區民權路256號","121.458158333333","25.0149","6500100","板橋區"
"220097","AAC-210","2018/05/10 18:59:09","新北市板橋區漢生東路15號","121.464776666667","25.01739","6500100","板橋區"
"220070","AAC-253","2018/05/10 18:59:21","新北市板橋區四川路一段285號","121.459178333333","25.0012683333333","6500100","板橋區"
