"lineid","car","time","location","longitude","latitude","cityid","cityname"
"234046","149-BY","2018/05/10 19:29:00","新北市永和區秀朗路二段169-1號","121.525451666667","25.0015733333333","6500400","永和區"
"234007","207-UY","2018/05/10 19:29:08","新北市永和區中山路一段30號","121.513615","25.010695","6500400","永和區"
"234081","298-R6","2018/05/10 19:29:14","新北市永和區福和路5-1號","121.524986666667","25.0086983333333","6500400","永和區"
"234038","336-UY","2018/05/10 19:29:08","新北市永和區民樂街38號","121.527546666667","25.0006666666667","6500400","永和區"
"234064","337-UY","2018/05/10 19:29:00","新北市永和區永元路17巷25弄7號","121.520908333333","25.0016433333333","6500400","永和區"
"234086","338-UY","2018/05/10 19:29:13","新北市永和區林森路39巷1號","121.525583333333","25.0049166666667","6500400","永和區"
"234070","552-UM","2018/05/10 19:29:09","新北市永和區警光街8號","121.5198","25.009585","6500400","永和區"
"234017","745-BX","2018/05/10 19:29:09","新北市永和區環河西路一段87號","121.512358333333","25.0179716666667","6500400","永和區"
"234030","746-BX","2018/05/10 19:29:12","新北市永和區民生路14號","121.522576666667","24.99762","6500400","永和區"
"234054","KEA-2590","2018/05/10 19:29:14","新北市永和區復興街19巷5號","121.516038333333","25.0130633333333","6500400","永和區"
"234013","KEA-2591","2018/05/10 19:29:08","新北市永和區中山路一段76號","121.512318333333","25.0107683333333","6500400","永和區"
"234061","AAD-866","2018/05/10 19:29:05","新北市永和區中正路471號","121.516981666667","25.006145","6500400","永和區"
"234042","862-TW","2018/05/10 19:29:05","新北市永和區中和路519巷3號","121.51085","25.002905","6500400","永和區"
"234050","863-TW","2018/05/10 19:29:09","新北市永和區仁愛路135號","121.51161","25.0130183333333","6500400","永和區"
"234026","9371-KE","2018/05/10 19:29:12","新北市中和區安樂路207號","121.514413333333","24.9985166666667","6500400","永和區"
"234011","9373-KE","2018/05/10 19:29:12","新北市永和區保福路二段163巷13弄16號","121.509098333333","25.014305","6500400","永和區"
"249003","759-BX","2018/05/10 19:28:59","新北市八里區商港六路23號","121.39667","25.1486083333333","6502300","八里區"
"248014","025-BX","2018/05/10 19:29:02","新北市五股區民義路一段161號","121.432471666667","25.0876233333333","6501500","五股區"
"248008","095-VK","2018/05/10 19:28:53","新北市五股區中興路二段2-1號","121.463211666667","25.0742716666667","6501500","五股區"
"248020","225-UY","2018/05/10 19:29:13","新北市五股區凌雲路三段37號","121.431565","25.1168683333333","6501500","五股區"
"248012","247-BX","2018/05/10 19:29:02","新北市五股區成泰路二段97號","121.438021666667","25.0842566666667","6501500","五股區"
"248010","272-BY","2018/05/10 19:29:01","新北市五股區水碓一路23號","121.430635","25.071305","6501500","五股區"
"248004","677-BX","2018/05/10 19:29:10","新北市五股區工商路146-2號","121.434668333333","25.08675","6501500","五股區"
"248002","678-BX","2018/05/10 19:29:15","新北市五股區凌雲路一段158巷14-1號","121.447878333333","25.1034333333333","6501500","五股區"
"234023","9380-KE","2018/05/10 19:29:13","新北市永和區竹林路91巷42號","121.521151666667","25.0126483333333","6500400","永和區"
"234077","969-R7","2018/05/10 19:28:58","新北市永和區民權路58巷3號","121.519546666667","24.9982783333333","6500400","永和區"
"234074","AAC-211","2018/05/10 19:29:04","新北市永和區竹林路1號","121.516288333333","25.0149083333333","6500400","永和區"
"234067","AAC-212","2018/05/10 19:29:08","新北市永和區保平路196號","121.510158333333","25.0063116666667","6500400","永和區"
"234003","AAC-295","2018/05/10 19:29:08","新北市永和區永和路一段127號","121.514035","25.0083866666667","6500400","永和區"
"244013","069-UM","2018/05/10 19:28:59","新北市林口區文化一路一段126號","121.375663333333","25.0724216666667","6501700","林口區"
"244019","403-UM","2018/05/10 19:29:09","新北市林口區文化二路一段490-4號","121.375976666667","25.0783333333333","6501700","林口區"
"244023","483-VK","2018/05/10 19:28:58","新北市林口區仁愛路二段636號","121.37095","25.0795483333333","6501700","林口區"
"243013","AAD-798","2018/05/10 19:28:56","新北市泰山區貴子路36巷10號","121.425845","25.0413616666667","6501600","泰山區"
"243009","297-R6","2018/05/10 19:29:01","新北市五股區成泰路一段7巷56號","121.432033333333","25.0673266666667","6501600","泰山區"
"243016","380-SR","2018/05/10 19:29:08","新北市泰山區明志路三段201號","121.424095","25.03852","6501600","泰山區"
"243011","KEA-2215","2018/05/10 19:28:55","新北市泰山區貴子路120號","121.428258333333","25.0406466666667","6501600","泰山區"
"243010","KEA-2216","2018/05/10 19:29:01","新北市泰山區民生路17巷34號","121.429333333333","25.051785","6501600","泰山區"
"243012","646-TV","2018/05/10 19:29:09","新北市泰山區仁義路220巷6號","121.432871666667","25.0538783333333","6501600","泰山區"
"243014","680-BX","2018/05/10 19:29:02","新北市泰山區仁愛路66號","121.432216666667","25.0550533333333","6501600","泰山區"
"222003","436-BY","2018/05/10 19:29:06","新北市深坑區深南路51-1號","121.621206666667","25.0099","6501800","深坑區"
"222002","659-BX","2018/05/10 19:29:07","新北市深坑區北深路一段177號","121.63249","25.0109216666667","6501800","深坑區"
"231041","002-UM","2018/05/10 19:29:07","新北市新店區中正路615號","121.533906666667","24.988755","6500600","新店區"
"231059","046-UY","2018/05/10 19:28:54","新北市新店區安和路三段18號","121.517938333333","24.981205","6500600","新店區"
"231040","047-UY","2018/05/10 19:29:02","新北市新店區北新路一段263號","121.540993333333","24.96645","6500600","新店區"
"231044","106-UY","2018/05/10 19:29:11","新北市新店區中興路三段188號","121.543938333333","24.9815316666667","6500600","新店區"
"231046","107-UY","2018/05/10 19:28:59","新北市新店區北新路一段130號","121.542368333333","24.9702133333333","6500600","新店區"
"231052","108-UY","2018/05/10 19:28:56","新北市新店區新烏路二段212-1號","121.54744","24.91547","6500600","新店區"
"231047","187-VK","2018/05/10 19:29:04","新北市新店區中興路一段254巷5號","121.545048333333","24.9666116666667","6500600","新店區"
"231054","KEA-2219","2018/05/10 19:29:02","新北市新店區文中路53巷4號","121.540495","24.9567566666667","6500600","新店區"
"231057","256-BX","2018/05/10 19:29:08","新北市新店區花園一路三段38號","121.549938333333","24.93306","6500600","新店區"
"231042","268-BY","2018/05/10 19:29:12","新北市新店區北宜路一段39巷20號","121.538858333333","24.9585283333333","6500600","新店區"
"231051","278-BY","2018/05/10 19:28:58","新北市新店區中央五街44號","121.528216666667","24.975","6500600","新店區"
"231050","AAD-862","2018/05/10 19:28:54","新北市新店區竹林路157-1號","121.556668333333","24.9477183333333","6500600","新店區"
"231058","3713-VJ","2018/05/10 19:29:07","新北市新店區永華街5號","121.543316666667","24.9770866666667","6500600","新店區"
"231066","4716-K9","2018/05/10 19:29:11","新北市新店區安康路三段165巷6號","121.48966","24.95127","6500600","新店區"
"231067","4772-VM","2018/05/10 19:29:03","新北市新店區薏仁坑路6號","121.500283333333","24.95795","6500600","新店區"
"231065","512-UM","2018/05/10 19:29:11","新北市新店區安祥路109巷3弄22號","121.47599","24.9600916666667","6500600","新店區"
"231049","513-UM","2018/05/10 19:28:56","新北市新店區二十張路1巷2弄2號","121.540328333333","24.98213","6500600","新店區"
"231063","616-UM","2018/05/10 19:29:13","新北市新店區達觀路16號","121.503165","24.9407266666667","6500600","新店區"
"231061","619-UM","2018/05/10 19:28:52","新北市新店區安康路一段197號","121.526295","24.9629016666667","6500600","新店區"
"231064","719-UM","2018/05/10 19:29:07","新北市新店區安康路二段85巷44號","121.51437","24.96125","6500600","新店區"
"231062","720-UM","2018/05/10 19:29:02","新北市新店區莒光路20號","121.524116666667","24.9594616666667","6500600","新店區"
"231060","897-TW","2018/05/10 19:29:04","新北市新店區安和路一段7號","121.516745","24.9639966666667","6500600","新店區"
"231045","898-TW","2018/05/10 19:29:10","新北市新店區北宜路二段207號","121.553083333333","24.95339","6500600","新店區"
"231043","899-TW","2018/05/10 19:28:58","新北市新店區北新路二段193號","121.542548333333","24.97809","6500600","新店區"
"231055","AKT-0513","2018/05/10 19:28:59","新北市新店區安業街2號","121.5152","24.9782383333333","6500600","新店區"
"241008","059-VK","2018/05/10 19:29:07","新北市三重區永福街135巷33號","121.477506666667","25.07722","6500200","三重區"
"241009","060-VK","2018/05/10 19:29:07","新北市三重區溪尾街242巷58號","121.486341666667","25.0814833333333","6500200","三重區"
"241031","061-VK","2018/05/10 19:29:10","新北市三重區集美街65-2號","121.488456666667","25.0541266666667","6500200","三重區"
"241017","063-VK","2018/05/10 19:29:10","新北市三重區中正北路25巷2號","121.493221666667","25.0627116666667","6500200","三重區"
"241026","066-VK","2018/05/10 19:29:04","新北市三重區文化南路47巷39號","121.49919","25.0612","6500200","三重區"
"241028","265-UM","2018/05/10 19:29:06","新北市三重區中寮街59號","121.49299","25.0580066666667","6500200","三重區"
"241022","267-UM","2018/05/10 19:29:00","新北市三重區三民街120號","121.484745","25.0637133333333","6500200","三重區"
"241032","269-UM","2018/05/10 19:29:09","新北市三重區三陽路62號","121.48414","25.0586833333333","6500200","三重區"
"241013","270-UM","2018/05/10 19:29:06","新北市三重區仁愛街106號","121.49531","25.074185","6500200","三重區"
"241025","271-UM","2018/05/10 19:29:08","新北市三重區頂崁街210巷23弄1號","121.475878333333","25.068135","6500200","三重區"
"241007","398-BY","2018/05/10 19:29:06","新北市三重區溪尾街154號","121.488935","25.08008","6500200","三重區"
"241020","413-TH","2018/05/10 19:29:09","新北市三重區三和路四段44巷5號","121.490166666667","25.0744333333333","6500200","三重區"
"241035","462-BY","2018/05/10 19:29:08","新北市三重區信義西街1號","121.49811","25.06488","6500200","三重區"
"241030","480-VK","2018/05/10 19:29:08","新北市三重區成功路41巷13號","121.490285","25.0515416666667","6500200","三重區"
"241014","543-UM","2018/05/10 19:28:55","新北市三重區長興街35號","121.500506666667","25.0686216666667","6500200","三重區"
"241023","545-UM","2018/05/10 19:28:59","新北市三重區頂崁街183號","121.478071666667","25.0638","6500200","三重區"
"241006","AAD-863","2018/05/10 19:29:06","新北市三重區三和路四段111-2號","121.485758333333","25.0774166666667","6500200","三重區"
"241029","942-UM","2018/05/10 19:29:02","新北市三重區重安街103號","121.49386","25.05521","6500200","三重區"
"235064","005-UY","2018/05/10 19:29:07","新北市中和區南山路81巷56號","121.5039","24.99816","6500300","中和區"
"235063","006-UY","2018/05/10 19:28:58","新北市中和區連城路227號","121.494111666667","24.9976","6500300","中和區"
"235047","031-BX","2018/05/10 19:29:13","新北市中和區景平路241巷62號","121.507778333333","24.99232","6500300","中和區"
"235056","096-UM","2018/05/10 19:28:53","新北市中和區員山路555號","121.479556666667","25.0075216666667","6500300","中和區"
"235039","097-UM","2018/05/10 19:29:12","新北市中和區秀峰街117號","121.520061666667","24.990655","6500300","中和區"
"235058","151-BY","2018/05/10 19:29:02","新北市中和區連城路469巷5號","121.483653333333","24.99576","6500300","中和區"
"235055","183-VK","2018/05/10 19:29:08","新北市中和區莒光路120巷40號","121.47153","25.0012933333333","6500300","中和區"
"235038","185-VK","2018/05/10 19:29:05","新北市中和區自立路39號","121.522083333333","24.9952833333333","6500300","中和區"
"235049","186-VK","2018/05/10 19:29:01","新北市中和區景新街285巷25號","121.51078","24.9937633333333","6500300","中和區"
"235067","255-BX","2018/05/10 19:29:12","新北市中和區連城路471號","121.483333333333","24.9959033333333","6500300","中和區"
"235044","293-VK","2018/05/10 19:29:11","新北市中和區捷運路185號","121.505426666667","24.991445","6500300","中和區"
"235072","301-VK","2018/05/10 19:29:08","新北市中和區連城路263巷4弄10號","121.491735","24.99528","6500300","中和區"
"235043","352-BY","2018/05/10 19:29:08","新北市中和區景新街137號","121.506228333333","24.997155","6500300","中和區"
"235068","377-QA","2018/05/10 19:27:48","新北市中和區連勝街57巷14號","121.49794","24.996685","6500300","中和區"
"235061","378-QA","2018/05/10 19:28:55","新北市中和區員山路150-5號","121.481246666667","24.9974366666667","6500300","中和區"
"235050","4979-A6","2018/05/10 19:29:13","新北市中和區中正路161巷6號","121.498685","24.9934716666667","6500300","中和區"
"235042","551-UM","2018/05/10 19:29:10","新北市中和區安樂路217巷35弄12號","121.514016666667","24.997725","6500300","中和區"
"235070","558-UM","2018/05/10 19:29:01","新北市中和區景平路579號","121.497666666667","25.0001433333333","6500300","中和區"
"235045","565-BX","2018/05/10 19:29:14","新北市中和區景新街399巷11號","121.513","24.98989","6500300","中和區"
"235054","640-BX","2018/05/10 19:28:59","新北市中和區國光街112巷11弄1號","121.46962","25.0016366666667","6500300","中和區"
"235060","647-TV","2018/05/10 19:29:06","新北市中和區新生街114巷2號","121.483328333333","25.0024316666667","6500300","中和區"
"235046","733-UM","2018/05/10 19:29:02","新北市中和區忠孝街37巷67號","121.510616666667","24.98463","6500300","中和區"
"235071","783-BX","2018/05/10 19:28:58","新北市中和區中正路637巷18弄4號","121.484405","24.9950533333333","6500300","中和區"
"235062","800-TS","2018/05/10 19:28:54","新北市新店區安豐路30-1號","121.500641666667","24.9569233333333","6500300","中和區"
"235057","801-TS","2018/05/10 19:29:03","新北市中和區中山路三段37巷27號","121.479323333333","25.0047983333333","6500300","中和區"
"235041","802-TS","2018/05/10 19:29:08","新北市中和區中安街98-1號","121.51173","25.0013416666667","6500300","中和區"
"235052","805-TS","2018/05/10 19:29:05","新北市中和區華新街143巷69弄6號","121.507453333333","24.9787783333333","6500300","中和區"
"235048","896-TW","2018/05/10 19:29:00","新北市中和區忠孝街117號","121.512633333333","24.987835","6500300","中和區"
"235053","900-TW","2018/05/10 19:29:02","新北市中和區華順街34號","121.466721666667","24.9986183333333","6500300","中和區"
"235066","911-UM","2018/05/10 19:29:05","新北市中和區中和路136號","121.503505","24.9993216666667","6500300","中和區"
"235051","157-BY","2018/05/10 19:28:55","新北市中和區景新街170號","121.50606","24.996585","6500300","中和區"
"235037","AAC-213","2018/05/10 19:29:11","新北市中和區秀朗路三段10巷14弄12號","121.525071666667","24.9965916666667","6500300","中和區"
"235059","AAC-215","2018/05/10 19:29:02","新北市中和區圓通路252巷29弄10號","121.492695","24.9919","6500300","中和區"
"220068","013-TV","2018/05/10 19:29:06","新北市板橋區林森街1巷1號","121.482076666667","25.0242533333333","6500100","板橋區"
"220065","072-UY","2018/05/10 19:29:15","新北市板橋區國泰街109-1號","121.466106666667","25.0063216666667","6500100","板橋區"
"220086","073-UY","2018/05/10 19:29:09","新北市板橋區中正路236巷13號","121.45646","25.0191716666667","6500100","板橋區"
"220106","075-UY","2018/05/10 19:29:08","新北市板橋區長江路三段62號","121.473653333333","25.0337983333333","6500100","板橋區"
"220069","AAD-861","2018/05/10 19:29:01","新北市板橋區稚暉街46巷3號","121.456353333333","25.0042233333333","6500100","板橋區"
"226004","312-R5","2018/05/10 19:25:19","新北市平溪區十分里十分街236號","121.778148333333","25.0440983333333","6502400","平溪區"
"235065","251-BX","2018/05/10 19:28:59","新北市中和區中山路二段2巷5弄8-1號","121.504328333333","25.0061466666667","6500300","中和區"
"228003","097-TW","2018/05/10 19:29:01","新北市貢寮區和美里和美街22-1號","121.912776666667","25.0826366666667","6502600","貢寮區"
"228001","212-TW","2018/05/10 19:29:00","新北市貢寮區真理里延平街68-1號","121.925371666667","25.057465","6502600","貢寮區"
"228002","585-TW","2018/05/10 19:28:58","新北市貢寮區龍門里龍門街60-2號","121.93252","25.0264233333333","6502600","貢寮區"
"224008","285-BY","2018/05/10 19:29:15","新北市瑞芳區一坑路97-1號","121.802","25.1079133333333","6501200","瑞芳區"
"227010","642-TC","2018/05/10 19:29:00","新北市雙溪區新基里新基北街43號","121.8682","25.0397233333333","6502500","雙溪區"
"227004","400-TW","2018/05/10 19:29:05","新北市雙溪區雙溪里光復街3號","121.86514","25.0355","6502500","雙溪區"
"253005","032-BX","2018/05/10 19:29:14","新北市石門區小坑9號","121.594401666667","25.28839","6502200","石門區"
"253006","295-VK","2018/05/10 19:28:58","新北市石門區老崩山11-13號","121.551306666667","25.2903883333333","6502200","石門區"
"222001","KEA-2212","2018/05/10 19:28:56","新北市深坑區北深路二段121號","121.616561666667","25.00309","6501800","深坑區"
"208002","KEA-2872","2018/05/10 19:29:10","新北市金山區中華路106號","121.633846666667","25.220165","6502700","金山區"
"208003","665-BX","2018/05/10 19:29:15","新北市金山區忠孝一路92號","121.636505","25.2212983333333","6502700","金山區"
"251009","008-UM","2018/05/10 19:28:59","新北市淡水區大忠街5巷8號","121.443311666667","25.1765416666667","6501000","淡水區"
"251005","010-UM","2018/05/10 19:28:57","新北市淡水區水源街一段71巷18號","121.444288333333","25.172965","6501000","淡水區"
"251001","011-UM","2018/05/10 19:28:59","新北市淡水區民權路179-5號","121.459576666667","25.1346933333333","6501000","淡水區"
"251013","KEA-2871","2018/05/10 19:28:58","新北市淡水區大牛稠4號","121.46946","25.21999","6501000","淡水區"
"251014","180-VK","2018/05/10 19:29:12","新北市淡水區小中寮19-7號","121.484781666667","25.2296733333333","6501000","淡水區"
"251008","181-VK","2018/05/10 19:29:11","新北市淡水區中正路一段87巷1號","121.421263333333","25.1795933333333","6501000","淡水區"
"251015","182-VK","2018/05/10 19:29:13","新北市淡水區北新路三段120號","121.487203333333","25.1884683333333","6501000","淡水區"
"251010","413-VK","2018/05/10 19:28:57","新北市淡水區淡海路220號","121.420233333333","25.185805","6501000","淡水區"
"251012","441-VK","2018/05/10 19:29:04","新北市淡水區崁頂98號","121.434656666667","25.2037766666667","6501000","淡水區"
"251007","442-VK","2018/05/10 19:29:03","新北市淡水區八勢路30巷1號","121.461935","25.1540716666667","6501000","淡水區"
"251006","561-UM","2018/05/10 19:29:06","新北市淡水區大義街32號","121.44239","25.1783533333333","6501000","淡水區"
"251016","575-R6","2018/05/10 19:29:04","新北市淡水區下圭柔山119-51號","121.450605","25.2085216666667","6501000","淡水區"
"251011","650-BX","2018/05/10 19:29:00","新北市淡水區中正東路二段161巷11弄16號","121.460506666667","25.1466483333333","6501000","淡水區"
"251003","766-UM","2018/05/10 19:29:04","新北市淡水區中山北路二段375號","121.444128333333","25.1875516666667","6501000","淡水區"
"207003","550-UM","2018/05/10 19:29:03","新北市萬里區大鵬里萬里加投197-2號","121.643983333333","25.215045","6502800","萬里區"
"207004","225-TW","2018/05/10 19:29:05","新北市萬里區萬里里瑪鋉路119號","121.688776666667","25.1776683333333","6502800","萬里區"
"252002","178-VK","2018/05/10 19:29:01","新北市三芝區淡金路二段20號","121.502703333333","25.2595766666667","6502100","三芝區"
"252001","292-VK","2018/05/10 19:29:00","新北市三芝區長勤街50-1號","121.500191666667","25.2554016666667","6502100","三芝區"
"208001","170-UY","2018/05/10 19:29:04","新北市金山區金包里街95號","121.637841666667","25.2222016666667","6502700","金山區"
"237004","KEA-2597","2018/05/10 19:28:56","新北市三峽區有木205-1號","121.439056666667","24.8515","6500900","三峽區"
"237007","153-BY","2018/05/10 19:28:56","新北市三峽區二鬮路136巷20弄83號","121.35824","24.90886","6500900","三峽區"
"237011","572-TV","2018/05/10 19:29:05","新北市三峽區中正路一段419號","121.370071666667","24.9204316666667","6500900","三峽區"
"237009","210-TH","2018/05/10 19:28:57","新北市三峽區民權街91號","121.369341666667","24.932805","6500900","三峽區"
"237013","252-BX","2018/05/10 19:29:09","新北市三峽區介壽路一段251號","121.379526666667","24.9302016666667","6500900","三峽區"
"237012","275-BY","2018/05/10 19:28:58","新北市三峽區三樹路112號","121.378113333333","24.9394133333333","6500900","三峽區"
"237008","302-VK","2018/05/10 19:29:04","新北市三峽區中正路一段144號","121.373406666667","24.9289733333333","6500900","三峽區"
"237014","433-BY","2018/05/10 19:29:07","新北市三峽區中山路287號","121.361728333333","24.9376483333333","6500900","三峽區"
"237006","5529-G3","2018/05/10 19:29:01","新北市三峽區中正路一段336巷15弄2號","121.369976666667","24.9249633333333","6500900","三峽區"
"237010","706-TV","2018/05/10 19:29:04","新北市三峽區復興路49號","121.373426666667","24.9370266666667","6500900","三峽區"
"237005","AKY-6261","2018/05/10 19:29:03","新北市三峽區復興路367巷1弄4號","121.3639","24.9380083333333","6500900","三峽區"
"236070","105-UM","2018/05/10 19:29:04","新北市土城區學府路一段155巷2號","121.453353333333","24.9857016666667","6501300","土城區"
"236078","166-UM","2018/05/10 19:29:11","新北市土城區中央路四段323號","121.410605","24.9511116666667","6501300","土城區"
"236026","269-VK","2018/05/10 19:29:00","新北市土城區中央路二段61巷26號","121.443306666667","24.9787816666667","6501300","土城區"
"236021","752-BX","2018/05/10 19:25:19","新北市土城區峰廷街8號","121.46868","24.987785","6501300","土城區"
"236049","913-UM","2018/05/10 19:29:11","新北市土城區清水路191號","121.459753333333","24.981565","6501300","土城區"
"242007","413-TV","2018/05/10 19:29:03","新北市新莊區環河路636-7號","121.437353333333","25.0117533333333","6500500","新莊區"
"242023","362-BY","2018/05/10 19:29:07","新北市新莊區三和路12-18號","121.442295","25.0376716666667","6500500","新莊區"
"242031","135-UY","2018/05/10 19:29:07","新北市新莊區新泰路225巷20號","121.445265","25.0392983333333","6500500","新莊區"
"242048","172-VK","2018/05/10 19:29:00","新北市新莊區後港一路3號","121.424138333333","25.0263483333333","6500500","新莊區"
"242013","351-TH","2018/05/10 19:28:57","新北市新莊區中平路132巷1弄2號","121.445228333333","25.0467516666667","6500500","新莊區"
"238015","755-BX","2018/05/10 19:29:02","新北市樹林區啟智街127巷27號","121.419295","24.9899033333333","6500700","樹林區"
"238023","601-UM","2018/05/10 19:29:02","新北市樹林區中正路865號","121.408798333333","25.0181466666667","6500700","樹林區"
"238019","599-UM","2018/05/10 19:28:55","新北市樹林區東榮街8號","121.418153333333","24.983785","6500700","樹林區"
"238018","571-TV","2018/05/10 19:29:13","新北市樹林區水源街27號","121.425335","24.9824833333333","6500700","樹林區"
"238024","5061-A6","2018/05/10 19:28:58","新北市樹林區中山路三段155巷14弄1號","121.3961","24.97257","6500700","樹林區"
"238021","KEA-2217","2018/05/10 19:28:59","新北市樹林區大雅路267號","121.380015","24.9458766666667","6500700","樹林區"
"238022","KEA-2213","2018/05/10 19:29:04","新北市樹林區名園街35號","121.419605","24.978995","6500700","樹林區"
"238025","303-VK","2018/05/10 19:28:59","新北市樹林區中山路一段91-1號","121.423308333333","24.991275","6500700","樹林區"
"238017","283-BY","2018/05/10 19:29:03","新北市樹林區光興街94號","121.408068333333","25.0035066666667","6500700","樹林區"
"238014","282-BY","2018/05/10 19:28:58","新北市樹林區保安二街64巷5弄1號","121.424486666667","24.9959483333333","6500700","樹林區"
"238020","268-VK","2018/05/10 19:29:11","新北市樹林區俊英街121巷53號","121.423631666667","25.0094116666667","6500700","樹林區"
"238026","172-UY","2018/05/10 19:28:58","新北市樹林區佳園路三段97號","121.387521666667","24.9521533333333","6500700","樹林區"
"238016","169-UY","2018/05/10 19:29:11","新北市樹林區大安路587號","121.411935","24.9832316666667","6500700","樹林區"
"239007","AAC-297","2018/05/10 19:29:04","新北市鶯歌區大湖路109巷9號","121.341371666667","24.9635033333333","6500800","鶯歌區"
"239006","891-R6","2018/05/10 19:29:08","新北市鶯歌區鶯桃路91巷33號","121.33803","24.9521816666667","6500800","鶯歌區"
"239005","526-UM","2018/05/10 19:28:57","新北市鶯歌區中湖街310號","121.347633333333","24.9776833333333","6500800","鶯歌區"
"239001","417-VK","2018/05/10 19:29:14","新北市鶯歌區建國路540-1號","121.338606666667","24.950095","6500800","鶯歌區"
"239003","360-BY","2018/05/10 19:29:04","新北市鶯歌區國華路56號","121.342283333333","24.9549383333333","6500800","鶯歌區"
"239004","193-VK","2018/05/10 19:29:01","新北市鶯歌區二甲路103號","121.333573333333","24.93153","6500800","鶯歌區"
"221008","489-VK","2018/05/10 19:29:09","新北市汐止區康寧街145號","121.621971666667","25.0667316666667","6501100","汐止區"
"221036","130-UY","2018/05/10 19:29:15","新北市汐止區康寧街901號","121.650761666667","25.0753333333333","6501100","汐止區"
"221015","131-UY","2018/05/10 19:29:12","新北市汐止區康寧街901號","121.651661666667","25.0750266666667","6501100","汐止區"
"221010","269-BY","2018/05/10 19:29:02","新北市汐止區連峰街7號","121.646323333333","25.077315","6501100","汐止區"
"221012","278-VK","2018/05/10 19:29:00","新北市汐止區大同路三段271號","121.674318333333","25.0757316666667","6501100","汐止區"
"221023","279-VK","2018/05/10 19:29:11","新北市汐止區康寧街649號","121.637486666667","25.07224","6501100","汐止區"
"221027","281-BY","2018/05/10 19:29:13","新北市汐止區忠孝東路9號","121.658343333333","25.0660116666667","6501100","汐止區"
"221029","298-VK","2018/05/10 19:29:13","新北市汐止區康寧街901號","121.651628333333","25.07503","6501100","汐止區"
"221031","353-TW","2018/05/10 19:29:04","新北市汐止區康寧街901號","121.650875","25.07527","6501100","汐止區"
"221025","623-UM","2018/05/10 19:29:11","新北市汐止區秀峰路60號","121.659481666667","25.0654533333333","6501100","汐止區"
"221038","646-BX","2018/05/10 19:29:04","新北市汐止區汐萬路一段160號","121.65263","25.0715116666667","6501100","汐止區"
"221033","647-BX","2018/05/10 19:29:08","新北市汐止區南勢街1巷1號","121.627055","25.0375016666667","6501100","汐止區"
"221002","707-TV","2018/05/10 19:28:54","新北市汐止區大同路一段337巷16弄3號","121.637766666667","25.0600683333333","6501100","汐止區"
"220079","145-BY","2018/05/10 19:28:58","新北市板橋區建國街19號","121.457876666667","25.0170183333333","6500100","板橋區"
"220080","200-UY","2018/05/10 19:29:03","新北市板橋區大觀路二段37巷340號","121.450245","25.00225","6500100","板橋區"
"242002","KEA-2550","2018/05/10 19:28:55","新北市新莊區三和路12-21號","121.442006666667","25.037885","6500500","新莊區"
"220082","610-BX","2018/05/10 19:29:13","新北市板橋區金門街120-3號","121.432943333333","24.9916916666667","6500100","板橋區"
"220101","245-BX","2018/05/10 19:29:11","新北市板橋區萬板路188巷2弄2號","121.476238333333","25.0235716666667","6500100","板橋區"
"220056","276-BY","2018/05/10 19:29:09","新北市板橋區信義路1巷26弄36號","121.458726666667","24.9966383333333","6500100","板橋區"
"220071","283-VK","2018/05/10 19:29:13","新北市板橋區忠孝路48巷4弄83號","121.460438333333","25.0006583333333","6500100","板橋區"
"220094","285-UM","2018/05/10 19:28:57","新北市板橋區吳鳳路50巷7號","121.467866666667","25.0305116666667","6500100","板橋區"
"220053","285-VK","2018/05/10 19:29:02","新北市板橋區永豐街100號","121.475906666667","25.0204666666667","6500100","板橋區"
"220083","286-VK","2018/05/10 19:29:11","新北市板橋區龍興街71巷5號","121.44354","25.0019433333333","6500100","板橋區"
"220081","287-VK","2018/05/10 19:29:00","新北市板橋區南雅西路一段8號","121.454711666667","25.00456","6500100","板橋區"
"220090","288-VK","2018/05/10 19:29:08","新北市板橋區長江路一段106巷18弄7號","121.46002","25.0284366666667","6500100","板橋區"
"220061","293-UM","2018/05/10 19:29:06","新北市板橋區中山路二段216號","121.478023333333","25.01785","6500100","板橋區"
"220084","296-UM","2018/05/10 19:29:09","新北市板橋區篤行路三段玉平巷76弄2號","121.427891666667","24.9855666666667","6500100","板橋區"
"220075","303-R5","2018/05/10 19:28:57","新北市板橋區中正路253巷8號","121.455323333333","25.0182266666667","6500100","板橋區"
"220062","305-R5","2018/05/10 19:29:10","新北市板橋區三民路二段153巷4號","121.479631666667","25.0149116666667","6500100","板橋區"
"220092","307-R5","2018/05/10 19:29:05","新北市板橋區光武街2巷25號","121.46859","25.0256283333333","6500100","板橋區"
"220098","317-R6","2018/05/10 19:29:07","新北市板橋區四維路266巷5弄16號","121.463663333333","25.0289633333333","6500100","板橋區"
"220064","486-VK","2018/05/10 19:28:57","新北市板橋區中山路一段66號","121.461398333333","25.0098083333333","6500100","板橋區"
"220088","491-VK","2018/05/10 19:29:14","新北市板橋區雙十路二段4-5號","121.476933333333","25.025715","6500100","板橋區"
"220035","560-BX","2018/05/10 19:29:03","新北市板橋區中正路387號","121.454336666667","25.021705","6500100","板橋區"
"220103","561-BX","2018/05/10 19:29:00","新北市板橋區文化路一段210號","121.466496666667","25.0202066666667","6500100","板橋區"
"220063","609-BX","2018/05/10 19:29:14","新北市板橋區三民路一段31巷51號","121.48111","25.02335","6500100","板橋區"
"220055","630-UY","2018/05/10 19:29:06","新北市板橋區重慶路278巷10號","121.46256","24.999685","6500100","板橋區"
"220091","637-BX","2018/05/10 19:29:01","新北市板橋區文聖街149巷12號","121.479131666667","25.028185","6500100","板橋區"
"220057","686-BX","2018/05/10 19:29:00","新北市板橋區和平路159號","121.463608333333","24.9958633333333","6500100","板橋區"
"220077","687-BX","2018/05/10 19:29:15","新北市板橋區僑中二街114巷2號","121.445733333333","25.006855","6500100","板橋區"
"220093","689-BX","2018/05/10 19:28:56","新北市板橋區文化路一段180號","121.465608333333","25.0195766666667","6500100","板橋區"
"220054","741-BX","2018/05/10 19:29:01","新北市板橋區忠孝路201巷1號","121.465008333333","25.0026883333333","6500100","板橋區"
"220102","KEA-2699","2018/05/10 19:28:58","新北市板橋區雙十路二段130巷2弄3號","121.474311666667","25.0292083333333","6500100","板橋區"
"220067","829-TW","2018/05/10 19:29:03","新北市板橋區長安街138巷7弄57號","121.474148333333","25.0093016666667","6500100","板橋區"
"220096","830-TW","2018/05/10 19:29:00","新北市板橋區大同街14-4號","121.477436666667","25.026965","6500100","板橋區"
"220089","833-TW","2018/05/10 19:29:01","新北市板橋區文化路一段361號","121.466811666667","25.0211566666667","6500100","板橋區"
"220074","895-R6","2018/05/10 19:29:12","新北市板橋區北門街2號","121.457928333333","25.010385","6500100","板橋區"
"220073","985-R7","2018/05/10 19:28:58","新北市板橋區中正路301號","121.45511","25.019535","6500100","板橋區"
"220097","AAC-210","2018/05/10 19:29:09","新北市板橋區漢生西路153巷1號","121.462948333333","25.02264","6500100","板橋區"
"220070","AAC-253","2018/05/10 19:29:01","新北市板橋區四川路一段56號","121.459583333333","25.005745","6500100","板橋區"
