"lineid","car","time","location","longitude","latitude","cityid","cityname"
"234046","149-BY","2018/05/10 19:48:40","新北市永和區秀朗路二段173巷8弄5號","121.525841666667","25.002435","6500400","永和區"
"234007","207-UY","2018/05/10 19:48:28","新北市中和區中和路262號","121.508508333333","24.9996383333333","6500400","永和區"
"234081","298-R6","2018/05/10 19:48:46","新北市永和區林森路112巷8號","121.522515","25.0039066666667","6500400","永和區"
"234038","336-UY","2018/05/10 19:48:28","新北市永和區民樂街55巷12號","121.527981666667","24.9985383333333","6500400","永和區"
"234064","337-UY","2018/05/10 19:48:40","新北市永和區中正路368巷21號","121.518348333333","25.000835","6500400","永和區"
"234086","338-UY","2018/05/10 19:48:33","新北市永和區中正路487號","121.516975","25.0065783333333","6500400","永和區"
"234070","552-UM","2018/05/10 19:48:29","新北市永和區竹林路72巷2號","121.518921666667","25.013005","6500400","永和區"
"234017","745-BX","2018/05/10 19:48:29","新北市永和區永和路二段299號","121.515931666667","25.0162516666667","6500400","永和區"
"234030","746-BX","2018/05/10 19:48:32","新北市永和區民生路67巷33號","121.52459","24.99744","6500400","永和區"
"234054","KEA-2590","2018/05/10 19:48:34","新北市永和區竹林路75巷25弄8號","121.520186666667","25.0143966666667","6500400","永和區"
"234013","KEA-2591","2018/05/10 19:48:48","新北市永和區仁愛路231號","121.509255","25.0121366666667","6500400","永和區"
"234061","AAD-866","2018/05/10 19:48:46","新北市永和區民有街1號","121.515753333333","24.997405","6500400","永和區"
"234042","862-TW","2018/05/10 19:48:45","新北市永和區中和路389巷44弄2號","121.508041666667","25.0021166666667","6500400","永和區"
"234050","863-TW","2018/05/10 19:48:29","新北市永和區保安路142巷1號","121.5084","25.015045","6500400","永和區"
"234026","9371-KE","2018/05/10 19:48:32","新北市永和區雙和街25巷3號","121.509008333333","25.0019433333333","6500400","永和區"
"249001","173-UM","2018/05/10 19:48:38","新北市八里區中華路二段252號","121.405388333333","25.1497083333333","6502300","八里區"
"249004","303-UY","2018/05/10 19:48:29","新北市八里區仁愛路15號","121.413531666667","25.161","6502300","八里區"
"249002","305-UY","2018/05/10 19:48:42","新北市八里區頂寮五街17號","121.451545","25.126015","6502300","八里區"
"249003","759-BX","2018/05/10 19:48:39","新北市八里區中華路二段560巷3號","121.398511666667","25.1451716666667","6502300","八里區"
"248014","025-BX","2018/05/10 19:48:41","新北市五股區五福路52巷17號","121.434248333333","25.0901633333333","6501500","五股區"
"248016","026-BX","2018/05/10 19:48:45","新北市五股區成泰路三段601巷5號","121.45212","25.1032483333333","6501500","五股區"
"248008","095-VK","2018/05/10 19:48:13","新北市五股區國道路三段1號","121.46992","25.07519","6501500","五股區"
"248020","225-UY","2018/05/10 19:48:33","新北市五股區中直路27號","121.420816666667","25.1140433333333","6501500","五股區"
"248012","247-BX","2018/05/10 19:48:37","新北市五股區蓬萊路24號","121.433905","25.0799316666667","6501500","五股區"
"248010","272-BY","2018/05/10 19:48:41","新北市五股區登林路貿商巷1弄1號","121.430471666667","25.0696533333333","6501500","五股區"
"248004","677-BX","2018/05/10 19:48:43","新北市五股區成泰路一段106-1號","121.435676666667","25.07206","6501500","五股區"
"248002","678-BX","2018/05/10 19:48:35","新北市五股區成泰路四段12-1號","121.453271666667","25.1066216666667","6501500","五股區"
"234077","969-R7","2018/05/10 19:48:38","新北市永和區智光街53號","121.517218333333","24.99793","6500400","永和區"
"234074","AAC-211","2018/05/10 19:48:44","新北市永和區竹林路213巷7號","121.521325","25.0089166666667","6500400","永和區"
"234067","AAC-212","2018/05/10 19:48:47","新北市永和區永貞路410號","121.509083333333","25.0078816666667","6500400","永和區"
"234003","AAC-295","2018/05/10 19:48:48","新北市永和區福和路316號","121.516105","25.0074166666667","6500400","永和區"
"243013","AAD-798","2018/05/10 19:36:36","新北市泰山區應化街7號","121.423886666667","25.04371","6501600","泰山區"
"243009","297-R6","2018/05/10 19:48:41","新北市泰山區美寧街69號","121.430983333333","25.0647366666667","6501600","泰山區"
"243016","380-SR","2018/05/10 19:48:47","新北市泰山區中山路三段114號","121.417903333333","25.032185","6501600","泰山區"
"243015","421-VK","2018/05/10 19:48:32","新北市新莊區壽山路103-1號","121.410808333333","25.0389433333333","6501600","泰山區"
"243011","KEA-2215","2018/05/10 19:48:35","新北市泰山區明志路三段204巷10弄20號","121.423005","25.0387383333333","6501600","泰山區"
"243010","KEA-2216","2018/05/10 19:48:37","新北市泰山區民生路33號","121.430755","25.0521983333333","6501600","泰山區"
"243012","646-TV","2018/05/10 19:48:29","新北市泰山區全興路18巷29號","121.43191","25.0583816666667","6501600","泰山區"
"243014","680-BX","2018/05/10 19:48:42","新北市泰山區泰林路二段33-8號","121.435191666667","25.0566216666667","6501600","泰山區"
"222003","436-BY","2018/05/10 19:30:21","新北市深坑區深南路51-1號","121.621118333333","25.009945","6501800","深坑區"
"222002","659-BX","2018/05/10 19:48:47","新北市深坑區翠谷街1號","121.625926666667","25.0072716666667","6501800","深坑區"
"231041","002-UM","2018/05/10 19:48:47","新北市新店區中央路151號","121.529341666667","24.972155","6500600","新店區"
"231059","046-UY","2018/05/10 19:48:34","新北市新店區安和路二段185號","121.51826","24.9749716666667","6500600","新店區"
"231040","047-UY","2018/05/10 19:48:42","新北市新店區中正路75巷71號","121.543208333333","24.9688633333333","6500600","新店區"
"231044","106-UY","2018/05/10 19:48:31","新北市新店區復興路44-3號","121.538473333333","24.9867833333333","6500600","新店區"
"231046","107-UY","2018/05/10 19:48:38","新北市新店區三民路159巷19弄50號","121.532136666667","24.973175","6500600","新店區"
"231052","108-UY","2018/05/10 19:48:36","新北市新店區新烏路三段162號","121.551635","24.9024116666667","6500600","新店區"
"231047","187-VK","2018/05/10 19:48:45","新北市新店區寶興路49號","121.54921","24.9732866666667","6500600","新店區"
"231054","KEA-2219","2018/05/10 19:48:42","新北市新店區光明街84號","121.538751666667","24.9601083333333","6500600","新店區"
"231057","256-BX","2018/05/10 19:48:29","新北市新店區花園二路三段19號","121.556536666667","24.93139","6500600","新店區"
"231042","268-BY","2018/05/10 19:48:33","新北市新店區中興路一段263號","121.54469","24.967385","6500600","新店區"
"231051","278-BY","2018/05/10 19:48:38","新北市新店區中央三街83號","121.52598","24.9756933333333","6500600","新店區"
"231050","AAD-862","2018/05/10 19:48:34","新北市新店區郵政路99號","121.554395","24.9514516666667","6500600","新店區"
"231058","3713-VJ","2018/05/10 19:48:47","新北市新店區中正路131號","121.541861666667","24.9713333333333","6500600","新店區"
"231056","4715-K9","2018/05/10 19:48:34","新北市新店區中央路103號","121.531081666667","24.974835","6500600","新店區"
"231067","4772-VM","2018/05/10 19:48:43","新北市新店區精忠路10-1號","121.532653333333","24.959105","6500600","新店區"
"231065","512-UM","2018/05/10 19:48:31","新北市新店區安祥路109巷90弄18號","121.477486666667","24.9595533333333","6500600","新店區"
"231049","513-UM","2018/05/10 19:48:36","新北市新店區民權路101-2號","121.53668","24.98292","6500600","新店區"
"231063","616-UM","2018/05/10 19:48:33","新北市新店區車子路11號","121.50305","24.9520333333333","6500600","新店區"
"231061","619-UM","2018/05/10 19:48:40","新北市新店區安民街115巷3號","121.516185","24.9684783333333","6500600","新店區"
"231068","718-UY","2018/05/10 19:48:45","新北市新店區安一路一段1-1號","121.519503333333","24.9611233333333","6500600","新店區"
"231064","719-UM","2018/05/10 19:48:27","新北市新店區安和路一段52巷2號","121.517626666667","24.9661716666667","6500600","新店區"
"231062","720-UM","2018/05/10 19:48:41","新北市新店區永業路88號","121.530773333333","24.9513666666667","6500600","新店區"
"231060","897-TW","2018/05/10 19:48:44","新北市新店區安康路二段199號","121.509151666667","24.959015","6500600","新店區"
"231045","898-TW","2018/05/10 19:48:30","新北市新店區中生路83巷3號","121.564705","24.9518783333333","6500600","新店區"
"231043","899-TW","2018/05/10 19:48:38","新北市新店區中正路213號","121.539776666667","24.97282","6500600","新店區"
"231055","AKT-0513","2018/05/10 19:48:40","新北市新店區力行路14巷16弄2號","121.539163333333","24.9654516666667","6500600","新店區"
"241011","013-R5","2018/05/10 19:48:44","新北市三重區介壽路41號","121.498636666667","25.07015","6500200","三重區"
"241008","059-VK","2018/05/10 19:48:47","新北市三重區永福街147-8號","121.47868","25.0761183333333","6500200","三重區"
"241009","060-VK","2018/05/10 19:48:27","新北市三重區三和路四段398號","121.481506666667","25.0791566666667","6500200","三重區"
"241031","061-VK","2018/05/10 19:48:30","新北市三重區重新路四段250-1號","121.485996666667","25.0533766666667","6500200","三重區"
"241015","062-VK","2018/05/10 19:48:44","新北市三重區三和路一段2號","121.503933333333","25.0643833333333","6500200","三重區"
"241017","063-VK","2018/05/10 19:48:30","新北市三重區重陽路三段9號","121.48943","25.06652","6500200","三重區"
"241024","065-VK","2018/05/10 19:48:32","新北市三重區力行路一段188巷10號","121.480301666667","25.07218","6500200","三重區"
"241026","066-VK","2018/05/10 19:48:44","新北市三重區文化南路42號","121.50036","25.060215","6500200","三重區"
"241003","091-VK","2018/05/10 19:48:44","新北市三重區五華街93巷21號","121.492448333333","25.083925","6500200","三重區"
"241028","265-UM","2018/05/10 19:48:47","新北市三重區中正南路163號","121.493818333333","25.0560166666667","6500200","三重區"
"241016","266-UM","2018/05/10 19:48:35","新北市三重區正德街58號","121.495565","25.0633633333333","6500200","三重區"
"241022","267-UM","2018/05/10 19:48:40","新北市三重區新北大道一段7號","121.48974","25.061575","6500200","三重區"
"241018","268-UM","2018/05/10 19:48:28","新北市三重區雙園街57巷34弄27號","121.493788333333","25.0683","6500200","三重區"
"241032","269-UM","2018/05/10 19:48:28","新北市三重區重陽路一段60巷30弄1號","121.485425","25.0577916666667","6500200","三重區"
"241013","270-UM","2018/05/10 19:48:46","新北市三重區仁愛街112巷16號","121.494596666667","25.07401","6500200","三重區"
"241025","271-UM","2018/05/10 19:48:28","新北市三重區忠孝路三段54號","121.48064","25.0655616666667","6500200","三重區"
"241007","398-BY","2018/05/10 19:48:46","新北市三重區三和路四段125巷14號","121.485313333333","25.0780533333333","6500200","三重區"
"241020","413-TH","2018/05/10 19:48:29","新北市三重區三和路四段8號","121.491346666667","25.07374","6500200","三重區"
"241035","462-BY","2018/05/10 19:48:47","新北市三重區大榮街53號","121.499183333333","25.0635266666667","6500200","三重區"
"241004","475-VK","2018/05/10 19:48:31","新北市三重區五華街74號","121.493386666667","25.0820633333333","6500200","三重區"
"241030","480-VK","2018/05/10 19:48:28","新北市三重區環河南路254巷22-1號","121.490383333333","25.0509116666667","6500200","三重區"
"241014","543-UM","2018/05/10 19:48:35","新北市三重區長元街98巷18弄13號","121.502096666667","25.0675733333333","6500200","三重區"
"241023","545-UM","2018/05/10 19:48:38","新北市三重區頂崁街168號","121.47757","25.065905","6500200","三重區"
"241001","547-UM","2018/05/10 19:48:41","新北市三重區仁愛街327巷80號","121.493916666667","25.080525","6500200","三重區"
"241006","AAD-863","2018/05/10 19:48:46","新北市三重區永福街301號","121.483883333333","25.074585","6500200","三重區"
"241019","887-TS","2018/05/10 19:48:27","新北市三重區自強路二段74巷23-1號","121.487848333333","25.0697466666667","6500200","三重區"
"241012","941-UM","2018/05/10 19:48:39","新北市三重區仁福街64巷17號","121.497688333333","25.0752383333333","6500200","三重區"
"241029","942-UM","2018/05/10 19:48:42","新北市三重區光明路37巷1號","121.491228333333","25.058245","6500200","三重區"
"241033","AAC-255","2018/05/10 19:48:38","新北市三重區中興南街31-3號","121.470781666667","25.0437616666667","6500200","三重區"
"235063","006-UY","2018/05/10 19:48:37","新北市中和區連城路263巷12號","121.492411666667","24.9951366666667","6500300","中和區"
"235047","031-BX","2018/05/10 19:48:33","新北市中和區南山路281號","121.504266666667","24.992305","6500300","中和區"
"235056","096-UM","2018/05/10 19:48:33","新北市中和區員山路581巷2弄1號","121.47792","25.0093983333333","6500300","中和區"
"235039","097-UM","2018/05/10 19:48:32","新北市中和區景平路172號","121.517006666667","24.992655","6500300","中和區"
"235058","151-BY","2018/05/10 19:48:42","新北市中和區員山路146巷24號","121.482481666667","24.9967","6500300","中和區"
"235055","183-VK","2018/05/10 19:48:28","新北市中和區中山路三段181巷18弄41號","121.472466666667","25.0050583333333","6500300","中和區"
"235038","185-VK","2018/05/10 19:48:45","新北市中和區自強路10號","121.520345","24.9958766666667","6500300","中和區"
"235049","186-VK","2018/05/10 19:48:49","新北市中和區中興街53號","121.500641666667","24.9939616666667","6500300","中和區"
"235067","255-BX","2018/05/10 19:48:32","新北市中和區新生街186巷1弄28號","121.483303333333","24.9985066666667","6500300","中和區"
"235044","293-VK","2018/05/10 19:48:31","新北市中和區南山路186號","121.50572","24.990585","6500300","中和區"
"235072","301-VK","2018/05/10 19:48:28","新北市中和區錦和路91-1號","121.490071666667","24.99572","6500300","中和區"
"235043","352-BY","2018/05/10 19:48:48","新北市中和區華新街232巷2號","121.506085","24.9818316666667","6500300","中和區"
"235068","377-QA","2018/05/10 19:48:28","新北市中和區莊敬路16巷15弄5號","121.500331666667","25.0038383333333","6500300","中和區"
"235061","378-QA","2018/05/10 19:48:35","新北市中和區員山路226巷18號","121.481905","25.00036","6500300","中和區"
"235050","4979-A6","2018/05/10 19:48:33","新北市中和區景平路329巷2弄2號","121.50583","24.9930266666667","6500300","中和區"
"235069","4980-A6","2018/05/10 19:48:42","新北市中和區員山路36巷16-8號","121.485355","24.99217","6500300","中和區"
"235042","551-UM","2018/05/10 19:48:42","新北市中和區保健路46巷22弄5號","121.508556666667","24.99593","6500300","中和區"
"235070","558-UM","2018/05/10 19:48:42","新北市中和區圓通路135號","121.498896666667","24.9958","6500300","中和區"
"235045","565-BX","2018/05/10 19:48:34","新北市中和區景平路149號","121.513811666667","24.9921416666667","6500300","中和區"
"235054","640-BX","2018/05/10 19:48:39","新北市中和區莒光路14號","121.472123333333","25.0043533333333","6500300","中和區"
"235060","647-TV","2018/05/10 19:48:26","新北市中和區新生街16巷21弄2號","121.48224","25.0042933333333","6500300","中和區"
"235046","733-UM","2018/05/10 19:48:42","新北市中和區仁愛街64號","121.511233333333","24.9878183333333","6500300","中和區"
"235071","783-BX","2018/05/10 19:48:38","新北市中和區中板路30號","121.482973333333","25.0120933333333","6500300","中和區"
"235057","801-TS","2018/05/10 19:48:45","新北市中和區員山路144號","121.481228333333","24.9965483333333","6500300","中和區"
"235041","802-TS","2018/05/10 19:48:28","新北市中和區中安街40巷8號","121.512786666667","25.00307","6500300","中和區"
"235052","805-TS","2018/05/10 19:48:44","新北市中和區興南路二段121號","121.5056","24.98413","6500300","中和區"
"235048","896-TW","2018/05/10 19:48:40","新北市中和區興南路一段140號","121.50922","24.9881066666667","6500300","中和區"
"235053","900-TW","2018/05/10 19:48:42","新北市中和區國光街189巷29號","121.467751666667","25.000595","6500300","中和區"
"235066","911-UM","2018/05/10 19:48:45","新北市中和區南工路50號","121.505905","25.0014316666667","6500300","中和區"
"235051","157-BY","2018/05/10 19:48:35","新北市中和區中興街111號","121.499883333333","24.9922283333333","6500300","中和區"
"235037","AAC-213","2018/05/10 19:48:31","新北市中和區自立路193號","121.524338333333","24.9913133333333","6500300","中和區"
"235059","AAC-215","2018/05/10 19:48:41","新北市中和區圓通路305巷13弄2號","121.494296666667","24.9897016666667","6500300","中和區"
"220068","013-TV","2018/05/10 19:48:46","新北市板橋區中山路二段412巷12號","121.483246666667","25.02044","6500100","板橋區"
"220065","072-UY","2018/05/10 19:48:46","新北市板橋區民族路276巷42號","121.469481666667","25.0058083333333","6500100","板橋區"
"220086","073-UY","2018/05/10 19:48:37","新北市板橋區南雅西路二段2-1號","121.453325","25.0087916666667","6500100","板橋區"
"220106","075-UY","2018/05/10 19:48:46","新北市板橋區文化路二段606號","121.477171666667","25.03506","6500100","板橋區"
"220069","AAD-861","2018/05/10 19:48:41","新北市板橋區貴興路119巷1弄1號","121.455723333333","25.0023083333333","6500100","板橋區"
"247024","893-R6","2018/05/10 19:48:34","新北市蘆洲區光復路6號","121.462438333333","25.0842233333333","6501400","蘆洲區"
"247014","546-UM","2018/05/10 19:48:46","新北市蘆洲區中央路103-1號","121.472053333333","25.083985","6501400","蘆洲區"
"247004","337-TH","2018/05/10 19:48:27","新北市蘆洲區中原路21巷5號","121.460946666667","25.0824233333333","6501400","蘆洲區"
"247006","336-TH","2018/05/10 19:48:39","新北市蘆洲區永安南路二段34號","121.466938333333","25.0770833333333","6501400","蘆洲區"
"247008","056-VK","2018/05/10 19:48:30","新北市蘆洲區信義路133號","121.479033333333","25.0803533333333","6501400","蘆洲區"
"247002","002-UY","2018/05/10 19:48:45","新北市蘆洲區長榮路530-1號","121.45985","25.090575","6501400","蘆洲區"
"226004","312-R5","2018/05/10 19:48:39","新北市平溪區十分里十分街302號","121.776308333333","25.0445866666667","6502400","平溪區"
"235065","251-BX","2018/05/10 19:48:39","新北市中和區中山路二段181號","121.500756666667","25.0027316666667","6500300","中和區"
"228003","097-TW","2018/05/10 19:48:41","新北市貢寮區真理里美艷山街9號","121.92728","25.0598033333333","6502600","貢寮區"
"228001","212-TW","2018/05/10 19:48:40","新北市貢寮區真理里新港街113-2號","121.926348333333","25.0566516666667","6502600","貢寮區"
"224010","AGQ-8101","2018/05/10 19:48:36","新北市瑞芳區輕便路338-1號","121.8398","25.1087066666667","6501200","瑞芳區"
"224002","639-TC","2018/05/10 19:48:43","新北市瑞芳區民享新村23號","121.817268333333","25.105435","6501200","瑞芳區"
"227010","642-TC","2018/05/10 19:48:40","新北市雙溪區新基里中華路73號","121.865805","25.0383066666667","6502500","雙溪區"
"227004","400-TW","2018/05/10 19:48:45","新北市雙溪區雙溪里內挖路36號","121.863193333333","25.0367833333333","6502500","雙溪區"
"222001","KEA-2212","2018/05/10 19:48:36","新北市深坑區北深路三段71號","121.606808333333","25.00138","6501800","深坑區"
"208002","KEA-2872","2018/05/10 19:48:30","新北市金山區四維路31號","121.6347","25.2229933333333","6502700","金山區"
"208003","665-BX","2018/05/10 19:48:41","新北市金山區中正路136號","121.631991666667","25.2214633333333","6502700","金山區"
"251009","008-UM","2018/05/10 19:48:39","新北市淡水區中正路32號","121.443903333333","25.169185","6501000","淡水區"
"251005","010-UM","2018/05/10 19:48:37","新北市淡水區原德路5-1號","121.44204","25.1711533333333","6501000","淡水區"
"251001","011-UM","2018/05/10 19:48:39","新北市淡水區中正東路二段81號","121.45947","25.1535433333333","6501000","淡水區"
"251013","KEA-2871","2018/05/10 19:48:36","新北市淡水區頂田寮1-1號","121.45886","25.2142866666667","6501000","淡水區"
"251014","180-VK","2018/05/10 19:48:32","新北市淡水區番社前4-2號","121.472508333333","25.2370316666667","6501000","淡水區"
"251008","181-VK","2018/05/10 19:48:31","新北市淡水區中正路二段24巷2-1號","121.426851666667","25.1768883333333","6501000","淡水區"
"251015","182-VK","2018/05/10 19:48:33","新北市淡水區竹圍子5-1號","121.482791666667","25.1926116666667","6501000","淡水區"
"251012","441-VK","2018/05/10 19:48:43","新北市淡水區淡金路三段66號","121.448258333333","25.1998816666667","6501000","淡水區"
"251007","442-VK","2018/05/10 19:48:43","新北市淡水區中正東路一段3巷21號","121.451928333333","25.1660316666667","6501000","淡水區"
"251006","561-UM","2018/05/10 19:48:46","新北市淡水區水碓街15號","121.443505","25.1769733333333","6501000","淡水區"
"251016","575-R6","2018/05/10 19:48:44","新北市淡水區三塊厝4-1號","121.45741","25.2115016666667","6501000","淡水區"
"251011","650-BX","2018/05/10 19:48:40","新北市淡水區淡金路二段30號","121.452366666667","25.1812283333333","6501000","淡水區"
"251003","766-UM","2018/05/10 19:48:44","新北市淡水區崁頂145號","121.430403333333","25.20597","6501000","淡水區"
"207003","550-UM","2018/05/10 19:48:43","新北市萬里區大鵬里萬里加投68-6號","121.642498333333","25.2153566666667","6502800","萬里區"
"207004","225-TW","2018/05/10 19:48:35","新北市萬里區萬里里瑪鋉路134號","121.69045","25.179325","6502800","萬里區"
"252002","178-VK","2018/05/10 19:48:41","新北市三芝區三民街35號","121.504731666667","25.2585866666667","6502100","三芝區"
"252001","292-VK","2018/05/10 19:48:40","新北市三芝區公正街66號","121.499781666667","25.2574266666667","6502100","三芝區"
"208001","170-UY","2018/05/10 19:48:44","新北市金山區重和里六股林口39號","121.60246","25.2194466666667","6502700","金山區"
"237004","KEA-2597","2018/05/10 19:48:36","新北市三峽區插角27號","121.40453","24.8727283333333","6500900","三峽區"
"237007","153-BY","2018/05/10 19:48:36","新北市三峽區二鬮路136巷20弄79號","121.357856666667","24.9090516666667","6500900","三峽區"
"237009","210-TH","2018/05/10 19:48:37","新北市三峽區清水街426號","121.36874","24.926145","6500900","三峽區"
"237013","252-BX","2018/05/10 19:48:29","新北市三峽區溪北街99號","121.397973333333","24.9355416666667","6500900","三峽區"
"237012","275-BY","2018/05/10 19:48:38","新北市三峽區光明路1-11號","121.372743333333","24.9322116666667","6500900","三峽區"
"237008","302-VK","2018/05/10 19:48:44","新北市三峽區中正路一段292巷14號","121.370951666667","24.92606","6500900","三峽區"
"237014","433-BY","2018/05/10 19:48:46","新北市三峽區嘉添109-11號","121.369216666667","24.9097033333333","6500900","三峽區"
"237006","5529-G3","2018/05/10 19:48:40","新北市三峽區中正路一段336巷15弄2號","121.36996","24.9249683333333","6500900","三峽區"
"237010","706-TV","2018/05/10 19:48:44","新北市三峽區復興路36號","121.3742","24.9363966666667","6500900","三峽區"
"237005","AKY-6261","2018/05/10 19:48:44","新北市三峽區和平街47號","121.370315","24.9358266666667","6500900","三峽區"
"236070","105-UM","2018/05/10 19:48:42","新北市土城區中央路二段192巷5號","121.441196666667","24.975925","6501300","土城區"
"236042","107-UM","2018/05/10 19:48:46","新北市土城區裕民路288號","121.45568","24.9818383333333","6501300","土城區"
"236078","166-UM","2018/05/10 19:48:38","新北市土城區中央路四段322號","121.413616666667","24.955775","6501300","土城區"
"236030","253-BX","2018/05/10 19:48:42","新北市土城區中央路一段294號","121.443311666667","24.9823733333333","6501300","土城區"
"236026","269-VK","2018/05/10 19:48:40","新北市土城區中央路二段61巷28號","121.443411666667","24.978775","6501300","土城區"
"236038","271-VK","2018/05/10 19:48:46","新北市土城區國際路158巷32號","121.468278333333","24.97557","6501300","土城區"
"236021","752-BX","2018/05/10 19:48:38","新北市土城區延吉街137巷6號","121.470846666667","24.9857616666667","6501300","土城區"
"236059","912-UM","2018/05/10 19:48:30","新北市土城區中央路一段245-1號","121.445266666667","24.985985","6501300","土城區"
"236049","913-UM","2018/05/10 19:48:37","新北市土城區青雲路222號","121.458963333333","24.9811066666667","6501300","土城區"
"236063","915-UM","2018/05/10 19:48:46","新北市土城區延和路105巷3弄1號","121.467346666667","24.990805","6501300","土城區"
"236055","AAC-216","2018/05/10 19:48:37","新北市土城區延和路57號","121.466598333333","24.98965","6501300","土城區"
"242034","AAC-296","2018/05/10 19:48:46","新北市新莊區仁愛街54巷1號","121.444988333333","25.037185","6500500","新莊區"
"242058","986-R7","2018/05/10 19:48:32","新北市新莊區中正路400號","121.441931666667","25.0343166666667","6500500","新莊區"
"242027","615-BX","2018/05/10 19:48:31","新北市新莊區中平路377巷28號","121.443081666667","25.0525816666667","6500500","新莊區"
"242029","612-BX","2018/05/10 19:48:37","新北市新莊區中平路254號","121.444941666667","25.04926","6500500","新莊區"
"242056","440-UM","2018/05/10 19:48:45","新北市新莊區新莊路453號","121.449633333333","25.0333666666667","6500500","新莊區"
"242007","413-TV","2018/05/10 19:48:43","新北市新莊區思源路593巷30號","121.457533333333","25.0596783333333","6500500","新莊區"
"242023","362-BY","2018/05/10 19:48:47","新北市新莊區化成路69號","121.465493333333","25.046105","6500500","新莊區"
"242039","133-UY","2018/05/10 19:48:29","新北市新莊區民安路309號","121.429935","25.022695","6500500","新莊區"
"242031","135-UY","2018/05/10 19:48:41","新北市新莊區忠孝街43號","121.443855","25.0358766666667","6500500","新莊區"
"242048","172-VK","2018/05/10 19:48:41","新北市新莊區建安街76巷3弄18號","121.425653333333","25.0247916666667","6500500","新莊區"
"242011","173-VK","2018/05/10 19:48:09","新北市新莊區中原路656號","121.443353333333","25.0543433333333","6500500","新莊區"
"242004","176-VK","2018/05/10 19:48:27","新北市新莊區化成路63巷24弄1號","121.463033333333","25.0459166666667","6500500","新莊區"
"242036","349-TH","2018/05/10 19:48:44","新北市新莊區建安街66號","121.426928333333","25.0245766666667","6500500","新莊區"
"242019","350-TH","2018/05/10 19:48:40","新北市新莊區和興街1號","121.447528333333","25.0387283333333","6500500","新莊區"
"242013","351-TH","2018/05/10 19:48:37","新北市新莊區中泰街38巷7號","121.450706666667","25.0472766666667","6500500","新莊區"
"238015","755-BX","2018/05/10 19:48:41","新北市樹林區中山路一段276號","121.420828333333","24.9870666666667","6500700","樹林區"
"238023","601-UM","2018/05/10 19:48:42","新北市樹林區三福街85巷8號","121.407193333333","25.0154883333333","6500700","樹林區"
"238021","KEA-2217","2018/05/10 19:48:39","新北市樹林區佳園路三段101巷38弄45號","121.391958333333","24.94972","6500700","樹林區"
"238017","283-BY","2018/05/10 19:48:42","新北市樹林區保安街二段45巷14號","121.415508333333","25.0001383333333","6500700","樹林區"
"238014","282-BY","2018/05/10 19:48:38","新北市樹林區千歲街63-8號","121.426775","24.9983383333333","6500700","樹林區"
"239006","891-R6","2018/05/10 19:48:32","新北市鶯歌區永昌街15號","121.34307","24.9497883333333","6500800","鶯歌區"
"239004","193-VK","2018/05/10 19:48:40","新北市鶯歌區二甲路68號","121.336623333333","24.9343266666667","6500800","鶯歌區"
"221008","489-VK","2018/05/10 19:48:47","新北市汐止區康寧街87號","121.619891666667","25.066455","6501100","汐止區"
"221036","130-UY","2018/05/10 19:48:15","新北市汐止區汐萬路一段292號","121.650646666667","25.074405","6501100","汐止區"
"221015","131-UY","2018/05/10 19:48:32","新北市汐止區忠孝東路363號","121.665571666667","25.0708333333333","6501100","汐止區"
"221010","269-BY","2018/05/10 19:48:47","新北市汐止區八連路一段13號","121.64775","25.0807083333333","6501100","汐止區"
"221012","278-VK","2018/05/10 19:48:40","新北市汐止區保長路273巷2號","121.681233333333","25.0740216666667","6501100","汐止區"
"221023","279-VK","2018/05/10 19:48:31","新北市汐止區民族三街43號","121.629848333333","25.0699766666667","6501100","汐止區"
"221032","280-BY","2018/05/10 19:48:37","新北市汐止區汐萬路一段312號","121.650443333333","25.07512","6501100","汐止區"
"221027","281-BY","2018/05/10 19:48:33","新北市汐止區新昌路21號","121.661648333333","25.0679766666667","6501100","汐止區"
"221029","298-VK","2018/05/10 19:48:33","新北市汐止區康寧街901號","121.651443333333","25.0749883333333","6501100","汐止區"
"221021","299-VK","2018/05/10 19:48:35","新北市汐止區莊敬街27號","121.65696","25.061215","6501100","汐止區"
"221031","353-TW","2018/05/10 19:48:45","新北市汐止區福德三路61號","121.637228333333","25.0693383333333","6501100","汐止區"
"221035","622-UM","2018/05/10 19:48:38","新北市汐止區長江街13巷6弄2號","121.654708333333","25.07162","6501100","汐止區"
"221025","623-UM","2018/05/10 19:48:31","新北市汐止區秀峰路81巷15弄2號","121.660775","25.0644233333333","6501100","汐止區"
"221038","646-BX","2018/05/10 19:48:45","新北市汐止區忠孝東路317號","121.66475","25.0693666666667","6501100","汐止區"
"221033","647-BX","2018/05/10 19:48:28","新北市汐止區東勢街68號","121.6329","25.0395666666667","6501100","汐止區"
"220079","145-BY","2018/05/10 19:48:38","新北市板橋區中正路183巷44號","121.455075","25.0160416666667","6500100","板橋區"
"220080","200-UY","2018/05/10 19:48:42","新北市板橋區大觀路二段37巷10號","121.44723","25.00276","6500100","板橋區"
"220082","610-BX","2018/05/10 19:48:33","新北市板橋區溪崑二街48號","121.42813","24.9906883333333","6500100","板橋區"
"220101","245-BX","2018/05/10 19:48:45","新北市板橋區縣民大道三段93巷34號","121.474718333333","25.0224683333333","6500100","板橋區"
"220056","276-BY","2018/05/10 19:48:49","新北市板橋區四川路二段99巷2弄2號","121.45266","24.9944933333333","6500100","板橋區"
"220071","283-VK","2018/05/10 19:48:33","新北市板橋區信義路279巷16號","121.464868333333","24.9913033333333","6500100","板橋區"
"220094","285-UM","2018/05/10 19:48:37","新北市板橋區吳鳳路81巷1號","121.466855","25.0313866666667","6500100","板橋區"
"220053","285-VK","2018/05/10 19:48:42","新北市板橋區中山路二段60巷36號","121.474553333333","25.0146016666667","6500100","板橋區"
"220083","286-VK","2018/05/10 19:48:31","新北市板橋區僑中二街10巷2號","121.446898333333","25.0110883333333","6500100","板橋區"
"220081","287-VK","2018/05/10 19:48:40","新北市板橋區大觀路一段29巷131弄31號","121.450548333333","25.0044633333333","6500100","板橋區"
"220090","288-VK","2018/05/10 19:48:28","新北市板橋區龍泉街54巷8弄14號","121.457441666667","25.0269016666667","6500100","板橋區"
"220061","293-UM","2018/05/10 19:48:26","新北市板橋區漢生東路113巷6弄2號","121.467625","25.0152016666667","6500100","板橋區"
"220084","296-UM","2018/05/10 19:48:29","新北市板橋區溪崑二街145號","121.426245","24.9881616666667","6500100","板橋區"
"220075","303-R5","2018/05/10 19:48:38","新北市板橋區金華街7號","121.455795","25.0203183333333","6500100","板橋區"
"220062","305-R5","2018/05/10 19:48:30","新北市板橋區光復街31巷1號","121.481563333333","25.01898","6500100","板橋區"
"220092","307-R5","2018/05/10 19:48:44","新北市板橋區文化路一段383號","121.467281666667","25.0217783333333","6500100","板橋區"
"220098","317-R6","2018/05/10 19:48:47","新北市板橋區四維路279巷79弄3號","121.459903333333","25.0271016666667","6500100","板橋區"
"220064","486-VK","2018/05/10 19:48:37","新北市板橋區實踐路74號","121.463728333333","25.0055416666667","6500100","板橋區"
"220088","491-VK","2018/05/10 19:48:34","新北市板橋區仁化街103號","121.476653333333","25.0323033333333","6500100","板橋區"
"220035","560-BX","2018/05/10 19:48:43","新北市板橋區金華街47號","121.456693333333","25.0204333333333","6500100","板橋區"
"220103","561-BX","2018/05/10 19:48:40","新北市板橋區陽明街23巷8弄15號","121.465475","25.0205683333333","6500100","板橋區"
"220063","609-BX","2018/05/10 19:48:49","新北市板橋區三民路一段96號","121.479365","25.021475","6500100","板橋區"
"220055","630-UY","2018/05/10 19:48:37","新北市板橋區國慶路149巷29弄16號","121.460285","24.9976","6500100","板橋區"
"220091","637-BX","2018/05/10 19:48:34","新北市板橋區懷德街127巷48-3號","121.480411666667","25.0317","6500100","板橋區"
"220057","686-BX","2018/05/10 19:48:40","新北市板橋區廣權路9號","121.46062","24.99129","6500100","板橋區"
"220077","687-BX","2018/05/10 19:48:35","新北市板橋區僑中一街124巷1弄2號","121.445911666667","25.0121366666667","6500100","板橋區"
"220093","689-BX","2018/05/10 19:48:36","新北市板橋區新海路384號","121.459053333333","25.0261516666667","6500100","板橋區"
"220054","741-BX","2018/05/10 19:48:44","新北市板橋區忠孝路忠義巷21弄1號","121.466693333333","25.0039383333333","6500100","板橋區"
"220102","KEA-2699","2018/05/10 19:48:38","新北市板橋區松柏街59-4號","121.475763333333","25.0303916666667","6500100","板橋區"
"220067","829-TW","2018/05/10 19:48:42","新北市板橋區漢生東路193巷57號","121.471838333333","25.01174","6500100","板橋區"
"220096","830-TW","2018/05/10 19:48:40","新北市板橋區民生路二段226巷10弄2號","121.470593333333","25.0218816666667","6500100","板橋區"
"220089","833-TW","2018/05/10 19:48:41","新北市板橋區公館街110號","121.460985","25.0167583333333","6500100","板橋區"
"220074","895-R6","2018/05/10 19:48:32","新北市板橋區東門街32號","121.458395","25.0079666666667","6500100","板橋區"
"220073","985-R7","2018/05/10 19:48:38","新北市板橋區大仁街94號","121.453566666667","25.01618","6500100","板橋區"
"220097","AAC-210","2018/05/10 19:48:29","新北市板橋區文化路一段285巷2弄1號","121.464595","25.0190466666667","6500100","板橋區"
"220070","AAC-253","2018/05/10 19:48:41","新北市板橋區民族路83號","121.465673333333","25.0085833333333","6500100","板橋區"
