"lineid","car","time","location","longitude","latitude","cityid","cityname"
"234046","149-BY","2018/05/10 19:59:00","新北市永和區成功路一段16巷4號","121.526723333333","25.0055183333333","6500400","永和區"
"234007","207-UY","2018/05/10 19:58:48","新北市永和區永貞路422號","121.508451666667","25.008295","6500400","永和區"
"234081","298-R6","2018/05/10 19:59:06","新北市永和區國中路12號","121.524373333333","25.0050116666667","6500400","永和區"
"234038","336-UY","2018/05/10 19:59:06","新北市永和區成功路二段126號","121.526493333333","24.9976366666667","6500400","永和區"
"234064","337-UY","2018/05/10 19:59:00","新北市永和區中正路412巷20弄7號","121.518553333333","25.0020266666667","6500400","永和區"
"234086","338-UY","2018/05/10 19:59:06","新北市永和區福和路90號","121.522535","25.0079933333333","6500400","永和區"
"234070","552-UM","2018/05/10 19:58:59","新北市永和區國光路6號","121.51965","25.0085733333333","6500400","永和區"
"234017","745-BX","2018/05/10 19:59:09","新北市永和區文化路82號","121.514033333333","25.0152233333333","6500400","永和區"
"234030","746-BX","2018/05/10 19:58:52","新北市永和區民生路22巷7號","121.522036666667","24.997245","6500400","永和區"
"234054","KEA-2590","2018/05/10 19:58:54","新北市永和區環河東路一段122號","121.520665","25.0155116666667","6500400","永和區"
"234013","KEA-2591","2018/05/10 19:59:08","新北市永和區保生路55號","121.504725","25.0105916666667","6500400","永和區"
"234061","AAD-866","2018/05/10 19:59:05","新北市永和區中正路283巷14號","121.517145","25.0009033333333","6500400","永和區"
"234042","862-TW","2018/05/10 19:59:05","新北市永和區中和路335巷18弄17號","121.507963333333","25.0004616666667","6500400","永和區"
"234050","863-TW","2018/05/10 19:58:49","新北市永和區保安路250號","121.506286666667","25.01264","6500400","永和區"
"234026","9371-KE","2018/05/10 19:58:52","新北市永和區水源街27巷11號","121.511365","25.0039166666667","6500400","永和區"
"234011","9373-KE","2018/05/10 19:58:52","新北市永和區仁愛路352巷112弄12號","121.501123333333","25.0085783333333","6500400","永和區"
"249005","172-UM","2018/05/10 19:59:01","新北市八里區楓林路3-4號","121.382271666667","25.1296666666667","6502300","八里區"
"249001","173-UM","2018/05/10 19:58:58","新北市八里區中華路二段310號","121.403791666667","25.1484116666667","6502300","八里區"
"249004","303-UY","2018/05/10 19:59:09","新北市八里區中華路一段333-1號","121.413313333333","25.1538283333333","6502300","八里區"
"249002","305-UY","2018/05/10 19:59:02","新北市八里區頂寮二街1號","121.451001666667","25.1238916666667","6502300","八里區"
"249003","759-BX","2018/05/10 19:58:59","新北市八里區中華路二段558號","121.39865","25.145285","6502300","八里區"
"248014","025-BX","2018/05/10 19:59:01","新北市五股區五福路6巷15號","121.43529","25.0883816666667","6501500","五股區"
"248016","026-BX","2018/05/10 19:59:05","新北市五股區成泰路三段577巷80弄50號","121.449645","25.1048716666667","6501500","五股區"
"248008","095-VK","2018/05/10 19:58:53","新北市五股區四維路32號","121.46752","25.0714883333333","6501500","五股區"
"248020","225-UY","2018/05/10 19:58:53","新北市五股區凌雲路三段24巷21號","121.433888333333","25.1067983333333","6501500","五股區"
"248012","247-BX","2018/05/10 19:58:57","新北市五股區民義路一段93號","121.434616666667","25.0859316666667","6501500","五股區"
"248010","272-BY","2018/05/10 19:59:01","新北市五股區登林路79-7號","121.427243333333","25.0704666666667","6501500","五股區"
"248004","677-BX","2018/05/10 19:59:03","新北市五股區成泰路一段32巷62號","121.435128333333","25.0671016666667","6501500","五股區"
"248002","678-BX","2018/05/10 19:58:55","新北市五股區成泰路三段487號","121.45076","25.0992583333333","6501500","五股區"
"234077","969-R7","2018/05/10 19:58:59","新北市永和區民有街7號","121.516148333333","24.9970916666667","6500400","永和區"
"234074","AAC-211","2018/05/10 19:59:04","新北市永和區豫溪街207巷2號","121.523783333333","25.0095666666667","6500400","永和區"
"234067","AAC-212","2018/05/10 19:59:08","新北市永和區永貞路378巷2號","121.509693333333","25.0071583333333","6500400","永和區"
"234003","AAC-295","2018/05/10 19:58:48","新北市永和區豫溪街52巷9號","121.515821666667","25.0094266666667","6500400","永和區"
"243013","AAD-798","2018/05/10 19:36:36","新北市泰山區應化街7號","121.423886666667","25.04371","6501600","泰山區"
"243009","297-R6","2018/05/10 19:59:01","新北市泰山區楓江路16巷11號","121.433893333333","25.06178","6501600","泰山區"
"243016","380-SR","2018/05/10 19:59:09","新北市泰山區明志路三段488號","121.421096666667","25.03141","6501600","泰山區"
"243015","421-VK","2018/05/10 19:58:52","新北市泰山區錢厝坑13號","121.414958333333","25.0424266666667","6501600","泰山區"
"243011","KEA-2215","2018/05/10 19:59:00","新北市泰山區明志路三段196巷44號","121.421986666667","25.0398016666667","6501600","泰山區"
"243010","KEA-2216","2018/05/10 19:58:57","新北市泰山區中華街9號","121.427743333333","25.052445","6501600","泰山區"
"243012","646-TV","2018/05/10 19:59:09","新北市泰山區全興路111號","121.433941666667","25.0566816666667","6501600","泰山區"
"243014","680-BX","2018/05/10 19:59:02","新北市泰山區泰林路二段109-1號","121.434528333333","25.059185","6501600","泰山區"
"222003","436-BY","2018/05/10 19:58:57","新北市深坑區埔新街14號","121.620761666667","25.003985","6501800","深坑區"
"222002","659-BX","2018/05/10 19:59:07","新北市深坑區北深路二段55巷12弄14號","121.618593333333","25.003315","6501800","深坑區"
"231041","002-UM","2018/05/10 19:59:07","新北市新店區中正路352號","121.535975","24.975575","6500600","新店區"
"231059","046-UY","2018/05/10 19:59:08","新北市新店區安和路一段15號","121.516898333333","24.9643216666667","6500600","新店區"
"231040","047-UY","2018/05/10 19:59:02","新北市新店區中正路75巷71號","121.543178333333","24.9688183333333","6500600","新店區"
"231044","106-UY","2018/05/10 19:58:51","新北市新店區復興路36號","121.538996666667","24.9867966666667","6500600","新店區"
"231052","108-UY","2018/05/10 19:58:56","新北市新店區新烏路三段251號","121.546316666667","24.8954016666667","6500600","新店區"
"231047","187-VK","2018/05/10 19:59:04","新北市新店區寶宏路14號","121.549223333333","24.9762","6500600","新店區"
"231054","KEA-2219","2018/05/10 19:59:02","新北市新店區光明街141號","121.539516666667","24.9620633333333","6500600","新店區"
"231057","256-BX","2018/05/10 19:59:08","新北市新店區花園二路一段11號","121.55556","24.9325533333333","6500600","新店區"
"231042","268-BY","2018/05/10 19:58:52","新北市新店區中正路5號","121.5458","24.9691","6500600","新店區"
"231051","278-BY","2018/05/10 19:58:58","新北市新店區中央二街18號","121.528733333333","24.973385","6500600","新店區"
"231050","AAD-862","2018/05/10 19:58:54","新北市新店區北宜路二段579巷13號","121.565425","24.9542266666667","6500600","新店區"
"231066","4716-K9","2018/05/10 19:58:50","新北市新店區柴埕路2-1號","121.515071666667","24.9659933333333","6500600","新店區"
"231056","4715-K9","2018/05/10 19:59:03","新北市新店區民權路34號","121.540808333333","24.982975","6500600","新店區"
"231067","4772-VM","2018/05/10 19:59:03","新北市新店區秀山路11巷12弄15號","121.53141","24.9595633333333","6500600","新店區"
"231065","512-UM","2018/05/10 19:58:51","新北市新店區安祥路109巷21號","121.476148333333","24.9592583333333","6500600","新店區"
"231049","513-UM","2018/05/10 19:58:56","新北市新店區民族路26號","121.540718333333","24.9787683333333","6500600","新店區"
"231063","616-UM","2018/05/10 19:58:53","新北市新店區車子路11號","121.503021666667","24.9519883333333","6500600","新店區"
"231061","619-UM","2018/05/10 19:58:52","新北市新店區安民街259號","121.517323333333","24.9726683333333","6500600","新店區"
"231068","718-UY","2018/05/10 19:59:05","新北市新店區安一路一段1-1號","121.519508333333","24.961095","6500600","新店區"
"231064","719-UM","2018/05/10 19:59:07","新北市新店區安民街135號","121.51643","24.9693116666667","6500600","新店區"
"231062","720-UM","2018/05/10 19:59:01","新北市新店區華城路12號","121.528885","24.9578516666667","6500600","新店區"
"231060","897-TW","2018/05/10 19:59:04","新北市新店區安康路二段454號","121.494421666667","24.954235","6500600","新店區"
"231045","898-TW","2018/05/10 19:58:51","新北市新店區北宜路二段82-14號","121.55483","24.953535","6500600","新店區"
"231043","899-TW","2018/05/10 19:58:58","新北市新店區中正路282-11號","121.538461666667","24.9738566666667","6500600","新店區"
"231055","AKT-0513","2018/05/10 19:58:59","新北市新店區中華路83巷67號","121.538328333333","24.967225","6500600","新店區"
"241011","013-R5","2018/05/10 19:59:04","新北市三重區三和路二段220號","121.497965","25.0695183333333","6500200","三重區"
"241008","059-VK","2018/05/10 19:59:07","新北市三重區永福街179巷9號","121.478501666667","25.0749966666667","6500200","三重區"
"241009","060-VK","2018/05/10 19:59:07","新北市三重區三和路四段390巷39號","121.480315","25.0785983333333","6500200","三重區"
"241031","061-VK","2018/05/10 19:58:50","新北市三重區重新路四段184巷16號","121.487043333333","25.0550183333333","6500200","三重區"
"241015","062-VK","2018/05/10 19:59:04","新北市三重區三和路二段17號","121.501291666667","25.0668466666667","6500200","三重區"
"241017","063-VK","2018/05/10 19:58:50","新北市三重區自強路一段306號","121.491271666667","25.0684066666667","6500200","三重區"
"241024","065-VK","2018/05/10 19:58:51","新北市三重區力行路一段277號","121.482185","25.0716916666667","6500200","三重區"
"241026","066-VK","2018/05/10 19:59:04","新北市三重區仁慈街16號","121.501888333333","25.06311","6500200","三重區"
"241003","091-VK","2018/05/10 19:59:04","新北市三重區仁愛街445巷17號","121.490541666667","25.0826166666667","6500200","三重區"
"241005","262-UM","2018/05/10 19:58:53","新北市三重區溪尾街325巷25號","121.488433333333","25.08336","6500200","三重區"
"241028","265-UM","2018/05/10 19:59:06","新北市三重區中正南路41巷1號","121.493741666667","25.05987","6500200","三重區"
"241016","266-UM","2018/05/10 19:58:55","新北市三重區正義北路36巷23號","121.496568333333","25.0633716666667","6500200","三重區"
"241022","267-UM","2018/05/10 19:59:00","新北市三重區新北大道一段7號","121.489661666667","25.06125","6500200","三重區"
"241018","268-UM","2018/05/10 19:59:08","新北市三重區正義北路244巷78號","121.493913333333","25.0676483333333","6500200","三重區"
"241032","269-UM","2018/05/10 19:59:09","新北市三重區捷運路37巷39-1號","121.483825","25.0562166666667","6500200","三重區"
"241013","270-UM","2018/05/10 19:59:06","新北市三重區三和路三段125巷42號","121.494265","25.0738033333333","6500200","三重區"
"241025","271-UM","2018/05/10 19:59:08","新北市三重區頂崁街210巷16號","121.476378333333","25.0676983333333","6500200","三重區"
"241007","398-BY","2018/05/10 19:59:06","新北市三重區慈愛街46號","121.4857","25.07901","6500200","三重區"
"241020","413-TH","2018/05/10 19:59:10","新北市三重區忠孝路一段87號","121.489848333333","25.0721866666667","6500200","三重區"
"241035","462-BY","2018/05/10 19:59:07","新北市三重區大榮街9號","121.498216666667","25.0631316666667","6500200","三重區"
"241004","475-VK","2018/05/10 19:58:51","新北市三重區五華街74號","121.493341666667","25.0820333333333","6500200","三重區"
"241030","480-VK","2018/05/10 19:59:08","新北市三重區重新路四段248號","121.486146666667","25.0535033333333","6500200","三重區"
"241014","543-UM","2018/05/10 19:58:55","新北市三重區三和路二段109號","121.499251666667","25.0686833333333","6500200","三重區"
"241023","545-UM","2018/05/10 19:58:59","新北市三重區頂崁街172號","121.47757","25.0659216666667","6500200","三重區"
"241001","547-UM","2018/05/10 19:59:01","新北市三重區仁愛街283巷29號","121.493995","25.0796783333333","6500200","三重區"
"241006","AAD-863","2018/05/10 19:59:05","新北市三重區力行路二段76巷27號","121.480573333333","25.07365","6500200","三重區"
"241019","887-TS","2018/05/10 19:59:07","新北市三重區重陽路四段1號","121.490855","25.0688333333333","6500200","三重區"
"241012","941-UM","2018/05/10 19:58:59","新北市三重區仁厚街96號","121.501105","25.0769416666667","6500200","三重區"
"241029","942-UM","2018/05/10 19:59:02","新北市三重區重新路三段204號","121.49014","25.0582783333333","6500200","三重區"
"241033","AAC-255","2018/05/10 19:58:57","新北市三重區中興北街8號","121.469535","25.046795","6500200","三重區"
"235047","031-BX","2018/05/10 19:58:53","新北市中和區和平街21-2號","121.508141666667","24.99069","6500300","中和區"
"235056","096-UM","2018/05/10 19:58:53","新北市中和區中山路三段114巷1號","121.475718333333","25.0075","6500300","中和區"
"235039","097-UM","2018/05/10 19:58:52","新北市中和區大勇街25巷46號","121.515411666667","24.99413","6500300","中和區"
"235058","151-BY","2018/05/10 19:59:02","新北市中和區員山路150巷2弄24號","121.481596666667","24.997535","6500300","中和區"
"235055","183-VK","2018/05/10 19:59:08","新北市中和區民生街35巷2弄2號","121.470296666667","25.0051566666667","6500300","中和區"
"235049","186-VK","2018/05/10 19:59:01","新北市中和區景平路566號","121.501863333333","24.9952216666667","6500300","中和區"
"235067","255-BX","2018/05/10 19:58:52","新北市中和區員山路148巷23弄28號","121.482228333333","24.9977","6500300","中和區"
"235044","293-VK","2018/05/10 19:58:51","新北市中和區板南路187號","121.500125","24.992755","6500300","中和區"
"235043","352-BY","2018/05/10 19:59:08","新北市中和區興南路二段159巷3號","121.505413333333","24.98343","6500300","中和區"
"235068","377-QA","2018/05/10 19:58:48","新北市中和區景平路736巷3弄10號","121.497546666667","25.003695","6500300","中和區"
"235050","4979-A6","2018/05/10 19:58:53","新北市中和區景平路241巷48號","121.508185","24.9923233333333","6500300","中和區"
"235069","4980-A6","2018/05/10 19:59:02","新北市中和區南山路33號","121.502081666667","24.9988766666667","6500300","中和區"
"235042","551-UM","2018/05/10 19:58:51","新北市中和區保健路9號","121.50785","24.9983183333333","6500300","中和區"
"235070","558-UM","2018/05/10 19:59:01","新北市中和區連城路263巷26號","121.492733333333","24.994285","6500300","中和區"
"235054","640-BX","2018/05/10 19:58:59","新北市中和區國光街1號","121.472663333333","25.0002033333333","6500300","中和區"
"235046","733-UM","2018/05/10 19:59:02","新北市中和區興南路一段93巷26號","121.51033","24.9867366666667","6500300","中和區"
"235041","802-TS","2018/05/10 19:59:08","新北市中和區中安街226號","121.51225","24.9986833333333","6500300","中和區"
"235052","805-TS","2018/05/10 19:59:04","新北市中和區華新街192巷22弄2號","121.50669","24.9833616666667","6500300","中和區"
"235048","896-TW","2018/05/10 19:59:00","新北市中和區景新街435號","121.51311","24.9889566666667","6500300","中和區"
"235053","900-TW","2018/05/10 19:59:02","新北市中和區民德路258號","121.467905","24.9970266666667","6500300","中和區"
"235066","911-UM","2018/05/10 19:59:05","新北市中和區光華街6號","121.504068333333","25.0043383333333","6500300","中和區"
"235051","157-BY","2018/05/10 19:58:55","新北市中和區中興街233巷10號","121.501476666667","24.9894683333333","6500300","中和區"
"235037","AAC-213","2018/05/10 19:58:51","新北市中和區自立路141巷1號","121.522318333333","24.9935783333333","6500300","中和區"
"235059","AAC-215","2018/05/10 19:59:11","新北市中和區圓通路367巷7號","121.492441666667","24.9881833333333","6500300","中和區"
"220068","013-TV","2018/05/10 19:59:06","新北市板橋區光復街172巷2弄1號","121.485303333333","25.0193383333333","6500100","板橋區"
"220065","072-UY","2018/05/10 19:59:07","新北市板橋區長安街7巷2-2號","121.466386666667","25.008835","6500100","板橋區"
"220106","075-UY","2018/05/10 19:59:08","新北市板橋區民治街71巷1弄1號","121.479885","25.0328766666667","6500100","板橋區"
"220069","AAD-861","2018/05/10 19:59:01","新北市板橋區貴興路73號","121.457016666667","25.0029383333333","6500100","板橋區"
"247024","893-R6","2018/05/10 19:58:54","新北市蘆洲區光榮路120巷12號","121.46535","25.0885133333333","6501400","蘆洲區"
"247014","546-UM","2018/05/10 19:59:06","新北市蘆洲區成功路124號","121.47225","25.082695","6501400","蘆洲區"
"247010","341-TH","2018/05/10 19:59:10","新北市三重區集賢路188號","121.483948333333","25.0880166666667","6501400","蘆洲區"
"247012","339-TH","2018/05/10 19:59:03","新北市蘆洲區民族路157號","121.479508333333","25.0880833333333","6501400","蘆洲區"
"247004","337-TH","2018/05/10 19:59:07","新北市蘆洲區永康街75號","121.45578","25.085245","6501400","蘆洲區"
"247006","336-TH","2018/05/10 19:58:59","新北市蘆洲區九芎街109號","121.465708333333","25.0797016666667","6501400","蘆洲區"
"247018","057-VK","2018/05/10 19:58:58","新北市蘆洲區民族路292號","121.478083333333","25.0896383333333","6501400","蘆洲區"
"247008","056-VK","2018/05/10 19:59:10","新北市蘆洲區信義路105號","121.478166666667","25.079965","6501400","蘆洲區"
"247016","007-UY","2018/05/10 19:58:59","新北市蘆洲區中正路96號","121.470095","25.083815","6501400","蘆洲區"
"247002","002-UY","2018/05/10 19:59:05","新北市蘆洲區長安街274巷11號","121.458031666667","25.0872566666667","6501400","蘆洲區"
"247020","001-UY","2018/05/10 19:59:05","新北市蘆洲區民義街66號","121.47291","25.089685","6501400","蘆洲區"
"226004","312-R5","2018/05/10 19:58:39","新北市平溪區靜安路二段540巷13號","121.746731666667","25.0265","6502400","平溪區"
"235065","251-BX","2018/05/10 19:58:59","新北市中和區福祥路116號","121.498961666667","25.0063733333333","6500300","中和區"
"228003","097-TW","2018/05/10 19:59:03","新北市貢寮區仁理村仁和路228號","121.92394","25.05364","6502600","貢寮區"
"227010","642-TC","2018/05/10 19:59:00","新北市雙溪區新基里新基南街25號","121.866225","25.0381433333333","6502500","雙溪區"
"227004","400-TW","2018/05/10 19:59:05","新北市雙溪區雙溪里長安街16號","121.865021666667","25.034755","6502500","雙溪區"
"222001","KEA-2212","2018/05/10 19:59:07","新北市深坑區北深路三段162號","121.602495","25.00343","6501800","深坑區"
"208002","KEA-2872","2018/05/10 19:58:50","新北市金山區中華路182-2號","121.632848333333","25.22368","6502700","金山區"
"208003","665-BX","2018/05/10 19:59:01","新北市金山區永興里忠義路29-2號","121.63141","25.26198","6502700","金山區"
"251009","008-UM","2018/05/10 19:58:59","新北市淡水區英專路28巷18號","121.44588","25.1699083333333","6501000","淡水區"
"251004","009-UM","2018/05/10 19:58:50","新北市淡水區民族路50巷30號","121.461016666667","25.1357783333333","6501000","淡水區"
"251005","010-UM","2018/05/10 19:58:57","新北市淡水區學府路136巷17號","121.451251666667","25.17289","6501000","淡水區"
"251001","011-UM","2018/05/10 19:58:59","新北市淡水區水源街二段194號","121.456993333333","25.1758033333333","6501000","淡水區"
"251013","KEA-2871","2018/05/10 19:58:56","新北市淡水區下圭柔山63-7號","121.451775","25.2061983333333","6501000","淡水區"
"251014","180-VK","2018/05/10 19:59:08","新北市淡水區石頭厝2號","121.458281666667","25.23562","6501000","淡水區"
"251008","181-VK","2018/05/10 19:58:51","新北市淡水區淡海路72巷21號","121.424153333333","25.1811516666667","6501000","淡水區"
"251015","182-VK","2018/05/10 19:58:52","新北市淡水區商工路296號","121.460461666667","25.1860233333333","6501000","淡水區"
"251012","441-VK","2018/05/10 19:59:03","新北市淡水區下圭柔山100號","121.438093333333","25.2109166666667","6501000","淡水區"
"251007","442-VK","2018/05/10 19:59:03","新北市淡水區中正東路一段105巷1號","121.453615","25.1603666666667","6501000","淡水區"
"251006","561-UM","2018/05/10 19:59:06","新北市淡水區北新路8號","121.444495","25.17744","6501000","淡水區"
"251016","575-R6","2018/05/10 19:59:04","新北市淡水區淡金路四段493號","121.452033333333","25.2253333333333","6501000","淡水區"
"251011","650-BX","2018/05/10 19:59:00","新北市淡水區崁頂55號","121.44236","25.1966516666667","6501000","淡水區"
"251003","766-UM","2018/05/10 19:59:04","新北市淡水區中山北路二段189巷15弄29號","121.443333333333","25.1842666666667","6501000","淡水區"
"207003","550-UM","2018/05/10 19:59:03","新北市萬里區磺潭里公館崙5號","121.641896666667","25.2142533333333","6502800","萬里區"
"207004","225-TW","2018/05/10 19:58:55","新北市萬里區北基里忠二街35號","121.68561","25.17576","6502800","萬里區"
"252002","178-VK","2018/05/10 19:59:01","新北市三芝區三民街39巷5號","121.505441666667","25.2576383333333","6502100","三芝區"
"252001","292-VK","2018/05/10 19:59:00","新北市三芝區公正街9號","121.499763333333","25.25747","6502100","三芝區"
"208001","170-UY","2018/05/10 19:59:04","新北市金山區南勢湖42-1號","121.60896","25.2177333333333","6502700","金山區"
"237004","KEA-2597","2018/05/10 19:58:56","新北市三峽區添福143-1號","121.374821666667","24.8997266666667","6500900","三峽區"
"237007","153-BY","2018/05/10 19:58:56","新北市三峽區麻園46號","121.363815","24.9214033333333","6500900","三峽區"
"237009","210-TH","2018/05/10 19:58:57","新北市三峽區民族街78巷2弄2號","121.368845","24.9299133333333","6500900","三峽區"
"237012","275-BY","2018/05/10 19:59:01","新北市三峽區中華路74-5號","121.371528333333","24.9292333333333","6500900","三峽區"
"237008","302-VK","2018/05/10 19:59:04","新北市三峽區中華路46-1號","121.372006666667","24.93049","6500900","三峽區"
"237014","433-BY","2018/05/10 19:59:07","新北市三峽區添福59-1號","121.374723333333","24.9034316666667","6500900","三峽區"
"237006","5529-G3","2018/05/10 19:59:01","新北市三峽區中正路二段168號","121.366075","24.915775","6500900","三峽區"
"237010","706-TV","2018/05/10 19:59:04","新北市樹林區大義路36號","121.378863333333","24.9442166666667","6500900","三峽區"
"237005","AKY-6261","2018/05/10 19:59:03","新北市三峽區民生街1巷13-1號","121.379715","24.9356483333333","6500900","三峽區"
"236070","105-UM","2018/05/10 19:59:02","新北市土城區忠義路77-1號","121.442743333333","24.9653783333333","6501300","土城區"
"236042","107-UM","2018/05/10 19:59:06","新北市土城區學府路一段143巷4號","121.453798333333","24.9859016666667","6501300","土城區"
"236078","166-UM","2018/05/10 19:58:51","新北市土城區中州路27巷1號","121.413713333333","24.9577616666667","6501300","土城區"
"236030","253-BX","2018/05/10 19:59:03","新北市土城區中央路一段252-1號","121.444255","24.9846133333333","6501300","土城區"
"236026","269-VK","2018/05/10 19:59:00","新北市土城區中央路二段93號","121.442336666667","24.9780016666667","6501300","土城區"
"236014","270-VK","2018/05/10 19:58:56","新北市土城區廣福街123號","121.456236666667","24.9928733333333","6501300","土城區"
"236038","271-VK","2018/05/10 19:59:03","新北市土城區國際路61號","121.466705","24.9765766666667","6501300","土城區"
"236021","752-BX","2018/05/10 19:58:58","新北市土城區延吉街137巷25弄5號","121.471505","24.985095","6501300","土城區"
"236059","912-UM","2018/05/10 19:58:50","新北市土城區中央路一段260號","121.444233333333","24.9842383333333","6501300","土城區"
"236049","913-UM","2018/05/10 19:59:09","新北市土城區金城路三段309號","121.474418333333","24.9909733333333","6501300","土城區"
"236063","915-UM","2018/05/10 19:59:06","新北市土城區延和路62巷6弄1號","121.46607","24.98864","6501300","土城區"
"236055","AAC-216","2018/05/10 19:58:57","新北市土城區延和路18巷13號","121.464886666667","24.987675","6501300","土城區"
"242034","AAC-296","2018/05/10 19:59:06","新北市新莊區建中街102號","121.446426666667","25.0365966666667","6500500","新莊區"
"242058","986-R7","2018/05/10 19:58:52","新北市新莊區八德街2號","121.425686666667","25.0228566666667","6500500","新莊區"
"242027","615-BX","2018/05/10 19:58:59","新北市新莊區立信一街10巷14號","121.444235","25.0498766666667","6500500","新莊區"
"242025","613-BX","2018/05/10 19:59:09","新北市新莊區五工一路90號","121.4611","25.0676366666667","6500500","新莊區"
"242029","612-BX","2018/05/10 19:58:51","新北市新莊區中榮街152巷16號","121.445933333333","25.0532533333333","6500500","新莊區"
"242046","497-BY","2018/05/10 19:59:03","新北市新莊區裕民街19巷4號","121.419665","25.02518","6500500","新莊區"
"242042","442-UM","2018/05/10 19:59:07","新北市新莊區青山路一段18號","121.41123","25.0276983333333","6500500","新莊區"
"242051","441-UM","2018/05/10 19:59:06","新北市新莊區民安西路81巷21號","121.428108333333","25.0192233333333","6500500","新莊區"
"242056","440-UM","2018/05/10 19:59:04","新北市新莊區中正路347巷17弄10號","121.447473333333","25.0343","6500500","新莊區"
"242007","413-TV","2018/05/10 19:59:03","新北市新莊區福壽街315號","121.457935","25.056175","6500500","新莊區"
"242023","362-BY","2018/05/10 19:59:07","新北市新莊區化成路197號","121.465916666667","25.05064","6500500","新莊區"
"242061","353-BY","2018/05/10 19:59:08","新北市新莊區瓊林路59-73號","121.444215","25.0273783333333","6500500","新莊區"
"242039","133-UY","2018/05/10 19:59:09","新北市新莊區民安路287-5號","121.428825","25.0230683333333","6500500","新莊區"
"242031","135-UY","2018/05/10 19:59:01","新北市新莊區公園一路61號","121.442981666667","25.0364466666667","6500500","新莊區"
"242048","172-VK","2018/05/10 19:59:00","新北市新莊區民安路138號","121.424221666667","25.0253533333333","6500500","新莊區"
"242011","173-VK","2018/05/10 19:58:16","新北市新莊區中港路531巷17號","121.450783333333","25.0514433333333","6500500","新莊區"
"242017","175-VK","2018/05/10 19:59:05","新北市新莊區中華路二段45巷2號","121.453001666667","25.0465916666667","6500500","新莊區"
"242004","176-VK","2018/05/10 19:59:07","新北市新莊區化成路215號","121.466091666667","25.0521433333333","6500500","新莊區"
"242015","346-TH","2018/05/10 19:59:06","新北市新莊區復興路一段45號","121.446948333333","25.0420983333333","6500500","新莊區"
"242021","347-TH","2018/05/10 19:58:53","新北市新莊區建中街16巷18號","121.449355","25.03844","6500500","新莊區"
"242044","348-TH","2018/05/10 19:58:56","新北市新莊區中正路929巷13號","121.410973333333","25.0205816666667","6500500","新莊區"
"242036","349-TH","2018/05/10 19:59:04","新北市新莊區建安街33號","121.428988333333","25.0257866666667","6500500","新莊區"
"242019","350-TH","2018/05/10 19:59:00","新北市新莊區民生街17號","121.455853333333","25.04224","6500500","新莊區"
"242013","351-TH","2018/05/10 19:58:57","新北市新莊區幸福路672號","121.45094","25.0493666666667","6500500","新莊區"
"238015","755-BX","2018/05/10 19:59:02","新北市樹林區中山路三段210-2號","121.380843333333","24.9669933333333","6500700","樹林區"
"238021","KEA-2217","2018/05/10 19:58:59","新北市樹林區田尾街222號","121.398281666667","24.9476866666667","6500700","樹林區"
"238014","282-BY","2018/05/10 19:58:38","新北市樹林區中山路三段89號","121.400066666667","24.97483","6500700","樹林區"
"239006","891-R6","2018/05/10 19:59:08","新北市鶯歌區中正二路8號","121.351776666667","24.9519633333333","6500800","鶯歌區"
"221008","489-VK","2018/05/10 19:58:49","新北市汐止區忠一街9巷7號","121.620491666667","25.0732","6501100","汐止區"
"221036","130-UY","2018/05/10 19:58:55","新北市汐止區新台五路二段85巷8號","121.664583333333","25.067285","6501100","汐止區"
"221015","131-UY","2018/05/10 19:58:52","新北市汐止區橋東街1號","121.666778333333","25.0762983333333","6501100","汐止區"
"221010","269-BY","2018/05/10 19:59:02","新北市汐止區連峰街225巷22號","121.644203333333","25.0810983333333","6501100","汐止區"
"221012","278-VK","2018/05/10 19:59:00","新北市汐止區大同路三段218號","121.675155","25.0732683333333","6501100","汐止區"
"221023","279-VK","2018/05/10 19:58:51","新北市汐止區中興路276號","121.628756666667","25.0690616666667","6501100","汐止區"
"221032","280-BY","2018/05/10 19:58:57","新北市汐止區橫科路63號","121.618756666667","25.0508183333333","6501100","汐止區"
"221027","281-BY","2018/05/10 19:58:52","新北市汐止區信義路21號","121.661536666667","25.0694883333333","6501100","汐止區"
"221029","298-VK","2018/05/10 19:58:53","新北市汐止區樟樹一路137巷26號","121.640925","25.0658633333333","6501100","汐止區"
"221021","299-VK","2018/05/10 19:58:51","新北市汐止區水源路一段149號","121.655736666667","25.0621966666667","6501100","汐止區"
"221031","353-TW","2018/05/10 19:59:04","新北市汐止區福德一路176巷2號","121.635666666667","25.0663383333333","6501100","汐止區"
"221035","622-UM","2018/05/10 19:58:58","新北市汐止區長江街33號","121.65558","25.0713266666667","6501100","汐止區"
"221025","623-UM","2018/05/10 19:58:51","新北市汐止區秀峰路109巷12號","121.660448333333","25.063415","6501100","汐止區"
"221038","646-BX","2018/05/10 19:59:04","新北市汐止區忠孝東路481號","121.666058333333","25.07339","6501100","汐止區"
"221033","647-BX","2018/05/10 19:58:48","新北市汐止區東勢街190巷1號","121.633793333333","25.0416666666667","6501100","汐止區"
"220079","145-BY","2018/05/10 19:58:58","新北市板橋區南雅西路二段175巷2號","121.451538333333","25.0125033333333","6500100","板橋區"
"220080","200-UY","2018/05/10 19:59:02","新北市板橋區大觀路二段153巷53號","121.447198333333","25.0009916666667","6500100","板橋區"
"242002","KEA-2550","2018/05/10 19:58:55","新北市新莊區中正路170號","121.451051666667","25.0359016666667","6500500","新莊區"
"220082","610-BX","2018/05/10 19:58:55","新北市板橋區大觀路三段106號","121.432403333333","24.99428","6500100","板橋區"
"220101","245-BX","2018/05/10 19:58:51","新北市板橋區莊敬路257號","121.473616666667","25.0215466666667","6500100","板橋區"
"220071","283-VK","2018/05/10 19:58:53","新北市板橋區五權街2號","121.463993333333","24.994325","6500100","板橋區"
"220094","285-UM","2018/05/10 19:58:57","新北市板橋區雨農路21號","121.461441666667","25.0241816666667","6500100","板橋區"
"220053","285-VK","2018/05/10 19:59:02","新北市板橋區中山路二段92號","121.475418333333","25.01626","6500100","板橋區"
"220083","286-VK","2018/05/10 19:59:11","新北市板橋區僑中二街88巷28號","121.445001666667","25.009615","6500100","板橋區"
"220081","287-VK","2018/05/10 19:59:00","新北市板橋區大觀路一段28巷107-1號","121.449851666667","25.01223","6500100","板橋區"
"220090","288-VK","2018/05/10 19:59:08","新北市板橋區新海路186號","121.460781666667","25.023485","6500100","板橋區"
"220061","293-UM","2018/05/10 19:59:06","新北市板橋區板新路128號","121.470818333333","25.0154666666667","6500100","板橋區"
"220084","296-UM","2018/05/10 19:59:08","新北市樹林區博愛街215號","121.424188333333","24.9870416666667","6500100","板橋區"
"220075","303-R5","2018/05/10 19:59:00","新北市板橋區金華街10巷111號","121.459381666667","25.0205683333333","6500100","板橋區"
"220062","305-R5","2018/05/10 19:59:10","新北市板橋區萬安街85巷18-1號","121.484196666667","25.0259516666667","6500100","板橋區"
"220092","307-R5","2018/05/10 19:59:04","新北市板橋區四維路259巷21號","121.462286666667","25.0275466666667","6500100","板橋區"
"220098","317-R6","2018/05/10 19:59:07","新北市板橋區英士路153號","121.459371666667","25.0238283333333","6500100","板橋區"
"220064","486-VK","2018/05/10 19:59:07","新北市板橋區長安街331巷90-3號","121.472078333333","25.0127633333333","6500100","板橋區"
"242053","280-VK","2018/05/10 19:58:57","新北市新莊區民安西路368號","121.427631666667","25.0109383333333","6500500","新莊區"
"220088","491-VK","2018/05/10 19:58:55","新北市板橋區大同街97號","121.480356666667","25.0284916666667","6500100","板橋區"
"220035","560-BX","2018/05/10 19:59:03","新北市板橋區新生街87巷8號","121.457745","25.0219233333333","6500100","板橋區"
"220103","561-BX","2018/05/10 19:59:00","新北市板橋區陽明街29巷35號","121.463613333333","25.02259","6500100","板橋區"
"220063","609-BX","2018/05/10 19:59:06","新北市板橋區中山路二段84-3號","121.474793333333","25.0161633333333","6500100","板橋區"
"220055","630-UY","2018/05/10 19:58:57","新北市板橋區國慶路149巷37弄8號","121.460525","24.99799","6500100","板橋區"
"220091","637-BX","2018/05/10 19:59:08","新北市板橋區文聖街101巷26號","121.478463333333","25.0297766666667","6500100","板橋區"
"220057","686-BX","2018/05/10 19:59:03","新北市板橋區四川路二段60號","121.45252","24.994805","6500100","板橋區"
"220093","689-BX","2018/05/10 19:59:04","新北市板橋區長江路一段214號","121.462925","25.030905","6500100","板橋區"
"220054","741-BX","2018/05/10 19:58:59","新北市板橋區忠孝路忠義巷11號","121.465576666667","25.00369","6500100","板橋區"
"220102","KEA-2699","2018/05/10 19:58:58","新北市板橋區仁化街56號","121.475763333333","25.03167","6500100","板橋區"
"220067","829-TW","2018/05/10 19:59:03","新北市板橋區長安街331巷19弄8號","121.47348","25.0123133333333","6500100","板橋區"
"220096","830-TW","2018/05/10 19:59:00","新北市板橋區莒光路16巷5號","121.469641666667","25.0243833333333","6500100","板橋區"
"220089","833-TW","2018/05/10 19:59:01","新北市板橋區英士路61號","121.460521666667","25.0242583333333","6500100","板橋區"
"220074","895-R6","2018/05/10 19:58:57","新北市板橋區文化路一段46巷37號","121.461066666667","25.0109166666667","6500100","板橋區"
"220073","985-R7","2018/05/10 19:58:57","新北市板橋區南雅西路二段91號","121.452641666667","25.0103766666667","6500100","板橋區"
"220097","AAC-210","2018/05/10 19:59:09","新北市板橋區光正街18巷1號","121.46253","25.01729","6500100","板橋區"
"220070","AAC-253","2018/05/10 19:59:06","新北市板橋區成都街9號","121.460341666667","25.0048366666667","6500100","板橋區"
