"lineid","car","time","location","longitude","latitude","cityid","cityname"
"248005","653-BX","2018/05/11 06:48:47","新北市五股區中興路二段83巷26-6號","121.460098333333","25.0751433333333","6501500","五股區"
"232003","290-BY","2018/05/11 06:48:59","新北市坪林區北宜路八段373號","121.708188333333","24.9305516666667","6502000","坪林區"
"232015","291-BY","2018/05/11 06:49:00","新北市坪林區北宜路八段56號","121.704638333333","24.9355183333333","6502000","坪林區"
"232019","705-BZ","2018/05/11 06:49:00","新北市坪林區北宜路八段375號","121.708956666667","24.9322083333333","6502000","坪林區"
"232008","758-BX","2018/05/11 06:48:55","新北市坪林區鶯子瀨9-9號","121.708716666667","24.915745","6502000","坪林區"
"244004","248-BX","2018/05/11 06:48:47","新北市林口區粉寮69號","121.405101666667","25.0907733333333","6501700","林口區"
"243003","KEA-2215","2018/05/11 06:48:42","新北市泰山區黎明路25號","121.422053333333","25.0607433333333","6501600","泰山區"
"222005","289-BY","2018/05/11 06:48:42","新北市深坑區深坑街75號","121.614691666667","25.0012633333333","6501800","深坑區"
"235001","611-BX","2018/05/11 06:48:58","新北市中和區圓通路335巷1弄27號","121.493436666667","24.99066","6500300","中和區"
"223006","022-BY","2018/05/11 06:48:46","新北市石碇區靜安路一段10號","121.641973333333","25.011315","6501900","石碇區"
"223002","KEA-2673","2018/05/11 06:48:45","新北市石碇區員山子1-1號","121.65225","24.96875","6501900","石碇區"
"223001","205-TH","2018/05/11 06:49:01","新北市石碇區石崁40-3號","121.657626666667","24.9939483333333","6501900","石碇區"
"223008","406-TH","2018/05/11 06:48:44","新北市石碇區碇坪路一段10號","121.651543333333","25.0060783333333","6501900","石碇區"
"223001","592-UM","2018/05/11 06:49:02","新北市石碇區石崁35號","121.658048333333","24.993325","6501900","石碇區"
"223004","660-BX","2018/05/11 06:48:47","新北市石碇區碇坪路一段87號","121.66213","24.9907066666667","6501900","石碇區"
"223007","661-BX","2018/05/11 06:48:46","新北市深坑區文山路一段8號","121.644496666667","25.0087583333333","6501900","石碇區"
"227005","282-VK","2018/05/11 06:48:50","新北市雙溪區新基里自強路5號","121.866381666667","25.0390666666667","6502500","雙溪區"
