"lineid","car","time","location","longitude","latitude","cityid","cityname"
"248005","653-BX","2018/05/11 07:29:39","新北市五股區明德路12巷6號","121.433343333333","25.0718066666667","6501500","五股區"
"232003","290-BY","2018/05/11 07:38:59","新北市坪林區下坑子口6-15號","121.711325","24.9433433333333","6502000","坪林區"
"232015","291-BY","2018/05/11 07:39:00","新北市坪林區黃舉皮寮14-1號","121.688491666667","24.9348116666667","6502000","坪林區"
"232019","705-BZ","2018/05/11 07:39:00","新北市坪林區大舌湖9號","121.731966666667","24.9743033333333","6502000","坪林區"
"232008","758-BX","2018/05/11 07:38:55","新北市坪林區魚堀8-5號","121.707698333333","24.9061783333333","6502000","坪林區"
"244004","248-BX","2018/05/11 07:38:47","新北市林口區頂福里81-7號","121.331581666667","25.0999566666667","6501700","林口區"
"243003","KEA-2215","2018/05/11 07:38:42","新北市泰山區明志路三段427號","121.420966666667","25.0332716666667","6501600","泰山區"
"222005","289-BY","2018/05/11 07:21:26","新北市深坑區文化街39巷13號","121.618973333333","25.0010866666667","6501800","深坑區"
"231007","110-UY","2018/05/11 07:26:10","新北市新店區安一路一段1-1號","121.519748333333","24.9614583333333","6500600","新店區"
"235001","611-BX","2018/05/11 07:38:58","新北市中和區圓通路367巷4號","121.491466666667","24.98935","6500300","中和區"
"226005","5620-A6","2018/05/11 07:39:05","新北市平溪區靜安路二段356號","121.737573333333","25.0245883333333","6502400","平溪區"
"226001","7418-A5","2018/05/11 07:38:50","新北市平溪區平湖里大厝1號","121.780051666667","25.038805","6502400","平溪區"
"226006","AGD-0702","2018/05/11 07:29:44","新北市平溪區嶺腳里嶺腳寮83-2號","121.750756666667","25.03517","6502400","平溪區"
"223006","022-BY","2018/05/11 07:38:47","新北市坪林區坪林街42號","121.711751666667","24.9374633333333","6501900","石碇區"
"223002","KEA-2673","2018/05/11 07:38:45","新北市石碇區北宜路五段崙尾寮巷2-1號","121.647706666667","24.95229","6501900","石碇區"
"223001","205-TH","2018/05/11 07:38:41","新北市石碇區四分子5號","121.66539","24.962075","6501900","石碇區"
"223008","406-TH","2018/05/11 07:19:09","新北市石碇區靜安路一段337號","121.698795","25.0146883333333","6501900","石碇區"
"223001","592-UM","2018/05/11 07:39:02","新北市石碇區樟空子2號","121.664446666667","24.96262","6501900","石碇區"
"223004","660-BX","2018/05/11 07:38:47","新北市石碇區八分寮47號","121.642163333333","25.01384","6501900","石碇區"
"223005","677-TV","2018/05/11 07:38:48","新北市石碇區八分寮47號","121.642238333333","25.0139133333333","6501900","石碇區"
"227005","282-VK","2018/05/11 07:38:50","新北市雙溪區雙溪里太平路56號","121.864836666667","25.03558","6502500","雙溪區"
"237001","159-UY","2018/05/11 07:38:58","新北市三峽區國慶路132號","121.375966666667","24.93955","6500900","三峽區"
"236010","165-UM","2018/05/11 07:38:46","新北市土城區金城路三段16號","121.465126666667","24.9862483333333","6501300","土城區"
"236004","339-SR","2018/05/11 07:38:54","新北市土城區龍泉路87號","121.445696666667","24.9443283333333","6501300","土城區"
