"lineid","car","time","location","longitude","latitude","cityid","cityname"
"248005","653-BX","2018/02/13 08:48:10","新北市五股區明德路12巷16號","121.433258333333","25.0719283333333","6501500","五股區"
"244012","069-UM","2018/02/13 08:49:39","新北市林口區中山路202-1號","121.387558333333","25.0792683333333","6501700","林口區"
"244002","248-BX","2018/02/13 08:49:36","新北市林口區下福99號","121.291918333333","25.1178833333333","6501700","林口區"
"244018","402-UM","2018/02/13 08:49:39","新北市林口區文化一路一段124號","121.374916666667","25.0722083333333","6501700","林口區"
"244022","483-VK","2018/02/13 08:49:38","新北市林口區東湖路41巷17號","121.386373333333","25.0730116666667","6501700","林口區"
"244016","485-VK","2018/02/13 08:49:48","新北市林口區文化二路一段16號","121.364778333333","25.067115","6501700","林口區"
"244008","657-BX","2018/02/13 08:49:51","新北市林口區文林一街115巷14號","121.37875","25.08748","6501700","林口區"
"244010","701-TV","2018/02/13 08:49:47","新北市林口區中山路154號","121.390966666667","25.0787283333333","6501700","林口區"
"244024","837-TS","2018/02/13 08:49:34","新北市林口區忠孝一路148號","121.360195","25.07388","6501700","林口區"
"244020","838-TS","2018/02/13 08:49:46","新北市林口區自強一街54號","121.399493333333","25.0773266666667","6501700","林口區"
"222004","289-BY","2018/02/13 08:45:24","新北市深坑區大崙尾1-1號","121.615713333333","24.9752316666667","6501800","深坑區"
"231007","189-VK","2018/02/13 08:49:41","新北市新店區小坑二路117號","121.517523333333","24.9121516666667","6500600","新店區"
"231009","192-VK","2018/02/13 08:49:48","新北市新店區新烏路三段366-1號","121.547355","24.8925683333333","6500600","新店區"
"235001","611-BX","2018/02/13 08:49:36","新北市中和區國光街87號","121.470495","25.0001716666667","6500300","中和區"
"220083","015-TV","2018/02/13 08:49:43","新北市板橋區大觀路二段265巷7-6號","121.442806666667","24.9945983333333","6500100","板橋區"
"226005","5620-A6","2018/02/13 08:49:40","新北市平溪區十分里十分街193號","121.77844","25.0437933333333","6502400","平溪區"
"226002","7418-A5","2018/02/13 08:41:24","新北市平溪區東勢里東勢格11號","121.735236666667","25.0029616666667","6502400","平溪區"
"226003","AGD-0702","2018/02/13 08:49:31","新北市平溪區十分里十分街238號","121.778155","25.04415","6502400","平溪區"
"223001","205-TH","2018/02/13 08:49:33","新北市石碇區北宜路六段柑腳巷2號","121.659558333333","24.93807","6501900","石碇區"
"223008","406-TH","2018/02/13 08:49:34","新北市石碇區碇南路二段松柏崎巷53號","121.678863333333","25.0258883333333","6501900","石碇區"
"223004","437-BY","2018/02/13 08:49:42","新北市石碇區崩山26-1號","121.67672","24.967205","6501900","石碇區"
"223001","592-UM","2018/02/13 08:49:51","新北市石碇區北宜路六段柑腳巷2號","121.659603333333","24.9380566666667","6501900","石碇區"
"223007","661-BX","2018/02/13 08:49:48","新北市石碇區光明路5號","121.6762","25.0276933333333","6501900","石碇區"
"223005","677-TV","2018/02/13 08:49:48","新北市石碇區石碇東街8號","121.662153333333","24.9905","6501900","石碇區"
"227006","282-VK","2018/02/13 08:49:43","新北市雙溪區上林里大瀨1號","121.829953333333","25.02524","6502500","雙溪區"
"227012","030-BX","2018/02/13 08:47:12","新北市雙溪區泰平里料角坑32號","121.796415","24.9741116666667","6502500","雙溪區"
"252004","702-TV","2018/02/13 08:49:33","新北市三芝區興華里田心子18-3號","121.494521666667","25.202795","6502100","三芝區"
"252007","AAC-283","2018/02/13 08:49:37","新北市三芝區錫板里番婆林43號","121.49362","25.2324516666667","6502100","三芝區"
"237001","159-UY","2018/02/13 08:49:46","新北市三峽區學勤路97號","121.374815","24.9462183333333","6500900","三峽區"
"236008","165-UM","2018/02/13 08:49:44","新北市土城區金城路二段46巷5-15號","121.453248333333","24.9735183333333","6501300","土城區"
"236002","339-SR","2018/02/13 08:49:48","新北市土城區中央路三段281巷9-2號","121.426546666667","24.9630316666667","6501300","土城區"
"236006","498-BY","2018/02/13 08:49:49","新北市土城區永和街62巷8號","121.434755","24.95916","6501300","土城區"
