"lineid","car","time","location","longitude","latitude","cityid","cityname"
"248005","653-BX","2018/02/13 09:09:38","新北市五股區水碓路17號","121.433346666667","25.0725616666667","6501500","五股區"
"244012","069-UM","2018/02/13 09:09:39","新北市林口區仁愛路二段201-1號","121.377888333333","25.074735","6501700","林口區"
"244018","402-UM","2018/02/13 09:09:39","新北市林口區忠孝路594巷18號","121.375976666667","25.0672533333333","6501700","林口區"
"244022","483-VK","2018/02/13 09:09:38","新北市林口區仁愛路二段82號","121.384243333333","25.0753316666667","6501700","林口區"
"244008","657-BX","2018/02/13 09:09:44","新北市林口區竹林路362巷16號","121.39265","25.0842433333333","6501700","林口區"
"244010","701-TV","2018/02/13 09:09:47","新北市林口區中正路347號","121.387946666667","25.0774","6501700","林口區"
"244020","838-TS","2018/02/13 09:09:46","新北市林口區工六路96號","121.401063333333","25.0766816666667","6501700","林口區"
"222004","289-BY","2018/02/13 09:09:47","新北市深坑區大崙尾8號","121.61385","24.9799983333333","6501800","深坑區"
"231007","189-VK","2018/02/13 09:09:41","新北市新店區新潭路二段61號","121.521941666667","24.926265","6500600","新店區"
"231009","192-VK","2018/02/13 09:09:48","新北市新店區廣興路40-2號","121.539963333333","24.91216","6500600","新店區"
"235001","611-BX","2018/02/13 09:09:36","新北市中和區民享街245號","121.472031666667","24.9961466666667","6500300","中和區"
"226005","5620-A6","2018/02/13 09:09:41","新北市平溪區嶺腳里田子1-3號","121.750616666667","25.0247733333333","6502400","平溪區"
"226003","AGD-0702","2018/02/13 09:09:51","新北市平溪區嶺腳里嶺腳寮85號","121.748623333333","25.035145","6502400","平溪區"
"223001","205-TH","2018/02/13 09:09:33","新北市石碇區北宜路五段2號","121.627641666667","24.9548683333333","6501900","石碇區"
"223008","406-TH","2018/02/13 09:09:34","新北市石碇區光明路29號","121.695433333333","25.02351","6501900","石碇區"
"223004","437-BY","2018/02/13 09:09:42","新北市石碇區碇坪路二段79號","121.6853","24.9648883333333","6501900","石碇區"
"223001","592-UM","2018/02/13 09:09:31","新北市石碇區北宜路五段火燒樟巷9-1號","121.627073333333","24.95488","6501900","石碇區"
"223007","661-BX","2018/02/13 09:09:47","新北市石碇區光明路28號","121.695251666667","25.02382","6501900","石碇區"
"223005","677-TV","2018/02/13 09:06:52","新北市石碇區碇坪路一段280號","121.676205","24.9769","6501900","石碇區"
"227006","282-VK","2018/02/13 09:09:43","新北市雙溪區外柑里外柑腳94號","121.805128333333","25.0186066666667","6502500","雙溪區"
"227012","030-BX","2018/02/13 09:09:53","新北市坪林區豹子廚9-2號","121.7827","24.9693316666667","6502500","雙溪區"
"252004","702-TV","2018/02/13 09:09:33","新北市三芝區興華里車埕72-8號","121.493395","25.1968733333333","6502100","三芝區"
"252007","AAC-283","2018/02/13 09:09:37","新北市三芝區後厝里北勢子7-22號","121.478576666667","25.253375","6502100","三芝區"
"237001","159-UY","2018/02/13 09:09:46","新北市三峽區學府路100號","121.373861666667","24.94873","6500900","三峽區"
"236008","165-UM","2018/02/13 09:09:44","新北市土城區金城路二段46巷1-24號","121.45366","24.9755533333333","6501300","土城區"
"236002","339-SR","2018/02/13 09:06:37","新北市土城區中央路二段280號","121.440711666667","24.9740166666667","6501300","土城區"
"236006","498-BY","2018/02/13 09:09:49","新北市土城區承天路33號","121.437265","24.9649866666667","6501300","土城區"
