"lineid","car","time","location","longitude","latitude","cityid","cityname"
"248005","653-BX","2018/02/13 09:19:38","新北市五股區水碓三路93號","121.431013333333","25.0722366666667","6501500","五股區"
"244012","069-UM","2018/02/13 09:19:39","新北市林口區麗園二街1巷2-2號","121.376953333333","25.069895","6501700","林口區"
"244018","402-UM","2018/02/13 09:19:51","新北市林口區麗園二街36巷7號","121.380388333333","25.0688283333333","6501700","林口區"
"244022","483-VK","2018/02/13 09:19:38","新北市林口區四維路245巷41號","121.382468333333","25.075305","6501700","林口區"
"244008","657-BX","2018/02/13 09:19:44","新北市林口區林口路226號","121.38691","25.0838333333333","6501700","林口區"
"244010","701-TV","2018/02/13 09:19:47","新北市林口區中山路97巷10號","121.389508333333","25.0782833333333","6501700","林口區"
"244020","838-TS","2018/02/13 09:19:46","新北市林口區粉寮路二段160巷28號","121.405151666667","25.0908183333333","6501700","林口區"
"222004","289-BY","2018/02/13 09:19:47","新北市深坑區王軍寮13號","121.621131666667","24.9850433333333","6501800","深坑區"
"231007","189-VK","2018/02/13 09:19:41","新北市新店區新潭路三段62號","121.507198333333","24.9123866666667","6500600","新店區"
"231009","192-VK","2018/02/13 09:19:48","新北市新店區廣興路60巷35號","121.542436666667","24.91666","6500600","新店區"
"235001","611-BX","2018/02/13 09:19:36","新北市中和區莒光路7號","121.471878333333","25.0059083333333","6500300","中和區"
"223001","205-TH","2018/02/13 09:19:33","新北市石碇區北宜路四段9號","121.61512","24.9610916666667","6501900","石碇區"
"223004","437-BY","2018/02/13 09:19:42","新北市石碇區磨石坑16-3號","121.688123333333","24.971485","6501900","石碇區"
"223001","592-UM","2018/02/13 09:19:31","新北市石碇區北宜路四段9號","121.614985","24.9611883333333","6501900","石碇區"
"223007","661-BX","2018/02/13 09:19:47","新北市石碇區番子坑54號","121.676756666667","25.0107433333333","6501900","石碇區"
"223005","677-TV","2018/02/13 09:19:53","新北市石碇區崩山18號","121.677686666667","24.9687183333333","6501900","石碇區"
"227006","282-VK","2018/02/13 09:19:43","新北市雙溪區長源里赤皮崙7號","121.793738333333","25.0176516666667","6502500","雙溪區"
"227012","030-BX","2018/02/13 09:19:33","新北市坪林區柑腳坑25-1號","121.775306666667","24.961555","6502500","雙溪區"
"252004","702-TV","2018/02/13 09:19:53","新北市三芝區店子里店子48-5號","121.503288333333","25.2065333333333","6502100","三芝區"
"252007","AAC-283","2018/02/13 09:19:37","新北市三芝區古庄里四棧橋35號","121.485663333333","25.262305","6502100","三芝區"
"236008","165-UM","2018/02/13 09:19:44","新北市土城區金城路一段150-9號","121.446408333333","24.9743733333333","6501300","土城區"
"236002","339-SR","2018/02/13 09:19:34","新北市土城區員林街6-1號","121.442706666667","24.9779816666667","6501300","土城區"
"236006","498-BY","2018/02/13 09:19:53","新北市土城區中央路三段76巷42-1號","121.435735","24.9690266666667","6501300","土城區"
