"lineid","car","time","location","longitude","latitude","cityid","cityname"
"231007","189-VK","2018/02/13 10:29:41","新北市新店區新潭路三段131號","121.511283333333","24.911775","6500600","新店區"
"231009","192-VK","2018/02/13 10:29:47","新北市新店區廣興路32-1號","121.540796666667","24.9116733333333","6500600","新店區"
"223005","677-TV","2018/02/13 10:29:53","新北市石碇區碇坪路二段11號","121.681001666667","24.9761433333333","6501900","石碇區"
"227006","282-VK","2018/02/13 10:29:43","新北市雙溪區上林里大瀨75-1號","121.830595","25.0288633333333","6502500","雙溪區"
"252007","AAC-283","2018/02/13 10:29:37","新北市三芝區新庄里番社后24-1號","121.500691666667","25.2724883333333","6502100","三芝區"
"237001","159-UY","2018/02/13 10:29:36","新北市三峽區國際二街33-4號","121.37273","24.9434566666667","6500900","三峽區"
"236006","498-BY","2018/02/13 10:29:48","新北市土城區中央路二段263號","121.43976","24.970925","6501300","土城區"
"239006","661-UM","2018/02/13 10:29:48","新北市樹林區中山路三段210-2號","121.380538333333","24.966965","6500800","鶯歌區"
