"lineid","car","time","location","longitude","latitude","cityid","cityname"
"231007","189-VK","2018/02/13 10:59:41","新北市新店區新潭路二段61號","121.521895","24.9263366666667","6500600","新店區"
"231009","192-VK","2018/02/13 10:59:47","新北市新店區成功路210號","121.527991666667","24.88848","6500600","新店區"
"227006","282-VK","2018/02/13 10:59:43","新北市雙溪區魚行里坤溪9號","121.87292","25.0224416666667","6502500","雙溪區"
"236006","498-BY","2018/02/13 10:59:48","新北市土城區永安街32-3號","121.43343","24.964905","6501300","土城區"
"239006","661-UM","2018/02/13 10:59:44","新北市鶯歌區二甲路12-2號","121.345566666667","24.9347233333333","6500800","鶯歌區"
