"lineid","car","time","location","longitude","latitude","cityid","cityname"
"234044","148-BY","2018/02/13 12:49:50","新北市永和區秀朗路二段149號","121.524826666667","25.0015683333333","6500400","永和區"
"234005","207-UY","2018/02/13 12:49:52","新北市永和區永和路二段245號","121.515751666667","25.01494","6500400","永和區"
"234078","298-R6","2018/02/13 12:49:51","新北市永和區永利路116號","121.521428333333","25.0031883333333","6500400","永和區"
"234036","336-UY","2018/02/13 12:49:37","新北市永和區成功路一段36號","121.527046666667","25.00454","6500400","永和區"
"234062","337-UY","2018/02/13 12:49:50","新北市永和區福和路1號","121.526298333333","25.0097833333333","6500400","永和區"
"234084","338-UY","2018/02/13 12:49:47","新北市永和區中正路74號","121.513638333333","24.9950433333333","6500400","永和區"
"234068","552-UM","2018/02/13 12:49:50","新北市永和區中興街106號","121.5192","25.01224","6500400","永和區"
"234015","745-BX","2018/02/13 12:49:46","新北市永和區永和路二段303號","121.515705","25.0164366666667","6500400","永和區"
"234028","746-BX","2018/02/13 12:49:40","新北市永和區得和路321號","121.523368333333","24.999575","6500400","永和區"
"234012","KEA-2591","2018/02/13 12:49:39","新北市永和區福和路1號","121.5257","25.009445","6500400","永和區"
"234060","AAD-866","2018/02/13 12:49:51","新北市永和區福和路307號","121.516225","25.007275","6500400","永和區"
"234040","862-TW","2018/02/13 12:49:48","新北市永和區永貞路271號","121.51174","25.00485","6500400","永和區"
"234048","863-TW","2018/02/13 12:49:46","新北市永和區保安路2號","121.510706666667","25.0175033333333","6500400","永和區"
"234025","9371-KE","2018/02/13 12:49:39","新北市永和區永和路二段8號","121.51461","25.010315","6500400","永和區"
"234022","9381-KE","2018/02/13 12:49:36","新北市永和區竹林路119巷22弄37號","121.522546666667","25.0112633333333","6500400","永和區"
"234010","9373-KE","2018/02/13 12:49:38","新北市永和區保福路二段158巷1號","121.509081666667","25.0150783333333","6500400","永和區"
"248017","225-UY","2018/02/13 12:49:47","新北市五股區中興路二段83巷26-6號","121.46009","25.0752366666667","6501500","五股區"
"234076","969-R7","2018/02/13 12:49:38","新北市永和區中正路4號","121.512455","24.99356","6500400","永和區"
"234072","AAC-211","2018/02/13 12:49:43","新北市永和區福和路1號","121.526265","25.0095533333333","6500400","永和區"
"234001","AAC-295","2018/02/13 12:49:40","新北市永和區中正路632號","121.516981666667","25.008085","6500400","永和區"
"231028","046-UY","2018/02/13 12:49:53","新北市新店區安華路28-1號","121.519601666667","24.960885","6500600","新店區"
"231030","047-UY","2018/02/13 12:49:46","新北市新店區安華路28-1號","121.519235","24.960955","6500600","新店區"
"231029","106-UY","2018/02/13 12:49:35","新北市新店區安華路28-1號","121.519726666667","24.9609116666667","6500600","新店區"
"231018","107-UY","2018/02/13 12:49:40","新北市新店區安華路28-1號","121.519221666667","24.9613783333333","6500600","新店區"
"231012","108-UY","2018/02/13 12:49:46","新北市新店區安華路28-1號","121.519635","24.9608283333333","6500600","新店區"
"231020","187-VK","2018/02/13 12:49:41","新北市新店區安華路28-1號","121.519496666667","24.9611733333333","6500600","新店區"
"231010","278-BY","2018/02/13 12:49:20","新北市新店區安康路一段359-27號","121.517371666667","24.96084","6500600","新店區"
"231023","AAD-862","2018/02/13 12:49:39","新北市新店區安華路28-1號","121.5201","24.961385","6500600","新店區"
"231038","4715-K9","2018/02/13 12:49:43","新北市新店區安華路28-1號","121.519413333333","24.9606833333333","6500600","新店區"
"231036","512-UM","2018/02/13 12:49:49","新北市新店區安華路28-1號","121.51937","24.961405","6500600","新店區"
"231035","515-UM","2018/02/13 12:49:42","新北市新店區安華路28-1號","121.519453333333","24.9609733333333","6500600","新店區"
"231003","616-UM","2018/02/13 12:49:52","新北市新店區安華路28-1號","121.519361666667","24.96062","6500600","新店區"
"231001","619-UM","2018/02/13 12:49:51","新北市新店區安華路28-1號","121.51944","24.9607633333333","6500600","新店區"
"231034","645-TV","2018/02/13 12:49:34","新北市新店區安華路28-1號","121.519313333333","24.96068","6500600","新店區"
"231013","719-UM","2018/02/13 12:49:55","新北市新店區安華路28-1號","121.519463333333","24.96102","6500600","新店區"
"231032","720-UM","2018/02/13 12:49:43","新北市新店區安華路28-1號","121.519098333333","24.9612966666667","6500600","新店區"
"231004","899-TW","2018/02/13 12:49:39","新北市新店區安華路28-1號","121.519165","24.9609466666667","6500600","新店區"
"235029","098-UM","2018/02/13 12:49:50","新北市中和區中正路637巷52弄1號","121.4855","24.9935633333333","6500300","中和區"
"235002","185-VK","2018/02/13 12:49:38","新北市中和區景平路1號","121.525508333333","24.990105","6500300","中和區"
"235031","255-BX","2018/02/13 12:39:28","新北市中和區新生街251號","121.48406","24.9985483333333","6500300","中和區"
"235035","269-TV","2018/02/13 12:49:49","新北市中和區員山路36巷16-3號","121.485055","24.9910566666667","6500300","中和區"
"235001","611-BX","2018/02/13 12:49:45","新北市中和區員山路429號","121.48089","25.00364","6500300","中和區"
"235016","805-TS","2018/02/13 12:49:40","新北市中和區員山路36巷16號","121.48442","24.9914116666667","6500300","中和區"
"235017","900-TW","2018/02/13 12:49:41","新北市中和區員山路36巷16-2號","121.485005","24.99185","6500300","中和區"
"235015","157-BY","2018/02/13 12:49:51","新北市中和區員山路36巷13號","121.484171666667","24.9908066666667","6500300","中和區"
"228004","212-TW","2018/02/13 12:49:45","新北市貢寮區吉林里內寮街20號","121.889738333333","24.9943833333333","6502600","貢寮區"
"228005","828-UM","2018/02/13 12:49:40","新北市貢寮區福連里福連街34-1號","121.98869","25.011125","6502600","貢寮區"
"208004","AAC-292","2018/02/13 12:49:53","新北市金山區磺清路135號","121.639331666667","25.2278283333333","6502700","金山區"
"207002","749-BX","2018/02/13 12:49:56","新北市萬里區雙興里二坪路32號","121.644971666667","25.16879","6502800","萬里區"
"207001","662-BX","2018/02/13 12:49:53","新北市萬里區萬里里瑪鋉頂街34號","121.68968","25.1795083333333","6502800","萬里區"
"236006","498-BY","2018/02/13 12:49:54","新北市土城區中央路三段179號","121.431408333333","24.9653466666667","6501300","土城區"
"221032","280-BY","2018/02/13 12:49:37","新北市汐止區汐萬路一段81號","121.654688333333","25.0699533333333","6501100","汐止區"
