"lineid","car","time","location","longitude","latitude","cityid","cityname"
"234044","148-BY","2018/02/13 12:59:10","新北市永和區得和路373巷14號","121.525175","25.000195","6500400","永和區"
"234066","149-BY","2018/02/13 12:59:10","新北市永和區永和路一段32號","121.513076666667","25.004975","6500400","永和區"
"234005","207-UY","2018/02/13 12:59:12","新北市永和區永和路二段32號","121.514745","25.0105983333333","6500400","永和區"
"234078","298-R6","2018/02/13 12:59:02","新北市永和區永亨路73號","121.521551666667","25.00584","6500400","永和區"
"234036","336-UY","2018/02/13 12:59:17","新北市永和區成功路二段207號","121.526531666667","24.9959383333333","6500400","永和區"
"234062","337-UY","2018/02/13 12:59:08","新北市永和區秀朗路一段140號","121.518066666667","25.0034383333333","6500400","永和區"
"234084","338-UY","2018/02/13 12:59:07","新北市永和區中正路472號","121.517283333333","25.0032616666667","6500400","永和區"
"234068","552-UM","2018/02/13 12:59:17","新北市永和區竹林路124巷32號","121.518185","25.011615","6500400","永和區"
"234015","745-BX","2018/02/13 12:59:06","新北市永和區永和路二段299號","121.516045","25.0161683333333","6500400","永和區"
"234028","746-BX","2018/02/13 12:59:05","新北市永和區秀朗路二段289號","121.526128333333","24.9980783333333","6500400","永和區"
"234052","KEA-2590","2018/02/13 12:59:08","新北市永和區竹林路66巷2號","121.518223333333","25.0133866666667","6500400","永和區"
"234012","KEA-2591","2018/02/13 12:58:59","新北市永和區保福路二段109巷32號","121.509305","25.0130383333333","6500400","永和區"
"234060","AAD-866","2018/02/13 12:59:11","新北市永和區福和路307號","121.516291666667","25.0071866666667","6500400","永和區"
"234040","862-TW","2018/02/13 12:59:09","新北市永和區永貞路271號","121.511668333333","25.00483","6500400","永和區"
"234048","863-TW","2018/02/13 12:59:06","新北市永和區文化路194號","121.510758333333","25.01621","6500400","永和區"
"234025","9371-KE","2018/02/13 12:58:59","新北市永和區永和路一段41號","121.512761666667","25.00621","6500400","永和區"
"234022","9381-KE","2018/02/13 12:59:16","新北市永和區竹林路75巷33弄35號","121.520928333333","25.0144616666667","6500400","永和區"
"234010","9373-KE","2018/02/13 12:59:17","新北市永和區文化路113巷21弄26號","121.513771666667","25.0139916666667","6500400","永和區"
"248017","225-UY","2018/02/13 12:59:06","新北市五股區中興路二段83巷26-6號","121.459978333333","25.0752683333333","6501500","五股區"
"234076","969-R7","2018/02/13 12:59:18","新北市永和區民享街9號","121.515301666667","24.9954","6500400","永和區"
"234072","AAC-211","2018/02/13 12:59:03","新北市永和區福和路1號","121.526071666667","25.0097433333333","6500400","永和區"
"234001","AAC-295","2018/02/13 12:59:09","新北市永和區永平路20號","121.513518333333","25.00882","6500400","永和區"
"244002","248-BX","2018/02/13 12:59:00","新北市林口區粉寮路二段221號","121.404231666667","25.0906416666667","6501700","林口區"
"231028","046-UY","2018/02/13 12:59:13","新北市新店區安華路28-1號","121.519621666667","24.9608583333333","6500600","新店區"
"231030","047-UY","2018/02/13 12:59:06","新北市新店區安華路28-1號","121.519185","24.9609633333333","6500600","新店區"
"231029","106-UY","2018/02/13 12:59:15","新北市新店區安華路28-1號","121.519745","24.9609366666667","6500600","新店區"
"231018","107-UY","2018/02/13 12:59:00","新北市新店區安華路28-1號","121.519305","24.9613133333333","6500600","新店區"
"231012","108-UY","2018/02/13 12:59:06","新北市新店區安華路28-1號","121.519543333333","24.96108","6500600","新店區"
"231020","187-VK","2018/02/13 12:59:01","新北市新店區安華路28-1號","121.519543333333","24.9611283333333","6500600","新店區"
"231010","278-BY","2018/02/13 12:53:00","新北市新店區安華路28-1號","121.519361666667","24.9611816666667","6500600","新店區"
"231023","AAD-862","2018/02/13 12:59:18","新北市新店區安華路28-1號","121.52006","24.9613416666667","6500600","新店區"
"231038","4715-K9","2018/02/13 12:59:03","新北市新店區安華路1-1號","121.51926","24.9605466666667","6500600","新店區"
"231036","512-UM","2018/02/13 12:59:09","新北市新店區安華路28-1號","121.51941","24.96139","6500600","新店區"
"231035","515-UM","2018/02/13 12:59:02","新北市新店區安華路28-1號","121.519765","24.961225","6500600","新店區"
"231003","616-UM","2018/02/13 12:59:12","新北市新店區安華路28-1號","121.519405","24.9605833333333","6500600","新店區"
"231001","619-UM","2018/02/13 12:59:11","新北市新店區安華路28-1號","121.519161666667","24.960645","6500600","新店區"
"231034","645-TV","2018/02/13 12:59:14","新北市新店區安華路28-1號","121.519223333333","24.9606266666667","6500600","新店區"
"231013","719-UM","2018/02/13 12:59:15","新北市新店區安華路28-1號","121.519325","24.9613533333333","6500600","新店區"
"231032","720-UM","2018/02/13 12:59:03","新北市新店區安華路28-1號","121.51908","24.9612833333333","6500600","新店區"
"231004","899-TW","2018/02/13 12:59:19","新北市新店區安華路28-1號","121.518921666667","24.96093","6500600","新店區"
"235029","098-UM","2018/02/13 12:59:10","新北市中和區連城路174巷38號","121.494271666667","25.0002683333333","6500300","中和區"
"235022","151-BY","2018/02/13 12:59:06","新北市中和區中正路571巷1弄4號","121.486981666667","24.993485","6500300","中和區"
"235002","185-VK","2018/02/13 12:59:18","新北市中和區秀朗路三段10巷14弄41-5號","121.524216666667","24.996425","6500300","中和區"
"235031","255-BX","2018/02/13 12:59:20","新北市中和區新生街42號","121.483228333333","25.0034483333333","6500300","中和區"
"235035","269-TV","2018/02/13 12:59:09","新北市中和區民樂路75號","121.484285","25.001355","6500300","中和區"
"235001","611-BX","2018/02/13 12:59:05","新北市中和區中山路三段120-19號","121.474173333333","25.0085083333333","6500300","中和區"
"235011","732-UM","2018/02/13 12:59:11","新北市中和區員山路36巷13號","121.48415","24.9910516666667","6500300","中和區"
"235026","800-TS","2018/02/13 12:59:15","新北市中和區連城路190-1號","121.492526666667","24.9976583333333","6500300","中和區"
"235016","805-TS","2018/02/13 12:59:00","新北市中和區員山路36巷16號","121.484478333333","24.991315","6500300","中和區"
"235017","900-TW","2018/02/13 12:59:01","新北市中和區員山路36巷16-2號","121.485055","24.9917633333333","6500300","中和區"
"235015","157-BY","2018/02/13 12:59:11","新北市中和區員山路36巷16-2號","121.485186666667","24.9915566666667","6500300","中和區"
"235005","251-BX","2018/02/13 12:59:01","新北市中和區和城路一段271巷1號","121.485438333333","24.9916583333333","6500300","中和區"
"228004","212-TW","2018/02/13 12:59:05","新北市貢寮區吉林里內寮街19號","121.887231666667","24.9886516666667","6502600","貢寮區"
"228005","828-UM","2018/02/13 12:56:01","新北市貢寮區福連里香蘭街5號","121.97436","25.0243916666667","6502600","貢寮區"
"208004","AAC-292","2018/02/13 12:59:13","新北市金山區磺港里磺港路328號","121.647588333333","25.2296233333333","6502700","金山區"
"207002","749-BX","2018/02/13 12:59:16","新北市萬里區雙興里大坪路37-1號","121.627715","25.170495","6502800","萬里區"
"207001","662-BX","2018/02/13 12:59:13","新北市萬里區萬里里獅頭路22-1號","121.693081666667","25.178285","6502800","萬里區"
"252005","AAC-283","2018/02/13 12:59:09","新北市三芝區忠孝街16號","121.506101666667","25.2556516666667","6502100","三芝區"
"237008","302-VK","2018/02/13 12:59:06","新北市三峽區中山路116號","121.365775","24.9359033333333","6500900","三峽區"
"236006","498-BY","2018/02/13 12:59:12","新北市土城區亞洲路30號","121.435966666667","24.974395","6501300","土城區"
"221032","280-BY","2018/02/13 12:59:17","新北市汐止區大同路二段689號","121.665181666667","25.0724616666667","6501100","汐止區"
