"lineid","car","time","location","longitude","latitude","cityid","cityname"
"234044","148-BY","2018/02/13 13:39:12","新北市永和區秀朗路二段99號","121.523485","25.0017233333333","6500400","永和區"
"234066","149-BY","2018/02/13 13:39:10","新北市永和區永平路173巷14弄2號","121.51021","25.0085133333333","6500400","永和區"
"234005","207-UY","2018/02/13 13:39:12","新北市永和區中山路一段101號","121.511068333333","25.01039","6500400","永和區"
"234078","298-R6","2018/02/13 13:39:11","新北市永和區國中路104巷8弄28號","121.525521666667","25.0061633333333","6500400","永和區"
"234036","336-UY","2018/02/13 13:39:27","新北市永和區民樂街31巷6弄2號","121.528015","25.00126","6500400","永和區"
"234062","337-UY","2018/02/13 13:39:23","新北市永和區秀朗路二段24巷28弄8號","121.519618333333","25.0018166666667","6500400","永和區"
"234084","338-UY","2018/02/13 13:39:07","新北市永和區成功路一段18巷15號","121.526328333333","25.00503","6500400","永和區"
"234068","552-UM","2018/02/13 13:39:10","新北市永和區永和路二段216號","121.515656666667","25.014015","6500400","永和區"
"234015","745-BX","2018/02/13 13:39:06","新北市永和區環河西路一段1號","121.515335","25.01803","6500400","永和區"
"234028","746-BX","2018/02/13 13:39:19","新北市永和區民權路1巷38號","121.522103333333","24.99813","6500400","永和區"
"234052","KEA-2590","2018/02/13 13:39:11","新北市永和區復興街91號","121.517776666667","25.0141483333333","6500400","永和區"
"234012","KEA-2591","2018/02/13 13:39:24","新北市永和區永平路246號","121.508783333333","25.0111683333333","6500400","永和區"
"234060","AAD-866","2018/02/13 13:39:11","新北市永和區中正路446號","121.5174","25.0027733333333","6500400","永和區"
"234040","862-TW","2018/02/13 13:39:09","新北市永和區中和路305巷10弄1號","121.506996666667","25.0007783333333","6500400","永和區"
"234048","863-TW","2018/02/13 13:39:26","新北市永和區保安路69號","121.509001666667","25.0153083333333","6500400","永和區"
"234025","9371-KE","2018/02/13 13:39:19","新北市永和區保福路一段27號","121.512843333333","25.0087566666667","6500400","永和區"
"234022","9381-KE","2018/02/13 13:39:27","新北市永和區中正路700號","121.516381666667","25.0100233333333","6500400","永和區"
"234010","9373-KE","2018/02/13 13:39:24","新北市永和區保福路二段23巷19號","121.510095","25.011205","6500400","永和區"
"248017","225-UY","2018/02/13 13:39:27","新北市五股區民義路二段66-1號","121.40627","25.1081233333333","6501500","五股區"
"234076","969-R7","2018/02/13 13:39:18","新北市永和區得和路109號","121.51839","25.00025","6500400","永和區"
"234072","AAC-211","2018/02/13 13:39:23","新北市永和區豫溪街160巷17號","121.52333","25.0091116666667","6500400","永和區"
"234001","AAC-295","2018/02/13 13:39:23","新北市永和區秀朗路一段6號","121.513766666667","25.0072283333333","6500400","永和區"
"244002","248-BX","2018/02/13 13:39:20","新北市林口區頂福里71-26號","121.355411666667","25.08001","6501700","林口區"
"231002","002-UM","2018/02/13 13:39:25","新北市新店區中央三街127號","121.524203333333","24.9769383333333","6500600","新店區"
"231025","0293-UT","2018/02/13 13:39:14","新北市新店區環河路116號","121.537006666667","24.9672383333333","6500600","新店區"
"231028","046-UY","2018/02/13 13:39:13","新北市新店區安和路二段126號","121.519323333333","24.9714016666667","6500600","新店區"
"231030","047-UY","2018/02/13 13:39:26","新北市新店區安康路一段92-1號","121.527895","24.9620616666667","6500600","新店區"
"231029","106-UY","2018/02/13 13:39:15","新北市新店區安康路二段218號","121.5098","24.9593516666667","6500600","新店區"
"231018","107-UY","2018/02/13 13:39:20","新北市新店區百忍街12號","121.534788333333","24.9756583333333","6500600","新店區"
"231012","108-UY","2018/02/13 13:39:06","新北市新店區德正街29號","121.544608333333","24.9714133333333","6500600","新店區"
"231020","187-VK","2018/02/13 13:39:21","新北市新店區永興路95-3號","121.544618333333","24.9320533333333","6500600","新店區"
"231015","KEA-2219","2018/02/13 13:38:55","新北市新店區竹林路2巷33號","121.550481666667","24.9502233333333","6500600","新店區"
"231026","256-BX","2018/02/13 13:39:19","新北市新店區北新路一段307號","121.541458333333","24.9677016666667","6500600","新店區"
"231010","278-BY","2018/02/13 13:39:20","新北市新店區中正路307巷16號","121.536301666667","24.97442","6500600","新店區"
"231023","AAD-862","2018/02/13 13:39:18","新北市新店區新店路157號","121.537086666667","24.9551133333333","6500600","新店區"
"231027","3712-VJ","2018/02/13 13:39:10","新北市新店區能仁街12-1號","121.5407","24.955535","6500600","新店區"
"231024","4716-K9","2018/02/13 13:39:20","新北市新店區華中街40號","121.540585","24.9706783333333","6500600","新店區"
"231038","4715-K9","2018/02/13 13:39:23","新北市新店區安華路30巷1號","121.519616666667","24.959315","6500600","新店區"
"231036","512-UM","2018/02/13 13:39:09","新北市新店區安祥路147巷55號","121.476103333333","24.956015","6500600","新店區"
"231035","515-UM","2018/02/13 13:39:22","新北市新店區安忠路90-10號","121.511286666667","24.95757","6500600","新店區"
"231003","616-UM","2018/02/13 13:39:15","新北市新店區中正路5號","121.545783333333","24.9691","6500600","新店區"
"231001","619-UM","2018/02/13 13:39:16","新北市新店區中正路366號","121.53525","24.9762516666667","6500600","新店區"
"231034","645-TV","2018/02/13 13:39:14","新北市新店區車子路109號","121.505278333333","24.9521233333333","6500600","新店區"
"231013","719-UM","2018/02/13 13:39:15","新北市新店區中正路454-5號","121.534466666667","24.97908","6500600","新店區"
"231032","720-UM","2018/02/13 13:39:26","新北市新店區莒光路12號","121.527415","24.961415","6500600","新店區"
"231005","897-TW","2018/02/13 13:39:19","新北市新店區寶中路72號","121.547893333333","24.9805833333333","6500600","新店區"
"231006","898-TW","2018/02/13 13:39:16","新北市新店區北宜路一段83號","121.538676666667","24.9560566666667","6500600","新店區"
"231004","899-TW","2018/02/13 13:39:19","新北市新店區北新路二段1號","121.542741666667","24.9712466666667","6500600","新店區"
"231037","AKT-0513","2018/02/13 13:39:20","新北市新店區薏仁坑路29-1號","121.49585","24.960285","6500600","新店區"
"235030","003-UY","2018/02/13 13:39:11","新北市中和區水源路30號","121.504558333333","25.0035066666667","6500300","中和區"
"235028","005-UY","2018/02/13 13:39:28","新北市中和區連城路125號","121.496026666667","24.9991816666667","6500300","中和區"
"235027","006-UY","2018/02/13 13:39:28","新北市中和區連城路347巷16弄27號","121.48757","24.995065","6500300","中和區"
"235060","031-BX","2018/02/13 13:39:25","新北市中和區員山路130號","121.481225","24.996285","6500300","中和區"
"235020","096-UM","2018/02/13 13:39:15","新北市中和區新民街12號","121.482443333333","25.0057483333333","6500300","中和區"
"235003","097-UM","2018/02/13 13:39:08","新北市中和區景平路278巷14弄6號","121.514375","24.9929583333333","6500300","中和區"
"235029","098-UM","2018/02/13 13:39:10","新北市中和區莊敬路49巷29弄6號","121.501513333333","25.006435","6500300","中和區"
"235004","150-BY","2018/02/13 13:38:56","新北市中和區安平路59號","121.509598333333","24.995115","6500300","中和區"
"235022","151-BY","2018/02/13 13:39:26","新北市中和區圓通路369巷70號","121.490308333333","24.98233","6500300","中和區"
"235019","183-VK","2018/02/13 13:39:12","新北市中和區莒光路120巷58號","121.471628333333","25.0007216666667","6500300","中和區"
"235002","185-VK","2018/02/13 13:39:17","新北市中和區立人街24-5號","121.518868333333","24.99421","6500300","中和區"
"235013","186-VK","2018/02/13 13:39:21","新北市中和區景平路480號","121.505026666667","24.9936733333333","6500300","中和區"
"235031","255-BX","2018/02/13 13:39:19","新北市中和區連城路340巷14弄2號","121.483395","24.9972466666667","6500300","中和區"
"235008","293-VK","2018/02/13 13:39:18","新北市中和區復興路280巷1弄2號","121.50224","24.9907066666667","6500300","中和區"
"235036","301-VK","2018/02/13 13:39:09","新北市中和區連城路2號","121.499258333333","25.0023783333333","6500300","中和區"
"235007","352-BY","2018/02/13 13:38:55","新北市中和區景平路137號","121.514601666667","24.9921216666667","6500300","中和區"
"235025","378-QA","2018/02/13 13:39:21","新北市中和區民享街92巷18號","121.474308333333","24.9998983333333","6500300","中和區"
"235035","269-TV","2018/02/13 13:39:29","新北市中和區中原街92號","121.488446666667","25.0104383333333","6500300","中和區"
"235014","4979-A6","2018/02/13 13:39:24","新北市中和區景新街496巷26號","121.513326666667","24.9858966666667","6500300","中和區"
"235033","4980-A6","2018/02/13 13:39:09","新北市中和區連城路65巷12號","121.497955","25.000755","6500300","中和區"
"235006","551-UM","2018/02/13 13:39:15","新北市中和區成功路127巷15號","121.526635","24.9908733333333","6500300","中和區"
"235034","558-UM","2018/02/13 13:39:08","新北市中和區南華路71號","121.504855","24.997325","6500300","中和區"
"235009","565-BX","2018/02/13 13:39:22","新北市中和區南山路236巷19號","121.50566","24.9886466666667","6500300","中和區"
"235018","640-BX","2018/02/13 13:39:14","新北市中和區莒光路129巷2弄24號","121.473091666667","25.001175","6500300","中和區"
"235024","647-TV","2018/02/13 13:39:14","新北市中和區中山路二段610號","121.481686666667","25.0054133333333","6500300","中和區"
"235011","732-UM","2018/02/13 13:39:11","新北市中和區南山路320巷10弄21號","121.50671","24.9866916666667","6500300","中和區"
"235026","800-TS","2018/02/13 13:39:23","新北市中和區中山路二段306號","121.495776666667","25.002535","6500300","中和區"
"235021","801-TS","2018/02/13 13:39:28","新北市中和區民安街42巷36號","121.47906","25.0012866666667","6500300","中和區"
"235016","805-TS","2018/02/13 13:39:20","新北市中和區興南路三段42-3號","121.49563","24.9769566666667","6500300","中和區"
"235012","896-TW","2018/02/13 13:39:28","新北市中和區中正路19號","121.502863333333","24.993325","6500300","中和區"
"235017","900-TW","2018/02/13 13:39:21","新北市中和區華安街98-1號","121.468531666667","24.9957966666667","6500300","中和區"
"235015","157-BY","2018/02/13 13:39:11","新北市中和區華新街143巷106弄20號","121.505938333333","24.9790083333333","6500300","中和區"
"235023","AAC-215","2018/02/13 13:39:12","新北市中和區錦和路171號","121.490738333333","24.9913533333333","6500300","中和區"
"220016","013-TV","2018/02/13 13:39:10","新北市板橋區民生路二段161巷9號","121.470238333333","25.0195966666667","6500100","板橋區"
"220013","072-UY","2018/02/13 13:39:08","新北市板橋區縣民大道二段82號","121.465395","25.0144033333333","6500100","板橋區"
"220034","073-UY","2018/02/13 13:39:25","新北市板橋區大智街74號","121.453816666667","25.0155783333333","6500100","板橋區"
"220017","AAD-861","2018/02/13 13:39:19","新北市板橋區華東街1-10號","121.448398333333","24.9951033333333","6500100","板橋區"
"247005","056-VK","2018/02/13 13:39:17","新北市五股區中興路二段182巷50號","121.45526","25.0814133333333","6501400","蘆洲區"
"235005","251-BX","2018/02/13 13:39:21","新北市中和區中和路400巷17號","121.511518333333","25.00238","6500300","中和區"
"228004","212-TW","2018/02/13 13:37:05","新北市貢寮區龍崗里石壁坑街30號","121.909711666667","25.00136","6502600","貢寮區"
"228005","828-UM","2018/02/13 13:39:20","新北市貢寮區美豐里文秀坑3號","121.90427","25.0526666666667","6502600","貢寮區"
"208004","AAC-292","2018/02/13 13:39:13","新北市金山區南勢湖66號","121.616475","25.2147733333333","6502700","金山區"
"207002","749-BX","2018/02/13 13:39:16","新北市萬里區崁腳里崁腳路166號","121.64509","25.1558783333333","6502800","萬里區"
"207001","662-BX","2018/02/13 13:38:53","新北市金山區月眉2號","121.634845","25.21381","6502800","萬里區"
"252005","AAC-283","2018/02/13 13:39:09","新北市三芝區圓山里二坪頂46號","121.541136666667","25.231215","6502100","三芝區"
"237004","KEA-2597","2018/02/13 13:39:13","新北市三峽區五寮41-2號","121.368053333333","24.8648383333333","6500900","三峽區"
"237009","210-TH","2018/02/13 13:39:20","新北市三峽區大勇路36巷31號","121.365143333333","24.93693","6500900","三峽區"
"237013","252-BX","2018/02/13 13:39:25","新北市三峽區永安街77巷6號","121.375686666667","24.9293483333333","6500900","三峽區"
"237012","275-BY","2018/02/13 13:39:10","新北市三峽區三樹路212號","121.379551666667","24.9420816666667","6500900","三峽區"
"237008","302-VK","2018/02/13 13:39:06","新北市三峽區白雞89號","121.402303333333","24.908425","6500900","三峽區"
"237006","5529-G3","2018/02/13 13:39:08","新北市三峽區溪東路315巷74號","121.411705","24.9314333333333","6500900","三峽區"
"237011","KEA-2596","2018/02/13 13:39:18","新北市三峽區成福路188號","121.426175","24.9274316666667","6500900","三峽區"
"237016","649-BX","2018/02/13 13:39:12","新北市三峽區紫新路32巷1號","121.422261666667","24.9220516666667","6500900","三峽區"
"237010","706-TV","2018/02/13 13:39:24","新北市三峽區復興路465-1號","121.361798333333","24.9385083333333","6500900","三峽區"
"237005","AKY-6261","2018/02/13 13:39:09","新北市三峽區秀川街82號","121.37072","24.9335983333333","6500900","三峽區"
"236075","166-UM","2018/02/13 13:39:20","新北市土城區城林路6巷80號","121.438496666667","24.979645","6501300","土城區"
"236013","270-VK","2018/02/13 13:39:11","新北市土城區城林路6巷80號","121.438433333333","24.9797216666667","6501300","土城區"
"236006","498-BY","2018/02/13 13:39:14","新北市土城區城林路6巷80號","121.438651666667","24.9798233333333","6501300","土城區"
"236054","AAC-216","2018/02/13 13:39:23","新北市土城區城林路6巷80號","121.438458333333","24.97969","6501300","土城區"
"242046","172-VK","2018/02/13 13:39:14","新北市板橋區溪城路90-2號","121.428675","24.9795633333333","6500500","新莊區"
"221032","280-BY","2018/02/13 13:39:17","新北市汐止區水源路一段72號","121.656828333333","25.0652533333333","6501100","汐止區"
"220027","145-BY","2018/02/13 13:39:24","新北市板橋區大仁街6號","121.456116666667","25.017115","6500100","板橋區"
"220028","200-UY","2018/02/13 13:39:21","新北市板橋區大觀路二段265巷7-7號","121.443591666667","24.9947016666667","6500100","板橋區"
"220030","610-BX","2018/02/13 13:39:10","新北市板橋區大觀路二段443-2號","121.440245","24.9950983333333","6500100","板橋區"
"220004","276-BY","2018/02/13 13:39:14","新北市板橋區四川路二段245巷66號","121.453281666667","24.991635","6500100","板橋區"
"220020","277-BY","2018/02/13 13:39:26","新北市板橋區大觀路三段59巷17弄6-1號","121.437218333333","24.9953883333333","6500100","板橋區"
"220043","283-UM","2018/02/13 13:39:24","新北市板橋區民生路二段161巷7號","121.47018","25.019645","6500100","板橋區"
"220001","283-VK","2018/02/13 13:39:20","新北市板橋區華東街1-9號","121.448155","24.99489","6500100","板橋區"
"220001","285-VK","2018/02/13 13:39:23","新北市板橋區民生路二段120號","121.470336666667","25.0198616666667","6500100","板橋區"
"220031","286-VK","2018/02/13 13:39:20","新北市板橋區板城路271號","121.450188333333","24.9979083333333","6500100","板橋區"
"220029","287-VK","2018/02/13 13:39:22","新北市板橋區大觀路二段153巷37號","121.446923333333","25.0003583333333","6500100","板橋區"
"220009","293-UM","2018/02/13 13:39:14","新北市板橋區民生路二段120號","121.470386666667","25.019855","6500100","板橋區"
"220032","296-UM","2018/02/13 13:39:24","新北市板橋區大觀路二段153巷44弄1號","121.446186666667","24.9993083333333","6500100","板橋區"
"220023","303-R5","2018/02/13 13:39:09","新北市板橋區南雅南路二段120-7號","121.452168333333","24.999495","6500100","板橋區"
"220010","305-R5","2018/02/13 13:39:11","新北市板橋區民生路二段120號","121.470523333333","25.0196516666667","6500100","板橋區"
"220037","491-VK","2018/02/13 13:39:06","新北市板橋區民生路二段171號","121.469871666667","25.020135","6500100","板橋區"
"220104","560-BX","2018/02/13 13:39:27","新北市板橋區南雅西路二段145巷6號","121.451608333333","25.011785","6500100","板橋區"
"220003","630-UY","2018/02/13 13:39:23","新北市板橋區華東街1-9號","121.448143333333","24.9949283333333","6500100","板橋區"
"220025","687-BX","2018/02/13 13:39:26","新北市板橋區大觀路三段236-6號","121.429253333333","24.99236","6500100","板橋區"
"220014","829-TW","2018/02/13 13:39:22","新北市板橋區民生路二段120號","121.470336666667","25.019695","6500100","板橋區"
"220022","895-R6","2018/02/13 13:39:19","新北市板橋區南雅南路一段47號","121.455926666667","25.0061883333333","6500100","板橋區"
"220021","985-R7","2018/02/13 13:39:09","新北市板橋區南雅南路二段11-4號","121.45409","25.0024483333333","6500100","板橋區"
"220046","AAC-210","2018/02/13 13:39:15","新北市板橋區民生路二段120號","121.470476666667","25.0195533333333","6500100","板橋區"
"220018","AAC-253","2018/02/13 13:39:24","新北市板橋區華東街1-9號","121.448241666667","24.9948783333333","6500100","板橋區"
