"lineid","car","time","location","longitude","latitude","cityid","cityname"
"234044","148-BY","2018/02/13 14:09:17","新北市永和區成功路一段107號","121.526891666667","25.002415","6500400","永和區"
"234066","149-BY","2018/02/13 14:09:28","新北市永和區保平路236巷10號","121.508693333333","25.0062083333333","6500400","永和區"
"234005","207-UY","2018/02/13 14:09:21","新北市中和區中和路318號","121.509461666667","25.000615","6500400","永和區"
"234078","298-R6","2018/02/13 14:09:11","新北市永和區永亨路98號","121.523068333333","25.0048016666667","6500400","永和區"
"234036","336-UY","2018/02/13 14:09:17","新北市永和區成功路一段74號","121.526745","25.003355","6500400","永和區"
"234062","337-UY","2018/02/13 14:09:10","新北市永和區永利路96號","121.520821666667","25.0035983333333","6500400","永和區"
"234084","338-UY","2018/02/13 14:09:27","新北市永和區福和路59號","121.522993333333","25.0079716666667","6500400","永和區"
"234068","552-UM","2018/02/13 14:09:10","新北市永和區大新街78-1號","121.517275","25.0081916666667","6500400","永和區"
"234015","745-BX","2018/02/13 14:09:25","新北市永和區文化路154號","121.512341666667","25.0153516666667","6500400","永和區"
"234028","746-BX","2018/02/13 14:09:24","新北市永和區民生路22巷13號","121.521725","24.997085","6500400","永和區"
"234052","KEA-2590","2018/02/13 14:09:11","新北市永和區博愛街27巷2號","121.518156666667","25.0158233333333","6500400","永和區"
"234012","KEA-2591","2018/02/13 14:09:19","新北市永和區保生路5巷3號","121.506053333333","25.0070516666667","6500400","永和區"
"234060","AAD-866","2018/02/13 14:09:13","新北市永和區安樂路100巷11號","121.514508333333","24.9992383333333","6500400","永和區"
"234040","862-TW","2018/02/13 14:09:09","新北市永和區雙和街64巷23號","121.509701666667","25.00338","6500400","永和區"
"234048","863-TW","2018/02/13 14:09:26","新北市永和區永平路356號","121.505973333333","25.0136783333333","6500400","永和區"
"234025","9371-KE","2018/02/13 14:09:19","新北市永和區安樂路272巷11號","121.514998333333","25.0043116666667","6500400","永和區"
"234022","9381-KE","2018/02/13 14:09:16","新北市永和區光復街2巷16弄52號","121.51843","25.0162566666667","6500400","永和區"
"248017","225-UY","2018/02/13 14:09:27","新北市五股區民義路一段224號","121.429395","25.0906966666667","6501500","五股區"
"234076","969-R7","2018/02/13 14:09:18","新北市永和區民治街29號","121.519673333333","24.997685","6500400","永和區"
"234072","AAC-211","2018/02/13 14:09:23","新北市永和區竹林路191巷22號","121.521665","25.0095783333333","6500400","永和區"
"234001","AAC-295","2018/02/13 14:09:19","新北市永和區中正路629號","121.515553333333","25.00998","6500400","永和區"
"231002","002-UM","2018/02/13 14:09:26","新北市新店區中正路608號","121.533923333333","24.9883883333333","6500600","新店區"
"231025","0293-UT","2018/02/13 14:09:14","新北市新店區建安街33巷28號","121.53827","24.975435","6500600","新店區"
"231028","046-UY","2018/02/13 14:09:13","新北市新店區安業街1號","121.515981666667","24.97866","6500600","新店區"
"231030","047-UY","2018/02/13 14:09:26","新北市新店區薏仁坑路自強巷1號","121.497163333333","24.957885","6500600","新店區"
"231029","106-UY","2018/02/13 14:09:15","新北市新店區安康路二段153號","121.510761666667","24.9596816666667","6500600","新店區"
"231018","107-UY","2018/02/13 14:09:20","新北市新店區中央路97號","121.531326666667","24.9750683333333","6500600","新店區"
"231012","108-UY","2018/02/13 14:09:26","新北市新店區中興路一段252號","121.544418333333","24.9666366666667","6500600","新店區"
"231020","187-VK","2018/02/13 14:09:21","新北市新店區頂石厝路26號","121.537233333333","24.91857","6500600","新店區"
"231015","KEA-2219","2018/02/13 14:09:15","新北市新店區北宜路二段435號","121.561108333333","24.95425","6500600","新店區"
"231026","256-BX","2018/02/13 14:09:19","新北市新店區安華路3號","121.51928","24.95976","6500600","新店區"
"231023","AAD-862","2018/02/13 14:09:18","新北市新店區文中路40號","121.539773333333","24.9565466666667","6500600","新店區"
"231027","3712-VJ","2018/02/13 14:09:10","新北市新店區檳榔路36巷14號","121.54117","24.96334","6500600","新店區"
"231024","4716-K9","2018/02/13 14:09:20","新北市新店區新生街13巷42-1號","121.538881666667","24.96653","6500600","新店區"
"231038","4715-K9","2018/02/13 14:09:22","新北市新店區溪洲路121號","121.531198333333","24.962795","6500600","新店區"
"231036","512-UM","2018/02/13 14:09:29","新北市新店區安祥路109巷3弄104號","121.479315","24.9605066666667","6500600","新店區"
"231035","515-UM","2018/02/13 14:09:26","新北市新店區安民街156巷31號","121.517858333333","24.9700566666667","6500600","新店區"
"231003","616-UM","2018/02/13 14:09:12","新北市新店區中興路一段170號","121.542868333333","24.9643883333333","6500600","新店區"
"231001","619-UM","2018/02/13 14:09:25","新北市新店區中華路70巷1號","121.539023333333","24.9693466666667","6500600","新店區"
"231034","645-TV","2018/02/13 14:09:14","新北市新店區黎明路3號","121.503556666667","24.9524566666667","6500600","新店區"
"231013","719-UM","2018/02/13 14:09:15","新北市新店區北新路三段65巷34弄15號","121.540053333333","24.9814833333333","6500600","新店區"
"231032","720-UM","2018/02/13 14:09:23","新北市新店區太平路28巷36號","121.533276666667","24.95923","6500600","新店區"
"231005","897-TW","2018/02/13 14:09:19","新北市新店區中興路三段301號","121.542091666667","24.9854733333333","6500600","新店區"
"231006","898-TW","2018/02/13 14:09:16","新北市新店區北宜路二段150-1號","121.557856666667","24.9539433333333","6500600","新店區"
"231004","899-TW","2018/02/13 14:09:19","新北市新店區北新路二段200號","121.543038333333","24.9768316666667","6500600","新店區"
"231037","AKT-0513","2018/02/13 14:09:20","新北市新店區安康路三段165巷2弄10號","121.489121666667","24.9513416666667","6500600","新店區"
"241033","557-UM","2018/02/13 14:09:20","新北市三重區竹圍(仔)街17-5號","121.487741666667","25.04791","6500200","三重區"
"235030","003-UY","2018/02/13 14:09:11","新北市中和區廣福路63號","121.502561666667","25.001105","6500300","中和區"
"235028","005-UY","2018/02/13 14:09:28","新北市中和區泰和街30巷37號","121.498635","25.0016766666667","6500300","中和區"
"235027","006-UY","2018/02/13 14:09:28","新北市中和區中正路590號","121.485876666667","24.995035","6500300","中和區"
"235060","031-BX","2018/02/13 14:09:25","新北市中和區連城路469-1號","121.483593333333","24.9958483333333","6500300","中和區"
"235020","096-UM","2018/02/13 14:09:15","新北市中和區中正路1220巷8號","121.479871666667","25.0113333333333","6500300","中和區"
"235003","097-UM","2018/02/13 14:09:28","新北市中和區秀峰街95號","121.520951666667","24.99029","6500300","中和區"
"235029","098-UM","2018/02/13 14:09:30","新北市中和區中山路二段116巷3弄9號","121.5022","25.0040066666667","6500300","中和區"
"235004","150-BY","2018/02/13 14:09:16","新北市中和區保健路44巷30號","121.508808333333","24.9964416666667","6500300","中和區"
"235022","151-BY","2018/02/13 14:09:26","新北市中和區員山路84號","121.480938333333","24.9941283333333","6500300","中和區"
"235019","183-VK","2018/02/13 14:09:12","新北市中和區德光路132號","121.468021666667","25.0032033333333","6500300","中和區"
"235002","185-VK","2018/02/13 14:09:17","新北市中和區大仁街10巷27弄4號","121.519246666667","24.9927133333333","6500300","中和區"
"235013","186-VK","2018/02/13 14:09:21","新北市中和區景新街129號","121.505853333333","24.99727","6500300","中和區"
"235031","255-BX","2018/02/13 14:09:19","新北市中和區新生街170號","121.48368","25.000085","6500300","中和區"
"235008","293-VK","2018/02/13 14:09:25","新北市中和區復興路327巷4號","121.500666666667","24.9898583333333","6500300","中和區"
"235036","301-VK","2018/02/13 14:09:29","新北市中和區福祥路72號","121.499298333333","25.0053883333333","6500300","中和區"
"235007","352-BY","2018/02/13 14:09:15","新北市中和區景平路102號","121.519926666667","24.9914933333333","6500300","中和區"
"235032","377-QA","2018/02/13 14:09:21","新北市中和區圓通路158巷1弄5號","121.497481666667","24.9959183333333","6500300","中和區"
"235025","378-QA","2018/02/13 14:09:21","新北市中和區員山路469巷1號","121.48031","25.00454","6500300","中和區"
"235035","269-TV","2018/02/13 14:09:09","新北市中和區立德街72巷24號","121.487753333333","25.008305","6500300","中和區"
"235014","4979-A6","2018/02/13 14:09:24","新北市中和區南山路320巷15號","121.507371666667","24.9864033333333","6500300","中和區"
"235006","551-UM","2018/02/13 14:09:15","新北市中和區秀朗路三段128巷1弄6號","121.5242","24.9920483333333","6500300","中和區"
"235034","558-UM","2018/02/13 14:09:08","新北市中和區安和路216號","121.506205","24.9994583333333","6500300","中和區"
"235009","565-BX","2018/02/13 14:09:22","新北市中和區景新街467巷35弄1號","121.51462","24.9890516666667","6500300","中和區"
"235018","640-BX","2018/02/13 14:09:14","新北市中和區國光街107巷4弄10號","121.47024","24.9995083333333","6500300","中和區"
"235024","647-TV","2018/02/13 14:09:14","新北市中和區中山路三段113號","121.474701666667","25.0059966666667","6500300","中和區"
"235011","732-UM","2018/02/13 14:09:10","新北市中和區興南路一段63-6號","121.510333333333","24.98959","6500300","中和區"
"235010","733-UM","2018/02/13 14:09:16","新北市中和區忠孝街1巷18號","121.508636666667","24.9838333333333","6500300","中和區"
"235026","800-TS","2018/02/13 14:09:15","新北市中和區中山路二段340巷17號","121.493556666667","25.00306","6500300","中和區"
"235021","801-TS","2018/02/13 14:09:08","新北市中和區民利街50號","121.479291666667","24.9987666666667","6500300","中和區"
"235016","805-TS","2018/02/13 14:09:20","新北市中和區興南路二段261巷6-3號","121.502506666667","24.9795083333333","6500300","中和區"
"235012","896-TW","2018/02/13 14:09:08","新北市中和區工專路147號","121.508475","24.9789133333333","6500300","中和區"
"235017","900-TW","2018/02/13 14:09:21","新北市中和區華福街51號","121.46655","24.9967116666667","6500300","中和區"
"235015","157-BY","2018/02/13 14:09:11","新北市中和區忠孝街101巷19號","121.51104","24.9859583333333","6500300","中和區"
"235023","AAC-215","2018/02/13 14:09:12","新北市中和區圓通路294巷17-5號","121.488608333333","24.9904533333333","6500300","中和區"
"220016","013-TV","2018/02/13 14:09:30","新北市板橋區中山路二段443巷80號","121.480931666667","25.0223966666667","6500100","板橋區"
"220013","072-UY","2018/02/13 14:09:28","新北市板橋區民族路219巷20號","121.46943","25.0080916666667","6500100","板橋區"
"220034","073-UY","2018/02/13 14:09:19","新北市板橋區中正路216巷100號","121.4588","25.0191116666667","6500100","板橋區"
"220105","075-UY","2018/02/13 14:09:23","新北市板橋區雙十路三段10巷16號","121.472353333333","25.0309633333333","6500100","板橋區"
"220017","AAD-861","2018/02/13 14:09:18","新北市板橋區貴興路8號","121.457658333333","25.0044466666667","6500100","板橋區"
"247021","893-R6","2018/02/13 14:09:23","新北市蘆洲區三民路122號","121.471205","25.0873783333333","6501400","蘆洲區"
"247011","546-UM","2018/02/13 14:09:10","新北市蘆洲區信義路331號","121.478201666667","25.0866983333333","6501400","蘆洲區"
"247019","500-BY","2018/02/13 14:09:13","新北市蘆洲區民族路426巷52號","121.472856666667","25.093555","6501400","蘆洲區"
"247007","341-TH","2018/02/13 14:09:12","新北市五股區國道路三段18號","121.468695","25.075175","6501400","蘆洲區"
"247009","339-TH","2018/02/13 14:09:16","新北市蘆洲區民族路56號","121.477081666667","25.084595","6501400","蘆洲區"
"247001","337-TH","2018/02/13 14:09:18","新北市蘆洲區永平街55號","121.457581666667","25.0913166666667","6501400","蘆洲區"
"247003","336-TH","2018/02/13 14:09:13","新北市蘆洲區長安街102巷65號","121.462745","25.08211","6501400","蘆洲區"
"247015","057-VK","2018/02/13 14:09:22","新北市蘆洲區光華路22巷57號","121.467941666667","25.085115","6501400","蘆洲區"
"247005","056-VK","2018/02/13 14:09:17","新北市蘆洲區和平路97巷13號","121.46761","25.0786183333333","6501400","蘆洲區"
"247013","007-UY","2018/02/13 14:09:24","新北市蘆洲區忠孝路78號","121.471551666667","25.08554","6501400","蘆洲區"
"247023","002-UY","2018/02/13 14:09:20","新北市蘆洲區光榮路68號","121.463185","25.0885433333333","6501400","蘆洲區"
"247017","001-UY","2018/02/13 14:09:10","新北市蘆洲區民族路227巷24弄1號","121.47644","25.0888733333333","6501400","蘆洲區"
"235005","251-BX","2018/02/13 14:09:21","新北市中和區中安街8號","121.513518333333","25.0032733333333","6500300","中和區"
"228004","212-TW","2018/02/13 14:09:25","新北市貢寮區雙玉里德心街9-1號","121.917588333333","25.0158066666667","6502600","貢寮區"
"228005","828-UM","2018/02/13 14:09:20","新北市貢寮區美豐里土地公嶺21-2號","121.889241666667","25.062365","6502600","貢寮區"
"208004","AAC-292","2018/02/13 14:09:13","新北市金山區山城路29號","121.59833","25.2019316666667","6502700","金山區"
"207002","749-BX","2018/02/13 14:09:16","新北市萬里區溪底里瑞泉路21號","121.604085","25.14897","6502800","萬里區"
"207001","662-BX","2018/02/13 14:09:13","新北市萬里區磺潭里清水18號","121.637678333333","25.1979466666667","6502800","萬里區"
"252005","AAC-283","2018/02/13 14:09:09","新北市三芝區橫山里橫山21號","121.540138333333","25.2627533333333","6502100","三芝區"
"237004","KEA-2597","2018/02/13 14:09:13","新北市三峽區有木206號","121.439098333333","24.8516166666667","6500900","三峽區"
"237007","153-BY","2018/02/13 14:09:18","新北市三峽區中正路二段249-1號","121.366033333333","24.9121133333333","6500900","三峽區"
"237009","210-TH","2018/02/13 14:09:20","新北市三峽區大同路240巷45弄2號","121.365518333333","24.9263083333333","6500900","三峽區"
"237013","252-BX","2018/02/13 14:09:12","新北市三峽區介壽路一段385-1號","121.388356666667","24.9341366666667","6500900","三峽區"
"237012","275-BY","2018/02/13 14:09:30","新北市三峽區三樹路98巷187號","121.38517","24.941845","6500900","三峽區"
"237008","302-VK","2018/02/13 14:09:26","新北市三峽區中正路一段231號","121.372263333333","24.9268616666667","6500900","三峽區"
"237006","5529-G3","2018/02/13 14:09:08","新北市三峽區橫溪路99巷18號","121.400511666667","24.9360633333333","6500900","三峽區"
"237011","KEA-2596","2018/02/13 14:09:18","新北市三峽區介壽路二段167號","121.394531666667","24.9360116666667","6500900","三峽區"
"237016","649-BX","2018/02/13 14:09:12","新北市三峽區安坑9巷10弄13號","121.442545","24.92639","6500900","三峽區"
"237010","706-TV","2018/02/13 14:09:24","新北市三峽區國光街35號","121.375146666667","24.9373216666667","6500900","三峽區"
"237005","AKY-6261","2018/02/13 14:09:29","新北市三峽區復興路367巷1弄19號","121.364151666667","24.9379016666667","6500900","三峽區"
"236065","105-UM","2018/02/13 14:09:19","新北市土城區金城路一段88巷22號","121.445741666667","24.97294","6501300","土城區"
"236041","107-UM","2018/02/13 14:09:15","新北市土城區城林路6巷80號","121.438138333333","24.9797566666667","6501300","土城區"
"236075","166-UM","2018/02/13 14:09:20","新北市土城區永寧路32巷4號","121.429146666667","24.9606683333333","6501300","土城區"
"236029","253-BX","2018/02/13 14:09:20","新北市土城區城林路6巷80號","121.438386666667","24.9797916666667","6501300","土城區"
"236024","269-VK","2018/02/13 14:09:22","新北市土城區承天路20號","121.439555","24.963425","6501300","土城區"
"236013","270-VK","2018/02/13 14:09:11","新北市土城區學府路一段141號","121.453623333333","24.98625","6501300","土城區"
"236034","271-VK","2018/02/13 14:09:28","新北市土城區青雲路322巷2弄4號","121.45818","24.9772933333333","6501300","土城區"
"236017","401-BY","2018/02/13 14:09:22","新北市土城區城林路6巷80號","121.438423333333","24.97972","6501300","土城區"
"236006","498-BY","2018/02/13 14:09:14","新北市土城區學府路二段171號","121.446478333333","24.97902","6501300","土城區"
"236057","912-UM","2018/02/13 14:09:27","新北市土城區中央路四段48號","121.420491666667","24.9605533333333","6501300","土城區"
"236045","913-UM","2018/02/13 14:09:27","新北市土城區明德路一段365-1號","121.45358","24.9790483333333","6501300","土城區"
"236061","915-UM","2018/02/13 14:09:17","新北市土城區金城路二段396號","121.463931666667","24.98577","6501300","土城區"
"236054","AAC-216","2018/02/13 14:09:23","新北市土城區中華路二段104號","121.438025","24.97432","6501300","土城區"
"242030","442-UM","2018/02/13 13:44:09","新北市新莊區新泰路255巷83號","121.442283333333","25.038915","6500500","新莊區"
"221032","280-BY","2018/02/13 14:09:17","新北市汐止區秀峰路9號","121.659308333333","25.0664233333333","6501100","汐止區"
"220027","145-BY","2018/02/13 14:09:24","新北市板橋區公館街110號","121.4609","25.0168266666667","6500100","板橋區"
"220028","200-UY","2018/02/13 14:09:25","新北市板橋區大觀路二段153巷46弄16號","121.449133333333","24.9999383333333","6500100","板橋區"
"220030","610-BX","2018/02/13 14:09:10","新北市樹林區博愛街55號","121.42779","24.991775","6500100","板橋區"
"220050","245-BX","2018/02/13 14:09:06","新北市板橋區萬板路35號","121.470681666667","25.0210433333333","6500100","板橋區"
"220004","276-BY","2018/02/13 14:09:14","新北市板橋區信義路150巷16號","121.4582","24.9918316666667","6500100","板橋區"
"220020","277-BY","2018/02/13 14:09:27","新北市板橋區金門街369巷50號","121.42845","24.9823933333333","6500100","板橋區"
"220043","283-UM","2018/02/13 14:09:24","新北市板橋區光武街125巷2號","121.466048333333","25.02862","6500100","板橋區"
"220001","283-VK","2018/02/13 14:09:20","新北市板橋區重慶路269巷59號","121.465126666667","24.9989766666667","6500100","板橋區"
"220001","285-VK","2018/02/13 14:09:23","新北市板橋區懷仁街14巷6號","121.475771666667","25.0198916666667","6500100","板橋區"
"220031","286-VK","2018/02/13 14:09:20","新北市板橋區龍興街97巷16號","121.443493333333","25.0029366666667","6500100","板橋區"
"220029","287-VK","2018/02/13 14:09:22","新北市板橋區南雅西路二段156巷6號","121.452206666667","25.0133416666667","6500100","板橋區"
"220039","288-VK","2018/02/13 14:09:20","新北市板橋區裕民街31號","121.461786666667","25.0288266666667","6500100","板橋區"
"220009","293-UM","2018/02/13 14:09:15","新北市板橋區中山路二段258號","121.478843333333","25.0184083333333","6500100","板橋區"
"220032","296-UM","2018/02/13 14:09:24","新北市板橋區篤行路一段33號","121.431988333333","24.9943783333333","6500100","板橋區"
"220023","303-R5","2018/02/13 14:09:09","新北市板橋區南雅西路二段173號","121.451951666667","25.01251","6500100","板橋區"
"220010","305-R5","2018/02/13 14:09:12","新北市板橋區三民路二段居仁巷1弄34號","121.480358333333","25.01356","6500100","板橋區"
"220041","307-R5","2018/02/13 14:09:13","新北市板橋區文化路二段225巷35號","121.469408333333","25.028375","6500100","板橋區"
"220047","317-R6","2018/02/13 14:09:24","新北市板橋區自由路51巷12號","121.464871666667","25.0235383333333","6500100","板橋區"
"220012","486-VK","2018/02/13 14:09:24","新北市板橋區板新路99號","121.472818333333","25.01398","6500100","板橋區"
"220038","487-VK","2018/02/13 14:09:18","新北市板橋區文化路二段453號","121.475426666667","25.033615","6500100","板橋區"
"220037","491-VK","2018/02/13 14:09:26","新北市板橋區莊敬路38號","121.472778333333","25.0270683333333","6500100","板橋區"
"220104","560-BX","2018/02/13 14:09:27","新北市板橋區中正路379巷8號","121.453868333333","25.0217316666667","6500100","板橋區"
"220052","561-BX","2018/02/13 14:09:19","新北市板橋區介壽街84巷52號","121.468683333333","25.0184716666667","6500100","板橋區"
"220011","609-BX","2018/02/13 14:09:24","新北市板橋區三民路二段67號","121.479325","25.0170716666667","6500100","板橋區"
"220003","630-UY","2018/02/13 14:09:23","新北市板橋區中山路一段134號","121.463466666667","25.0108616666667","6500100","板橋區"
"220040","637-BX","2018/02/13 14:09:23","新北市板橋區縣民大道三段247巷9號","121.48167","25.0262883333333","6500100","板橋區"
"220025","687-BX","2018/02/13 14:09:26","新北市板橋區僑中二街152-1號","121.444653333333","25.004405","6500100","板橋區"
"220042","689-BX","2018/02/13 14:09:18","新北市板橋區民生路三段201號","121.465325","25.0278533333333","6500100","板橋區"
"220002","741-BX","2018/02/13 14:09:22","新北市板橋區重慶路93巷32號","121.463368333333","25.005935","6500100","板橋區"
"220014","829-TW","2018/02/13 14:09:22","新北市板橋區民享街116巷2弄18號","121.477406666667","25.0155016666667","6500100","板橋區"
"220045","830-TW","2018/02/13 14:09:23","新北市板橋區大同街4號","121.476901666667","25.026805","6500100","板橋區"
"220022","895-R6","2018/02/13 14:09:20","新北市板橋區林園街56號","121.453823333333","25.01077","6500100","板橋區"
"220021","985-R7","2018/02/13 14:09:17","新北市板橋區民權路243號","121.457211666667","25.0158316666667","6500100","板橋區"
"220046","AAC-210","2018/02/13 14:09:22","新北市板橋區新海路135巷15號","121.46036","25.023215","6500100","板橋區"
"220018","AAC-253","2018/02/13 14:09:24","新北市板橋區忠孝路40號","121.46042","25.0018216666667","6500100","板橋區"
