"lineid","car","time","location","longitude","latitude","cityid","cityname"
"231030","047-UY","2018/02/13 15:49:26","新北市新店區永安街22-1號","121.517393333333","24.9865283333333","6500600","新店區"
"231018","107-UY","2018/02/13 15:49:20","新北市新店區中正路663巷7弄15號","121.532951666667","24.99012","6500600","新店區"
"231012","108-UY","2018/02/13 15:49:26","新北市新店區寶強路45號","121.543365","24.9795466666667","6500600","新店區"
"231020","187-VK","2018/02/13 15:49:21","新北市新店區新烏路一段87巷3號","121.546193333333","24.9418866666667","6500600","新店區"
"231015","KEA-2219","2018/02/13 15:49:15","新北市新店區北新路一段72號","121.541376666667","24.967085","6500600","新店區"
"231026","256-BX","2018/02/13 15:49:24","新北市新店區中正路487號","121.533806666667","24.982135","6500600","新店區"
"231023","AAD-862","2018/02/13 15:49:18","新北市新店區大新街9巷28號","121.5444","24.9670583333333","6500600","新店區"
"231038","4715-K9","2018/02/13 15:49:29","新北市新店區安康路二段193號","121.50926","24.9590733333333","6500600","新店區"
"231036","512-UM","2018/02/13 15:42:35","新北市新店區安祥路102巷144號","121.486796666667","24.9645933333333","6500600","新店區"
"231035","515-UM","2018/02/13 15:49:22","新北市新店區安民街379巷12號","121.515876666667","24.9761616666667","6500600","新店區"
"231003","616-UM","2018/02/13 15:49:32","新北市新店區寶興路60巷3號","121.549898333333","24.97186","6500600","新店區"
"231034","645-TV","2018/02/13 15:49:14","新北市新店區玫瑰路57巷45號","121.497396666667","24.9464566666667","6500600","新店區"
"231013","719-UM","2018/02/13 15:49:24","新北市新店區永業路81巷9弄6號","121.531106666667","24.9505733333333","6500600","新店區"
"231032","720-UM","2018/02/13 15:49:22","新北市新店區雙城路212號","121.497838333333","24.9401983333333","6500600","新店區"
"231037","AKT-0513","2018/02/13 15:49:20","新北市新店區安興路105-1號","121.514621666667","24.9776866666667","6500600","新店區"
"241011","013-R5","2018/02/13 15:49:14","新北市三重區雙園街1巷1號","121.496951666667","25.068075","6500200","三重區"
"241028","022-UY","2018/02/13 15:49:17","新北市三重區重新路三段81號","121.491976666667","25.06017","6500200","三重區"
"241008","059-VK","2018/02/13 15:49:08","新北市三重區重新路四段121號","121.484955","25.0518883333333","6500200","三重區"
"241015","062-VK","2018/02/13 15:49:23","新北市三重區重新路四段121號","121.48508","25.0520066666667","6500200","三重區"
"241017","063-VK","2018/02/13 15:49:11","新北市三重區大仁街22號","121.491568333333","25.0636533333333","6500200","三重區"
"241005","262-UM","2018/02/13 15:49:24","新北市三重區環河北路三段86號","121.496146666667","25.0865","6500200","三重區"
"241016","265-UM","2018/02/13 15:49:17","新北市三重區重新路四段121號","121.485025","25.0520116666667","6500200","三重區"
"241022","267-UM","2018/02/13 15:49:15","新北市三重區重新路四段121號","121.484388333333","25.0519816666667","6500200","三重區"
"241013","270-UM","2018/02/13 15:49:26","新北市三重區三和路三段13號","121.496348333333","25.07072","6500200","三重區"
"241007","398-BY","2018/02/13 15:49:25","新北市三重區重新路四段121號","121.48494","25.0517833333333","6500200","三重區"
"241020","413-TH","2018/02/13 15:49:15","新北市三重區忠孝路二段68號","121.484685","25.0701883333333","6500200","三重區"
"241014","543-UM","2018/02/13 15:49:16","新北市三重區重新路四段121號","121.485068333333","25.0520466666667","6500200","三重區"
"241023","545-UM","2018/02/13 15:49:12","新北市三重區忠孝路三段84巷1號","121.480216666667","25.0644716666667","6500200","三重區"
"241006","AAD-863","2018/02/13 15:49:15","新北市三重區重新路四段121號","121.484715","25.0521766666667","6500200","三重區"
"241012","941-UM","2018/02/13 15:49:26","新北市三重區長元西街30號","121.498108333333","25.0656416666667","6500200","三重區"
"241029","942-UM","2018/02/13 15:49:19","新北市三重區大同南路242號","121.496923333333","25.0558866666667","6500200","三重區"
"241033","AAC-255","2018/02/13 15:49:27","新北市三重區光復路一段13號","121.472036666667","25.047285","6500200","三重區"
"235036","301-VK","2018/02/13 15:49:28","新北市中和區中正路368號","121.492943333333","24.9941583333333","6500300","中和區"
"235035","269-TV","2018/02/13 15:49:09","新北市中和區建一路126號","121.488058333333","24.9999483333333","6500300","中和區"
"235033","4980-A6","2018/02/13 15:49:29","新北市中和區圓通路198巷2弄3號","121.496196666667","24.99465","6500300","中和區"
"235001","AAC-213","2018/02/13 15:49:17","新北市八里區中山路三段409號","121.36873","25.1347966666667","6500300","中和區"
"235023","AAC-215","2018/02/13 15:49:12","新北市中和區員山路32號","121.481013333333","24.987685","6500300","中和區"
"247004","336-TH","2018/02/13 15:42:18","新北市五股區中興路三段163號","121.44934","25.080585","6501400","蘆洲區"
"235005","251-BX","2018/02/13 15:49:20","新北市中和區宜安路135號","121.509561666667","24.9983933333333","6500300","中和區"
"224008","702-BZ","2018/02/13 15:40:00","新北市瑞芳區大寮路356-1號","121.784746666667","25.103155","6501200","瑞芳區"
"227003","642-TC","2018/02/13 15:49:09","新北市雙溪區平林里外平林44號","121.85294","25.0363216666667","6502500","雙溪區"
"227009","400-TW","2018/02/13 15:49:19","新北市雙溪區牡丹里自強路16號","121.865396666667","25.0393083333333","6502500","雙溪區"
"208004","AAC-292","2018/02/13 15:49:13","新北市金山區南勢湖18號","121.620481666667","25.2167116666667","6502700","金山區"
"251013","179-VK","2018/02/13 15:49:28","新北市淡水區中正路二段31號","121.419395","25.18162","6501000","淡水區"
"237016","649-BX","2018/02/13 15:49:11","新北市樹林區中山路三段210-2號","121.38056","24.967555","6500900","三峽區"
"236065","105-UM","2018/02/13 15:49:19","新北市土城區城林路6巷80號","121.438323333333","24.979535","6501300","土城區"
"236041","107-UM","2018/02/13 15:49:15","新北市土城區學享街6巷2號","121.450916666667","24.9872016666667","6501300","土城區"
"236075","166-UM","2018/02/13 15:49:20","新北市土城區龍泉路36-1號","121.411825","24.94642","6501300","土城區"
"236029","253-BX","2018/02/13 15:49:20","新北市土城區中央路一段45巷2弄20號","121.448233333333","24.98983","6501300","土城區"
"236024","269-VK","2018/02/13 15:49:22","新北市土城區中央路一段248-2號","121.444448333333","24.984695","6501300","土城區"
"236013","270-VK","2018/02/13 15:49:31","新北市土城區四川路29巷58號","121.455326666667","24.9951216666667","6501300","土城區"
"236017","401-BY","2018/02/13 15:49:22","新北市土城區和城路二段253-6號","121.47331","24.9873033333333","6501300","土城區"
"236057","912-UM","2018/02/13 15:49:27","新北市土城區中央路一段269-3號","121.444903333333","24.9852166666667","6501300","土城區"
"236045","913-UM","2018/02/13 15:49:27","新北市土城區金城路三段260號","121.474111666667","24.9908166666667","6501300","土城區"
"236054","AAC-216","2018/02/13 15:49:23","新北市土城區延和路55號","121.466563333333","24.9896266666667","6501300","土城區"
"220050","245-BX","2018/02/13 15:49:26","新北市五股區中直路13-7號","121.424421666667","25.110645","6500100","板橋區"
"220003","256-TC","2018/02/13 15:49:24","新北市樹林區中山路三段206-1號","121.384326666667","24.967325","6500100","板橋區"
"220019","283-VK","2018/02/13 15:49:20","新北市樹林區中山路三段214號","121.380476666667","24.96795","6500100","板橋區"
"220029","287-VK","2018/02/13 15:49:22","新北市土城區日新街33巷14號","121.440593333333","24.98833","6500100","板橋區"
