"lineid","car","time","location","longitude","latitude","cityid","cityname"
"249005","172-UM","2018/02/13 16:49:16","新北市八里區大堀湖2-3號","121.422363333333","25.153665","6502300","八里區"
"249004","303-UY","2018/02/13 16:49:29","新北市八里區博物館路202巷30號","121.404631666667","25.1589883333333","6502300","八里區"
"249002","305-UY","2018/02/13 16:49:30","新北市八里區牛寮埔31號","121.429878333333","25.1457233333333","6502300","八里區"
"249003","593-UM","2018/02/13 16:49:14","新北市八里區博物館路179號","121.40613","25.157125","6502300","八里區"
"244007","080-UY","2018/02/13 16:49:17","新北市林口區粉寮路1號","121.397781666667","25.08023","6501700","林口區"
"231046","278-BY","2018/02/13 16:49:26","新北市新店區灣潭路29-3號","121.539726666667","24.93869","6500600","新店區"
"241011","013-R5","2018/02/13 16:49:14","新北市三重區仁愛街53巷84號","121.498193333333","25.072545","6500200","三重區"
"241028","022-UY","2018/02/13 16:49:17","新北市三重區光興街115號","121.496876666667","25.05989","6500200","三重區"
"241008","059-VK","2018/02/13 16:49:28","新北市三重區永福街177巷17號","121.478106666667","25.0752166666667","6500200","三重區"
"241009","060-VK","2018/02/13 16:49:26","新北市三重區溪尾街208號","121.487876666667","25.0811116666667","6500200","三重區"
"241031","061-VK","2018/02/13 16:49:19","新北市三重區過圳街46號","121.487443333333","25.060875","6500200","三重區"
"241015","062-VK","2018/02/13 16:49:23","新北市三重區文化北路41-5號","121.499021666667","25.0654616666667","6500200","三重區"
"241017","063-VK","2018/02/13 16:49:11","新北市三重區大同北路60巷29號","121.49349","25.0637133333333","6500200","三重區"
"241024","065-VK","2018/02/13 16:49:22","新北市三重區中正北路315巷6弄76號","121.477065","25.0724783333333","6500200","三重區"
"241026","066-VK","2018/02/13 16:49:16","新北市三重區文化南路8號","121.500173333333","25.0624583333333","6500200","三重區"
"241002","090-VK","2018/02/13 16:49:28","新北市三重區仁義街241巷18號","121.496761666667","25.0828916666667","6500200","三重區"
"241005","262-UM","2018/02/13 16:49:24","新北市三重區仁華街78號","121.4848","25.083075","6500200","三重區"
"241016","265-UM","2018/02/13 16:49:17","新北市三重區大同北路115巷19號","121.493863333333","25.064665","6500200","三重區"
"241022","267-UM","2018/02/13 16:49:28","新北市三重區中華路111巷2號","121.483851666667","25.0635083333333","6500200","三重區"
"241018","268-UM","2018/02/13 16:49:23","新北市三重區正義北路294號","121.495373333333","25.0695283333333","6500200","三重區"
"241032","269-UM","2018/02/13 16:49:28","新北市三重區重陽路一段122號","121.486693333333","25.06022","6500200","三重區"
"241013","270-UM","2018/02/13 16:49:26","新北市三重區仁壽街48號","121.497626666667","25.0736583333333","6500200","三重區"
"241025","271-UM","2018/02/13 16:49:14","新北市三重區中正北路530巷11號","121.472035","25.0706233333333","6500200","三重區"
"241007","398-BY","2018/02/13 16:49:25","新北市三重區三和路四段181巷16號","121.483283333333","25.0792033333333","6500200","三重區"
"241020","413-TH","2018/02/13 16:49:15","新北市三重區後竹圍街205巷41號","121.484698333333","25.07258","6500200","三重區"
"241004","475-VK","2018/02/13 16:49:23","新北市三重區福隆路18號","121.491445","25.0778566666667","6500200","三重區"
"241030","480-VK","2018/02/13 16:49:14","新北市三重區中正南路271號","121.492735","25.052645","6500200","三重區"
"241014","543-UM","2018/02/13 16:49:16","新北市三重區長榮路75號","121.50262","25.0691","6500200","三重區"
"241023","545-UM","2018/02/13 16:49:32","新北市三重區新北大道一段206巷28號","121.482531666667","25.0623633333333","6500200","三重區"
"241001","547-UM","2018/02/13 16:49:30","新北市三重區仁政街76巷10號","121.49221","25.0771766666667","6500200","三重區"
"241019","KEA-2593","2018/02/13 16:49:25","新北市三重區力行路一段177號","121.48453","25.0696783333333","6500200","三重區"
"241006","AAD-863","2018/02/13 16:49:15","新北市三重區力行路二段182-3號","121.483486666667","25.0774333333333","6500200","三重區"
"241003","887-TS","2018/02/13 16:49:28","新北市三重區五華街87巷20號","121.492633333333","25.08369","6500200","三重區"
"241033","AAC-255","2018/02/13 16:49:27","新北市三重區光復路二段96號","121.472136666667","25.057965","6500200","三重區"
"235026","800-TS","2018/02/13 16:49:14","新北市中和區永和路171巷3弄4號","121.492563333333","25.0065716666667","6500300","中和區"
"247004","336-TH","2018/02/13 16:49:31","新北市五股區中興路三段163號","121.44915","25.08074","6501400","蘆洲區"
"247004","335-TH","2018/02/13 16:49:18","新北市五股區成泰路三段544-18號","121.452656666667","25.1032766666667","6501400","蘆洲區"
"247016","057-VK","2018/02/13 16:49:22","新北市蘆洲區正和街3號","121.470373333333","25.0827366666667","6501400","蘆洲區"
"247006","056-VK","2018/02/13 16:49:27","新北市蘆洲區永安南路二段160號","121.461493333333","25.07893","6501400","蘆洲區"
"228002","585-TW","2018/02/13 16:49:14","新北市貢寮區貢寮里朝陽街120巷28號","121.907943333333","25.0230016666667","6502600","貢寮區"
"228003","828-UM","2018/02/13 16:49:30","新北市貢寮區貢寮里朝陽街1-2號","121.912348333333","25.0212816666667","6502600","貢寮區"
"224006","676-BX","2018/02/13 16:49:18","新北市瑞芳區大寮路356-1號","121.78477","25.103245","6501200","瑞芳區"
"224009","285-BY","2018/02/13 16:49:31","新北市瑞芳區中山路238號","121.800076666667","25.107085","6501200","瑞芳區"
"224008","275-VK","2018/02/13 16:49:15","新北市瑞芳區逢甲路17號","121.809421666667","25.1084733333333","6501200","瑞芳區"
"224007","273-VK","2018/02/13 16:49:22","新北市瑞芳區中央路33號","121.761996666667","25.1031983333333","6501200","瑞芳區"
"224005","271-BY","2018/02/13 16:49:29","新北市瑞芳區洞頂路8-1號","121.862048333333","25.121765","6501200","瑞芳區"
"227003","642-TC","2018/02/13 16:49:29","新北市雙溪區外柑里外柑腳58號","121.807885","25.01785","6502500","雙溪區"
"227009","400-TW","2018/02/13 16:49:18","新北市雙溪區牡丹里五分2號","121.866705","25.0470866666667","6502500","雙溪區"
"251009","008-UM","2018/02/13 16:49:29","新北市淡水區中正路二段31號","121.419333333333","25.1818966666667","6501000","淡水區"
"251013","179-VK","2018/02/13 16:49:28","新北市淡水區泉洲厝32號","121.489275","25.192505","6501000","淡水區"
"251014","180-VK","2018/02/13 16:49:21","新北市淡水區中山北路三段138號","121.44491","25.1953","6501000","淡水區"
"251008","181-VK","2018/02/13 16:49:19","新北市淡水區樹梅坑38號","121.474603333333","25.1440083333333","6501000","淡水區"
"251015","182-VK","2018/02/13 16:49:17","新北市淡水區忠愛街6號","121.460746666667","25.1715633333333","6501000","淡水區"
"251010","413-VK","2018/02/13 16:49:27","新北市淡水區中正路二段31號","121.419461666667","25.1814616666667","6501000","淡水區"
"251012","441-VK","2018/02/13 16:49:25","新北市淡水區中正路二段31號","121.4193","25.1818366666667","6501000","淡水區"
"251016","442-VK","2018/02/13 16:49:21","新北市淡水區水頭42號","121.478458333333","25.1850666666667","6501000","淡水區"
"251007","577-R6","2018/02/13 16:49:24","新北市淡水區中正路二段31號","121.41947","25.1815316666667","6501000","淡水區"
"251011","650-BX","2018/02/13 16:49:12","新北市淡水區中正路二段31號","121.419105","25.18205","6501000","淡水區"
"252002","178-VK","2018/02/13 16:49:21","新北市三芝區忠孝街171號","121.505456666667","25.2613883333333","6502100","三芝區"
"252001","292-VK","2018/02/13 16:49:12","新北市三芝區淡金路二段97號","121.50426","25.2609766666667","6502100","三芝區"
"242023","613-BX","2018/02/13 16:49:32","新北市新莊區新泰路255巷83號","121.442173333333","25.0391","6500500","新莊區"
"242027","612-BX","2018/02/13 16:49:23","新北市新莊區新泰路255巷83號","121.442183333333","25.03907","6500500","新莊區"
"242039","566-BX","2018/02/13 16:49:17","新北市新莊區新泰路255巷83號","121.442135","25.0391016666667","6500500","新莊區"
"242011","351-TH","2018/02/13 16:49:18","新北市新莊區新泰路357巷3弄57號","121.442063333333","25.0395566666667","6500500","新莊區"
"239005","526-UM","2018/02/13 16:49:10","新北市鶯歌區環河路177-23號","121.345135","24.935535","6500800","鶯歌區"
"239003","360-BY","2018/02/13 16:49:18","新北市鶯歌區二甲路13-16號","121.345346666667","24.935025","6500800","鶯歌區"
