"lineid","car","time","location","longitude","latitude","cityid","cityname"
"234026","9371-KE","2018/02/13 17:49:17","新北市永和區中山路一段62號","121.512868333333","25.010665","6500400","永和區"
"234011","9373-KE","2018/02/13 17:41:31","新北市永和區福和路1號","121.525686666667","25.00926","6500400","永和區"
"249005","172-UM","2018/02/13 17:49:15","新北市八里區荖阡里41-1號","121.402368333333","25.1336133333333","6502300","八里區"
"249001","173-UM","2018/02/13 17:49:25","新北市八里區龍米路二段139號","121.444521666667","25.1484333333333","6502300","八里區"
"249004","303-UY","2018/02/13 17:49:29","新北市八里區中華路一段88號","121.420621666667","25.15765","6502300","八里區"
"249002","305-UY","2018/02/13 17:49:30","新北市八里區龍形五街37巷8-3號","121.447331666667","25.13396","6502300","八里區"
"249003","593-UM","2018/02/13 17:49:14","新北市八里區中山路二段212號","121.40536","25.1519633333333","6502300","八里區"
"248006","077-UY","2018/02/13 17:49:21","新北市五股區中興路二段83巷26-6號","121.460038333333","25.0750433333333","6501500","五股區"
"248008","095-VK","2018/02/13 17:49:16","新北市五股區中興路二段37巷28號","121.46012","25.075035","6501500","五股區"
"248002","678-BX","2018/02/13 17:49:23","新北市五股區中興路二段37巷28號","121.460225","25.0745766666667","6501500","五股區"
"232011","375-UM","2018/02/13 17:49:29","新北市坪林區北宜路八段152號","121.707081666667","24.93443","6502000","坪林區"
"244013","069-UM","2018/02/13 17:49:21","新北市林口區佳林路186號","121.383151666667","25.0767233333333","6501700","林口區"
"244007","080-UY","2018/02/13 17:49:26","新北市林口區林口路272巷2號","121.386456666667","25.0846183333333","6501700","林口區"
"244019","402-UM","2018/02/13 17:49:14","新北市林口區文化一路一段135巷7號","121.373376666667","25.0721483333333","6501700","林口區"
"244023","483-VK","2018/02/13 17:49:26","新北市林口區興林路46-6號","121.388985","25.074855","6501700","林口區"
"244017","485-VK","2018/02/13 17:49:12","新北市林口區文化二路一段260巷10號","121.371098333333","25.0730666666667","6501700","林口區"
"244009","658-BX","2018/02/13 17:49:22","新北市林口區中北三街322號","121.382885","25.0836733333333","6501700","林口區"
"244011","701-TV","2018/02/13 17:49:32","新北市林口區佳林路253號","121.382926666667","25.0761083333333","6501700","林口區"
"244025","837-TS","2018/02/13 17:49:18","新北市林口區文化三路一段181號","121.36209","25.07011","6501700","林口區"
"244021","838-TS","2018/02/13 17:49:21","新北市林口區仁愛路一段211巷8號","121.398161666667","25.0739583333333","6501700","林口區"
"243013","646-TV","2018/02/13 17:49:20","新北市泰山區大科路45-16號","121.40442","25.0552266666667","6501600","泰山區"
"222002","016-RS","2018/02/13 17:49:15","新北市深坑區平埔街22巷17弄1號","121.614823333333","25.0008983333333","6501800","深坑區"
"222003","436-BY","2018/02/13 17:49:21","新北市深坑區阿柔洋60-1號","121.608603333333","24.9985433333333","6501800","深坑區"
"221015","KEA-2785","2018/02/13 17:49:12","新北市汐止區長江街249-1號","121.662826666667","25.0793416666667","6501100","汐止區"
"231046","278-BY","2018/02/13 17:49:26","新北市新店區下石厝路1-1號","121.53122","24.9287416666667","6500600","新店區"
"241005","262-UM","2018/02/13 17:49:24","新北市林口區汕頭32號","121.366455","25.134945","6500200","三重區"
"241016","265-UM","2018/02/13 17:49:16","新北市三重區新北大道一段7號","121.489763333333","25.0613566666667","6500200","三重區"
"241007","398-BY","2018/02/13 17:49:26","新北市三重區車路頭街70號","121.484236666667","25.0730116666667","6500200","三重區"
"241024","462-BY","2018/02/13 17:49:16","新北市三重區中正北路193巷21弄30號","121.478016666667","25.0708916666667","6500200","三重區"
"235064","005-UY","2018/02/13 17:49:22","新北市中和區員山路36巷16-3號","121.485075","24.9913433333333","6500300","中和區"
"247022","893-R6","2018/02/13 17:49:24","新北市蘆洲區三民路251號","121.468283333333","25.0892916666667","6501400","蘆洲區"
"247020","500-BY","2018/02/13 17:49:27","新北市蘆洲區民義街101巷9號","121.473336666667","25.0910933333333","6501400","蘆洲區"
"247012","402-BY","2018/02/13 17:49:22","新北市蘆洲區復興路60巷1弄2號","121.47474","25.0859916666667","6501400","蘆洲區"
"247008","341-TH","2018/02/13 17:49:27","新北市蘆洲區和平路29巷7號","121.472116666667","25.078815","6501400","蘆洲區"
"247010","339-TH","2018/02/13 17:49:34","新北市蘆洲區民族路55號","121.478625","25.0855","6501400","蘆洲區"
"247002","337-TH","2018/02/13 17:49:20","新北市五股區新五路三段260號","121.448431666667","25.0914266666667","6501400","蘆洲區"
"247004","336-TH","2018/02/13 17:49:11","新北市蘆洲區長安街249巷7號","121.458678333333","25.0829933333333","6501400","蘆洲區"
"247002","335-TH","2018/02/13 17:49:18","新北市蘆洲區永平街32巷21弄12號","121.458665","25.0919583333333","6501400","蘆洲區"
"247006","056-VK","2018/02/13 17:49:27","新北市蘆洲區長安街68巷20號","121.463803333333","25.0809083333333","6501400","蘆洲區"
"247016","053-VK","2018/02/13 17:49:28","新北市蘆洲區中正路185巷76號","121.466221666667","25.0844083333333","6501400","蘆洲區"
"247014","007-UY","2018/02/13 17:49:24","新北市蘆洲區中正路153號","121.46923","25.0848916666667","6501400","蘆洲區"
"247024","002-UY","2018/02/13 17:49:18","新北市蘆洲區光榮路101巷1號","121.463266666667","25.090645","6501400","蘆洲區"
"247018","001-UY","2018/02/13 17:49:25","新北市蘆洲區復興路227巷2弄1號","121.47989","25.0901316666667","6501400","蘆洲區"
"228001","212-TW","2018/02/13 17:49:30","新北市貢寮區仁理村仁愛路95-1號","121.927655","25.0554283333333","6502600","貢寮區"
"228002","585-TW","2018/02/13 17:49:14","新北市貢寮區福隆里外隆林街14-1號","121.959123333333","25.0036116666667","6502600","貢寮區"
"228003","828-UM","2018/02/13 17:49:30","新北市貢寮區真理里美艷山街6-2號","121.92875","25.0608133333333","6502600","貢寮區"
"224006","676-BX","2018/02/13 17:49:18","新北市瑞芳區瑞興新村12巷1號","121.788455","25.108335","6501200","瑞芳區"
"224009","285-BY","2018/02/13 17:49:31","新北市瑞芳區金光路376號","121.850253333333","25.1111866666667","6501200","瑞芳區"
"224008","275-VK","2018/02/13 17:49:15","新北市瑞芳區明燈路一段18巷34號","121.8227","25.1089816666667","6501200","瑞芳區"
"224007","273-VK","2018/02/13 17:49:22","新北市瑞芳區八分寮路12號","121.796356666667","25.0874066666667","6501200","瑞芳區"
"224005","271-BY","2018/02/13 17:49:20","新北市瑞芳區建基路一段62巷4-2號","121.816961666667","25.1276566666667","6501200","瑞芳區"
"227003","642-TC","2018/02/13 17:49:29","新北市雙溪區三貂里政光路3-1號","121.850963333333","25.0632383333333","6502500","雙溪區"
"253006","295-VK","2018/02/13 17:49:31","新北市石門區中央路5-1號","121.566453333333","25.2914983333333","6502200","石門區"
"208003","665-BX","2018/02/13 17:49:17","新北市金山區磺清路135號","121.639501666667","25.2277183333333","6502700","金山區"
"251009","008-UM","2018/02/13 17:49:29","新北市淡水區長興街29號","121.443968333333","25.1711816666667","6501000","淡水區"
"251004","009-UM","2018/02/13 17:49:28","新北市淡水區民權一街3號","121.459246666667","25.136855","6501000","淡水區"
"251013","179-VK","2018/02/13 17:49:25","新北市淡水區泉洲厝31號","121.47957","25.1910683333333","6501000","淡水區"
"251014","180-VK","2018/02/13 17:49:21","新北市淡水區公埔子16-6號","121.481016666667","25.2245566666667","6501000","淡水區"
"251008","181-VK","2018/02/13 17:49:19","新北市淡水區八勢路一段155號","121.46796","25.15641","6501000","淡水區"
"251015","182-VK","2018/02/13 17:48:37","新北市淡水區興福寮6號","121.49209","25.1652983333333","6501000","淡水區"
"251010","413-VK","2018/02/13 17:49:27","新北市淡水區中正路二段53號","121.418163333333","25.1848816666667","6501000","淡水區"
"251012","441-VK","2018/02/13 17:49:25","新北市淡水區北投子86-5號","121.46889","25.183445","6501000","淡水區"
"251016","442-VK","2018/02/13 17:49:21","新北市淡水區埤島39-15號","121.452758333333","25.1958416666667","6501000","淡水區"
"251005","443-VK","2018/02/13 17:49:18","新北市淡水區學府路100巷1號","121.4503","25.1718333333333","6501000","淡水區"
"251001","559-UM","2018/02/13 17:49:24","新北市淡水區民權路92巷35-1號","121.462088333333","25.12665","6501000","淡水區"
"251006","561-UM","2018/02/13 17:49:16","新北市淡水區中山北路一段45巷17號","121.440963333333","25.1758416666667","6501000","淡水區"
"251007","577-R6","2018/02/13 17:49:24","新北市淡水區民生路16巷1-1號","121.460946666667","25.1375083333333","6501000","淡水區"
"251011","650-BX","2018/02/13 17:49:12","新北市淡水區吳(仔)厝70號","121.479611666667","25.1496283333333","6501000","淡水區"
"251002","672-BX","2018/02/13 17:49:30","新北市淡水區中山路46號","121.444206666667","25.1700616666667","6501000","淡水區"
"251003","673-BX","2018/02/13 17:49:21","新北市淡水區大忠街5巷1號","121.4431","25.17639","6501000","淡水區"
"207003","550-UM","2018/02/13 17:49:28","新北市萬里區野柳里東澳路66號","121.692663333333","25.2008966666667","6502800","萬里區"
"207004","225-TW","2018/02/13 17:49:24","新北市萬里區萬里里瑪鋉頂街96號","121.687713333333","25.1803566666667","6502800","萬里區"
"252002","178-VK","2018/02/13 17:49:21","新北市三芝區智成街33號","121.503808333333","25.2565866666667","6502100","三芝區"
"252001","292-VK","2018/02/13 17:49:31","新北市三芝區淡金路一段4-2號","121.498815","25.2596116666667","6502100","三芝區"
"237007","153-BY","2018/02/13 17:49:19","新北市三峽區中園街227號","121.366928333333","24.9197683333333","6500900","三峽區"
"237009","210-TH","2018/02/13 17:49:19","新北市三峽區大勇路3巷11號","121.368066666667","24.93696","6500900","三峽區"
"237013","252-BX","2018/02/13 17:49:24","新北市三峽區愛國路1-1號","121.375136666667","24.9340916666667","6500900","三峽區"
"237012","275-BY","2018/02/13 17:49:18","新北市三峽區文化路164號","121.369933333333","24.9361633333333","6500900","三峽區"
"237008","302-VK","2018/02/13 17:49:30","新北市三峽區中園街237-1號","121.366811666667","24.9195433333333","6500900","三峽區"
"237014","433-BY","2018/02/13 17:49:30","新北市三峽區復興路101巷1弄71號","121.371526666667","24.9374266666667","6500900","三峽區"
"237006","5529-G3","2018/02/13 17:49:15","新北市三峽區介壽路二段136巷106弄2號","121.391913333333","24.93335","6500900","三峽區"
"237011","KEA-2596","2018/02/13 17:49:14","新北市三峽區光明路60號","121.374925","24.929295","6500900","三峽區"
"237016","649-BX","2018/02/13 17:49:16","新北市三峽區白雞149-2號","121.400176666667","24.90562","6500900","三峽區"
"237010","706-TV","2018/02/13 17:49:28","新北市三峽區和平街28號","121.370135","24.9368083333333","6500900","三峽區"
"237005","AKY-6261","2018/02/13 17:49:22","新北市三峽區中山路286號","121.360983333333","24.93798","6500900","三峽區"
"236070","105-UM","2018/02/13 17:49:15","新北市土城區青雲路643號","121.461208333333","24.967515","6501300","土城區"
"236043","107-UM","2018/02/13 17:49:16","新北市土城區城林路6巷80號","121.438368333333","24.9795333333333","6501300","土城區"
"236079","166-UM","2018/02/13 17:49:16","新北市土城區永寧路35號","121.430083333333","24.962115","6501300","土城區"
"236031","253-BX","2018/02/13 17:49:12","新北市土城區城林路6巷80號","121.438523333333","24.9795333333333","6501300","土城區"
"236026","269-VK","2018/02/13 17:49:30","新北市土城區中華路二段2號","121.439445","24.9795466666667","6501300","土城區"
"236015","270-VK","2018/02/13 17:49:18","新北市土城區城林路6巷80號","121.438428333333","24.9797166666667","6501300","土城區"
"236038","271-VK","2018/02/13 17:49:25","新北市土城區城林路6巷80號","121.438463333333","24.9797966666667","6501300","土城區"
"236023","401-BY","2018/02/13 17:49:25","新北市土城區城林路6巷80號","121.438398333333","24.97959","6501300","土城區"
"236059","912-UM","2018/02/13 17:49:26","新北市土城區中華路二段239號","121.4375","24.9726733333333","6501300","土城區"
"236049","913-UM","2018/02/13 17:49:24","新北市土城區城林路6巷80號","121.438418333333","24.9797933333333","6501300","土城區"
"242029","986-R7","2018/02/13 17:49:24","新北市新莊區復興路一段101號","121.449041666667","25.0428483333333","6500500","新莊區"
"242025","615-BX","2018/02/13 17:49:22","新北市新莊區新北大道二段219號","121.462445","25.06071","6500500","新莊區"
"242023","613-BX","2018/02/13 17:49:29","新北市新莊區福樂街52號","121.457773333333","25.04592","6500500","新莊區"
"242027","612-BX","2018/02/13 17:49:24","新北市新莊區福壽街138號","121.457658333333","25.0517916666667","6500500","新莊區"
"242039","566-BX","2018/02/13 17:49:17","新北市新莊區民安路208號","121.42579","25.02297","6500500","新莊區"
"242044","497-BY","2018/02/13 17:49:13","新北市新莊區富國路20號","121.418566666667","25.0263316666667","6500500","新莊區"
"242048","441-UM","2018/02/13 17:49:21","新北市新莊區萬安街58號","121.421048333333","25.0235383333333","6500500","新莊區"
"242054","440-UM","2018/02/13 17:49:17","新北市新莊區新樹路653號","121.43265","25.0031633333333","6500500","新莊區"
"242034","415-TV","2018/02/13 17:49:13","新北市新莊區新莊路664-1號","121.44239","25.032695","6500500","新莊區"
"242005","413-TV","2018/02/13 17:49:30","新北市新莊區自立街214巷9弄5號","121.45752","25.0451083333333","6500500","新莊區"
"242042","400-BY","2018/02/13 17:49:32","新北市新莊區中正路614巷4弄2號","121.425876666667","25.03048","6500500","新莊區"
"242061","362-BY","2018/02/13 17:49:23","新北市新莊區瓊林南路118-27號","121.433846666667","25.0107633333333","6500500","新莊區"
"242058","353-BY","2018/02/13 17:49:31","新北市新莊區中正路704號","121.41726","25.0255616666667","6500500","新莊區"
"242007","132-UY","2018/02/13 17:49:26","新北市新莊區福壽街49巷12號","121.457633333333","25.0488083333333","6500500","新莊區"
"242037","133-UY","2018/02/13 17:49:27","新北市新莊區建福路59巷43號","121.42851","25.027905","6500500","新莊區"
"242021","135-UY","2018/02/13 17:49:16","新北市新莊區中華路一段182號","121.452678333333","25.04241","6500500","新莊區"
"242046","172-VK","2018/02/13 17:49:24","新北市新莊區建國一路29號","121.434096666667","25.0312366666667","6500500","新莊區"
"242009","173-VK","2018/02/13 17:49:17","新北市新莊區昌明街30巷18號","121.456916666667","25.053065","6500500","新莊區"
"242015","175-VK","2018/02/13 17:49:29","新北市新莊區新泰路378號","121.44422","25.0432083333333","6500500","新莊區"
"242002","176-VK","2018/02/13 17:49:18","新北市新莊區新莊路332號","121.450256666667","25.0336883333333","6500500","新莊區"
"242013","346-TH","2018/02/13 17:49:20","新北市新莊區中誠街142巷15弄1號","121.448756666667","25.0482783333333","6500500","新莊區"
"242051","347-TH","2018/02/13 17:49:32","新北市新莊區西盛街235號","121.428081666667","25.016285","6500500","新莊區"
"242019","348-TH","2018/02/13 17:49:20","新北市新莊區中港路236號","121.454036666667","25.043035","6500500","新莊區"
"242056","349-TH","2018/02/13 17:49:25","新北市新莊區瓊林路40巷2號","121.448051666667","25.03028","6500500","新莊區"
"242017","350-TH","2018/02/13 17:49:17","新北市新莊區永安街93號","121.450565","25.0445816666667","6500500","新莊區"
"242011","351-TH","2018/02/13 17:49:18","新北市新莊區中港路684號","121.45079","25.0567116666667","6500500","新莊區"
"238015","755-BX","2018/02/13 17:49:31","新北市樹林區樹德街136巷41號","121.420113333333","24.99441","6500700","樹林區"
"238023","601-UM","2018/02/13 17:49:22","新北市樹林區龍興街13巷18號","121.403496666667","25.0164416666667","6500700","樹林區"
"238019","599-UM","2018/02/13 17:49:28","新北市樹林區太平路180號","121.418395","24.976665","6500700","樹林區"
"238018","571-TV","2018/02/13 17:49:31","新北市樹林區博愛街6號","121.42763","24.993215","6500700","樹林區"
"238021","KEA-2217","2018/02/13 17:49:19","新北市樹林區柑園街一段145號","121.400703333333","24.9588883333333","6500700","樹林區"
"238022","KEA-2213","2018/02/13 17:49:13","新北市樹林區太順街62巷3弄22號","121.416858333333","24.9794016666667","6500700","樹林區"
"238025","303-VK","2018/02/13 17:49:25","新北市樹林區保安街二段192號","121.4126","25.0103783333333","6500700","樹林區"
"238017","283-BY","2018/02/13 17:49:29","新北市樹林區三俊街74巷47號","121.414363333333","25.0130666666667","6500700","樹林區"
"238014","282-BY","2018/02/13 17:49:24","新北市樹林區大安路145巷1號","121.422263333333","24.9967583333333","6500700","樹林區"
"238020","268-VK","2018/02/13 17:49:15","新北市樹林區三俊街173號","121.419448333333","25.01563","6500700","樹林區"
"238026","172-UY","2018/02/13 17:49:31","新北市樹林區新興街17號","121.400338333333","24.9727733333333","6500700","樹林區"
"238016","169-UY","2018/02/13 17:49:16","新北市樹林區啟智街129號","121.418243333333","24.989425","6500700","樹林區"
"239007","AAC-297","2018/02/13 17:49:12","新北市鶯歌區國光街62號","121.340961666667","24.958215","6500800","鶯歌區"
"239006","891-R6","2018/02/13 17:49:20","新北市鶯歌區永和街34巷17號","121.333815","24.9673333333333","6500800","鶯歌區"
"239008","527-UM","2018/02/13 17:49:15","新北市鶯歌區大湖路700巷22弄19號","121.333858333333","24.9773466666667","6500800","鶯歌區"
"239005","526-UM","2018/02/13 17:49:30","新北市鶯歌區鳳吉五街10號","121.326681666667","24.9722466666667","6500800","鶯歌區"
"239001","417-VK","2018/02/13 17:49:25","新北市鶯歌區中正三路327號","121.328263333333","24.9354283333333","6500800","鶯歌區"
"239003","360-BY","2018/02/13 17:49:17","新北市鶯歌區鶯桃路285巷2-5號","121.334348333333","24.9591366666667","6500800","鶯歌區"
"239004","193-VK","2018/02/13 17:49:23","新北市鶯歌區三鶯路5號","121.356911666667","24.9407233333333","6500800","鶯歌區"
"221008","489-VK","2018/02/13 17:49:22","新北市汐止區康寧街901號","121.651418333333","25.07503","6501100","汐止區"
"221010","269-BY","2018/02/13 17:49:25","新北市汐止區汐萬路二段53號","121.64947","25.0817283333333","6501100","汐止區"
"221012","278-VK","2018/02/13 17:49:16","新北市汐止區長江街43號","121.655921666667","25.0713116666667","6501100","汐止區"
"221023","279-VK","2018/02/13 17:49:22","新北市汐止區民族一街14號","121.635073333333","25.0710483333333","6501100","汐止區"
"221032","280-BY","2018/02/13 17:49:27","新北市汐止區工建路157號","121.637741666667","25.0633083333333","6501100","汐止區"
"221027","281-BY","2018/02/13 17:49:15","新北市汐止區汐萬路一段312號","121.650683333333","25.0753633333333","6501100","汐止區"
"221029","298-VK","2018/02/13 17:49:24","新北市汐止區康寧街901號","121.65137","25.0750266666667","6501100","汐止區"
"221021","299-VK","2018/02/13 17:49:23","新北市汐止區汐萬路一段18號","121.656048333333","25.0674516666667","6501100","汐止區"
"221031","353-TW","2018/02/13 17:49:19","新北市汐止區工建路209號","121.635785","25.0617066666667","6501100","汐止區"
"221035","622-UM","2018/02/13 17:49:20","新北市汐止區汐萬路一段211巷15號","121.651548333333","25.0718566666667","6501100","汐止區"
"221025","623-UM","2018/02/13 17:49:16","新北市汐止區新台五路一段260-1號","121.657786666667","25.0639666666667","6501100","汐止區"
"221038","646-BX","2018/02/13 17:49:14","新北市汐止區汐萬路一段247-1號","121.65137","25.0732166666667","6501100","汐止區"
"221033","647-BX","2018/02/13 17:49:26","新北市汐止區林森街78號","121.623813333333","25.04065","6501100","汐止區"
"221018","753-BX","2018/02/13 17:49:21","新北市汐止區汐萬路一段222號","121.651568333333","25.07298","6501100","汐止區"
"242032","280-VK","2018/02/13 17:49:21","新北市新莊區新泰路330號","121.445005","25.0418666666667","6500500","新莊區"
