"lineid","car","time","location","longitude","latitude","cityid","cityname"
"234007","207-UY","2018/02/13 18:19:24","新北市永和區環河西路二段219號","121.501278333333","25.010205","6500400","永和區"
"234026","9371-KE","2018/02/13 18:19:17","新北市永和區豫溪街44號","121.515615","25.0097133333333","6500400","永和區"
"249005","172-UM","2018/02/13 18:19:15","新北市八里區荖阡坑路7-3號","121.399381666667","25.1420216666667","6502300","八里區"
"249001","173-UM","2018/02/13 18:19:25","新北市八里區龍米路一段127號","121.452258333333","25.1266516666667","6502300","八里區"
"249004","303-UY","2018/02/13 18:19:29","新北市八里區龍米路二段159-2號","121.439185","25.153965","6502300","八里區"
"249002","305-UY","2018/02/13 18:19:30","新北市八里區龍形二街21號","121.450588333333","25.1317783333333","6502300","八里區"
"248016","026-BX","2018/02/13 18:19:32","新北市五股區成泰路三段477巷18號","121.449865","25.0989366666667","6501500","五股區"
"248006","077-UY","2018/02/13 18:19:21","新北市五股區中興路一段181號","121.464311666667","25.0738916666667","6501500","五股區"
"248008","095-VK","2018/02/13 18:19:16","新北市五股區更洲路32巷8弄14號","121.45926","25.0796316666667","6501500","五股區"
"248020","225-UY","2018/02/13 18:19:19","新北市五股區孝義路47巷1-2號","121.454098333333","25.1104566666667","6501500","五股區"
"248012","247-BX","2018/02/13 18:19:27","新北市五股區御成路12號","121.441816666667","25.0911816666667","6501500","五股區"
"248014","261-SL","2018/02/13 18:19:22","新北市五股區自強路19巷13號","121.434741666667","25.0735383333333","6501500","五股區"
"248004","677-BX","2018/02/13 18:19:20","新北市五股區成泰路二段156號","121.438308333333","25.084145","6501500","五股區"
"248002","678-BX","2018/02/13 18:19:23","新北市五股區西雲路66號","121.443656666667","25.09164","6501500","五股區"
"248010","682-TV","2018/02/13 18:19:23","新北市五股區成泰路一段163號","121.43519","25.0744016666667","6501500","五股區"
"232011","375-UM","2018/02/13 18:19:12","新北市坪林區坪雙路一段31號","121.711681666667","24.94243","6502000","坪林區"
"244013","069-UM","2018/02/13 18:19:21","新北市林口區中山路150-1號","121.391131666667","25.0787433333333","6501700","林口區"
"244007","080-UY","2018/02/13 18:19:17","新北市林口區林口路190號","121.387426666667","25.0828533333333","6501700","林口區"
"244019","402-UM","2018/02/13 18:19:14","新北市林口區文化一路一段126號","121.375503333333","25.072505","6501700","林口區"
"244023","483-VK","2018/02/13 18:19:25","新北市林口區仁愛路二段125號","121.3834","25.0748316666667","6501700","林口區"
"244017","485-VK","2018/02/13 18:19:32","新北市林口區公園路23號","121.366773333333","25.0677716666667","6501700","林口區"
"244009","658-BX","2018/02/13 18:19:22","新北市林口區佳林路56巷33號","121.38512","25.081025","6501700","林口區"
"244011","701-TV","2018/02/13 18:19:12","新北市林口區中正路8號","121.396341666667","25.0774233333333","6501700","林口區"
"244025","837-TS","2018/02/13 18:19:18","新北市林口區南勢六街20號","121.356835","25.070935","6501700","林口區"
"244021","838-TS","2018/02/13 18:19:21","新北市林口區自強五街23號","121.40016","25.0757866666667","6501700","林口區"
"243013","646-TV","2018/02/13 18:19:20","新北市泰山區南林路103號","121.41439","25.04353","6501600","泰山區"
"222002","016-RS","2018/02/13 18:19:15","新北市深坑區文山路一段62巷10號","121.621923333333","25.0009866666667","6501800","深坑區"
"222003","436-BY","2018/02/13 18:19:21","新北市深坑區昇高坑路15號","121.624318333333","25.00088","6501800","深坑區"
"231041","002-UM","2018/02/13 18:19:13","新北市新店區安華路28-1號","121.519748333333","24.9608616666667","6500600","新店區"
"231059","046-UY","2018/02/13 18:19:30","新北市新店區安華路28-1號","121.519525","24.960805","6500600","新店區"
"231061","047-UY","2018/02/13 18:19:22","新北市新店區安華路28-1號","121.519171666667","24.960815","6500600","新店區"
"231051","107-UY","2018/02/13 18:19:23","新北市新店區安華路28-1號","121.51925","24.9613133333333","6500600","新店區"
"231048","108-UY","2018/02/13 18:19:22","新北市新店區安華路28-1號","121.519485","24.96092","6500600","新店區"
"231053","187-VK","2018/02/13 18:19:33","新北市新店區安康路一段299-3號","121.521023333333","24.9638116666667","6500600","新店區"
"231015","KEA-2219","2018/02/13 18:19:20","新北市新店區安華路28-1號","121.519848333333","24.9611783333333","6500600","新店區"
"221015","KEA-2785","2018/02/13 18:19:32","新北市汐止區鄉長路二段23巷19號","121.66797","25.082835","6501100","汐止區"
"231057","256-BX","2018/02/13 18:19:30","新北市新店區安華路28-1號","121.51979","24.9611183333333","6500600","新店區"
"231046","278-BY","2018/02/13 18:19:26","新北市新店區直潭七街60號","121.532245","24.93995","6500600","新店區"
"231054","AAD-862","2018/02/13 18:19:19","新北市新店區安華路28-1號","121.520135","24.96106","6500600","新店區"
"231058","3712-VJ","2018/02/13 18:19:25","新北市新店區安康路一段323-1號","121.521763333333","24.963755","6500600","新店區"
"231056","3713-VJ","2018/02/13 18:19:32","新北市新店區中央路151號","121.529223333333","24.97212","6500600","新店區"
"231055","4716-K9","2018/02/13 18:19:15","新北市新店區安康路一段35號","121.531753333333","24.9607483333333","6500600","新店區"
"231067","4772-VM","2018/02/13 18:19:32","新北市新店區安華路28-1號","121.519361666667","24.9606633333333","6500600","新店區"
"231042","616-UM","2018/02/13 18:19:23","新北市新店區安華路28-1號","121.51949","24.9605516666667","6500600","新店區"
"231040","619-UM","2018/02/13 18:19:30","新北市新店區安華路28-1號","121.519515","24.9608633333333","6500600","新店區"
"231063","645-TV","2018/02/13 18:19:24","新北市新店區安華路1-1號","121.51936","24.96054","6500600","新店區"
"231049","719-UM","2018/02/13 18:19:19","新北市新店區安華路28-1號","121.519465","24.9611233333333","6500600","新店區"
"231065","719-UY","2018/02/13 18:19:28","新北市新店區安華路28-1號","121.51955","24.9612416666667","6500600","新店區"
"231062","720-UM","2018/02/13 18:19:23","新北市新店區安華路28-1號","121.519226666667","24.961185","6500600","新店區"
"231044","897-TW","2018/02/13 18:19:15","新北市新店區安華路28-1號","121.51981","24.9606766666667","6500600","新店區"
"231045","898-TW","2018/02/13 18:15:24","新北市新店區安華路28-1號","121.519375","24.960945","6500600","新店區"
"231043","899-TW","2018/02/13 18:19:18","新北市新店區安華路28-1號","121.519201666667","24.9608416666667","6500600","新店區"
"231066","AKT-0513","2018/02/13 18:19:23","新北市新店區安華路1-1號","121.519458333333","24.9605283333333","6500600","新店區"
"241028","022-UY","2018/02/13 18:19:17","新北市三重區中正南路43號","121.49389","25.0597716666667","6500200","三重區"
"241005","262-UM","2018/02/13 18:18:04","新北市蘆洲區中正路516巷5號","121.461061666667","25.098245","6500200","三重區"
"241023","545-UM","2018/02/13 18:19:32","新北市三重區忠孝路三段50巷39號","121.482501666667","25.06461","6500200","三重區"
"241029","942-UM","2018/02/13 18:19:19","新北市三重區重安街106號","121.493168333333","25.0556083333333","6500200","三重區"
"235066","003-UY","2018/02/13 18:19:25","新北市中和區中山路二段147號","121.501828333333","25.0028733333333","6500300","中和區"
"235064","005-UY","2018/02/13 18:19:28","新北市中和區中正路148號","121.499061666667","24.993835","6500300","中和區"
"235063","006-UY","2018/02/13 18:19:29","新北市中和區中正路589巷3號","121.485873333333","24.9942333333333","6500300","中和區"
"235056","096-UM","2018/02/13 18:19:25","新北市中和區中山路二段570號","121.48303","25.0050483333333","6500300","中和區"
"235039","097-UM","2018/02/13 18:19:32","新北市中和區景平路381號","121.503973333333","24.9934166666667","6500300","中和區"
"235065","098-UM","2018/02/13 18:19:33","新北市中和區莊敬路49巷18號","121.501666666667","25.0060866666667","6500300","中和區"
"235040","150-BY","2018/02/13 18:19:28","新北市中和區南山路231號","121.503678333333","24.993535","6500300","中和區"
"235058","151-BY","2018/02/13 18:19:16","新北市中和區圓通路367巷21-1號","121.492515","24.9864433333333","6500300","中和區"
"235055","183-VK","2018/02/13 18:19:23","新北市中和區中正路637巷60弄61號","121.48546","24.9928066666667","6500300","中和區"
"235038","185-VK","2018/02/13 18:19:31","新北市中和區大智街113號","121.52362","24.992585","6500300","中和區"
"235049","186-VK","2018/02/13 18:19:31","新北市中和區中正路637巷60弄61號","121.48545","24.993025","6500300","中和區"
"235072","301-VK","2018/02/13 18:19:19","新北市中和區連城路171巷28號","121.49582","24.9971316666667","6500300","中和區"
"235043","352-BY","2018/02/13 18:19:25","新北市中和區南山路233號","121.503691666667","24.9932966666667","6500300","中和區"
"235061","378-QA","2018/02/13 18:19:30","新北市中和區民德路179號","121.468498333333","24.9994366666667","6500300","中和區"
"235050","4979-A6","2018/02/13 18:19:14","新北市中和區捷運路129號","121.507071666667","24.9908183333333","6500300","中和區"
"235069","4980-A6","2018/02/13 18:19:28","新北市中和區連城路127巷7-3號","121.496475","24.99882","6500300","中和區"
"235042","551-UM","2018/02/13 18:19:33","新北市中和區景平路159巷1號","121.512785","24.9921816666667","6500300","中和區"
"235045","565-BX","2018/02/13 18:19:26","新北市中和區景安路200巷4弄1號","121.50347","24.99165","6500300","中和區"
"235054","640-BX","2018/02/13 18:19:21","新北市中和區莒光路185號","121.472648333333","24.99904","6500300","中和區"
"235060","647-TV","2018/02/13 18:19:12","新北市中和區員山路96號","121.48101","24.9946133333333","6500300","中和區"
"235047","732-UM","2018/02/13 18:19:28","新北市中和區中正路171號","121.49777","24.9936033333333","6500300","中和區"
"235046","733-UM","2018/02/13 18:19:14","新北市中和區員山路36巷13號","121.48415","24.9908283333333","6500300","中和區"
"235062","800-TS","2018/02/13 18:19:15","新北市中和區中正路820號","121.485068333333","25.0034833333333","6500300","中和區"
"235057","801-TS","2018/02/13 18:19:26","新北市中和區員山路261號","121.481333333333","24.9991383333333","6500300","中和區"
"235052","805-TS","2018/02/13 18:19:31","新北市中和區南山路280號","121.507876666667","24.9878133333333","6500300","中和區"
"235048","896-TW","2018/02/13 18:19:24","新北市中和區錦和路350-1號","121.48999","24.9935183333333","6500300","中和區"
"235053","900-TW","2018/02/13 18:19:17","新北市中和區員山路61號","121.480666666667","24.99358","6500300","中和區"
"235051","157-BY","2018/02/13 18:19:33","新北市中和區捷運路8-2號","121.509713333333","24.9896783333333","6500300","中和區"
"235037","AAC-213","2018/02/13 18:19:32","新北市中和區景德街88號","121.516053333333","24.9919","6500300","中和區"
"247002","337-TH","2018/02/13 18:19:20","新北市八里區中華路三段62號","121.393985","25.1407616666667","6501400","蘆洲區"
"247006","057-VK","2018/02/13 18:19:22","新北市蘆洲區中華街61巷1號","121.462601666667","25.0807583333333","6501400","蘆洲區"
"226004","312-R5","2018/02/13 18:19:22","新北市平溪區薯榔里雙菁路88號","121.71463","25.0209166666667","6502400","平溪區"
"235041","251-BX","2018/02/13 18:19:26","新北市中和區錦和路350-1號","121.490366666667","24.9935516666667","6500300","中和區"
"228001","212-TW","2018/02/13 18:19:30","新北市貢寮區真理里新港街26巷55弄2-1號","121.927338333333","25.052855","6502600","貢寮區"
"228002","585-TW","2018/02/13 18:19:14","新北市貢寮區福連里馬崗街25-1號","122.00358","25.01364","6502600","貢寮區"
"228003","828-UM","2018/02/13 18:19:30","新北市貢寮區真理里美艷山街65-3號","121.919531666667","25.0725083333333","6502600","貢寮區"
"224006","676-BX","2018/02/13 18:19:18","新北市瑞芳區民權街3-2號","121.808025","25.1074816666667","6501200","瑞芳區"
"224002","639-TC","2018/02/13 18:19:21","新北市瑞芳區三爪子坑路203號","121.81166","25.105815","6501200","瑞芳區"
"224009","285-BY","2018/02/13 18:19:31","新北市瑞芳區金光路133號","121.853863333333","25.1068383333333","6501200","瑞芳區"
"224008","275-VK","2018/02/13 18:19:25","新北市瑞芳區逢甲路17號","121.8096","25.10846","6501200","瑞芳區"
"224007","273-VK","2018/02/13 18:19:22","新北市瑞芳區大埔路有勝新村2號","121.764856666667","25.101395","6501200","瑞芳區"
"224005","271-BY","2018/02/13 18:19:24","新北市瑞芳區建基路二段53號","121.806873333333","25.1335366666667","6501200","瑞芳區"
"227003","642-TC","2018/02/13 18:19:29","新北市雙溪區共和里中山路2號","121.86382","25.0337766666667","6502500","雙溪區"
"227009","400-TW","2018/02/13 18:19:12","新北市雙溪區牡丹里牡丹73號","121.85176","25.0593416666667","6502500","雙溪區"
"253005","032-BX","2018/02/13 18:19:24","新北市石門區中央路4-3號","121.565695","25.2913283333333","6502200","石門區"
"253006","295-VK","2018/02/13 18:19:31","新北市石門區老梅路61號","121.54577","25.28931","6502200","石門區"
"222001","KEA-2212","2018/02/13 18:19:27","新北市深坑區北深路二段55巷1弄3號","121.619068333333","25.0038683333333","6501800","深坑區"
"208002","742-BX","2018/02/13 18:19:27","新北市金山區清泉里清水路60巷6號","121.63255","25.2349833333333","6502700","金山區"
"208003","665-BX","2018/02/13 18:19:17","新北市金山區中山路16號","121.641711666667","25.2183","6502700","金山區"
"208001","761-BX","2018/02/13 18:19:33","新北市金山區中山路69號","121.641165","25.2176683333333","6502700","金山區"
"251004","009-UM","2018/02/13 18:18:48","新北市淡水區民權路215巷152號","121.46375","25.1339766666667","6501000","淡水區"
"251013","179-VK","2018/02/13 18:19:25","新北市淡水區行忠路691號","121.471596666667","25.1993666666667","6501000","淡水區"
"251014","180-VK","2018/02/13 18:19:20","新北市淡水區崙頂13號","121.492216666667","25.21967","6501000","淡水區"
"251008","181-VK","2018/02/13 18:19:19","新北市淡水區淡金路16巷23號","121.457921666667","25.1604866666667","6501000","淡水區"
"251015","182-VK","2018/02/13 18:19:17","新北市淡水區興福寮88巷1號","121.485565","25.1651233333333","6501000","淡水區"
"251010","413-VK","2018/02/13 18:19:27","新北市淡水區淡海路180巷12-3號","121.420421666667","25.1846883333333","6501000","淡水區"
"251012","441-VK","2018/02/13 18:19:25","新北市淡水區北新路二段77-5號","121.480465","25.18557","6501000","淡水區"
"251016","442-VK","2018/02/13 18:19:21","新北市淡水區淡金路三段70巷1號","121.448235","25.2001533333333","6501000","淡水區"
"251005","443-VK","2018/02/13 18:19:18","新北市淡水區水源街一段122巷37號","121.44705","25.1704316666667","6501000","淡水區"
"251001","559-UM","2018/02/13 18:19:24","新北市淡水區自強路299號","121.461751666667","25.1316416666667","6501000","淡水區"
"251006","561-UM","2018/02/13 18:19:15","新北市淡水區新民街76巷8號","121.438966666667","25.1765316666667","6501000","淡水區"
"251011","650-BX","2018/02/13 18:19:12","新北市淡水區坪頂路52巷10號","121.457823333333","25.1624383333333","6501000","淡水區"
"251002","672-BX","2018/02/13 18:19:14","新北市淡水區中正東路一段34號","121.452538333333","25.1624416666667","6501000","淡水區"
"251003","673-BX","2018/02/13 18:19:20","新北市淡水區北新路137號","121.449405","25.17887","6501000","淡水區"
"207003","550-UM","2018/02/13 18:19:34","新北市萬里區野柳里港東路6-1號","121.68657","25.2031833333333","6502800","萬里區"
"207004","225-TW","2018/02/13 18:19:24","新北市萬里區中幅里中福路125號","121.675868333333","25.1659033333333","6502800","萬里區"
"252002","178-VK","2018/02/13 18:19:21","新北市三芝區中山路二段29號","121.502856666667","25.2553833333333","6502100","三芝區"
"252001","292-VK","2018/02/13 18:19:12","新北市三芝區中興街二段2號","121.498373333333","25.2566666666667","6502100","三芝區"
"252003","702-TV","2018/02/13 18:19:32","新北市三芝區錫板里海尾11-7號","121.478278333333","25.26049","6502100","三芝區"
"237004","KEA-2597","2018/02/13 18:19:27","新北市三峽區五寮61號","121.360848333333","24.8602816666667","6500900","三峽區"
"237007","153-BY","2018/02/13 18:19:19","新北市三峽區中正路二段548號","121.359986666667","24.9061883333333","6500900","三峽區"
"237009","210-TH","2018/02/13 18:19:19","新北市三峽區大勇路36巷31號","121.365076666667","24.9369116666667","6500900","三峽區"
"237013","252-BX","2018/02/13 18:19:25","新北市三峽區長泰街30號","121.37855","24.93211","6500900","三峽區"
"237012","275-BY","2018/02/13 18:19:18","新北市三峽區民生街1巷1-46號","121.377478333333","24.93632","6500900","三峽區"
"237008","302-VK","2018/02/13 18:19:30","新北市三峽區白雞58-2號","121.38417","24.910605","6500900","三峽區"
"237014","433-BY","2018/02/13 18:19:29","新北市三峽區文化路41號","121.372436666667","24.9360566666667","6500900","三峽區"
"237006","5529-G3","2018/02/13 18:19:15","新北市三峽區隆恩街162號","121.364738333333","24.9430316666667","6500900","三峽區"
"237011","KEA-2596","2018/02/13 18:19:34","新北市三峽區成福路63號","121.418416666667","24.9291333333333","6500900","三峽區"
"237016","649-BX","2018/02/13 18:19:16","新北市三峽區紫新路38巷2號","121.422091666667","24.922535","6500900","三峽區"
"237010","706-TV","2018/02/13 18:19:28","新北市三峽區中山路51-1號","121.367913333333","24.9346366666667","6500900","三峽區"
"237005","AKY-6261","2018/02/13 18:19:22","新北市三峽區清水街342號","121.3709","24.9335866666667","6500900","三峽區"
"236070","105-UM","2018/02/13 18:19:15","新北市土城區永豐路236號","121.467291666667","24.981005","6501300","土城區"
"236043","107-UM","2018/02/13 18:19:16","新北市土城區裕生路17號","121.44848","24.9873833333333","6501300","土城區"
"236079","166-UM","2018/02/13 18:19:16","新北市土城區永安街80號","121.43202","24.9637833333333","6501300","土城區"
"236031","253-BX","2018/02/13 18:19:12","新北市土城區順風路41號","121.440701666667","24.9767483333333","6501300","土城區"
"236026","269-VK","2018/02/13 18:19:30","新北市土城區承天路88-1號","121.443175","24.9603633333333","6501300","土城區"
"236015","270-VK","2018/02/13 18:19:18","新北市土城區青雲路39巷7號","121.460333333333","24.98739","6501300","土城區"
"236038","271-VK","2018/02/13 18:19:25","新北市土城區青雲路451巷11號","121.45947","24.9747316666667","6501300","土城區"
"236023","401-BY","2018/02/13 18:19:25","新北市土城區明德路一段365-1號","121.453511666667","24.9790983333333","6501300","土城區"
"236059","912-UM","2018/02/13 18:19:26","新北市土城區信義路2號","121.413038333333","24.954415","6501300","土城區"
"236049","913-UM","2018/02/13 18:19:24","新北市土城區明德路一段361-3號","121.456218333333","24.9777283333333","6501300","土城區"
"236063","915-UM","2018/02/13 18:19:17","新北市土城區金城路三段197號","121.47029","24.9889083333333","6501300","土城區"
"236055","AAC-216","2018/02/13 18:19:33","新北市土城區中華路二段114號","121.437851666667","24.9739983333333","6501300","土城區"
"242029","986-R7","2018/02/13 18:19:24","新北市新莊區中平路186號","121.444721666667","25.04784","6500500","新莊區"
"242025","615-BX","2018/02/13 18:19:21","新北市新莊區五權一路13-3號","121.459988333333","25.0683283333333","6500500","新莊區"
"242023","613-BX","2018/02/13 18:19:32","新北市新莊區新泰路528號","121.44204","25.04739","6500500","新莊區"
"242027","612-BX","2018/02/13 18:19:25","新北市新莊區幸福路58號","121.45731","25.049455","6500500","新莊區"
"242039","566-BX","2018/02/13 18:19:17","新北市新莊區民安西路48號","121.42736","25.02082","6500500","新莊區"
"242044","497-BY","2018/02/13 18:19:33","新北市新莊區雙鳳路164號","121.412725","25.0271583333333","6500500","新莊區"
"242048","441-UM","2018/02/13 18:19:21","新北市新莊區民安路100號","121.4239","25.0259566666667","6500500","新莊區"
"242054","440-UM","2018/02/13 18:19:17","新北市新莊區民安西路344號","121.427088333333","25.01137","6500500","新莊區"
"242034","415-TV","2018/02/13 18:19:13","新北市新莊區新豐街65號","121.446431666667","25.033535","6500500","新莊區"
"242005","413-TV","2018/02/13 18:19:30","新北市新莊區自立街80號","121.454451666667","25.0451916666667","6500500","新莊區"
"242042","400-BY","2018/02/13 18:19:32","新北市新莊區天祥街122號","121.41465","25.0300483333333","6500500","新莊區"
"242061","362-BY","2018/02/13 18:19:03","新北市新莊區新樹路186號","121.434236666667","25.0211433333333","6500500","新莊區"
"242058","353-BY","2018/02/13 18:19:31","新北市新莊區新北大道七段180號","121.415603333333","25.0316116666667","6500500","新莊區"
"242007","132-UY","2018/02/13 18:19:26","新北市新莊區中華路二段42號","121.45395","25.0456316666667","6500500","新莊區"
"242037","133-UY","2018/02/13 18:19:27","新北市新莊區建福路58巷3號","121.426371666667","25.0271283333333","6500500","新莊區"
"242021","135-UY","2018/02/13 18:19:32","新北市新莊區建興街56巷4號","121.450083333333","25.0384716666667","6500500","新莊區"
"242046","172-VK","2018/02/13 18:19:24","新北市新莊區福營路226號","121.427286666667","25.02941","6500500","新莊區"
"242009","173-VK","2018/02/13 18:19:16","新北市新莊區昌平街41巷15號","121.453966666667","25.0523833333333","6500500","新莊區"
"242015","175-VK","2018/02/13 18:19:29","新北市新莊區中平路132巷5號","121.445551666667","25.046715","6500500","新莊區"
"242002","176-VK","2018/02/13 18:19:24","新北市新莊區新莊路26號","121.458461666667","25.03723","6500500","新莊區"
"242013","346-TH","2018/02/13 18:19:19","新北市新莊區幸福路670巷2弄1號","121.45113","25.049585","6500500","新莊區"
"242051","347-TH","2018/02/13 18:19:32","新北市新莊區民本街43巷21號","121.429065","25.0184616666667","6500500","新莊區"
"242019","348-TH","2018/02/13 18:19:15","新北市新莊區民樂街15巷2號","121.45768","25.0402916666667","6500500","新莊區"
"242056","349-TH","2018/02/13 18:19:25","新北市新莊區瓊林路51-3號","121.445151666667","25.0275033333333","6500500","新莊區"
"242011","351-TH","2018/02/13 18:19:26","新北市新莊區中榮街54號","121.449293333333","25.0528133333333","6500500","新莊區"
"238015","755-BX","2018/02/13 18:19:31","新北市樹林區啟智街86巷16號","121.41819","24.9909533333333","6500700","樹林區"
"238023","601-UM","2018/02/13 18:19:31","新北市樹林區三福街68號","121.404926666667","25.0162083333333","6500700","樹林區"
"238018","571-TV","2018/02/13 18:19:16","新北市板橋區大觀路三段240號","121.42929","24.992655","6500700","樹林區"
"238024","5061-A6","2018/02/13 18:19:27","新北市樹林區文化街28-1號","121.419191666667","24.9877666666667","6500700","樹林區"
"238021","KEA-2217","2018/02/13 18:19:23","新北市樹林區柑園街二段22號","121.387648333333","24.9557416666667","6500700","樹林區"
"238025","303-VK","2018/02/13 18:19:25","新北市樹林區三俊街138號","121.416133333333","25.0152283333333","6500700","樹林區"
"238014","282-BY","2018/02/13 18:19:24","新北市樹林區大安路435號","121.415226666667","24.9885733333333","6500700","樹林區"
"238020","268-VK","2018/02/13 18:19:15","新北市樹林區三俊街135巷52號","121.418705","25.0172566666667","6500700","樹林區"
"238026","172-UY","2018/02/13 18:19:11","新北市樹林區佳園路一段13號","121.392903333333","24.97148","6500700","樹林區"
"239007","AAC-297","2018/02/13 18:19:32","新北市鶯歌區尖山埔路187號","121.345616666667","24.950615","6500800","鶯歌區"
"239008","527-UM","2018/02/13 18:19:15","新北市鶯歌區國際一路179號","121.33612","24.9764033333333","6500800","鶯歌區"
"239005","526-UM","2018/02/13 18:19:30","新北市樹林區中山路三段214號","121.380443333333","24.967105","6500800","鶯歌區"
"239001","417-VK","2018/02/13 18:19:25","新北市鶯歌區國中街71-1號","121.340861666667","24.9409733333333","6500800","鶯歌區"
"221008","489-VK","2018/02/13 18:19:22","新北市汐止區明峰街115號","121.631238333333","25.070835","6501100","汐止區"
"221010","269-BY","2018/02/13 18:19:25","新北市汐止區汐萬路二段275巷3弄1號","121.645276666667","25.0887133333333","6501100","汐止區"
"221012","278-VK","2018/02/13 18:19:16","新北市汐止區保一街22巷4號","121.673818333333","25.08068","6501100","汐止區"
"221023","279-VK","2018/02/13 18:19:22","新北市汐止區中興路195-1號","121.629401666667","25.0681816666667","6501100","汐止區"
"221032","280-BY","2018/02/13 18:19:31","新北市汐止區力行街21號","121.617093333333","25.0506466666667","6501100","汐止區"
"221027","281-BY","2018/02/13 18:19:15","新北市汐止區和平街6巷5弄2號","121.663393333333","25.071755","6501100","汐止區"
"221029","298-VK","2018/02/13 18:19:24","新北市汐止區樟樹二路330巷72-1號","121.64295","25.0699666666667","6501100","汐止區"
"221021","299-VK","2018/02/13 18:19:23","新北市汐止區龍安路202巷43號","121.652506666667","25.06375","6501100","汐止區"
"221031","353-TW","2018/02/13 18:19:19","新北市汐止區中興路110巷3-1號","121.633218333333","25.0638033333333","6501100","汐止區"
"221035","622-UM","2018/02/13 18:19:20","新北市汐止區大同路二段187巷4弄1號","121.652328333333","25.0651933333333","6501100","汐止區"
"221025","623-UM","2018/02/13 18:19:16","新北市汐止區勤進路12巷49號","121.65897","25.062925","6501100","汐止區"
"221038","646-BX","2018/02/13 18:19:14","新北市汐止區仁愛路313號","121.664665","25.06756","6501100","汐止區"
"221033","647-BX","2018/02/13 18:19:26","新北市汐止區宜興街33巷1號","121.621988333333","25.042075","6501100","汐止區"
"221002","707-TV","2018/02/13 18:19:30","新北市汐止區福德一路201巷23號","121.635991666667","25.0647883333333","6501100","汐止區"
"221018","753-BX","2018/02/13 18:19:21","新北市汐止區茄苳路118號","121.667958333333","25.07043","6501100","汐止區"
"220062","305-R5","2018/02/13 18:19:25","新北市板橋區民生路二段120號","121.470416666667","25.0196766666667","6500100","板橋區"
"242032","280-VK","2018/02/13 18:19:15","新北市新莊區新泰路277巷45號","121.444033333333","25.040095","6500500","新莊區"
