"lineid","car","time","location","longitude","latitude","cityid","cityname"
"234046","148-BY","2018/02/13 18:29:19","新北市永和區福和路1號","121.525683333333","25.0094266666667","6500400","永和區"
"234007","207-UY","2018/02/13 18:29:24","新北市永和區環河西路二段185號","121.502308333333","25.0113083333333","6500400","永和區"
"234081","298-R6","2018/02/13 18:29:16","新北市永和區豫溪街217巷11號","121.524618333333","25.0096766666667","6500400","永和區"
"234086","338-UY","2018/02/13 18:29:21","新北市永和區豫溪街217巷7號","121.524676666667","25.0095983333333","6500400","永和區"
"234017","745-BX","2018/02/13 18:29:24","新北市永和區福和路1號","121.52632","25.0096","6500400","永和區"
"234030","746-BX","2018/02/13 18:29:17","新北市永和區福和路8巷3號","121.525003333333","25.0091283333333","6500400","永和區"
"234042","862-TW","2018/02/13 18:29:21","新北市永和區福和路8巷1號","121.524973333333","25.0088816666667","6500400","永和區"
"234026","9371-KE","2018/02/13 18:29:17","新北市永和區中山路一段84號","121.511951666667","25.0109333333333","6500400","永和區"
"234011","9373-KE","2018/02/13 18:29:22","新北市永和區保福路二段158巷1號","121.509126666667","25.01506","6500400","永和區"
"249005","172-UM","2018/02/13 18:29:15","新北市八里區下罟子1-10號","121.393828333333","25.14001","6502300","八里區"
"249001","173-UM","2018/02/13 18:29:25","新北市八里區龍米路一段122號","121.453116666667","25.125315","6502300","八里區"
"249004","303-UY","2018/02/13 18:29:29","新北市八里區龍米路二段206巷8號","121.433123333333","25.1589666666667","6502300","八里區"
"249002","305-UY","2018/02/13 18:29:30","新北市八里區龍形二街41號","121.450075","25.13294","6502300","八里區"
"248016","026-BX","2018/02/13 18:29:32","新北市五股區凌雲路一段83巷14號","121.450356666667","25.1007633333333","6501500","五股區"
"248006","077-UY","2018/02/13 18:29:21","新北市五股區四維路38號","121.467278333333","25.0716316666667","6501500","五股區"
"248008","095-VK","2018/02/13 18:29:16","新北市五股區中興路二段78-5號","121.461495","25.07855","6501500","五股區"
"248020","225-UY","2018/02/13 18:29:19","新北市五股區孝義路55巷5號","121.45137","25.1120533333333","6501500","五股區"
"248012","247-BX","2018/02/13 18:29:27","新北市五股區御史路33號","121.44193","25.0916483333333","6501500","五股區"
"248014","261-SL","2018/02/13 18:29:22","新北市五股區明德路53號","121.433965","25.0711166666667","6501500","五股區"
"248004","677-BX","2018/02/13 18:29:31","新北市五股區工商路126號","121.436351666667","25.0858716666667","6501500","五股區"
"248002","678-BX","2018/02/13 18:29:23","新北市五股區西雲路148號","121.446123333333","25.094325","6501500","五股區"
"248010","682-TV","2018/02/13 18:29:23","新北市五股區水碓路22巷12號","121.433758333333","25.0730733333333","6501500","五股區"
"234077","969-R7","2018/02/13 18:29:29","新北市永和區福和路1號","121.525855","25.00959","6500400","永和區"
"232011","375-UM","2018/02/13 18:25:48","新北市坪林區坪雙路一段43號","121.711703333333","24.9424483333333","6502000","坪林區"
"244013","069-UM","2018/02/13 18:29:21","新北市林口區佳林路101巷26號","121.3868","25.07992","6501700","林口區"
"244007","080-UY","2018/02/13 18:29:17","新北市林口區林口路113巷6弄1號","121.388676666667","25.0806716666667","6501700","林口區"
"244019","402-UM","2018/02/13 18:29:14","新北市林口區忠孝路551號","121.372436666667","25.068645","6501700","林口區"
"244023","483-VK","2018/02/13 18:29:26","新北市林口區仁愛路二段102號","121.38347","25.074965","6501700","林口區"
"244017","485-VK","2018/02/13 18:29:12","新北市林口區文化二路一段56號","121.365111666667","25.06803","6501700","林口區"
"244009","658-BX","2018/02/13 18:29:22","新北市林口區佳林路89號","121.386051666667","25.080605","6501700","林口區"
"244011","701-TV","2018/02/13 18:29:32","新北市林口區新生街11號","121.39421","25.0767216666667","6501700","林口區"
"244025","837-TS","2018/02/13 18:29:18","新北市林口區南勢六街71-1號","121.355065","25.0721766666667","6501700","林口區"
"244021","838-TS","2018/02/13 18:29:21","新北市林口區自強一街26號","121.398616666667","25.07798","6501700","林口區"
"243012","539-UM","2018/02/13 18:29:20","新北市泰山區忠孝街21號","121.427585","25.0653883333333","6501600","泰山區"
"243013","646-TV","2018/02/13 18:29:20","新北市泰山區明志路三段206巷3號","121.42327","25.0379016666667","6501600","泰山區"
"222003","436-BY","2018/02/13 18:29:21","新北市深坑區旺耽路8號","121.6306","25.005415","6501800","深坑區"
"222002","659-BX","2018/02/13 18:29:22","新北市深坑區雲鄉路149號","121.621756666667","24.9983883333333","6501800","深坑區"
"231041","002-UM","2018/02/13 18:29:33","新北市新店區安華路28-1號","121.51966","24.9608466666667","6500600","新店區"
"231059","046-UY","2018/02/13 18:29:30","新北市新店區安華路28-1號","121.51956","24.96087","6500600","新店區"
"231061","047-UY","2018/02/13 18:29:22","新北市新店區安華路28-1號","121.51919","24.9608516666667","6500600","新店區"
"231060","106-UY","2018/02/13 18:29:26","新北市新店區安華路28-1號","121.519753333333","24.9607666666667","6500600","新店區"
"231051","107-UY","2018/02/13 18:29:23","新北市新店區安華路28-1號","121.519271666667","24.9613333333333","6500600","新店區"
"231048","108-UY","2018/02/13 18:29:23","新北市新店區安華路28-1號","121.519356666667","24.9608","6500600","新店區"
"231053","187-VK","2018/02/13 18:29:13","新北市新店區北宜路一段192巷4號","121.542615","24.952875","6500600","新店區"
"231050","KEA-2219","2018/02/13 18:29:20","新北市新店區安華路28-1號","121.519801666667","24.961245","6500600","新店區"
"221015","KEA-2785","2018/02/13 18:29:32","新北市汐止區鄉友街48號","121.669098333333","25.0817233333333","6501100","汐止區"
"231057","256-BX","2018/02/13 18:29:31","新北市新店區環河路1-1號","121.538011666667","24.961535","6500600","新店區"
"231046","278-BY","2018/02/13 18:29:26","新北市新店區直潭七街60號","121.532238333333","24.9399216666667","6500600","新店區"
"231054","AAD-862","2018/02/13 18:29:20","新北市新店區安華路28-1號","121.519865","24.961195","6500600","新店區"
"231058","3712-VJ","2018/02/13 18:29:26","新北市新店區環河路19巷15號","121.537666666667","24.9602866666667","6500600","新店區"
"231056","3713-VJ","2018/02/13 18:29:32","新北市新店區二十張路125號","121.535851666667","24.9793933333333","6500600","新店區"
"231055","4716-K9","2018/02/13 18:29:15","新北市新店區中正路114號","121.542541666667","24.970835","6500600","新店區"
"231067","4772-VM","2018/02/13 18:29:31","新北市新店區安華路28-1號","121.519321666667","24.96067","6500600","新店區"
"231064","515-UM","2018/02/13 18:29:28","新北市新店區安華路28-1號","121.519581666667","24.9609983333333","6500600","新店區"
"231042","616-UM","2018/02/13 18:29:23","新北市新店區安華路1-1號","121.519471666667","24.9604733333333","6500600","新店區"
"231040","619-UM","2018/02/13 18:29:30","新北市新店區安華路28-1號","121.519531666667","24.960965","6500600","新店區"
"231063","645-TV","2018/02/13 18:29:24","新北市新店區安華路28-1號","121.519353333333","24.96056","6500600","新店區"
"231049","719-UM","2018/02/13 18:29:19","新北市新店區安華路28-1號","121.51946","24.9612016666667","6500600","新店區"
"231065","719-UY","2018/02/13 18:29:28","新北市新店區安華路28-1號","121.519538333333","24.9612533333333","6500600","新店區"
"231062","720-UM","2018/02/13 18:29:23","新北市新店區安華路28-1號","121.519243333333","24.9612083333333","6500600","新店區"
"231044","897-TW","2018/02/13 18:29:15","新北市新店區安康路一段167號","121.52724","24.962485","6500600","新店區"
"231045","898-TW","2018/02/13 18:29:34","新北市新店區安華路28-1號","121.519203333333","24.961","6500600","新店區"
"231043","899-TW","2018/02/13 18:29:19","新北市新店區安華路28-1號","121.519293333333","24.96081","6500600","新店區"
"231066","AKT-0513","2018/02/13 18:29:23","新北市新店區安華路28-1號","121.519491666667","24.9605883333333","6500600","新店區"
"241028","022-UY","2018/02/13 18:29:17","新北市三重區中寮街70號","121.49308","25.0583033333333","6500200","三重區"
"241031","061-VK","2018/02/13 18:29:19","新北市三重區捷運路35號","121.48466","25.0558716666667","6500200","三重區"
"241017","063-VK","2018/02/13 18:29:31","新北市三重區大同北路34巷52號","121.493598333333","25.0619416666667","6500200","三重區"
"241032","269-UM","2018/02/13 18:29:27","新北市三重區名源街59號","121.482321666667","25.0593283333333","6500200","三重區"
"241013","270-UM","2018/02/13 18:29:26","新北市三重區仁愛街88號","121.49552","25.0738933333333","6500200","三重區"
"241025","271-UM","2018/02/13 18:29:13","新北市三重區三民街319號","121.477458333333","25.068915","6500200","三重區"
"241020","413-TH","2018/02/13 18:29:15","新北市三重區後竹圍街175巷2弄1號","121.485858333333","25.0721216666667","6500200","三重區"
"241023","545-UM","2018/02/13 18:29:32","新北市三重區忠孝路三段99巷4號","121.480163333333","25.064305","6500200","三重區"
"241012","941-UM","2018/02/13 18:29:26","新北市三重區仁壽街166號","121.500218333333","25.0745583333333","6500200","三重區"
"241029","942-UM","2018/02/13 18:29:19","新北市三重區重安街70-17號","121.491945","25.0566","6500200","三重區"
"235066","003-UY","2018/02/13 18:29:25","新北市中和區中山路二段122號","121.50255","25.0036133333333","6500300","中和區"
"235064","005-UY","2018/02/13 18:29:22","新北市中和區圓通路141巷39-2號","121.498905","24.9948616666667","6500300","中和區"
"235063","006-UY","2018/02/13 18:29:29","新北市中和區連城路347巷16弄14號","121.487726666667","24.9951","6500300","中和區"
"235056","096-UM","2018/02/13 18:29:25","新北市中和區員山路611巷1號","121.477928333333","25.0112983333333","6500300","中和區"
"235039","097-UM","2018/02/13 18:29:14","新北市中和區宜安路66號","121.511461666667","24.997035","6500300","中和區"
"235065","098-UM","2018/02/13 18:29:13","新北市中和區莊敬路38巷1號","121.501733333333","25.0052633333333","6500300","中和區"
"235040","150-BY","2018/02/13 18:29:28","新北市中和區安平路38號","121.509795","24.99502","6500300","中和區"
"235058","151-BY","2018/02/13 18:29:21","新北市中和區圓通路369巷30弄16號","121.489595","24.9853633333333","6500300","中和區"
"235055","183-VK","2018/02/13 18:29:22","新北市中和區莒光路155號","121.472661666667","25.00089","6500300","中和區"
"235038","185-VK","2018/02/13 18:29:11","新北市中和區立人街63號","121.520121666667","24.9943016666667","6500300","中和區"
"235049","186-VK","2018/02/13 18:29:31","新北市中和區景平路504巷2號","121.503985","24.9937416666667","6500300","中和區"
"235044","293-VK","2018/02/13 18:29:11","新北市中和區復興路301巷15號","121.501516666667","24.9898366666667","6500300","中和區"
"235072","301-VK","2018/02/13 18:29:17","新北市中和區中山路二段193號","121.500025","25.0026016666667","6500300","中和區"
"235043","352-BY","2018/02/13 18:29:25","新北市中和區景平路309號","121.506466666667","24.993175","6500300","中和區"
"235061","378-QA","2018/02/13 18:29:30","新北市中和區民治街29巷2弄6號","121.475688333333","25.0006533333333","6500300","中和區"
"235050","4979-A6","2018/02/13 18:29:14","新北市中和區興南路一段16號","121.511361666667","24.99133","6500300","中和區"
"235069","4980-A6","2018/02/13 18:29:28","新北市中和區連城路99巷72號","121.497311666667","24.9982483333333","6500300","中和區"
"235042","551-UM","2018/02/13 18:29:13","新北市中和區大勇街46巷2號","121.517456666667","24.99371","6500300","中和區"
"235070","558-UM","2018/02/13 18:29:12","新北市中和區景平路572號","121.501628333333","24.995435","6500300","中和區"
"235045","565-BX","2018/02/13 18:29:26","新北市中和區南山路236巷22弄23號","121.504915","24.9893116666667","6500300","中和區"
"235054","640-BX","2018/02/13 18:29:21","新北市中和區民享街99號","121.474955","24.9998233333333","6500300","中和區"
"235060","647-TV","2018/02/13 18:29:32","新北市中和區員山路414號","121.480266666667","25.005045","6500300","中和區"
"235047","732-UM","2018/02/13 18:29:28","新北市中和區南山路300號","121.507851666667","24.9871966666667","6500300","中和區"
"235046","733-UM","2018/02/13 18:29:34","新北市中和區中正路192號","121.497646666667","24.9937433333333","6500300","中和區"
"235062","800-TS","2018/02/13 18:29:15","新北市中和區景平路999巷2號","121.495338333333","25.0059966666667","6500300","中和區"
"235057","801-TS","2018/02/13 18:29:26","新北市中和區民享街97巷19號","121.475383333333","24.9995616666667","6500300","中和區"
"235052","805-TS","2018/02/13 18:29:31","新北市中和區興南路二段133號","121.50528","24.9841566666667","6500300","中和區"
"235048","896-TW","2018/02/13 18:29:24","新北市中和區中正路83號","121.500646666667","24.9934233333333","6500300","中和區"
"235053","900-TW","2018/02/13 18:29:17","新北市中和區民享街457號","121.470423333333","24.9931533333333","6500300","中和區"
"235051","157-BY","2018/02/13 18:29:33","新北市中和區忠孝街10號","121.510166666667","24.98269","6500300","中和區"
"235037","AAC-213","2018/02/13 18:29:32","新北市中和區景平路151巷59號","121.514891666667","24.9901066666667","6500300","中和區"
"220065","072-UY","2018/02/13 18:29:14","新北市板橋區南雅南路二段76號","121.453713333333","25.0017866666667","6500100","板橋區"
"220086","073-UY","2018/02/13 18:29:28","新北市板橋區華東街1-10號","121.448295","24.9950216666667","6500100","板橋區"
"247002","337-TH","2018/02/13 18:29:20","新北市五股區凌雲路二段18巷6-7號","121.443936666667","25.1067366666667","6501400","蘆洲區"
"226004","312-R5","2018/02/13 18:29:22","新北市平溪區靜安路二段338號","121.737136666667","25.024295","6502400","平溪區"
"235041","251-BX","2018/02/13 18:29:26","新北市中和區景平路365號","121.504431666667","24.99327","6500300","中和區"
"228001","212-TW","2018/02/13 18:29:30","新北市貢寮區仁理村仁和路11號","121.923083333333","25.0516366666667","6502600","貢寮區"
"228002","585-TW","2018/02/13 18:29:14","新北市貢寮區福連里福連街10號","121.989275","25.0136366666667","6502600","貢寮區"
"228003","828-UM","2018/02/13 18:29:30","新北市貢寮區和美里和美街44-2號","121.916698333333","25.09626","6502600","貢寮區"
"224006","676-BX","2018/02/13 18:29:18","新北市瑞芳區逢甲路1號","121.810293333333","25.1083016666667","6501200","瑞芳區"
"224002","639-TC","2018/02/13 18:29:33","新北市瑞芳區三爪子坑路91巷41號","121.812205","25.106215","6501200","瑞芳區"
"224009","285-BY","2018/02/13 18:29:31","新北市瑞芳區五號路4號","121.854803333333","25.110355","6501200","瑞芳區"
"224008","275-VK","2018/02/13 18:29:15","新北市瑞芳區逢甲路130號","121.808766666667","25.1090466666667","6501200","瑞芳區"
"224007","273-VK","2018/02/13 18:29:21","新北市瑞芳區大埔路吉慶公園城35號","121.764413333333","25.099505","6501200","瑞芳區"
"224005","271-BY","2018/02/13 18:29:20","新北市瑞芳區建基新村40號","121.812621666667","25.1307566666667","6501200","瑞芳區"
"227003","642-TC","2018/02/13 18:29:29","新北市雙溪區魚行里坤溪21-1號","121.87035","25.0284633333333","6502500","雙溪區"
"227009","400-TW","2018/02/13 18:29:32","新北市雙溪區牡丹里牡丹111號","121.851041666667","25.0598683333333","6502500","雙溪區"
"253005","032-BX","2018/02/13 18:29:24","新北市石門區老崩山11-1號","121.552415","25.2909833333333","6502200","石門區"
"253006","295-VK","2018/02/13 18:29:31","新北市石門區公地14號","121.545565","25.29023","6502200","石門區"
"222001","KEA-2212","2018/02/13 18:29:27","新北市深坑區北深路一段232號","121.630298333333","25.009325","6501800","深坑區"
"208002","742-BX","2018/02/13 18:29:18","新北市金山區磺清路135號","121.639331666667","25.2276266666667","6502700","金山區"
"208003","665-BX","2018/02/13 18:29:17","新北市金山區中山路256號","121.635608333333","25.2239116666667","6502700","金山區"
"208001","761-BX","2018/02/13 18:29:33","新北市金山區溫泉路21巷1號","121.637791666667","25.2227783333333","6502700","金山區"
"251004","009-UM","2018/02/13 18:27:28","新北市淡水區民族路31巷10號","121.462408333333","25.1361","6501000","淡水區"
"251013","179-VK","2018/02/13 18:29:25","新北市淡水區椿子林20號","121.479996666667","25.20379","6501000","淡水區"
"251014","180-VK","2018/02/13 18:29:20","新北市淡水區南平28號","121.492838333333","25.21595","6501000","淡水區"
"251008","181-VK","2018/02/13 18:29:19","新北市淡水區水源街二段346巷1弄1號","121.464455","25.1755383333333","6501000","淡水區"
"251015","182-VK","2018/02/13 18:29:17","新北市淡水區興福寮88巷216號","121.485951666667","25.1666233333333","6501000","淡水區"
"251010","413-VK","2018/02/13 18:29:27","新北市淡水區沙崙路181巷2-2號","121.424178333333","25.1841816666667","6501000","淡水區"
"251012","441-VK","2018/02/13 18:29:25","新北市淡水區北新路一段129-1號","121.457703333333","25.18214","6501000","淡水區"
"251016","442-VK","2018/02/13 18:29:21","新北市淡水區淡金路三段212號","121.448915","25.20459","6501000","淡水區"
"251005","443-VK","2018/02/13 18:29:29","新北市淡水區中正東路37號","121.446051666667","25.1682816666667","6501000","淡水區"
"251001","559-UM","2018/02/13 18:29:24","新北市淡水區自強路122巷3號","121.46453","25.1330433333333","6501000","淡水區"
"251006","561-UM","2018/02/13 18:29:15","新北市淡水區新生街51巷26號","121.440716666667","25.17566","6501000","淡水區"
"251011","650-BX","2018/02/13 18:29:32","新北市淡水區中正東路34-2號","121.448468333333","25.1660983333333","6501000","淡水區"
"251002","672-BX","2018/02/13 18:29:14","新北市淡水區竿蓁二街19巷20弄1號","121.453055","25.1637166666667","6501000","淡水區"
"251003","673-BX","2018/02/13 18:29:21","新北市淡水區北新路169巷12號","121.44962","25.1801933333333","6501000","淡水區"
"207003","550-UM","2018/02/13 18:29:28","新北市萬里區野柳里港東路162-13號","121.69032","25.2041216666667","6502800","萬里區"
"207004","225-TW","2018/02/13 18:29:30","新北市萬里區萬里里瑪鋉路252號","121.688936666667","25.180775","6502800","萬里區"
"252002","178-VK","2018/02/13 18:29:21","新北市三芝區中山路二段29號","121.502863333333","25.2553666666667","6502100","三芝區"
"252001","292-VK","2018/02/13 18:29:31","新北市三芝區中興街二段2號","121.498363333333","25.256655","6502100","三芝區"
"252003","702-TV","2018/02/13 18:29:32","新北市三芝區後厝里北勢子44-3號","121.471018333333","25.2519283333333","6502100","三芝區"
"237004","KEA-2597","2018/02/13 18:29:27","新北市三峽區五寮4號","121.378115","24.8727416666667","6500900","三峽區"
"237007","153-BY","2018/02/13 18:29:19","新北市三峽區中正路三段118號","121.355145","24.90352","6500900","三峽區"
"237009","210-TH","2018/02/13 18:29:19","新北市三峽區大同路255號","121.366616666667","24.9259466666667","6500900","三峽區"
"237013","252-BX","2018/02/13 18:29:34","新北市三峽區永安街3號","121.377978333333","24.9299683333333","6500900","三峽區"
"237012","275-BY","2018/02/13 18:29:18","新北市三峽區三樹路112號","121.378346666667","24.939455","6500900","三峽區"
"237008","302-VK","2018/02/13 18:29:30","新北市三峽區白雞68-85號","121.392651666667","24.90862","6500900","三峽區"
"237014","433-BY","2018/02/13 18:29:29","新北市三峽區復興路176-9號","121.369895","24.9387533333333","6500900","三峽區"
"237006","5529-G3","2018/02/13 18:29:15","新北市三峽區中山路459巷137號","121.349685","24.933505","6500900","三峽區"
"237011","KEA-2596","2018/02/13 18:29:14","新北市三峽區溪東路359號","121.411448333333","24.9294233333333","6500900","三峽區"
"237016","649-BX","2018/02/13 18:29:16","新北市三峽區紫微南路13-1號","121.422666666667","24.9173733333333","6500900","三峽區"
"237010","706-TV","2018/02/13 18:29:28","新北市三峽區復興路361號","121.363715","24.9386133333333","6500900","三峽區"
"237005","AKY-6261","2018/02/13 18:29:22","新北市三峽區清水街351號","121.370115","24.9330233333333","6500900","三峽區"
"236070","105-UM","2018/02/13 18:29:15","新北市土城區永豐路360-2號","121.474803333333","24.9746183333333","6501300","土城區"
"236043","107-UM","2018/02/13 18:29:16","新北市土城區裕民路61巷7號","121.449401666667","24.9881283333333","6501300","土城區"
"236079","166-UM","2018/02/13 18:29:16","新北市土城區中央路三段281巷21號","121.425881666667","24.962135","6501300","土城區"
"236031","253-BX","2018/02/13 18:29:32","新北市土城區福仁街50巷9號","121.439363333333","24.9752883333333","6501300","土城區"
"236026","269-VK","2018/02/13 18:29:30","新北市土城區忠義路102號","121.44409","24.9591783333333","6501300","土城區"
"236015","270-VK","2018/02/13 18:29:18","新北市土城區青雲路39巷7號","121.460296666667","24.9874166666667","6501300","土城區"
"236038","271-VK","2018/02/13 18:29:25","新北市土城區青雲路451巷2弄2號","121.459146666667","24.974615","6501300","土城區"
"236023","401-BY","2018/02/13 18:29:25","新北市土城區永豐路202巷14號","121.466531666667","24.9834433333333","6501300","土城區"
"236059","912-UM","2018/02/13 18:29:26","新北市土城區中央路四段464號","121.409933333333","24.9505666666667","6501300","土城區"
"236049","913-UM","2018/02/13 18:29:24","新北市土城區青雲路384號","121.458733333333","24.9731833333333","6501300","土城區"
"236063","915-UM","2018/02/13 18:29:17","新北市土城區延壽路111巷21號","121.468485","24.9935516666667","6501300","土城區"
"236055","AAC-216","2018/02/13 18:29:15","新北市土城區中華路二段61號","121.43942","24.97861","6501300","土城區"
"242029","986-R7","2018/02/13 18:29:24","新北市新莊區幸福路908號","121.4429","25.0489633333333","6500500","新莊區"
"242025","615-BX","2018/02/13 18:29:21","新北市新莊區五權一路12巷10號","121.457248333333","25.064695","6500500","新莊區"
"242027","612-BX","2018/02/13 18:29:22","新北市新莊區幸福路599號","121.453213333333","25.04923","6500500","新莊區"
"242044","497-BY","2018/02/13 18:29:13","新北市新莊區中正路力行巷1弄4號","121.41684","25.0262533333333","6500500","新莊區"
"242054","440-UM","2018/02/13 18:29:17","新北市新莊區民安西路327巷4弄19號","121.42869","25.011235","6500500","新莊區"
"242005","413-TV","2018/02/13 18:29:30","新北市新莊區中正路149號","121.456398333333","25.0367616666667","6500500","新莊區"
"242042","400-BY","2018/02/13 18:29:32","新北市新莊區天祥街79號","121.415606666667","25.029325","6500500","新莊區"
"242061","362-BY","2018/02/13 18:29:23","新北市新莊區新樹路69-34號","121.438361666667","25.0291683333333","6500500","新莊區"
"242058","353-BY","2018/02/13 18:29:35","新北市新莊區新北大道七段850號","121.413875","25.0235083333333","6500500","新莊區"
"242007","132-UY","2018/02/13 18:29:26","新北市新莊區自治街37號","121.454153333333","25.0479883333333","6500500","新莊區"
"242037","133-UY","2018/02/13 18:29:27","新北市新莊區後港一路33號","121.425216666667","25.02623","6500500","新莊區"
"242021","135-UY","2018/02/13 18:29:34","新北市新莊區新興街90號","121.450735","25.0384","6500500","新莊區"
"242046","172-VK","2018/02/13 18:29:24","新北市新莊區瓊林路59-66號","121.44116","25.022645","6500500","新莊區"
"242009","173-VK","2018/02/13 18:29:16","新北市新莊區昌盛街2巷1弄2號","121.453178333333","25.0495566666667","6500500","新莊區"
"242015","175-VK","2018/02/13 18:29:29","新北市新莊區中平路152巷11號","121.445476666667","25.04735","6500500","新莊區"
"242002","176-VK","2018/02/13 18:29:18","新北市新莊區碧江街18-7號","121.455388333333","25.0346533333333","6500500","新莊區"
"242019","348-TH","2018/02/13 18:29:15","新北市新莊區中港路132巷7號","121.455778333333","25.0407933333333","6500500","新莊區"
"242056","349-TH","2018/02/13 18:29:25","新北市新莊區環河路636-7號","121.437258333333","25.011815","6500500","新莊區"
"242011","351-TH","2018/02/13 18:29:18","新北市新莊區中榮街80號","121.448138333333","25.0526833333333","6500500","新莊區"
"238015","755-BX","2018/02/13 18:29:31","新北市樹林區啟智街173巷2號","121.415826666667","24.9876033333333","6500700","樹林區"
"238023","601-UM","2018/02/13 18:29:30","新北市樹林區忠義街6號","121.4094","25.0149383333333","6500700","樹林區"
"238018","571-TV","2018/02/13 18:29:16","新北市樹林區太平路1-7號","121.41859","24.9845066666667","6500700","樹林區"
"238024","5061-A6","2018/02/13 18:29:27","新北市樹林區中山路一段31號","121.424711666667","24.992885","6500700","樹林區"
"238021","KEA-2217","2018/02/13 18:29:18","新北市樹林區佳園路一段39號","121.393013333333","24.970765","6500700","樹林區"
"238025","303-VK","2018/02/13 18:29:25","新北市樹林區三俊街136號","121.416093333333","25.01532","6500700","樹林區"
"238014","282-BY","2018/02/13 18:29:24","新北市樹林區中山路三段174號","121.388563333333","24.96986","6500700","樹林區"
"238020","268-VK","2018/02/13 18:29:15","新北市樹林區三龍街116號","121.415398333333","25.0184816666667","6500700","樹林區"
"238026","172-UY","2018/02/13 18:29:31","新北市樹林區中山路三段214號","121.379923333333","24.9674983333333","6500700","樹林區"
"238016","169-UY","2018/02/13 18:29:16","新北市樹林區中山路二段121號","121.40861","24.9800083333333","6500700","樹林區"
"239007","AAC-297","2018/02/13 18:29:32","新北市鶯歌區尖山埔路71號","121.347985","24.950975","6500800","鶯歌區"
"239005","526-UM","2018/02/13 18:29:30","新北市鶯歌區西湖街45巷1號","121.34032","24.9583466666667","6500800","鶯歌區"
"239006","292-BY","2018/02/13 18:29:21","新北市鶯歌區鶯桃路365巷122號","121.3302","24.9622833333333","6500800","鶯歌區"
"239004","193-VK","2018/02/13 18:29:23","新北市鶯歌區尖山路166巷38號","121.344931666667","24.949195","6500800","鶯歌區"
"221008","489-VK","2018/02/13 18:29:22","新北市汐止區汐萬路一段301號","121.649388333333","25.07585","6501100","汐止區"
"221010","269-BY","2018/02/13 18:29:24","新北市汐止區祥雲街18巷12號","121.64679","25.0894783333333","6501100","汐止區"
"221012","278-VK","2018/02/13 18:29:16","新北市汐止區長興街二段4巷17號","121.672986666667","25.080405","6501100","汐止區"
"221023","279-VK","2018/02/13 18:29:22","新北市汐止區康寧街481號","121.632195","25.0684283333333","6501100","汐止區"
"221032","280-BY","2018/02/13 18:29:27","新北市汐止區民權街二段109巷34號","121.619981666667","25.0461783333333","6501100","汐止區"
"221027","281-BY","2018/02/13 18:29:35","新北市汐止區和平街46巷8號","121.662526666667","25.0713316666667","6501100","汐止區"
"221029","298-VK","2018/02/13 18:29:24","新北市汐止區樟樹一路272-6號","121.64263","25.06885","6501100","汐止區"
"221021","299-VK","2018/02/13 18:29:22","新北市汐止區新台五路一段91-2號","121.650445","25.0612416666667","6501100","汐止區"
"221031","353-TW","2018/02/13 18:29:19","新北市汐止區光復街7巷34號","121.640953333333","25.060075","6501100","汐止區"
"221035","622-UM","2018/02/13 18:29:20","新北市汐止區大同路二段179號","121.652041666667","25.0642166666667","6501100","汐止區"
"221025","623-UM","2018/02/13 18:29:16","新北市汐止區仁愛路122巷18號","121.663486666667","25.0631983333333","6501100","汐止區"
"221038","646-BX","2018/02/13 18:29:25","新北市汐止區忠孝東路256號","121.663011666667","25.0675266666667","6501100","汐止區"
"221033","647-BX","2018/02/13 18:29:26","新北市汐止區宜興街69號","121.622675","25.0431583333333","6501100","汐止區"
"221002","707-TV","2018/02/13 18:29:30","新北市汐止區福德一路179號","121.635853333333","25.0659616666667","6501100","汐止區"
"221018","753-BX","2018/02/13 18:29:21","新北市汐止區茄苳路217號","121.670823333333","25.06882","6501100","汐止區"
"220080","200-UY","2018/02/13 18:29:13","新北市板橋區華東街1-9號","121.448083333333","24.9948633333333","6500100","板橋區"
"220081","287-VK","2018/02/13 18:29:16","新北市板橋區華東街1-10號","121.448423333333","24.9948633333333","6500100","板橋區"
"220075","303-R5","2018/02/13 18:29:15","新北市板橋區華東街1-10號","121.44837","24.994795","6500100","板橋區"
"220062","305-R5","2018/02/13 18:29:25","新北市板橋區民生路二段120號","121.47044","25.0196633333333","6500100","板橋區"
"242032","280-VK","2018/02/13 18:29:15","新北市新莊區新泰路255巷1號","121.445951666667","25.0396766666667","6500500","新莊區"
"220035","560-BX","2018/02/13 18:29:20","新北市板橋區南雅南路二段11-23號","121.453906666667","25.0020366666667","6500100","板橋區"
"220074","895-R6","2018/02/13 18:29:29","新北市板橋區華東街1-9號","121.448138333333","24.9949533333333","6500100","板橋區"
"220073","985-R7","2018/02/13 18:29:15","新北市板橋區華東街1-9號","121.448223333333","24.9949683333333","6500100","板橋區"
