"lineid","car","time","location","longitude","latitude","cityid","cityname"
"234046","148-BY","2018/02/13 19:39:19","新北市永和區成功路二段38號","121.52655","25.00027","6500400","永和區"
"234067","149-BY","2018/02/13 19:39:29","新北市永和區永貞路372號","121.509921666667","25.00683","6500400","永和區"
"234007","207-UY","2018/02/13 19:39:24","新北市永和區永和路一段22號","121.513088333333","25.0048616666667","6500400","永和區"
"234081","298-R6","2018/02/13 19:39:16","新北市永和區國中路104巷13弄2號","121.524658333333","25.0071883333333","6500400","永和區"
"234038","336-UY","2018/02/13 19:39:34","新北市永和區民樂街20號","121.527423333333","25.001925","6500400","永和區"
"234064","337-UY","2018/02/13 19:39:25","新北市永和區得和路243巷28弄2號","121.520906666667","25.0010666666667","6500400","永和區"
"234086","338-UY","2018/02/13 19:39:21","新北市永和區林森路29巷18號","121.526243333333","25.0044316666667","6500400","永和區"
"234070","552-UM","2018/02/13 19:39:16","新北市永和區永和路二段216號","121.51576","25.013935","6500400","永和區"
"234017","745-BX","2018/02/13 19:39:23","新北市永和區環河西路一段17號","121.51447","25.0179983333333","6500400","永和區"
"234030","746-BX","2018/02/13 19:39:17","新北市新店區安興路69-1號","121.515753333333","24.975165","6500400","永和區"
"234054","KEA-2590","2018/02/13 19:39:25","新北市永和區復興街23號","121.516196666667","25.0130283333333","6500400","永和區"
"234013","KEA-2591","2018/02/13 19:39:32","新北市永和區永平路201號","121.509423333333","25.0099083333333","6500400","永和區"
"234061","AAD-866","2018/02/13 19:39:30","新北市永和區中正路532號","121.517238333333","25.00518","6500400","永和區"
"234042","862-TW","2018/02/13 19:39:21","新北市永和區水源街34號","121.511076666667","25.004495","6500400","永和區"
"234050","863-TW","2018/02/13 19:39:22","新北市永和區保福路二段104號","121.509975","25.0137316666667","6500400","永和區"
"234026","9371-KE","2018/02/13 19:39:17","新北市永和區中和路501巷2號","121.51051","25.002565","6500400","永和區"
"249004","303-UY","2018/02/13 19:39:29","新北市八里區中山路一段268巷5弄11號","121.41432","25.1603233333333","6502300","八里區"
"249002","305-UY","2018/02/13 19:39:30","新北市八里區頂寮二街35號","121.45022","25.1251433333333","6502300","八里區"
"249003","593-UM","2018/02/13 19:39:23","新北市八里區華峰三街31號","121.399328333333","25.14582","6502300","八里區"
"248008","095-VK","2018/02/13 19:39:36","新北市五股區中興路一段95巷11號","121.466708333333","25.0723883333333","6501500","五股區"
"248020","225-UY","2018/02/13 19:38:59","新北市五股區凌雲路三段25-11號","121.431035","25.11312","6501500","五股區"
"248012","247-BX","2018/02/13 19:39:27","新北市五股區工商路99巷18號","121.436888333333","25.084865","6501500","五股區"
"248014","261-SL","2018/02/13 19:39:22","新北市五股區五福路52巷3弄10號","121.433288333333","25.0901916666667","6501500","五股區"
"248004","677-BX","2018/02/13 19:39:30","新北市五股區五福路35號","121.433658333333","25.08941","6501500","五股區"
"248002","678-BX","2018/02/13 19:39:23","新北市五股區成泰路三段577巷77號","121.449705","25.103685","6501500","五股區"
"248010","682-TV","2018/02/13 19:39:23","新北市五股區水碓一路23號","121.430581666667","25.071275","6501500","五股區"
"234077","969-R7","2018/02/13 19:39:33","新北市永和區民族街67巷7號","121.518866666667","24.9972383333333","6500400","永和區"
"234074","AAC-211","2018/02/13 19:39:28","新北市永和區竹林路225巷56號","121.522973333333","25.0086783333333","6500400","永和區"
"234003","AAC-295","2018/02/13 19:39:28","新北市永和區永和路一段144號","121.51415","25.0082266666667","6500400","永和區"
"244013","069-UM","2018/02/13 19:39:21","新北市林口區麗園一街1號","121.37574","25.0725916666667","6501700","林口區"
"244019","402-UM","2018/02/13 19:39:14","新北市林口區麗園二街1巷7-2號","121.378246666667","25.07006","6501700","林口區"
"244023","483-VK","2018/02/13 19:39:25","新北市林口區文化三路二段181-1號","121.375783333333","25.0822466666667","6501700","林口區"
"244009","658-BX","2018/02/13 19:39:22","新北市林口區林口路72號","121.390106666667","25.0795","6501700","林口區"
"244011","701-TV","2018/02/13 19:39:32","新北市林口區中山路248-1號","121.386193333333","25.0793933333333","6501700","林口區"
"243011","297-R6","2018/02/13 19:39:29","新北市泰山區新北大道五段503號","121.430165","25.040825","6501600","泰山區"
"243015","380-SR","2018/02/13 19:39:24","新北市泰山區明志路二段10號","121.429961666667","25.05356","6501600","泰山區"
"243014","421-VK","2018/02/13 19:39:24","新北市泰山區仁愛路159號","121.43507","25.0564016666667","6501600","泰山區"
"243012","539-UM","2018/02/13 19:39:20","新北市泰山區全興路298號","121.436836666667","25.0514083333333","6501600","泰山區"
"243010","KEA-2215","2018/02/13 19:39:29","新北市泰山區民權街41號","121.429175","25.0509","6501600","泰山區"
"243009","KEA-2216","2018/02/13 19:39:28","新北市泰山區泰林路三段370巷23號","121.411788333333","25.069635","6501600","泰山區"
"243013","646-TV","2018/02/13 19:39:20","新北市泰山區貴子路2號","121.425141666667","25.042115","6501600","泰山區"
"243016","680-BX","2018/02/13 19:39:33","新北市泰山區明志路三段166號","121.424246666667","25.0394383333333","6501600","泰山區"
"222003","436-BY","2018/02/13 19:30:46","新北市深坑區深南路51-1號","121.621401666667","25.0096716666667","6501800","深坑區"
"222002","659-BX","2018/02/13 19:39:22","新北市深坑區深南路88巷1號","121.621231666667","25.0103916666667","6501800","深坑區"
"231041","002-UM","2018/02/13 19:39:33","新北市新店區中正路485號","121.534016666667","24.98194","6500600","新店區"
"231059","046-UY","2018/02/13 19:39:30","新北市新店區安和路三段33-1號","121.516813333333","24.98005","6500600","新店區"
"231061","047-UY","2018/02/13 19:39:22","新北市新店區安民街132號","121.516515","24.9692683333333","6500600","新店區"
"231060","106-UY","2018/02/13 19:39:26","新北市新店區安康路二段208號","121.51022","24.9594933333333","6500600","新店區"
"231051","107-UY","2018/02/13 19:39:23","新北市新店區中央四街96號","121.525506666667","24.9762216666667","6500600","新店區"
"231048","108-UY","2018/02/13 19:39:23","新北市新店區五峰路63巷8弄2-1號","121.547613333333","24.96883","6500600","新店區"
"231053","187-VK","2018/02/13 19:39:33","新北市新店區廣興路5巷19號","121.545373333333","24.914615","6500600","新店區"
"231050","KEA-2219","2018/02/13 19:39:20","新北市新店區郵政路4巷33號","121.556288333333","24.951735","6500600","新店區"
"221015","KEA-2785","2018/02/13 19:39:32","新北市汐止區汐萬路一段81號","121.65468","25.0699916666667","6501100","汐止區"
"231057","256-BX","2018/02/13 19:39:23","新北市新店區橘園一路11號","121.547936666667","24.934025","6500600","新店區"
"231046","278-BY","2018/02/13 19:39:26","新北市新店區自由街29號","121.534896666667","24.9741316666667","6500600","新店區"
"231054","AAD-862","2018/02/13 19:39:19","新北市新店區文中路43號","121.539656666667","24.956845","6500600","新店區"
"231058","3712-VJ","2018/02/13 19:39:25","新北市新店區永華街1號","121.543003333333","24.9768783333333","6500600","新店區"
"231056","3713-VJ","2018/02/13 19:39:12","新北市新店區民權路105號","121.53659","24.9826966666667","6500600","新店區"
"231055","4716-K9","2018/02/13 19:39:15","新北市新店區力行路96號","121.538171666667","24.9670033333333","6500600","新店區"
"231067","4772-VM","2018/02/13 19:39:31","新北市新店區秀山路55-1號","121.530753333333","24.9602433333333","6500600","新店區"
"231064","515-UM","2018/02/13 19:39:28","新北市新店區安和路一段52巷2-1號","121.517675","24.96629","6500600","新店區"
"231042","616-UM","2018/02/13 19:39:23","新北市新店區中興路一段216號","121.543931666667","24.9656583333333","6500600","新店區"
"231040","619-UM","2018/02/13 19:39:30","新北市新店區北新路一段283號","121.54118","24.9668666666667","6500600","新店區"
"231063","645-TV","2018/02/13 19:39:24","新北市新店區達觀路41號","121.502816666667","24.9382283333333","6500600","新店區"
"231049","719-UM","2018/02/13 19:39:19","新北市新店區大豐路71號","121.53933","24.9794933333333","6500600","新店區"
"231065","719-UY","2018/02/13 19:39:28","新北市新店區安祥路109巷6弄1號","121.475486666667","24.95861","6500600","新店區"
"231062","720-UM","2018/02/13 19:39:31","新北市新店區合作路11號","121.533343333333","24.9575866666667","6500600","新店區"
"231044","897-TW","2018/02/13 19:39:35","新北市新店區北新路三段17號","121.541953333333","24.9796666666667","6500600","新店區"
"231045","898-TW","2018/02/13 19:39:34","新北市新店區北宜路二段150-1號","121.557813333333","24.9539316666667","6500600","新店區"
"231043","899-TW","2018/02/13 19:39:18","新北市新店區北新路二段94號","121.54311","24.9730716666667","6500600","新店區"
"231066","AKT-0513","2018/02/13 19:39:23","新北市新店區安康路二段341巷50號","121.49664","24.9543216666667","6500600","新店區"
"241011","013-R5","2018/02/13 19:39:28","新北市三重區仁愛街29號","121.496875","25.071115","6500200","三重區"
"241028","022-UY","2018/02/13 19:39:17","新北市三重區中寮街31號","121.492593333333","25.0589566666667","6500200","三重區"
"241008","059-VK","2018/02/13 19:39:28","新北市三重區永福街125巷1號","121.47883","25.0771","6500200","三重區"
"241009","060-VK","2018/02/13 19:39:26","新北市三重區車路頭街139巷2號","121.48393","25.0763733333333","6500200","三重區"
"241015","062-VK","2018/02/13 19:39:32","新北市三重區福德北路26號","121.50211","25.0648","6500200","三重區"
"241024","065-VK","2018/02/13 19:39:22","新北市三重區國道路一段43號","121.482813333333","25.0729066666667","6500200","三重區"
"241026","066-VK","2018/02/13 19:39:28","新北市三重區光興街43號","121.49942","25.0602833333333","6500200","三重區"
"241005","262-UM","2018/02/13 19:39:24","新北市三重區五華街227號","121.489278333333","25.0858183333333","6500200","三重區"
"241022","267-UM","2018/02/13 19:39:22","新北市三重區三民街175巷4號","121.483645","25.06544","6500200","三重區"
"241018","268-UM","2018/02/13 19:39:23","新北市三重區正義北路256巷114號","121.493573333333","25.0678716666667","6500200","三重區"
"241007","398-BY","2018/02/13 19:39:25","新北市三重區三和路四段133號","121.484631666667","25.078","6500200","三重區"
"241030","480-VK","2018/02/13 19:39:34","新北市三重區捷運路41號","121.484145","25.0557633333333","6500200","三重區"
"241014","543-UM","2018/02/13 19:39:16","新北市三重區長壽街196號","121.504215","25.0691716666667","6500200","三重區"
"241001","547-UM","2018/02/13 19:39:30","新北市三重區自強路四段31巷1號","121.489381666667","25.07663","6500200","三重區"
"241019","KEA-2593","2018/02/13 19:39:25","新北市三重區自強路二段67巷16號","121.489211666667","25.07034","6500200","三重區"
"241006","AAD-863","2018/02/13 19:39:35","新北市三重區永福街287號","121.483121666667","25.074445","6500200","三重區"
"241035","743-BX","2018/02/13 19:39:32","新北市三重區正義北路61-3號","121.497596666667","25.0645833333333","6500200","三重區"
"241029","942-UM","2018/02/13 19:39:19","新北市三重區重安街70-45號","121.491856666667","25.05722","6500200","三重區"
"241033","AAC-255","2018/02/13 19:39:26","新北市三重區五谷王南街46巷19號","121.475093333333","25.0450583333333","6500200","三重區"
"235066","003-UY","2018/02/13 19:39:24","新北市中和區中和路196巷10號","121.505026666667","24.9990883333333","6500300","中和區"
"235064","005-UY","2018/02/13 19:39:22","新北市中和區南山路60-2號","121.502008333333","24.996975","6500300","中和區"
"235063","006-UY","2018/02/13 19:39:29","新北市中和區連城路219巷22弄3號","121.49481","24.9962383333333","6500300","中和區"
"235056","096-UM","2018/02/13 19:39:25","新北市中和區員山路581巷2弄26號","121.477458333333","25.0099216666667","6500300","中和區"
"235039","097-UM","2018/02/13 19:39:32","新北市中和區秀峰街103巷7弄2號","121.520033333333","24.9895383333333","6500300","中和區"
"235065","098-UM","2018/02/13 19:39:29","新北市中和區福美路245號","121.49915","25.00524","6500300","中和區"
"235040","150-BY","2018/02/13 19:39:28","新北市中和區保健路46巷39弄1號","121.50858","24.9955166666667","6500300","中和區"
"235058","151-BY","2018/02/13 19:39:16","新北市中和區連城路372-3號","121.481508333333","24.9952366666667","6500300","中和區"
"235055","183-VK","2018/02/13 19:39:22","新北市中和區民享街56號","121.474061666667","25.002385","6500300","中和區"
"235049","186-VK","2018/02/13 19:39:31","新北市中和區安平路14號","121.509293333333","24.9940916666667","6500300","中和區"
"235067","255-BX","2018/02/13 19:39:27","新北市中和區連城路340巷10弄12號","121.483011666667","24.9965466666667","6500300","中和區"
"235044","293-VK","2018/02/13 19:39:31","新北市中和區捷運路8號","121.509915","24.989545","6500300","中和區"
"235072","301-VK","2018/02/13 19:39:17","新北市中和區連城路263巷4弄12號","121.491746666667","24.99526","6500300","中和區"
"235043","352-BY","2018/02/13 19:39:31","新北市中和區安和路27號","121.510455","24.9942866666667","6500300","中和區"
"235068","377-QA","2018/02/13 19:39:22","新北市中和區圓通路92號","121.49959","24.9969916666667","6500300","中和區"
"235061","378-QA","2018/02/13 19:39:30","新北市中和區民利街9巷2弄6號","121.48049","24.9987116666667","6500300","中和區"
"235071","269-TV","2018/02/13 19:39:29","新北市中和區中正路839巷29號","121.483608333333","25.002325","6500300","中和區"
"235050","4979-A6","2018/02/13 19:39:34","新北市中和區復興路280巷18弄6號","121.502315","24.9914733333333","6500300","中和區"
"235069","4980-A6","2018/02/13 19:39:28","新北市中和區中山路二段181巷20號","121.501085","25.00205","6500300","中和區"
"235042","551-UM","2018/02/13 19:39:33","新北市中和區中和路378巷19號","121.51139","25.001715","6500300","中和區"
"235070","558-UM","2018/02/13 19:39:32","新北市中和區景平路493號","121.5002","24.99783","6500300","中和區"
"235045","565-BX","2018/02/13 19:39:26","新北市中和區景新街493號","121.513711666667","24.9871683333333","6500300","中和區"
"235054","640-BX","2018/02/13 19:39:21","新北市中和區國光街102巷11弄11號","121.470601666667","25.0012083333333","6500300","中和區"
"235060","647-TV","2018/02/13 19:39:33","新北市中和區新生街112巷2號","121.482986666667","25.0029516666667","6500300","中和區"
"235047","732-UM","2018/02/13 19:39:28","新北市中和區景安路172巷2號","121.504386666667","24.99294","6500300","中和區"
"235046","733-UM","2018/02/13 19:39:14","新北市中和區忠孝街94號","121.511733333333","24.9845066666667","6500300","中和區"
"235057","801-TS","2018/02/13 19:39:26","新北市中和區中山路二段678號","121.480071666667","25.0059933333333","6500300","中和區"
"235052","805-TS","2018/02/13 19:39:31","新北市中和區華新街143巷68號","121.5063","24.9792633333333","6500300","中和區"
"235048","896-TW","2018/02/13 19:39:24","新北市中和區忠孝街64號","121.511928333333","24.98389","6500300","中和區"
"235053","900-TW","2018/02/13 19:39:17","新北市中和區國光街184巷18號","121.467425","25.0020866666667","6500300","中和區"
"235051","157-BY","2018/02/13 19:39:32","新北市中和區景新街242號","121.509086666667","24.9936666666667","6500300","中和區"
"235037","AAC-213","2018/02/13 19:39:32","新北市中和區秀朗路三段10巷29弄11號","121.525031666667","24.995915","6500300","中和區"
"235059","AAC-215","2018/02/13 19:39:35","新北市中和區圓通路252巷1號","121.493576666667","24.99108","6500300","中和區"
"220068","013-TV","2018/02/13 19:39:20","新北市板橋區萬安街103巷10號","121.483138333333","25.02464","6500100","板橋區"
"220065","072-UY","2018/02/13 19:39:34","新北市板橋區國泰街38巷4弄43號","121.468043333333","25.0066916666667","6500100","板橋區"
"220106","075-UY","2018/02/13 19:39:24","新北市板橋區雙十路三段19號","121.47085","25.0314333333333","6500100","板橋區"
"220069","AAD-861","2018/02/13 19:39:31","新北市板橋區稚暉街20號","121.455731666667","25.0044516666667","6500100","板橋區"
"247004","337-TH","2018/02/13 19:39:29","新北市蘆洲區長安街201-1號","121.460171666667","25.0820016666667","6501400","蘆洲區"
"226004","312-R5","2018/02/13 19:39:22","新北市平溪區十分里十分街156號","121.777965","25.04315","6502400","平溪區"
"235041","251-BX","2018/02/13 19:39:26","新北市永和區中和路573號","121.511866666667","25.003535","6500300","中和區"
"228001","212-TW","2018/02/13 19:39:30","新北市貢寮區真理里延平街49號","121.924621666667","25.0556466666667","6502600","貢寮區"
"228003","828-UM","2018/02/13 19:39:30","新北市貢寮區真理里美艷山街15-3號","121.923706666667","25.0679966666667","6502600","貢寮區"
"224010","AGQ-8101","2018/02/13 19:39:20","新北市瑞芳區街頂巷82號","121.844211666667","25.1084466666667","6501200","瑞芳區"
"224002","639-TC","2018/02/13 19:39:20","新北市瑞芳區三爪子坑路13巷211號","121.81591","25.1059916666667","6501200","瑞芳區"
"224008","275-VK","2018/02/13 19:39:34","新北市瑞芳區一坑路99號","121.80225","25.10789","6501200","瑞芳區"
"224005","271-BY","2018/02/13 19:39:20","新北市瑞芳區三爪子坑路27號","121.813861666667","25.1076466666667","6501200","瑞芳區"
"227003","642-TC","2018/02/13 19:39:29","新北市雙溪區雙溪里太平路62號","121.865106666667","25.0357566666667","6502500","雙溪區"
"227009","400-TW","2018/02/13 19:39:31","新北市雙溪區新基里新基南街4號","121.867026666667","25.0375066666667","6502500","雙溪區"
"222001","KEA-2212","2018/02/13 19:39:27","新北市深坑區深坑街150號","121.612986666667","25.0014766666667","6501800","深坑區"
"208002","742-BX","2018/02/13 19:39:18","新北市金山區中山路313巷8號","121.635386666667","25.2234616666667","6502700","金山區"
"208003","665-BX","2018/02/13 19:39:17","新北市金山區仁愛路7號","121.638016666667","25.2195933333333","6502700","金山區"
"208001","761-BX","2018/02/13 19:39:33","新北市金山區南勢湖11號","121.621438333333","25.2193816666667","6502700","金山區"
"251009","008-UM","2018/02/13 19:39:32","新北市淡水區中山北路一段186巷13弄2號","121.445431666667","25.1789","6501000","淡水區"
"251004","009-UM","2018/02/13 19:39:29","新北市淡水區民權路39號","121.459685","25.1407033333333","6501000","淡水區"
"251013","179-VK","2018/02/13 19:39:25","新北市淡水區頂田寮路145號","121.462035","25.21614","6501000","淡水區"
"251014","180-VK","2018/02/13 19:39:20","新北市淡水區桂竹圍4-3號","121.475626666667","25.2321366666667","6501000","淡水區"
"251015","182-VK","2018/02/13 19:39:17","新北市淡水區北新路三段173號","121.492485","25.1922216666667","6501000","淡水區"
"251010","413-VK","2018/02/13 19:39:26","新北市淡水區崁頂三路177號","121.430333333333","25.2014266666667","6501000","淡水區"
"251012","441-VK","2018/02/13 19:39:25","新北市淡水區中山北路三段162號","121.44567","25.1963916666667","6501000","淡水區"
"251016","442-VK","2018/02/13 19:39:21","新北市淡水區淡金路三段350巷18號","121.45078","25.2083833333333","6501000","淡水區"
"251005","443-VK","2018/02/13 19:39:18","新北市淡水區水源街一段47巷58號","121.444191666667","25.1745233333333","6501000","淡水區"
"251001","559-UM","2018/02/13 19:39:24","新北市淡水區民權路51號","121.459751666667","25.1390283333333","6501000","淡水區"
"251006","561-UM","2018/02/13 19:39:15","新北市淡水區中山北路一段207巷68號","121.441698333333","25.1792783333333","6501000","淡水區"
"251007","577-R6","2018/02/13 19:39:24","新北市淡水區中正東路一段111巷20號","121.45504","25.1608416666667","6501000","淡水區"
"251011","650-BX","2018/02/13 19:39:17","新北市淡水區八勢一街77號","121.461516666667","25.1549","6501000","淡水區"
"251002","672-BX","2018/02/13 19:39:14","新北市淡水區下圭柔山91-3號","121.431098333333","25.21025","6501000","淡水區"
"251003","673-BX","2018/02/13 19:39:20","新北市淡水區埤島7-2號","121.444426666667","25.1926116666667","6501000","淡水區"
"207003","550-UM","2018/02/13 19:39:28","新北市萬里區大鵬里下社15-4號","121.647685","25.2186483333333","6502800","萬里區"
"207004","225-TW","2018/02/13 19:39:24","新北市萬里區萬里里瑪鋉路33-1號","121.68755","25.1756583333333","6502800","萬里區"
"252002","178-VK","2018/02/13 19:39:21","新北市三芝區中正路一段18巷54號","121.504203333333","25.2587316666667","6502100","三芝區"
"252001","292-VK","2018/02/13 19:39:31","新北市三芝區公正街66號","121.499765","25.2574616666667","6502100","三芝區"
"237004","KEA-2597","2018/02/13 19:39:27","新北市三峽區插角6號","121.399343333333","24.8735616666667","6500900","三峽區"
"237007","153-BY","2018/02/13 19:39:19","新北市三峽區二鬮路136巷18弄22號","121.35895","24.90877","6500900","三峽區"
"237009","210-TH","2018/02/13 19:39:25","新北市三峽區中園街47號","121.368285","24.9261216666667","6500900","三峽區"
"237013","252-BX","2018/02/13 19:39:24","新北市三峽區光明路75巷33-2號","121.377788333333","24.928505","6500900","三峽區"
"237012","275-BY","2018/02/13 19:39:18","新北市三峽區民生街3號","121.374665","24.9354366666667","6500900","三峽區"
"237008","302-VK","2018/02/13 19:39:30","新北市三峽區大同路100號","121.374701666667","24.9271983333333","6500900","三峽區"
"237014","433-BY","2018/02/13 19:39:29","新北市三峽區大埔路14-11號","121.374248333333","24.900905","6500900","三峽區"
"237006","5529-G3","2018/02/13 19:39:35","新北市三峽區溪東路134號","121.404686666667","24.9333633333333","6500900","三峽區"
"237016","649-BX","2018/02/13 19:39:36","新北市三峽區安坑51-2號","121.463913333333","24.9312916666667","6500900","三峽區"
"237005","AKY-6261","2018/02/13 19:39:22","新北市三峽區中山路169巷7號","121.364308333333","24.9361116666667","6500900","三峽區"
"236070","105-UM","2018/02/13 19:39:15","新北市土城區裕民路185巷36弄8號","121.45448","24.984545","6501300","土城區"
"236079","166-UM","2018/02/13 19:39:16","新北市土城區中州路3巷11弄2號","121.414221666667","24.957025","6501300","土城區"
"236031","253-BX","2018/02/13 19:39:32","新北市土城區福祥街58號","121.441533333333","24.9814066666667","6501300","土城區"
"236026","269-VK","2018/02/13 19:39:30","新北市土城區城林路6巷80號","121.438396666667","24.9795666666667","6501300","土城區"
"236038","271-VK","2018/02/13 19:39:24","新北市土城區清水路98巷3弄31號","121.458485","24.980845","6501300","土城區"
"236059","912-UM","2018/02/13 19:39:26","新北市土城區中央路二段257號","121.439935","24.9713066666667","6501300","土城區"
"236049","913-UM","2018/02/13 19:39:24","新北市土城區明德路一段55號","121.465316666667","24.9846383333333","6501300","土城區"
"236055","AAC-216","2018/02/13 19:39:15","新北市土城區學府路一段148號","121.454743333333","24.9870183333333","6501300","土城區"
"242034","415-TV","2018/02/13 19:39:33","新北市新莊區仁愛街18號","121.444248333333","25.0356116666667","6500500","新莊區"
"242005","413-TV","2018/02/13 19:39:32","新北市新莊區化成路29巷34號","121.463786666667","25.0439233333333","6500500","新莊區"
"242061","362-BY","2018/02/13 19:39:23","新北市泰山區磚雅厝3號","121.442268333333","25.041795","6500500","新莊區"
"242046","172-VK","2018/02/13 19:39:24","新北市新莊區新樹路150號","121.435038333333","25.023135","6500500","新莊區"
"242013","346-TH","2018/02/13 19:39:19","新北市新莊區中誠街119號","121.44943","25.0475216666667","6500500","新莊區"
"242017","350-TH","2018/02/13 19:39:17","新北市新莊區三和路12-18號","121.442306666667","25.037585","6500500","新莊區"
"242011","351-TH","2018/02/13 19:39:18","新北市新莊區中信街72號","121.448066666667","25.0522833333333","6500500","新莊區"
"238015","755-BX","2018/02/13 19:39:31","新北市樹林區中興街20-4號","121.420883333333","24.9901366666667","6500700","樹林區"
"238019","599-UM","2018/02/13 19:39:28","新北市樹林區東榮街91巷2弄19號","121.4154","24.9819116666667","6500700","樹林區"
"238018","571-TV","2018/02/13 19:39:16","新北市樹林區太平路57號","121.419073333333","24.98225","6500700","樹林區"
"238024","5061-A6","2018/02/13 19:39:27","新北市樹林區中山路三段48號","121.39431","24.9724583333333","6500700","樹林區"
"238021","KEA-2217","2018/02/13 19:39:18","新北市樹林區柑園街二段303巷18號","121.372733333333","24.9493433333333","6500700","樹林區"
"238022","KEA-2213","2018/02/13 19:39:13","新北市樹林區名園街45號","121.419838333333","24.978685","6500700","樹林區"
"238025","303-VK","2018/02/13 19:39:25","新北市樹林區中山路三段22號","121.395605","24.972965","6500700","樹林區"
"238017","283-BY","2018/02/13 19:39:30","新北市樹林區光興街132號","121.407045","25.00301","6500700","樹林區"
"238014","282-BY","2018/02/13 19:39:24","新北市樹林區保安二街64巷29號","121.424445","24.9967233333333","6500700","樹林區"
"238020","268-VK","2018/02/13 19:39:14","新北市板橋區大觀路三段36巷5-3號","121.433203333333","24.995915","6500700","樹林區"
"238026","172-UY","2018/02/13 19:39:31","新北市樹林區佳園路一段41巷18號","121.393845","24.9709983333333","6500700","樹林區"
"239007","AAC-297","2018/02/13 19:39:32","新北市鶯歌區中正一路213號","121.353658333333","24.9571083333333","6500800","鶯歌區"
"239008","527-UM","2018/02/13 19:39:15","新北市鶯歌區大湖路468巷7弄20號","121.338808333333","24.97285","6500800","鶯歌區"
"239005","526-UM","2018/02/13 19:39:30","新北市鶯歌區中湖街269號","121.348451666667","24.9759666666667","6500800","鶯歌區"
"239001","417-VK","2018/02/13 19:39:25","新北市鶯歌區永智街43巷23號","121.337286666667","24.9539333333333","6500800","鶯歌區"
"239006","292-BY","2018/02/13 19:39:20","新北市鶯歌區尖山埔路144號","121.343423333333","24.9498016666667","6500800","鶯歌區"
"239004","193-VK","2018/02/13 19:39:23","新北市鶯歌區中正三路293號","121.329546666667","24.93625","6500800","鶯歌區"
"221008","489-VK","2018/02/13 19:39:21","新北市汐止區康寧街145號","121.622021666667","25.0667083333333","6501100","汐止區"
"221010","269-BY","2018/02/13 19:39:24","新北市汐止區汐萬路二段66巷3弄11號","121.649185","25.08253","6501100","汐止區"
"221012","278-VK","2018/02/13 19:39:16","新北市汐止區汐平路一段5號","121.68074","25.0712016666667","6501100","汐止區"
"221023","279-VK","2018/02/13 19:39:22","新北市汐止區中興路201號","121.629225","25.068445","6501100","汐止區"
"221027","281-BY","2018/02/13 19:39:15","新北市汐止區忠孝東路9號","121.658265","25.0659433333333","6501100","汐止區"
"221029","298-VK","2018/02/13 19:39:24","新北市汐止區康寧街901號","121.651688333333","25.0749666666667","6501100","汐止區"
"221021","299-VK","2018/02/13 19:39:22","新北市汐止區南興路9號","121.652126666667","25.062285","6501100","汐止區"
"221031","353-TW","2018/02/13 19:39:19","新北市汐止區康寧街901號","121.650861666667","25.075275","6501100","汐止區"
"221025","623-UM","2018/02/13 19:39:16","新北市汐止區福安街20巷2號","121.662521666667","25.0649983333333","6501100","汐止區"
"221038","646-BX","2018/02/13 19:39:34","新北市汐止區忠孝東路206號","121.661876666667","25.0663816666667","6501100","汐止區"
"221033","647-BX","2018/02/13 19:39:26","新北市汐止區南勢街1巷1號","121.627126666667","25.0374983333333","6501100","汐止區"
"221002","707-TV","2018/02/13 19:39:30","新北市汐止區大同路一段215-1號","121.633875","25.057465","6501100","汐止區"
"220079","145-BY","2018/02/13 19:39:24","新北市板橋區建國街23號","121.458021666667","25.0170783333333","6500100","板橋區"
"220080","200-UY","2018/02/13 19:39:32","新北市板橋區大觀路二段3巷68號","121.449466666667","25.0033716666667","6500100","板橋區"
"220082","610-BX","2018/02/13 19:39:19","新北市板橋區金門街120-3號","121.432955","24.99165","6500100","板橋區"
"220101","245-BX","2018/02/13 19:39:23","新北市板橋區莊敬路220巷60號","121.471543333333","25.0208033333333","6500100","板橋區"
"220056","276-BY","2018/02/13 19:39:26","新北市板橋區四川路二段47巷2弄1號","121.454096666667","24.99492","6500100","板橋區"
"220072","277-BY","2018/02/13 19:39:00","新北市板橋區金門街253巷16弄20號","121.432416666667","24.987645","6500100","板橋區"
"220094","283-UM","2018/02/13 19:39:17","新北市板橋區銘傳街41-1號","121.468998333333","25.031275","6500100","板橋區"
"220071","283-VK","2018/02/13 19:39:17","新北市板橋區忠孝路48巷7弄2號","121.461101666667","25.0003016666667","6500100","板橋區"
"220053","285-VK","2018/02/13 19:39:32","新北市板橋區懷仁街77巷32號","121.477743333333","25.0192883333333","6500100","板橋區"
"220083","286-VK","2018/02/13 19:39:26","新北市板橋區龍興街71巷50號","121.44178","25.0027233333333","6500100","板橋區"
"220081","287-VK","2018/02/13 19:39:16","新北市板橋區大觀路一段29巷179弄32號","121.449741666667","25.004055","6500100","板橋區"
"220090","288-VK","2018/02/13 19:39:30","新北市板橋區裕民街71號","121.460861666667","25.028305","6500100","板橋區"
"220061","293-UM","2018/02/13 19:39:31","新北市板橋區中山路一段265巷36弄2號","121.469143333333","25.0149766666667","6500100","板橋區"
"220084","296-UM","2018/02/13 19:39:18","新北市板橋區滿平街84巷100弄19號","121.425923333333","24.985955","6500100","板橋區"
"220075","303-R5","2018/02/13 19:39:35","新北市板橋區中正路253巷9-1號","121.455205","25.0181483333333","6500100","板橋區"
"220062","305-R5","2018/02/13 19:39:24","新北市板橋區三民路二段81巷3號","121.479755","25.0168016666667","6500100","板橋區"
"220092","307-R5","2018/02/13 19:39:23","新北市板橋區光武街4巷12號","121.468401666667","25.0256933333333","6500100","板橋區"
"220098","317-R6","2018/02/13 19:39:18","新北市板橋區長江路一段232號","121.463075","25.0305266666667","6500100","板橋區"
"220064","486-VK","2018/02/13 19:39:29","新北市板橋區漢生東路83巷12號","121.467501666667","25.0161033333333","6500100","板橋區"
"220089","487-VK","2018/02/13 19:39:32","新北市板橋區英士路199號","121.458788333333","25.023515","6500100","板橋區"
"242032","280-VK","2018/02/13 19:39:15","新北市新莊區新泰路225巷43弄11號","121.44418","25.038565","6500500","新莊區"
"220088","491-VK","2018/02/13 19:39:14","新北市板橋區文化路二段550號","121.476161666667","25.034","6500100","板橋區"
"220035","560-BX","2018/02/13 19:39:19","新北市板橋區金華街85巷27號","121.458641666667","25.0213416666667","6500100","板橋區"
"220103","561-BX","2018/02/13 19:39:27","新北市板橋區文化路一段339號","121.466611666667","25.0206766666667","6500100","板橋區"
"220063","609-BX","2018/02/13 19:39:31","新北市板橋區三民路一段31巷89弄3號","121.481838333333","25.0233033333333","6500100","板橋區"
"220055","630-UY","2018/02/13 19:39:20","新北市板橋區重慶路290巷18號","121.462518333333","24.9988533333333","6500100","板橋區"
"220091","637-BX","2018/02/13 19:39:35","新北市板橋區懷德街191巷23號","121.480456666667","25.0299833333333","6500100","板橋區"
"220057","686-BX","2018/02/13 19:39:30","新北市板橋區和平路153號","121.463373333333","24.9957033333333","6500100","板橋區"
"220077","687-BX","2018/02/13 19:39:23","新北市板橋區僑中三街36號","121.445455","25.004835","6500100","板橋區"
"220093","689-BX","2018/02/13 19:39:14","新北市板橋區新海路401號","121.458636666667","25.0267233333333","6500100","板橋區"
"220054","741-BX","2018/02/13 19:39:34","新北市板橋區光明街15號","121.460435","25.0024816666667","6500100","板橋區"
"220067","829-TW","2018/02/13 19:39:25","新北市板橋區漢生東路279巷8號","121.47179","25.0091433333333","6500100","板橋區"
"220096","830-TW","2018/02/13 19:39:35","新北市板橋區莒光路140巷5號","121.473418333333","25.0233966666667","6500100","板橋區"
"220074","895-R6","2018/02/13 19:39:29","新北市板橋區中正路1巷18-1號","121.45521","25.0115616666667","6500100","板橋區"
"220073","985-R7","2018/02/13 19:39:37","新北市板橋區中正路229號","121.456058333333","25.017875","6500100","板橋區"
"220097","AAC-210","2018/02/13 19:39:16","新北市板橋區幸福路32巷5號","121.461478333333","25.0206533333333","6500100","板橋區"
"220070","AAC-253","2018/02/13 19:39:24","新北市板橋區四川路一段33號","121.45954","25.00664","6500100","板橋區"
