"lineid","car","time","location","longitude","latitude","cityid","cityname"
"234046","148-BY","2018/02/13 19:59:19","新北市永和區永元路120號","121.52291","25.0025816666667","6500400","永和區"
"234067","149-BY","2018/02/13 19:59:29","新北市永和區永貞路353號","121.509025","25.0075333333333","6500400","永和區"
"234007","207-UY","2018/02/13 19:59:24","新北市永和區中山路一段339號","121.505886666667","25.00614","6500400","永和區"
"234081","298-R6","2018/02/13 19:59:16","新北市永和區永利路81巷26號","121.522323333333","25.003775","6500400","永和區"
"234038","336-UY","2018/02/13 19:59:34","新北市永和區成功路二段179號","121.526728333333","24.99668","6500400","永和區"
"234064","337-UY","2018/02/13 19:59:25","新北市永和區中正路412巷2號","121.517755","25.0020233333333","6500400","永和區"
"234086","338-UY","2018/02/13 19:59:24","新北市永和區福和路219號","121.518968333333","25.00756","6500400","永和區"
"234070","552-UM","2018/02/13 19:59:36","新北市永和區國光路6號","121.519888333333","25.0084883333333","6500400","永和區"
"234017","745-BX","2018/02/13 19:59:29","新北市永和區文化路5號","121.515523333333","25.01493","6500400","永和區"
"234054","KEA-2590","2018/02/13 19:59:25","新北市永和區竹林路39巷28弄8號","121.519408333333","25.0145966666667","6500400","永和區"
"234013","KEA-2591","2018/02/13 19:59:31","新北市永和區保生路55號","121.50463","25.0106066666667","6500400","永和區"
"234061","AAD-866","2018/02/13 19:59:23","新北市永和區民有街1號","121.51586","24.99741","6500400","永和區"
"234042","862-TW","2018/02/13 19:59:22","新北市永和區中和路389巷24號","121.508205","25.00133","6500400","永和區"
"234050","863-TW","2018/02/13 19:59:22","新北市永和區保安路77號","121.508605","25.0149066666667","6500400","永和區"
"234026","9371-KE","2018/02/13 19:59:17","新北市永和區水源街27巷5號","121.511195","25.0041616666667","6500400","永和區"
"234023","9381-KE","2018/02/13 19:59:27","新北市永和區竹林路91巷30號","121.520848333333","25.0123616666667","6500400","永和區"
"249005","172-UM","2018/02/13 19:59:15","新北市八里區楓林路2-2號","121.383471666667","25.1304766666667","6502300","八里區"
"249001","173-UM","2018/02/13 19:59:27","新北市八里區中華路二段312號","121.403798333333","25.1483366666667","6502300","八里區"
"249004","303-UY","2018/02/13 19:59:29","新北市八里區中華路二段11巷5號","121.41368","25.1533266666667","6502300","八里區"
"249002","305-UY","2018/02/13 19:59:30","新北市八里區頂寮一街40號","121.450635","25.123865","6502300","八里區"
"249003","593-UM","2018/02/13 19:59:23","新北市八里區中華路二段560巷17號","121.398456666667","25.145155","6502300","八里區"
"248016","026-BX","2018/02/13 19:59:32","新北市五股區成泰路四段22巷16-12號","121.454768333333","25.1074783333333","6501500","五股區"
"248008","095-VK","2018/02/13 19:59:16","新北市五股區國道路三段7-1號","121.469498333333","25.0751266666667","6501500","五股區"
"248020","225-UY","2018/02/13 19:59:19","新北市五股區中直路65-3號","121.418368333333","25.1180166666667","6501500","五股區"
"248012","247-BX","2018/02/13 19:59:27","新北市五股區民義路一段42-1號","121.436876666667","25.0839933333333","6501500","五股區"
"248014","261-SL","2018/02/13 19:59:22","新北市五股區五福路24號","121.434373333333","25.0889333333333","6501500","五股區"
"248004","677-BX","2018/02/13 19:59:24","新北市五股區成泰路一段142-1號","121.435095","25.076155","6501500","五股區"
"248002","678-BX","2018/02/13 19:59:23","新北市五股區成泰路三段557號","121.452076666667","25.101905","6501500","五股區"
"248010","682-TV","2018/02/13 19:59:23","新北市五股區登林路76-5號","121.430616666667","25.0695416666667","6501500","五股區"
"234077","969-R7","2018/02/13 19:59:28","新北市永和區民有街23巷45號","121.517545","24.9971933333333","6500400","永和區"
"234074","AAC-211","2018/02/13 19:59:28","新北市永和區竹林路213巷44號","121.523296666667","25.0090916666667","6500400","永和區"
"234003","AAC-295","2018/02/13 19:59:28","新北市永和區福和路307號","121.516196666667","25.007235","6500400","永和區"
"244011","701-TV","2018/02/13 19:59:32","新北市林口區汕頭2-1號","121.360585","25.1335","6501700","林口區"
"243011","267-VK","2018/02/13 19:59:29","新北市泰山區明志路三段204巷10弄11號","121.423043333333","25.0386683333333","6501600","泰山區"
"243014","421-VK","2018/02/13 19:59:24","新北市泰山區橫窠雅26-6號","121.408965","25.07198","6501600","泰山區"
"243012","539-UM","2018/02/13 19:59:32","新北市泰山區全興路111號","121.433926666667","25.0566383333333","6501600","泰山區"
"243010","KEA-2215","2018/02/13 19:59:29","新北市泰山區仁愛路6巷4弄1號","121.43121","25.0536416666667","6501600","泰山區"
"243009","KEA-2216","2018/02/13 19:59:29","新北市泰山區美寧街106巷3號","121.432243333333","25.064115","6501600","泰山區"
"243016","680-BX","2018/02/13 19:59:14","新北市泰山區中山路三段6號","121.420901666667","25.032235","6501600","泰山區"
"222003","436-BY","2018/02/13 19:59:18","新北市深坑區埔新街14號","121.62076","25.0039916666667","6501800","深坑區"
"222002","659-BX","2018/02/13 19:59:22","新北市深坑區北深路二段81巷8弄6號","121.618241666667","25.00308","6501800","深坑區"
"231041","002-UM","2018/02/13 19:59:33","新北市新店區中正路366號","121.535346666667","24.97603","6500600","新店區"
"231059","046-UY","2018/02/13 19:59:30","新北市新店區安康路二段149號","121.511158333333","24.9598833333333","6500600","新店區"
"231061","047-UY","2018/02/13 19:59:22","新北市新店區安民街353號","121.516778333333","24.9755283333333","6500600","新店區"
"231060","106-UY","2018/02/13 19:59:26","新北市新店區安康路二段434號","121.495905","24.954975","6500600","新店區"
"231051","107-UY","2018/02/13 19:59:23","新北市新店區中央三街9號","121.529401666667","24.9734816666667","6500600","新店區"
"231048","108-UY","2018/02/13 19:59:23","新北市新店區寶興路40號","121.548858333333","24.9737966666667","6500600","新店區"
"231068","110-UY","2018/02/13 19:59:15","新北市新店區安華路28-1號","121.51925","24.9611516666667","6500600","新店區"
"231053","187-VK","2018/02/13 19:59:33","新北市新店區新烏路二段478號","121.55291","24.9080033333333","6500600","新店區"
"231050","KEA-2219","2018/02/13 19:59:20","新北市新店區光明街22號","121.538045","24.9588416666667","6500600","新店區"
"221015","KEA-2785","2018/02/13 19:59:32","新北市汐止區橋東街1號","121.66676","25.0762933333333","6501100","汐止區"
"231057","256-BX","2018/02/13 19:59:23","新北市新店區花園二路一段11號","121.555515","24.9324833333333","6500600","新店區"
"231034","268-BY","2018/02/13 19:59:32","新北市新店區黎明路55巷1號","121.502363333333","24.9484433333333","6500600","新店區"
"231054","AAD-862","2018/02/13 19:59:20","新北市新店區光明街135號","121.539505","24.9619683333333","6500600","新店區"
"231058","3712-VJ","2018/02/13 19:59:25","新北市新店區北新路一段303號","121.54132","24.9673466666667","6500600","新店區"
"231056","3713-VJ","2018/02/13 19:59:32","新北市新店區民權路42巷22號","121.539618333333","24.9836866666667","6500600","新店區"
"231055","4716-K9","2018/02/13 19:59:15","新北市新店區力行路56號","121.538706666667","24.96581","6500600","新店區"
"231067","4772-VM","2018/02/13 19:59:31","新北市新店區秀山路45巷17號","121.530988333333","24.9600616666667","6500600","新店區"
"231064","515-UM","2018/02/13 19:59:28","新北市新店區碧安街6巷1號","121.51698","24.9677616666667","6500600","新店區"
"231042","616-UM","2018/02/13 19:59:23","新北市新店區中興路二段89號","121.547008333333","24.9714283333333","6500600","新店區"
"231040","619-UM","2018/02/13 19:59:30","新北市新店區北新路一段96巷23號","121.54308","24.9687133333333","6500600","新店區"
"231049","719-UM","2018/02/13 19:59:23","新北市新店區明德路38號","121.541513333333","24.9778966666667","6500600","新店區"
"231065","719-UY","2018/02/13 19:59:28","新北市新店區安祥路109巷151弄10號","121.478156666667","24.958925","6500600","新店區"
"231062","720-UM","2018/02/13 19:59:23","新北市新店區華潭街26巷3弄1號","121.53007","24.9531516666667","6500600","新店區"
"231044","897-TW","2018/02/13 19:59:15","新北市新店區中正路602號","121.534101666667","24.9880316666667","6500600","新店區"
"231045","898-TW","2018/02/13 19:59:18","新北市新店區北宜路二段168號","121.558123333333","24.95401","6500600","新店區"
"231043","899-TW","2018/02/13 19:59:18","新北市新店區中正路263-5號","121.538171666667","24.9737966666667","6500600","新店區"
"241011","013-R5","2018/02/13 19:59:28","新北市三重區三和路三段35巷1號","121.496011666667","25.0711616666667","6500200","三重區"
"241028","022-UY","2018/02/13 19:59:36","新北市三重區中正南路75號","121.494295","25.05888","6500200","三重區"
"241031","061-VK","2018/02/13 19:59:19","新北市三重區重新路四段214巷19號","121.487276666667","25.0544316666667","6500200","三重區"
"241015","062-VK","2018/02/13 19:59:32","新北市三重區三和路二段6-1號","121.501316666667","25.0666316666667","6500200","三重區"
"241024","065-VK","2018/02/13 19:59:22","新北市三重區大勇街82巷7號","121.479501666667","25.0714633333333","6500200","三重區"
"241026","066-VK","2018/02/13 19:59:28","新北市三重區中央南路8號","121.501421666667","25.0629283333333","6500200","三重區"
"241002","090-VK","2018/02/13 19:59:28","新北市三重區福隆路56號","121.492691666667","25.0786633333333","6500200","三重區"
"241005","262-UM","2018/02/13 19:59:24","新北市五股區成泰路三段544-1號","121.453635","25.1019666666667","6500200","三重區"
"241016","265-UM","2018/02/13 19:59:26","新北市三重區正義北路36巷19號","121.496643333333","25.0634066666667","6500200","三重區"
"241022","267-UM","2018/02/13 19:59:21","新北市三重區新北大道一段7號","121.489706666667","25.061565","6500200","三重區"
"241018","268-UM","2018/02/13 19:59:23","新北市三重區民生東街11號","121.493205","25.0688383333333","6500200","三重區"
"241004","475-VK","2018/02/13 19:59:23","新北市三重區五華街74號","121.493413333333","25.08201","6500200","三重區"
"241014","543-UM","2018/02/13 19:59:16","新北市三重區三和路二段37-8號","121.501338333333","25.0675516666667","6500200","三重區"
"241019","KEA-2593","2018/02/13 19:59:25","新北市三重區自強路二段24號","121.489566666667","25.0693033333333","6500200","三重區"
"241006","AAD-863","2018/02/13 19:59:35","新北市三重區力行路二段95號","121.482841666667","25.075835","6500200","三重區"
"241035","743-BX","2018/02/13 19:59:31","新北市三重區重新路二段13巷11號","121.498476666667","25.0630333333333","6500200","三重區"
"241003","887-TS","2018/02/13 19:59:20","新北市三重區仁愛街445巷34號","121.491316666667","25.08324","6500200","三重區"
"241033","AAC-255","2018/02/13 19:59:26","新北市三重區中興北街40-1號","121.469653333333","25.0490233333333","6500200","三重區"
"235066","003-UY","2018/02/13 19:59:24","新北市中和區中山路二段69號","121.504041666667","25.0043766666667","6500300","中和區"
"235063","006-UY","2018/02/13 19:59:29","新北市中和區連城路263巷11弄2號","121.492463333333","24.9951666666667","6500300","中和區"
"235056","096-UM","2018/02/13 19:59:25","新北市中和區中山路三段152號","121.473461666667","25.00628","6500300","中和區"
"235065","098-UM","2018/02/13 19:59:33","新北市中和區福祥路90巷5號","121.499565","25.0058383333333","6500300","中和區"
"235040","150-BY","2018/02/13 19:59:28","新北市中和區安和路95號","121.507295","24.9957466666667","6500300","中和區"
"235058","151-BY","2018/02/13 19:59:31","新北市中和區員山路189號","121.481173333333","24.9973066666667","6500300","中和區"
"235055","183-VK","2018/02/13 19:59:27","新北市中和區德光路24號","121.470941666667","25.00443","6500300","中和區"
"235038","185-VK","2018/02/13 19:59:31","新北市中和區大仁街11號","121.517746666667","24.9926683333333","6500300","中和區"
"235049","186-VK","2018/02/13 19:59:31","新北市中和區景平路566號","121.501811666667","24.9952416666667","6500300","中和區"
"235067","255-BX","2018/02/13 19:59:21","新北市中和區新生街266號","121.483433333333","24.9973066666667","6500300","中和區"
"235044","293-VK","2018/02/13 19:59:31","新北市中和區板南路150號","121.502025","24.9926233333333","6500300","中和區"
"235072","301-VK","2018/02/13 19:59:17","新北市中和區錦和路91-1號","121.490133333333","24.9957083333333","6500300","中和區"
"235043","352-BY","2018/02/13 19:59:24","新北市中和區興南路二段159巷1號","121.505186666667","24.98323","6500300","中和區"
"235068","377-QA","2018/02/13 19:59:22","新北市新店區薏仁坑路6號","121.500066666667","24.958285","6500300","中和區"
"235050","4979-A6","2018/02/13 19:59:23","新北市中和區景平路241巷64弄2號","121.507768333333","24.99244","6500300","中和區"
"235069","4980-A6","2018/02/13 19:59:28","新北市中和區南山路37巷8弄1號","121.502751666667","24.998765","6500300","中和區"
"235042","551-UM","2018/02/13 19:59:13","新北市中和區景平路276-1號","121.514018333333","24.9925566666667","6500300","中和區"
"235070","558-UM","2018/02/13 19:59:32","新北市中和區景平路507號","121.499608333333","24.99849","6500300","中和區"
"235054","640-BX","2018/02/13 19:59:21","新北市中和區莒光路175-4號","121.472755","24.99934","6500300","中和區"
"235060","647-TV","2018/02/13 19:59:32","新北市中和區中山路二段523巷23號","121.481955","25.00363","6500300","中和區"
"235047","732-UM","2018/02/13 19:59:28","新北市中和區和平街112號","121.507045","24.9914583333333","6500300","中和區"
"235046","733-UM","2018/02/13 19:59:34","新北市中和區興南路一段93巷45號","121.510211666667","24.9875666666667","6500300","中和區"
"235057","801-TS","2018/02/13 19:59:26","新北市中和區民樂路12號","121.482171666667","25.0011833333333","6500300","中和區"
"235052","805-TS","2018/02/13 19:59:31","新北市中和區華新街30巷15號","121.507073333333","24.9842066666667","6500300","中和區"
"235048","896-TW","2018/02/13 19:59:24","新北市中和區景新街320號","121.511678333333","24.9912666666667","6500300","中和區"
"235053","900-TW","2018/02/13 19:59:17","新北市中和區華安街98-1號","121.468445","24.995915","6500300","中和區"
"235051","157-BY","2018/02/13 19:59:33","新北市中和區中興街119號","121.499931666667","24.991945","6500300","中和區"
"235037","AAC-213","2018/02/13 19:59:32","新北市新店區薏仁坑路自強巷1號","121.497593333333","24.9576316666667","6500300","中和區"
"235059","AAC-215","2018/02/13 19:59:15","新北市中和區圓通路305巷25弄2號","121.494865","24.9891866666667","6500300","中和區"
"220068","013-TV","2018/02/13 19:59:20","新北市板橋區中山路二段412巷29弄30號","121.48482","25.0199566666667","6500100","板橋區"
"220065","072-UY","2018/02/13 19:59:34","新北市板橋區海山路27號","121.467771666667","25.0090916666667","6500100","板橋區"
"220106","075-UY","2018/02/13 19:59:36","新北市板橋區民治街57巷26號","121.480045","25.0338916666667","6500100","板橋區"
"220069","AAD-861","2018/02/13 19:59:32","新北市板橋區南雅南路二段11-29號","121.453735","25.001575","6500100","板橋區"
"247008","341-TH","2018/02/13 19:59:27","新北市蘆洲區中山一路95巷20弄29號","121.47636","25.080375","6501400","蘆洲區"
"247010","339-TH","2018/02/13 19:59:18","新北市三重區集賢路188號","121.483941666667","25.0880583333333","6501400","蘆洲區"
"247004","337-TH","2018/02/13 19:59:29","新北市蘆洲區長安街152號","121.459798333333","25.0824366666667","6501400","蘆洲區"
"247002","335-TH","2018/02/13 19:59:26","新北市蘆洲區永樂街31巷7號","121.458298333333","25.0874166666667","6501400","蘆洲區"
"247016","056-VK","2018/02/13 19:59:17","新北市蘆洲區光華路11號","121.469835","25.08343","6501400","蘆洲區"
"247006","053-VK","2018/02/13 19:59:20","新北市蘆洲區九芎街115號","121.465536666667","25.0794833333333","6501400","蘆洲區"
"247024","002-UY","2018/02/13 19:59:14","新北市蘆洲區光榮路120巷12號","121.46553","25.0883833333333","6501400","蘆洲區"
"235041","251-BX","2018/02/13 19:59:30","新北市中和區中安街50號","121.512843333333","25.0024533333333","6500300","中和區"
"228003","828-UM","2018/02/13 19:59:30","新北市貢寮區仁理村仁和路214號","121.923631666667","25.05313","6502600","貢寮區"
"227003","642-TC","2018/02/13 19:59:29","新北市雙溪區雙溪里長安街12號","121.864806666667","25.0347033333333","6502500","雙溪區"
"227009","400-TW","2018/02/13 19:59:31","新北市雙溪區新基里朝陽街3號","121.86627","25.0384016666667","6502500","雙溪區"
"222001","KEA-2212","2018/02/13 19:59:32","新北市深坑區北深路三段174號","121.60215","25.0036533333333","6501800","深坑區"
"208002","742-BX","2018/02/13 19:59:18","新北市金山區環金路91號","121.636668333333","25.2172383333333","6502700","金山區"
"208003","665-BX","2018/02/13 19:59:17","新北市金山區永興里跳石4號","121.633498333333","25.256375","6502700","金山區"
"208001","761-BX","2018/02/13 19:59:32","新北市金山區重和里林口28-3號","121.596683333333","25.2092583333333","6502700","金山區"
"251004","009-UM","2018/02/13 19:52:29","新北市淡水區民權路187巷35號","121.461028333333","25.1336916666667","6501000","淡水區"
"251013","179-VK","2018/02/13 19:59:25","新北市淡水區興仁路40巷7號","121.452945","25.2161566666667","6501000","淡水區"
"251014","180-VK","2018/02/13 19:59:20","新北市淡水區石頭厝2-1號","121.45812","25.23575","6501000","淡水區"
"251008","181-VK","2018/02/13 19:59:27","新北市淡水區中正路一段132巷7弄6號","121.422525","25.179965","6501000","淡水區"
"251015","182-VK","2018/02/13 19:59:17","新北市淡水區商工路184號","121.449516666667","25.1885283333333","6501000","淡水區"
"251012","441-VK","2018/02/13 19:59:25","新北市淡水區下圭柔山61-8號","121.447855","25.2047633333333","6501000","淡水區"
"251016","442-VK","2018/02/13 19:59:21","新北市淡水區興仁路162號","121.451403333333","25.2207233333333","6501000","淡水區"
"251005","443-VK","2018/02/13 19:59:18","新北市淡水區學府路136巷37號","121.451785","25.1727266666667","6501000","淡水區"
"251006","561-UM","2018/02/13 19:59:15","新北市淡水區水碓街42號","121.444535","25.1772766666667","6501000","淡水區"
"251009","575-R6","2018/02/13 19:59:22","新北市淡水區英專路28巷2弄7號","121.446075","25.1695533333333","6501000","淡水區"
"251011","650-BX","2018/02/13 19:59:17","新北市淡水區崁頂55-3號","121.442258333333","25.19672","6501000","淡水區"
"251002","672-BX","2018/02/13 19:59:34","新北市淡水區中正路二段12號","121.420343333333","25.1805916666667","6501000","淡水區"
"207003","550-UM","2018/02/13 19:59:28","新北市萬里區大鵬里萬里加投44-3號","121.640676666667","25.2094316666667","6502800","萬里區"
"207004","225-TW","2018/02/13 19:59:24","新北市萬里區北基里忠二街35號","121.685646666667","25.17574","6502800","萬里區"
"252002","178-VK","2018/02/13 19:59:21","新北市三芝區三民街39巷5號","121.505418333333","25.2576216666667","6502100","三芝區"
"252001","292-VK","2018/02/13 19:59:31","新北市三芝區公正街66號","121.499798333333","25.257495","6502100","三芝區"
"237004","KEA-2597","2018/02/13 19:59:27","新北市三峽區添福9號","121.371196666667","24.9077533333333","6500900","三峽區"
"237007","153-BY","2018/02/13 19:59:19","新北市三峽區二鬮路136巷63號","121.357498333333","24.9092066666667","6500900","三峽區"
"237009","210-TH","2018/02/13 19:59:18","新北市三峽區民族街78巷2弄4號","121.368688333333","24.9298233333333","6500900","三峽區"
"237013","252-BX","2018/02/13 19:59:24","新北市三峽區介壽路一段247號","121.37951","24.9303283333333","6500900","三峽區"
"237012","275-BY","2018/02/13 19:59:18","新北市三峽區愛國路34巷1號","121.374531666667","24.9327966666667","6500900","三峽區"
"237008","302-VK","2018/02/13 19:59:30","新北市三峽區中正路一段193號","121.37246","24.927845","6500900","三峽區"
"237014","433-BY","2018/02/13 19:59:29","新北市三峽區介壽路一段1號","121.37525","24.9339933333333","6500900","三峽區"
"237006","5529-G3","2018/02/13 19:59:35","新北市三峽區溪東路134號","121.404693333333","24.9333683333333","6500900","三峽區"
"237016","649-BX","2018/02/13 19:59:16","新北市三峽區成福路202號","121.426818333333","24.9257866666667","6500900","三峽區"
"237005","AKY-6261","2018/02/13 19:59:22","新北市三峽區民生街1巷17號","121.38045","24.9356733333333","6500900","三峽區"
"236070","105-UM","2018/02/13 19:59:15","新北市土城區忠義路75號","121.4424","24.96564","6501300","土城區"
"236079","166-UM","2018/02/13 19:59:36","新北市土城區溪頭路43號","121.412065","24.95508","6501300","土城區"
"236031","253-BX","2018/02/13 19:59:32","新北市土城區中央路一段252號","121.444243333333","24.98469","6501300","土城區"
"236026","269-VK","2018/02/13 19:59:33","新北市土城區員林街65號","121.444105","24.977415","6501300","土城區"
"236015","270-VK","2018/02/13 19:59:17","新北市土城區廣福街123號","121.456206666667","24.992855","6501300","土城區"
"236038","271-VK","2018/02/13 19:59:31","新北市土城區國際路72號","121.46684","24.976235","6501300","土城區"
"236023","401-BY","2018/02/13 19:59:32","新北市土城區峰廷街2號","121.46863","24.9878","6501300","土城區"
"236059","912-UM","2018/02/13 19:59:26","新北市土城區中央路一段179號","121.446215","24.9873883333333","6501300","土城區"
"236049","913-UM","2018/02/13 19:59:24","新北市土城區金城路三段188號","121.46826","24.9879616666667","6501300","土城區"
"236063","915-UM","2018/02/13 19:59:17","新北市土城區延平街33巷1號","121.467846666667","24.991765","6501300","土城區"
"236055","AAC-216","2018/02/13 19:59:15","新北市土城區延和路19號","121.464223333333","24.9882016666667","6501300","土城區"
"242029","986-R7","2018/02/13 19:59:24","新北市新莊區中平路296號","121.444953333333","25.05178","6500500","新莊區"
"242025","615-BX","2018/02/13 19:59:28","新北市新莊區五工二路86巷52號","121.460998333333","25.06755","6500500","新莊區"
"242023","613-BX","2018/02/13 19:59:20","新北市新莊區化成路320號","121.465758333333","25.0484783333333","6500500","新莊區"
"242027","612-BX","2018/02/13 19:59:28","新北市新莊區立信三街42號","121.443068333333","25.0508416666667","6500500","新莊區"
"242039","566-BX","2018/02/13 19:59:17","新北市新莊區民安路291-1號","121.429393333333","25.0225283333333","6500500","新莊區"
"242044","497-BY","2018/02/13 19:59:33","新北市新莊區龍安路99號","121.416433333333","25.02237","6500500","新莊區"
"242048","441-UM","2018/02/13 19:59:21","新北市新莊區民安路207巷12弄2號","121.426831666667","25.0229166666667","6500500","新莊區"
"242054","440-UM","2018/02/13 19:59:17","新北市新莊區西盛街435號","121.427091666667","25.0119383333333","6500500","新莊區"
"242034","415-TV","2018/02/13 19:59:13","新北市新莊區建中街94號","121.446755","25.03657","6500500","新莊區"
"242005","413-TV","2018/02/13 19:59:32","新北市新莊區化成路314巷15號","121.46671","25.0482933333333","6500500","新莊區"
"242042","400-BY","2018/02/13 19:59:32","新北市新莊區青山路一段8-2號","121.411621666667","25.02757","6500500","新莊區"
"242061","362-BY","2018/02/13 19:59:23","新北市新莊區瓊泰路19號","121.444318333333","25.0285933333333","6500500","新莊區"
"242058","353-BY","2018/02/13 19:59:31","新北市新莊區八德街99號","121.424311666667","25.0212783333333","6500500","新莊區"
"242007","132-UY","2018/02/13 19:59:26","新北市新莊區思源路585號","121.459843333333","25.05945","6500500","新莊區"
"242037","133-UY","2018/02/13 19:59:27","新北市新莊區建安街71巷17號","121.428225","25.0245166666667","6500500","新莊區"
"242021","135-UY","2018/02/13 19:59:16","新北市新莊區建中街16巷38號","121.448766666667","25.038625","6500500","新莊區"
"242046","172-VK","2018/02/13 19:59:24","新北市新莊區建國二路83號","121.431761666667","25.0255316666667","6500500","新莊區"
"242009","173-VK","2018/02/13 19:55:56","新北市板橋區中正路379巷76號","121.450166666667","25.02366","6500500","新莊區"
"242015","175-VK","2018/02/13 19:59:29","新北市新莊區泰順街33巷2號","121.446181666667","25.0425133333333","6500500","新莊區"
"242002","176-VK","2018/02/13 19:59:18","新北市新莊區新泰路97號","121.44901","25.0348","6500500","新莊區"
"242013","346-TH","2018/02/13 19:59:18","新北市新莊區中港路421號","121.452265","25.04759","6500500","新莊區"
"242019","348-TH","2018/02/13 19:59:16","新北市新莊區明智街21巷2號","121.453928333333","25.041355","6500500","新莊區"
"242017","350-TH","2018/02/13 19:59:37","新北市新莊區中港路332號","121.452528333333","25.0458433333333","6500500","新莊區"
"242011","351-TH","2018/02/13 19:59:18","新北市新莊區中港路531巷33號","121.450138333333","25.0515016666667","6500500","新莊區"
"238015","755-BX","2018/02/13 19:59:31","新北市樹林區大安路593號","121.411798333333","24.9830216666667","6500700","樹林區"
"238023","601-UM","2018/02/13 19:59:18","新北市樹林區大慶街66號","121.396463333333","25.0140016666667","6500700","樹林區"
"238019","599-UM","2018/02/13 19:59:28","新北市樹林區鎮前街347巷2弄3號","121.416658333333","24.9836333333333","6500700","樹林區"
"238018","571-TV","2018/02/13 19:59:16","新北市樹林區中華路147號","121.421303333333","24.9821916666667","6500700","樹林區"
"238021","KEA-2217","2018/02/13 19:59:18","新北市樹林區佳園路三段183號","121.38535","24.9479783333333","6500700","樹林區"
"238022","KEA-2213","2018/02/13 19:59:19","新北市樹林區國凱街70號","121.420926666667","24.9789233333333","6500700","樹林區"
"238025","303-VK","2018/02/13 19:59:27","新北市樹林區中山路三段30號","121.395328333333","24.9727416666667","6500700","樹林區"
"238017","283-BY","2018/02/13 19:59:23","新北市樹林區保安街二段167巷26號","121.414253333333","25.00282","6500700","樹林區"
"238014","282-BY","2018/02/13 19:59:24","新北市樹林區中正路22-1號","121.427763333333","24.9994616666667","6500700","樹林區"
"238020","268-VK","2018/02/13 19:59:32","新北市樹林區三俊街314號","121.42335","25.0139583333333","6500700","樹林區"
"238026","172-UY","2018/02/13 19:59:31","新北市樹林區佳園路三段95號","121.387605","24.9523166666667","6500700","樹林區"
"239007","AAC-297","2018/02/13 19:59:32","新北市鶯歌區大湖路余厝巷11號","121.342015","24.961505","6500800","鶯歌區"
"239006","891-R6","2018/02/13 19:59:20","新北市鶯歌區文化路145巷4號","121.356655","24.9540033333333","6500800","鶯歌區"
"239008","527-UM","2018/02/13 19:59:35","新北市鶯歌區大湖路326巷52號","121.346021666667","24.96917","6500800","鶯歌區"
"239005","526-UM","2018/02/13 19:59:30","新北市鶯歌區大湖路140號","121.342656666667","24.9642583333333","6500800","鶯歌區"
"239001","417-VK","2018/02/13 19:59:25","新北市鶯歌區鶯桃路35-1號","121.342955","24.9507266666667","6500800","鶯歌區"
"239003","360-BY","2018/02/13 19:59:17","新北市鶯歌區中山路191號","121.347188333333","24.9569916666667","6500800","鶯歌區"
"239004","193-VK","2018/02/13 19:59:23","新北市鶯歌區二甲路55-25號","121.338228333333","24.9299016666667","6500800","鶯歌區"
"221008","489-VK","2018/02/13 19:59:21","新北市汐止區康寧街39號","121.61862","25.0668266666667","6501100","汐止區"
"221036","130-UY","2018/02/13 19:59:25","新北市汐止區忠孝東路258巷11弄7號","121.663903333333","25.06752","6501100","汐止區"
"221010","269-BY","2018/02/13 19:59:25","新北市汐止區連峰街185號","121.646075","25.0804533333333","6501100","汐止區"
"221012","278-VK","2018/02/13 19:58:56","新北市汐止區大同路三段242號","121.675823333333","25.07238","6501100","汐止區"
"221023","279-VK","2018/02/13 19:59:22","新北市汐止區中興路286巷1號","121.628265","25.0696","6501100","汐止區"
"221032","280-BY","2018/02/13 19:59:27","新北市汐止區橫科路4巷1弄10號","121.617788333333","25.0508266666667","6501100","汐止區"
"221027","281-BY","2018/02/13 19:59:35","新北市汐止區中正路74號","121.661563333333","25.0697833333333","6501100","汐止區"
"221029","298-VK","2018/02/13 19:59:24","新北市汐止區樟樹一路137巷24號","121.641125","25.06599","6501100","汐止區"
"221021","299-VK","2018/02/13 19:59:22","新北市汐止區水源路一段127號","121.656336666667","25.062635","6501100","汐止區"
"221031","353-TW","2018/02/13 19:59:19","新北市汐止區福德一路176巷2號","121.635745","25.0662733333333","6501100","汐止區"
"221035","622-UM","2018/02/13 19:59:20","新北市汐止區長江街35號","121.65562","25.071435","6501100","汐止區"
"221025","623-UM","2018/02/13 19:59:16","新北市汐止區秀峰路109巷17號","121.660713333333","25.063515","6501100","汐止區"
"221038","646-BX","2018/02/13 19:59:14","新北市汐止區忠孝東路438號","121.666081666667","25.0724116666667","6501100","汐止區"
"221033","647-BX","2018/02/13 19:59:26","新北市汐止區東勢街201巷32號","121.63505","25.0433983333333","6501100","汐止區"
"220079","145-BY","2018/02/13 19:59:24","新北市板橋區中正路183巷27號","121.454953333333","25.0159416666667","6500100","板橋區"
"220082","610-BX","2018/02/13 19:59:19","新北市板橋區溪崑二街21號","121.428755","24.99142","6500100","板橋區"
"220101","245-BX","2018/02/13 19:59:25","新北市板橋區縣民大道三段79巷1號","121.475316666667","25.0217266666667","6500100","板橋區"
"220072","277-BY","2018/02/13 19:59:20","新北市板橋區金門街151巷40弄2號","121.433553333333","24.9903316666667","6500100","板橋區"
"220094","283-UM","2018/02/13 19:59:29","新北市板橋區陽明街277-1號","121.46212","25.0262383333333","6500100","板橋區"
"220071","283-VK","2018/02/13 19:59:34","新北市板橋區信義路279巷21號","121.464303333333","24.9902266666667","6500100","板橋區"
"220053","285-VK","2018/02/13 19:59:32","新北市板橋區中山路二段90巷22號","121.475521666667","25.01564","6500100","板橋區"
"220083","286-VK","2018/02/13 19:59:26","新北市板橋區僑中二街8巷16號","121.446486666667","25.01129","6500100","板橋區"
"220081","287-VK","2018/02/13 19:59:30","新北市板橋區大觀路一段29巷19號","121.450191666667","25.007915","6500100","板橋區"
"220061","293-UM","2018/02/13 19:59:31","新北市板橋區觀光街33巷2號","121.471258333333","25.01607","6500100","板橋區"
"220084","296-UM","2018/02/13 19:59:18","新北市板橋區滿平街84巷102號","121.426715","24.98658","6500100","板橋區"
"220075","303-R5","2018/02/13 19:59:35","新北市板橋區金華街3號","121.455558333333","25.020085","6500100","板橋區"
"220062","305-R5","2018/02/13 19:59:24","新北市板橋區萬安街85巷18-1號","121.48424","25.0254833333333","6500100","板橋區"
"220092","307-R5","2018/02/13 19:59:16","新北市板橋區四維路103巷33號","121.464308333333","25.023835","6500100","板橋區"
"220098","317-R6","2018/02/13 19:59:18","新北市板橋區新海路388巷9號","121.459435","25.026555","6500100","板橋區"
"220064","486-VK","2018/02/13 19:59:37","新北市板橋區民族路80號","121.463105","25.0094983333333","6500100","板橋區"
"220089","487-VK","2018/02/13 19:59:32","新北市板橋區新海路181號","121.458331666667","25.024055","6500100","板橋區"
"242032","280-VK","2018/02/13 19:59:35","新北市新莊區忠孝街24號","121.44397","25.0354183333333","6500500","新莊區"
"220088","491-VK","2018/02/13 19:59:34","新北市板橋區大同街75號","121.479601666667","25.028085","6500100","板橋區"
"220035","560-BX","2018/02/13 19:59:19","新北市板橋區新生街87巷20號","121.457208333333","25.0220316666667","6500100","板橋區"
"220103","561-BX","2018/02/13 19:59:07","新北市板橋區陽明街29巷1弄13號","121.46461","25.021675","6500100","板橋區"
"220063","609-BX","2018/02/13 19:59:31","新北市板橋區縣民大道三段310號","121.47872","25.02368","6500100","板橋區"
"220055","630-UY","2018/02/13 19:59:17","新北市板橋區國慶路210號","121.46364","24.9970466666667","6500100","板橋區"
"220091","637-BX","2018/02/13 19:59:35","新北市板橋區懷德街201巷1號","121.480715","25.0292916666667","6500100","板橋區"
"220057","686-BX","2018/02/13 19:59:22","新北市板橋區廣權路1號","121.460493333333","24.99109","6500100","板橋區"
"220077","687-BX","2018/02/13 19:59:35","新北市板橋區僑中一街124巷20弄2號","121.446205","25.0139916666667","6500100","板橋區"
"220093","689-BX","2018/02/13 19:59:33","新北市板橋區長江路三段134號","121.475621666667","25.0346633333333","6500100","板橋區"
"220054","741-BX","2018/02/13 19:59:34","新北市板橋區忠孝路239巷18號","121.466726666667","25.00333","6500100","板橋區"
"220067","829-TW","2018/02/13 19:59:25","新北市板橋區漢生東路193巷62號","121.473111666667","25.01196","6500100","板橋區"
"220096","830-TW","2018/02/13 19:59:15","新北市板橋區莊敬路152號","121.47134","25.0229433333333","6500100","板橋區"
"220074","895-R6","2018/02/13 19:59:34","新北市板橋區府中路123號","121.456215","25.00957","6500100","板橋區"
"220073","985-R7","2018/02/13 19:59:15","新北市板橋區大仁街93號","121.45328","25.01595","6500100","板橋區"
"220097","AAC-210","2018/02/13 19:59:22","新北市板橋區公館街60號","121.461353333333","25.016385","6500100","板橋區"
"220070","AAC-253","2018/02/13 19:59:24","新北市板橋區民族路83-1號","121.465753333333","25.00856","6500100","板橋區"
