"lineid","car","time","location","longitude","latitude","cityid","cityname"
"234046","148-BY","2018/02/13 20:19:19","新北市永和區得和路275號","121.522323333333","24.9996033333333","6500400","永和區"
"234067","149-BY","2018/02/13 20:19:29","新北市永和區永貞路364號","121.510086666667","25.0066383333333","6500400","永和區"
"234007","207-UY","2018/02/13 20:19:24","新北市永和區保順路37巷15號","121.502876666667","25.0102416666667","6500400","永和區"
"234081","298-R6","2018/02/13 20:19:36","新北市永和區國中路109巷3弄2號","121.523843333333","25.005485","6500400","永和區"
"234038","336-UY","2018/02/13 20:19:34","新北市永和區成功路一段93巷23弄9號","121.528583333333","25.003075","6500400","永和區"
"234064","337-UY","2018/02/13 20:19:25","新北市永和區秀朗路一段220巷3號","121.520161666667","25.0028666666667","6500400","永和區"
"234086","338-UY","2018/02/13 20:19:21","新北市永和區中正路637號","121.51539","25.0099916666667","6500400","永和區"
"234070","552-UM","2018/02/13 20:19:20","新北市永和區永安街7巷3號","121.518611666667","25.0061616666667","6500400","永和區"
"234017","745-BX","2018/02/13 20:19:23","新北市永和區文化路7號","121.515403333333","25.0149966666667","6500400","永和區"
"234054","KEA-2590","2018/02/13 20:19:25","新北市永和區博愛街47巷2號","121.519558333333","25.0159666666667","6500400","永和區"
"234013","KEA-2591","2018/02/13 20:19:31","新北市永和區保生路3號","121.506466666667","25.007435","6500400","永和區"
"234061","AAD-866","2018/02/13 20:19:25","新北市永和區中正路151巷14號","121.515565","24.9988266666667","6500400","永和區"
"234042","862-TW","2018/02/13 20:19:34","新北市永和區雙和街16巷14號","121.510128333333","25.002545","6500400","永和區"
"234050","863-TW","2018/02/13 20:19:22","新北市永和區保安路288號","121.505275","25.0120733333333","6500400","永和區"
"234026","9371-KE","2018/02/13 20:19:37","新北市永和區仁愛路352巷126號","121.50012","25.0085633333333","6500400","永和區"
"234011","9373-KE","2018/02/13 20:19:29","新北市永和區仁愛路352巷120號","121.500213333333","25.0083366666667","6500400","永和區"
"249005","172-UM","2018/02/13 20:19:35","新北市八里區下罟子2-11號","121.38842","25.1413533333333","6502300","八里區"
"249001","173-UM","2018/02/13 20:19:27","新北市八里區中華路二段466號","121.400848333333","25.146195","6502300","八里區"
"249004","303-UY","2018/02/13 20:19:29","新北市八里區中山路一段322號","121.412956666667","25.159105","6502300","八里區"
"249002","305-UY","2018/02/13 20:19:30","新北市八里區龍米路一段100巷6號","121.453636666667","25.12492","6502300","八里區"
"249003","593-UM","2018/02/13 20:19:23","新北市八里區中山路二段447巷22號","121.397288333333","25.1451066666667","6502300","八里區"
"248016","026-BX","2018/02/13 20:19:31","新北市五股區成泰路三段577巷80弄72號","121.448986666667","25.1047783333333","6501500","五股區"
"248008","095-VK","2018/02/13 20:19:16","新北市三重區中正北路598巷5號","121.469715","25.07153","6501500","五股區"
"248020","225-UY","2018/02/13 20:19:19","新北市五股區凌雲路三段24巷16-1號","121.434948333333","25.1056","6501500","五股區"
"248012","247-BX","2018/02/13 20:19:27","新北市五股區六合街42號","121.43273","25.089435","6501500","五股區"
"248014","261-SL","2018/02/13 20:19:02","新北市五股區中直路15-2號","121.42315","25.1111966666667","6501500","五股區"
"248004","677-BX","2018/02/13 20:15:06","新北市五股區中興路二段37巷26號","121.460343333333","25.0749616666667","6501500","五股區"
"248002","678-BX","2018/02/13 20:19:23","新北市五股區成泰路三段173號","121.445458333333","25.09184","6501500","五股區"
"248010","682-TV","2018/02/13 20:19:23","新北市五股區成泰路一段87-1號","121.435051666667","25.0688633333333","6501500","五股區"
"234077","969-R7","2018/02/13 20:19:28","新北市永和區民享街23巷3號","121.515811666667","24.995045","6500400","永和區"
"234074","AAC-211","2018/02/13 20:19:28","新北市永和區豫溪街215巷9號","121.52381","25.009805","6500400","永和區"
"234003","AAC-295","2018/02/13 20:19:28","新北市永和區中正路678號","121.516818333333","25.0093133333333","6500400","永和區"
"243011","267-VK","2018/02/13 20:19:29","新北市泰山區明志路三段182巷9-2號","121.423656666667","25.03916","6501600","泰山區"
"243014","421-VK","2018/02/13 20:19:24","新北市泰山區明志路一段37號","121.433628333333","25.0654","6501600","泰山區"
"243012","539-UM","2018/02/13 20:19:20","新北市泰山區泰林路三段641號","121.405031666667","25.070385","6501600","泰山區"
"243009","KEA-2216","2018/02/13 20:19:28","新北市泰山區泰林路二段116巷2弄2號","121.434875","25.0593916666667","6501600","泰山區"
"243016","680-BX","2018/02/13 20:19:14","新北市泰山區貴陽街22號","121.422721666667","25.0326233333333","6501600","泰山區"
"222003","436-BY","2018/02/13 20:19:34","新北市深坑區埔新街101號","121.619131666667","25.0021966666667","6501800","深坑區"
"222002","659-BX","2018/02/13 20:19:22","新北市深坑區萬福路69-1號","121.6011","25.00793","6501800","深坑區"
"231041","002-UM","2018/02/13 20:19:33","新北市新店區民權路63號","121.539278333333","24.9828633333333","6500600","新店區"
"231059","046-UY","2018/02/13 20:19:30","新北市新店區安德街134號","121.508581666667","24.960255","6500600","新店區"
"231061","047-UY","2018/02/13 20:19:22","新北市新店區安民街133巷26號","121.515336666667","24.9695033333333","6500600","新店區"
"231060","106-UY","2018/02/13 20:19:26","新北市新店區錦秀路1-3號","121.479013333333","24.9454616666667","6500600","新店區"
"231051","107-UY","2018/02/13 20:19:23","新北市新店區中央六街46號","121.528381666667","24.9755533333333","6500600","新店區"
"231048","108-UY","2018/02/13 20:19:23","新北市新店區永華街33巷34號","121.54455","24.9769916666667","6500600","新店區"
"231068","110-UY","2018/02/13 20:19:36","新北市新店區民權路8號","121.542515","24.9829583333333","6500600","新店區"
"231053","187-VK","2018/02/13 20:19:33","新北市新店區新烏路三段251號","121.546316666667","24.89528","6500600","新店區"
"231050","KEA-2219","2018/02/13 20:19:20","新北市新店區北新路二段2號","121.542576666667","24.9708433333333","6500600","新店區"
"221015","KEA-2785","2018/02/13 20:19:32","新北市汐止區建成路142巷19弄6號","121.66218","25.0739233333333","6501100","汐止區"
"231057","256-BX","2018/02/13 20:19:23","新北市新店區花園五路一段42號","121.552913333333","24.93409","6500600","新店區"
"231034","268-BY","2018/02/13 20:19:25","新北市新店區車子路1-1號","121.504761666667","24.9578833333333","6500600","新店區"
"231054","AAD-862","2018/02/13 20:19:19","新北市新店區檳榔路174號","121.54409","24.9618466666667","6500600","新店區"
"231058","3712-VJ","2018/02/13 20:19:25","新北市新店區吉安街41號","121.515385","24.9660616666667","6500600","新店區"
"231055","4716-K9","2018/02/13 20:19:15","新北市新店區北新路一段297巷29號","121.540531666667","24.96817","6500600","新店區"
"231067","4772-VM","2018/02/13 20:19:32","新北市新店區溪洲路8巷120-1號","121.532985","24.9632533333333","6500600","新店區"
"231064","515-UM","2018/02/13 20:19:28","新北市新店區安和路二段218-1號","121.517911666667","24.9752483333333","6500600","新店區"
"231042","616-UM","2018/02/13 20:19:23","新北市新店區寶橋路230號","121.551491666667","24.9788133333333","6500600","新店區"
"231040","619-UM","2018/02/13 20:19:30","新北市新店區中正路211號","121.539913333333","24.9727866666667","6500600","新店區"
"231049","719-UM","2018/02/13 20:19:19","新北市新店區北新路一段193號","121.54038","24.96473","6500600","新店區"
"231065","719-UY","2018/02/13 20:19:28","新北市新店區安祥路106巷66號","121.475023333333","24.9603633333333","6500600","新店區"
"231044","897-TW","2018/02/13 20:19:35","新北市新店區北新路三段147-1號","121.541295","24.9834033333333","6500600","新店區"
"231045","898-TW","2018/02/13 20:19:34","新北市新店區中興路一段110-1號","121.541395","24.9624183333333","6500600","新店區"
"231043","899-TW","2018/02/13 20:19:18","新北市新店區民族路81號","121.538995","24.97792","6500600","新店區"
"231066","AKT-0513","2018/02/13 20:19:23","新北市新店區安興路105-1號","121.514686666667","24.9777083333333","6500600","新店區"
"241011","013-R5","2018/02/13 20:19:27","新北市三重區龍門路207號","121.500001666667","25.073405","6500200","三重區"
"241028","022-UY","2018/02/13 20:19:32","新北市三重區大同南路174號","121.49683","25.05733","6500200","三重區"
"241031","061-VK","2018/02/13 20:19:21","新北市三重區三寧街15號","121.489483333333","25.0598083333333","6500200","三重區"
"241015","062-VK","2018/02/13 20:19:32","新北市三重區重新路一段56號","121.502388333333","25.0637966666667","6500200","三重區"
"241024","065-VK","2018/02/13 20:19:22","新北市三重區中正北路284號","121.480476666667","25.0686166666667","6500200","三重區"
"241026","066-VK","2018/02/13 20:19:28","新北市三重區福德南路59-4號","121.502616666667","25.0608516666667","6500200","三重區"
"241002","090-VK","2018/02/13 20:19:28","新北市三重區仁義街101巷38號","121.499021666667","25.08073","6500200","三重區"
"241016","265-UM","2018/02/13 20:19:26","新北市三重區大同北路97-3號","121.494375","25.0636216666667","6500200","三重區"
"241022","267-UM","2018/02/13 20:19:36","新北市三重區市前街14號","121.489171666667","25.0623883333333","6500200","三重區"
"241018","268-UM","2018/02/13 20:17:08","新北市三重區民生東街11號","121.493185","25.068865","6500200","三重區"
"241032","269-UM","2018/02/13 20:19:27","新北市三重區朝陽街26巷1弄3號","121.483235","25.05662","6500200","三重區"
"241004","475-VK","2018/02/13 20:19:23","新北市三重區溪尾街98號","121.489388333333","25.078635","6500200","三重區"
"241014","543-UM","2018/02/13 20:19:16","新北市三重區龍濱路163號","121.502541666667","25.0697183333333","6500200","三重區"
"241023","545-UM","2018/02/13 20:19:31","新北市三重區頂崁街201巷6號","121.477708333333","25.06691","6500200","三重區"
"241019","KEA-2593","2018/02/13 20:19:25","新北市三重區重陽路四段81號","121.492545","25.071045","6500200","三重區"
"241035","743-BX","2018/02/13 20:19:31","新北市三重區正義北路33巷13號","121.498076666667","25.0637466666667","6500200","三重區"
"241003","887-TS","2018/02/13 20:19:20","新北市三重區自強路四段107-1號","121.491775","25.0800266666667","6500200","三重區"
"241033","AAC-255","2018/02/13 20:19:32","新北市三重區五谷王北街50巷93號","121.474131666667","25.0515383333333","6500200","三重區"
"235066","003-UY","2018/02/13 20:19:24","新北市中和區水源路122號","121.507228333333","25.0033633333333","6500300","中和區"
"235040","150-BY","2018/02/13 20:19:08","新北市中和區保健路61巷5弄2號","121.509686666667","24.9975516666667","6500300","中和區"
"235038","185-VK","2018/02/13 20:19:31","新北市中和區自立路29巷14弄18號","121.523045","24.9953916666667","6500300","中和區"
"235067","255-BX","2018/02/13 20:19:21","新北市中和區新生街241號","121.483873333333","24.998885","6500300","中和區"
"235068","377-QA","2018/02/13 20:19:22","新北市中和區中正路434號","121.491245","24.9935883333333","6500300","中和區"
"235050","4979-A6","2018/02/13 20:19:34","新北市中和區景新街290號","121.511176666667","24.9921633333333","6500300","中和區"
"235069","4980-A6","2018/02/13 20:19:28","新北市中和區圓通路179號","121.497553333333","24.994875","6500300","中和區"
"235042","551-UM","2018/02/13 20:19:33","新北市新店區安民街121巷12號","121.515431666667","24.96925","6500300","中和區"
"235070","558-UM","2018/02/13 20:19:32","新北市中和區中正路488-5號","121.488946666667","24.9943133333333","6500300","中和區"
"235051","157-BY","2018/02/13 20:19:32","新北市中和區景安路220巷6-1號","121.503166666667","24.9910766666667","6500300","中和區"
"235059","AAC-215","2018/02/13 20:19:15","新北市中和區圓通路335巷39號","121.493945","24.9892433333333","6500300","中和區"
"220106","075-UY","2018/02/13 20:19:24","新北市板橋區文聖街13號","121.475585","25.03237","6500100","板橋區"
"220069","AAD-861","2018/02/13 20:19:28","新北市板橋區大明街18-5號","121.458866666667","25.0029483333333","6500100","板橋區"
"247022","893-R6","2018/02/13 20:19:22","新北市蘆洲區中正路192巷11號","121.467578333333","25.0884466666667","6501400","蘆洲區"
"247020","500-BY","2018/02/13 20:19:15","新北市蘆洲區民族路446-4號","121.472625","25.09205","6501400","蘆洲區"
"247012","402-BY","2018/02/13 20:19:14","新北市蘆洲區中興街17號","121.480573333333","25.0870066666667","6501400","蘆洲區"
"247008","341-TH","2018/02/13 20:19:36","新北市蘆洲區集賢路209號","121.483501666667","25.0873066666667","6501400","蘆洲區"
"247004","337-TH","2018/02/13 20:19:29","新北市五股區中興路二段182巷3號","121.455836666667","25.0780233333333","6501400","蘆洲區"
"247004","336-TH","2018/02/13 20:19:27","新北市蘆洲區永安南路二段328巷15弄5號","121.456443333333","25.083625","6501400","蘆洲區"
"247002","335-TH","2018/02/13 20:19:26","新北市蘆洲區長安街313巷44號","121.455741666667","25.0861166666667","6501400","蘆洲區"
"247016","057-VK","2018/02/13 20:19:22","新北市蘆洲區中正路185巷45弄1號","121.465893333333","25.0837866666667","6501400","蘆洲區"
"247006","053-VK","2018/02/13 20:19:20","新北市蘆洲區九芎街139巷22弄8號","121.465961666667","25.0785683333333","6501400","蘆洲區"
"247014","007-UY","2018/02/13 20:19:26","新北市蘆洲區中山二路150號","121.471183333333","25.0811833333333","6501400","蘆洲區"
"247024","002-UY","2018/02/13 20:19:33","新北市蘆洲區光明路112巷31號","121.463853333333","25.08731","6501400","蘆洲區"
"247018","001-UY","2018/02/13 20:19:31","新北市蘆洲區民權路156號","121.472586666667","25.0895733333333","6501400","蘆洲區"
"222001","KEA-2212","2018/02/13 20:19:27","新北市深坑區北深路三段267號","121.598475","25.00384","6501800","深坑區"
"251013","179-VK","2018/02/13 20:19:25","新北市淡水區相公山6號","121.474615","25.2066533333333","6501000","淡水區"
"251014","180-VK","2018/02/13 20:19:20","新北市淡水區石頭厝3號","121.458696666667","25.235565","6501000","淡水區"
"251008","181-VK","2018/02/13 20:19:19","新北市淡水區淡海路150巷6號","121.422113333333","25.184","6501000","淡水區"
"251015","182-VK","2018/02/13 20:19:17","新北市淡水區下圭柔山431-1號","121.449736666667","25.2102233333333","6501000","淡水區"
"251010","413-VK","2018/02/13 20:19:26","新北市淡水區新民街一段132號","121.427778333333","25.1888083333333","6501000","淡水區"
"251012","441-VK","2018/02/13 20:19:25","新北市淡水區淡金路三段405-2號","121.449146666667","25.2084333333333","6501000","淡水區"
"251016","442-VK","2018/02/13 20:19:21","新北市淡水區番子田16-12號","121.453843333333","25.2312883333333","6501000","淡水區"
"251006","561-UM","2018/02/13 20:19:15","新北市淡水區北新路169巷4號","121.45024","25.1795116666667","6501000","淡水區"
"251002","672-BX","2018/02/13 20:19:34","新北市淡水區中正路132號","121.441205","25.169665","6501000","淡水區"
"251003","673-BX","2018/02/13 20:19:20","新北市淡水區中山北路一段229號","121.444498333333","25.1795316666667","6501000","淡水區"
"207004","225-TW","2018/02/13 20:19:24","新北市萬里區北基里仁三街2號","121.68239","25.1754983333333","6502800","萬里區"
"252002","178-VK","2018/02/13 20:19:21","新北市三芝區中正路一段16-1號","121.502945","25.2586716666667","6502100","三芝區"
"252001","292-VK","2018/02/13 20:19:31","新北市三芝區中山路一段14號","121.500773333333","25.25797","6502100","三芝區"
"237009","210-TH","2018/02/13 20:19:18","新北市三峽區中山路459巷52-1號","121.356825","24.9361216666667","6500900","三峽區"
"237013","252-BX","2018/02/13 20:19:24","新北市三峽區介壽路二段95號","121.392148333333","24.9354483333333","6500900","三峽區"
"237012","275-BY","2018/02/13 20:19:18","新北市三峽區中華路49號","121.372476666667","24.9307833333333","6500900","三峽區"
"237008","302-VK","2018/02/13 20:19:30","新北市三峽區永安街143號","121.373573333333","24.928185","6500900","三峽區"
"237006","5529-G3","2018/02/13 20:19:15","新北市三峽區溪東路207號","121.404591666667","24.9336083333333","6500900","三峽區"
"237016","649-BX","2018/02/13 20:19:16","新北市三峽區橫溪路99巷71-1號","121.400868333333","24.9376183333333","6500900","三峽區"
"237005","AKY-6261","2018/02/13 20:19:22","新北市三峽區三樹路98巷91號","121.381973333333","24.9399633333333","6500900","三峽區"
"236070","105-UM","2018/02/13 20:19:35","新北市土城區中山路34號","121.424853333333","24.963895","6501300","土城區"
"236079","166-UM","2018/02/13 20:19:36","新北市土城區三民路23巷8弄2號","121.419805","24.9634183333333","6501300","土城區"
"236031","253-BX","2018/02/13 20:19:32","新北市土城區中央路一段45巷2弄1號","121.448478333333","24.9902933333333","6501300","土城區"
"236026","269-VK","2018/02/13 20:19:30","新北市土城區裕生路67巷16號","121.448403333333","24.9842916666667","6501300","土城區"
"236015","270-VK","2018/02/13 20:19:17","新北市土城區廣明街90巷1號","121.454915","24.9943833333333","6501300","土城區"
"236038","271-VK","2018/02/13 20:19:24","新北市土城區明德路一段151號","121.465055","24.9800233333333","6501300","土城區"
"236023","401-BY","2018/02/13 20:19:25","新北市土城區延吉街62號","121.471415","24.9867666666667","6501300","土城區"
"236059","912-UM","2018/02/13 20:19:26","新北市土城區中央路二段191號","121.442176666667","24.975585","6501300","土城區"
"236063","915-UM","2018/02/13 20:19:32","新北市土城區金城路三段73巷9弄3號","121.46613","24.9875983333333","6501300","土城區"
"236055","AAC-216","2018/02/13 20:19:35","新北市土城區城林路6巷59號","121.43774","24.9772733333333","6501300","土城區"
"242029","986-R7","2018/02/13 20:19:24","新北市新莊區中原路319號","121.446575","25.0543466666667","6500500","新莊區"
"242025","615-BX","2018/02/13 20:19:27","新北市新莊區五工三路70巷20號","121.459956666667","25.0654016666667","6500500","新莊區"
"242023","613-BX","2018/02/13 20:19:24","新北市新莊區化成路648號","121.466031666667","25.055615","6500500","新莊區"
"242027","612-BX","2018/02/13 20:19:22","新北市新莊區幸福路789號","121.446546666667","25.0490683333333","6500500","新莊區"
"242039","566-BX","2018/02/13 20:19:17","新北市新莊區龍安路467號","121.425015","25.018455","6500500","新莊區"
"242044","497-BY","2018/02/13 20:19:23","新北市新莊區新北大道七段219號","121.413675","25.030015","6500500","新莊區"
"242048","441-UM","2018/02/13 20:19:21","新北市新莊區四維路152巷47號","121.421823333333","25.0219033333333","6500500","新莊區"
"242054","440-UM","2018/02/13 20:19:17","新北市新莊區民安西路261巷4號","121.426458333333","25.013045","6500500","新莊區"
"242034","415-TV","2018/02/13 20:19:33","新北市新莊區建中街135號","121.445163333333","25.036525","6500500","新莊區"
"242005","413-TV","2018/02/13 20:19:30","新北市新莊區頭興街9巷1號","121.462373333333","25.0534766666667","6500500","新莊區"
"242042","400-BY","2018/02/13 20:19:12","新北市新莊區壽山路75號","121.409455","25.0327016666667","6500500","新莊區"
"242061","362-BY","2018/02/13 20:19:23","新北市新莊區新樹路239號","121.435261666667","25.0223366666667","6500500","新莊區"
"242058","353-BY","2018/02/13 20:19:31","新北市新莊區龍安路280號","121.422366666667","25.0191783333333","6500500","新莊區"
"242007","132-UY","2018/02/13 20:19:26","新北市新莊區福壽街124巷41弄16號","121.459318333333","25.05181","6500500","新莊區"
"242037","133-UY","2018/02/13 20:19:27","新北市新莊區建安街16號","121.428736666667","25.026425","6500500","新莊區"
"242021","135-UY","2018/02/13 20:19:36","新北市新莊區新泰路273號","121.44581","25.0403566666667","6500500","新莊區"
"242046","172-VK","2018/02/13 20:19:24","新北市新莊區裕民街126號","121.41809","25.0225166666667","6500500","新莊區"
"242009","173-VK","2018/02/13 20:19:16","新北市新莊區昌平街28號","121.45478","25.0529066666667","6500500","新莊區"
"242015","175-VK","2018/02/13 20:19:29","新北市新莊區永樂街194號","121.447606666667","25.0445533333333","6500500","新莊區"
"242002","176-VK","2018/02/13 20:19:18","新北市新莊區中正路33號","121.463936666667","25.0409733333333","6500500","新莊區"
"242013","346-TH","2018/02/13 20:19:18","新北市新莊區中和街186巷39號","121.448498333333","25.0499166666667","6500500","新莊區"
"242051","347-TH","2018/02/13 20:19:32","新北市新莊區民安西路172巷4弄1號","121.425341666667","25.0160766666667","6500500","新莊區"
"242019","348-TH","2018/02/13 20:19:17","新北市新莊區長青街29號","121.457176666667","25.0422166666667","6500500","新莊區"
"242056","349-TH","2018/02/13 20:19:25","新北市新莊區新莊路649巷13弄19號","121.445701666667","25.0318933333333","6500500","新莊區"
"242017","350-TH","2018/02/13 20:19:17","新北市新莊區中港一街93號","121.449308333333","25.045295","6500500","新莊區"
"242011","351-TH","2018/02/13 20:19:18","新北市新莊區幸福路710巷8號","121.449845","25.0497616666667","6500500","新莊區"
"238023","601-UM","2018/02/13 20:19:18","新北市樹林區中正路859-1號","121.408908333333","25.018005","6500700","樹林區"
"238022","KEA-2213","2018/02/13 20:19:33","新北市樹林區育德街113號","121.389708333333","24.9682433333333","6500700","樹林區"
"238025","303-VK","2018/02/13 20:19:25","新北市樹林區保安二街37號","121.424846666667","24.99408","6500700","樹林區"
"238017","283-BY","2018/02/13 20:19:24","新北市樹林區保安街二段45巷16號","121.415416666667","25.000175","6500700","樹林區"
"238020","268-VK","2018/02/13 20:19:34","新北市樹林區俊英街123巷2號","121.424418333333","25.01066","6500700","樹林區"
"239005","526-UM","2018/02/13 20:19:30","新北市鶯歌區文化路431號","121.35435","24.9501916666667","6500800","鶯歌區"
"221008","489-VK","2018/02/13 20:19:21","新北市汐止區康寧街145號","121.621793333333","25.0666466666667","6501100","汐止區"
"221036","130-UY","2018/02/13 20:19:25","新北市汐止區福安街59巷13號","121.66445","25.0639933333333","6501100","汐止區"
"221010","269-BY","2018/02/13 20:19:24","新北市汐止區八連路一段179號","121.641693333333","25.07975","6501100","汐止區"
"221012","278-VK","2018/02/13 20:19:36","新北市汐止區保新街283號","121.692773333333","25.0683133333333","6501100","汐止區"
"221023","279-VK","2018/02/13 20:19:22","新北市汐止區明峰街117號","121.631061666667","25.071105","6501100","汐止區"
"221032","280-BY","2018/02/13 20:19:27","新北市汐止區弘道街53巷2號","121.618696666667","25.048395","6501100","汐止區"
"221027","281-BY","2018/02/13 20:19:35","新北市汐止區大同路二段503號","121.661055","25.0687483333333","6501100","汐止區"
"221029","298-VK","2018/02/13 20:19:24","新北市汐止區工建路90號","121.63988","25.063165","6501100","汐止區"
"221021","299-VK","2018/02/13 20:19:22","新北市汐止區水源路一段268號","121.654071666667","25.058845","6501100","汐止區"
"221031","353-TW","2018/02/13 20:19:19","新北市汐止區中興路150巷11號","121.632825","25.0649383333333","6501100","汐止區"
"221035","622-UM","2018/02/13 20:19:19","新北市汐止區長江街97號","121.658153333333","25.072795","6501100","汐止區"
"221025","623-UM","2018/02/13 20:19:16","新北市汐止區水源路二段26號","121.654675","25.0574166666667","6501100","汐止區"
"221038","646-BX","2018/02/13 20:19:34","新北市汐止區忠孝東路482號","121.666401666667","25.0737516666667","6501100","汐止區"
"221033","647-BX","2018/02/13 20:19:26","新北市汐止區東勢街215巷2號","121.634363333333","25.043005","6501100","汐止區"
"221002","707-TV","2018/02/13 20:19:30","新北市汐止區福德二路27號","121.635238333333","25.0679383333333","6501100","汐止區"
"221018","753-BX","2018/02/13 20:19:20","新北市汐止區茄苳路318號","121.673551666667","25.0665266666667","6501100","汐止區"
"220079","145-BY","2018/02/13 20:19:24","新北市板橋區大觀路二段107號","121.446128333333","25.001745","6500100","板橋區"
"220101","245-BX","2018/02/13 20:19:31","新北市板橋區雙十路二段69巷10號","121.474793333333","25.0264766666667","6500100","板橋區"
"220071","283-VK","2018/02/13 20:19:19","新北市板橋區和平路174巷1弄8號","121.464333333333","24.9952316666667","6500100","板橋區"
"220083","286-VK","2018/02/13 20:19:25","新北市板橋區僑中二街90巷20號","121.445348333333","25.00934","6500100","板橋區"
"220081","287-VK","2018/02/13 20:19:16","新北市板橋區僑中一街124巷20弄21號","121.447085","25.01399","6500100","板橋區"
"220061","293-UM","2018/02/13 20:19:31","新北市板橋區中山路一段156號","121.465146666667","25.0117516666667","6500100","板橋區"
"220092","307-R5","2018/02/13 20:19:16","新北市板橋區英士路151號","121.459955","25.02375","6500100","板橋區"
"220064","486-VK","2018/02/13 20:19:30","新北市板橋區實踐路29號","121.46376","25.0071966666667","6500100","板橋區"
"220089","487-VK","2018/02/13 20:19:32","新北市板橋區互助街54號","121.46149","25.0268383333333","6500100","板橋區"
"242032","280-VK","2018/02/13 20:19:35","新北市新莊區公園一路100號","121.443518333333","25.0374416666667","6500500","新莊區"
"220088","491-VK","2018/02/13 20:19:34","新北市板橋區懷德街235巷2-1號","121.481315","25.0283266666667","6500100","板橋區"
"220103","561-BX","2018/02/13 20:19:30","新北市板橋區陽明街279巷12-3號","121.461581666667","25.0259416666667","6500100","板橋區"
"220055","630-UY","2018/02/13 20:19:17","新北市板橋區仁愛路76巷3弄2號","121.460666666667","24.9990566666667","6500100","板橋區"
"220093","689-BX","2018/02/13 20:19:33","新北市板橋區溪頭街2號","121.457378333333","25.028825","6500100","板橋區"
"220054","741-BX","2018/02/13 20:19:34","新北市板橋區忠孝路210號","121.46604","25.002695","6500100","板橋區"
"220067","829-TW","2018/02/13 20:19:32","新北市板橋區中山路一段206巷14號","121.470676666667","25.0126583333333","6500100","板橋區"
"220074","895-R6","2018/02/13 20:19:29","新北市板橋區文化路一段32巷21弄14號","121.460351666667","25.0113483333333","6500100","板橋區"
"220097","AAC-210","2018/02/13 20:19:18","新北市板橋區光正街24號","121.462423333333","25.01725","6500100","板橋區"
"220070","AAC-253","2018/02/13 20:19:24","新北市板橋區德興街33號","121.453496666667","24.993915","6500100","板橋區"
