"lineid","car","time","location","longitude","latitude","cityid","cityname"
"234067","149-BY","2018/02/13 20:39:29","新北市永和區保平路270號","121.508653333333","25.0050833333333","6500400","永和區"
"234007","207-UY","2018/02/13 20:39:24","新北市永和區環河西路二段229巷1號","121.501361666667","25.0099683333333","6500400","永和區"
"234064","337-UY","2018/02/13 20:39:25","新北市永和區中正路342號","121.517961666667","25.0001583333333","6500400","永和區"
"234086","338-UY","2018/02/13 20:39:21","新北市永和區光復街26-1號","121.516581666667","25.01735","6500400","永和區"
"234070","552-UM","2018/02/13 20:39:16","新北市永和區保平路11號","121.5129","25.0075666666667","6500400","永和區"
"234017","745-BX","2018/02/13 20:39:23","新北市永和區仁愛路91號","121.513071666667","25.0129433333333","6500400","永和區"
"234054","KEA-2590","2018/02/13 20:39:25","新北市永和區博愛街15號","121.517145","25.0158616666667","6500400","永和區"
"234061","AAD-866","2018/02/13 20:39:23","新北市永和區得和路55號","121.517048333333","25.000205","6500400","永和區"
"234042","862-TW","2018/02/13 20:39:21","新北市永和區安樂路248-1號","121.514586666667","25.0032683333333","6500400","永和區"
"234050","863-TW","2018/02/13 20:39:22","新北市永和區保安路286號","121.505021666667","25.0122416666667","6500400","永和區"
"249001","173-UM","2018/02/13 20:39:27","新北市八里區下罟子23號","121.376401666667","25.1387483333333","6502300","八里區"
"249004","303-UY","2018/02/13 20:39:29","新北市八里區中山路一段153號","121.412661666667","25.1588366666667","6502300","八里區"
"249002","305-UY","2018/02/13 20:39:30","新北市八里區龍米路二段140巷136號","121.438411666667","25.154585","6502300","八里區"
"248004","677-BX","2018/02/13 20:15:06","新北市五股區中興路二段37巷26號","121.460343333333","25.0749616666667","6501500","五股區"
"248010","682-TV","2018/02/13 20:39:25","新北市五股區新五路二段2巷6號","121.438385","25.0665516666667","6501500","五股區"
"234074","AAC-211","2018/02/13 20:39:28","新北市永和區竹林路191巷3號","121.520955","25.0095066666667","6500400","永和區"
"234003","AAC-295","2018/02/13 20:39:29","新北市永和區大新街51號","121.515783333333","25.0083933333333","6500400","永和區"
"243011","267-VK","2018/02/13 20:39:29","新北市泰山區壽山路134巷22號","121.41841","25.0310516666667","6501600","泰山區"
"243015","380-SR","2018/02/13 20:39:24","新北市泰山區明志路二段237巷22號","121.427866666667","25.047835","6501600","泰山區"
"243014","421-VK","2018/02/13 20:39:24","新北市泰山區泰林路二段513號","121.424236666667","25.06381","6501600","泰山區"
"243012","539-UM","2018/02/13 20:39:21","新北市泰山區楓江路135-2號","121.439666666667","25.064945","6501600","泰山區"
"243009","KEA-2216","2018/02/13 20:39:28","新北市泰山區忠孝街16巷11號","121.427993333333","25.0651866666667","6501600","泰山區"
"222001","016-RS","2018/02/13 20:39:19","新北市深坑區北深路三段234號","121.60068","25.0041166666667","6501800","深坑區"
"222003","436-BY","2018/02/13 20:39:18","新北市深坑區深坑街164號","121.612745","25.0011416666667","6501800","深坑區"
"222002","659-BX","2018/02/13 20:39:22","新北市深坑區萬福路45號","121.599455","25.00686","6501800","深坑區"
"231041","002-UM","2018/02/13 20:39:33","新北市新店區中正路545號","121.533753333333","24.9876483333333","6500600","新店區"
"231059","046-UY","2018/02/13 20:39:30","新北市新店區僑愛七路20號","121.501633333333","24.9446466666667","6500600","新店區"
"231061","047-UY","2018/02/13 20:39:22","新北市新店區新和街54號","121.519735","24.9852316666667","6500600","新店區"
"231060","106-UY","2018/02/13 20:39:26","新北市新店區錦秀路1-3號","121.479151666667","24.9453933333333","6500600","新店區"
"231051","107-UY","2018/02/13 20:39:23","新北市新店區中央六街39號","121.528711666667","24.9754066666667","6500600","新店區"
"231048","108-UY","2018/02/13 20:39:23","新北市新店區寶慶街74號","121.541658333333","24.9867566666667","6500600","新店區"
"231068","110-UY","2018/02/13 20:39:35","新北市新店區寶慶街58巷2號","121.542101666667","24.9866466666667","6500600","新店區"
"231053","187-VK","2018/02/13 20:39:33","新北市新店區松林路7號","121.54713","24.911195","6500600","新店區"
"231050","KEA-2219","2018/02/13 20:39:20","新北市新店區建安街15巷1號","121.53976","24.9754166666667","6500600","新店區"
"221015","KEA-2785","2018/02/13 20:39:32","新北市汐止區建成路52號","121.663733333333","25.07285","6501100","汐止區"
"231057","256-BX","2018/02/13 20:39:23","新北市新店區花園六路二段1號","121.554063333333","24.9337216666667","6500600","新店區"
"231034","268-BY","2018/02/13 20:39:25","新北市新店區玫瑰路4-2號","121.493843333333","24.9513466666667","6500600","新店區"
"231054","AAD-862","2018/02/13 20:39:20","新北市新店區行政街23號","121.543","24.9664166666667","6500600","新店區"
"231058","3712-VJ","2018/02/13 20:39:25","新北市新店區平等街13號","121.53693","24.973995","6500600","新店區"
"231056","3713-VJ","2018/02/13 20:39:32","新北市新店區中正路328巷12號","121.537393333333","24.9754466666667","6500600","新店區"
"231067","4772-VM","2018/02/13 20:39:31","新北市新店區安康路二段320巷15弄18號","121.50216","24.9588533333333","6500600","新店區"
"231064","515-UM","2018/02/13 20:39:28","新北市新店區安和路三段173號","121.515893333333","24.986245","6500600","新店區"
"231042","616-UM","2018/02/13 20:39:23","新北市新店區寶高路120巷1號","121.554623333333","24.9760416666667","6500600","新店區"
"231040","619-UM","2018/02/13 20:39:30","新北市新店區中正路263巷12號","121.53811","24.973065","6500600","新店區"
"231049","719-UM","2018/02/13 20:39:19","新北市新店區永業路81巷11弄1號","121.53122","24.9502816666667","6500600","新店區"
"231065","719-UY","2018/02/13 20:39:28","新北市新店區安祥路102巷19號","121.484653333333","24.9645533333333","6500600","新店區"
"231062","720-UM","2018/02/13 20:39:23","新北市新店區安泰路60巷55弄125號","121.48458","24.94663","6500600","新店區"
"231044","897-TW","2018/02/13 20:39:17","新北市新店區建國路297號","121.536951666667","24.9863983333333","6500600","新店區"
"231045","898-TW","2018/02/13 20:39:34","新北市新店區長春路167號","121.558221666667","24.96181","6500600","新店區"
"231043","899-TW","2018/02/13 20:39:18","新北市新店區建國路62號","121.54064","24.97575","6500600","新店區"
"231066","AKT-0513","2018/02/13 20:39:23","新北市新店區安興路105-1號","121.514675","24.97775","6500600","新店區"
"241028","022-UY","2018/02/13 20:39:17","新北市三重區光興街91號","121.4974","25.05996","6500200","三重區"
"241031","061-VK","2018/02/13 20:39:19","新北市三重區重陽路一段113巷1弄49號","121.48806","25.0585783333333","6500200","三重區"
"241015","062-VK","2018/02/13 20:39:32","新北市三重區雙園街1號","121.497743333333","25.0684183333333","6500200","三重區"
"241017","063-VK","2018/02/13 20:39:31","新北市三重區重陽路三段5巷8弄31號","121.490216666667","25.066205","6500200","三重區"
"241026","066-VK","2018/02/13 20:39:28","新北市三重區福德南路8巷7號","121.50321","25.0634933333333","6500200","三重區"
"241002","090-VK","2018/02/13 20:39:28","新北市三重區仁義街167巷40號","121.498763333333","25.0826216666667","6500200","三重區"
"241016","265-UM","2018/02/13 20:39:26","新北市三重區自強路一段143號","121.494663333333","25.06685","6500200","三重區"
"241022","267-UM","2018/02/13 20:39:21","新北市三重區中山路33巷27-5號","121.487965","25.06206","6500200","三重區"
"241018","268-UM","2018/02/13 20:39:17","新北市三重區雙園街43號","121.495298333333","25.06778","6500200","三重區"
"241032","269-UM","2018/02/13 20:39:27","新北市三重區重陽路一段26巷39號","121.484923333333","25.0574533333333","6500200","三重區"
"241013","270-UM","2018/02/13 20:39:26","新北市三重區三和路三段151巷38號","121.493326666667","25.07419","6500200","三重區"
"241025","271-UM","2018/02/13 20:39:29","新北市三重區中正北路428巷66號","121.474618333333","25.06846","6500200","三重區"
"241020","413-TH","2018/02/13 20:39:35","新北市三重區三和路四段20巷63號","121.489556666667","25.0735733333333","6500200","三重區"
"241004","475-VK","2018/02/13 20:39:23","新北市三重區溪尾街192號","121.488221666667","25.0809016666667","6500200","三重區"
"241014","543-UM","2018/02/13 20:39:16","新北市三重區長興街44號","121.50057","25.0689333333333","6500200","三重區"
"241023","545-UM","2018/02/13 20:39:31","新北市三重區自由街25號","121.479465","25.0666733333333","6500200","三重區"
"241035","743-BX","2018/02/13 20:39:31","新北市三重區正義北路220-1號","121.49621","25.0677216666667","6500200","三重區"
"241003","887-TS","2018/02/13 20:39:20","新北市三重區五華街103號","121.491756666667","25.0839116666667","6500200","三重區"
"241033","AAC-255","2018/02/13 20:39:26","新北市三重區光復路二段28號","121.472086666667","25.0543866666667","6500200","三重區"
"235038","185-VK","2018/02/13 20:39:31","新北市中和區自強路2號","121.52032","24.9961583333333","6500300","中和區"
"235068","377-QA","2018/02/13 20:39:22","新北市中和區莊敬路16巷15弄2號","121.500203333333","25.0036716666667","6500300","中和區"
"235050","4979-A6","2018/02/13 20:39:34","新北市中和區景新街129號","121.50576","24.99728","6500300","中和區"
"235069","4980-A6","2018/02/13 20:39:28","新北市中和區中正路304號","121.493973333333","24.9940283333333","6500300","中和區"
"235042","551-UM","2018/02/13 20:39:33","新北市中和區景安路79巷5號","121.506871666667","24.997245","6500300","中和區"
"235059","AAC-215","2018/02/13 20:39:35","新北市中和區員山路36巷8-1號","121.483283333333","24.9909983333333","6500300","中和區"
"220083","015-TV","2018/02/13 20:39:18","新北市板橋區忠孝路201巷116號","121.464646666667","25.00516","6500100","板橋區"
"247022","893-R6","2018/02/13 20:39:22","新北市蘆洲區中正路243巷7弄50號","121.467691666667","25.08551","6501400","蘆洲區"
"247012","546-UM","2018/02/13 20:39:24","新北市蘆洲區中興街130號","121.48223","25.0893316666667","6501400","蘆洲區"
"247020","500-BY","2018/02/13 20:39:35","新北市蘆洲區民族路331-22號","121.47366","25.0917083333333","6501400","蘆洲區"
"247008","341-TH","2018/02/13 20:39:16","新北市蘆洲區重陽街54號","121.48158","25.08344","6501400","蘆洲區"
"247010","339-TH","2018/02/13 20:39:18","新北市蘆洲區集賢路406號","121.480178333333","25.081885","6501400","蘆洲區"
"247002","337-TH","2018/02/13 20:39:29","新北市蘆洲區長安街361巷3號","121.456961666667","25.0872966666667","6501400","蘆洲區"
"247004","336-TH","2018/02/13 20:39:15","新北市蘆洲區長安街299巷25號","121.45693","25.0845683333333","6501400","蘆洲區"
"247002","335-TH","2018/02/13 20:39:27","新北市蘆洲區三民路589號","121.461268333333","25.0933516666667","6501400","蘆洲區"
"247016","057-VK","2018/02/13 20:39:22","新北市蘆洲區中山二路130號","121.471655","25.0817966666667","6501400","蘆洲區"
"247006","056-VK","2018/02/13 20:39:17","新北市蘆洲區和平路209號","121.465781666667","25.0817183333333","6501400","蘆洲區"
"247014","007-UY","2018/02/13 20:39:25","新北市蘆洲區中山一路198號","121.473655","25.080835","6501400","蘆洲區"
"247024","002-UY","2018/02/13 20:39:33","新北市蘆洲區長樂路27號","121.463478333333","25.0853283333333","6501400","蘆洲區"
"247018","001-UY","2018/02/13 20:39:30","新北市蘆洲區民權路74號","121.474918333333","25.08744","6501400","蘆洲區"
"222001","KEA-2212","2018/02/13 20:39:27","新北市深坑區北深路三段6號","121.611275","25.0010966666667","6501800","深坑區"
"251009","008-UM","2018/02/13 20:39:29","新北市淡水區民族路112巷74號","121.461605","25.1338366666667","6501000","淡水區"
"251013","179-VK","2018/02/13 20:39:25","新北市淡水區下圭柔山28巷10號","121.457445","25.2040833333333","6501000","淡水區"
"251014","180-VK","2018/02/13 20:39:20","新北市淡水區桂竹圍10-1號","121.470673333333","25.23142","6501000","淡水區"
"251015","182-VK","2018/02/13 20:39:37","新北市淡水區興仁路162號","121.451578333333","25.22073","6501000","淡水區"
"251010","413-VK","2018/02/13 20:39:26","新北市淡水區沙崙路181巷15號","121.423946666667","25.1844183333333","6501000","淡水區"
"251012","441-VK","2018/02/13 20:39:25","新北市淡水區興仁路108號","121.451665","25.21816","6501000","淡水區"
"251016","442-VK","2018/02/13 20:39:21","新北市淡水區後洲子8-2號","121.449571666667","25.2240283333333","6501000","淡水區"
"251001","559-UM","2018/02/13 20:39:30","新北市淡水區淡金路73號","121.456061666667","25.161745","6501000","淡水區"
"251006","561-UM","2018/02/13 20:39:15","新北市淡水區商工路196巷2號","121.451126666667","25.1873533333333","6501000","淡水區"
"251011","650-BX","2018/02/13 20:39:17","新北市淡水區新市一路一段361號","121.436248333333","25.1862","6501000","淡水區"
"251002","672-BX","2018/02/13 20:39:34","新北市淡水區中正路38-1號","121.443701666667","25.1692366666667","6501000","淡水區"
"251003","673-BX","2018/02/13 20:39:21","新北市淡水區新民街120巷1號","121.437896666667","25.1778066666667","6501000","淡水區"
"252002","178-VK","2018/02/13 20:39:21","新北市三芝區淡金路二段47-2號","121.503608333333","25.2606616666667","6502100","三芝區"
"252001","292-VK","2018/02/13 20:39:31","新北市三芝區長安街25號","121.501655","25.256045","6502100","三芝區"
"237009","210-TH","2018/02/13 20:38:58","新北市樹林區中山路三段214號","121.379946666667","24.9678266666667","6500900","三峽區"
"237008","302-VK","2018/02/13 20:39:30","新北市三峽區安溪路340號","121.3701","24.9266733333333","6500900","三峽區"
"237006","5529-G3","2018/02/13 20:39:15","新北市三峽區正義街59巷16號","121.370036666667","24.9184116666667","6500900","三峽區"
"237016","649-BX","2018/02/13 20:39:36","新北市三峽區介壽路二段138巷1弄98-4號","121.398725","24.932365","6500900","三峽區"
"236023","401-BY","2018/02/13 20:39:31","新北市土城區金城路三段206巷23號","121.47207","24.988905","6501300","土城區"
"242029","986-R7","2018/02/13 20:39:24","新北市新莊區中華路二段186號","121.453263333333","25.0514416666667","6500500","新莊區"
"242025","615-BX","2018/02/13 20:39:27","新北市新莊區五工二路51號","121.460871666667","25.0652016666667","6500500","新莊區"
"242023","613-BX","2018/02/13 20:39:20","新北市新莊區化成路812號","121.465021666667","25.0596733333333","6500500","新莊區"
"242027","612-BX","2018/02/13 20:39:22","新北市新莊區幸福路14號","121.459098333333","25.0494733333333","6500500","新莊區"
"242039","566-BX","2018/02/13 20:39:17","新北市新莊區民安路296號","121.42816","25.0217816666667","6500500","新莊區"
"242044","497-BY","2018/02/13 20:39:23","新北市新莊區中正路895-45號","121.412248333333","25.0213033333333","6500500","新莊區"
"242048","441-UM","2018/02/13 20:39:21","新北市新莊區龍安路266巷24號","121.421025","25.0188483333333","6500500","新莊區"
"242034","415-TV","2018/02/13 20:39:33","新北市新莊區中正路330號","121.445928333333","25.0348383333333","6500500","新莊區"
"242042","400-BY","2018/02/13 20:39:32","新北市新莊區中正路694巷1弄4號","121.41854","25.028275","6500500","新莊區"
"242061","362-BY","2018/02/13 20:39:23","新北市新莊區新樹路244巷18號","121.431613333333","25.0182616666667","6500500","新莊區"
"242058","353-BY","2018/02/13 20:39:31","新北市新莊區四維路177號","121.422305","25.02137","6500500","新莊區"
"242007","132-UY","2018/02/13 20:39:26","新北市新莊區思源路287巷1弄7號","121.45939","25.0480383333333","6500500","新莊區"
"242021","135-UY","2018/02/13 20:39:16","新北市新莊區公園路80號","121.45016","25.03965","6500500","新莊區"
"242046","172-VK","2018/02/13 20:39:24","新北市新莊區中正路新雅巷2弄20號","121.41769","25.024885","6500500","新莊區"
"242009","173-VK","2018/02/13 20:39:36","新北市新莊區昌隆街102號","121.456575","25.0507383333333","6500500","新莊區"
"242015","175-VK","2018/02/13 20:39:29","新北市新莊區中平路64號","121.444811666667","25.0443216666667","6500500","新莊區"
"242002","176-VK","2018/02/13 20:39:18","新北市新莊區中正路71號","121.461253333333","25.0395","6500500","新莊區"
"242013","346-TH","2018/02/13 20:39:18","新北市新莊區中平路292巷1弄5號","121.44571","25.0516733333333","6500500","新莊區"
"242051","347-TH","2018/02/13 20:39:32","新北市新莊區民安西路252巷31號","121.42508","25.0137566666667","6500500","新莊區"
"242019","348-TH","2018/02/13 20:39:35","新北市新莊區銘德街36號","121.458156666667","25.0438183333333","6500500","新莊區"
"242056","349-TH","2018/02/13 20:39:25","新北市新莊區瓊泰路150號","121.443328333333","25.0323316666667","6500500","新莊區"
"242017","350-TH","2018/02/13 20:39:17","新北市新莊區中港三街107號","121.448916666667","25.04612","6500500","新莊區"
"242011","351-TH","2018/02/13 20:39:18","新北市新莊區中義街51號","121.449241666667","25.0510816666667","6500500","新莊區"
"238023","601-UM","2018/02/13 20:39:30","新北市樹林區三福街121巷13號","121.406145","25.015665","6500700","樹林區"
"238025","303-VK","2018/02/13 20:39:25","新北市樹林區中山路二段162號","121.412053333333","24.9829033333333","6500700","樹林區"
"238020","268-VK","2018/02/13 20:39:34","新北市樹林區俊英街8號","121.429525","25.0006966666667","6500700","樹林區"
"221008","489-VK","2018/02/13 20:39:21","新北市汐止區康寧街861巷3號","121.64533","25.076125","6501100","汐止區"
"221036","130-UY","2018/02/13 20:39:25","新北市汐止區新昌路7號","121.662068333333","25.06721","6501100","汐止區"
"221010","269-BY","2018/02/13 20:39:24","新北市汐止區八連路二段610巷17號","121.62421","25.1116183333333","6501100","汐止區"
"221023","279-VK","2018/02/13 20:39:22","新北市汐止區民族二街30巷21號","121.633895","25.0716383333333","6501100","汐止區"
"221032","280-BY","2018/02/13 20:39:27","新北市汐止區橫科路52巷14弄2號","121.6188","25.0500933333333","6501100","汐止區"
"221027","281-BY","2018/02/13 20:39:35","新北市汐止區中正路165號","121.65926","25.069105","6501100","汐止區"
"221029","298-VK","2018/02/13 20:39:31","新北市汐止區大同路一段513號","121.645391666667","25.0621616666667","6501100","汐止區"
"221021","299-VK","2018/02/13 20:39:22","新北市汐止區水源路一段291巷5號","121.654521666667","25.0584083333333","6501100","汐止區"
"221031","353-TW","2018/02/13 20:39:18","新北市汐止區中興路106號","121.633743333333","25.0631733333333","6501100","汐止區"
"221035","622-UM","2018/02/13 20:39:19","新北市汐止區長江街101-5號","121.658713333333","25.0731766666667","6501100","汐止區"
"221025","623-UM","2018/02/13 20:39:36","新北市汐止區水源路二段86號","121.656436666667","25.0560433333333","6501100","汐止區"
"221038","646-BX","2018/02/13 20:39:34","新北市汐止區水源路一段72號","121.656843333333","25.0652616666667","6501100","汐止區"
"221033","647-BX","2018/02/13 20:39:26","台北市南港區合順街8巷7弄38號","121.620243333333","25.0418933333333","6501100","汐止區"
"221002","707-TV","2018/02/13 20:39:30","新北市汐止區福德二路125巷1號","121.631426666667","25.0651766666667","6501100","汐止區"
"221018","753-BX","2018/02/13 20:39:20","新北市汐止區茄苳路225巷11弄29號","121.670635","25.0699333333333","6501100","汐止區"
"220079","145-BY","2018/02/13 20:39:24","新北市樹林區中山路三段214號","121.37998","24.9677366666667","6500100","板橋區"
"220083","286-VK","2018/02/13 20:39:25","新北市板橋區僑中二街104巷15號","121.445348333333","25.0079733333333","6500100","板橋區"
"220061","293-UM","2018/02/13 20:39:31","新北市板橋區四川路一段387號","121.457996666667","24.999375","6500100","板橋區"
"220089","487-VK","2018/02/13 20:39:31","新北市板橋區四維路321號","121.462755","25.0290616666667","6500100","板橋區"
"220074","895-R6","2018/02/13 20:39:29","新北市板橋區溪城路89號","121.427033333333","24.9832266666667","6500100","板橋區"
"220070","AAC-253","2018/02/13 20:39:24","新北市板橋區大觀路一段29巷59-5號","121.451683333333","25.0073783333333","6500100","板橋區"
