"lineid","car","time","location","longitude","latitude","cityid","cityname"
"234067","149-BY","2018/02/13 20:49:29","新北市永和區保平路268巷51弄4號","121.50696","25.006245","6500400","永和區"
"234064","337-UY","2018/02/13 20:49:25","新北市永和區中正路526號","121.517231666667","25.004955","6500400","永和區"
"234086","338-UY","2018/02/13 20:49:21","新北市永和區竹林路75巷4弄34號","121.521673333333","25.01402","6500400","永和區"
"234054","KEA-2590","2018/02/13 20:49:25","新北市永和區光復街4號","121.516503333333","25.0167333333333","6500400","永和區"
"234061","AAD-866","2018/02/13 20:49:23","新北市永和區安樂路194巷39弄2號","121.516506666667","25.001305","6500400","永和區"
"234081","847-RS","2018/02/13 20:49:15","新北市永和區永貞路19號","121.521135","25.0070266666667","6500400","永和區"
"234042","862-TW","2018/02/13 20:49:21","新北市永和區安樂路342號","121.514558333333","25.0061566666667","6500400","永和區"
"234050","863-TW","2018/02/13 20:49:31","新北市永和區新生路77號","121.50861","25.0160883333333","6500400","永和區"
"234023","9381-KE","2018/02/13 20:49:27","新北市永和區中正路662巷25號","121.517615","25.008875","6500400","永和區"
"249004","303-UY","2018/02/13 20:49:29","新北市八里區中山路一段63號","121.41845","25.1595883333333","6502300","八里區"
"234074","AAC-211","2018/02/13 20:49:28","新北市永和區竹林路201巷24弄1號","121.522228333333","25.0096683333333","6500400","永和區"
"234003","AAC-295","2018/02/13 20:49:28","新北市永和區中正路618號","121.517093333333","25.0076883333333","6500400","永和區"
"244018","402-UM","2018/02/13 20:49:34","新北市林口區粉寮路二段160巷28號","121.40513","25.0907933333333","6501700","林口區"
"243011","267-VK","2018/02/13 20:49:29","新北市泰山區新北大道六段293號","121.42435","25.03408","6501600","泰山區"
"243015","380-SR","2018/02/13 20:49:30","新北市泰山區明志路二段81號","121.428795","25.052365","6501600","泰山區"
"243014","421-VK","2018/02/13 20:49:24","新北市泰山區橫窠雅36號","121.403168333333","25.0733366666667","6501600","泰山區"
"243012","539-UM","2018/02/13 20:49:20","新北市泰山區楓江路121號","121.439086666667","25.0645666666667","6501600","泰山區"
"243009","KEA-2216","2018/02/13 20:49:28","新北市泰山區泰林路二段542巷1弄15號","121.423035","25.0639116666667","6501600","泰山區"
"222001","016-RS","2018/02/13 20:49:33","新北市深坑區北深路三段165-1號","121.602133333333","25.0034383333333","6501800","深坑區"
"222003","436-BY","2018/02/13 20:49:18","新北市深坑區阿柔洋40號","121.610303333333","24.9984816666667","6501800","深坑區"
"222002","659-BX","2018/02/13 20:49:36","新北市深坑區北深路三段93巷61號","121.603965","25.0008533333333","6501800","深坑區"
"231041","002-UM","2018/02/13 20:49:33","台北市文山區景文街146巷26號","121.533385","24.9917883333333","6500600","新店區"
"231059","046-UY","2018/02/13 20:49:30","新北市新店區僑信路102巷42號","121.498801666667","24.9468566666667","6500600","新店區"
"231061","047-UY","2018/02/13 20:49:22","新北市新店區永安街93-6號","121.520721666667","24.986625","6500600","新店區"
"231060","106-UY","2018/02/13 20:49:26","新北市新店區安康路三段740號","121.473853333333","24.941905","6500600","新店區"
"231051","107-UY","2018/02/13 20:49:23","新北市新店區中央五街59號","121.527491666667","24.9755683333333","6500600","新店區"
"231048","108-UY","2018/02/13 20:49:23","新北市新店區寶元路一段109號","121.545725","24.9831466666667","6500600","新店區"
"231068","110-UY","2018/02/13 20:49:15","新北市新店區寶元路一段84巷1號","121.544515","24.9837266666667","6500600","新店區"
"231053","187-VK","2018/02/13 20:49:33","新北市新店區松林路36號","121.546101666667","24.91026","6500600","新店區"
"231050","KEA-2219","2018/02/13 20:49:20","新北市新店區中正路247巷27弄2號","121.538391666667","24.972265","6500600","新店區"
"221015","KEA-2785","2018/02/13 20:49:32","新北市汐止區大同路二段607號","121.664006666667","25.07079","6501100","汐止區"
"231057","256-BX","2018/02/13 20:49:23","新北市新店區花園二路一段9-6號","121.556313333333","24.93283","6500600","新店區"
"231034","268-BY","2018/02/13 20:49:25","新北市新店區如意街11-1號","121.495031666667","24.9483616666667","6500600","新店區"
"231054","AAD-862","2018/02/13 20:49:19","新北市新店區北新路一段126巷25號","121.54339","24.9696466666667","6500600","新店區"
"231058","3712-VJ","2018/02/13 20:49:26","新北市新店區三民路155-1號","121.53389","24.9734233333333","6500600","新店區"
"231056","3713-VJ","2018/02/13 20:49:32","新北市新店區中正路309號","121.536645","24.9749866666667","6500600","新店區"
"231067","4772-VM","2018/02/13 20:49:31","新北市新店區安德街117號","121.509335","24.960625","6500600","新店區"
"231064","515-UM","2018/02/13 20:49:28","新北市新店區永平街10號","121.51718","24.9835983333333","6500600","新店區"
"231042","616-UM","2018/02/13 20:49:23","新北市新店區寶橋路98號","121.547161666667","24.9758833333333","6500600","新店區"
"231040","619-UM","2018/02/13 20:49:30","新北市新店區中正路276號","121.538811666667","24.9736083333333","6500600","新店區"
"231049","719-UM","2018/02/13 20:49:19","新北市新店區華城路5-3號","121.52925","24.9579633333333","6500600","新店區"
"231065","719-UY","2018/02/13 20:49:29","新北市新店區安祥路104巷35號","121.482226666667","24.96331","6500600","新店區"
"231062","720-UM","2018/02/13 20:49:23","新北市新店區和成街19巷45號","121.488398333333","24.9459366666667","6500600","新店區"
"231044","897-TW","2018/02/13 20:49:15","新北市新店區民族路161號","121.537755","24.97686","6500600","新店區"
"231045","898-TW","2018/02/13 20:49:34","新北市新店區新坡一街102號","121.547681666667","24.9639933333333","6500600","新店區"
"231043","899-TW","2018/02/13 20:49:18","新北市新店區博愛街13巷24號","121.540246666667","24.9740566666667","6500600","新店區"
"231066","AKT-0513","2018/02/13 20:49:23","新北市新店區安興路105-1號","121.514626666667","24.9777","6500600","新店區"
"241028","022-UY","2018/02/13 20:49:17","新北市三重區中正南路41巷1號","121.4939","25.05983","6500200","三重區"
"241009","060-VK","2018/02/13 20:49:26","新北市三重區三和路四段382巷125號","121.479695","25.07819","6500200","三重區"
"241031","061-VK","2018/02/13 20:49:18","新北市三重區重陽路一段113巷2弄2號","121.487538333333","25.0598516666667","6500200","三重區"
"241015","062-VK","2018/02/13 20:49:32","新北市三重區三和路二段172號","121.499015","25.0686166666667","6500200","三重區"
"241017","063-VK","2018/02/13 20:49:31","新北市三重區自強路一段284號","121.491648333333","25.068","6500200","三重區"
"241026","066-VK","2018/02/13 20:49:28","新北市三重區重新路二段36巷33號","121.499901666667","25.062285","6500200","三重區"
"241002","090-VK","2018/02/13 20:49:28","新北市三重區仁義街161-4號","121.496993333333","25.0813983333333","6500200","三重區"
"241016","265-UM","2018/02/13 20:49:26","新北市三重區自強路一段220號","121.494093333333","25.066615","6500200","三重區"
"241022","267-UM","2018/02/13 20:49:21","新北市三重區中正北路20巷12號","121.487991666667","25.0625066666667","6500200","三重區"
"241018","268-UM","2018/02/13 20:49:17","新北市三重區自強路一段272號","121.492236666667","25.0678366666667","6500200","三重區"
"241032","269-UM","2018/02/13 20:49:27","新北市三重區重陽路一段20巷12號","121.485905","25.0575366666667","6500200","三重區"
"241013","270-UM","2018/02/13 20:49:26","新北市三重區三和路三段167巷33號","121.493073333333","25.0744283333333","6500200","三重區"
"241025","271-UM","2018/02/13 20:49:28","新北市三重區中正北路310號","121.47936","25.0689016666667","6500200","三重區"
"241007","398-BY","2018/02/13 20:49:25","新北市三重區溪尾街154號","121.488818333333","25.0799983333333","6500200","三重區"
"241020","413-TH","2018/02/13 20:49:14","新北市三重區自強路四段1號","121.488448333333","25.0758066666667","6500200","三重區"
"241004","475-VK","2018/02/13 20:49:23","新北市三重區仁愛街409號","121.490748333333","25.0811533333333","6500200","三重區"
"241014","543-UM","2018/02/13 20:49:16","新北市三重區萬壽街42號","121.500235","25.0696183333333","6500200","三重區"
"241023","545-UM","2018/02/13 20:49:31","新北市三重區忠孝路三段52號","121.480663333333","25.0658783333333","6500200","三重區"
"241001","547-UM","2018/02/13 20:49:30","新北市三重區自強路三段110巷21號","121.486013333333","25.0745716666667","6500200","三重區"
"241035","743-BX","2018/02/13 20:49:31","新北市三重區三和路三段106號","121.494058333333","25.0722133333333","6500200","三重區"
"241003","887-TS","2018/02/13 20:49:20","新北市三重區富華街220號","121.493528333333","25.0853066666667","6500200","三重區"
"241033","AAC-255","2018/02/13 20:49:26","新北市三重區重光街107-2號","121.466391666667","25.0648716666667","6500200","三重區"
"235068","377-QA","2018/02/13 20:49:22","新北市中和區景平路736巷5弄4號","121.497581666667","25.00341","6500300","中和區"
"235069","4980-A6","2018/02/13 20:49:28","新北市中和區中正路434號","121.491346666667","24.994235","6500300","中和區"
"235042","551-UM","2018/02/13 20:49:33","新北市中和區南山路67號","121.502086666667","24.9982633333333","6500300","中和區"
"247022","893-R6","2018/02/13 20:49:22","新北市蘆洲區保和街50-1號","121.469501666667","25.0861816666667","6501400","蘆洲區"
"247012","546-UM","2018/02/13 20:49:24","新北市蘆洲區復興路318號","121.481826666667","25.090115","6501400","蘆洲區"
"247020","500-BY","2018/02/13 20:49:35","新北市蘆洲區仁愛街75號","121.47142","25.0938066666667","6501400","蘆洲區"
"247008","341-TH","2018/02/13 20:49:36","新北市蘆洲區永安北路二段12巷10號","121.480605","25.0812066666667","6501400","蘆洲區"
"247010","339-TH","2018/02/13 20:49:18","新北市蘆洲區鷺江街76號","121.477025","25.0837883333333","6501400","蘆洲區"
"247002","337-TH","2018/02/13 20:49:29","新北市蘆洲區長榮路345號","121.45952","25.0876383333333","6501400","蘆洲區"
"247004","336-TH","2018/02/13 20:49:35","新北市蘆洲區長安街158號","121.45954","25.0827233333333","6501400","蘆洲區"
"247002","335-TH","2018/02/13 20:49:31","新北市蘆洲區環堤大道110號","121.455348333333","25.0867216666667","6501400","蘆洲區"
"247016","057-VK","2018/02/13 20:49:22","新北市蘆洲區中山二路236號","121.469641666667","25.0795433333333","6501400","蘆洲區"
"247006","056-VK","2018/02/13 20:49:17","新北市蘆洲區和平路121巷8弄38號","121.466216666667","25.0805283333333","6501400","蘆洲區"
"247014","007-UY","2018/02/13 20:49:25","新北市蘆洲區復興路56號","121.472873333333","25.0855066666667","6501400","蘆洲區"
"247024","002-UY","2018/02/13 20:49:33","新北市蘆洲區長樂路140號","121.462151666667","25.0902416666667","6501400","蘆洲區"
"247018","001-UY","2018/02/13 20:49:31","新北市蘆洲區民權路74號","121.47492","25.0874366666667","6501400","蘆洲區"
"251009","008-UM","2018/02/13 20:49:29","新北市淡水區民族路112巷74號","121.461601666667","25.1337683333333","6501000","淡水區"
"251013","179-VK","2018/02/13 20:49:25","新北市淡水區行忠路167號","121.456651666667","25.20131","6501000","淡水區"
"251014","180-VK","2018/02/13 20:49:20","新北市淡水區公埔子32-8號","121.461663333333","25.2323866666667","6501000","淡水區"
"251015","182-VK","2018/02/13 20:49:17","新北市淡水區興仁路162號","121.451593333333","25.2207516666667","6501000","淡水區"
"251010","413-VK","2018/02/13 20:49:26","新北市淡水區沙崙路141-1號","121.423276666667","25.183105","6501000","淡水區"
"251012","441-VK","2018/02/13 20:49:25","新北市淡水區興仁路165號","121.451581666667","25.2200283333333","6501000","淡水區"
"251016","442-VK","2018/02/13 20:49:21","新北市淡水區淡金路四段469號","121.451753333333","25.2238683333333","6501000","淡水區"
"251005","443-VK","2018/02/13 20:49:18","新北市淡水區水源街二段174號","121.455686666667","25.1756033333333","6501000","淡水區"
"251001","559-UM","2018/02/13 20:49:24","新北市淡水區淡金路218號","121.460511666667","25.1671916666667","6501000","淡水區"
"251011","650-BX","2018/02/13 20:49:17","新北市淡水區新民街一段13-1號","121.432993333333","25.1845966666667","6501000","淡水區"
"251002","672-BX","2018/02/13 20:49:17","新北市淡水區英專路38號","121.445633333333","25.170185","6501000","淡水區"
"251003","673-BX","2018/02/13 20:49:22","新北市淡水區新興街121巷47號","121.440921666667","25.1796483333333","6501000","淡水區"
"252002","178-VK","2018/02/13 20:49:21","新北市三芝區淡金路二段76-2號","121.504075","25.2609816666667","6502100","三芝區"
"237006","5529-G3","2018/02/13 20:49:35","新北市三峽區大利路20號","121.366945","24.9116766666667","6500900","三峽區"
"237016","649-BX","2018/02/13 20:49:16","新北市三峽區介壽路二段153-1號","121.393551666667","24.9358333333333","6500900","三峽區"
"242029","986-R7","2018/02/13 20:49:23","新北市新莊區昌平街31巷9號","121.454256666667","25.051365","6500500","新莊區"
"242025","615-BX","2018/02/13 20:49:27","新北市新莊區化成路533號","121.465078333333","25.064125","6500500","新莊區"
"242023","613-BX","2018/02/13 20:49:20","新北市新莊區化成路964號","121.46503","25.063155","6500500","新莊區"
"242027","612-BX","2018/02/13 20:49:22","新北市新莊區思源路38號","121.459881666667","25.042645","6500500","新莊區"
"242039","566-BX","2018/02/13 20:49:37","新北市新莊區新樹路168號","121.434793333333","25.0223666666667","6500500","新莊區"
"242044","497-BY","2018/02/13 20:49:29","新北市新莊區中正路893巷8號","121.413415","25.0209133333333","6500500","新莊區"
"242034","415-TV","2018/02/13 20:49:33","新北市新莊區中正路380號","121.443073333333","25.03413","6500500","新莊區"
"242042","400-BY","2018/02/13 20:49:32","新北市新莊區天祥街47巷27號","121.416255","25.0278983333333","6500500","新莊區"
"242061","362-BY","2018/02/13 20:49:31","新北市新莊區新樹路403號","121.432763333333","25.0144633333333","6500500","新莊區"
"242058","353-BY","2018/02/13 20:49:31","新北市新莊區四維路127號","121.422935","25.0228416666667","6500500","新莊區"
"242007","132-UY","2018/02/13 20:49:26","新北市新莊區福壽街31號","121.458153333333","25.0483766666667","6500500","新莊區"
"242046","172-VK","2018/02/13 20:41:04","新北市新莊區中正路新雅巷2弄2號","121.417815","25.0253833333333","6500500","新莊區"
"242009","173-VK","2018/02/13 20:49:09","新北市新莊區昌隆街73號","121.457156666667","25.05122","6500500","新莊區"
"242015","175-VK","2018/02/13 20:49:31","新北市新莊區中平路82巷20號","121.445683333333","25.0449716666667","6500500","新莊區"
"242002","176-VK","2018/02/13 20:49:18","新北市新莊區明中街41巷1號","121.457981666667","25.0388633333333","6500500","新莊區"
"242013","346-TH","2018/02/13 20:49:18","新北市新莊區中正路384號","121.442001666667","25.0344966666667","6500500","新莊區"
"242051","347-TH","2018/02/13 20:49:32","新北市新莊區民安西路189巷15號","121.4267","25.01538","6500500","新莊區"
"242019","348-TH","2018/02/13 20:49:35","新北市新莊區銘德街48號","121.45723","25.0437283333333","6500500","新莊區"
"242056","349-TH","2018/02/13 20:49:25","新北市新莊區瓊泰路103號","121.443388333333","25.029985","6500500","新莊區"
"242011","351-TH","2018/02/13 20:49:18","新北市新莊區中正路384號","121.441985","25.0348466666667","6500500","新莊區"
"238023","601-UM","2018/02/13 20:49:18","新北市樹林區中正路755號","121.410535","25.0152933333333","6500700","樹林區"
"221036","130-UY","2018/02/13 20:49:25","新北市汐止區新昌路88號","121.663911666667","25.0691116666667","6501100","汐止區"
"221010","269-BY","2018/02/13 20:49:35","新北市汐止區八連路一段245-1號","121.640453333333","25.08297","6501100","汐止區"
"221027","281-BY","2018/02/13 20:49:17","新北市汐止區大同路二段457號","121.659981666667","25.0678016666667","6501100","汐止區"
"221029","298-VK","2018/02/13 20:49:24","新北市汐止區汐萬路一段256巷3號","121.652543333333","25.0745366666667","6501100","汐止區"
"221021","299-VK","2018/02/13 20:49:22","新北市汐止區新台五路一段212-1號","121.65571","25.063015","6501100","汐止區"
"221035","622-UM","2018/02/13 20:49:19","新北市汐止區汐萬路一段312號","121.65065","25.07535","6501100","汐止區"
"221025","623-UM","2018/02/13 20:49:33","新北市汐止區水源路二段183號","121.657791666667","25.053595","6501100","汐止區"
"221038","646-BX","2018/02/13 20:48:54","新北市汐止區汐萬路一段150號","121.652698333333","25.07118","6501100","汐止區"
"221033","647-BX","2018/02/13 20:49:26","新北市汐止區合順街18巷8弄5號","121.620325","25.0419333333333","6501100","汐止區"
"221002","707-TV","2018/02/13 20:49:30","新北市汐止區福德二路125巷6弄4號","121.630915","25.06497","6501100","汐止區"
"221018","753-BX","2018/02/13 20:49:20","新北市汐止區中華街15號","121.666943333333","25.0710166666667","6501100","汐止區"
"220079","145-BY","2018/02/13 20:49:24","新北市樹林區太平路247巷30號","121.421591666667","24.9743633333333","6500100","板橋區"
"220083","286-VK","2018/02/13 20:49:25","新北市板橋區僑中二街114巷2號","121.445678333333","25.0068683333333","6500100","板橋區"
"220074","895-R6","2018/02/13 20:49:29","新北市樹林區中山路三段204號","121.386788333333","24.9683033333333","6500100","板橋區"
"220070","AAC-253","2018/02/13 20:49:24","新北市五股區成泰路三段360號","121.451535","25.0983566666667","6500100","板橋區"
