"lineid","car","time","location","longitude","latitude","cityid","cityname"
"234086","338-UY","2018/02/13 21:39:21","新北市林口區太平里180號","121.368201666667","25.1346483333333","6500400","永和區"
"234023","9381-KE","2018/02/13 21:39:32","新北市永和區竹林路25巷30號","121.51806","25.0149383333333","6500400","永和區"
"231034","268-BY","2018/02/13 21:39:25","新北市新店區如意街45號","121.493306666667","24.9483416666667","6500600","新店區"
"241008","059-VK","2018/02/13 21:39:30","新北市三重區自強路一段68號","121.497015","25.0665666666667","6500200","三重區"
"241009","060-VK","2018/02/13 21:39:26","新北市三重區忠孝路二段122號","121.483036666667","25.0688016666667","6500200","三重區"
"241024","065-VK","2018/02/13 21:39:22","新北市三重區忠孝路三段15巷14號","121.481005","25.067605","6500200","三重區"
"241002","090-VK","2018/02/13 21:39:28","新北市五股區四維路185巷37號","121.464401666667","25.07785","6500200","三重區"
"241005","262-UM","2018/02/13 21:39:24","新北市三重區五華街167號","121.490268333333","25.085125","6500200","三重區"
"241007","398-BY","2018/02/13 21:39:25","新北市三重區慈愛街1號","121.484683333333","25.078505","6500200","三重區"
"241020","413-TH","2018/02/13 21:39:34","新北市三重區明德街37號","121.492521666667","25.072165","6500200","三重區"
"241030","480-VK","2018/02/13 21:39:33","新北市三重區成功路187號","121.48516","25.052685","6500200","三重區"
"241029","942-UM","2018/02/13 21:39:18","新北市三重區正義南路107號","121.498171666667","25.0585783333333","6500200","三重區"
"235010","733-UM","2018/02/13 21:36:34","新北市中和區員山路36巷13號","121.48418","24.9908066666667","6500300","中和區"
"247008","341-TH","2018/02/13 21:39:16","新北市五股區中直路3-19號","121.42783","25.109215","6501400","蘆洲區"
"251009","008-UM","2018/02/13 21:39:29","新北市淡水區民族路31巷28號","121.462508333333","25.1367916666667","6501000","淡水區"
"251004","009-UM","2018/02/13 21:39:29","新北市淡水區民權路97-1號","121.460101666667","25.137965","6501000","淡水區"
"251014","180-VK","2018/02/13 21:39:20","新北市淡水區淡金路四段521號","121.45148","25.22899","6501000","淡水區"
"251008","181-VK","2018/02/13 21:39:19","新北市淡水區水源街二段38號","121.450211666667","25.1737883333333","6501000","淡水區"
"251010","413-VK","2018/02/13 21:39:26","新北市淡水區沙崙路232號","121.425568333333","25.184615","6501000","淡水區"
"251012","441-VK","2018/02/13 21:39:25","新北市淡水區淡金路552-1號","121.451705","25.2274116666667","6501000","淡水區"
"251016","442-VK","2018/02/13 21:39:21","新北市淡水區中山北路三段169號","121.445441666667","25.1968916666667","6501000","淡水區"
"251005","443-VK","2018/02/13 21:39:38","新北市淡水區水源街一段60號","121.44493","25.1721716666667","6501000","淡水區"
"251001","559-UM","2018/02/13 21:39:24","新北市淡水區新市二路三段152號","121.435346666667","25.1942333333333","6501000","淡水區"
"251006","561-UM","2018/02/13 21:39:35","新北市淡水區中正路11巷1號","121.439021666667","25.1698833333333","6501000","淡水區"
"251011","650-BX","2018/02/13 21:39:37","新北市淡水區新民街322巷2號","121.435415","25.1836633333333","6501000","淡水區"
"251002","672-BX","2018/02/13 21:39:29","新北市淡水區學府路159號","121.445831666667","25.17432","6501000","淡水區"
"251003","673-BX","2018/02/13 21:39:20","新北市淡水區新春街85巷23號","121.438275","25.1832466666667","6501000","淡水區"
"242044","497-BY","2018/02/13 21:39:23","新北市新莊區龍安路100號","121.418306666667","25.0205066666667","6500500","新莊區"
"242051","442-UM","2018/02/13 21:39:16","新北市新莊區新泰路369巷27號","121.442296666667","25.0431183333333","6500500","新莊區"
"242037","133-UY","2018/02/13 21:39:27","新北市新莊區建安街16巷6號","121.428351666667","25.0265016666667","6500500","新莊區"
"242046","172-VK","2018/02/13 21:37:49","新北市樹林區八德街395號","121.415578333333","24.9717733333333","6500500","新莊區"
"220074","895-R6","2018/02/13 21:39:34","新北市板橋區華東街1-9號","121.448193333333","24.9949766666667","6500100","板橋區"
"220070","AAC-253","2018/02/13 21:39:23","新北市新莊區中環路一段281號","121.442181666667","25.031185","6500100","板橋區"
