"lineid","car","time","location","longitude","latitude","cityid","cityname"
"241030","480-VK","2018/02/13 22:29:33","新北市五股區中興路三段5號","121.449805","25.0795316666667","6500200","三重區"
"241029","942-UM","2018/02/13 22:29:18","新北市三重區重新路四段121號","121.485051666667","25.0520666666667","6500200","三重區"
"251004","009-UM","2018/02/13 22:29:29","新北市淡水區民族路33號","121.462308333333","25.135775","6501000","淡水區"
"251008","181-VK","2018/02/13 22:29:19","新北市淡水區學府路104號","121.449873333333","25.171755","6501000","淡水區"
"251010","413-VK","2018/02/13 22:29:26","新北市淡水區沙崙路200號","121.424666666667","25.1838883333333","6501000","淡水區"
"251011","650-BX","2018/02/13 22:29:37","新北市淡水區水碓街7號","121.443156666667","25.1771066666667","6501000","淡水區"
