"lineid","car","time","location","longitude","latitude","cityid","cityname"
"248005","653-BX","2018/02/14 07:25:51","新北市五股區明德路12巷6號","121.43334","25.07182","6501500","五股區"
"222005","289-BY","2018/02/14 07:13:38","新北市深坑區萬福路52號","121.605406666667","25.0135416666667","6501800","深坑區"
"235001","611-BX","2018/02/14 07:29:38","新北市中和區圓通路367巷4號","121.491395","24.989265","6500300","中和區"
"220083","015-TV","2018/02/14 07:29:43","新北市板橋區國光路31巷16號","121.457996666667","25.0180333333333","6500100","板橋區"
"226005","5620-A6","2018/02/14 07:29:49","新北市平溪區靜安路二段240號","121.72455","25.0220133333333","6502400","平溪區"
"226001","7418-A5","2018/02/14 07:24:43","新北市平溪區望古里灰4-2號","121.763613333333","25.0291133333333","6502400","平溪區"
"226003","AGD-0702","2018/02/14 07:29:46","新北市平溪區嶺腳里嶺腳寮106-3號","121.745675","25.0388783333333","6502400","平溪區"
"223001","205-TH","2018/02/14 07:29:34","新北市石碇區蓬菜寮17號","121.649041666667","24.9720516666667","6501900","石碇區"
"223008","406-TH","2018/02/14 07:29:43","新北市石碇區靜安路一段337號","121.698908333333","25.0145933333333","6501900","石碇區"
"223004","437-BY","2018/02/14 07:29:46","新北市石碇區新興坑25-1號","121.652375","25.0211216666667","6501900","石碇區"
"223001","592-UM","2018/02/14 07:29:30","新北市石碇區蓬菜寮17號","121.649223333333","24.9721883333333","6501900","石碇區"
"223007","661-BX","2018/02/14 07:29:32","新北市石碇區大溪墘51號","121.693175","25.0066666666667","6501900","石碇區"
"223005","677-TV","2018/02/14 07:29:49","新北市石碇區新興坑1-1號","121.653391666667","25.0137316666667","6501900","石碇區"
"227006","282-VK","2018/02/14 07:29:42","新北市雙溪區新基里自強路5號","121.866348333333","25.039005","6502500","雙溪區"
"237001","159-UY","2018/02/14 07:29:39","新北市三峽區大義路380號","121.376721666667","24.9479833333333","6500900","三峽區"
