"lineid","car","time","location","longitude","latitude","cityid","cityname"
"248005","653-BX","2018/02/14 07:49:19","新北市五股區明德路12巷3號","121.433241666667","25.0717983333333","6501500","五股區"
"244002","248-BX","2018/02/14 07:49:46","新北市林口區南勢里76-6號","121.350791666667","25.07829","6501700","林口區"
"235001","611-BX","2018/02/14 07:49:38","新北市中和區圓通路367巷4號","121.491381666667","24.98923","6500300","中和區"
"220083","015-TV","2018/02/14 07:49:43","新北市板橋區南門街49號","121.457371666667","25.008475","6500100","板橋區"
"226005","5620-A6","2018/02/14 07:49:49","新北市平溪區石底里公園街18-3號","121.734741666667","25.0249283333333","6502400","平溪區"
"226001","7418-A5","2018/02/14 07:49:43","新北市平溪區平湖里坑頭3號","121.782446666667","25.0262833333333","6502400","平溪區"
"226003","AGD-0702","2018/02/14 07:36:26","新北市平溪區嶺腳里嶺腳寮83-2號","121.750105","25.0350766666667","6502400","平溪區"
"223001","205-TH","2018/02/14 07:47:55","新北市石碇區樟空子1號","121.666661666667","24.95952","6501900","石碇區"
"223008","406-TH","2018/02/14 07:49:43","新北市石碇區靜安路一段337號","121.698978333333","25.0145716666667","6501900","石碇區"
"223004","437-BY","2018/02/14 07:49:46","新北市石碇區楓子林34號","121.642276666667","25.0102883333333","6501900","石碇區"
"223001","592-UM","2018/02/14 07:47:50","新北市石碇區樟空子1號","121.66664","24.95937","6501900","石碇區"
"223007","661-BX","2018/02/14 07:49:32","新北市石碇區靜安路一段337號","121.698893333333","25.0145833333333","6501900","石碇區"
"223005","677-TV","2018/02/14 07:49:43","新北市石碇區新興坑36號","121.648636666667","25.020145","6501900","石碇區"
"224005","271-BY","2018/02/14 07:49:37","新北市瑞芳區靜安路四段6號","121.7953","25.0836483333333","6501200","瑞芳區"
"227006","282-VK","2018/02/14 07:49:42","新北市雙溪區雙溪里太平路54號","121.864786666667","25.035435","6502500","雙溪區"
"237001","159-UY","2018/02/14 07:49:39","新北市三峽區大學路85號","121.376133333333","24.941725","6500900","三峽區"
