"lineid","car","time","location","longitude","latitude","cityid","cityname"
"249005","172-UM","2018/02/19 08:19:33","新北市八里區大堀湖23-5號","121.42455","25.1505983333333","6502300","八里區"
"249001","173-UM","2018/02/19 08:19:28","新北市八里區中華路二段165巷3號","121.407666666667","25.1508633333333","6502300","八里區"
"249004","303-UY","2018/02/19 08:19:34","新北市八里區賢三街20號","121.418655","25.1588366666667","6502300","八里區"
"249003","593-UM","2018/02/19 08:19:33","新北市八里區中山路二段453-1號","121.39635","25.1455216666667","6502300","八里區"
"232010","076-UY","2018/02/19 08:19:37","新北市坪林區磨壁潭12-2號","121.725971666667","24.9384566666667","6502000","坪林區"
"232001","290-BY","2018/02/19 08:19:32","新北市坪林區坪雙路一段115號","121.728725","24.9480416666667","6502000","坪林區"
"232012","291-BY","2018/02/19 08:19:25","新北市坪林區九芎根5號","121.664413333333","24.8809616666667","6502000","坪林區"
"232017","705-BZ","2018/02/19 08:18:19","新北市坪林區柑腳坑13-2號","121.766551666667","24.9478766666667","6502000","坪林區"
"232005","758-BX","2018/02/19 08:19:30","新北市坪林區鶯子瀨3-1號","121.705921666667","24.9141466666667","6502000","坪林區"
"244012","069-UM","2018/02/19 08:19:28","新北市林口區中正路559號","121.381045","25.07688","6501700","林口區"
"244001","248-BX","2018/02/19 08:19:35","新北市林口區下福里161號","121.30301","25.1139383333333","6501700","林口區"
"244018","402-UM","2018/02/19 08:19:18","新北市林口區文化二路一段384號","121.374498333333","25.0766216666667","6501700","林口區"
"244022","483-VK","2018/02/19 08:19:28","新北市林口區隆林街69號","121.386796666667","25.0753666666667","6501700","林口區"
"244016","485-VK","2018/02/19 08:19:36","新北市林口區文化二路一段170號","121.369235","25.07152","6501700","林口區"
"244008","657-BX","2018/02/19 08:19:38","新北市林口區中北三街134號","121.38368","25.083895","6501700","林口區"
"244010","701-TV","2018/02/19 08:19:37","新北市林口區中正路352號","121.386483333333","25.0777366666667","6501700","林口區"
"244024","837-TS","2018/02/19 08:19:33","新北市林口區民族路67-1號","121.3655","25.0750633333333","6501700","林口區"
"244020","838-TS","2018/02/19 08:19:23","新北市林口區粉寮路一段149號","121.399236666667","25.08138","6501700","林口區"
"222006","289-BY","2018/02/19 08:19:36","新北市深坑區深南路220號","121.62441","25.0170333333333","6501800","深坑區"
"231007","189-VK","2018/02/19 08:19:29","新北市新店區新潭路一段200號","121.529653333333","24.931275","6500600","新店區"
"231008","192-VK","2018/02/19 08:19:36","新北市新店區新烏路二段42號","121.545785","24.92933","6500600","新店區"
"235001","611-BX","2018/02/19 08:19:39","新北市中和區圓通路367巷33弄83號","121.496348333333","24.9849166666667","6500300","中和區"
"220027","015-TV","2018/02/19 08:19:30","新北市樹林區中山路三段210-2號","121.38138","24.9654883333333","6500100","板橋區"
"226005","5620-A6","2018/02/19 08:19:23","新北市平溪區嶺腳里中華街31號","121.739461666667","25.0251183333333","6502400","平溪區"
"226001","7418-A5","2018/02/19 08:19:16","新北市平溪區南山里南山坪15號","121.767976666667","25.0335566666667","6502400","平溪區"
"226003","AGD-0702","2018/02/19 08:11:03","新北市平溪區嶺腳里嶺腳寮83-2號","121.750166666667","25.0350383333333","6502400","平溪區"
"223006","022-BY","2018/02/19 08:19:32","新北市石碇區楓子林30號","121.642291666667","25.009535","6501900","石碇區"
"223001","205-TH","2018/02/19 08:05:34","新北市石碇區樟空子10-2號","121.666918333333","24.9621766666667","6501900","石碇區"
"223008","406-TH","2018/02/19 08:19:18","新北市石碇區石碇子埔97-4號","121.668586666667","25.0043933333333","6501900","石碇區"
"223001","592-UM","2018/02/19 08:15:20","新北市石碇區樟空子10-1號","121.666945","24.9623883333333","6501900","石碇區"
"223004","660-BX","2018/02/19 08:19:21","新北市石碇區外按5號","121.651788333333","24.9949766666667","6501900","石碇區"
"223007","661-BX","2018/02/19 08:19:30","新北市石碇區靜安路一段164號","121.665456666667","25.00724","6501900","石碇區"
"223005","677-TV","2018/02/19 08:19:24","新北市石碇區外按8號","121.651156666667","24.996405","6501900","石碇區"
"224006","676-BX","2018/02/19 08:19:33","新北市瑞芳區大寮路69號","121.781248333333","25.0976116666667","6501200","瑞芳區"
"224008","275-VK","2018/02/19 08:19:30","新北市瑞芳區明燈路一段197號","121.818716666667","25.10779","6501200","瑞芳區"
"224007","273-VK","2018/02/19 08:19:29","新北市瑞芳區四腳亭埔路3號","121.78361","25.1024816666667","6501200","瑞芳區"
"224005","271-BY","2018/02/19 08:19:20","新北市瑞芳區瑞芳街32-10號","121.822051666667","25.1206716666667","6501200","瑞芳區"
"227005","282-VK","2018/02/19 08:19:18","新北市雙溪區外柑里三叉坑6號","121.825776666667","25.01283","6502500","雙溪區"
"208004","AAC-292","2018/02/19 08:19:34","新北市金山區南勢湖73號","121.611516666667","25.2112816666667","6502700","金山區"
"252006","073-UM","2018/02/19 08:15:39","新北市三芝區後厝里芝麻五街29號","121.474533333333","25.2454083333333","6502100","三芝區"
"252004","249-BX","2018/02/19 08:19:34","新北市三芝區興華里車埕62號","121.498658333333","25.1968733333333","6502100","三芝區"
"237001","159-UY","2018/02/19 08:19:20","新北市三峽區大義路1號","121.378905","24.9435416666667","6500900","三峽區"
"236007","165-UM","2018/02/19 08:19:30","新北市土城區明德路一段398號","121.452985","24.9796333333333","6501300","土城區"
"236001","339-SR","2018/02/19 08:19:26","新北市土城區龍泉路22-1號","121.41058","24.94814","6501300","土城區"
"236005","498-BY","2018/02/19 08:19:35","新北市土城區大暖路39號","121.423576666667","24.9605783333333","6501300","土城區"
"242028","986-R7","2018/02/19 08:19:22","新北市新莊區復興路一段103號","121.44906","25.0428466666667","6500500","新莊區"
"242049","751-BX","2018/02/19 08:19:25","新北市新莊區西盛街313號","121.42822","25.015265","6500500","新莊區"
"242024","615-BX","2018/02/19 08:19:33","新北市新莊區新北大道二段300號","121.464856666667","25.0612666666667","6500500","新莊區"
"242022","613-BX","2018/02/19 08:19:41","新北市新莊區福樂街35號","121.457615","25.04679","6500500","新莊區"
"242026","612-BX","2018/02/19 08:19:36","新北市新莊區福壽街144號","121.457885","25.0520266666667","6500500","新莊區"
"242038","566-BX","2018/02/19 08:19:34","新北市新莊區民安路168號","121.424883333333","25.0240066666667","6500500","新莊區"
"242043","497-BY","2018/02/19 08:19:22","新北市新莊區福營路378號","121.420506666667","25.0265033333333","6500500","新莊區"
"242052","440-UM","2018/02/19 08:19:38","新北市新莊區新樹路699巷38號","121.432811666667","25.00145","6500500","新莊區"
"242033","415-TV","2018/02/19 08:19:35","新北市新莊區新莊路692號","121.440691666667","25.032695","6500500","新莊區"
"242003","413-TV","2018/02/19 08:19:26","新北市新莊區思源路177巷6號","121.459345","25.0454","6500500","新莊區"
"242040","400-BY","2018/02/19 08:19:22","新北市泰山區壽山路34號","121.420621666667","25.0289866666667","6500500","新莊區"
"242059","362-BY","2018/02/19 08:19:36","新北市新莊區新樹路200號","121.434205","25.020845","6500500","新莊區"
"242057","353-BY","2018/02/19 08:19:41","新北市新莊區新北大道七段347號","121.412298333333","25.0274233333333","6500500","新莊區"
"242006","132-UY","2018/02/19 08:19:26","新北市新莊區自信街75巷13號","121.455705","25.04879","6500500","新莊區"
"242035","133-UY","2018/02/19 08:19:36","新北市新莊區後港一路89號","121.427711666667","25.0267833333333","6500500","新莊區"
"242020","135-UY","2018/02/19 08:19:41","新北市新莊區永寧街6鄰28巷1號","121.452828333333","25.0388066666667","6500500","新莊區"
"242045","172-VK","2018/02/19 08:19:32","新北市新莊區建國一路21號","121.43421","25.03163","6500500","新莊區"
"242008","173-VK","2018/02/19 08:18:27","新北市新莊區昌明街46巷2號","121.456448333333","25.053095","6500500","新莊區"
"242014","175-VK","2018/02/19 08:19:24","新北市新莊區新泰路502巷41弄8號","121.443786666667","25.046665","6500500","新莊區"
"242001","176-VK","2018/02/19 08:19:26","新北市新莊區景德路83號","121.452353333333","25.0349283333333","6500500","新莊區"
"242012","346-TH","2018/02/19 08:19:38","新北市新莊區中誠街142巷12號","121.44874","25.0481533333333","6500500","新莊區"
"242018","348-TH","2018/02/19 08:19:35","新北市新莊區中港路271號","121.45353","25.043505","6500500","新莊區"
"242055","349-TH","2018/02/19 08:19:26","新北市新莊區瓊林路38巷22號","121.446993333333","25.0304933333333","6500500","新莊區"
"242016","350-TH","2018/02/19 08:19:34","新北市新莊區永安街98號","121.450395","25.0445733333333","6500500","新莊區"
"242010","351-TH","2018/02/19 08:19:30","新北市新莊區中港路683號","121.450618333333","25.0563383333333","6500500","新莊區"
"239007","AAC-297","2018/02/19 08:19:23","新北市鶯歌區光復街68號","121.35108","24.9564466666667","6500800","鶯歌區"
"239006","891-R6","2018/02/19 08:19:37","新北市鶯歌區福昌街11號","121.333081666667","24.9607966666667","6500800","鶯歌區"
"239008","527-UM","2018/02/19 08:19:27","新北市鶯歌區大湖路532號","121.337465","24.9724366666667","6500800","鶯歌區"
"239005","526-UM","2018/02/19 08:19:25","新北市鶯歌區福德四街6號","121.329796666667","24.96791","6500800","鶯歌區"
"239003","360-BY","2018/02/19 08:19:34","新北市鶯歌區德昌二街70巷29弄5號","121.331611666667","24.957315","6500800","鶯歌區"
"239004","193-VK","2018/02/19 08:19:26","新北市鶯歌區文化路226巷5弄1號","121.352491666667","24.948735","6500800","鶯歌區"
"242047","281-VK","2018/02/19 08:19:34","新北市新莊區萬安街120號","121.420363333333","25.0219283333333","6500500","新莊區"
"242030","280-VK","2018/02/19 08:19:32","新北市新莊區新泰路357巷3弄27號","121.4423","25.0405933333333","6500500","新莊區"
