"lineid","car","time","location","longitude","latitude","cityid","cityname"
"249005","172-UM","2018/02/19 08:39:34","新北市八里區荖阡坑路97號","121.409495","25.1272333333333","6502300","八里區"
"249001","173-UM","2018/02/19 08:39:28","新北市八里區龍米路二段153-8號","121.440138333333","25.1534866666667","6502300","八里區"
"249004","303-UY","2018/02/19 08:39:34","新北市八里區賢三街90-6號","121.416253333333","25.15779","6502300","八里區"
"249002","305-UY","2018/02/19 08:39:18","新北市八里區龍米路二段117巷1號","121.446953333333","25.14299","6502300","八里區"
"249003","593-UM","2018/02/19 08:39:33","新北市八里區中山路二段173號","121.40485","25.1504883333333","6502300","八里區"
"232001","290-BY","2018/02/19 08:39:32","新北市坪林區九芎坑16-2號","121.741003333333","24.9498966666667","6502000","坪林區"
"232012","291-BY","2018/02/19 08:39:25","新北市坪林區金瓜寮23-3號","121.678788333333","24.9095433333333","6502000","坪林區"
"232017","705-BZ","2018/02/19 08:39:19","新北市坪林區中心崙5-2號","121.781911666667","24.9484216666667","6502000","坪林區"
"232005","758-BX","2018/02/19 08:39:30","新北市坪林區石9號","121.708833333333","24.9085216666667","6502000","坪林區"
"244012","069-UM","2018/02/19 08:39:28","新北市林口區林口路39號","121.390203333333","25.078805","6501700","林口區"
"244001","248-BX","2018/02/19 08:39:35","新北市林口區嘉寶里6鄰47號","121.315008333333","25.121285","6501700","林口區"
"244018","402-UM","2018/02/19 08:39:38","新北市林口區文化一路一段83巷14弄48號","121.372293333333","25.0718316666667","6501700","林口區"
"244022","483-VK","2018/02/19 08:39:28","新北市林口區東明一街142巷22號","121.389781666667","25.07153","6501700","林口區"
"244016","485-VK","2018/02/19 08:39:36","新北市林口區忠孝路504巷12號","121.370178333333","25.0698583333333","6501700","林口區"
"244008","657-BX","2018/02/19 08:39:38","新北市林口區林口路297巷8號","121.385435","25.084905","6501700","林口區"
"244010","701-TV","2018/02/19 08:39:37","新北市林口區中正路103號","121.393965","25.0772166666667","6501700","林口區"
"244024","837-TS","2018/02/19 08:39:42","新北市林口區文化三路一段39巷100號","121.359138333333","25.0671716666667","6501700","林口區"
"244020","838-TS","2018/02/19 08:39:23","新北市林口區仁愛路一段139巷23號","121.39757","25.0716733333333","6501700","林口區"
"222006","289-BY","2018/02/19 08:39:36","新北市深坑區風格街31巷18號","121.627548333333","25.0173466666667","6501800","深坑區"
"231007","189-VK","2018/02/19 08:39:29","新北市新店區新潭路三段181-1號","121.509728333333","24.9076933333333","6500600","新店區"
"231008","192-VK","2018/02/19 08:39:36","新北市新店區新烏路三段165巷31號","121.552711666667","24.9013633333333","6500600","新店區"
"235001","611-BX","2018/02/19 08:39:39","新北市中和區員山路427號","121.480933333333","25.0035716666667","6500300","中和區"
"220027","015-TV","2018/02/19 08:37:02","新北市板橋區華東街1-10號","121.448295","24.99497","6500100","板橋區"
"226005","5620-A6","2018/02/19 08:39:23","新北市平溪區靜安路二段530巷30號","121.743838333333","25.02679","6502400","平溪區"
"226001","7418-A5","2018/02/19 08:39:36","新北市平溪區東勢里芊蓁林61號","121.750498333333","25.0053533333333","6502400","平溪區"
"226003","AGD-0702","2018/02/19 08:39:23","新北市平溪區十分里十分街45號","121.774523333333","25.0407433333333","6502400","平溪區"
"223006","022-BY","2018/02/19 08:39:32","新北市深坑區昇高坑路51-1號","121.630468333333","24.9937683333333","6501900","石碇區"
"223001","205-TH","2018/02/19 08:39:34","新北市石碇區北宜路六段塗潭巷7號","121.646123333333","24.9340433333333","6501900","石碇區"
"223008","406-TH","2018/02/19 08:39:18","新北市石碇區十八重溪13號","121.67795","25.0112533333333","6501900","石碇區"
"223001","592-UM","2018/02/19 08:39:39","新北市石碇區北宜路六段塗潭巷7號","121.646251666667","24.9340116666667","6501900","石碇區"
"223004","660-BX","2018/02/19 08:39:21","新北市石碇區碇坪路一段266號","121.67528","24.9779633333333","6501900","石碇區"
"223007","661-BX","2018/02/19 08:39:30","新北市石碇區十八重溪16-1號","121.676636666667","25.0115683333333","6501900","石碇區"
"223005","677-TV","2018/02/19 08:39:39","新北市石碇區碇坪路一段280號","121.67612","24.9768216666667","6501900","石碇區"
"224006","676-BX","2018/02/19 08:39:32","新北市瑞芳區靜安路四段63-1號","121.793398333333","25.1086266666667","6501200","瑞芳區"
"224008","275-VK","2018/02/19 08:39:30","新北市瑞芳區侯硐路48號","121.825746666667","25.0829666666667","6501200","瑞芳區"
"224007","273-VK","2018/02/19 08:39:41","新北市瑞芳區粗坑口路70號","121.761243333333","25.0992233333333","6501200","瑞芳區"
"224005","271-BY","2018/02/19 08:39:33","新北市瑞芳區洞頂路116號","121.861236666667","25.1232433333333","6501200","瑞芳區"
"227005","282-VK","2018/02/19 08:39:38","新北市雙溪區魚行里丁子蘭坑31號","121.845851666667","24.9981666666667","6502500","雙溪區"
"208004","AAC-292","2018/02/19 08:39:33","新北市金山區重和里三重橋21號","121.588766666667","25.18853","6502700","金山區"
"252006","073-UM","2018/02/19 08:39:39","新北市三芝區後厝里大片頭88號","121.457831666667","25.2455116666667","6502100","三芝區"
"252004","249-BX","2018/02/19 08:39:34","新北市三芝區興華里楓子林37-3號","121.490763333333","25.2087166666667","6502100","三芝區"
"237001","159-UY","2018/02/19 08:39:20","新北市三峽區學勤路38號","121.374415","24.9456983333333","6500900","三峽區"
"236007","165-UM","2018/02/19 08:39:30","新北市土城區中山路47號","121.421078333333","24.9624066666667","6501300","土城區"
"236001","339-SR","2018/02/19 08:39:26","新北市土城區中央路三段281巷11弄3號","121.426526666667","24.9629233333333","6501300","土城區"
"236005","498-BY","2018/02/19 08:39:33","新北市土城區永和街27-16號","121.434638333333","24.9615683333333","6501300","土城區"
"242028","986-R7","2018/02/19 08:39:22","新北市新莊區中平路110巷4-1號","121.445523333333","25.0457983333333","6500500","新莊區"
"242049","751-BX","2018/02/19 08:39:24","新北市新莊區西盛街153巷6號","121.428631666667","25.017965","6500500","新莊區"
"242024","615-BX","2018/02/19 08:39:33","新北市新莊區五工二路94巷13號","121.459835","25.0672366666667","6500500","新莊區"
"242022","613-BX","2018/02/19 08:39:41","新北市新莊區化成路220號","121.465605","25.0466733333333","6500500","新莊區"
"242026","612-BX","2018/02/19 08:39:16","新北市新莊區幸福路46號","121.457706666667","25.049545","6500500","新莊區"
"242038","566-BX","2018/02/19 08:39:38","新北市新莊區民安西路38巷26-1號","121.426545","25.0205916666667","6500500","新莊區"
"242043","497-BY","2018/02/19 08:39:23","新北市新莊區中正路力行巷11弄1號","121.416388333333","25.0265216666667","6500500","新莊區"
"242052","440-UM","2018/02/19 08:39:38","新北市新莊區西盛街427號","121.427206666667","25.012085","6500500","新莊區"
"242033","415-TV","2018/02/19 08:39:34","新北市新莊區新豐街65號","121.44631","25.03361","6500500","新莊區"
"242003","413-TV","2018/02/19 08:39:22","新北市新莊區自由街50號","121.455826666667","25.0459166666667","6500500","新莊區"
"242040","400-BY","2018/02/19 08:39:22","新北市新莊區天祥街89號","121.415285","25.0294266666667","6500500","新莊區"
"242059","362-BY","2018/02/19 08:39:36","新北市新莊區四維路25號","121.424113333333","25.0237883333333","6500500","新莊區"
"242057","353-BY","2018/02/19 08:39:37","新北市新莊區新北大道七段772號","121.412721666667","25.02495","6500500","新莊區"
"242006","132-UY","2018/02/19 08:39:26","新北市新莊區中華路二段17號","121.453825","25.0456866666667","6500500","新莊區"
"242035","133-UY","2018/02/19 08:39:36","新北市新莊區建福路73號","121.426946666667","25.02681","6500500","新莊區"
"242020","135-UY","2018/02/19 08:39:23","新北市新莊區中華路一段63巷42號","121.450011666667","25.0392283333333","6500500","新莊區"
"242045","172-VK","2018/02/19 08:39:32","新北市新莊區福營路238號","121.42674","25.0291666666667","6500500","新莊區"
"242008","173-VK","2018/02/19 08:39:32","新北市新莊區中華路二段210巷22號","121.453756666667","25.0523583333333","6500500","新莊區"
"242014","175-VK","2018/02/19 08:39:24","新北市新莊區中平路152巷45號","121.446653333333","25.04748","6500500","新莊區"
"242001","176-VK","2018/02/19 08:39:26","新北市新莊區新莊路185號","121.45585","25.0358416666667","6500500","新莊區"
"242012","346-TH","2018/02/19 08:39:34","新北市新莊區中泰街104巷6弄1號","121.449038333333","25.0470366666667","6500500","新莊區"
"242018","348-TH","2018/02/19 08:39:35","新北市新莊區明中街49巷15號","121.456821666667","25.0389283333333","6500500","新莊區"
"242055","349-TH","2018/02/19 08:39:32","新北市新莊區瓊林路42巷26號","121.446548333333","25.0300266666667","6500500","新莊區"
"242016","350-TH","2018/02/19 08:39:35","新北市新莊區永樂街66號","121.450985","25.0450133333333","6500500","新莊區"
"242010","351-TH","2018/02/19 08:39:30","新北市新莊區中榮街72-1號","121.448233333333","25.052745","6500500","新莊區"
"239007","AAC-297","2018/02/19 08:39:23","新北市鶯歌區國光街102號","121.341446666667","24.9563783333333","6500800","鶯歌區"
"239006","891-R6","2018/02/19 08:39:37","新北市鶯歌區鶯桃路436巷61弄1號","121.333731666667","24.9667433333333","6500800","鶯歌區"
"239008","527-UM","2018/02/19 08:39:27","新北市鶯歌區大湖路700巷22弄13號","121.333695","24.977265","6500800","鶯歌區"
"239005","526-UM","2018/02/19 08:39:25","新北市鶯歌區福隆二街69巷1弄10號","121.323803333333","24.9714933333333","6500800","鶯歌區"
"239003","360-BY","2018/02/19 08:39:34","新北市鶯歌區鶯桃路202巷9弄13號","121.337418333333","24.9588333333333","6500800","鶯歌區"
"239004","193-VK","2018/02/19 08:39:26","新北市鶯歌區三鶯路29巷12號","121.354863333333","24.9405066666667","6500800","鶯歌區"
"242047","281-VK","2018/02/19 08:39:27","新北市新莊區萬安街102巷13號","121.420045","25.0221116666667","6500500","新莊區"
"242030","280-VK","2018/02/19 08:39:32","新北市新莊區新泰路277巷48號","121.443543333333","25.040135","6500500","新莊區"
