"lineid","car","time","location","longitude","latitude","cityid","cityname"
"249005","172-UM","2018/02/19 08:49:33","新北市八里區荖阡坑路34-3號","121.40219","25.1318716666667","6502300","八里區"
"249001","173-UM","2018/02/19 08:49:28","新北市八里區龍米路二段71號","121.4479","25.1412066666667","6502300","八里區"
"249004","303-UY","2018/02/19 08:49:34","新北市八里區中華路一段79巷11號","121.421025","25.1564283333333","6502300","八里區"
"249002","305-UY","2018/02/19 08:49:18","新北市八里區龍米路二段117巷29-1號","121.446133333333","25.1429166666667","6502300","八里區"
"249003","593-UM","2018/02/19 08:49:33","新北市八里區中山路二段75號","121.406331666667","25.153265","6502300","八里區"
"232001","290-BY","2018/02/19 08:49:32","新北市坪林區虎寮潭1號","121.740961666667","24.9501516666667","6502000","坪林區"
"232012","291-BY","2018/02/19 08:49:25","新北市坪林區仁里13號","121.684423333333","24.9270466666667","6502000","坪林區"
"232017","705-BZ","2018/02/19 08:49:19","新北市坪林區鷺鶿岫4-2號","121.785751666667","24.95573","6502000","坪林區"
"232005","758-BX","2018/02/19 08:49:30","新北市坪林區魚堀14-1號","121.704206666667","24.907825","6502000","坪林區"
"244012","069-UM","2018/02/19 08:49:28","新北市林口區中山路16號","121.396285","25.07836","6501700","林口區"
"244001","248-BX","2018/02/19 08:49:35","新北市林口區嘉寶里6鄰47號","121.314956666667","25.12128","6501700","林口區"
"244018","402-UM","2018/02/19 08:49:18","新北市林口區忠孝路512巷39號","121.37142","25.0681616666667","6501700","林口區"
"244022","483-VK","2018/02/19 08:49:30","新北市林口區東湖路2號","121.389291666667","25.0737866666667","6501700","林口區"
"244016","485-VK","2018/02/19 08:49:36","新北市林口區文化二路一段20巷25弄49號","121.366381666667","25.06701","6501700","林口區"
"244008","657-BX","2018/02/19 08:49:38","新北市林口區竹林路582巷11號","121.386065","25.0832416666667","6501700","林口區"
"244010","701-TV","2018/02/19 08:49:37","新北市林口區粉寮路一段51號","121.39672","25.0777233333333","6501700","林口區"
"244024","837-TS","2018/02/19 08:49:33","新北市林口區文化北路一段301-1號","121.360391666667","25.072745","6501700","林口區"
"244020","838-TS","2018/02/19 08:49:23","新北市林口區新寮37-1號","121.401546666667","25.065685","6501700","林口區"
"222006","289-BY","2018/02/19 08:47:34","新北市深坑區土庫尖路75-1號","121.63118","25.01819","6501800","深坑區"
"231007","189-VK","2018/02/19 08:49:29","新北市新店區新潭路三段275-1號","121.501918333333","24.9028516666667","6500600","新店區"
"231008","192-VK","2018/02/19 08:49:36","新北市新店區新烏路三段寶島巷2弄3號","121.55204","24.8985383333333","6500600","新店區"
"235001","611-BX","2018/02/19 08:49:39","新北市中和區民享街86巷12號","121.473975","25.0008583333333","6500300","中和區"
"220027","015-TV","2018/02/19 08:45:25","新北市板橋區華東街1-10號","121.448306666667","24.99505","6500100","板橋區"
"220105","075-UY","2018/02/19 08:49:30","新北市板橋區民生路二段161巷9號","121.470225","25.0195983333333","6500100","板橋區"
"226005","5620-A6","2018/02/19 08:49:36","新北市平溪區南山里南山坪98號","121.778276666667","25.042725","6502400","平溪區"
"226001","7418-A5","2018/02/19 08:49:36","新北市平溪區東勢里火燒寮36-1號","121.768423333333","24.986825","6502400","平溪區"
"226003","AGD-0702","2018/02/19 08:45:30","新北市平溪區十分里十分街55號","121.775225","25.0414933333333","6502400","平溪區"
"223006","022-BY","2018/02/19 08:49:32","新北市深坑區文山路一段1號","121.646511666667","25.00819","6501900","石碇區"
"223001","205-TH","2018/02/19 08:49:34","新北市石碇區北宜路六段塗潭巷52號","121.652136666667","24.9349866666667","6501900","石碇區"
"223008","406-TH","2018/02/19 08:49:38","新北市石碇區碇南路二段松柏崎巷37-1號","121.678846666667","25.0229516666667","6501900","石碇區"
"223001","592-UM","2018/02/19 08:49:39","新北市石碇區北宜路六段塗潭巷56號","121.653238333333","24.93515","6501900","石碇區"
"223004","660-BX","2018/02/19 08:49:41","新北市石碇區崩山24-2號","121.678648333333","24.9678633333333","6501900","石碇區"
"223007","661-BX","2018/02/19 08:49:30","新北市石碇區碇南路二段松柏崎巷8號","121.674926666667","25.01867","6501900","石碇區"
"223005","677-TV","2018/02/19 08:49:39","新北市石碇區崩山33-3號","121.677026666667","24.9656816666667","6501900","石碇區"
"224006","676-BX","2018/02/19 08:49:32","新北市瑞芳區中山路385號","121.79558","25.1102383333333","6501200","瑞芳區"
"224008","275-VK","2018/02/19 08:49:30","新北市瑞芳區侯硐路145號","121.831801666667","25.0906316666667","6501200","瑞芳區"
"224007","273-VK","2018/02/19 08:49:29","新北市瑞芳區大埔路172-3號","121.762196666667","25.1020316666667","6501200","瑞芳區"
"224005","271-BY","2018/02/19 08:49:40","新北市瑞芳區長仁路1號","121.87228","25.12369","6501200","瑞芳區"
"227005","282-VK","2018/02/19 08:49:38","新北市雙溪區泰平里泰平35號","121.82788","24.9751616666667","6502500","雙溪區"
"208004","AAC-292","2018/02/19 08:49:33","新北市金山區重和里三重橋23號","121.588488333333","25.188805","6502700","金山區"
"252006","073-UM","2018/02/19 08:49:39","新北市三芝區後厝里大片頭66號","121.465325","25.244125","6502100","三芝區"
"252004","249-BX","2018/02/19 08:49:34","新北市三芝區興華里田心子15-13號","121.492828333333","25.2041933333333","6502100","三芝區"
"237001","159-UY","2018/02/19 08:49:40","新北市三峽區學勤路97號","121.374671666667","24.9462666666667","6500900","三峽區"
"236007","165-UM","2018/02/19 08:49:30","新北市土城區中央路四段321巷46號","121.412741666667","24.95098","6501300","土城區"
"236001","339-SR","2018/02/19 08:49:26","新北市土城區中央路三段46號","121.43724","24.9677883333333","6501300","土城區"
"236005","498-BY","2018/02/19 08:49:33","新北市土城區承天路4巷10-3號","121.437723333333","24.959295","6501300","土城區"
"242028","986-R7","2018/02/19 08:49:22","新北市新莊區中平路196號","121.444738333333","25.0483883333333","6500500","新莊區"
"242049","751-BX","2018/02/19 08:49:25","新北市新莊區民本街27巷19號","121.429216666667","25.0191883333333","6500500","新莊區"
"242024","615-BX","2018/02/19 08:49:33","新北市新莊區五工三路89號","121.458366666667","25.065305","6500500","新莊區"
"242022","613-BX","2018/02/19 08:49:21","新北市新莊區化成路432號","121.465956666667","25.0512283333333","6500500","新莊區"
"242026","612-BX","2018/02/19 08:49:36","新北市新莊區中華路二段89號","121.452781666667","25.04933","6500500","新莊區"
"242043","497-BY","2018/02/19 08:49:22","新北市新莊區鳳山街66號","121.413995","25.02579","6500500","新莊區"
"242052","440-UM","2018/02/19 08:49:18","新北市新莊區西盛街417巷21號","121.428101666667","25.0118","6500500","新莊區"
"242033","415-TV","2018/02/19 08:49:34","新北市新莊區中正路338號","121.444966666667","25.0352216666667","6500500","新莊區"
"242003","413-TV","2018/02/19 08:49:22","新北市新莊區化成路25-7號","121.464091666667","25.0435283333333","6500500","新莊區"
"242040","400-BY","2018/02/19 08:49:22","新北市新莊區天祥街121巷17號","121.414296666667","25.029005","6500500","新莊區"
"242059","362-BY","2018/02/19 08:49:36","新北市新莊區民安路353號","121.431063333333","25.0230466666667","6500500","新莊區"
"242057","353-BY","2018/02/19 08:49:35","新北市新莊區中正路897-10號","121.411615","25.021665","6500500","新莊區"
"242006","132-UY","2018/02/19 08:49:26","新北市新莊區思源路593巷5弄1號","121.459215","25.0594783333333","6500500","新莊區"
"242035","133-UY","2018/02/19 08:49:36","新北市新莊區建福路48巷13號","121.425731666667","25.027375","6500500","新莊區"
"242020","135-UY","2018/02/19 08:49:35","新北市新莊區新興街38巷2號","121.450728333333","25.0371166666667","6500500","新莊區"
"242045","172-VK","2018/02/19 08:49:32","新北市新莊區中正路829巷59號","121.42154","25.027295","6500500","新莊區"
"242008","173-VK","2018/02/19 08:49:27","新北市新莊區中華路二段152-1號","121.453281666667","25.05054","6500500","新莊區"
"242014","175-VK","2018/02/19 08:49:24","新北市新莊區中平路184巷10弄18號","121.445555","25.04832","6500500","新莊區"
"242001","176-VK","2018/02/19 08:49:26","新北市新莊區新泰路2-11號","121.450113333333","25.032535","6500500","新莊區"
"242012","346-TH","2018/02/19 08:49:38","新北市新莊區中誠街69巷1號","121.450728333333","25.0477133333333","6500500","新莊區"
"242018","348-TH","2018/02/19 08:49:35","新北市新莊區長青街37巷22弄10號","121.455976666667","25.0414616666667","6500500","新莊區"
"242055","349-TH","2018/02/19 08:49:34","新北市新莊區豐年街豐1巷44號","121.448015","25.03112","6500500","新莊區"
"242016","350-TH","2018/02/19 08:49:33","新北市新莊區中安街5巷3號","121.452548333333","25.0454966666667","6500500","新莊區"
"242010","351-TH","2018/02/19 08:49:30","新北市新莊區中港路591巷34號","121.449596666667","25.05239","6500500","新莊區"
"239007","AAC-297","2018/02/19 08:49:23","新北市鶯歌區鶯桃路170巷9號","121.337433333333","24.95563","6500800","鶯歌區"
"239006","891-R6","2018/02/19 08:49:37","新北市鶯歌區鶯桃路417號","121.332843333333","24.96463","6500800","鶯歌區"
"239008","527-UM","2018/02/19 08:49:27","新北市鶯歌區香賓街17號","121.337291666667","24.979765","6500800","鶯歌區"
"239005","526-UM","2018/02/19 08:49:25","新北市鶯歌區鳳吉四街43號","121.327318333333","24.9732266666667","6500800","鶯歌區"
"239003","360-BY","2018/02/19 08:49:34","新北市鶯歌區鶯桃路210號","121.337251666667","24.9591383333333","6500800","鶯歌區"
"239004","193-VK","2018/02/19 08:49:26","新北市鶯歌區三鶯路91號","121.358838333333","24.9437616666667","6500800","鶯歌區"
"242047","281-VK","2018/02/19 08:49:27","新北市新莊區建國二路11號","121.4346","25.023845","6500500","新莊區"
"242030","280-VK","2018/02/19 08:49:32","新北市新莊區新泰路255巷20號","121.445233333333","25.0398266666667","6500500","新莊區"
"220040","637-BX","2018/02/19 08:49:31","新北市板橋區民生路二段188號","121.470248333333","25.02026","6500100","板橋區"
