"lineid","car","time","location","longitude","latitude","cityid","cityname"
"249005","172-UM","2018/02/19 09:19:33","新北市八里區荖阡坑路2-6號","121.39842","25.1442883333333","6502300","八里區"
"249001","173-UM","2018/02/19 09:19:28","新北市八里區龍米路一段103號","121.452941666667","25.1252216666667","6502300","八里區"
"249004","303-UY","2018/02/19 09:19:34","新北市八里區龍米路二段236-3號","121.431636666667","25.158735","6502300","八里區"
"249002","305-UY","2018/02/19 09:19:38","新北市八里區龍米路一段386巷23號","121.452125","25.13297","6502300","八里區"
"248005","653-BX","2018/02/19 09:19:20","新北市五股區水碓三路63號","121.430355","25.0715516666667","6501500","五股區"
"244012","069-UM","2018/02/19 09:19:28","新北市林口區文化一路二段192號","121.382841666667","25.0803116666667","6501700","林口區"
"244001","248-BX","2018/02/19 09:19:35","新北市林口區林口路83-1號","121.389703333333","25.0799183333333","6501700","林口區"
"244018","402-UM","2018/02/19 09:19:38","新北市林口區麗園路89號","121.373111666667","25.068705","6501700","林口區"
"244022","483-VK","2018/02/19 09:19:28","新北市林口區東湖路153巷135號","121.382183333333","25.0735433333333","6501700","林口區"
"244016","485-VK","2018/02/19 09:19:36","新北市林口區文化二路一段120巷3號","121.36797","25.0700733333333","6501700","林口區"
"244008","657-BX","2018/02/19 09:19:38","新北市林口區福林路54號","121.379231666667","25.088935","6501700","林口區"
"244010","701-TV","2018/02/19 09:19:37","新北市林口區仁愛路一段272巷54號","121.391473333333","25.077035","6501700","林口區"
"244024","837-TS","2018/02/19 09:19:33","新北市林口區南勢街256號","121.35836","25.07582","6501700","林口區"
"244020","838-TS","2018/02/19 09:19:23","新北市林口區自強二街1號","121.397466666667","25.0784783333333","6501700","林口區"
"222006","289-BY","2018/02/19 09:19:36","新北市深坑區北深路一段278巷28號","121.628493333333","25.0126683333333","6501800","深坑區"
"231007","189-VK","2018/02/19 09:19:29","新北市新店區新潭路三段215巷25號","121.508075","24.9041733333333","6500600","新店區"
"231008","192-VK","2018/02/19 09:19:36","新北市新店區廣興路60巷1-1號","121.53935","24.914145","6500600","新店區"
"235001","611-BX","2018/02/19 09:19:39","新北市中和區莒光路181號","121.472631666667","24.9992533333333","6500300","中和區"
"220020","015-TV","2018/02/19 09:19:37","新北市板橋區金門街25巷10號","121.433975","24.9942683333333","6500100","板橋區"
"220013","072-UY","2018/02/19 09:19:34","新北市板橋區民族路267號","121.470683333333","25.00706","6500100","板橋區"
"220034","073-UY","2018/02/19 09:19:32","新北市板橋區南雅西路二段192巷18號","121.452355","25.013975","6500100","板橋區"
"220017","AAD-861","2018/02/19 09:19:25","新北市板橋區東興街1號","121.458833333333","25.0051533333333","6500100","板橋區"
"226005","5620-A6","2018/02/19 09:19:23","新北市平溪區南山里六分11-1號","121.797653333333","25.0498766666667","6502400","平溪區"
"226003","AGD-0702","2018/02/19 09:19:36","新北市平溪區十分里十分街271-3號","121.77908","25.0447866666667","6502400","平溪區"
"223001","205-TH","2018/02/19 09:19:14","新北市石碇區北宜路六段十三股巷1號","121.649015","24.947505","6501900","石碇區"
"223008","406-TH","2018/02/19 09:19:38","新北市石碇區光明路耳空龜巷10-2號","121.689155","25.038645","6501900","石碇區"
"223001","592-UM","2018/02/19 09:19:39","新北市石碇區北宜路六段十三股巷1號","121.649158333333","24.947485","6501900","石碇區"
"223004","660-BX","2018/02/19 09:19:38","新北市石碇區崩山58號","121.686395","24.96594","6501900","石碇區"
"223007","661-BX","2018/02/19 09:16:10","新北市石碇區光明路17-2號","121.68485","25.0318883333333","6501900","石碇區"
"223005","677-TV","2018/02/19 09:19:39","新北市石碇區崩山58號","121.686151666667","24.9659766666667","6501900","石碇區"
"224008","275-VK","2018/02/19 09:19:30","新北市瑞芳區明燈路一段18巷7號","121.822275","25.10848","6501200","瑞芳區"
"224007","273-VK","2018/02/19 09:19:29","新北市瑞芳區月眉路58號","121.760505","25.11104","6501200","瑞芳區"
"224005","271-BY","2018/02/19 09:19:20","新北市瑞芳區鼻頭路245-1號","121.913185","25.12426","6501200","瑞芳區"
"224006","201-TW","2018/02/19 09:19:33","新北市瑞芳區中正路2號","121.809233333333","25.1068966666667","6501200","瑞芳區"
"227005","282-VK","2018/02/19 09:03:38","新北市雙溪區泰平里料角坑25號","121.812153333333","24.97295","6502500","雙溪區"
"208004","AAC-292","2018/02/19 09:19:41","新北市金山區重和里磺溪頭1-1號","121.597975","25.2147516666667","6502700","金山區"
"252006","073-UM","2018/02/19 09:19:39","新北市三芝區樂全街18號","121.486583333333","25.2585783333333","6502100","三芝區"
"252004","249-BX","2018/02/19 09:19:33","新北市三芝區興華里田心子8-1號","121.496346666667","25.2035633333333","6502100","三芝區"
"236005","498-BY","2018/02/19 09:19:33","新北市土城區忠義路90號","121.44366","24.9611983333333","6501300","土城區"
"242028","986-R7","2018/02/19 09:19:22","新北市新莊區中原路349號","121.445103333333","25.05434","6500500","新莊區"
"242024","615-BX","2018/02/19 09:19:33","新北市新莊區五工二路70巷7號","121.46045","25.066165","6500500","新莊區"
"242022","613-BX","2018/02/19 09:19:21","新北市新莊區化成路219號","121.466091666667","25.0523233333333","6500500","新莊區"
"242026","612-BX","2018/02/19 09:19:36","新北市新莊區幸福路547號","121.454721666667","25.04923","6500500","新莊區"
"242038","566-BX","2018/02/19 09:19:34","新北市新莊區民安路299巷14號","121.429363333333","25.022895","6500500","新莊區"
"242043","497-BY","2018/02/19 09:19:43","新北市新莊區中正路929巷7弄18號","121.411498333333","25.0202283333333","6500500","新莊區"
"242033","415-TV","2018/02/19 09:19:39","新北市新莊區仁愛街22號","121.444245","25.0358283333333","6500500","新莊區"
"242003","413-TV","2018/02/19 09:19:22","新北市新莊區化成路205-46號","121.465708333333","25.0512333333333","6500500","新莊區"
"242040","400-BY","2018/02/19 09:19:22","新北市新莊區壽山路61號","121.410571666667","25.0328116666667","6500500","新莊區"
"242059","362-BY","2018/02/19 09:19:16","新北市新莊區瓊林路59-38號","121.441113333333","25.0234133333333","6500500","新莊區"
"242057","353-BY","2018/02/19 09:19:35","新北市新莊區八德街97號","121.424328333333","25.021345","6500500","新莊區"
"242006","132-UY","2018/02/19 09:19:26","新北市新莊區福壽街94巷17號","121.459245","25.0501633333333","6500500","新莊區"
"242045","172-VK","2018/02/19 09:19:32","新北市新莊區環河路636-1號","121.436965","25.010405","6500500","新莊區"
"242014","175-VK","2018/02/19 09:19:24","新北市新莊區永樂街241號","121.445991666667","25.04436","6500500","新莊區"
"242001","176-VK","2018/02/19 09:19:26","新北市新莊區中正路56巷10號","121.461313333333","25.0410583333333","6500500","新莊區"
"242012","346-TH","2018/02/19 09:19:38","新北市新莊區幸福路710巷5弄1號","121.449076666667","25.0497483333333","6500500","新莊區"
"242055","349-TH","2018/02/19 09:19:26","新北市新莊區環河路636-7號","121.437366666667","25.0117566666667","6500500","新莊區"
"242016","350-TH","2018/02/19 09:19:25","新北市新莊區中港三街13號","121.450965","25.04644","6500500","新莊區"
"239007","AAC-297","2018/02/19 09:19:43","新北市鶯歌區育英街69號","121.347303333333","24.9519883333333","6500800","鶯歌區"
"239006","891-R6","2018/02/19 09:19:37","新北市鶯歌區德昌街140巷34號","121.332401666667","24.9617933333333","6500800","鶯歌區"
"239008","527-UM","2018/02/19 09:19:27","新北市鶯歌區國際一路179號","121.336285","24.976405","6500800","鶯歌區"
"239003","360-BY","2018/02/19 09:19:34","新北市鶯歌區福安街32巷30號","121.335216666667","24.9635633333333","6500800","鶯歌區"
"220027","145-BY","2018/02/19 09:19:45","新北市板橋區中正路171號","121.456663333333","25.0164583333333","6500100","板橋區"
"220089","146-RM","2018/02/19 09:19:31","新北市八里區商港路105巷15號","121.389955","25.1481","6500100","板橋區"
"220028","200-UY","2018/02/19 09:19:36","新北市板橋區大觀路二段265巷3弄1號","121.44292","24.9983416666667","6500100","板橋區"
"220050","245-BX","2018/02/19 09:19:24","新北市板橋區民生路二段188號","121.470075","25.0208266666667","6500100","板橋區"
"220004","276-BY","2018/02/19 09:19:39","新北市板橋區信義路54巷2號","121.457091666667","24.9940083333333","6500100","板橋區"
"220019","283-VK","2018/02/19 09:19:22","新北市板橋區忠孝路154巷49號","121.464486666667","25.0009416666667","6500100","板橋區"
"220001","285-VK","2018/02/19 09:19:35","新北市板橋區懷仁街14巷15號","121.475698333333","25.019625","6500100","板橋區"
"220031","286-VK","2018/02/19 09:19:40","新北市板橋區僑中二街10巷39號","121.44533","25.011105","6500100","板橋區"
"220029","287-VK","2018/02/19 09:19:36","新北市板橋區光華街15巷16號","121.453578333333","25.0117633333333","6500100","板橋區"
"220032","296-UM","2018/02/19 09:19:28","新北市板橋區大觀路二段154號","121.44158","24.99869","6500100","板橋區"
"242047","281-VK","2018/02/19 09:19:27","新北市新莊區萬安街36號","121.421248333333","25.02423","6500500","新莊區"
"220023","303-R5","2018/02/19 09:19:31","新北市板橋區南雅東路100巷4號","121.454085","25.0074483333333","6500100","板橋區"
"220041","307-R5","2018/02/19 09:19:36","新北市板橋區文化路二段225巷60弄47號","121.469081666667","25.0295366666667","6500100","板橋區"
"220047","317-R6","2018/02/19 09:19:33","新北市板橋區自由路51巷14弄3號","121.464658333333","25.02361","6500100","板橋區"
"220012","486-VK","2018/02/19 09:19:29","新北市板橋區中山路一段291-2號","121.47074","25.0142633333333","6500100","板橋區"
"220104","560-BX","2018/02/19 09:19:31","新北市板橋區中正路325巷3弄7號","121.453756666667","25.0189533333333","6500100","板橋區"
"220011","609-BX","2018/02/19 09:19:38","新北市板橋區三民路二段203-2號","121.479215","25.0136433333333","6500100","板橋區"
"220040","637-BX","2018/02/19 09:19:31","新北市板橋區縣民大道三段187巷13號","121.479061666667","25.0252533333333","6500100","板橋區"
"220005","686-BX","2018/02/19 09:19:34","新北市板橋區重慶路260號","121.462873333333","25.000665","6500100","板橋區"
"220002","741-BX","2018/02/19 09:19:21","新北市板橋區後埔街37號","121.460521666667","25.00615","6500100","板橋區"
"220003","827-TW","2018/02/19 09:19:26","新北市板橋區中山路一段158巷23-1號","121.466445","25.011205","6500100","板橋區"
"220014","829-TW","2018/02/19 09:19:29","新北市板橋區民享街116巷1-3號","121.478015","25.0158","6500100","板橋區"
"220022","895-R6","2018/02/19 09:19:29","新北市板橋區南雅南路一段2號","121.45639","25.0070466666667","6500100","板橋區"
"220046","AAC-210","2018/02/19 09:19:37","新北市板橋區漢生西路89巷3弄7號","121.461333333333","25.0194066666667","6500100","板橋區"
"220018","AAC-253","2018/02/19 09:19:36","新北市板橋區四川路一段30號","121.459478333333","25.0062033333333","6500100","板橋區"
