"lineid","car","time","location","longitude","latitude","cityid","cityname"
"249005","172-UM","2018/02/19 10:29:33","新北市八里區長坑口38-4號","121.389208333333","25.128855","6502300","八里區"
"249001","173-UM","2018/02/19 10:29:48","新北市八里區中華路二段312號","121.403773333333","25.1483783333333","6502300","八里區"
"249004","303-UY","2018/02/19 10:29:34","新北市八里區中華路一段333-1號","121.412828333333","25.1544383333333","6502300","八里區"
"249002","305-UY","2018/02/19 10:29:38","新北市八里區龍米路一段51號","121.456451666667","25.1193816666667","6502300","八里區"
"249003","593-UM","2018/02/19 10:29:53","新北市八里區華峰一街49號","121.398673333333","25.146175","6502300","八里區"
"248005","653-BX","2018/02/19 10:29:40","新北市五股區更洲路47-1號","121.45668","25.0792416666667","6501500","五股區"
"244012","069-UM","2018/02/19 10:29:48","新北市林口區麗園一街1號","121.375695","25.0725","6501700","林口區"
"244006","080-UY","2018/02/19 10:29:47","新北市林口區太平里8-1號","121.38022","25.1141333333333","6501700","林口區"
"244018","402-UM","2018/02/19 10:29:38","新北市林口區麗園二街12巷2-2號","121.378316666667","25.06903","6501700","林口區"
"244022","483-VK","2018/02/19 10:29:47","新北市林口區文化三路一段555巷88-1號","121.368735","25.0767533333333","6501700","林口區"
"222006","289-BY","2018/02/19 10:29:34","新北市深坑區向天湖2號","121.616246666667","24.99475","6501800","深坑區"
"231007","189-VK","2018/02/19 10:29:49","新北市新店區新潭路三段131號","121.511373333333","24.91148","6500600","新店區"
"231008","192-VK","2018/02/19 10:28:56","新北市新店區小坑一路88-1號","121.530028333333","24.9066083333333","6500600","新店區"
"220020","015-TV","2018/02/19 10:29:37","新北市板橋區金門街215巷33號","121.433138333333","24.989835","6500100","板橋區"
"220013","072-UY","2018/02/19 10:29:34","新北市板橋區民族路229號","121.469713333333","25.0071866666667","6500100","板橋區"
"220034","073-UY","2018/02/19 10:29:31","新北市板橋區金門街337巷9弄2-1號","121.4319","24.9829033333333","6500100","板橋區"
"220017","AAD-861","2018/02/19 10:29:45","新北市板橋區貴興路121號","121.455618333333","25.0022483333333","6500100","板橋區"
"224008","275-VK","2018/02/19 10:29:50","新北市瑞芳區裕民新城1號","121.802251666667","25.111995","6501200","瑞芳區"
"224007","273-VK","2018/02/19 10:29:49","新北市瑞芳區傑魚坑路78號","121.792791666667","25.1105266666667","6501200","瑞芳區"
"224005","271-BY","2018/02/19 10:29:40","新北市瑞芳區建基路二段7號","121.807535","25.132785","6501200","瑞芳區"
"224006","201-TW","2018/02/19 10:29:53","新北市瑞芳區三爪子坑路118-3號","121.806535","25.1052533333333","6501200","瑞芳區"
"227005","282-VK","2018/02/19 10:03:58","新北市雙溪區泰平里烏山路28號","121.814423333333","24.929005","6502500","雙溪區"
"208004","AAC-292","2018/02/19 10:29:53","新北市金山區六股里下六股9號","121.626153333333","25.2239666666667","6502700","金山區"
"242040","400-BY","2018/02/19 10:29:42","新北市新莊區天祥街47巷10號","121.416255","25.0281633333333","6500500","新莊區"
"242057","353-BY","2018/02/19 10:29:35","新北市新莊區四維路195號","121.422061666667","25.02081","6500500","新莊區"
"242035","133-UY","2018/02/19 10:29:36","新北市新莊區後港一路76巷12弄2號","121.427118333333","25.02589","6500500","新莊區"
"242055","349-TH","2018/02/19 10:29:46","新北市新莊區環漢路三段1號","121.442235","25.0240766666667","6500500","新莊區"
"239007","AAC-297","2018/02/19 10:29:42","新北市鶯歌區中山路194-4號","121.347946666667","24.9570933333333","6500800","鶯歌區"
"239006","891-R6","2018/02/19 10:29:37","新北市鶯歌區鶯桃路91巷40弄1號","121.33752","24.9523266666667","6500800","鶯歌區"
"239008","527-UM","2018/02/19 10:29:47","新北市鶯歌區國際二路4巷17號","121.339175","24.9735183333333","6500800","鶯歌區"
"239003","360-BY","2018/02/19 10:29:53","新北市鶯歌區中正一路441號","121.362211666667","24.9568833333333","6500800","鶯歌區"
"239004","193-VK","2018/02/19 10:29:46","新北市鶯歌區中正三路318巷30號","121.326733333333","24.9369983333333","6500800","鶯歌區"
"220027","145-BY","2018/02/19 10:29:43","新北市板橋區復興街128號","121.460873333333","25.0179933333333","6500100","板橋區"
"220050","245-BX","2018/02/19 10:29:44","新北市板橋區莊敬路40號","121.473016666667","25.02698","6500100","板橋區"
"220004","276-BY","2018/02/19 10:29:48","新北市板橋區四川路二段63號","121.453448333333","24.9951683333333","6500100","板橋區"
"220001","285-VK","2018/02/19 10:29:33","新北市板橋區懷仁街90-2號","121.477463333333","25.0180966666667","6500100","板橋區"
"220031","286-VK","2018/02/19 10:29:39","新北市板橋區大觀路三段50巷49號","121.432261666667","24.9958216666667","6500100","板橋區"
"220029","287-VK","2018/02/19 10:29:36","新北市板橋區大觀路一段35巷7弄14號","121.45029","25.0071116666667","6500100","板橋區"
"242047","281-VK","2018/02/19 10:29:47","新北市新莊區瓊林路59-20號","121.440768333333","25.0217016666667","6500500","新莊區"
"220023","303-R5","2018/02/19 10:29:51","新北市板橋區大勇街2號","121.45583","25.0177716666667","6500100","板橋區"
"220034","461-BY","2018/02/19 10:29:37","新北市板橋區中正路216巷51號","121.457378333333","25.01892","6500100","板橋區"
"220012","486-VK","2018/02/19 10:29:49","新北市板橋區漢生東路195號","121.469993333333","25.0113733333333","6500100","板橋區"
"220038","487-VK","2018/02/19 10:29:51","新北市板橋區四維路257號","121.46346","25.0281533333333","6500100","板橋區"
"242030","280-VK","2018/02/19 10:29:52","新北市新莊區三和路17-4號","121.438566666667","25.03787","6500500","新莊區"
"220003","827-TW","2018/02/19 10:29:53","新北市板橋區仁愛路86巷20號","121.46113","24.998735","6500100","板橋區"
"220014","829-TW","2018/02/19 10:29:48","新北市板橋區漢生東路193巷13號","121.470573333333","25.0118966666667","6500100","板橋區"
"220022","895-R6","2018/02/19 10:29:49","新北市板橋區後菜園街1號","121.457886666667","25.0103333333333","6500100","板橋區"
"220018","AAC-253","2018/02/19 10:29:35","新北市板橋區館前東路120號","121.463766666667","25.0077716666667","6500100","板橋區"
