"lineid","car","time","location","longitude","latitude","cityid","cityname"
"249004","303-UY","2018/02/19 11:39:14","新北市八里區下罟子8-10號","121.3826","25.1443066666667","6502300","八里區"
"244009","657-BX","2018/02/19 11:32:29","新北市林口區粉寮69號","121.404961666667","25.0908416666667","6501700","林口區"
"231008","192-VK","2018/02/19 11:15:36","新北市新店區成功路105號","121.536693333333","24.8945966666667","6500600","新店區"
"220013","072-UY","2018/02/19 11:39:14","新北市中和區中山路三段229巷49號","121.469225","25.0054983333333","6500100","板橋區"
"224007","273-VK","2018/02/19 11:39:09","新北市瑞芳區大埔路慶安新村23號","121.762811666667","25.1003183333333","6501200","瑞芳區"
"227005","282-VK","2018/02/19 11:39:18","新北市雙溪區魚行里丁子蘭坑17號","121.862993333333","25.0180283333333","6502500","雙溪區"
"220027","145-BY","2018/02/19 11:39:22","新北市板橋區建國街94號","121.459718333333","25.01732","6500100","板橋區"
"220028","200-UY","2018/02/19 11:39:25","新北市板橋區大觀路二段153巷20號","121.446471666667","25.0003366666667","6500100","板橋區"
"220031","286-VK","2018/02/19 11:39:19","新北市板橋區僑中二街92巷27號","121.444831666667","25.0090233333333","6500100","板橋區"
"220041","307-R5","2018/02/19 11:39:15","新北市板橋區裕民街147號","121.458706666667","25.0270833333333","6500100","板橋區"
"220104","560-BX","2018/02/19 11:39:11","新北市板橋區新生街53巷14號","121.457556666667","25.021515","6500100","板橋區"
"220002","741-BX","2018/02/19 11:39:20","新北市板橋區實踐路93巷21號","121.464976666667","25.00542","6500100","板橋區"
"220046","AAC-210","2018/02/19 11:39:23","新北市板橋區公館街21號","121.46072","25.01467","6500100","板橋區"
"220018","AAC-253","2018/02/19 11:39:16","新北市土城區福安街102巷5弄15號","121.41662","24.9648883333333","6500100","板橋區"
