"lineid","car","time","location","longitude","latitude","cityid","cityname"
"249004","303-UY","2018/02/19 11:49:54","新北市八里區中山路三段375號","121.372831666667","25.1378066666667","6502300","八里區"
"244009","657-BX","2018/02/19 11:32:29","新北市林口區粉寮69號","121.404961666667","25.0908416666667","6501700","林口區"
"231008","192-VK","2018/02/19 11:49:37","新北市新店區松林路16巷41號","121.5452","24.9059766666667","6500600","新店區"
"220013","072-UY","2018/02/19 11:49:54","新北市板橋區海山路29號","121.467633333333","25.0091","6500100","板橋區"
"228005","828-UM","2018/02/19 11:49:45","新北市貢寮區貢寮里朝陽街1-2號","121.912358333333","25.0212383333333","6502600","貢寮區"
"227005","282-VK","2018/02/19 11:49:57","新北市雙溪區魚行里丁子蘭坑47號","121.86628","25.000115","6502500","雙溪區"
"220027","145-BY","2018/02/19 11:49:43","新北市板橋區中正路183巷25-3號","121.454995","25.01595","6500100","板橋區"
"220028","200-UY","2018/02/19 11:49:55","新北市板橋區大觀路二段185號","121.444793333333","24.999825","6500100","板橋區"
"220031","286-VK","2018/02/19 11:49:59","新北市板橋區僑中二街102巷48號","121.444278333333","25.0085366666667","6500100","板橋區"
"220041","307-R5","2018/02/19 11:49:55","新北市板橋區文化路一段45巷4號","121.460305","25.0134183333333","6500100","板橋區"
"220018","AAC-253","2018/02/19 11:49:35","新北市板橋區華東街1-9號","121.44827","24.9948783333333","6500100","板橋區"
