"lineid","car","time","location","longitude","latitude","cityid","cityname"
"234044","148-BY","2018/02/19 13:18:58","新北市永和區秀朗路二段148巷12弄15號","121.524688333333","25.000875","6500400","永和區"
"234066","149-BY","2018/02/19 13:19:09","新北市永和區保平路50巷8弄17號","121.511525","25.0078816666667","6500400","永和區"
"234005","207-UY","2018/02/19 13:19:03","新北市永和區中山路一段331號","121.506111666667","25.0063316666667","6500400","永和區"
"234078","298-R6","2018/02/19 13:19:13","新北市永和區福和路26號","121.523935","25.0083716666667","6500400","永和區"
"234036","336-UY","2018/02/19 13:18:54","新北市永和區環河東路四段84號","121.528418333333","24.9977766666667","6500400","永和區"
"234062","337-UY","2018/02/19 13:18:43","新北市永和區永元路38號","121.522341666667","25.0008816666667","6500400","永和區"
"234084","338-UY","2018/02/19 13:19:04","新北市永和區永貞路112號","121.51889","25.0044883333333","6500400","永和區"
"234068","552-UM","2018/02/19 13:18:56","新北市永和區豫溪街135號","121.519691666667","25.0101883333333","6500400","永和區"
"234015","745-BX","2018/02/19 13:19:12","新北市永和區文化路144巷33號","121.512696666667","25.0168583333333","6500400","永和區"
"234028","746-BX","2018/02/19 13:19:09","新北市永和區厚德街82號","121.523771666667","24.9988716666667","6500400","永和區"
"234052","KEA-2590","2018/02/19 13:19:05","新北市永和區中興街50號","121.516806666667","25.0116083333333","6500400","永和區"
"234012","KEA-2591","2018/02/19 13:19:08","新北市永和區仁愛路122號","121.511635","25.0130966666667","6500400","永和區"
"234060","AAD-866","2018/02/19 13:19:10","新北市永和區秀朗路一段151號","121.516418333333","25.0045166666667","6500400","永和區"
"234040","862-TW","2018/02/19 13:18:55","新北市永和區水源街43巷2號","121.509696666667","25.0041383333333","6500400","永和區"
"234048","863-TW","2018/02/19 13:19:15","新北市永和區保福路二段94巷2號","121.510466666667","25.0136016666667","6500400","永和區"
"234010","9373-KE","2018/02/19 13:19:03","新北市永和區仁愛路31巷2弄15號","121.513501666667","25.01287","6500400","永和區"
"248013","025-BX","2018/02/19 13:19:11","新北市五股區自強路19巷5-1號","121.434626666667","25.07375","6501500","五股區"
"248015","026-BX","2018/02/19 13:19:04","新北市五股區凌雲路一段109巷34號","121.449465","25.1005633333333","6501500","五股區"
"248005","077-UY","2018/02/19 13:19:07","新北市五股區中興路一段149號","121.465138333333","25.0736216666667","6501500","五股區"
"248007","095-VK","2018/02/19 13:19:07","新北市五股區更洲路32巷8弄17號","121.459273333333","25.07963","6501500","五股區"
"248019","225-UY","2018/02/19 13:19:10","新北市五股區成泰路四段2號","121.45283","25.1062266666667","6501500","五股區"
"248011","247-BX","2018/02/19 13:19:12","新北市五股區御史路1巷17號","121.441171666667","25.0905316666667","6501500","五股區"
"248003","677-BX","2018/02/19 13:18:57","新北市五股區成泰路二段226號","121.439641666667","25.0863783333333","6501500","五股區"
"248001","678-BX","2018/02/19 13:19:15","新北市五股區西雲路49號","121.4435","25.0909266666667","6501500","五股區"
"248009","682-TV","2018/02/19 13:19:13","新北市五股區成泰路一段139巷2弄2號","121.435076666667","25.0730033333333","6501500","五股區"
"234076","969-R7","2018/02/19 13:19:00","新北市永和區智光街101號","121.51623","24.9969233333333","6500400","永和區"
"234072","AAC-211","2018/02/19 13:19:13","新北市永和區竹林路106號","121.51972","25.0118916666667","6500400","永和區"
"234001","AAC-295","2018/02/19 13:19:12","新北市永和區和平街44號","121.51287","25.0099416666667","6500400","永和區"
"244001","248-BX","2018/02/19 13:17:53","新北市林口區嘉寶里11鄰67號","121.339143333333","25.11018","6501700","林口區"
"243005","646-TV","2018/02/19 13:18:54","新北市泰山區南林路93號","121.41553","25.0512","6501600","泰山區"
"231002","002-UM","2018/02/19 13:19:15","新北市新店區安華路28-1號","121.519826666667","24.9608683333333","6500600","新店區"
"231025","0293-UT","2018/02/19 13:18:59","新北市新店區中央路147號","121.530053333333","24.9734316666667","6500600","新店區"
"231028","046-UY","2018/02/19 13:19:03","新北市新店區安華路28-1號","121.519556666667","24.96084","6500600","新店區"
"231030","047-UY","2018/02/19 13:19:10","新北市新店區安華路28-1號","121.519653333333","24.9610866666667","6500600","新店區"
"231029","106-UY","2018/02/19 13:19:05","新北市新店區安華路28-1號","121.519588333333","24.9608383333333","6500600","新店區"
"231018","107-UY","2018/02/19 13:19:02","新北市新店區安康路一段75-1號","121.530068333333","24.96115","6500600","新店區"
"231011","108-UY","2018/02/19 13:19:15","新北市新店區安康路一段35號","121.531671666667","24.9607516666667","6500600","新店區"
"231019","187-VK","2018/02/19 13:19:15","新北市新店區環河路29巷1號","121.536398333333","24.9611783333333","6500600","新店區"
"231014","KEA-2219","2018/02/19 13:19:12","新北市新店區安康路一段150號","121.526355","24.9629483333333","6500600","新店區"
"231026","256-BX","2018/02/19 13:18:57","新北市新店區安華路28-1號","121.519656666667","24.961115","6500600","新店區"
"231010","278-BY","2018/02/19 13:19:06","新北市新店區秀山路68-1號","121.531056666667","24.9609583333333","6500600","新店區"
"231023","AAD-862","2018/02/19 13:19:00","新北市新店區光明街79號","121.538741666667","24.960785","6500600","新店區"
"231027","3712-VJ","2018/02/19 13:19:06","新北市新店區秀山路20號","121.532463333333","24.9604233333333","6500600","新店區"
"231024","4716-K9","2018/02/19 13:19:00","新北市新店區安康路一段65號","121.530378333333","24.961055","6500600","新店區"
"231038","4715-K9","2018/02/19 13:19:13","新北市新店區安華路28-1號","121.5195","24.9605866666667","6500600","新店區"
"231036","512-UM","2018/02/19 13:19:10","新北市新店區安康路二段393號","121.494241666667","24.95394","6500600","新店區"
"231035","515-UM","2018/02/19 13:19:13","新北市新店區安康路一段323-3號","121.52113","24.9638233333333","6500600","新店區"
"231003","641-BX","2018/02/19 13:19:13","新北市新店區安華路1-1號","121.519548333333","24.9605033333333","6500600","新店區"
"231034","645-TV","2018/02/19 13:19:04","新北市新店區安華路28-1號","121.51935","24.9606933333333","6500600","新店區"
"231013","719-UM","2018/02/19 13:18:58","新北市新店區安康路一段126號","121.526803333333","24.9627533333333","6500600","新店區"
"231031","720-UM","2018/02/19 13:19:12","新北市新店區安豐路61號","121.498278333333","24.95388","6500600","新店區"
"231005","897-TW","2018/02/19 13:19:08","新北市新店區安康路一段355號","121.51983","24.96273","6500600","新店區"
"231006","898-TW","2018/02/19 13:19:02","新北市新店區安華路28-1號","121.519466666667","24.9609083333333","6500600","新店區"
"231004","899-TW","2018/02/19 13:17:29","新北市新店區安華路28-1號","121.5192","24.9610283333333","6500600","新店區"
"231037","AKT-0513","2018/02/19 13:18:55","新北市新店區安華路28-1號","121.519533333333","24.9606166666667","6500600","新店區"
"235030","003-UY","2018/02/19 13:19:10","新北市中和區水源路36巷1弄3號","121.505403333333","25.0035166666667","6500300","中和區"
"235028","005-UY","2018/02/19 13:18:56","新北市中和區中正路132號","121.499373333333","24.9938683333333","6500300","中和區"
"235027","006-UY","2018/02/19 13:19:07","新北市中和區中正路589巷7號","121.485885","24.9941183333333","6500300","中和區"
"235020","096-UM","2018/02/19 13:19:11","新北市中和區新民街104號","121.480868333333","25.0084","6500300","中和區"
"235003","097-UM","2018/02/19 13:19:10","新北市中和區安平路31號","121.509316666667","24.9947316666667","6500300","中和區"
"235029","098-UM","2018/02/19 13:19:07","新北市中和區莊敬路49巷20弄20號","121.502685","25.0058433333333","6500300","中和區"
"235004","150-BY","2018/02/19 13:19:03","新北市中和區保健路50巷66號","121.509366666667","24.9952066666667","6500300","中和區"
"235022","151-BY","2018/02/19 13:19:03","新北市中和區圓通路367巷61弄2號","121.491781666667","24.9833266666667","6500300","中和區"
"235019","183-VK","2018/02/19 13:19:17","新北市中和區中正路637巷60弄61號","121.485415","24.992985","6500300","中和區"
"235002","185-VK","2018/02/19 13:19:13","新北市中和區秀朗路三段128巷17弄8號","121.524031666667","24.9934","6500300","中和區"
"235013","186-VK","2018/02/19 13:19:01","新北市中和區景平路508號","121.503815","24.9938633333333","6500300","中和區"
"235031","255-BX","2018/02/19 13:19:17","新北市中和區新生街177巷11號","121.484341666667","25.0007733333333","6500300","中和區"
"235036","301-VK","2018/02/19 13:18:56","新北市中和區連城路265巷12弄2號","121.491741666667","24.9952183333333","6500300","中和區"
"235007","352-BY","2018/02/19 13:19:02","新北市中和區中正路13號","121.503081666667","24.9934183333333","6500300","中和區"
"235032","377-QA","2018/02/19 13:19:06","新北市中和區員山路36巷16-3號","121.485091666667","24.991325","6500300","中和區"
"235025","378-QA","2018/02/19 13:19:09","新北市中和區民享街116巷20號","121.473695","24.9990383333333","6500300","中和區"
"235035","269-TV","2018/02/19 13:19:00","新北市中和區永和路458巷1弄22號","121.483438333333","25.01267","6500300","中和區"
"235014","4979-A6","2018/02/19 13:19:05","新北市中和區興南路一段1號","121.511536666667","24.9911666666667","6500300","中和區"
"235033","4980-A6","2018/02/19 13:19:12","新北市中和區連城路127巷7-2號","121.49653","24.9988516666667","6500300","中和區"
"235006","551-UM","2018/02/19 13:19:07","新北市中和區成功路127巷21號","121.527068333333","24.9909716666667","6500300","中和區"
"235034","558-UM","2018/02/19 13:19:13","新北市中和區圓通路164號","121.497448333333","24.9948916666667","6500300","中和區"
"235009","565-BX","2018/02/19 13:18:58","新北市中和區南山路236巷22弄21號","121.505056666667","24.9892566666667","6500300","中和區"
"235018","640-BX","2018/02/19 13:19:15","新北市中和區民享街86巷26號","121.47337","25.0006533333333","6500300","中和區"
"235024","647-TV","2018/02/19 13:19:01","新北市中和區連城路469巷79弄14號","121.483796666667","24.9936666666667","6500300","中和區"
"235011","732-UM","2018/02/19 13:19:02","新北市中和區南山路320巷3號","121.507655","24.9865566666667","6500300","中和區"
"235010","733-UM","2018/02/19 13:19:02","新北市中和區中興街116號","121.499996666667","24.9931016666667","6500300","中和區"
"235026","800-TS","2018/02/19 13:18:57","新北市中和區橋和路128號","121.493376666667","25.0061516666667","6500300","中和區"
"235021","801-TS","2018/02/19 13:19:05","新北市中和區員山路75號","121.48085","24.99406","6500300","中和區"
"235016","805-TS","2018/02/19 13:19:02","新北市中和區南山路277號","121.504078333333","24.9923416666667","6500300","中和區"
"235012","896-TW","2018/02/19 13:19:14","新北市中和區員山路36巷16-3號","121.484943333333","24.991855","6500300","中和區"
"235017","900-TW","2018/02/19 13:19:07","新北市中和區員山路36巷16-2號","121.485258333333","24.9916416666667","6500300","中和區"
"235015","157-BY","2018/02/19 13:19:04","新北市中和區捷運路6號","121.510061666667","24.9894766666667","6500300","中和區"
"235001","AAC-213","2018/02/19 13:19:02","新北市中和區景德街95號","121.515698333333","24.99137","6500300","中和區"
"235023","AAC-215","2018/02/19 13:19:08","新北市中和區員山路36巷16-3號","121.485015","24.9913233333333","6500300","中和區"
"220034","073-UY","2018/02/19 13:19:06","新北市板橋區華東街1-10號","121.448263333333","24.9950333333333","6500100","板橋區"
"235005","251-BX","2018/02/19 13:19:06","新北市中和區中和路298號","121.508645","24.9998683333333","6500300","中和區"
"228004","212-TW","2018/02/19 13:19:11","新北市貢寮區吉林里內寮街23號","121.901945","24.9847966666667","6502600","貢寮區"
"228002","585-TW","2018/02/19 13:19:08","新北市貢寮區福隆里桂安街1-1號","121.955165","25.0204933333333","6502600","貢寮區"
"228005","828-UM","2018/02/19 13:19:05","新北市貢寮區美豐里丹裡街10-4號","121.917626666667","25.0552716666667","6502600","貢寮區"
"253003","6232-TK","2018/02/19 13:19:13","新北市石門區內石門81號","121.566653333333","25.2655883333333","6502200","石門區"
"253001","6251-TK","2018/02/19 13:19:07","新北市石門區楓林7號","121.53765","25.29426","6502200","石門區"
"253002","637-UY","2018/02/19 13:18:54","新北市石門區大溪墘11號","121.55466","25.274885","6502200","石門區"
"253004","8270-PC","2018/02/19 13:19:09","新北市石門區阿里荖4號","121.614783333333","25.27872","6502200","石門區"
"208002","KEA-2872","2018/02/19 13:18:55","新北市金山區三界壇路99巷9號","121.620793333333","25.2279183333333","6502700","金山區"
"208003","665-BX","2018/02/19 13:18:56","新北市金山區磺港里磺港路69號","121.646698333333","25.2277516666667","6502700","金山區"
"208001","761-BX","2018/02/19 13:19:11","新北市金山區磺港里磺港路108號","121.64646","25.2268816666667","6502700","金山區"
"207002","749-BX","2018/02/19 13:19:12","新北市萬里區崁腳里崁腳路166號","121.645121666667","25.1559833333333","6502800","萬里區"
"207001","662-BX","2018/02/19 13:19:05","新北市萬里區龜吼里光宇大道2號","121.679801666667","25.1907233333333","6502800","萬里區"
"252005","AAC-283","2018/02/19 13:19:11","新北市三芝區八賢里八連溪64號","121.517345","25.2315","6502100","三芝區"
"237004","KEA-2597","2018/02/19 13:19:16","新北市三峽區中園街18號","121.368103333333","24.9271566666667","6500900","三峽區"
"237009","210-TH","2018/02/19 13:19:12","新北市三峽區大勇路3巷8號","121.367501666667","24.9372966666667","6500900","三峽區"
"237013","252-BX","2018/02/19 13:19:01","新北市三峽區安溪路309巷13號","121.373586666667","24.9332633333333","6500900","三峽區"
"237012","275-BY","2018/02/19 13:19:12","新北市三峽區民生街27巷28號","121.376041666667","24.9359416666667","6500900","三峽區"
"237008","302-VK","2018/02/19 13:19:09","新北市三峽區正義街138號","121.368485","24.916615","6500900","三峽區"
"237006","5529-G3","2018/02/19 13:18:56","新北市三峽區介壽路二段136巷73號","121.392343333333","24.9325166666667","6500900","三峽區"
"237010","706-TV","2018/02/19 13:19:07","新北市三峽區和平街40-1號","121.370188333333","24.93735","6500900","三峽區"
"236005","498-BY","2018/02/19 13:19:06","新北市土城區亞洲路11巷3弄1號","121.435141666667","24.9712333333333","6501300","土城區"
"238002","755-BX","2018/02/19 13:18:59","新北市樹林區大安路275號","121.418771666667","24.9934116666667","6500700","樹林區"
"238010","601-UM","2018/02/19 13:19:09","新北市樹林區大安路200號","121.420688333333","24.9961683333333","6500700","樹林區"
"238006","599-UM","2018/02/19 13:18:58","新北市樹林區八德街102號","121.420983333333","24.9800183333333","6500700","樹林區"
"238018","571-TV","2018/02/19 13:19:00","新北市板橋區篤行路三段98-1號","121.425788333333","24.9848433333333","6500700","樹林區"
"238011","5061-A6","2018/02/19 13:18:58","新北市樹林區博愛一街29巷64號","121.425978333333","24.9916133333333","6500700","樹林區"
"238009","KEA-2213","2018/02/19 13:19:01","新北市樹林區仁愛街64號","121.424076666667","24.98302","6500700","樹林區"
"238012","303-VK","2018/02/19 13:18:58","新北市樹林區中山路一段211號","121.42106","24.9873033333333","6500700","樹林區"
"238017","283-BY","2018/02/19 13:19:09","新北市樹林區啟智街124巷13號","121.415225","24.9883666666667","6500700","樹林區"
"238001","282-BY","2018/02/19 13:19:03","新北市樹林區大安路257號","121.419273333333","24.99403","6500700","樹林區"
"238020","268-VK","2018/02/19 13:19:01","新北市樹林區千歲街101-2號","121.428521666667","25.00091","6500700","樹林區"
"238013","172-UY","2018/02/19 13:19:03","新北市樹林區味王街46巷30號","121.40315","24.97377","6500700","樹林區"
"238003","169-UY","2018/02/19 13:19:11","新北市樹林區八德街1號","121.417516666667","24.984975","6500700","樹林區"
"239007","AAC-297","2018/02/19 13:19:16","新北市鶯歌區建國路136號","121.35134","24.95395","6500800","鶯歌區"
"239006","891-R6","2018/02/19 13:19:00","新北市鶯歌區福昌街29巷2號","121.332676666667","24.961","6500800","鶯歌區"
"239008","527-UM","2018/02/19 13:19:06","新北市鶯歌區西湖街曾厝巷27號","121.33944","24.961415","6500800","鶯歌區"
"239001","417-VK","2018/02/19 13:19:13","新北市鶯歌區黃厝街19號","121.343086666667","24.94568","6500800","鶯歌區"
"239003","360-BY","2018/02/19 13:19:07","新北市鶯歌區德昌街142-1號","121.331793333333","24.9605183333333","6500800","鶯歌區"
"239004","193-VK","2018/02/19 13:18:59","新北市鶯歌區文化路417-5號","121.352891666667","24.948775","6500800","鶯歌區"
"221032","280-BY","2018/02/19 13:18:54","新北市汐止區大同路二段184巷15號","121.654005","25.0636133333333","6501100","汐止區"
"220025","687-BX","2018/02/19 13:19:16","新北市板橋區華東街1-10號","121.448333333333","24.9949483333333","6500100","板橋區"
