"lineid","car","time","location","longitude","latitude","cityid","cityname"
"234044","148-BY","2018/02/19 13:29:18","新北市永和區永元路85號","121.522228333333","25.0014383333333","6500400","永和區"
"234066","149-BY","2018/02/19 13:29:29","新北市永和區永貞路378巷24號","121.510531666667","25.0079383333333","6500400","永和區"
"234005","207-UY","2018/02/19 13:29:23","新北市永和區中山路一段295號","121.50674","25.006785","6500400","永和區"
"234078","298-R6","2018/02/19 13:29:33","新北市永和區環河東路三段54號","121.526865","25.00625","6500400","永和區"
"234036","336-UY","2018/02/19 13:29:14","新北市永和區民樂街51號","121.527471666667","24.9987616666667","6500400","永和區"
"234062","337-UY","2018/02/19 13:29:23","新北市永和區永元路83巷16號","121.52163","25.001465","6500400","永和區"
"234084","338-UY","2018/02/19 13:29:24","新北市永和區永利路72號","121.520325","25.0042633333333","6500400","永和區"
"234068","552-UM","2018/02/19 13:29:16","新北市永和區中正路668號","121.516938333333","25.009045","6500400","永和區"
"234015","745-BX","2018/02/19 13:29:25","新北市永和區環河西路一段95巷5號","121.512011666667","25.0175816666667","6500400","永和區"
"234028","746-BX","2018/02/19 13:29:28","新北市永和區四維街44號","121.525226666667","24.998085","6500400","永和區"
"234052","KEA-2590","2018/02/19 13:29:25","新北市永和區復興街5號","121.515706666667","25.0128783333333","6500400","永和區"
"234012","KEA-2591","2018/02/19 13:29:28","新北市永和區信義路10-1號","121.51453","25.0121066666667","6500400","永和區"
"234060","AAD-866","2018/02/19 13:29:30","新北市永和區秀朗路一段80-7號","121.515748333333","25.0056983333333","6500400","永和區"
"234040","862-TW","2018/02/19 13:29:15","新北市永和區永貞路287巷5號","121.510748333333","25.005055","6500400","永和區"
"234048","863-TW","2018/02/19 13:29:16","新北市永和區仁愛路104巷10號","121.512033333333","25.0136883333333","6500400","永和區"
"234010","9373-KE","2018/02/19 13:29:23","新北市永和區保生路55-1號","121.504531666667","25.0108866666667","6500400","永和區"
"248013","025-BX","2018/02/19 13:29:31","新北市五股區明德路7巷59號","121.434198333333","25.0707833333333","6501500","五股區"
"248015","026-BX","2018/02/19 13:29:24","新北市五股區凌雲路一段83巷22弄1號","121.449878333333","25.10075","6501500","五股區"
"248005","077-UY","2018/02/19 13:29:28","新北市五股區四維路60號","121.467363333333","25.0722166666667","6501500","五股區"
"248007","095-VK","2018/02/19 13:29:27","新北市五股區四維路185巷33號","121.464833333333","25.0776916666667","6501500","五股區"
"248019","225-UY","2018/02/19 13:28:50","新北市五股區孝義路47巷22號","121.451546666667","25.1090583333333","6501500","五股區"
"248011","247-BX","2018/02/19 13:29:13","新北市五股區御成路148號","121.440891666667","25.094455","6501500","五股區"
"248003","677-BX","2018/02/19 13:29:17","新北市五股區六合街3號","121.431948333333","25.0885316666667","6501500","五股區"
"248001","678-BX","2018/02/19 13:29:15","新北市五股區西雲路116-6號","121.444651666667","25.0936533333333","6501500","五股區"
"248009","682-TV","2018/02/19 13:29:13","新北市五股區明德路10號","121.433408333333","25.0716733333333","6501500","五股區"
"234076","969-R7","2018/02/19 13:29:20","新北市永和區民有街23巷49號","121.517616666667","24.9973483333333","6500400","永和區"
"234072","AAC-211","2018/02/19 13:29:13","新北市永和區竹林路30-1號","121.517151666667","25.0146716666667","6500400","永和區"
"234001","AAC-295","2018/02/19 13:29:32","新北市永和區中山路一段102號","121.511196666667","25.01052","6500400","永和區"
"244001","248-BX","2018/02/19 13:29:13","新北市林口區寶斗厝坑57-2號","121.341116666667","25.11655","6501700","林口區"
"243002","KEA-2215","2018/02/19 13:29:21","新北市泰山區黎明路25號","121.422066666667","25.06073","6501600","泰山區"
"243005","646-TV","2018/02/19 13:29:14","新北市泰山區錢厝坑13號","121.415065","25.0405766666667","6501600","泰山區"
"231002","002-UM","2018/02/19 13:29:15","新北市新店區環河路62號","121.537111666667","24.96265","6500600","新店區"
"231025","0293-UT","2018/02/19 13:29:19","新北市新店區中央七街61巷8號","121.528616666667","24.9764066666667","6500600","新店區"
"231028","046-UY","2018/02/19 13:29:24","新北市新店區安康路一段355號","121.519855","24.9637433333333","6500600","新店區"
"231030","047-UY","2018/02/19 13:29:19","新北市新店區安康路一段355-10號","121.520828333333","24.9638","6500600","新店區"
"231029","106-UY","2018/02/19 13:29:24","新北市新店區安豐路30-1號","121.500723333333","24.95685","6500600","新店區"
"231018","107-UY","2018/02/19 13:29:22","新北市新店區中央路135號","121.53029","24.9737933333333","6500600","新店區"
"231011","108-UY","2018/02/19 13:29:15","新北市新店區德正街17巷2號","121.543673333333","24.9727366666667","6500600","新店區"
"231019","187-VK","2018/02/19 13:29:15","新北市新店區新烏路一段50-23號","121.545751666667","24.9495916666667","6500600","新店區"
"231014","KEA-2219","2018/02/19 13:29:32","新北市新店區新烏路一段11巷1弄2號","121.547321666667","24.9513766666667","6500600","新店區"
"231026","256-BX","2018/02/19 13:29:17","新北市新店區光明街31號","121.538265","24.95966","6500600","新店區"
"231010","278-BY","2018/02/19 13:29:26","新北市新店區自由街4號","121.535375","24.9751416666667","6500600","新店區"
"231023","AAD-862","2018/02/19 13:29:20","新北市新店區新店路23號","121.540218333333","24.9527483333333","6500600","新店區"
"231027","3712-VJ","2018/02/19 13:29:26","新北市新店區環河路19巷17號","121.53764","24.9600983333333","6500600","新店區"
"231024","4716-K9","2018/02/19 13:29:20","新北市新店區北新路二段59巷5號","121.542261666667","24.9731183333333","6500600","新店區"
"231038","4715-K9","2018/02/19 13:29:13","新北市新店區安華路30巷1號","121.51957","24.9592633333333","6500600","新店區"
"231036","512-UM","2018/02/19 13:29:30","新北市新店區安祥路190巷27號","121.478021666667","24.9554333333333","6500600","新店區"
"231035","515-UM","2018/02/19 13:29:19","新北市新店區安忠路8-2號","121.514835","24.9630283333333","6500600","新店區"
"231001","619-UM","2018/02/19 13:29:25","新北市新店區環河路29巷1號","121.536958333333","24.961385","6500600","新店區"
"231003","641-BX","2018/02/19 13:29:13","新北市新店區北新路一段98號","121.542048333333","24.968905","6500600","新店區"
"231034","645-TV","2018/02/19 13:29:24","新北市新店區車子路109號","121.505231666667","24.9520966666667","6500600","新店區"
"231013","719-UM","2018/02/19 13:29:18","新北市新店區中正路454-5號","121.534425","24.9790816666667","6500600","新店區"
"231031","720-UM","2018/02/19 13:29:12","新北市新店區莒光路61巷1-1號","121.524076666667","24.9585533333333","6500600","新店區"
"231005","897-TW","2018/02/19 13:29:29","新北市新店區中興路二段192號","121.548371666667","24.973425","6500600","新店區"
"231006","898-TW","2018/02/19 13:29:22","新北市新店區安康路一段35-1號","121.532155","24.960535","6500600","新店區"
"231004","899-TW","2018/02/19 13:29:29","新北市新店區安康路一段65號","121.530308333333","24.96107","6500600","新店區"
"231037","AKT-0513","2018/02/19 13:29:15","新北市新店區薏仁坑路57號","121.490935","24.9643","6500600","新店區"
"235030","003-UY","2018/02/19 13:29:30","新北市中和區水源路18巷4弄1號","121.503971666667","25.0030716666667","6500300","中和區"
"235028","005-UY","2018/02/19 13:29:16","新北市中和區圓通路141巷48弄1號","121.498796666667","24.9942716666667","6500300","中和區"
"235027","006-UY","2018/02/19 13:29:27","新北市中和區連城路347巷2號","121.488075","24.9958583333333","6500300","中和區"
"235020","096-UM","2018/02/19 13:29:31","新北市中和區員山路466巷21弄1號","121.480605","25.0069783333333","6500300","中和區"
"235003","097-UM","2018/02/19 13:29:30","新北市中和區大勇街27巷4號","121.517131666667","24.993635","6500300","中和區"
"235029","098-UM","2018/02/19 13:29:27","新北市中和區莊敬路49巷10弄12號","121.501906666667","25.0053216666667","6500300","中和區"
"235004","150-BY","2018/02/19 13:29:22","新北市中和區安平路59號","121.509455","24.9951766666667","6500300","中和區"
"235022","151-BY","2018/02/19 13:29:22","新北市中和區圓通路369巷156弄39號","121.48943","24.9821","6500300","中和區"
"235019","183-VK","2018/02/19 13:29:17","新北市中和區莒光路207號","121.470006666667","24.9956333333333","6500300","中和區"
"235002","185-VK","2018/02/19 13:29:12","新北市中和區立人街14巷40弄6號","121.51908","24.9957483333333","6500300","中和區"
"235013","186-VK","2018/02/19 13:29:21","新北市中和區景安路130號","121.505145","24.9943583333333","6500300","中和區"
"235031","255-BX","2018/02/19 13:29:17","新北市中和區中正路725號","121.484951666667","24.9989283333333","6500300","中和區"
"235008","293-VK","2018/02/19 13:29:32","新北市中和區復興路301巷15號","121.501538333333","24.9898383333333","6500300","中和區"
"235036","301-VK","2018/02/19 13:29:16","新北市中和區錦和路166號","121.489878333333","24.995865","6500300","中和區"
"235007","352-BY","2018/02/19 13:29:22","新北市中和區景平路341號","121.505298333333","24.99332","6500300","中和區"
"235032","377-QA","2018/02/19 13:29:26","新北市中和區中正路277-3號","121.49533","24.9935516666667","6500300","中和區"
"235025","378-QA","2018/02/19 13:29:21","新北市中和區民享街88巷19號","121.473621666667","25.000375","6500300","中和區"
"235035","269-TV","2018/02/19 13:29:33","新北市中和區永和路356巷446-16號","121.486805","25.0137516666667","6500300","中和區"
"235014","4979-A6","2018/02/19 13:29:25","新北市中和區景新街418巷20弄2號","121.512336666667","24.9884166666667","6500300","中和區"
"235033","4980-A6","2018/02/19 13:29:12","新北市中和區連城路99巷13號","121.497081666667","24.9989766666667","6500300","中和區"
"235006","551-UM","2018/02/19 13:29:27","新北市中和區秀朗路三段135巷8號","121.525351666667","24.99242","6500300","中和區"
"235034","558-UM","2018/02/19 13:29:20","新北市中和區景平路600號","121.500846666667","24.996375","6500300","中和區"
"235009","565-BX","2018/02/19 13:29:18","新北市中和區復興路51號","121.504608333333","24.98993","6500300","中和區"
"235018","640-BX","2018/02/19 13:29:15","新北市中和區民享街99號","121.474913333333","24.9998433333333","6500300","中和區"
"235024","647-TV","2018/02/19 13:29:21","新北市中和區員山路349號","121.481263333333","25.0018233333333","6500300","中和區"
"235011","732-UM","2018/02/19 13:29:22","新北市中和區興南路二段9號","121.50798","24.9861333333333","6500300","中和區"
"235010","733-UM","2018/02/19 13:29:22","新北市中和區興南路一段77號","121.510026666667","24.9890933333333","6500300","中和區"
"235026","800-TS","2018/02/19 13:29:17","新北市中和區中山路二段312巷53號","121.49505","25.0045533333333","6500300","中和區"
"235021","801-TS","2018/02/19 13:29:25","新北市中和區民享街97巷21號","121.475388333333","24.999515","6500300","中和區"
"235016","805-TS","2018/02/19 13:29:22","新北市中和區和平街12號","121.510046666667","24.990045","6500300","中和區"
"235012","896-TW","2018/02/19 13:29:14","新北市中和區中正路277-6號","121.495073333333","24.993765","6500300","中和區"
"235017","900-TW","2018/02/19 13:29:27","新北市中和區民享街457號","121.470431666667","24.993155","6500300","中和區"
"235015","157-BY","2018/02/19 13:29:24","新北市中和區忠孝街42號","121.510913333333","24.9834016666667","6500300","中和區"
"235001","AAC-213","2018/02/19 13:29:22","新北市中和區景平路151巷41號","121.514666666667","24.9905766666667","6500300","中和區"
"235023","AAC-215","2018/02/19 13:29:28","新北市中和區員山路36巷16-3號","121.485028333333","24.9913666666667","6500300","中和區"
"220034","073-UY","2018/02/19 13:29:26","新北市板橋區南雅南路二段116號","121.452471666667","25.0004266666667","6500100","板橋區"
"247005","056-VK","2018/02/19 13:29:27","新北市五股區中興路三段163號","121.449163333333","25.0807266666667","6501400","蘆洲區"
"235005","251-BX","2018/02/19 13:29:26","新北市中和區中和路400巷17號","121.511608333333","25.00234","6500300","中和區"
"228004","212-TW","2018/02/19 13:29:11","新北市貢寮區龍崗里石壁坑街17號","121.910386666667","24.9894483333333","6502600","貢寮區"
"228002","585-TW","2018/02/19 13:29:27","新北市貢寮區福連里福連街5號","121.988135","25.0150583333333","6502600","貢寮區"
"228005","828-UM","2018/02/19 13:29:25","新北市貢寮區美豐里文秀坑8號","121.901928333333","25.0504233333333","6502600","貢寮區"
"253003","6232-TK","2018/02/19 13:29:21","新北市石門區內石門85號","121.568705","25.2648683333333","6502200","石門區"
"253001","6251-TK","2018/02/19 13:29:27","新北市石門區下員坑30-3號","121.519851666667","25.282515","6502200","石門區"
"253002","637-UY","2018/02/19 13:29:14","新北市石門區豬槽潭2-1號","121.555635","25.2664233333333","6502200","石門區"
"253004","8270-PC","2018/02/19 13:29:29","新北市石門區竹子湖1號","121.612966666667","25.2677466666667","6502200","石門區"
"208002","KEA-2872","2018/02/19 13:29:15","新北市金山區清泉里清水路60巷5號","121.632011666667","25.2350533333333","6502700","金山區"
"208003","665-BX","2018/02/19 13:29:30","新北市金山區民生路3號","121.647671666667","25.2237366666667","6502700","金山區"
"208001","761-BX","2018/02/19 13:29:11","新北市金山區民生路51巷1-2號","121.641788333333","25.2193283333333","6502700","金山區"
"207002","749-BX","2018/02/19 13:29:12","新北市萬里區崁腳里崁腳路166號","121.645061666667","25.15586","6502800","萬里區"
"207001","662-BX","2018/02/19 13:29:25","新北市萬里區龜吼里翡翠路17號","121.682991666667","25.1876366666667","6502800","萬里區"
"252005","AAC-283","2018/02/19 13:29:11","新北市三芝區福德里土地公埔72號","121.522163333333","25.2239683333333","6502100","三芝區"
"237004","KEA-2597","2018/02/19 13:29:16","新北市三峽區大埔路393號","121.372098333333","24.8961733333333","6500900","三峽區"
"237007","153-BY","2018/02/19 13:29:26","新北市三峽區中園街90號","121.367318333333","24.9236583333333","6500900","三峽區"
"237009","210-TH","2018/02/19 13:29:12","新北市三峽區大仁路32號","121.366045","24.937585","6500900","三峽區"
"237013","252-BX","2018/02/19 13:29:22","新北市三峽區介壽路一段224號","121.378201666667","24.93056","6500900","三峽區"
"237012","275-BY","2018/02/19 13:29:12","新北市三峽區民生街1巷5-42號","121.378855","24.9353666666667","6500900","三峽區"
"237008","302-VK","2018/02/19 13:29:28","新北市三峽區白雞42-3號","121.378831666667","24.911345","6500900","三峽區"
"237006","5529-G3","2018/02/19 13:29:16","新北市三峽區介壽路二段138巷1弄146-1號","121.399256666667","24.930895","6500900","三峽區"
"237010","706-TV","2018/02/19 13:29:28","新北市三峽區中山路92號","121.366651666667","24.9352883333333","6500900","三峽區"
"236005","498-BY","2018/02/19 13:29:26","新北市土城區慶祥街80號","121.436171666667","24.9734516666667","6501300","土城區"
"238002","755-BX","2018/02/19 13:29:19","新北市樹林區長壽街58號","121.422211666667","24.9941283333333","6500700","樹林區"
"238010","601-UM","2018/02/19 13:29:29","新北市樹林區三福街2號","121.409156666667","25.0169633333333","6500700","樹林區"
"238006","599-UM","2018/02/19 13:29:18","新北市樹林區太平路89號","121.41906","24.98137","6500700","樹林區"
"238018","571-TV","2018/02/19 13:29:20","新北市樹林區鎮前街269巷37號","121.419243333333","24.9849566666667","6500700","樹林區"
"238011","5061-A6","2018/02/19 13:29:18","新北市樹林區樹新路51巷5號","121.4269","24.99504","6500700","樹林區"
"238008","KEA-2217","2018/02/19 13:29:20","新北市樹林區西圳街一段146號","121.396035","24.9627616666667","6500700","樹林區"
"238009","KEA-2213","2018/02/19 13:29:21","新北市樹林區信義街14號","121.422688333333","24.981885","6500700","樹林區"
"238012","303-VK","2018/02/19 13:29:18","新北市樹林區保安街一段195號","121.420991666667","24.995995","6500700","樹林區"
"238017","283-BY","2018/02/19 13:29:29","新北市樹林區光武街32-2號","121.416591666667","25.0062116666667","6500700","樹林區"
"238001","282-BY","2018/02/19 13:29:23","新北市樹林區長壽街70巷1弄6號","121.420948333333","24.9948216666667","6500700","樹林區"
"238020","268-VK","2018/02/19 13:29:21","新北市樹林區俊英街116巷41弄4號","121.428985","25.0064983333333","6500700","樹林區"
"238013","172-UY","2018/02/19 13:29:25","新北市樹林區新興街2巷1號","121.400233333333","24.9743983333333","6500700","樹林區"
"238003","169-UY","2018/02/19 13:29:30","新北市樹林區中山路一段2巷8號","121.423918333333","24.9941116666667","6500700","樹林區"
"239007","AAC-297","2018/02/19 13:29:16","新北市鶯歌區國光街62號","121.340633333333","24.95803","6500800","鶯歌區"
"239006","891-R6","2018/02/19 13:29:20","新北市鶯歌區鶯桃路457號","121.332161666667","24.9657633333333","6500800","鶯歌區"
"239008","527-UM","2018/02/19 13:29:26","新北市鶯歌區大湖路624號","121.33471","24.9747883333333","6500800","鶯歌區"
"239001","417-VK","2018/02/19 13:29:13","新北市鶯歌區中正三路100巷28號","121.337461666667","24.9418183333333","6500800","鶯歌區"
"239003","360-BY","2018/02/19 13:29:27","新北市鶯歌區鶯桃路184-1號","121.337908333333","24.9577633333333","6500800","鶯歌區"
"239004","193-VK","2018/02/19 13:29:19","新北市鶯歌區三鶯路48號","121.356771666667","24.9419916666667","6500800","鶯歌區"
"221032","280-BY","2018/02/19 13:29:14","新北市汐止區新興路21號","121.656548333333","25.064555","6501100","汐止區"
"220027","145-BY","2018/02/19 13:29:28","新北市板橋區大觀路二段111號","121.446178333333","25.0016183333333","6500100","板橋區"
"220030","610-BX","2018/02/19 13:29:14","新北市板橋區華東街1-10號","121.448275","24.994915","6500100","板橋區"
"220001","285-VK","2018/02/19 13:29:17","新北市板橋區民生路二段120號","121.47034","25.019835","6500100","板橋區"
"220032","296-UM","2018/02/19 13:29:23","新北市板橋區華東街1-9號","121.44816","24.9949133333333","6500100","板橋區"
"220025","687-BX","2018/02/19 13:29:16","新北市板橋區板城路421號","121.447871666667","24.9964983333333","6500100","板橋區"
"220022","895-R6","2018/02/19 13:29:26","新北市板橋區華東街1-9號","121.448233333333","24.9949466666667","6500100","板橋區"
"220021","985-R7","2018/02/19 13:29:24","新北市板橋區華東街1-10號","121.448375","24.9949983333333","6500100","板橋區"
