"lineid","car","time","location","longitude","latitude","cityid","cityname"
"234005","207-UY","2018/02/19 14:09:43","新北市中和區中和路428號","121.51172","25.0033616666667","6500400","永和區"
"234015","745-BX","2018/02/19 14:09:45","新北市永和區文化路123號","121.512123333333","25.0153383333333","6500400","永和區"
"234052","KEA-2590","2018/02/19 14:09:45","新北市永和區環河東路一段122號","121.520668333333","25.01552","6500400","永和區"
"234012","KEA-2591","2018/02/19 14:09:48","新北市永和區保安路292號","121.505125","25.0118383333333","6500400","永和區"
"234060","AAD-866","2018/02/19 14:09:50","新北市新店區安民街121巷12號","121.515315","24.9691883333333","6500400","永和區"
"234078","847-RS","2018/02/19 14:09:45","新北市永和區永利路81巷26號","121.522293333333","25.0037866666667","6500400","永和區"
"234010","9373-KE","2018/02/19 14:09:43","新北市永和區保福路二段15巷9號","121.51057","25.0109483333333","6500400","永和區"
"248013","025-BX","2018/02/19 14:09:51","新北市五股區中興路四段17號","121.440403333333","25.0822483333333","6501500","五股區"
"248015","026-BX","2018/02/19 14:09:44","新北市五股區成泰路三段559巷36弄3號","121.450715","25.1028616666667","6501500","五股區"
"248019","225-UY","2018/02/19 14:09:30","新北市五股區凌雲路三段100-1號","121.426916666667","25.1219083333333","6501500","五股區"
"248011","247-BX","2018/02/19 14:09:38","新北市五股區中興路四段48巷19號","121.438568333333","25.0835583333333","6501500","五股區"
"248003","677-BX","2018/02/19 14:09:37","新北市五股區民義路一段232號","121.428328333333","25.09081","6501500","五股區"
"248001","678-BX","2018/02/19 14:09:35","新北市五股區凌雲路一段158巷6號","121.447966666667","25.1027916666667","6501500","五股區"
"248009","682-TV","2018/02/19 14:09:33","新北市五股區水碓一路23號","121.430598333333","25.0712733333333","6501500","五股區"
"234022","9380-KE","2018/02/19 14:09:52","新北市永和區竹林路91巷51弄2號","121.521668333333","25.01329","6500400","永和區"
"234076","969-R7","2018/02/19 14:09:40","新北市新店區薏仁坑路自強巷1號","121.496793333333","24.9577916666667","6500400","永和區"
"234072","AAC-211","2018/02/19 14:09:53","新北市永和區豫溪街207巷2號","121.523763333333","25.0095783333333","6500400","永和區"
"243003","267-VK","2018/02/19 14:09:42","新北市泰山區泰林路二段93巷1號","121.434765","25.05882","6501600","泰山區"
"243003","297-R6","2018/02/19 14:09:45","新北市泰山區明志路二段340號","121.426105","25.04544","6501600","泰山區"
"243007","380-SR","2018/02/19 14:09:41","新北市泰山區明志路一段399號","121.430793333333","25.0572816666667","6501600","泰山區"
"243006","421-VK","2018/02/19 14:09:31","新北市泰山區泰林路二段483號","121.425065","25.06391","6501600","泰山區"
"243004","539-UM","2018/02/19 14:09:45","新北市泰山區辭修路10-11號","121.429613333333","25.0580733333333","6501600","泰山區"
"243002","KEA-2215","2018/02/19 14:09:41","新北市泰山區明志路一段354-1號","121.430513333333","25.0583966666667","6501600","泰山區"
"243001","KEA-2216","2018/02/19 14:09:50","新北市泰山區文化街18號","121.434538333333","25.06357","6501600","泰山區"
"243005","646-TV","2018/02/19 14:09:34","新北市泰山區明志路三段277號","121.423066666667","25.0368366666667","6501600","泰山區"
"243008","680-BX","2018/02/19 14:09:50","新北市泰山區明志路二段341號","121.425561666667","25.0446166666667","6501600","泰山區"
"231002","002-UM","2018/02/19 14:09:35","新北市新店區中正路696號","121.534013333333","24.9905633333333","6500600","新店區"
"231025","0293-UT","2018/02/19 14:09:39","新北市新店區中正路275巷30號","121.536846666667","24.9730183333333","6500600","新店區"
"231028","046-UY","2018/02/19 14:09:44","新北市新店區安和路二段227號","121.517246666667","24.9760966666667","6500600","新店區"
"231030","047-UY","2018/02/19 14:09:50","新北市新店區安民街15號","121.515265","24.9646316666667","6500600","新店區"
"231029","106-UY","2018/02/19 14:09:45","新北市新店區安康路二段160號","121.512235","24.9607816666667","6500600","新店區"
"231018","107-UY","2018/02/19 14:09:42","新北市新店區中央路95巷4號","121.53149","24.97493","6500600","新店區"
"231011","108-UY","2018/02/19 14:09:35","新北市新店區五峰路93號","121.54613","24.9673666666667","6500600","新店區"
"231019","187-VK","2018/02/19 14:09:35","新北市新店區屈尺路75號","121.545623333333","24.9226966666667","6500600","新店區"
"231014","KEA-2219","2018/02/19 14:09:32","新北市新店區郵政路1巷2號","121.557466666667","24.9521466666667","6500600","新店區"
"231023","AAD-862","2018/02/19 14:09:40","新北市新店區文中路40號","121.539703333333","24.9566083333333","6500600","新店區"
"231027","3712-VJ","2018/02/19 14:09:46","新北市新店區安康路一段351-1號","121.519688333333","24.963925","6500600","新店區"
"231024","4716-K9","2018/02/19 14:09:40","新北市新店區新生街10巷7號","121.540503333333","24.9664016666667","6500600","新店區"
"231038","4715-K9","2018/02/19 14:09:53","新北市新店區溪洲路182號","121.528943333333","24.9656133333333","6500600","新店區"
"231036","512-UM","2018/02/19 14:09:50","新北市新店區安祥路108巷33號","121.475423333333","24.95732","6500600","新店區"
"231035","515-UM","2018/02/19 14:09:39","新北市新店區安康路二段362-1號","121.50134","24.9572583333333","6500600","新店區"
"231001","619-UM","2018/02/19 14:09:44","新北市新店區中華路68號","121.539191666667","24.96911","6500600","新店區"
"231003","641-BX","2018/02/19 14:09:54","新北市新店區中興路一段204號","121.543708333333","24.965435","6500600","新店區"
"231034","645-TV","2018/02/19 14:09:43","新北市新店區黎明路3號","121.503341666667","24.95231","6500600","新店區"
"231013","719-UM","2018/02/19 14:09:38","新北市新店區北新路三段105巷11號","121.540741666667","24.98189","6500600","新店區"
"231031","720-UM","2018/02/19 14:09:52","新北市新店區永業路49巷2號","121.532156666667","24.9549933333333","6500600","新店區"
"231005","897-TW","2018/02/19 14:09:49","新北市新店區寶安街68巷11號","121.54246","24.984595","6500600","新店區"
"231006","898-TW","2018/02/19 14:09:46","新北市新店區北宜路二段112-1號","121.556413333333","24.9538","6500600","新店區"
"231004","899-TW","2018/02/19 14:09:49","新北市新店區北新路二段203號","121.542473333333","24.9783833333333","6500600","新店區"
"235028","005-UY","2018/02/19 14:09:36","新北市中和區中正路276號","121.494873333333","24.9939133333333","6500300","中和區"
"235027","006-UY","2018/02/19 14:09:47","新北市中和區中正路468號","121.489978333333","24.9943316666667","6500300","中和區"
"235020","096-UM","2018/02/19 14:09:31","新北市中和區中山路三段20號","121.479338333333","25.0060433333333","6500300","中和區"
"235003","097-UM","2018/02/19 14:09:50","新北市中和區秀峰街89號","121.521248333333","24.9903116666667","6500300","中和區"
"235029","098-UM","2018/02/19 14:09:47","新北市中和區中山路二段2巷85號","121.500866666667","25.0076833333333","6500300","中和區"
"235004","150-BY","2018/02/19 14:09:43","新北市中和區保健路61巷3號","121.50962","24.9974183333333","6500300","中和區"
"235022","151-BY","2018/02/19 14:09:45","新北市中和區連城路428巷11號","121.479888333333","24.9955233333333","6500300","中和區"
"235019","183-VK","2018/02/19 14:09:37","新北市中和區莒光路5號","121.471881666667","25.0060516666667","6500300","中和區"
"235013","186-VK","2018/02/19 14:09:50","新北市中和區景平路396-2號","121.509733333333","24.9932983333333","6500300","中和區"
"235008","293-VK","2018/02/19 14:09:52","新北市中和區中興街202巷35號","121.498941666667","24.9896833333333","6500300","中和區"
"235036","301-VK","2018/02/19 14:09:36","新北市中和區中山路二段146-3號","121.501648333333","25.0028983333333","6500300","中和區"
"235007","352-BY","2018/02/19 14:09:42","新北市中和區成功路36號","121.526076666667","24.9931066666667","6500300","中和區"
"235032","377-QA","2018/02/19 14:09:46","新北市中和區連勝街48號","121.497828333333","24.9975133333333","6500300","中和區"
"235025","378-QA","2018/02/19 14:09:41","新北市中和區台新街9號","121.479298333333","25.0052883333333","6500300","中和區"
"235035","269-TV","2018/02/19 14:09:40","新北市中和區建一路148號","121.488091666667","24.99863","6500300","中和區"
"235014","4979-A6","2018/02/19 14:09:45","新北市中和區中正路589巷15號","121.485655","24.993615","6500300","中和區"
"235033","4980-A6","2018/02/19 14:09:52","新北市中和區南山路111巷16號","121.50258","24.9976483333333","6500300","中和區"
"235006","551-UM","2018/02/19 14:09:47","新北市中和區秀朗路三段128巷1弄15號","121.523723333333","24.9915516666667","6500300","中和區"
"235034","558-UM","2018/02/19 14:09:40","新北市中和區安和路163號","121.506256666667","24.9975133333333","6500300","中和區"
"235018","640-BX","2018/02/19 14:09:35","新北市中和區民享街86巷25號","121.47314","25.0004966666667","6500300","中和區"
"235024","647-TV","2018/02/19 14:09:41","新北市中和區民治街27巷1號","121.475506666667","25.0015616666667","6500300","中和區"
"235011","732-UM","2018/02/19 14:09:42","新北市中和區華新街95號","121.508721666667","24.9831166666667","6500300","中和區"
"235010","733-UM","2018/02/19 14:09:42","新北市中和區興南路二段31巷19號","121.508151666667","24.9851683333333","6500300","中和區"
"235026","800-TS","2018/02/19 14:09:37","新北市中和區中山路二段338號","121.493683333333","25.0027033333333","6500300","中和區"
"235021","801-TS","2018/02/19 14:09:45","新北市中和區民利街89號","121.478023333333","24.9980383333333","6500300","中和區"
"235016","805-TS","2018/02/19 14:09:42","新北市中和區興南路二段128巷4號","121.50405","24.9836716666667","6500300","中和區"
"235012","896-TW","2018/02/19 14:09:34","新北市中和區南山路335號","121.505548333333","24.9909566666667","6500300","中和區"
"235017","900-TW","2018/02/19 14:09:47","新北市板橋區重慶路368號","121.464491666667","24.9970333333333","6500300","中和區"
"235015","157-BY","2018/02/19 14:09:44","新北市中和區忠孝街106巷29號","121.513195","24.9843516666667","6500300","中和區"
"235001","AAC-213","2018/02/19 14:09:41","新北市中和區秀朗路三段10巷37弄1號","121.524208333333","24.9960833333333","6500300","中和區"
"235023","AAC-215","2018/02/19 14:09:48","新北市中和區圓通路294巷17-5號","121.488741666667","24.9903616666667","6500300","中和區"
"220016","013-TV","2018/02/19 14:09:45","新北市板橋區翠華街6巷40號","121.481453333333","25.0245283333333","6500100","板橋區"
"220020","015-TV","2018/02/19 14:09:48","新北市板橋區金門街260巷23號","121.429343333333","24.98662","6500100","板橋區"
"220013","072-UY","2018/02/19 14:09:37","新北市板橋區民族路219巷42號","121.46949","25.0087433333333","6500100","板橋區"
"220034","073-UY","2018/02/19 14:09:46","新北市板橋區中正路216巷100號","121.458801666667","25.019165","6500100","板橋區"
"220105","075-UY","2018/02/19 14:09:51","新北市板橋區雙十路三段8號","121.4719","25.0305216666667","6500100","板橋區"
"220017","AAD-861","2018/02/19 14:09:43","新北市板橋區貴興路7號","121.457751666667","25.0044133333333","6500100","板橋區"
"220039","120-SR","2018/02/19 14:09:36","新北市板橋區裕民街31號","121.461813333333","25.0288016666667","6500100","板橋區"
"247021","893-R6","2018/02/19 14:09:44","新北市蘆洲區三民路193號","121.470568333333","25.0877433333333","6501400","蘆洲區"
"247011","546-UM","2018/02/19 14:09:49","新北市蘆洲區信義路242號","121.478556666667","25.0860633333333","6501400","蘆洲區"
"247019","500-BY","2018/02/19 14:09:34","新北市蘆洲區民族路422巷112號","121.472736666667","25.094235","6501400","蘆洲區"
"247007","341-TH","2018/02/19 14:09:37","新北市蘆洲區永安南路一段142巷66號","121.471803333333","25.077725","6501400","蘆洲區"
"247009","339-TH","2018/02/19 14:09:43","新北市蘆洲區民族路53號","121.478563333333","25.0854366666667","6501400","蘆洲區"
"247001","337-TH","2018/02/19 14:09:36","新北市蘆洲區永平街32巷1號","121.458625","25.0909466666667","6501400","蘆洲區"
"247003","336-TH","2018/02/19 14:09:38","新北市蘆洲區中華街6巷5號","121.462335","25.0825366666667","6501400","蘆洲區"
"247017","335-TH","2018/02/19 14:09:36","新北市蘆洲區民族路227巷27號","121.476521666667","25.08887","6501400","蘆洲區"
"247015","057-VK","2018/02/19 14:09:35","新北市蘆洲區中正路185巷26號","121.467998333333","25.0851666666667","6501400","蘆洲區"
"247005","056-VK","2018/02/19 14:09:46","新北市蘆洲區九芎街39號","121.468106666667","25.0784133333333","6501400","蘆洲區"
"247023","002-UY","2018/02/19 14:09:45","新北市蘆洲區光榮路88號","121.463531666667","25.08902","6501400","蘆洲區"
"235005","251-BX","2018/02/19 14:09:46","新北市中和區中安街178巷13弄3號","121.510331666667","24.9986366666667","6500300","中和區"
"228004","212-TW","2018/02/19 14:09:31","新北市貢寮區雙玉里德心街11-1號","121.918798333333","25.0156633333333","6502600","貢寮區"
"228002","585-TW","2018/02/19 14:09:47","新北市貢寮區福隆里東興街6-11號","121.950753333333","25.0210383333333","6502600","貢寮區"
"228005","828-UM","2018/02/19 14:09:45","新北市貢寮區美豐里土地公嶺21號","121.893688333333","25.0593783333333","6502600","貢寮區"
"253003","6232-TK","2018/02/19 14:09:42","新北市石門區中央路37-5號","121.570428333333","25.2968833333333","6502200","石門區"
"253001","6251-TK","2018/02/19 14:09:46","新北市石門區八甲73號","121.529783333333","25.2636233333333","6502200","石門區"
"253002","637-UY","2018/02/19 14:09:34","新北市石門區尖山湖1-1號","121.566781666667","25.24465","6502200","石門區"
"253004","8270-PC","2018/02/19 14:09:32","新北市石門區草埔尾34-1號","121.60305","25.2650833333333","6502200","石門區"
"208002","KEA-2872","2018/02/19 14:09:35","新北市金山區信義路62號","121.635728333333","25.2189766666667","6502700","金山區"
"208003","665-BX","2018/02/19 14:09:36","新北市金山區中山路340號","121.633518333333","25.225275","6502700","金山區"
"208001","761-BX","2018/02/19 14:09:51","新北市金山區文化三路66巷2弄5號","121.634378333333","25.2257283333333","6502700","金山區"
"207002","749-BX","2018/02/19 14:09:32","新北市萬里區溪底里瑞泉路1號","121.610988333333","25.1459933333333","6502800","萬里區"
"207001","662-BX","2018/02/19 14:09:45","新北市萬里區磺潭里清水18號","121.637796666667","25.1976483333333","6502800","萬里區"
"252005","AAC-283","2018/02/19 14:09:51","新北市三芝區橫山里橫山45-1號","121.538003333333","25.2582133333333","6502100","三芝區"
"237004","KEA-2597","2018/02/19 14:09:48","新北市三峽區有木44號","121.43262","24.86285","6500900","三峽區"
"237007","153-BY","2018/02/19 14:09:46","新北市三峽區中正路二段415號","121.363236666667","24.9069516666667","6500900","三峽區"
"237009","210-TH","2018/02/19 14:09:32","新北市三峽區民族街178-2號","121.368448333333","24.92802","6500900","三峽區"
"237013","252-BX","2018/02/19 14:09:42","新北市三峽區介壽路一段121號","121.376011666667","24.9318816666667","6500900","三峽區"
"237008","302-VK","2018/02/19 14:09:48","新北市三峽區正義街129號","121.368545","24.9167716666667","6500900","三峽區"
"237006","5529-G3","2018/02/19 14:09:35","新北市三峽區溪東路369號","121.41183","24.929555","6500900","三峽區"
"237016","649-BX","2018/02/19 13:55:45","新北市三峽區成福路282巷4號","121.428248333333","24.922965","6500900","三峽區"
"237010","706-TV","2018/02/19 14:09:47","新北市三峽區復興路449號","121.362583333333","24.93851","6500900","三峽區"
"236064","105-UM","2018/02/19 14:09:35","新北市土城區明德路一段295號","121.46004","24.97725","6501300","土城區"
"236040","107-UM","2018/02/19 14:09:50","新北市土城區城林路6巷80號","121.43828","24.9799616666667","6501300","土城區"
"236074","166-UM","2018/02/19 14:09:46","新北市土城區永寧路26-3號","121.429443333333","24.9609333333333","6501300","土城區"
"236028","253-BX","2018/02/19 14:09:30","新北市土城區城林路6巷80號","121.438366666667","24.979795","6501300","土城區"
"236024","269-VK","2018/02/19 14:09:46","新北市土城區承天路20號","121.43954","24.96344","6501300","土城區"
"236012","270-VK","2018/02/19 14:09:42","新北市土城區青雲路39巷7號","121.460348333333","24.98742","6501300","土城區"
"236032","271-VK","2018/02/19 14:09:39","新北市土城區青雲路449號","121.458973333333","24.97495","6501300","土城區"
"236016","401-BY","2018/02/19 14:09:35","新北市土城區員福街28號","121.441361666667","24.978715","6501300","土城區"
"236005","498-BY","2018/02/19 14:09:46","新北市土城區日新街33巷8號","121.442561666667","24.98746","6501300","土城區"
"236056","912-UM","2018/02/19 14:09:34","新北市土城區中央路四段1號","121.425676666667","24.9630033333333","6501300","土城區"
"236044","913-UM","2018/02/19 14:09:35","新北市土城區明德路一段365-1號","121.453556666667","24.9790366666667","6501300","土城區"
"236060","915-UM","2018/02/19 14:09:36","新北市土城區延壽路46號","121.470805","24.9917633333333","6501300","土城區"
"236052","AAC-216","2018/02/19 14:09:37","新北市土城區中華路二段102號","121.438051666667","24.9743783333333","6501300","土城區"
"238002","755-BX","2018/02/19 14:09:39","新北市樹林區大安路316號","121.417385","24.9918483333333","6500700","樹林區"
"238010","601-UM","2018/02/19 14:09:49","新北市樹林區龍興街29號","121.403041666667","25.0159183333333","6500700","樹林區"
"238018","571-TV","2018/02/19 14:09:40","新北市樹林區樹新路227號","121.431115","25.0006366666667","6500700","樹林區"
"238011","5061-A6","2018/02/19 14:09:38","新北市樹林區豐林街26號","121.420238333333","24.9971283333333","6500700","樹林區"
"238008","KEA-2217","2018/02/19 14:09:39","新北市樹林區柑園街一段33巷18號","121.404685","24.9581216666667","6500700","樹林區"
"238009","KEA-2213","2018/02/19 14:09:49","新北市樹林區太順街49巷2號","121.417856666667","24.9791716666667","6500700","樹林區"
"238012","303-VK","2018/02/19 14:09:39","新北市樹林區保安街二段65號","121.416036666667","25.0005333333333","6500700","樹林區"
"238017","283-BY","2018/02/19 14:09:49","新北市樹林區中正路714號","121.409176666667","25.01787","6500700","樹林區"
"238001","282-BY","2018/02/19 14:09:50","新北市樹林區千歲街61巷54號","121.425313333333","24.9988883333333","6500700","樹林區"
"238020","268-VK","2018/02/19 14:09:41","新北市樹林區三俊街69號","121.413528333333","25.0161866666667","6500700","樹林區"
"238013","172-UY","2018/02/19 14:09:43","新北市樹林區佳園路一段50號","121.392855","24.9706083333333","6500700","樹林區"
"238003","169-UY","2018/02/19 14:09:31","新北市樹林區日新街150號","121.420538333333","24.988635","6500700","樹林區"
"239007","AAC-297","2018/02/19 14:09:36","新北市鶯歌區中正一路232號","121.354098333333","24.9569583333333","6500800","鶯歌區"
"239006","891-R6","2018/02/19 14:09:40","新北市鶯歌區德昌街140巷57號","121.332501666667","24.96183","6500800","鶯歌區"
"239008","527-UM","2018/02/19 14:09:47","新北市鶯歌區國際一路179號","121.336203333333","24.9765116666667","6500800","鶯歌區"
"239001","417-VK","2018/02/19 14:09:33","新北市鶯歌區國中街178號","121.338245","24.9392116666667","6500800","鶯歌區"
"239003","360-BY","2018/02/19 14:09:47","新北市鶯歌區鶯桃路392號","121.33388","24.9636716666667","6500800","鶯歌區"
"239004","193-VK","2018/02/19 14:09:39","新北市鶯歌區中正三路156巷3號","121.333945","24.9392","6500800","鶯歌區"
"220027","145-BY","2018/02/19 14:09:48","新北市板橋區民權路260巷32號","121.45891","25.015255","6500100","板橋區"
"220028","200-UY","2018/02/19 14:09:32","新北市板橋區大觀路二段7巷26號","121.447956666667","25.0032733333333","6500100","板橋區"
"220030","610-BX","2018/02/19 14:09:53","新北市板橋區溪崑二街25號","121.428595","24.9912933333333","6500100","板橋區"
"220050","245-BX","2018/02/19 14:09:48","新北市板橋區民生路二段161巷17號","121.470253333333","25.0192866666667","6500100","板橋區"
"220004","276-BY","2018/02/19 14:09:34","新北市土城區廣福街124號","121.456585","24.9927633333333","6500100","板橋區"
"220019","283-VK","2018/02/19 14:09:45","新北市板橋區重慶路353巷3號","121.464623333333","24.9980333333333","6500100","板橋區"
"220043","285-UM","2018/02/19 14:09:42","新北市板橋區光武街138號","121.465411666667","25.0300583333333","6500100","板橋區"
"220001","285-VK","2018/02/19 14:09:37","新北市板橋區懷仁街34巷8號","121.476125","25.0192666666667","6500100","板橋區"
"220031","286-VK","2018/02/19 14:09:42","新北市板橋區龍興街101巷10號","121.444001666667","25.0034316666667","6500100","板橋區"
"220029","287-VK","2018/02/19 14:09:43","新北市板橋區南雅西路二段156巷2號","121.451768333333","25.0134133333333","6500100","板橋區"
"220009","293-UM","2018/02/19 14:09:40","新北市板橋區三民路二段21巷30號","121.480393333333","25.0181883333333","6500100","板橋區"
"220032","296-UM","2018/02/19 14:09:43","新北市板橋區篤行路二段92-3號","121.431511666667","24.9914366666667","6500100","板橋區"
"220023","303-R5","2018/02/19 14:09:35","新北市板橋區南雅西路二段136號","121.45194","25.01282","6500100","板橋區"
"220010","305-R5","2018/02/19 14:09:51","新北市板橋區三民路二段居仁巷2弄5號","121.479505","25.0129066666667","6500100","板橋區"
"220041","307-R5","2018/02/19 14:09:49","新北市板橋區文化路二段225巷60弄19號","121.469171666667","25.028945","6500100","板橋區"
"220047","317-R6","2018/02/19 14:09:36","新北市板橋區自由路51巷9-3號","121.465065","25.023475","6500100","板橋區"
"220012","486-VK","2018/02/19 14:09:46","新北市板橋區板新路17號","121.474866666667","25.0128166666667","6500100","板橋區"
"220038","487-VK","2018/02/19 14:09:50","新北市板橋區文化路二段453號","121.475511666667","25.0334833333333","6500100","板橋區"
"220037","491-VK","2018/02/19 14:09:47","新北市板橋區莊敬路38-2號","121.472838333333","25.0272016666667","6500100","板橋區"
"220104","560-BX","2018/02/19 14:09:45","新北市板橋區中正路360巷53號","121.456288333333","25.0228716666667","6500100","板橋區"
"220052","561-BX","2018/02/19 14:09:42","新北市板橋區文化路一段188巷9弄126號","121.469236666667","25.0190116666667","6500100","板橋區"
"220011","609-BX","2018/02/19 14:09:38","新北市板橋區三民路二段169號","121.479195","25.0144683333333","6500100","板橋區"
"220040","637-BX","2018/02/19 14:09:31","新北市板橋區萬板路378號","121.47847","25.025345","6500100","板橋區"
"220005","686-BX","2018/02/19 14:09:52","新北市板橋區重慶路366號","121.46423","24.9971616666667","6500100","板橋區"
"220025","687-BX","2018/02/19 14:09:36","新北市板橋區龍興街2號","121.44273","24.99934","6500100","板橋區"
"220042","689-BX","2018/02/19 14:09:41","新北市板橋區民生路三段185號","121.465481666667","25.0274533333333","6500100","板橋區"
"220002","741-BX","2018/02/19 14:09:38","新北市板橋區校前街82號","121.4623","25.0034083333333","6500100","板橋區"
"220051","KEA-2699","2018/02/19 14:09:46","新北市板橋區萬板路818巷9號","121.482985","25.0267233333333","6500100","板橋區"
"220003","827-TW","2018/02/19 14:09:50","新北市板橋區新民街4巷19號","121.465093333333","25.0099066666667","6500100","板橋區"
"220014","829-TW","2018/02/19 14:09:48","新北市板橋區中山路二段90巷43弄9號","121.476738333333","25.01512","6500100","板橋區"
"220045","830-TW","2018/02/19 14:09:46","新北市板橋區大同街8巷32號","121.477388333333","25.0258066666667","6500100","板橋區"
"220022","895-R6","2018/02/19 14:09:46","新北市板橋區林園街52號","121.453635","25.0107116666667","6500100","板橋區"
"220021","985-R7","2018/02/19 14:09:44","新北市板橋區新生街89巷6號","121.458008333333","25.0222233333333","6500100","板橋區"
"220046","AAC-210","2018/02/19 14:09:43","新北市板橋區幸福路70巷28號","121.460303333333","25.0208866666667","6500100","板橋區"
"220018","AAC-253","2018/02/19 14:09:53","新北市板橋區忠孝路102號","121.461968333333","25.0020516666667","6500100","板橋區"
