"lineid","car","time","location","longitude","latitude","cityid","cityname"
"234044","148-BY","2018/02/19 14:29:38","新北市永和區秀朗路二段79號","121.522846666667","25.00169","6500400","永和區"
"234005","207-UY","2018/02/19 14:29:43","新北市中和區中和路234號","121.506868333333","24.999515","6500400","永和區"
"234084","338-UY","2018/02/19 14:29:44","新北市永和區林森路29巷2號","121.526151666667","25.005105","6500400","永和區"
"234068","552-UM","2018/02/19 14:29:36","新北市永和區福和路224號","121.519143333333","25.0078233333333","6500400","永和區"
"234052","553-UM","2018/02/19 14:29:39","新北市永和區博愛街33號","121.518603333333","25.0158533333333","6500400","永和區"
"234015","745-BX","2018/02/19 14:29:45","新北市永和區文化路7號","121.51537","25.0150266666667","6500400","永和區"
"234028","746-BX","2018/02/19 14:29:44","新北市永和區民生路47巷6號","121.523325","24.99777","6500400","永和區"
"234012","KEA-2591","2018/02/19 14:29:28","新北市永和區永貞路424號","121.50816","25.0086833333333","6500400","永和區"
"234060","AAD-866","2018/02/19 14:29:30","新北市中和區景新街462號","121.513506666667","24.98757","6500400","永和區"
"234078","847-RS","2018/02/19 14:29:45","新北市永和區福和路7巷10弄7號","121.524863333333","25.0075633333333","6500400","永和區"
"234025","9371-KE","2018/02/19 14:29:39","新北市永和區安樂路272巷15號","121.515081666667","25.004175","6500400","永和區"
"234010","9373-KE","2018/02/19 14:29:43","新北市永和區仁愛路302號","121.503491666667","25.0079716666667","6500400","永和區"
"248013","025-BX","2018/02/19 14:29:31","新北市五股區工商路166號","121.433628333333","25.0881216666667","6501500","五股區"
"248007","095-VK","2018/02/19 14:29:27","新北市五股區中興路一段95巷15號","121.46658","25.0723066666667","6501500","五股區"
"248019","225-UY","2018/02/19 14:29:30","新北市五股區凌雲路三段57號","121.425215","25.1250116666667","6501500","五股區"
"248011","247-BX","2018/02/19 14:29:32","新北市五股區蓬萊路32號","121.434325","25.0797433333333","6501500","五股區"
"248003","677-BX","2018/02/19 14:29:37","新北市五股區五福路69號","121.432656666667","25.090065","6501500","五股區"
"248001","678-BX","2018/02/19 14:29:35","新北市五股區成泰路3段651-1號","121.45289","25.1050483333333","6501500","五股區"
"248009","682-TV","2018/02/19 14:29:33","新北市五股區自強路90巷72號","121.430788333333","25.0712633333333","6501500","五股區"
"234022","9380-KE","2018/02/19 14:29:31","新北市永和區豫溪街57巷8弄6號","121.517615","25.01043","6500400","永和區"
"234076","969-R7","2018/02/19 14:29:40","新北市永和區中正路324號","121.517475","24.9996183333333","6500400","永和區"
"243003","267-VK","2018/02/19 14:29:42","新北市泰山區全興路19號","121.432413333333","25.0588216666667","6501600","泰山區"
"243003","297-R6","2018/02/19 14:29:45","新北市泰山區貴子路74號","121.427038333333","25.041315","6501600","泰山區"
"243007","380-SR","2018/02/19 14:29:35","新北市泰山區明志路二段103-1號","121.428311666667","25.05165","6501600","泰山區"
"243006","421-VK","2018/02/19 14:29:31","新北市泰山區中港西路408號","121.434236666667","25.0542816666667","6501600","泰山區"
"243004","539-UM","2018/02/19 14:29:45","新北市泰山區仁愛路6號","121.430681666667","25.0539683333333","6501600","泰山區"
"243002","KEA-2215","2018/02/19 14:29:41","新北市泰山區明志路二段7巷6號","121.430598333333","25.0533333333333","6501600","泰山區"
"243001","KEA-2216","2018/02/19 14:29:42","新北市泰山區美寧街58號","121.430806666667","25.0646066666667","6501600","泰山區"
"243005","646-TV","2018/02/19 14:29:34","新北市泰山區明志路三段145巷5弄3號","121.425358333333","25.040105","6501600","泰山區"
"243008","680-BX","2018/02/19 14:29:39","新北市泰山區工專路82巷1號","121.42234","25.040545","6501600","泰山區"
"231025","0293-UT","2018/02/19 14:29:39","新北市新店區三民路31-10號","121.53786","24.97048","6500600","新店區"
"231028","046-UY","2018/02/19 14:29:44","新北市新店區安成街17號","121.510305","24.96074","6500600","新店區"
"231030","047-UY","2018/02/19 14:29:30","新北市新店區安民街136號","121.516626666667","24.9694266666667","6500600","新店區"
"231018","107-UY","2018/02/19 14:29:42","新北市新店區中央三街1號","121.529836666667","24.9737333333333","6500600","新店區"
"231011","108-UY","2018/02/19 14:29:35","新北市新店區五峰路61巷7號","121.548818333333","24.96964","6500600","新店區"
"231019","187-VK","2018/02/19 14:29:35","新北市新店區新烏路二段198巷2弄2號","121.547788333333","24.9170416666667","6500600","新店區"
"231014","KEA-2219","2018/02/19 14:29:33","新北市新店區中生路128號","121.568381666667","24.949015","6500600","新店區"
"231023","AAD-862","2018/02/19 14:29:40","新北市新店區光明街138巷13弄1號","121.540198333333","24.9611716666667","6500600","新店區"
"231027","3712-VJ","2018/02/19 14:29:46","新北市新店區光明街138巷14號","121.539901666667","24.9611116666667","6500600","新店區"
"231024","4716-K9","2018/02/19 14:29:40","新北市新店區中華路83巷67號","121.538238333333","24.9672033333333","6500600","新店區"
"231038","4715-K9","2018/02/19 14:29:33","新北市新店區安德街148巷31號","121.505928333333","24.9604516666667","6500600","新店區"
"231036","512-UM","2018/02/19 14:29:30","新北市新店區安祥路109巷21號","121.476183333333","24.9592066666667","6500600","新店區"
"231013","513-UM","2018/02/19 14:29:42","新北市新店區民權路88-5號","121.536346666667","24.9834333333333","6500600","新店區"
"231035","515-UM","2018/02/19 14:29:39","新北市新店區光華街8巷28號","121.51809","24.969855","6500600","新店區"
"231001","619-UM","2018/02/19 14:29:44","新北市新店區北新路一段96巷23號","121.543018333333","24.968765","6500600","新店區"
"231003","641-BX","2018/02/19 14:29:34","新北市新店區中興路二段100巷2號","121.547455","24.97146","6500600","新店區"
"231034","645-TV","2018/02/19 14:29:43","新北市新店區黎明路68號","121.501866666667","24.94561","6500600","新店區"
"231013","719-UM","2018/02/19 14:29:38","新北市新店區民權路100-1號","121.536191666667","24.9833633333333","6500600","新店區"
"231031","720-UM","2018/02/19 14:29:32","新北市新店區安康路一段323-3號","121.52113","24.9639066666667","6500600","新店區"
"231005","897-TW","2018/02/19 14:29:47","新北市新店區北新路三段41號","121.541896666667","24.980305","6500600","新店區"
"231006","898-TW","2018/02/19 14:29:42","新北市新店區北宜路二段503號","121.563393333333","24.9536866666667","6500600","新店區"
"231004","899-TW","2018/02/19 14:29:29","新北市新店區中正路234號","121.53982","24.9728966666667","6500600","新店區"
"231037","AKT-0513","2018/02/19 14:29:34","新北市新店區安康路二段341巷5號","121.496991666667","24.9548433333333","6500600","新店區"
"235027","006-UY","2018/02/19 14:29:27","新北市中和區連城路249巷26弄2號","121.4946","24.9955383333333","6500300","中和區"
"235020","096-UM","2018/02/19 14:29:31","新北市中和區員山路514巷19號","121.479773333333","25.0098983333333","6500300","中和區"
"235003","097-UM","2018/02/19 14:29:30","新北市中和區秀峰街129號","121.517373333333","24.9893433333333","6500300","中和區"
"235029","098-UM","2018/02/19 14:29:47","新北市中和區中山路二段64巷16弄11號","121.503646666667","25.0062016666667","6500300","中和區"
"235019","183-VK","2018/02/19 14:29:37","新北市中和區中山路三段209號","121.47196","25.0064333333333","6500300","中和區"
"235008","293-VK","2018/02/19 14:29:32","新北市中和區中興街230巷11號","121.499645","24.9882333333333","6500300","中和區"
"235036","301-VK","2018/02/19 14:29:36","新北市中和區中正路426號","121.491473333333","24.99432","6500300","中和區"
"235007","352-BY","2018/02/19 14:29:42","新北市中和區景平路300號","121.512673333333","24.9928116666667","6500300","中和區"
"235032","377-QA","2018/02/19 14:29:46","新北市中和區圓通路170號","121.497376666667","24.9947783333333","6500300","中和區"
"235035","269-TV","2018/02/19 14:29:40","新北市中和區連城路519號","121.482096666667","24.995305","6500300","中和區"
"235014","4979-A6","2018/02/19 14:29:45","新北市中和區忠孝街60巷2弄8號","121.511551666667","24.9836416666667","6500300","中和區"
"235033","4980-A6","2018/02/19 14:29:49","新北市中和區中和路219-3號","121.504171666667","25.000125","6500300","中和區"
"235006","551-UM","2018/02/19 14:29:47","新北市中和區立人街69巷15弄5號","121.5211","24.9935833333333","6500300","中和區"
"235018","640-BX","2018/02/19 14:29:35","新北市中和區國光街105號","121.470013333333","25.0003816666667","6500300","中和區"
"235024","647-TV","2018/02/19 14:29:41","新北市中和區員山路294巷4號","121.481725","25.0024066666667","6500300","中和區"
"235011","732-UM","2018/02/19 14:29:42","新北市新店區薏仁坑路自強巷1號","121.497066666667","24.957875","6500300","中和區"
"235010","733-UM","2018/02/19 14:29:42","新北市中和區忠孝街20巷3號","121.510555","24.98267","6500300","中和區"
"235026","800-TS","2018/02/19 14:29:37","新北市中和區中山路二段380巷2號","121.490923333333","25.0043766666667","6500300","中和區"
"235016","805-TS","2018/02/19 14:29:42","新北市中和區華新街143巷63弄2號","121.506405","24.9792133333333","6500300","中和區"
"235012","896-TW","2018/02/19 14:29:34","新北市中和區南山路421巷1弄1號","121.507416666667","24.9894583333333","6500300","中和區"
"235017","900-TW","2018/02/19 14:29:47","新北市中和區華順街59號","121.466303333333","24.9984033333333","6500300","中和區"
"235015","157-BY","2018/02/19 14:29:44","新北市中和區忠孝街31巷56號","121.509746666667","24.9856666666667","6500300","中和區"
"235001","AAC-213","2018/02/19 14:29:41","新北市新店區薏仁坑路6號","121.50032","24.9579383333333","6500300","中和區"
"235023","AAC-215","2018/02/19 14:29:48","新北市中和區圓通路252巷36弄1號","121.492403333333","24.9931166666667","6500300","中和區"
"220016","013-TV","2018/02/19 14:29:45","新北市板橋區中山路二段531巷40號","121.48262","25.0225066666667","6500100","板橋區"
"220020","015-TV","2018/02/19 14:29:28","新北市板橋區金門街253巷10弄5號","121.433011666667","24.9883533333333","6500100","板橋區"
"220013","072-UY","2018/02/19 14:29:37","新北市板橋區實踐路93巷77號","121.467176666667","25.005355","6500100","板橋區"
"220034","073-UY","2018/02/19 14:29:46","新北市板橋區中正路216巷150弄5號","121.461018333333","25.0193133333333","6500100","板橋區"
"220105","075-UY","2018/02/19 14:29:43","新北市板橋區江寧路三段53號","121.47174","25.0320683333333","6500100","板橋區"
"220017","AAD-861","2018/02/19 14:29:43","新北市板橋區貴興路39號","121.457545","25.0037533333333","6500100","板橋區"
"220039","120-SR","2018/02/19 14:29:36","新北市板橋區裕民街87-4號","121.460435","25.0280966666667","6500100","板橋區"
"247021","893-R6","2018/02/19 14:29:42","新北市蘆洲區水湳街72號","121.4706","25.0897483333333","6501400","蘆洲區"
"247011","546-UM","2018/02/19 14:29:49","新北市蘆洲區復興路85號","121.476453333333","25.0874416666667","6501400","蘆洲區"
"247019","500-BY","2018/02/19 14:29:34","新北市蘆洲區仁愛街35巷15弄2號","121.471471666667","25.0925683333333","6501400","蘆洲區"
"247007","341-TH","2018/02/19 14:29:37","新北市蘆洲區中山一路61巷34號","121.477371666667","25.0808566666667","6501400","蘆洲區"
"247009","339-TH","2018/02/19 14:29:43","新北市蘆洲區三民路52號","121.475455","25.0835233333333","6501400","蘆洲區"
"247001","337-TH","2018/02/19 14:29:35","新北市蘆洲區永樂街38巷19弄15號","121.45739","25.08909","6501400","蘆洲區"
"247003","336-TH","2018/02/19 14:29:38","新北市蘆洲區長安街194巷1號","121.458941666667","25.084005","6501400","蘆洲區"
"247017","335-TH","2018/02/19 14:29:36","新北市蘆洲區民族路336巷31號","121.477958333333","25.09138","6501400","蘆洲區"
"247015","057-VK","2018/02/19 14:29:36","新北市蘆洲區中正路185巷25弄4號","121.466798333333","25.0842266666667","6501400","蘆洲區"
"247005","056-VK","2018/02/19 14:29:46","新北市蘆洲區永安南路二段166號","121.46142","25.0790333333333","6501400","蘆洲區"
"247023","002-UY","2018/02/19 14:29:45","新北市蘆洲區中正路261號","121.467413333333","25.08726","6501400","蘆洲區"
"235005","251-BX","2018/02/19 14:29:46","新北市中和區中和路232號","121.506686666667","24.9996","6500300","中和區"
"228004","212-TW","2018/02/19 14:29:31","新北市貢寮區雙玉里田寮洋街33-1號","121.93219","25.0135983333333","6502600","貢寮區"
"228002","585-TW","2018/02/19 14:29:27","新北市貢寮區福隆里福隆街44號","121.94522","25.0177716666667","6502600","貢寮區"
"228005","828-UM","2018/02/19 14:29:45","新北市貢寮區美豐里巫里岸9-1號","121.901978333333","25.06999","6502600","貢寮區"
"253003","6232-TK","2018/02/19 14:29:41","新北市石門區尖子鹿53-2號","121.580218333333","25.2700383333333","6502200","石門區"
"253001","6251-TK","2018/02/19 14:29:46","新北市石門區八甲27-1號","121.528391666667","25.2779016666667","6502200","石門區"
"253002","637-UY","2018/02/19 14:28:34","新北市石門區七股56號","121.552868333333","25.2560566666667","6502200","石門區"
"253004","8270-PC","2018/02/19 14:29:28","新北市石門區小坑45號","121.597005","25.260085","6502200","石門區"
"208002","KEA-2872","2018/02/19 14:29:35","新北市金山區仁愛路67巷18號","121.634421666667","25.22099","6502700","金山區"
"208003","665-BX","2018/02/19 14:29:36","新北市金山區中正路135號","121.632428333333","25.221505","6502700","金山區"
"208001","761-BX","2018/02/19 14:29:40","新北市金山區金包里街2號","121.64072","25.2205816666667","6502700","金山區"
"207002","749-BX","2018/02/19 14:29:32","新北市萬里區溪底里溪底路21號","121.611573333333","25.148335","6502800","萬里區"
"207001","662-BX","2018/02/19 14:29:25","新北市萬里區磺潭里清水5-1號","121.641118333333","25.2003966666667","6502800","萬里區"
"252005","AAC-283","2018/02/19 14:29:31","新北市三芝區橫山里大坑23-5號","121.523751666667","25.255515","6502100","三芝區"
"237004","KEA-2597","2018/02/19 14:29:36","新北市三峽區有木205號","121.439063333333","24.851725","6500900","三峽區"
"237007","153-BY","2018/02/19 14:29:46","新北市三峽區中正路二段41號","121.366726666667","24.9185833333333","6500900","三峽區"
"237009","210-TH","2018/02/19 14:29:32","新北市三峽區大同路270巷9-1號","121.365275","24.9256633333333","6500900","三峽區"
"237013","252-BX","2018/02/19 14:29:41","新北市樹林區中山路三段214號","121.380146666667","24.967885","6500900","三峽區"
"237008","302-VK","2018/02/19 14:29:28","新北市三峽區大同路105號","121.374498333333","24.92694","6500900","三峽區"
"237006","5529-G3","2018/02/19 14:29:35","新北市三峽區溪東路211巷37號","121.405368333333","24.9346566666667","6500900","三峽區"
"237010","706-TV","2018/02/19 14:29:36","新北市三峽區國光街358號","121.371156666667","24.9396183333333","6500900","三峽區"
"236064","105-UM","2018/02/19 14:29:35","新北市土城區永豐路255巷27弄47號","121.477061666667","24.97357","6501300","土城區"
"236040","107-UM","2018/02/19 14:29:44","新北市土城區裕民路61巷14號","121.44965","24.98835","6501300","土城區"
"236074","166-UM","2018/02/19 14:29:26","新北市土城區中央路三段279號","121.426756666667","24.96343","6501300","土城區"
"236028","253-BX","2018/02/19 14:29:30","新北市土城區中華路二段169巷5號","121.439266666667","24.975545","6501300","土城區"
"236024","269-VK","2018/02/19 14:29:46","新北市土城區承天路88-1號","121.44316","24.9604233333333","6501300","土城區"
"236012","270-VK","2018/02/19 14:29:42","新北市土城區青雲路39巷7號","121.46029","24.9874233333333","6501300","土城區"
"236032","271-VK","2018/02/19 14:29:39","新北市土城區青雲路451巷13號","121.459568333333","24.97472","6501300","土城區"
"236016","401-BY","2018/02/19 14:29:34","新北市土城區永豐路135巷21號","121.46738","24.9836","6501300","土城區"
"236056","912-UM","2018/02/19 14:29:47","新北市土城區中央路四段328號","121.413581666667","24.955525","6501300","土城區"
"236044","913-UM","2018/02/19 14:29:35","新北市土城區青雲路461號","121.458723333333","24.9743566666667","6501300","土城區"
"236060","915-UM","2018/02/19 14:29:36","新北市土城區延壽路111巷23號","121.468338333333","24.99352","6501300","土城區"
"236052","AAC-216","2018/02/19 14:29:37","新北市土城區中華路二段1號","121.439698333333","24.9791783333333","6501300","土城區"
"238010","601-UM","2018/02/19 14:29:50","新北市樹林區三寶街5號","121.406558333333","25.0156816666667","6500700","樹林區"
"238006","599-UM","2018/02/19 14:29:37","新北市樹林區中山路三段214號","121.379836666667","24.9676416666667","6500700","樹林區"
"238018","571-TV","2018/02/19 14:29:40","新北市樹林區中山路三段135號","121.396315","24.9731866666667","6500700","樹林區"
"238011","5061-A6","2018/02/19 14:29:38","新北市樹林區中山路一段163號","121.421783333333","24.988665","6500700","樹林區"
"238008","KEA-2217","2018/02/19 14:29:39","新北市樹林區柑園街二段175號","121.380436666667","24.9530533333333","6500700","樹林區"
"238012","303-VK","2018/02/19 14:29:39","新北市樹林區中山路一段211號","121.421065","24.9873733333333","6500700","樹林區"
"238017","283-BY","2018/02/19 14:29:29","新北市樹林區保安街二段329號","121.412493333333","25.0070683333333","6500700","樹林區"
"238001","282-BY","2018/02/19 14:29:42","新北市樹林區中正路22-1號","121.427825","24.9994566666667","6500700","樹林區"
"238020","268-VK","2018/02/19 14:29:41","新北市樹林區俊英街183號","121.424093333333","25.0122783333333","6500700","樹林區"
"238013","172-UY","2018/02/19 14:29:43","新北市樹林區佳園路一段75巷30號","121.395525","24.9700283333333","6500700","樹林區"
"239007","AAC-297","2018/02/19 14:29:36","新北市鶯歌區中正一路269巷40號","121.355506666667","24.95962","6500800","鶯歌區"
"239006","891-R6","2018/02/19 14:29:40","新北市鶯歌區鶯桃路296巷98號","121.336966666667","24.9621966666667","6500800","鶯歌區"
"239008","527-UM","2018/02/19 14:29:46","新北市鶯歌區國際一路179號","121.336231666667","24.976535","6500800","鶯歌區"
"239001","417-VK","2018/02/19 14:29:33","新北市鶯歌區鶯桃路29號","121.343371666667","24.950605","6500800","鶯歌區"
"239003","360-BY","2018/02/19 14:29:47","新北市鶯歌區鶯桃路658巷31號","121.329865","24.9696816666667","6500800","鶯歌區"
"239004","193-VK","2018/02/19 14:29:49","新北市鶯歌區中正三路247巷50弄1號","121.33332","24.9373183333333","6500800","鶯歌區"
"221032","280-BY","2018/02/19 14:29:34","台北市文山區老泉街31-1號","121.561328333333","24.977135","6501100","汐止區"
"220027","145-BY","2018/02/19 14:29:28","新北市板橋區復興街23號","121.457906666667","25.0173833333333","6500100","板橋區"
"220028","200-UY","2018/02/19 14:29:42","新北市板橋區大觀路二段37巷208號","121.449303333333","25.00106","6500100","板橋區"
"220030","610-BX","2018/02/19 14:29:34","新北市板橋區金門街223號","121.432233333333","24.9896966666667","6500100","板橋區"
"220050","245-BX","2018/02/19 14:29:48","新北市板橋區縣民大道三段133巷28號","121.477351666667","25.0237833333333","6500100","板橋區"
"220004","276-BY","2018/02/19 14:29:46","新北市板橋區信義路1巷26弄31號","121.45865","24.9966666666667","6500100","板橋區"
"220019","283-VK","2018/02/19 14:29:45","新北市板橋區忠孝路24巷22號","121.460221666667","25.00103","6500100","板橋區"
"220043","285-UM","2018/02/19 14:29:42","新北市板橋區吳鳳路50巷77號","121.470006666667","25.03033","6500100","板橋區"
"220001","285-VK","2018/02/19 14:29:37","新北市板橋區永豐街181號","121.475988333333","25.0206816666667","6500100","板橋區"
"220031","286-VK","2018/02/19 14:29:44","新北市板橋區龍興街73巷15號","121.443203333333","25.002415","6500100","板橋區"
"220029","287-VK","2018/02/19 14:29:43","新北市板橋區大觀路一段77號","121.447281666667","25.004475","6500100","板橋區"
"220009","293-UM","2018/02/19 14:29:32","新北市板橋區中山路一段265巷36弄2號","121.46921","25.015095","6500100","板橋區"
"220032","296-UM","2018/02/19 14:29:43","新北市板橋區篤行路三段玉平巷83號","121.428255","24.985835","6500100","板橋區"
"220023","303-R5","2018/02/19 14:29:35","新北市板橋區南雅南路一段3巷25-15號","121.456481666667","25.0056216666667","6500100","板橋區"
"220010","305-R5","2018/02/19 14:29:47","新北市板橋區三民路二段181巷4弄1號","121.479863333333","25.0143483333333","6500100","板橋區"
"220041","307-R5","2018/02/19 14:29:28","新北市板橋區松江街11號","121.468953333333","25.0263233333333","6500100","板橋區"
"220047","317-R6","2018/02/19 14:29:36","新北市板橋區民生路三段281巷2弄2號","121.46365","25.0299666666667","6500100","板橋區"
"220012","486-VK","2018/02/19 14:29:46","新北市板橋區館前東路25號","121.460485","25.0073","6500100","板橋區"
"220038","487-VK","2018/02/19 14:29:31","新北市板橋區文化路一段51號","121.460776666667","25.0134266666667","6500100","板橋區"
"220037","491-VK","2018/02/19 14:29:28","新北市板橋區雙十路二段6-1號","121.47686","25.025985","6500100","板橋區"
"220104","560-BX","2018/02/19 14:29:45","新北市板橋區金華街85巷42號","121.459168333333","25.0213933333333","6500100","板橋區"
"220052","561-BX","2018/02/19 14:29:42","新北市板橋區介壽街3號","121.467133333333","25.0203533333333","6500100","板橋區"
"220011","609-BX","2018/02/19 14:29:43","新北市板橋區三民路一段94號","121.479401666667","25.0215333333333","6500100","板橋區"
"220040","637-BX","2018/02/19 14:29:31","新北市板橋區文聖街79號","121.477361666667","25.0302783333333","6500100","板橋區"
"220005","686-BX","2018/02/19 14:29:47","新北市板橋區和平路31號","121.460155","24.995915","6500100","板橋區"
"220025","687-BX","2018/02/19 14:29:39","新北市板橋區僑中二街52號","121.446706666667","25.0102016666667","6500100","板橋區"
"220042","689-BX","2018/02/19 14:29:41","新北市板橋區雨農路50號","121.461065","25.0243283333333","6500100","板橋區"
"220002","741-BX","2018/02/19 14:29:33","新北市板橋區實踐路185號","121.464358333333","25.0033433333333","6500100","板橋區"
"220051","KEA-2699","2018/02/19 14:29:46","新北市板橋區松柏街22巷9-2號","121.474815","25.0294783333333","6500100","板橋區"
"220003","827-TW","2018/02/19 14:29:45","新北市板橋區重慶路290巷36號","121.461798333333","24.9987633333333","6500100","板橋區"
"220014","829-TW","2018/02/19 14:29:48","新北市板橋區長安街138巷25號","121.473151666667","25.0089333333333","6500100","板橋區"
"220045","830-TW","2018/02/19 14:29:46","新北市板橋區民生路二段226巷6弄2號","121.469578333333","25.0217716666667","6500100","板橋區"
"220022","895-R6","2018/02/19 14:29:45","新北市板橋區館前西路150號","121.455703333333","25.0084133333333","6500100","板橋區"
"220021","985-R7","2018/02/19 14:29:43","新北市板橋區大仁街62-1號","121.45453","25.01645","6500100","板橋區"
"220046","AAC-210","2018/02/19 14:29:43","新北市板橋區新海路24號","121.462375","25.020975","6500100","板橋區"
"220018","AAC-253","2018/02/19 14:29:33","新北市板橋區館前東路74號","121.461448333333","25.0073883333333","6500100","板橋區"
