"lineid","car","time","location","longitude","latitude","cityid","cityname"
"234066","149-BY","2018/02/19 15:29:47","新北市永和區保平路214巷6號","121.509611666667","25.0061166666667","6500400","永和區"
"234060","AAD-866","2018/02/19 15:29:50","新北市永和區秀安街25號","121.516566666667","25.0037616666667","6500400","永和區"
"234048","863-TW","2018/02/19 15:29:36","新北市永和區新生路138巷3弄12號","121.506245","25.014415","6500400","永和區"
"248015","026-BX","2018/02/19 15:29:44","新北市五股區凌雲路一段158巷39弄12號","121.446513333333","25.1040733333333","6501500","五股區"
"248003","677-BX","2018/02/19 15:29:37","新北市五股區中直路1號","121.428503333333","25.1089783333333","6501500","五股區"
"234072","AAC-211","2018/02/19 15:29:33","新北市永和區竹林路119巷30弄13號","121.522796666667","25.0116483333333","6500400","永和區"
"234001","AAC-295","2018/02/19 15:29:32","新北市永和區永和路一段174號","121.514296666667","25.00876","6500400","永和區"
"243001","KEA-2216","2018/02/19 15:29:42","新北市泰山區泰林路二段292巷13號","121.431273333333","25.0636866666667","6501600","泰山區"
"231025","0293-UT","2018/02/19 15:29:39","新北市新店區建國路70號","121.540611666667","24.9760616666667","6500600","新店區"
"231028","046-UY","2018/02/19 15:29:44","新北市新店區僑信路76號","121.499623333333","24.94855","6500600","新店區"
"231030","047-UY","2018/02/19 15:29:30","新北市新店區安民街121巷12號","121.515451666667","24.969255","6500600","新店區"
"231029","106-UY","2018/02/19 15:29:44","新北市新店區安康路三段561巷2弄12號","121.475661666667","24.9439483333333","6500600","新店區"
"231019","189-VK","2018/02/19 15:29:34","新北市新店區新烏路三段190號","121.551478333333","24.9021966666667","6500600","新店區"
"231014","KEA-2219","2018/02/19 15:29:32","新北市新店區銀河路21號","121.573131666667","24.9571233333333","6500600","新店區"
"231026","256-BX","2018/02/19 15:29:30","新北市新店區中正路247巷17號","121.538653333333","24.972615","6500600","新店區"
"231011","260-TV","2018/02/19 15:29:28","新北市新店區寶元路一段87巷19號","121.54395","24.9854833333333","6500600","新店區"
"231002","355-BY","2018/02/19 15:29:43","新北市新店區中正路700巷1號","121.533961666667","24.991185","6500600","新店區"
"231027","3712-VJ","2018/02/19 15:29:46","新北市新店區中正路76巷11弄11號","121.543918333333","24.9714","6500600","新店區"
"231024","4716-K9","2018/02/19 15:29:40","新北市新店區北新路一段303號","121.541333333333","24.9675333333333","6500600","新店區"
"231036","512-UM","2018/02/19 15:29:50","新北市新店區安祥路106巷272號","121.472958333333","24.9586483333333","6500600","新店區"
"231035","515-UM","2018/02/19 15:29:39","新北市新店區安民街365巷7弄2號","121.515925","24.9752566666667","6500600","新店區"
"231003","641-BX","2018/02/19 15:29:34","新北市新店區寶橋路178號","121.549388333333","24.9774983333333","6500600","新店區"
"231034","645-TV","2018/02/19 15:29:43","新北市新店區富貴街10巷2號","121.494223333333","24.949725","6500600","新店區"
"231039","718-UY","2018/02/19 15:29:40","新北市新店區寶元路一段95號","121.543635","24.9849566666667","6500600","新店區"
"231018","719-UM","2018/02/19 15:29:38","新北市新店區中央七街111號","121.525685","24.9777666666667","6500600","新店區"
"231023","719-UY","2018/02/19 15:29:34","新北市新店區北新路一段88巷1號","121.541645","24.9679316666667","6500600","新店區"
"231031","720-UM","2018/02/19 15:29:37","新北市新店區安泰路12巷2號","121.485526666667","24.9502233333333","6500600","新店區"
"231005","897-TW","2018/02/19 15:29:48","新北市新店區建國路293巷1號","121.536713333333","24.9861666666667","6500600","新店區"
"231004","899-TW","2018/02/19 15:29:49","新北市新店區建國路64號","121.540601666667","24.97586","6500600","新店區"
"231037","AKT-0513","2018/02/19 15:29:34","新北市新店區安興路112號","121.514608333333","24.977625","6500600","新店區"
"241011","013-R5","2018/02/19 15:29:47","新北市三重區龍濱路285號","121.50103","25.0734333333333","6500200","三重區"
"241017","063-VK","2018/02/19 15:29:49","新北市三重區重新路四段121號","121.484768333333","25.0518716666667","6500200","三重區"
"241003","156-TC","2018/02/19 15:29:47","新北市三重區重新路四段121號","121.485046666667","25.0521833333333","6500200","三重區"
"241013","270-UM","2018/02/19 15:29:43","新北市三重區忠孝路二段1號","121.487183333333","25.0715516666667","6500200","三重區"
"241007","398-BY","2018/02/19 15:29:36","新北市三重區重新路四段121號","121.485168333333","25.052005","6500200","三重區"
"241029","942-UM","2018/02/19 15:29:35","新北市三重區大同南路202號","121.496786666667","25.0567016666667","6500200","三重區"
"241033","AAC-255","2018/02/19 15:29:37","新北市三重區重新路五段416號","121.475456666667","25.0475783333333","6500200","三重區"
"235030","003-UY","2018/02/19 15:29:50","新北市中和區中山路二段3巷32號","121.507173333333","25.0051233333333","6500300","中和區"
"235004","150-BY","2018/02/19 15:29:22","新北市中和區宜安路11巷14號","121.512863333333","24.99529","6500300","中和區"
"235007","352-BY","2018/02/19 15:29:42","新北市中和區興南路二段159巷7號","121.505248333333","24.983185","6500300","中和區"
"235032","377-QA","2018/02/19 15:29:46","新北市中和區廟美街62號","121.500215","25.0025216666667","6500300","中和區"
"235025","378-QA","2018/02/19 15:29:41","新北市中和區員山路174巷16號","121.482136666667","24.9996766666667","6500300","中和區"
"235014","4979-A6","2018/02/19 15:29:45","新北市中和區景平路155巷2弄1號","121.513468333333","24.9918716666667","6500300","中和區"
"235033","4980-A6","2018/02/19 15:29:32","新北市中和區景新街64巷7弄14號","121.504578333333","24.998465","6500300","中和區"
"235006","551-UM","2018/02/19 15:29:47","新北市中和區景新街462號","121.513373333333","24.9876666666667","6500300","中和區"
"235034","558-UM","2018/02/19 15:29:39","新北市中和區景平路537號","121.498815","24.9993333333333","6500300","中和區"
"235011","732-UM","2018/02/19 15:29:42","新北市中和區和平街74號","121.507691666667","24.9911233333333","6500300","中和區"
"235010","733-UM","2018/02/19 15:29:42","新北市中和區捷運路6號","121.510215","24.9895016666667","6500300","中和區"
"235021","801-TS","2018/02/19 15:29:45","新北市中和區員山路112號","121.48108","24.9956666666667","6500300","中和區"
"235012","896-TW","2018/02/19 15:29:34","新北市中和區忠孝街3號","121.509475","24.9829666666667","6500300","中和區"
"235015","157-BY","2018/02/19 15:29:44","新北市中和區興南路一段73巷3號","121.510293333333","24.9890533333333","6500300","中和區"
"235001","AAC-213","2018/02/19 15:29:41","新北市中和區自立路177巷2號","121.523343333333","24.9920283333333","6500300","中和區"
"235023","AAC-215","2018/02/19 15:29:28","新北市中和區圓通路256號","121.493251666667","24.9909433333333","6500300","中和區"
"253003","6232-TK","2018/02/19 15:29:41","新北市石門區小坑9號","121.59403","25.288685","6502200","石門區"
"253001","6251-TK","2018/02/19 15:29:46","新北市石門區小坑9號","121.594408333333","25.2891133333333","6502200","石門區"
"208002","KEA-2872","2018/02/19 15:29:35","新北市金山區中山路323號","121.635341666667","25.2238566666667","6502700","金山區"
"208003","665-BX","2018/02/19 15:29:36","新北市金山區永興里濆水路13號","121.626775","25.2684566666667","6502700","金山區"
"208001","761-BX","2018/02/19 15:29:31","新北市金山區南勢41-1號","121.629091666667","25.219855","6502700","金山區"
"207001","662-BX","2018/02/19 15:29:45","新北市萬里區野柳里八斗60-1號","121.674025","25.2011983333333","6502800","萬里區"
"237009","210-TH","2018/02/19 15:29:32","新北市三峽區民族街28巷2-8號","121.368913333333","24.9307516666667","6500900","三峽區"
"237013","252-BX","2018/02/19 15:29:41","新北市三峽區橫溪路7號","121.396113333333","24.9360316666667","6500900","三峽區"
"237008","302-VK","2018/02/19 15:29:48","新北市三峽區中華路46號","121.372118333333","24.930535","6500900","三峽區"
"237006","5529-G3","2018/02/19 15:29:35","新北市三峽區中正路二段299巷3號","121.36638","24.91092","6500900","三峽區"
"236064","105-UM","2018/02/19 15:29:35","新北市土城區中央路二段346巷11號","121.4396","24.9721983333333","6501300","土城區"
"236040","107-UM","2018/02/19 15:29:30","新北市樹林區中山路三段214號","121.380156666667","24.9679516666667","6501300","土城區"
"236074","166-UM","2018/02/19 15:29:46","新北市樹林區環河路600號","121.40468","24.968875","6501300","土城區"
"236012","270-VK","2018/02/19 15:29:42","新北市土城區廣福街5號","121.457258333333","24.9888416666667","6501300","土城區"
"242057","705-TV","2018/02/19 15:16:00","新北市新莊區瓊林南路77-41號","121.437755","25.0122366666667","6500500","新莊區"
"238002","755-BX","2018/02/19 15:29:39","新北市樹林區備內街98號","121.411033333333","24.98838","6500700","樹林區"
"238006","599-UM","2018/02/19 15:29:37","新北市樹林區太平路45號","121.419145","24.9827483333333","6500700","樹林區"
"238018","571-TV","2018/02/19 15:29:40","新北市樹林區鎮前街281-4號","121.418288333333","24.9850883333333","6500700","樹林區"
"238011","5061-A6","2018/02/19 15:29:38","新北市樹林區福德街33號","121.400525","24.9753733333333","6500700","樹林區"
"238008","KEA-2217","2018/02/19 15:29:39","新北市樹林區佳園路三段113巷5-1號","121.387058333333","24.950195","6500700","樹林區"
"238009","KEA-2213","2018/02/19 15:29:41","新北市樹林區東興街3號","121.409213333333","24.9802583333333","6500700","樹林區"
"238012","303-VK","2018/02/19 15:29:38","新北市樹林區中山路三段120號","121.392406666667","24.9721766666667","6500700","樹林區"
"238017","283-BY","2018/02/19 15:29:49","新北市樹林區光興街273號","121.407568333333","25.00556","6500700","樹林區"
"238013","172-UY","2018/02/19 15:29:42","新北市樹林區佳園路一段37-1號","121.393053333333","24.9708616666667","6500700","樹林區"
"238003","169-UY","2018/02/19 15:29:31","新北市樹林區大安路622號","121.41118","24.9829133333333","6500700","樹林區"
"239006","891-R6","2018/02/19 15:29:40","新北市鶯歌區文化路72-9號","121.354585","24.9535483333333","6500800","鶯歌區"
"220031","286-VK","2018/02/19 15:29:41","新北市板橋區僑中二街108巷17號","121.444981666667","25.007285","6500100","板橋區"
"220038","487-VK","2018/02/19 15:29:50","新北市板橋區四維路343號","121.462445","25.0297983333333","6500100","板橋區"
"220052","561-BX","2018/02/19 15:29:42","新北市板橋區漢生東路53巷28號","121.466713333333","25.0173633333333","6500100","板橋區"
