"lineid","car","time","location","longitude","latitude","cityid","cityname"
"234066","149-BY","2018/02/19 15:49:27","新北市永和區保平路292巷46弄2號","121.507445","25.0054","6500400","永和區"
"234025","9371-KE","2018/02/19 15:49:19","新北市永和區雙和街52巷2號","121.508986666667","25.0031783333333","6500400","永和區"
"248003","677-BX","2018/02/19 15:49:17","新北市八里區中山路三段409號","121.368475","25.134945","6501500","五股區"
"234072","AAC-211","2018/02/19 15:49:12","新北市永和區竹林路75巷4弄34號","121.521546666667","25.0142133333333","6500400","永和區"
"222003","016-RS","2018/02/19 15:40:59","新北市深坑區深南路51-1號","121.621151666667","25.00992","6501800","深坑區"
"231025","0293-UT","2018/02/19 15:49:19","新北市新店區民權路107號","121.536553333333","24.9821866666667","6500600","新店區"
"231030","047-UY","2018/02/19 15:49:22","新北市新店區新和街93巷8號","121.520898333333","24.986665","6500600","新店區"
"231029","106-UY","2018/02/19 15:49:29","新北市新店區安康路三段47號","121.49272","24.9525833333333","6500600","新店區"
"231019","189-VK","2018/02/19 15:49:14","新北市新店區松林路30-9號","121.545328333333","24.9104583333333","6500600","新店區"
"231014","KEA-2219","2018/02/19 15:49:32","新北市新店區北宜路一段69號","121.538475","24.9564483333333","6500600","新店區"
"231026","256-BX","2018/02/19 15:49:30","新北市新店區三民路51巷5弄1號","121.536433333333","24.9701083333333","6500600","新店區"
"231011","260-TV","2018/02/19 15:49:28","新北市新店區中興路三段154號","121.544633333333","24.98059","6500600","新店區"
"231046","278-BY","2018/02/19 15:49:28","新北市新店區安華路28-1號","121.519636666667","24.96106","6500600","新店區"
"231038","4715-K9","2018/02/19 15:49:13","新北市新店區安康路二段242巷9號","121.508766666667","24.9596316666667","6500600","新店區"
"231036","512-UM","2018/02/19 15:49:30","新北市新店區安祥路102巷46弄25號","121.485531666667","24.9637683333333","6500600","新店區"
"231013","513-UM","2018/02/19 15:49:25","新北市新店區永業路81巷5弄30號","121.530963333333","24.949735","6500600","新店區"
"231035","515-UM","2018/02/19 15:49:18","新北市新店區安民街365巷10弄24號","121.515893333333","24.9760466666667","6500600","新店區"
"231003","641-BX","2018/02/19 15:49:33","新北市新店區寶興路49-1號","121.549321666667","24.9729666666667","6500600","新店區"
"231034","645-TV","2018/02/19 15:49:23","新北市新店區玫瑰路57巷17號","121.496391666667","24.94634","6500600","新店區"
"231039","718-UY","2018/02/19 15:49:20","新北市新店區寶中路77號","121.54766","24.9807083333333","6500600","新店區"
"231018","719-UM","2018/02/19 15:49:18","新北市新店區中央七街97號","121.52629","24.9773883333333","6500600","新店區"
"231023","719-UY","2018/02/19 15:49:17","新北市新店區大新街9巷9號","121.543688333333","24.967735","6500600","新店區"
"231031","720-UM","2018/02/19 15:49:17","新北市新店區雙城路12號","121.490598333333","24.9502033333333","6500600","新店區"
"231037","AKT-0513","2018/02/19 15:49:14","新北市新店區安興路112號","121.51462","24.97763","6500600","新店區"
"241011","013-R5","2018/02/19 15:49:27","新北市三重區雙園街1巷4號","121.49716","25.0682566666667","6500200","三重區"
"241028","022-UY","2018/02/19 15:49:28","新北市三重區電信街99號","121.49542","25.058255","6500200","三重區"
"241015","062-VK","2018/02/19 15:49:16","新北市三重區重新路四段121號","121.485173333333","25.0520183333333","6500200","三重區"
"241017","063-VK","2018/02/19 15:49:29","新北市三重區大仁街38號","121.491603333333","25.0643283333333","6500200","三重區"
"241003","156-TC","2018/02/19 15:49:27","新北市三重區自強路五段100號","121.49671","25.0836966666667","6500200","三重區"
"241005","262-UM","2018/02/19 15:49:30","新北市三重區河邊北街373號","121.502328333333","25.07638","6500200","三重區"
"241016","265-UM","2018/02/19 15:49:12","新北市三重區重新路四段121號","121.485146666667","25.0519933333333","6500200","三重區"
"241022","267-UM","2018/02/19 15:49:23","新北市三重區重新路四段121號","121.484433333333","25.0519183333333","6500200","三重區"
"241013","270-UM","2018/02/19 15:49:23","新北市三重區正義北路275號","121.495471666667","25.07024","6500200","三重區"
"241007","398-BY","2018/02/19 15:49:16","新北市三重區忠孝路三段99巷4號","121.480168333333","25.0643533333333","6500200","三重區"
"241024","478-VK","2018/02/19 15:49:22","新北市三重區新北大道一段250號","121.479868333333","25.0613933333333","6500200","三重區"
"241014","543-UM","2018/02/19 15:49:10","新北市三重區重新路四段121號","121.485043333333","25.051975","6500200","三重區"
"241023","545-UM","2018/02/19 15:49:16","新北市三重區新北大道一段250號","121.479868333333","25.0610316666667","6500200","三重區"
"241001","547-UM","2018/02/19 15:49:14","新北市三重區忠孝路三段84巷1號","121.480226666667","25.0644633333333","6500200","三重區"
"241012","941-UM","2018/02/19 15:49:10","新北市三重區正義北路107巷68號","121.49872","25.065965","6500200","三重區"
"241029","942-UM","2018/02/19 15:49:15","新北市三重區大同南路242號","121.496931666667","25.05591","6500200","三重區"
"241033","AAC-255","2018/02/19 15:49:17","新北市三重區光復路一段61巷27號","121.473715","25.049175","6500200","三重區"
"235030","003-UY","2018/02/19 15:49:30","新北市中和區保平路328號","121.506973333333","25.0042733333333","6500300","中和區"
"235003","097-UM","2018/02/19 15:49:30","新北市中和區安樂路143巷19號","121.513745","24.996965","6500300","中和區"
"235004","150-BY","2018/02/19 15:49:22","新北市中和區景安路85號","121.506351666667","24.9967833333333","6500300","中和區"
"235022","151-BY","2018/02/19 15:49:22","新北市中和區員山路148巷13號","121.481876666667","24.99715","6500300","中和區"
"235008","293-VK","2018/02/19 15:49:32","新北市中和區捷運路6號","121.510231666667","24.98961","6500300","中和區"
"235032","377-QA","2018/02/19 15:49:26","新北市中和區中山路二段242巷4號","121.497733333333","25.00301","6500300","中和區"
"235014","4979-A6","2018/02/19 15:49:25","新北市中和區華新街83號","121.5084","24.9836183333333","6500300","中和區"
"235034","558-UM","2018/02/19 15:48:59","新北市中和區連勝街22號","121.498603333333","24.99815","6500300","中和區"
"235010","733-UM","2018/02/19 15:49:22","新北市中和區忠孝街42號","121.510948333333","24.9833833333333","6500300","中和區"
"235026","800-TS","2018/02/19 15:49:17","新北市中和區建二路56號","121.486055","25.0036433333333","6500300","中和區"
"235016","805-TS","2018/02/19 15:49:22","新北市中和區興南路一段164號","121.508061666667","24.9866766666667","6500300","中和區"
"235012","896-TW","2018/02/19 15:49:13","新北市中和區四維街24巷1號","121.512655","24.9875416666667","6500300","中和區"
"235015","157-BY","2018/02/19 15:49:24","新北市中和區中興街202巷6號","121.499228333333","24.99059","6500300","中和區"
"235023","AAC-215","2018/02/19 15:49:28","新北市中和區圓通路335巷4弄6號","121.491928333333","24.989755","6500300","中和區"
"220017","AAD-861","2018/02/19 15:49:23","新北市板橋區大明街13號","121.458878333333","25.0024633333333","6500100","板橋區"
"247004","336-TH","2018/02/19 15:49:21","新北市五股區中興路三段163號","121.449121666667","25.0806966666667","6501400","蘆洲區"
"224007","273-VK","2018/02/19 15:49:23","新北市瑞芳區大寮路356-1號","121.785001666667","25.1032466666667","6501200","瑞芳區"
"227001","642-TC","2018/02/19 15:49:21","新北市雙溪區平林里外平林42號","121.853555","25.03649","6502500","雙溪區"
"227008","400-TW","2018/02/19 15:49:21","新北市雙溪區牡丹里中正路56號","121.865461666667","25.0403483333333","6502500","雙溪區"
"208002","KEA-2872","2018/02/19 15:49:18","新北市金山區環金路23號","121.639935","25.2174183333333","6502700","金山區"
"251013","179-VK","2018/02/19 15:49:15","新北市淡水區濱海路一段221號","121.43796","25.189425","6501000","淡水區"
"237016","649-BX","2018/02/19 15:34:04","新北市三峽區學府路8號","121.371216666667","24.9477883333333","6500900","三峽區"
"236064","105-UM","2018/02/19 15:49:15","新北市土城區金安街48巷16號","121.420733333333","24.9654766666667","6501300","土城區"
"236040","107-UM","2018/02/19 15:49:30","新北市土城區員福街16號","121.441563333333","24.9786266666667","6501300","土城區"
"236056","912-UM","2018/02/19 15:49:14","新北市土城區金城路二段18號","121.449535","24.9775166666667","6501300","土城區"
"242057","705-TV","2018/02/19 15:42:57","新北市新莊區瓊林南路77-41號","121.43776","25.0122083333333","6500500","新莊區"
"238002","755-BX","2018/02/19 15:49:19","新北市樹林區中興街2號","121.420768333333","24.989695","6500700","樹林區"
"238018","571-TV","2018/02/19 15:49:20","新北市樹林區中華路3號","121.42455","24.9839466666667","6500700","樹林區"
"238011","5061-A6","2018/02/19 15:49:18","新北市樹林區山佳街5號","121.394253333333","24.9729316666667","6500700","樹林區"
"238009","KEA-2213","2018/02/19 15:49:20","新北市樹林區名園街59號","121.42001","24.9780383333333","6500700","樹林區"
"238012","303-VK","2018/02/19 15:48:38","新北市樹林區中山路三段214號","121.379958333333","24.96789","6500700","樹林區"
"238017","283-BY","2018/02/19 15:49:29","新北市樹林區光興街8號","121.412566666667","25.0029283333333","6500700","樹林區"
"238013","172-UY","2018/02/19 15:49:22","新北市樹林區佳園路二段141號","121.390151666667","24.9576783333333","6500700","樹林區"
