"lineid","car","time","location","longitude","latitude","cityid","cityname"
"249005","172-UM","2018/02/19 16:59:33","新北市八里區渡船頭3-19號","121.43388","25.151685","6502300","八里區"
"249001","173-UM","2018/02/19 16:59:19","新北市八里區下罟子1-11號","121.38992","25.14213","6502300","八里區"
"249004","303-UY","2018/02/19 16:59:30","新北市八里區挖子尾街46號","121.415636666667","25.1661183333333","6502300","八里區"
"249002","305-UY","2018/02/19 16:59:18","新北市八里區牛寮埔22號","121.4329","25.142505","6502300","八里區"
"249003","593-UM","2018/02/19 16:59:18","新北市八里區中山路二段370號","121.40103","25.1480933333333","6502300","八里區"
"244007","080-UY","2018/02/19 16:59:13","新北市林口區林口路122號","121.388456666667","25.0815216666667","6501700","林口區"
"244019","402-UM","2018/02/19 16:59:37","新北市林口區工四路42號","121.400631666667","25.0841183333333","6501700","林口區"
"244023","483-VK","2018/02/19 16:59:30","新北市林口區粉寮69號","121.404838333333","25.0907816666667","6501700","林口區"
"244017","485-VK","2018/02/19 16:59:35","新北市林口區粉寮69號","121.40497","25.0908833333333","6501700","林口區"
"244009","657-BX","2018/02/19 16:59:34","新北市林口區粉寮69號","121.405026666667","25.090875","6501700","林口區"
"244011","701-TV","2018/02/19 16:59:16","新北市林口區粉寮路二段160巷28號","121.405175","25.0907533333333","6501700","林口區"
"244025","837-TS","2018/02/19 16:59:21","新北市林口區粉寮路二段160巷28號","121.405191666667","25.0907433333333","6501700","林口區"
"244021","838-TS","2018/02/19 16:59:30","新北市林口區粉寮69號","121.404813333333","25.09079","6501700","林口區"
"231046","278-BY","2018/02/19 16:59:28","新北市新店區灣潭路12-2號","121.538313333333","24.9461066666667","6500600","新店區"
"241008","059-VK","2018/02/19 16:59:31","新北市三重區永安北路一段11巷2號","121.47631","25.0748483333333","6500200","三重區"
"241009","060-VK","2018/02/19 16:59:31","新北市三重區溪尾街218巷42號","121.486425","25.0809466666667","6500200","三重區"
"241031","061-VK","2018/02/19 16:59:20","新北市三重區三寧街1號","121.488808333333","25.0592766666667","6500200","三重區"
"241015","062-VK","2018/02/19 16:59:36","新北市三重區三和路二段1號","121.501738333333","25.0664783333333","6500200","三重區"
"241026","066-VK","2018/02/19 16:59:25","新北市三重區文化南路8-4號","121.500265","25.0621033333333","6500200","三重區"
"241002","090-VK","2018/02/19 16:59:29","新北市三重區仁義街101巷26號","121.49884","25.0803166666667","6500200","三重區"
"241003","156-TC","2018/02/19 16:59:27","新北市三重區五華街71巷32號","121.493023333333","25.0833383333333","6500200","三重區"
"241005","262-UM","2018/02/19 16:59:30","新北市三重區仁華街62巷10號","121.483875","25.0831416666667","6500200","三重區"
"241016","265-UM","2018/02/19 16:59:32","新北市三重區大智街12號","121.495243333333","25.0644683333333","6500200","三重區"
"241018","268-UM","2018/02/19 16:59:29","新北市三重區安樂街87號","121.494611666667","25.06932","6500200","三重區"
"241032","269-UM","2018/02/19 16:59:27","新北市三重區新北大道一段35巷6號","121.485985","25.061","6500200","三重區"
"241025","271-UM","2018/02/19 16:59:23","新北市三重區中正北路508巷15號","121.472688333333","25.070895","6500200","三重區"
"241007","398-BY","2018/02/19 16:59:16","新北市三重區三和路四段181巷87號","121.484743333333","25.0795583333333","6500200","三重區"
"241004","475-VK","2018/02/19 16:59:16","新北市三重區五華街98巷2號","121.492543333333","25.0821883333333","6500200","三重區"
"241024","478-VK","2018/02/19 16:59:22","新北市三重區國道路一段58巷20號","121.481245","25.07207","6500200","三重區"
"241030","480-VK","2018/02/19 16:59:29","新北市三重區昌隆街56號","121.491398333333","25.05135","6500200","三重區"
"241014","543-UM","2018/02/19 16:59:30","新北市三重區長壽街120巷95號","121.501641666667","25.0708616666667","6500200","三重區"
"241023","545-UM","2018/02/19 16:59:36","新北市三重區中華路41號","121.48349","25.0617016666667","6500200","三重區"
"241001","547-UM","2018/02/19 16:59:14","新北市三重區仁愛街172巷4號","121.49387","25.07652","6500200","三重區"
"241019","KEA-2593","2018/02/19 16:59:35","新北市三重區自強路二段74巷21號","121.487943333333","25.069895","6500200","三重區"
"241006","AAD-863","2018/02/19 16:59:19","新北市三重區聯華街143號","121.484286666667","25.0751966666667","6500200","三重區"
"241033","AAC-255","2018/02/19 16:59:17","新北市三重區新北大道二段89號","121.467725","25.0614516666667","6500200","三重區"
"235062","800-TS","2018/02/19 16:45:56","新北市中和區員山路36巷16-3號","121.484868333333","24.9915566666667","6500300","中和區"
"247020","500-BY","2018/02/19 16:59:20","新北市蘆洲區民族路422巷84-1號","121.47364","25.093805","6501400","蘆洲區"
"247008","341-TH","2018/02/19 16:59:37","新北市蘆洲區信義路57號","121.475135","25.0797216666667","6501400","蘆洲區"
"247010","339-TH","2018/02/19 16:59:34","新北市蘆洲區信義路158號","121.479465","25.0836566666667","6501400","蘆洲區"
"247002","337-TH","2018/02/19 16:37:36","新北市五股區中興路三段2巷10號","121.449308333333","25.08099","6501400","蘆洲區"
"247004","336-TH","2018/02/19 16:59:24","新北市蘆洲區長安街131巷11-1號","121.46033","25.080895","6501400","蘆洲區"
"247002","335-TH","2018/02/19 16:59:23","新北市蘆洲區永平街20號","121.459166666667","25.0907","6501400","蘆洲區"
"247016","057-VK","2018/02/19 16:59:34","新北市蘆洲區正和街3號","121.470591666667","25.0825666666667","6501400","蘆洲區"
"247006","056-VK","2018/02/19 16:59:26","新北市蘆洲區永安南路二段242號","121.460365","25.0800033333333","6501400","蘆洲區"
"247014","007-UY","2018/02/19 16:59:18","新北市蘆洲區中山二路36巷42-1號","121.473988333333","25.0835633333333","6501400","蘆洲區"
"247024","002-UY","2018/02/19 16:59:21","新北市蘆洲區長興路202號","121.46058","25.0873716666667","6501400","蘆洲區"
"228003","097-TW","2018/02/19 16:59:21","新北市貢寮區福隆里興隆街36號","121.942396666667","25.0165933333333","6502600","貢寮區"
"228002","585-TW","2018/02/19 16:59:34","新北市貢寮區貢寮里朝陽街11-1號","121.909591666667","25.0207916666667","6502600","貢寮區"
"228001","663-BX","2018/02/19 16:59:32","新北市貢寮區貢寮里朝陽街1-2號","121.912195","25.0212366666667","6502600","貢寮區"
"224009","285-BY","2018/02/19 16:59:15","新北市瑞芳區濱二路28號","121.839268333333","25.114685","6501200","瑞芳區"
"224008","275-VK","2018/02/19 16:59:28","新北市瑞芳區明燈路一段47號","121.820693333333","25.10687","6501200","瑞芳區"
"224007","273-VK","2018/02/19 16:59:23","新北市瑞芳區瑞竹路46號","121.763573333333","25.10335","6501200","瑞芳區"
"224005","271-BY","2018/02/19 16:59:32","新北市瑞芳區南雅路19-1號","121.888186666667","25.1202516666667","6501200","瑞芳區"
"224006","201-TW","2018/02/19 16:59:19","新北市瑞芳區大寮路356號","121.785523333333","25.1026483333333","6501200","瑞芳區"
"227001","642-TC","2018/02/19 16:59:21","新北市雙溪區長源里柑腳44號","121.801215","25.0128266666667","6502500","雙溪區"
"227008","400-TW","2018/02/19 16:59:21","新北市雙溪區牡丹里聖南14號","121.858566666667","25.0528216666667","6502500","雙溪區"
"251009","008-UM","2018/02/19 16:59:25","新北市淡水區中正路241號","121.434233333333","25.1740233333333","6501000","淡水區"
"251004","009-UM","2018/02/19 16:59:34","新北市淡水區中正東路二段51-3號","121.459166666667","25.155935","6501000","淡水區"
"251013","179-VK","2018/02/19 16:59:15","新北市淡水區泉洲厝23-1號","121.48767","25.1927583333333","6501000","淡水區"
"251014","180-VK","2018/02/19 16:59:32","新北市淡水區淡金路四段472巷24號","121.452965","25.2239216666667","6501000","淡水區"
"251008","181-VK","2018/02/19 16:59:37","新北市淡水區樹梅坑9號","121.472721666667","25.1426883333333","6501000","淡水區"
"251015","182-VK","2018/02/19 16:59:20","新北市淡水區忠愛街14號","121.45813","25.1747116666667","6501000","淡水區"
"251010","413-VK","2018/02/19 16:59:23","新北市淡水區沙崙路341號","121.427876666667","25.187845","6501000","淡水區"
"251012","441-VK","2018/02/19 16:59:32","新北市淡水區中正路二段31號","121.419488333333","25.1816866666667","6501000","淡水區"
"251016","442-VK","2018/02/19 16:59:22","新北市淡水區瓦坑5號","121.47766","25.180825","6501000","淡水區"
"251005","443-VK","2018/02/19 16:59:32","新北市淡水區中正路26巷3號","121.434718333333","25.1736716666667","6501000","淡水區"
"251006","561-UM","2018/02/19 16:59:26","新北市淡水區中正路253號","121.433371666667","25.1744066666667","6501000","淡水區"
"251007","577-R6","2018/02/19 16:59:26","新北市淡水區中正東路二段48巷20號","121.457163333333","25.1585666666667","6501000","淡水區"
"251011","650-BX","2018/02/19 16:59:18","新北市淡水區中正東路一段113號","121.454123333333","25.1597633333333","6501000","淡水區"
"252001","292-VK","2018/02/19 16:59:19","新北市三芝區淡金路二段89號","121.503968333333","25.2607916666667","6502100","三芝區"
"236074","166-UM","2018/02/19 16:59:26","新北市土城區福安街10號","121.420116666667","24.9651583333333","6501300","土城區"
"236016","401-BY","2018/02/19 16:59:34","新北市土城區延吉街111巷12弄15-3號","121.471583333333","24.9849683333333","6501300","土城區"
"236056","912-UM","2018/02/19 16:59:14","新北市土城區自強街31-1號","121.432045","24.9726433333333","6501300","土城區"
"236060","915-UM","2018/02/19 16:59:16","新北市土城區金城路三段73巷9弄1號","121.466288333333","24.9876616666667","6501300","土城區"
"242050","751-BX","2018/02/19 16:59:29","新北市新莊區新泰路357巷3弄57號","121.44222","25.03933","6500500","新莊區"
"242023","613-BX","2018/02/19 16:47:04","新北市新莊區新泰路255巷83號","121.442241666667","25.0389316666667","6500500","新莊區"
"242027","612-BX","2018/02/19 16:59:37","新北市新莊區新泰路357巷3弄57號","121.4423","25.0392966666667","6500500","新莊區"
"242039","566-BX","2018/02/19 16:59:29","新北市新莊區新泰路255巷83號","121.442111666667","25.0390566666667","6500500","新莊區"
"242044","497-BY","2018/02/19 16:59:21","新北市新莊區新泰路357巷3號","121.442025","25.0415916666667","6500500","新莊區"
"242042","400-BY","2018/02/19 16:59:16","新北市新莊區新泰路357巷3弄57號","121.442038333333","25.03949","6500500","新莊區"
"242060","362-BY","2018/02/19 16:59:33","新北市新莊區新泰路255巷83號","121.442403333333","25.0386183333333","6500500","新莊區"
"242015","175-VK","2018/02/19 16:59:27","新北市新莊區三和路12-21號","121.442035","25.038705","6500500","新莊區"
"242002","176-VK","2018/02/19 16:59:16","新北市新莊區新泰路255巷83號","121.442143333333","25.0390483333333","6500500","新莊區"
"242011","351-TH","2018/02/19 16:59:23","新北市新莊區新泰路357巷3弄57號","121.4419","25.0395916666667","6500500","新莊區"
"238010","601-UM","2018/02/19 16:59:36","新北市樹林區龍興街32巷3號","121.402736666667","25.0157066666667","6500700","樹林區"
"238019","599-UM","2018/02/19 16:59:18","新北市樹林區育德街121巷7號","121.389473333333","24.968135","6500700","樹林區"
"238018","571-TV","2018/02/19 16:59:33","新北市樹林區育德街78-1號","121.38814","24.9681083333333","6500700","樹林區"
"238022","KEA-2213","2018/02/19 16:59:20","新北市樹林區八德街584號","121.398723333333","24.9692916666667","6500700","樹林區"
"238025","303-VK","2018/02/19 16:59:19","新北市樹林區八德街682號","121.396226666667","24.9689416666667","6500700","樹林區"
"238017","283-BY","2018/02/19 16:59:29","新北市樹林區中正路433-2號","121.414921666667","25.008175","6500700","樹林區"
"238014","282-BY","2018/02/19 16:59:26","新北市樹林區八德街660號","121.39639","24.9690166666667","6500700","樹林區"
"238020","268-VK","2018/02/19 16:59:34","新北市樹林區中山路三段125-1號","121.397371666667","24.9731783333333","6500700","樹林區"
