"lineid","car","time","location","longitude","latitude","cityid","cityname"
"234026","9371-KE","2018/02/19 17:39:34","新北市永和區中正路748號","121.51489","25.0102983333333","6500400","永和區"
"249005","172-UM","2018/02/19 17:39:51","新北市八里區荖阡坑路34號","121.402735","25.12987","6502300","八里區"
"249001","173-UM","2018/02/19 17:39:39","新北市八里區龍米路二段157-1號","121.439913333333","25.1536433333333","6502300","八里區"
"249004","303-UY","2018/02/19 17:39:30","新北市八里區賢二街29號","121.418936666667","25.1582983333333","6502300","八里區"
"249002","305-UY","2018/02/19 17:39:38","新北市八里區坪子頂5號","121.442076666667","25.125475","6502300","八里區"
"249003","593-UM","2018/02/19 17:39:38","新北市八里區中山路二段175號","121.404886666667","25.150405","6502300","八里區"
"232011","375-UM","2018/02/19 17:39:34","新北市坪林區北宜路八段58號","121.704681666667","24.93541","6502000","坪林區"
"244013","069-UM","2018/02/19 17:39:32","新北市林口區中正路523號","121.382598333333","25.0773483333333","6501700","林口區"
"244007","080-UY","2018/02/19 17:39:33","新北市林口區中華路283號","121.383756666667","25.0908983333333","6501700","林口區"
"244019","402-UM","2018/02/19 17:39:37","新北市林口區公園路163號","121.370883333333","25.0714333333333","6501700","林口區"
"244023","483-VK","2018/02/19 17:39:30","新北市林口區興林路150號","121.388625","25.0715316666667","6501700","林口區"
"244017","485-VK","2018/02/19 17:39:35","新北市林口區忠孝路407號","121.37039","25.0706183333333","6501700","林口區"
"244009","657-BX","2018/02/19 17:39:34","新北市林口區中北三街200號","121.382733333333","25.08208","6501700","林口區"
"244011","701-TV","2018/02/19 17:39:36","新北市林口區佳林路154號","121.384198333333","25.0771116666667","6501700","林口區"
"244025","837-TS","2018/02/19 17:39:41","新北市林口區文化二路一段289-5號","121.367441666667","25.0718283333333","6501700","林口區"
"244021","838-TS","2018/02/19 17:39:50","新北市林口區仁愛路一段211巷8號","121.398141666667","25.0739333333333","6501700","林口區"
"222002","016-RS","2018/02/19 17:39:45","新北市深坑區埔新街104-1號","121.61856","25.0021716666667","6501800","深坑區"
"222003","436-BY","2018/02/19 17:39:35","新北市深坑區北深路二段142號","121.615511666667","25.002725","6501800","深坑區"
"231046","278-BY","2018/02/19 17:39:48","新北市新店區直潭路92號","121.5309","24.9376433333333","6500600","新店區"
"241024","478-VK","2018/02/19 17:39:42","新北市三重區車路頭街52號","121.483833333333","25.0722883333333","6500200","三重區"
"241033","AAC-255","2018/02/19 17:39:37","新北市三重區光復路一段47號","121.472288333333","25.0487766666667","6500200","三重區"
"235064","005-UY","2018/02/19 17:39:40","新北市中和區員山路36巷16-3號","121.485015","24.99131","6500300","中和區"
"235061","378-QA","2018/02/19 17:14:54","新北市中和區和城路一段271巷1號","121.485446666667","24.9916516666667","6500300","中和區"
"247022","893-R6","2018/02/19 17:39:39","新北市蘆洲區三民路283號","121.46722","25.0897233333333","6501400","蘆洲區"
"247020","500-BY","2018/02/19 17:39:40","新北市蘆洲區民族路446-2號","121.472853333333","25.0920116666667","6501400","蘆洲區"
"247012","402-BY","2018/02/19 17:39:36","新北市蘆洲區民權路3巷12號","121.475966666667","25.085245","6501400","蘆洲區"
"247008","341-TH","2018/02/19 17:39:37","新北市蘆洲區民生街49號","121.474938333333","25.0786833333333","6501400","蘆洲區"
"247010","339-TH","2018/02/19 17:39:43","新北市蘆洲區中山一路74巷21號","121.479046666667","25.0814333333333","6501400","蘆洲區"
"247002","337-TH","2018/02/19 17:39:37","新北市蘆洲區永平街32巷11弄18號","121.458316666667","25.09163","6501400","蘆洲區"
"247004","336-TH","2018/02/19 17:39:44","新北市蘆洲區中原路86號","121.457678333333","25.0816916666667","6501400","蘆洲區"
"247002","335-TH","2018/02/19 17:39:42","新北市蘆洲區永安南路二段298號","121.457206666667","25.08213","6501400","蘆洲區"
"247006","056-VK","2018/02/19 17:39:46","新北市蘆洲區長安街66號","121.462776666667","25.0800266666667","6501400","蘆洲區"
"247016","053-VK","2018/02/19 17:39:30","新北市蘆洲區光華路69號","121.468138333333","25.0827533333333","6501400","蘆洲區"
"247014","007-UY","2018/02/19 17:39:37","新北市蘆洲區三民路33號","121.475438333333","25.0829883333333","6501400","蘆洲區"
"247024","002-UY","2018/02/19 17:39:41","新北市蘆洲區長樂路93號","121.462136666667","25.0873816666667","6501400","蘆洲區"
"247018","001-UY","2018/02/19 17:39:50","新北市蘆洲區水湳街45號","121.472106666667","25.0875416666667","6501400","蘆洲區"
"228003","097-TW","2018/02/19 17:39:41","新北市貢寮區仁理村仁和路19號","121.923703333333","25.0533783333333","6502600","貢寮區"
"228002","585-TW","2018/02/19 17:39:34","新北市貢寮區福隆里龜壽谷街12號","121.956198333333","25.0062216666667","6502600","貢寮區"
"228001","663-BX","2018/02/19 17:39:52","新北市貢寮區仁理村仁愛路95-1號","121.927661666667","25.0554633333333","6502600","貢寮區"
"224010","AGQ-8101","2018/02/19 17:38:54","新北市瑞芳區岳王路152號","121.80877","25.1112416666667","6501200","瑞芳區"
"224009","285-BY","2018/02/19 17:39:35","新北市瑞芳區山尖路172-1號","121.848015","25.1118716666667","6501200","瑞芳區"
"224008","275-VK","2018/02/19 17:39:48","新北市瑞芳區瑞柑新村33號","121.829713333333","25.1073966666667","6501200","瑞芳區"
"224005","271-BY","2018/02/19 17:39:40","新北市瑞芳區南雅路1號","121.895713333333","25.1198533333333","6501200","瑞芳區"
"224006","201-TW","2018/02/19 17:39:38","新北市瑞芳區中山路326號","121.796498333333","25.110115","6501200","瑞芳區"
"227008","400-TW","2018/02/19 17:39:41","新北市雙溪區三貂里政光路3-1號","121.850743333333","25.0633266666667","6502500","雙溪區"
"251009","008-UM","2018/02/19 17:39:44","新北市淡水區中正路129號","121.43942","25.1703416666667","6501000","淡水區"
"251004","009-UM","2018/02/19 17:39:34","新北市淡水區中正東路二段163號","121.459296666667","25.1450416666667","6501000","淡水區"
"251013","179-VK","2018/02/19 17:39:35","新北市淡水區演戲埔腳3-3號","121.4738","25.1925233333333","6501000","淡水區"
"251014","180-VK","2018/02/19 17:39:32","新北市淡水區公埔子14號","121.477713333333","25.2254683333333","6501000","淡水區"
"251008","181-VK","2018/02/19 17:39:37","新北市淡水區八勢路73巷12號","121.463133333333","25.1538716666667","6501000","淡水區"
"251015","182-VK","2018/02/19 17:39:40","新北市淡水區糞箕湖1-2號","121.482913333333","25.1709466666667","6501000","淡水區"
"251010","413-VK","2018/02/19 17:39:44","新北市淡水區淡海路280巷16號","121.419875","25.1893516666667","6501000","淡水區"
"251012","441-VK","2018/02/19 17:39:32","新北市淡水區北新路200巷8號","121.451743333333","25.1796333333333","6501000","淡水區"
"251016","442-VK","2018/02/19 17:39:42","新北市淡水區埤島39-15號","121.452753333333","25.1958833333333","6501000","淡水區"
"251005","443-VK","2018/02/19 17:39:51","新北市淡水區鄧公路33巷11號","121.451895","25.1709916666667","6501000","淡水區"
"251001","559-UM","2018/02/19 17:39:49","新北市淡水區民權路39號","121.459598333333","25.1412683333333","6501000","淡水區"
"251006","561-UM","2018/02/19 17:39:46","新北市淡水區大信街5號","121.4416","25.1762983333333","6501000","淡水區"
"251007","577-R6","2018/02/19 17:39:46","新北市淡水區民族路35巷4號","121.464588333333","25.137135","6501000","淡水區"
"251011","650-BX","2018/02/19 17:39:38","新北市淡水區小坪頂13-3號","121.486606666667","25.156155","6501000","淡水區"
"251002","672-BX","2018/02/19 17:39:42","新北市淡水區中正路233-2號","121.435395","25.17339","6501000","淡水區"
"251003","766-UM","2018/02/19 17:39:52","新北市淡水區中山路185號","121.441266666667","25.17432","6501000","淡水區"
"207003","225-TW","2018/02/19 17:39:47","新北市萬里區龜吼里漁澳路6號","121.686278333333","25.19445","6502800","萬里區"
"252002","178-VK","2018/02/19 17:39:50","新北市三芝區中正路二段22號","121.504381666667","25.2552133333333","6502100","三芝區"
"252001","292-VK","2018/02/19 17:39:40","新北市三芝區淡金路一段81號","121.502076666667","25.2587733333333","6502100","三芝區"
"237012","275-BY","2018/02/19 17:39:39","新北市三峽區中山路459巷163-3號","121.348791666667","24.9328216666667","6500900","三峽區"
"237014","433-BY","2018/02/19 17:39:48","新北市三峽區文化路120巷2號","121.371093333333","24.9364166666667","6500900","三峽區"
"237010","706-TV","2018/02/19 17:39:42","新北市三峽區復興路237巷22號","121.368301666667","24.93766","6500900","三峽區"
"237005","AKY-6261","2018/02/19 17:39:40","新北市三峽區中山路107巷83-1號","121.35052","24.9342483333333","6500900","三峽區"
"236058","912-UM","2018/02/19 17:39:34","新北市土城區城林路6巷80號","121.438545","24.9797266666667","6501300","土城區"
"242029","986-R7","2018/02/19 17:39:40","新北市新莊區復興路一段153號","121.450561666667","25.0432866666667","6500500","新莊區"
"242050","751-BX","2018/02/19 17:39:29","新北市新莊區西盛街189號","121.42894","25.0172416666667","6500500","新莊區"
"242057","705-TV","2018/02/19 17:26:38","新北市新莊區瓊林南路77-41號","121.437725","25.0122","6500500","新莊區"
"242025","615-BX","2018/02/19 17:39:46","新北市新莊區思源路120號","121.460083333333","25.0472716666667","6500500","新莊區"
"242023","613-BX","2018/02/19 17:39:44","新北市新莊區公園路129-10號","121.457546666667","25.0408883333333","6500500","新莊區"
"242027","612-BX","2018/02/19 17:39:37","新北市新莊區福壽街122號","121.457901666667","25.05113","6500500","新莊區"
"242039","566-BX","2018/02/19 17:39:48","新北市新莊區民安路322號","121.428933333333","25.0219383333333","6500500","新莊區"
"242044","497-BY","2018/02/19 17:39:36","新北市新莊區中正路871巷9弄17號","121.419076666667","25.027175","6500500","新莊區"
"242053","440-UM","2018/02/19 17:39:32","新北市新莊區新樹路711號","121.432008333333","25.002085","6500500","新莊區"
"242034","415-TV","2018/02/19 17:39:43","新北市新莊區新莊路597號","121.446013333333","25.03315","6500500","新莊區"
"242004","413-TV","2018/02/19 17:39:34","新北市新莊區自立街176號","121.45591","25.0454966666667","6500500","新莊區"
"242042","400-BY","2018/02/19 17:39:37","新北市泰山區台麗街32號","121.428326666667","25.0358433333333","6500500","新莊區"
"242060","362-BY","2018/02/19 17:39:33","新北市新莊區新樹路601號","121.433133333333","25.0058933333333","6500500","新莊區"
"242058","353-BY","2018/02/19 17:39:38","新北市新莊區中正路698號","121.418781666667","25.0278116666667","6500500","新莊區"
"242007","132-UY","2018/02/19 17:39:37","新北市新莊區自信街44號","121.454773333333","25.0480983333333","6500500","新莊區"
"242036","133-UY","2018/02/19 17:39:36","新北市新莊區建福路69巷45號","121.428785","25.0276683333333","6500500","新莊區"
"242021","135-UY","2018/02/19 17:39:35","新北市新莊區中華路一段118號","121.452451666667","25.0406183333333","6500500","新莊區"
"242046","172-VK","2018/02/19 17:39:43","新北市新莊區建國一路19號","121.43394","25.0315833333333","6500500","新莊區"
"242009","173-VK","2018/02/19 17:39:32","新北市新莊區昌明街30巷15號","121.456623333333","25.05345","6500500","新莊區"
"242015","175-VK","2018/02/19 17:39:47","新北市新莊區新泰路406巷1弄2號","121.444288333333","25.0439233333333","6500500","新莊區"
"242002","176-VK","2018/02/19 17:39:36","新北市新莊區新莊路268號","121.451785","25.033905","6500500","新莊區"
"242013","346-TH","2018/02/19 17:39:31","新北市新莊區中誠街101號","121.449848333333","25.0477183333333","6500500","新莊區"
"242019","348-TH","2018/02/19 17:39:41","新北市新莊區中港路176號","121.454906666667","25.0419033333333","6500500","新莊區"
"242056","349-TH","2018/02/19 17:39:43","新北市新莊區新莊路543巷9弄28號","121.448303333333","25.031895","6500500","新莊區"
"242017","350-TH","2018/02/19 17:39:46","新北市新莊區復興路一段149巷21弄11號","121.449663333333","25.043975","6500500","新莊區"
"242011","351-TH","2018/02/19 17:39:43","新北市新莊區中港路639號","121.451008333333","25.054545","6500500","新莊區"
"238015","755-BX","2018/02/19 17:39:44","新北市樹林區樹德街136巷30號","121.420036666667","24.9943883333333","6500700","樹林區"
"238019","599-UM","2018/02/19 17:39:41","新北市樹林區太元街62號","121.418603333333","24.9792683333333","6500700","樹林區"
"238018","571-TV","2018/02/19 17:39:45","新北市樹林區博愛街6號","121.42759","24.9931666666667","6500700","樹林區"
"238024","5061-A6","2018/02/19 17:39:38","新北市樹林區佳園路一段153號","121.3939","24.9687183333333","6500700","樹林區"
"238021","KEA-2217","2018/02/19 17:39:50","新北市樹林區柑園街一段295號","121.393108333333","24.9562266666667","6500700","樹林區"
"238022","KEA-2213","2018/02/19 17:39:40","新北市樹林區太元街36號","121.418088333333","24.9799983333333","6500700","樹林區"
"238025","303-VK","2018/02/19 17:39:39","新北市樹林區保安街二段192號","121.412543333333","25.0104183333333","6500700","樹林區"
"238017","283-BY","2018/02/19 17:39:49","新北市樹林區三德街30巷5號","121.414578333333","25.012935","6500700","樹林區"
"238014","282-BY","2018/02/19 17:39:46","新北市樹林區保安街一段313巷18號","121.41712","24.997455","6500700","樹林區"
"238020","268-VK","2018/02/19 17:39:34","新北市樹林區三俊街253號","121.42228","25.01449","6500700","樹林區"
"238026","172-UY","2018/02/19 17:39:47","新北市樹林區新興街19巷8號","121.400618333333","24.9728116666667","6500700","樹林區"
"238016","169-UY","2018/02/19 17:39:49","新北市樹林區育英街142號","121.41946","24.9894133333333","6500700","樹林區"
"221008","489-VK","2018/02/19 17:39:31","新北市汐止區康寧街901號","121.651385","25.0750066666667","6501100","汐止區"
"221010","269-BY","2018/02/19 17:39:32","新北市汐止區汐萬路一段418巷46號","121.651095","25.0791633333333","6501100","汐止區"
"221023","279-VK","2018/02/19 17:39:45","新北市汐止區康寧街901號","121.651263333333","25.07511","6501100","汐止區"
"221033","647-BX","2018/02/19 17:39:43","新北市汐止區林森街78號","121.623701666667","25.0407033333333","6501100","汐止區"
"242048","281-VK","2018/02/19 17:39:35","新北市新莊區萬安街110號","121.42041","25.02222","6500500","新莊區"
"242031","280-VK","2018/02/19 17:39:36","新北市新莊區新泰路380號","121.444073333333","25.0432366666667","6500500","新莊區"
