"lineid","car","time","location","longitude","latitude","cityid","cityname"
"234026","9371-KE","2018/02/19 17:49:34","新北市永和區中山路一段106號","121.510946666667","25.010545","6500400","永和區"
"249005","172-UM","2018/02/19 17:49:53","新北市八里區荖阡里41號","121.402366666667","25.13452","6502300","八里區"
"249001","173-UM","2018/02/19 17:49:39","新北市八里區龍米路二段88-1號","121.447088333333","25.143335","6502300","八里區"
"249004","303-UY","2018/02/19 17:49:50","新北市八里區中華路一段309巷19-13號","121.417243333333","25.1533933333333","6502300","八里區"
"249002","305-UY","2018/02/19 17:49:38","新北市八里區龍形三街9巷2號","121.450658333333","25.1317416666667","6502300","八里區"
"249003","593-UM","2018/02/19 17:49:38","新北市八里區中山路二段196號","121.405731666667","25.1525133333333","6502300","八里區"
"248006","077-UY","2018/02/19 17:49:36","新北市五股區中興路二段83巷26-6號","121.460005","25.075025","6501500","五股區"
"248008","095-VK","2018/02/19 17:49:35","新北市五股區中興路二段37巷28號","121.460158333333","25.075065","6501500","五股區"
"232011","375-UM","2018/02/19 17:49:54","新北市坪林區北宜路八段337號","121.711015","24.9337283333333","6502000","坪林區"
"244013","069-UM","2018/02/19 17:49:52","新北市林口區中山路79號","121.390276666667","25.0787083333333","6501700","林口區"
"244007","080-UY","2018/02/19 17:49:33","新北市林口區林口路190號","121.387463333333","25.0828366666667","6501700","林口區"
"244019","402-UM","2018/02/19 17:49:37","新北市林口區文化一路一段83巷14弄100號","121.373168333333","25.0718333333333","6501700","林口區"
"244023","483-VK","2018/02/19 17:49:50","新北市林口區東湖路86號","121.386538333333","25.0740266666667","6501700","林口區"
"244017","485-VK","2018/02/19 17:49:35","新北市林口區文化二路一段260巷7-3號","121.371861666667","25.073145","6501700","林口區"
"244009","657-BX","2018/02/19 17:49:54","新北市林口區中北三街61號","121.384748333333","25.0855183333333","6501700","林口區"
"244011","701-TV","2018/02/19 17:49:36","新北市林口區佳林路233號","121.38335","25.07639","6501700","林口區"
"244025","837-TS","2018/02/19 17:49:44","新北市林口區文化三路一段191巷12號","121.360918333333","25.070185","6501700","林口區"
"244021","838-TS","2018/02/19 17:49:50","新北市林口區仁愛路一段1巷30號","121.396273333333","25.0685933333333","6501700","林口區"
"243015","380-SR","2018/02/19 17:43:06","新北市泰山區犁頭窠3-1號","121.422291666667","25.0603033333333","6501600","泰山區"
"222002","016-RS","2018/02/19 17:49:45","新北市深坑區平埔街22巷17弄1號","121.614848333333","25.0009016666667","6501800","深坑區"
"222003","436-BY","2018/02/19 17:49:35","新北市深坑區阿柔洋60-1號","121.608588333333","24.99851","6501800","深坑區"
"231046","278-BY","2018/02/19 17:49:48","新北市新店區下石厝路2-1號","121.531551666667","24.9281216666667","6500600","新店區"
"241033","AAC-255","2018/02/19 17:49:37","新北市三重區重新路五段652號","121.468018333333","25.0440416666667","6500200","三重區"
"235064","005-UY","2018/02/19 17:49:40","新北市中和區員山路36巷16-3號","121.484993333333","24.9912783333333","6500300","中和區"
"235065","098-UM","2018/02/19 17:49:46","新北市中和區員山路36巷16-3號","121.485083333333","24.9912733333333","6500300","中和區"
"235038","185-VK","2018/02/19 17:49:43","新北市中和區中正路589巷15號","121.485681666667","24.9934816666667","6500300","中和區"
"247022","893-R6","2018/02/19 17:49:39","新北市蘆洲區中正路304-1號","121.464753333333","25.090575","6501400","蘆洲區"
"247012","546-UM","2018/02/19 17:49:51","新北市蘆洲區復興路112號","121.476083333333","25.0871666666667","6501400","蘆洲區"
"247020","500-BY","2018/02/19 17:49:40","新北市蘆洲區民義街96號","121.473665","25.0905516666667","6501400","蘆洲區"
"247008","341-TH","2018/02/19 17:49:50","新北市蘆洲區民生街74號","121.472805","25.0791016666667","6501400","蘆洲區"
"247010","339-TH","2018/02/19 17:49:43","新北市蘆洲區民族路43號","121.47836","25.08533","6501400","蘆洲區"
"247002","337-TH","2018/02/19 17:49:37","新北市蘆洲區永平街32巷33弄15號","121.458863333333","25.0922633333333","6501400","蘆洲區"
"247004","336-TH","2018/02/19 17:49:50","新北市蘆洲區長安街285巷28號","121.456816666667","25.0839166666667","6501400","蘆洲區"
"247004","335-TH","2018/02/19 17:49:42","新北市蘆洲區長安街172巷16號","121.460056666667","25.0836983333333","6501400","蘆洲區"
"247016","053-VK","2018/02/19 17:49:30","新北市蘆洲區中正路185巷25弄23號","121.467351666667","25.08382","6501400","蘆洲區"
"247014","007-UY","2018/02/19 17:49:37","新北市蘆洲區中正路50號","121.470846666667","25.0827883333333","6501400","蘆洲區"
"247024","002-UY","2018/02/19 17:49:41","新北市蘆洲區光榮路103號","121.464523333333","25.089595","6501400","蘆洲區"
"247018","001-UY","2018/02/19 17:49:50","新北市蘆洲區民權路74號","121.474811666667","25.087355","6501400","蘆洲區"
"228003","097-TW","2018/02/19 17:49:41","新北市貢寮區真理里美艷山街6-2號","121.928808333333","25.0607583333333","6502600","貢寮區"
"228002","585-TW","2018/02/19 17:49:54","新北市貢寮區福隆里龜壽谷街26號","121.952538333333","25.0088116666667","6502600","貢寮區"
"228001","663-BX","2018/02/19 17:49:52","新北市貢寮區仁理村仁愛路95-1號","121.927601666667","25.055485","6502600","貢寮區"
"224009","285-BY","2018/02/19 17:49:42","新北市瑞芳區山尖路172-1號","121.848155","25.1120133333333","6501200","瑞芳區"
"224008","275-VK","2018/02/19 17:49:48","新北市瑞芳區明燈路一段6號","121.82324","25.1074133333333","6501200","瑞芳區"
"224005","271-BY","2018/02/19 17:49:19","新北市瑞芳區南雅路91號","121.884498333333","25.1230183333333","6501200","瑞芳區"
"224006","201-TW","2018/02/19 17:49:38","新北市瑞芳區傑魚坑路183號","121.788473333333","25.1083083333333","6501200","瑞芳區"
"253006","295-VK","2018/02/19 17:49:49","新北市石門區中央路3-1號","121.56592","25.2914666666667","6502200","石門區"
"222001","KEA-2212","2018/02/19 17:49:38","新北市深坑區阿柔洋51號","121.611026666667","24.9982783333333","6501800","深坑區"
"208002","KEA-2872","2018/02/19 17:49:40","新北市金山區磺清路135號","121.639331666667","25.227555","6502700","金山區"
"208003","665-BX","2018/02/19 17:49:35","新北市金山區磺清路135號","121.639335","25.2276783333333","6502700","金山區"
"251009","008-UM","2018/02/19 17:49:44","新北市淡水區長興街16-3號","121.44389","25.1708183333333","6501000","淡水區"
"251004","009-UM","2018/02/19 17:48:34","新北市淡水區民權一街20-1號","121.458508333333","25.1371983333333","6501000","淡水區"
"251013","179-VK","2018/02/19 17:49:55","新北市淡水區泉洲厝31號","121.479546666667","25.1910283333333","6501000","淡水區"
"251014","180-VK","2018/02/19 17:49:32","新北市淡水區公埔子16-6號","121.480998333333","25.2245766666667","6501000","淡水區"
"251008","181-VK","2018/02/19 17:49:37","新北市淡水區八勢路一段156號","121.468071666667","25.1564083333333","6501000","淡水區"
"251015","182-VK","2018/02/19 17:49:40","新北市淡水區興福寮2號","121.491153333333","25.1655416666667","6501000","淡水區"
"251010","413-VK","2018/02/19 17:49:43","新北市淡水區中正路二段54號","121.418946666667","25.1840116666667","6501000","淡水區"
"251012","441-VK","2018/02/19 17:49:32","新北市淡水區北新路一段606號","121.472295","25.1849766666667","6501000","淡水區"
"251016","442-VK","2018/02/19 17:49:42","新北市淡水區埤島39-15號","121.452746666667","25.195885","6501000","淡水區"
"251005","443-VK","2018/02/19 17:49:51","新北市淡水區學府路102巷12號","121.450821666667","25.1717583333333","6501000","淡水區"
"251001","559-UM","2018/02/19 17:49:49","台北市北投區中央北路四段589號","121.465143333333","25.1246583333333","6501000","淡水區"
"251006","561-UM","2018/02/19 17:49:46","新北市淡水區中山北路一段45巷17號","121.44095","25.1758383333333","6501000","淡水區"
"251007","577-R6","2018/02/19 17:49:46","新北市淡水區民生路16巷16號","121.461366666667","25.1374866666667","6501000","淡水區"
"251011","650-BX","2018/02/19 17:49:38","新北市淡水區吳(仔)厝10-3號","121.48217","25.149715","6501000","淡水區"
"251002","672-BX","2018/02/19 17:49:42","新北市淡水區文化路16號","121.439915","25.17253","6501000","淡水區"
"251003","766-UM","2018/02/19 17:49:52","新北市淡水區大忠街5巷1號","121.443095","25.1763683333333","6501000","淡水區"
"207003","225-TW","2018/02/19 17:49:47","新北市萬里區野柳里東澳路55號","121.691968333333","25.2032716666667","6502800","萬里區"
"252002","178-VK","2018/02/19 17:49:47","新北市三芝區智成街16號","121.503323333333","25.2566733333333","6502100","三芝區"
"252001","292-VK","2018/02/19 17:49:41","新北市三芝區中興街一段10號","121.497456666667","25.2594466666667","6502100","三芝區"
"237009","210-TH","2018/02/19 17:49:47","新北市三峽區大勇路3巷8號","121.367478333333","24.93725","6500900","三峽區"
"237012","275-BY","2018/02/19 17:49:39","新北市三峽區復興路175號","121.370091666667","24.9385416666667","6500900","三峽區"
"237008","302-VK","2018/02/19 17:49:52","新北市三峽區正義街61號","121.369161666667","24.91854","6500900","三峽區"
"237014","433-BY","2018/02/19 17:49:52","新北市三峽區和平街36巷7弄5號","121.370791666667","24.9374066666667","6500900","三峽區"
"237006","5529-G3","2018/02/19 17:49:45","新北市三峽區介壽路二段136巷68號","121.39244","24.93374","6500900","三峽區"
"237010","706-TV","2018/02/19 17:49:42","新北市三峽區中山路93號","121.366306666667","24.9354166666667","6500900","三峽區"
"237005","AKY-6261","2018/02/19 17:49:44","新北市三峽區復興路239-1號","121.368166666667","24.93877","6500900","三峽區"
"236026","269-VK","2018/02/19 17:49:38","新北市土城區中華路二段2號","121.439293333333","24.97961","6501300","土城區"
"236014","270-VK","2018/02/19 17:49:54","新北市土城區城林路6巷80號","121.438401666667","24.9797683333333","6501300","土城區"
"236058","912-UM","2018/02/19 17:49:54","新北市土城區城林路6巷80號","121.438416666667","24.97975","6501300","土城區"
"242029","986-R7","2018/02/19 17:49:53","新北市新莊區復興路一段31號","121.446341666667","25.0419233333333","6500500","新莊區"
"242050","751-BX","2018/02/19 17:49:49","新北市新莊區西盛街269巷21號","121.428905","25.0155666666667","6500500","新莊區"
"242025","615-BX","2018/02/19 17:49:46","新北市新莊區新北大道二段370號","121.461976666667","25.0618533333333","6500500","新莊區"
"242023","613-BX","2018/02/19 17:49:44","新北市新莊區福樂街62號","121.457783333333","25.0461866666667","6500500","新莊區"
"242027","612-BX","2018/02/19 17:49:37","新北市新莊區福壽街171號","121.458018333333","25.05376","6500500","新莊區"
"242039","566-BX","2018/02/19 17:49:49","新北市新莊區民安路131號","121.424968333333","25.024255","6500500","新莊區"
"242044","497-BY","2018/02/19 17:49:50","新北市新莊區雙鳳路30號","121.416545","25.0270333333333","6500500","新莊區"
"242053","440-UM","2018/02/19 17:49:32","新北市新莊區民安西路468-1號","121.431653333333","25.0078533333333","6500500","新莊區"
"242034","415-TV","2018/02/19 17:49:52","新北市新莊區新莊路682-6號","121.441033333333","25.0327033333333","6500500","新莊區"
"242004","413-TV","2018/02/19 17:49:54","新北市新莊區自立街258號","121.459243333333","25.0455433333333","6500500","新莊區"
"242042","400-BY","2018/02/19 17:49:37","新北市新莊區中正路612-1號","121.426231666667","25.03015","6500500","新莊區"
"242060","362-BY","2018/02/19 17:49:33","新北市新莊區新樹路240號","121.433078333333","25.0190916666667","6500500","新莊區"
"242058","353-BY","2018/02/19 17:49:48","新北市新莊區中正路730-18號","121.414146666667","25.0232916666667","6500500","新莊區"
"242007","132-UY","2018/02/19 17:49:37","新北市新莊區福樂街108巷31號","121.457873333333","25.0487666666667","6500500","新莊區"
"242036","133-UY","2018/02/19 17:49:36","新北市新莊區建福路61號","121.426818333333","25.0272033333333","6500500","新莊區"
"242021","135-UY","2018/02/19 17:49:35","新北市新莊區中港路134號","121.455171666667","25.0407516666667","6500500","新莊區"
"242046","172-VK","2018/02/19 17:49:43","新北市新莊區福營路165巷16號","121.432625","25.0304266666667","6500500","新莊區"
"242009","173-VK","2018/02/19 17:49:17","新北市新莊區昌明街30巷3弄6號","121.456588333333","25.0527633333333","6500500","新莊區"
"242015","175-VK","2018/02/19 17:49:47","新北市新莊區新泰路502巷40號","121.443631666667","25.0464333333333","6500500","新莊區"
"242002","176-VK","2018/02/19 17:49:36","新北市新莊區新莊路362號","121.449636666667","25.0334466666667","6500500","新莊區"
"242013","346-TH","2018/02/19 17:49:51","新北市新莊區中誠街168號","121.448076666667","25.04748","6500500","新莊區"
"242019","348-TH","2018/02/19 17:49:41","新北市新莊區民樂街86號","121.457925","25.043845","6500500","新莊區"
"242056","349-TH","2018/02/19 17:49:43","新北市新莊區瓊林路38巷39號","121.44663","25.0304716666667","6500500","新莊區"
"242017","350-TH","2018/02/19 17:49:51","新北市新莊區永安街70號","121.450971666667","25.0447916666667","6500500","新莊區"
"242011","351-TH","2018/02/19 17:49:43","新北市新莊區中港路668號","121.450805","25.0563466666667","6500500","新莊區"
"238015","755-BX","2018/02/19 17:49:44","新北市樹林區樹德街113號","121.419301666667","24.99221","6500700","樹林區"
"238019","599-UM","2018/02/19 17:49:38","新北市樹林區中華路67號","121.423156666667","24.9833166666667","6500700","樹林區"
"238018","571-TV","2018/02/19 17:49:53","新北市樹林區鎮前街124號","121.424885","24.9910316666667","6500700","樹林區"
"238021","KEA-2217","2018/02/19 17:49:45","新北市樹林區柑園街一段49號","121.403141666667","24.9602783333333","6500700","樹林區"
"238022","KEA-2213","2018/02/19 17:49:40","新北市樹林區太順街86巷30號","121.416496666667","24.978635","6500700","樹林區"
"238025","303-VK","2018/02/19 17:49:39","新北市樹林區俊興街209-6號","121.417516666667","25.0145816666667","6500700","樹林區"
"238017","283-BY","2018/02/19 17:49:49","新北市樹林區三德街1號","121.412555","25.0127983333333","6500700","樹林區"
"238014","282-BY","2018/02/19 17:49:46","新北市樹林區保安街一段195號","121.420853333333","24.9960216666667","6500700","樹林區"
"238020","268-VK","2018/02/19 17:49:34","新北市樹林區三俊街199巷10-14號","121.420238333333","25.0168783333333","6500700","樹林區"
"238026","172-UY","2018/02/19 17:49:47","新北市樹林區中洲街30巷13弄45號","121.398256666667","24.9727016666667","6500700","樹林區"
"238016","169-UY","2018/02/19 17:49:49","新北市樹林區復興路377號","121.41687","24.9868966666667","6500700","樹林區"
"221008","489-VK","2018/02/19 17:49:51","新北市汐止區康寧街901號","121.651461666667","25.07504","6501100","汐止區"
"221036","130-UY","2018/02/19 17:49:36","新北市汐止區吉祥街27巷16號","121.666823333333","25.0811966666667","6501100","汐止區"
"221015","131-UY","2018/02/19 17:49:49","新北市汐止區長江街101-5號","121.659126666667","25.0740716666667","6501100","汐止區"
"221010","269-BY","2018/02/19 17:49:52","新北市汐止區汐萬路二段40號","121.64964","25.0815066666667","6501100","汐止區"
"221012","278-VK","2018/02/19 17:49:33","新北市汐止區長江街286-1號","121.665918333333","25.080665","6501100","汐止區"
"221023","279-VK","2018/02/19 17:49:45","新北市汐止區康寧街591巷4號","121.634988333333","25.070585","6501100","汐止區"
"221032","280-BY","2018/02/19 17:49:42","新北市汐止區樟樹二路349號","121.64218","25.0735166666667","6501100","汐止區"
"221027","281-BY","2018/02/19 17:49:34","新北市汐止區汐萬路一段312號","121.650395","25.07502","6501100","汐止區"
"221029","298-VK","2018/02/19 17:49:49","新北市汐止區康寧街901號","121.651643333333","25.074935","6501100","汐止區"
"221021","299-VK","2018/02/19 17:49:41","新北市汐止區水源路一段31號","121.657215","25.0664816666667","6501100","汐止區"
"221031","353-TW","2018/02/19 17:49:34","新北市汐止區中興路76號","121.63505","25.0616566666667","6501100","汐止區"
"221035","622-UM","2018/02/19 17:49:36","新北市汐止區汐萬路一段211巷15號","121.651531666667","25.07188","6501100","汐止區"
"221025","623-UM","2018/02/19 17:49:50","新北市汐止區仁愛路1號","121.658526666667","25.0642316666667","6501100","汐止區"
"221038","646-BX","2018/02/19 17:49:55","新北市汐止區大同路二段187巷53號","121.652111666667","25.0662783333333","6501100","汐止區"
"221033","647-BX","2018/02/19 17:43:03","新北市汐止區林森街70號","121.623401666667","25.0403733333333","6501100","汐止區"
"221002","707-TV","2018/02/19 17:49:51","新北市汐止區康寧街901號","121.651515","25.0750416666667","6501100","汐止區"
"221018","753-BX","2018/02/19 17:49:52","新北市汐止區汐萬路一段191號","121.652445","25.0717283333333","6501100","汐止區"
"242048","281-VK","2018/02/19 17:49:51","新北市新莊區萬安街60巷3號","121.420663333333","25.0235366666667","6500500","新莊區"
"242031","280-VK","2018/02/19 17:49:35","新北市新莊區新泰路357巷3弄1號","121.442575","25.0413433333333","6500500","新莊區"
