"lineid","car","time","location","longitude","latitude","cityid","cityname"
"234026","9371-KE","2018/02/19 18:09:34","新北市永和區秀朗路一段10巷21號","121.513398333333","25.0061483333333","6500400","永和區"
"234011","9373-KE","2018/02/19 17:55:41","新北市永和區福和路1號","121.525596666667","25.0093383333333","6500400","永和區"
"249005","172-UM","2018/02/19 18:09:33","新北市八里區荖阡坑路15號","121.401646666667","25.1398716666667","6502300","八里區"
"249001","173-UM","2018/02/19 18:09:38","新北市八里區龍米路一段470號","121.44986","25.136375","6502300","八里區"
"249004","303-UY","2018/02/19 18:09:50","新北市八里區龍米路二段200巷5號","121.433565","25.1589366666667","6502300","八里區"
"249002","305-UY","2018/02/19 18:09:18","新北市八里區龍米路一段356巷46號","121.452071666667","25.1304116666667","6502300","八里區"
"249003","593-UM","2018/02/19 18:09:38","新北市八里區中華路二段488號","121.400236666667","25.1457183333333","6502300","八里區"
"248014","025-BX","2018/02/19 18:09:29","新北市五股區成泰路一段189巷34號","121.433468333333","25.07638","6501500","五股區"
"248006","077-UY","2018/02/19 18:09:40","新北市五股區中興路二段89號","121.460588333333","25.077335","6501500","五股區"
"248008","095-VK","2018/02/19 18:09:35","新北市五股區更洲路32巷8弄14號","121.459251666667","25.079635","6501500","五股區"
"248019","225-UY","2018/02/19 18:09:46","新北市五股區新五路二段367號","121.444315","25.0879566666667","6501500","五股區"
"248012","247-BX","2018/02/19 18:09:32","新北市五股區新五路二段258號","121.440916666667","25.0822266666667","6501500","五股區"
"248004","677-BX","2018/02/19 18:09:38","新北市五股區成泰路二段140號","121.438186666667","25.0837916666667","6501500","五股區"
"248002","678-BX","2018/02/19 18:09:39","新北市五股區新五路三段28號","121.443971666667","25.0874533333333","6501500","五股區"
"248010","682-TV","2018/02/19 18:09:43","新北市五股區成泰路一段221號","121.43425","25.0777233333333","6501500","五股區"
"232011","375-UM","2018/02/19 18:07:01","新北市坪林區坪雙路一段43號","121.711695","24.9424483333333","6502000","坪林區"
"244013","069-UM","2018/02/19 18:09:32","新北市林口區中山路160巷13號","121.391543333333","25.079735","6501700","林口區"
"244007","080-UY","2018/02/19 18:09:33","新北市林口區林口路222號","121.386916666667","25.0836466666667","6501700","林口區"
"244019","402-UM","2018/02/19 18:09:37","新北市林口區麗園路94號","121.372065","25.0681166666667","6501700","林口區"
"244023","483-VK","2018/02/19 18:09:50","新北市林口區東湖路153巷151號","121.382246666667","25.0736166666667","6501700","林口區"
"244017","485-VK","2018/02/19 18:09:35","新北市林口區八德路20巷3號","121.36785","25.0674966666667","6501700","林口區"
"244009","657-BX","2018/02/19 18:09:34","新北市林口區佳林路56巷13-6號","121.385448333333","25.08126","6501700","林口區"
"244011","701-TV","2018/02/19 18:09:36","新北市林口區中正路114號","121.393485","25.0772416666667","6501700","林口區"
"244025","837-TS","2018/02/19 18:09:41","新北市林口區文化北路一段301-1號","121.36066","25.0725283333333","6501700","林口區"
"244021","838-TS","2018/02/19 18:09:50","新北市林口區自強一街107號","121.400665","25.076545","6501700","林口區"
"243015","380-SR","2018/02/19 17:43:06","新北市泰山區犁頭窠3-1號","121.422291666667","25.0603033333333","6501600","泰山區"
"243013","646-TV","2018/02/19 18:09:37","新北市泰山區南林路99巷1-1號","121.415656666667","25.0510283333333","6501600","泰山區"
"222002","016-RS","2018/02/19 18:09:45","新北市深坑區文化街52號","121.618975","25.001635","6501800","深坑區"
"222003","436-BY","2018/02/19 18:09:35","新北市深坑區腳坑2-1號","121.610761666667","24.99566","6501800","深坑區"
"231041","002-UM","2018/02/19 18:09:50","新北市新店區安華路28-1號","121.519575","24.9608433333333","6500600","新店區"
"231059","046-UY","2018/02/19 18:09:36","新北市新店區安華路28-1號","121.519581666667","24.9608533333333","6500600","新店區"
"231051","107-UY","2018/02/19 18:09:49","新北市新店區安華路28-1號","121.519398333333","24.9613783333333","6500600","新店區"
"231047","108-UY","2018/02/19 18:09:46","新北市新店區安華路28-1號","121.519298333333","24.9611233333333","6500600","新店區"
"231057","256-BX","2018/02/19 18:09:46","新北市新店區安華路28-1號","121.519708333333","24.9610866666667","6500600","新店區"
"231046","278-BY","2018/02/19 18:09:48","新北市新店區下石厝路31號","121.533035","24.9326766666667","6500600","新店區"
"231058","3712-VJ","2018/02/19 18:09:42","新北市新店區安華路1-1號","121.519191666667","24.960495","6500600","新店區"
"231055","4716-K9","2018/02/19 18:09:42","新北市新店區安華路28-1號","121.519561666667","24.9613733333333","6500600","新店區"
"231063","645-TV","2018/02/19 18:09:49","新北市新店區安華路1-1號","121.519353333333","24.9604116666667","6500600","新店區"
"231062","720-UM","2018/02/19 18:09:41","新北市新店區安華路28-1號","121.519096666667","24.961135","6500600","新店區"
"241028","022-UY","2018/02/19 18:09:48","新北市三重區仁化街40號","121.49346","25.059635","6500200","三重區"
"241020","413-TH","2018/02/19 18:09:50","新北市三重區後竹圍街175巷5號","121.485803333333","25.072345","6500200","三重區"
"241023","545-UM","2018/02/19 18:09:36","新北市三重區忠孝路三段50巷13號","121.481266666667","25.06539","6500200","三重區"
"241012","941-UM","2018/02/19 18:09:29","新北市三重區龍門路274巷25號","121.501433333333","25.0749183333333","6500200","三重區"
"241029","942-UM","2018/02/19 18:09:35","新北市三重區環河南路220-8號","121.493353333333","25.0526433333333","6500200","三重區"
"241033","AAC-255","2018/02/19 18:09:37","新北市三重區中興北街52-8號","121.468983333333","25.0504816666667","6500200","三重區"
"235066","003-UY","2018/02/19 18:09:45","新北市中和區水源路34巷21弄3號","121.504831666667","25.0029266666667","6500300","中和區"
"235064","005-UY","2018/02/19 18:09:40","新北市中和區中正路148號","121.499048333333","24.99378","6500300","中和區"
"235063","006-UY","2018/02/19 18:09:48","新北市中和區員山路36巷16-3號","121.484963333333","24.9912283333333","6500300","中和區"
"235056","096-UM","2018/02/19 18:09:31","新北市中和區連城路308號","121.483623333333","24.996285","6500300","中和區"
"235065","098-UM","2018/02/19 18:09:46","新北市中和區莊敬路49巷18號","121.50168","25.0060416666667","6500300","中和區"
"235040","150-BY","2018/02/19 18:01:17","新北市中和區和城路一段271巷1號","121.485508333333","24.9919066666667","6500300","中和區"
"235058","151-BY","2018/02/19 18:09:32","新北市中和區圓通路367巷33弄45號","121.495958333333","24.9857333333333","6500300","中和區"
"235038","185-VK","2018/02/19 18:09:43","新北市中和區大智街26號","121.52104","24.992015","6500300","中和區"
"235067","255-BX","2018/02/19 18:09:30","新北市中和區員山路36巷16-4號","121.485335","24.99184","6500300","中和區"
"235043","352-BY","2018/02/19 18:09:41","新北市中和區中正路165號","121.498241666667","24.9936783333333","6500300","中和區"
"235061","378-QA","2018/02/19 18:09:33","新北市中和區連城路506號","121.477366666667","24.99236","6500300","中和區"
"235050","4979-A6","2018/02/19 18:09:41","新北市中和區中正路169號","121.498045","24.9937116666667","6500300","中和區"
"235042","551-UM","2018/02/19 18:09:29","新北市中和區中正路271號","121.495886666667","24.9937466666667","6500300","中和區"
"235070","558-UM","2018/02/19 18:09:41","新北市中和區錦和路350-1號","121.490296666667","24.9935616666667","6500300","中和區"
"235045","565-BX","2018/02/19 18:09:44","新北市中和區中正路273號","121.495708333333","24.9936633333333","6500300","中和區"
"235054","640-BX","2018/02/19 18:09:30","新北市土城區延壽路111巷2號","121.469143333333","24.9938716666667","6500300","中和區"
"235060","647-TV","2018/02/19 18:09:41","新北市中和區員山路36巷16-3號","121.484806666667","24.9913983333333","6500300","中和區"
"235047","732-UM","2018/02/19 18:09:34","新北市中和區復興路265號","121.5028","24.9903833333333","6500300","中和區"
"235046","733-UM","2018/02/19 18:09:36","新北市中和區員山路36巷13號","121.484183333333","24.9908416666667","6500300","中和區"
"235062","800-TS","2018/02/19 18:09:33","新北市中和區景平路999巷1號","121.495411666667","25.0059616666667","6500300","中和區"
"235057","801-TS","2018/02/19 18:09:49","新北市中和區員山路36巷16-3號","121.48506","24.9913833333333","6500300","中和區"
"235052","805-TS","2018/02/19 18:09:30","新北市中和區中正路1號","121.503371666667","24.9934966666667","6500300","中和區"
"235048","896-TW","2018/02/19 18:09:46","新北市中和區錦和路350-1號","121.490555","24.993535","6500300","中和區"
"235053","900-TW","2018/02/19 18:09:51","新北市中和區員山路36巷16-2號","121.485218333333","24.9915083333333","6500300","中和區"
"235051","157-BY","2018/02/19 18:09:41","新北市中和區景新街418巷16弄16號","121.5114","24.9885616666667","6500300","中和區"
"235001","AAC-213","2018/02/19 18:09:38","新北市中和區景平路155號","121.513371666667","24.9922883333333","6500300","中和區"
"247008","341-TH","2018/02/19 18:09:48","新北市蘆洲區信義路4號","121.473471666667","25.0790533333333","6501400","蘆洲區"
"247004","336-TH","2018/02/19 18:09:44","新北市八里區中山路三段371號","121.37297","25.13808","6501400","蘆洲區"
"247004","335-TH","2018/02/19 18:09:42","新北市八里區商港路48號","121.395906666667","25.1455266666667","6501400","蘆洲區"
"247014","007-UY","2018/02/19 18:09:37","新北市蘆洲區三民路151號","121.471453333333","25.0866","6501400","蘆洲區"
"226004","312-R5","2018/02/19 18:09:32","新北市平溪區菁桐里菁桐街50-1號","121.72333","25.023805","6502400","平溪區"
"228003","097-TW","2018/02/19 18:09:41","新北市貢寮區真理里美艷山街6-2號","121.928805","25.0607216666667","6502600","貢寮區"
"228002","585-TW","2018/02/19 18:09:34","新北市貢寮區福連里馬崗街35-1號","122.002081666667","25.0121766666667","6502600","貢寮區"
"228001","663-BX","2018/02/19 18:09:52","新北市貢寮區真理里新港街26巷55弄2-1號","121.927398333333","25.0528383333333","6502600","貢寮區"
"224006","676-BX","2018/02/19 18:09:49","新北市瑞芳區中山路251-1號","121.79755","25.10967","6501200","瑞芳區"
"224002","639-TC","2018/02/19 18:09:36","新北市瑞芳區三爪子坑路94-2號","121.809426666667","25.1053483333333","6501200","瑞芳區"
"224009","285-BY","2018/02/19 18:09:35","新北市瑞芳區山尖路131號","121.853676666667","25.11322","6501200","瑞芳區"
"224008","275-VK","2018/02/19 18:09:48","新北市瑞芳區員山子路23號","121.821338333333","25.1030066666667","6501200","瑞芳區"
"224005","271-BY","2018/02/19 18:09:40","新北市瑞芳區籠山路214-1號","121.852656666667","25.1253916666667","6501200","瑞芳區"
"227003","642-TC","2018/02/19 18:09:41","新北市雙溪區共和里東榮街31號","121.866186666667","25.0335783333333","6502500","雙溪區"
"253006","295-VK","2018/02/19 18:09:29","新北市石門區大丘田6號","121.54723","25.2853383333333","6502200","石門區"
"253005","741-TV","2018/02/19 18:09:49","新北市石門區福安街41號","121.568513333333","25.2920266666667","6502200","石門區"
"222001","KEA-2212","2018/02/19 18:09:38","新北市深坑區北深路二段104號","121.61691","25.0033066666667","6501800","深坑區"
"208002","KEA-2872","2018/02/19 18:09:43","新北市金山區三界壇路99巷9號","121.620716666667","25.2278433333333","6502700","金山區"
"208003","665-BX","2018/02/19 18:09:35","新北市金山區民生路31號","121.64305","25.221595","6502700","金山區"
"208001","761-BX","2018/02/19 18:09:33","新北市金山區磺港里磺港路77號","121.647613333333","25.22666","6502700","金山區"
"251009","008-UM","2018/02/19 18:09:44","新北市淡水區大忠街24巷1號","121.44316","25.1757583333333","6501000","淡水區"
"251004","009-UM","2018/02/19 18:09:34","新北市淡水區民權路177巷25號","121.461068333333","25.134915","6501000","淡水區"
"251013","179-VK","2018/02/19 18:09:35","新北市淡水區竹圍子10號","121.47621","25.194155","6501000","淡水區"
"251014","180-VK","2018/02/19 18:09:32","新北市淡水區南平11-3號","121.48609","25.22183","6501000","淡水區"
"251008","181-VK","2018/02/19 18:09:37","新北市淡水區中正東路二段7號","121.458296666667","25.1589833333333","6501000","淡水區"
"251015","182-VK","2018/02/19 18:09:40","新北市淡水區興福寮88巷1號","121.485681666667","25.165075","6501000","淡水區"
"251010","413-VK","2018/02/19 18:09:43","新北市淡水區中正路二段22巷47號","121.421598333333","25.1828333333333","6501000","淡水區"
"251012","441-VK","2018/02/19 18:09:32","新北市淡水區北新路三段167號","121.489895","25.190665","6501000","淡水區"
"251016","442-VK","2018/02/19 18:09:42","新北市淡水區下圭柔山15號","121.453221666667","25.202245","6501000","淡水區"
"251005","443-VK","2018/02/19 18:09:31","新北市淡水區水源街一段139號","121.447055","25.1719283333333","6501000","淡水區"
"251001","559-UM","2018/02/19 18:09:49","新北市淡水區自立路1巷9號","121.462711666667","25.1298","6501000","淡水區"
"251006","561-UM","2018/02/19 18:09:46","新北市淡水區新民街79號","121.438266666667","25.17678","6501000","淡水區"
"251011","650-BX","2018/02/19 18:09:38","新北市淡水區三空泉5號","121.476433333333","25.16126","6501000","淡水區"
"251002","672-BX","2018/02/19 18:09:42","新北市淡水區中正東路8-8號","121.447975","25.16677","6501000","淡水區"
"251003","766-UM","2018/02/19 18:09:52","新北市淡水區北新路182巷43號","121.448238333333","25.1774283333333","6501000","淡水區"
"207003","225-TW","2018/02/19 18:09:47","新北市萬里區港東路野柳風景區攤販66號","121.691308333333","25.2058483333333","6502800","萬里區"
"252003","249-BX","2018/02/19 18:09:39","新北市三芝區埔頭里埔頭37號","121.498446666667","25.2603","6502100","三芝區"
"252001","292-VK","2018/02/19 18:09:40","新北市三芝區中興街二段6號","121.498506666667","25.2565516666667","6502100","三芝區"
"237009","210-TH","2018/02/19 18:09:47","新北市三峽區大仁路66巷3號","121.364853333333","24.937585","6500900","三峽區"
"237012","275-BY","2018/02/19 18:09:39","新北市三峽區民生街1巷1-35號","121.377723333333","24.93502","6500900","三峽區"
"237008","302-VK","2018/02/19 18:09:31","新北市三峽區白雞58-23號","121.386093333333","24.9096966666667","6500900","三峽區"
"237014","433-BY","2018/02/19 18:09:52","新北市三峽區復興路59號","121.373093333333","24.937265","6500900","三峽區"
"237006","5529-G3","2018/02/19 18:09:45","新北市三峽區溪東路300號","121.40984","24.9307516666667","6500900","三峽區"
"237010","706-TV","2018/02/19 18:09:46","新北市三峽區民族街90號","121.369575","24.9296333333333","6500900","三峽區"
"237005","AKY-6261","2018/02/19 18:09:40","新北市三峽區民生街104巷2-7號","121.373746666667","24.936045","6500900","三峽區"
"236069","105-UM","2018/02/19 18:09:48","新北市土城區明德路一段130號","121.46362","24.9791666666667","6501300","土城區"
"236042","107-UM","2018/02/19 18:09:34","新北市土城區城林路6巷80號","121.438301666667","24.9795683333333","6501300","土城區"
"236078","166-UM","2018/02/19 18:09:37","新北市土城區中央路二段263號","121.439781666667","24.9708983333333","6501300","土城區"
"236030","253-BX","2018/02/19 18:09:37","新北市土城區城林路6巷80號","121.43856","24.9797483333333","6501300","土城區"
"236026","269-VK","2018/02/19 18:09:38","新北市土城區承天路18號","121.439473333333","24.9634066666667","6501300","土城區"
"236014","270-VK","2018/02/19 18:09:34","新北市土城區學府路一段47號","121.457605","24.9883833333333","6501300","土城區"
"236036","271-VK","2018/02/19 18:09:40","新北市土城區金城路二段65-1號","121.451268333333","24.9788416666667","6501300","土城區"
"236020","401-BY","2018/02/19 18:09:34","新北市土城區城林路6巷80號","121.438555","24.979665","6501300","土城區"
"236058","912-UM","2018/02/19 18:09:34","新北市土城區中央路四段105號","121.416643333333","24.9578633333333","6501300","土城區"
"236048","913-UM","2018/02/19 18:09:43","新北市土城區金城路二段48號","121.45148","24.97906","6501300","土城區"
"236053","AAC-216","2018/02/19 18:09:46","新北市土城區中華路二段2號","121.439171666667","24.97968","6501300","土城區"
"242029","986-R7","2018/02/19 18:09:33","新北市新莊區中平路134號","121.444856666667","25.0467833333333","6500500","新莊區"
"242050","751-BX","2018/02/19 18:09:49","新北市新莊區民本街23巷19號","121.429126666667","25.0198116666667","6500500","新莊區"
"242025","615-BX","2018/02/19 18:09:49","新北市新莊區五工三路94巷2號","121.45833","25.0655633333333","6500500","新莊區"
"242023","613-BX","2018/02/19 18:09:44","新北市新莊區幸福路600號","121.4531","25.0493066666667","6500500","新莊區"
"242027","612-BX","2018/02/19 18:09:37","新北市新莊區幸福路582號","121.453898333333","25.0493466666667","6500500","新莊區"
"242039","566-BX","2018/02/19 18:09:48","新北市新莊區民安西路38巷36號","121.426203333333","25.0203266666667","6500500","新莊區"
"242044","497-BY","2018/02/19 18:09:42","新北市新莊區天泉二街26巷1號","121.414393333333","25.0255883333333","6500500","新莊區"
"242053","440-UM","2018/02/19 18:09:32","新北市新莊區民安西路325號","121.427646666667","25.0111683333333","6500500","新莊區"
"242034","415-TV","2018/02/19 18:09:52","新北市新莊區新莊路539號","121.447626666667","25.0331866666667","6500500","新莊區"
"242004","413-TV","2018/02/19 18:09:49","新北市新莊區自立街80號","121.454498333333","25.0452916666667","6500500","新莊區"
"242042","400-BY","2018/02/19 18:09:38","新北市新莊區雙鳳路116巷18號","121.413461666667","25.0288216666667","6500500","新莊區"
"242060","362-BY","2018/02/19 18:09:33","新北市新莊區富國路176巷1號","121.424201666667","25.0243","6500500","新莊區"
"242058","353-BY","2018/02/19 18:09:38","新北市新莊區新北大道七段556號","121.412156666667","25.028665","6500500","新莊區"
"242007","132-UY","2018/02/19 18:09:37","新北市新莊區自信街63號","121.455408333333","25.0483283333333","6500500","新莊區"
"242036","133-UY","2018/02/19 18:09:36","新北市新莊區建福路48巷13號","121.425641666667","25.0273466666667","6500500","新莊區"
"242021","135-UY","2018/02/19 18:09:35","新北市新莊區新興街112號","121.450685","25.039165","6500500","新莊區"
"242046","172-VK","2018/02/19 18:09:43","新北市新莊區福營路350號","121.421343333333","25.026745","6500500","新莊區"
"242009","173-VK","2018/02/19 18:09:37","新北市新莊區中華路二段260號","121.452405","25.0532083333333","6500500","新莊區"
"242015","175-VK","2018/02/19 18:09:47","新北市新莊區中平路152巷45號","121.446706666667","25.04741","6500500","新莊區"
"242002","176-VK","2018/02/19 18:09:36","新北市新莊區中正路145-19號","121.45829","25.0375333333333","6500500","新莊區"
"242019","348-TH","2018/02/19 18:09:28","新北市新莊區公園路129-10號","121.45749","25.0409333333333","6500500","新莊區"
"242056","349-TH","2018/02/19 18:09:43","新北市新莊區豐年街55-4號","121.44657","25.031105","6500500","新莊區"
"242017","350-TH","2018/02/19 18:09:46","新北市新莊區永樂街88號","121.450573333333","25.0449133333333","6500500","新莊區"
"242011","351-TH","2018/02/19 18:09:43","新北市新莊區中信街90號","121.447858333333","25.053375","6500500","新莊區"
"238015","755-BX","2018/02/19 18:09:44","新北市樹林區文化街112巷29號","121.417198333333","24.99054","6500700","樹林區"
"238019","599-UM","2018/02/19 18:09:38","新北市樹林區中華路74號","121.419485","24.9814866666667","6500700","樹林區"
"238018","571-TV","2018/02/19 18:09:33","新北市板橋區大觀路三段265號","121.429023333333","24.992335","6500700","樹林區"
"238024","5061-A6","2018/02/19 18:09:38","新北市樹林區文化街65號","121.416921666667","24.9890916666667","6500700","樹林區"
"238021","KEA-2217","2018/02/19 18:09:45","新北市樹林區柑園街二段123號","121.384541666667","24.9547583333333","6500700","樹林區"
"238022","KEA-2213","2018/02/19 18:09:40","新北市樹林區福順街83號","121.416185","24.977945","6500700","樹林區"
"238025","303-VK","2018/02/19 18:09:39","新北市樹林區保安街一段179-10號","121.4213","24.9956716666667","6500700","樹林區"
"238017","283-BY","2018/02/19 18:09:49","新北市樹林區保安街二段337巷9號","121.411128333333","25.00824","6500700","樹林區"
"238014","282-BY","2018/02/19 18:09:46","新北市樹林區潭興街91巷8號","121.424378333333","24.9987566666667","6500700","樹林區"
"238020","268-VK","2018/02/19 18:09:34","新北市樹林區三俊街9號","121.41156","25.01549","6500700","樹林區"
"238026","172-UY","2018/02/19 18:09:47","新北市樹林區佳園路一段80巷1-2號","121.392901666667","24.9696083333333","6500700","樹林區"
"238016","169-UY","2018/02/19 18:09:49","新北市樹林區文化街28號","121.419305","24.9877866666667","6500700","樹林區"
"221008","489-VK","2018/02/19 18:09:31","新北市汐止區康寧街315號","121.627068333333","25.0678266666667","6501100","汐止區"
"221036","130-UY","2018/02/19 18:09:48","新北市汐止區大同路三段147號","121.669658333333","25.077695","6501100","汐止區"
"221015","131-UY","2018/02/19 18:09:49","新北市汐止區鄉長路二段25-1號","121.668263333333","25.0826883333333","6501100","汐止區"
"221010","269-BY","2018/02/19 18:09:32","新北市汐止區汐萬路二段245巷48號","121.644856666667","25.08779","6501100","汐止區"
"221012","278-VK","2018/02/19 18:09:33","新北市汐止區長興街二段50巷40號","121.675131666667","25.0809583333333","6501100","汐止區"
"221023","279-VK","2018/02/19 18:09:45","新北市汐止區民族六街2巷23號","121.628481666667","25.0701383333333","6501100","汐止區"
"221032","280-BY","2018/02/19 18:09:42","新北市汐止區橫科路63號","121.618705","25.050805","6501100","汐止區"
"221027","281-BY","2018/02/19 18:09:48","新北市汐止區大同路二段553號","121.662451666667","25.0696266666667","6501100","汐止區"
"221029","298-VK","2018/02/19 18:09:49","新北市汐止區樟樹二路134號","121.639968333333","25.0656383333333","6501100","汐止區"
"221021","299-VK","2018/02/19 18:09:41","新北市汐止區連興街22號","121.655608333333","25.063755","6501100","汐止區"
"221031","353-TW","2018/02/19 18:09:34","新北市汐止區中興路181巷1號","121.63023","25.066755","6501100","汐止區"
"221035","622-UM","2018/02/19 18:09:36","新北市汐止區大同路二段184巷6號","121.65304","25.06417","6501100","汐止區"
"221025","623-UM","2018/02/19 18:09:30","新北市汐止區勤進路16號","121.659563333333","25.0613666666667","6501100","汐止區"
"221038","646-BX","2018/02/19 18:09:35","新北市汐止區勤進路31號","121.65963","25.0607116666667","6501100","汐止區"
"221033","647-BX","2018/02/19 18:09:43","新北市汐止區林森街9號","121.62129","25.0408016666667","6501100","汐止區"
"221002","707-TV","2018/02/19 18:09:32","新北市汐止區福德一路207號","121.635195","25.0654866666667","6501100","汐止區"
"221018","753-BX","2018/02/19 18:09:52","新北市汐止區忠孝東路384號","121.665541666667","25.0702183333333","6501100","汐止區"
"242048","281-VK","2018/02/19 18:09:35","新北市新莊區萬安街16號","121.421613333333","25.0249366666667","6500500","新莊區"
"242031","280-VK","2018/02/19 18:09:35","新北市新莊區新泰路277巷29號","121.444685","25.0401733333333","6500500","新莊區"
