"lineid","car","time","location","longitude","latitude","cityid","cityname"
"234026","9371-KE","2018/02/19 18:19:34","新北市永和區豫溪街40號","121.51556","25.0096966666667","6500400","永和區"
"234011","9373-KE","2018/02/19 18:19:47","新北市永和區豫溪街217巷1號","121.525248333333","25.0095933333333","6500400","永和區"
"249005","172-UM","2018/02/19 18:19:33","新北市八里區荖阡坑路7-9號","121.399443333333","25.14192","6502300","八里區"
"249001","173-UM","2018/02/19 18:19:38","新北市八里區龍米路一段131號","121.452161666667","25.1267316666667","6502300","八里區"
"249004","303-UY","2018/02/19 18:19:30","新北市八里區觀海大道37號","121.429513333333","25.16084","6502300","八里區"
"249002","305-UY","2018/02/19 18:19:38","新北市八里區龍形二街48號","121.450363333333","25.1330433333333","6502300","八里區"
"248014","025-BX","2018/02/19 18:19:29","新北市五股區自強路19巷5-1號","121.434708333333","25.0737466666667","6501500","五股區"
"248016","026-BX","2018/02/19 18:19:37","新北市五股區西雲路293號","121.449521666667","25.099185","6501500","五股區"
"248006","077-UY","2018/02/19 18:19:35","新北市五股區中興路一段136號","121.464963333333","25.07374","6501500","五股區"
"248008","095-VK","2018/02/19 18:19:34","新北市五股區更洲路32巷8弄14號","121.459263333333","25.0796283333333","6501500","五股區"
"248018","225-UY","2018/02/19 18:19:26","新北市五股區御史路199-7號","121.432175","25.0992683333333","6501500","五股區"
"248012","247-BX","2018/02/19 18:19:32","新北市五股區御成路33號","121.44103","25.0912283333333","6501500","五股區"
"248004","677-BX","2018/02/19 18:19:46","新北市五股區成泰路二段149號","121.439146666667","25.0855583333333","6501500","五股區"
"248002","678-BX","2018/02/19 18:19:39","新北市五股區西雲路66號","121.443646666667","25.0916166666667","6501500","五股區"
"248010","682-TV","2018/02/19 18:19:43","新北市五股區成泰路一段141號","121.435463333333","25.0730016666667","6501500","五股區"
"232011","375-UM","2018/02/19 18:07:01","新北市坪林區坪雙路一段43號","121.711695","24.9424483333333","6502000","坪林區"
"244013","069-UM","2018/02/19 18:19:32","新北市林口區中山路258-1號","121.38512","25.0797733333333","6501700","林口區"
"244007","080-UY","2018/02/19 18:19:33","新北市林口區林口路124巷2號","121.388711666667","25.0816816666667","6501700","林口區"
"244019","402-UM","2018/02/19 18:19:36","新北市林口區文化一路一段89-5號","121.372075","25.0703116666667","6501700","林口區"
"244023","483-VK","2018/02/19 18:19:30","新北市林口區仁愛路二段8號","121.385846666667","25.0763433333333","6501700","林口區"
"244017","485-VK","2018/02/19 18:19:35","新北市林口區八德路68號","121.36563","25.0657783333333","6501700","林口區"
"244009","657-BX","2018/02/19 18:19:34","新北市林口區中山路270號","121.38281","25.0810333333333","6501700","林口區"
"244011","701-TV","2018/02/19 18:19:36","新北市林口區中正路8號","121.396313333333","25.0774833333333","6501700","林口區"
"244025","837-TS","2018/02/19 18:19:41","新北市林口區南勢四街71-3號","121.354746666667","25.0698583333333","6501700","林口區"
"244021","838-TS","2018/02/19 18:19:30","新北市林口區自強二街1號","121.397406666667","25.0785033333333","6501700","林口區"
"243013","646-TV","2018/02/19 18:19:37","新北市泰山區錢厝坑13號","121.416258333333","25.038445","6501600","泰山區"
"222002","016-RS","2018/02/19 18:19:45","新北市深坑區文化街18號","121.62016","25.0014366666667","6501800","深坑區"
"222003","436-BY","2018/02/19 18:19:35","新北市深坑區旺耽路67號","121.626275","25.002995","6501800","深坑區"
"231041","002-UM","2018/02/19 18:19:30","新北市新店區安華路28-1號","121.519806666667","24.960855","6500600","新店區"
"231059","046-UY","2018/02/19 18:19:36","新北市新店區安華路28-1號","121.519648333333","24.9607516666667","6500600","新店區"
"231061","047-UY","2018/02/19 18:19:38","新北市新店區安華路28-1號","121.519141666667","24.9609116666667","6500600","新店區"
"231060","106-UY","2018/02/19 18:19:30","新北市新店區安華路28-1號","121.519548333333","24.9609733333333","6500600","新店區"
"231051","107-UY","2018/02/19 18:19:29","新北市新店區安康路一段355-3號","121.519718333333","24.9616716666667","6500600","新店區"
"231047","108-UY","2018/02/19 18:19:26","新北市新店區安華路28-1號","121.519358333333","24.961065","6500600","新店區"
"231052","187-VK","2018/02/19 18:19:33","新北市新店區安康路一段355-3號","121.519738333333","24.961725","6500600","新店區"
"231050","KEA-2219","2018/02/19 18:19:34","新北市新店區安華路28-1號","121.519918333333","24.961205","6500600","新店區"
"231057","256-BX","2018/02/19 18:19:26","新北市新店區安康路一段20號","121.531103333333","24.9610283333333","6500600","新店區"
"231046","278-BY","2018/02/19 18:19:28","新北市新店區直潭七街60號","121.532241666667","24.93981","6500600","新店區"
"231058","3712-VJ","2018/02/19 18:19:42","新北市新店區環河路29巷1號","121.537121666667","24.9611033333333","6500600","新店區"
"231056","3713-VJ","2018/02/19 18:19:45","新北市新店區中央路117號","121.5308","24.9743683333333","6500600","新店區"
"231055","4716-K9","2018/02/19 18:19:42","新北市新店區北新路一段91號","121.538855","24.9617383333333","6500600","新店區"
"231067","4772-VM","2018/02/19 18:19:40","新北市新店區安華路1-1號","121.519125","24.96049","6500600","新店區"
"231065","512-UM","2018/02/19 18:19:26","新北市新店區安華路28-1號","121.51932","24.9612716666667","6500600","新店區"
"231064","515-UM","2018/02/19 18:19:18","新北市新店區安華路28-1號","121.519065","24.96112","6500600","新店區"
"231042","641-BX","2018/02/19 18:19:39","新北市新店區安華路28-1號","121.519578333333","24.9605933333333","6500600","新店區"
"231063","645-TV","2018/02/19 18:19:29","新北市新店區安華路28-1號","121.519361666667","24.96057","6500600","新店區"
"231062","720-UM","2018/02/19 18:19:41","新北市新店區安華路28-1號","121.51912","24.9610983333333","6500600","新店區"
"231045","898-TW","2018/02/19 18:13:17","新北市新店區安華路28-1號","121.519333333333","24.96085","6500600","新店區"
"231043","899-TW","2018/02/19 18:19:45","新北市新店區安華路28-1號","121.519268333333","24.960845","6500600","新店區"
"231066","AKT-0513","2018/02/19 18:19:30","新北市新店區安華路1-1號","121.519578333333","24.9604066666667","6500600","新店區"
"241028","022-UY","2018/02/19 18:19:28","新北市三重區中寮街4號","121.492013333333","25.0597533333333","6500200","三重區"
"241009","060-VK","2018/02/19 18:19:31","新北市三重區三和路四段215巷64號","121.483936666667","25.0803866666667","6500200","三重區"
"241017","063-VK","2018/02/19 18:19:29","新北市三重區中正北路25巷25弄12號","121.493863333333","25.06282","6500200","三重區"
"241003","156-TC","2018/02/19 18:19:27","新北市三重區富福街106號","121.49333","25.0855333333333","6500200","三重區"
"241022","267-UM","2018/02/19 18:19:43","新北市三重區三民街153-1號","121.484163333333","25.0645233333333","6500200","三重區"
"241018","268-UM","2018/02/19 18:19:29","新北市三重區六張街90巷8號","121.493153333333","25.06962","6500200","三重區"
"241020","413-TH","2018/02/19 18:19:30","新北市三重區自強路三段34巷4號","121.486633333333","25.07239","6500200","三重區"
"241023","545-UM","2018/02/19 18:19:36","新北市三重區忠孝路三段50巷41弄12號","121.482356666667","25.0643533333333","6500200","三重區"
"241012","941-UM","2018/02/19 18:19:29","新北市三重區仁壽街127號","121.49906","25.0740033333333","6500200","三重區"
"241029","942-UM","2018/02/19 18:19:35","新北市三重區重新路三段150號","121.490946666667","25.0593383333333","6500200","三重區"
"235066","003-UY","2018/02/19 18:19:45","新北市中和區廣福路56巷1弄12號","121.5029","25.00196","6500300","中和區"
"235064","005-UY","2018/02/19 18:19:40","新北市中和區圓通路141巷41號","121.498661666667","24.994555","6500300","中和區"
"235063","006-UY","2018/02/19 18:19:28","新北市中和區中正路589巷15號","121.485845","24.9938683333333","6500300","中和區"
"235056","096-UM","2018/02/19 18:19:31","新北市板橋區民生路一段26-1號","121.477378333333","25.0119016666667","6500300","中和區"
"235065","098-UM","2018/02/19 18:19:46","新北市中和區莊敬路49巷18號","121.501648333333","25.0060616666667","6500300","中和區"
"235040","150-BY","2018/02/19 18:19:37","新北市中和區景安路72號","121.505786666667","24.9965316666667","6500300","中和區"
"235058","151-BY","2018/02/19 18:19:32","新北市中和區圓通路367巷57弄6號","121.492893333333","24.983625","6500300","中和區"
"235055","183-VK","2018/02/19 18:19:42","新北市中和區連城路469巷79弄30號","121.484331666667","24.993675","6500300","中和區"
"235038","185-VK","2018/02/19 18:19:43","新北市中和區秀朗路三段128巷17弄6號","121.524128333333","24.9934433333333","6500300","中和區"
"235049","186-VK","2018/02/19 18:19:38","新北市中和區中正路166號","121.498358333333","24.9938766666667","6500300","中和區"
"235067","255-BX","2018/02/19 18:19:30","新北市中和區和城路一段271巷1號","121.485373333333","24.9918183333333","6500300","中和區"
"235043","352-BY","2018/02/19 18:19:40","新北市中和區景平路502號","121.50423","24.9935316666667","6500300","中和區"
"235068","377-QA","2018/02/19 18:19:20","新北市中和區員山路36巷13號","121.484153333333","24.9908083333333","6500300","中和區"
"235061","378-QA","2018/02/19 18:19:33","新北市中和區國光街215巷34號","121.467225","25.00017","6500300","中和區"
"235050","4979-A6","2018/02/19 18:19:41","新北市中和區捷運路61巷9號","121.509161666667","24.98934","6500300","中和區"
"235069","4980-A6","2018/02/19 18:19:28","新北市中和區連城路126號","121.496098333333","24.9993633333333","6500300","中和區"
"235042","551-UM","2018/02/19 18:19:29","新北市中和區大仁街20巷25弄6號","121.51867","24.9934933333333","6500300","中和區"
"235070","558-UM","2018/02/19 18:19:41","新北市中和區圓通路169號","121.497718333333","24.9952933333333","6500300","中和區"
"235045","565-BX","2018/02/19 18:19:44","新北市中和區景安路200巷6弄2號","121.503385","24.9916733333333","6500300","中和區"
"235054","640-BX","2018/02/19 18:19:43","新北市中和區民享街86巷22號","121.473531666667","25.0007233333333","6500300","中和區"
"235060","647-TV","2018/02/19 18:19:41","新北市中和區員山路160號","121.481328333333","24.9996566666667","6500300","中和區"
"235047","732-UM","2018/02/19 18:19:35","新北市中和區南山路320巷19號","121.507266666667","24.9862933333333","6500300","中和區"
"235046","733-UM","2018/02/19 18:19:36","新北市中和區錦和路350-1號","121.490438333333","24.9935516666667","6500300","中和區"
"235062","800-TS","2018/02/19 18:19:33","新北市中和區景平路989巷27號","121.4953","25.004995","6500300","中和區"
"235057","801-TS","2018/02/19 18:19:29","新北市中和區民享街97巷19號","121.475428333333","24.9995283333333","6500300","中和區"
"235052","805-TS","2018/02/19 18:19:30","新北市中和區和平街6號","121.51015","24.98994","6500300","中和區"
"235048","896-TW","2018/02/19 18:19:46","新北市中和區中正路61號","121.501476666667","24.99348","6500300","中和區"
"235053","900-TW","2018/02/19 18:19:32","新北市中和區員山路36巷16-8號","121.485473333333","24.9924533333333","6500300","中和區"
"235051","157-BY","2018/02/19 18:19:41","新北市中和區興南路二段159巷10號","121.505061666667","24.9832416666667","6500300","中和區"
"235001","AAC-213","2018/02/19 18:19:38","新北市中和區景平路89號","121.517706666667","24.9916916666667","6500300","中和區"
"247004","336-TH","2018/02/19 18:19:44","新北市八里區中山路三段409號","121.368691666667","25.1357716666667","6501400","蘆洲區"
"247004","335-TH","2018/02/19 18:19:42","新北市林口區汕頭32號","121.366698333333","25.13506","6501400","蘆洲區"
"247014","007-UY","2018/02/19 18:19:37","新北市五股區芳洲九路32號","121.447778333333","25.0871283333333","6501400","蘆洲區"
"226004","312-R5","2018/02/19 18:19:32","新北市平溪區薯榔里薯榔寮33-2號","121.710301666667","25.0177183333333","6502400","平溪區"
"228003","097-TW","2018/02/19 18:19:41","新北市貢寮區真理里美艷山街70號","121.917485","25.0743966666667","6502600","貢寮區"
"228002","585-TW","2018/02/19 18:19:34","新北市貢寮區福連里馬崗街1號","121.995776666667","25.016045","6502600","貢寮區"
"228001","663-BX","2018/02/19 18:19:32","新北市貢寮區真理里新港街26巷55弄2-1號","121.927388333333","25.0528066666667","6502600","貢寮區"
"224006","676-BX","2018/02/19 18:19:27","新北市瑞芳區民權街3-2號","121.808073333333","25.1074283333333","6501200","瑞芳區"
"224002","639-TC","2018/02/19 18:19:36","新北市瑞芳區三爪子坑路149巷4號","121.810851666667","25.10637","6501200","瑞芳區"
"224009","285-BY","2018/02/19 18:19:35","新北市瑞芳區金光路346號","121.850373333333","25.110005","6501200","瑞芳區"
"224008","275-VK","2018/02/19 18:19:44","新北市瑞芳區逢甲路76-1號","121.810386666667","25.1083083333333","6501200","瑞芳區"
"224007","273-VK","2018/02/19 18:19:43","新北市瑞芳區大埔路台北新城14號","121.764816666667","25.1009166666667","6501200","瑞芳區"
"224005","271-BY","2018/02/19 18:19:40","新北市瑞芳區海濱路8-6號","121.831711666667","25.126075","6501200","瑞芳區"
"227003","642-TC","2018/02/19 18:19:41","新北市雙溪區共和里中山路2號","121.863781666667","25.033835","6502500","雙溪區"
"227008","400-TW","2018/02/19 18:19:42","新北市雙溪區牡丹里牡丹73號","121.851726666667","25.0593033333333","6502500","雙溪區"
"253006","295-VK","2018/02/19 18:19:29","新北市石門區老梅路75號","121.546105","25.2892416666667","6502200","石門區"
"253005","741-TV","2018/02/19 18:19:29","新北市石門區中央路37-5號","121.570058333333","25.29674","6502200","石門區"
"222001","KEA-2212","2018/02/19 18:19:38","新北市深坑區北深路二段66號","121.618911666667","25.0043466666667","6501800","深坑區"
"208002","KEA-2872","2018/02/19 18:19:40","新北市金山區海興路84號","121.631821666667","25.234965","6502700","金山區"
"208003","665-BX","2018/02/19 18:19:35","新北市金山區民生路202號","121.64452","25.2219683333333","6502700","金山區"
"208001","761-BX","2018/02/19 18:19:33","新北市金山區中山路90-1號","121.641751666667","25.218785","6502700","金山區"
"251004","009-UM","2018/02/19 18:19:45","新北市淡水區民族路51號","121.462823333333","25.13523","6501000","淡水區"
"251013","179-VK","2018/02/19 18:19:35","新北市淡水區破瓦厝子1-7號","121.476405","25.199135","6501000","淡水區"
"251014","180-VK","2018/02/19 18:19:32","新北市淡水區崙頂30號","121.487031666667","25.2225","6501000","淡水區"
"251008","181-VK","2018/02/19 18:19:37","新北市淡水區淡金路218-1號","121.460771666667","25.1678483333333","6501000","淡水區"
"251015","182-VK","2018/02/19 18:19:40","新北市淡水區興福寮88巷1號","121.485708333333","25.1650716666667","6501000","淡水區"
"251010","413-VK","2018/02/19 18:19:43","新北市淡水區淡海路202號","121.420248333333","25.18551","6501000","淡水區"
"251012","441-VK","2018/02/19 18:19:32","新北市淡水區北新路二段77-5號","121.480458333333","25.18556","6501000","淡水區"
"251016","442-VK","2018/02/19 18:19:45","新北市淡水區淡金路三段228巷9號","121.44947","25.2049716666667","6501000","淡水區"
"251005","443-VK","2018/02/19 18:19:31","新北市淡水區水源街一段122巷39號","121.447226666667","25.1703633333333","6501000","淡水區"
"251001","559-UM","2018/02/19 18:19:29","新北市淡水區自強路110-11號","121.462295","25.1317316666667","6501000","淡水區"
"251006","561-UM","2018/02/19 18:19:46","新北市淡水區新民街76巷34弄2號","121.439328333333","25.1775683333333","6501000","淡水區"
"251011","650-BX","2018/02/19 18:19:38","新北市淡水區坪頂路22號","121.456586666667","25.16163","6501000","淡水區"
"251002","672-BX","2018/02/19 18:19:42","新北市淡水區中正東路一段45號","121.452101666667","25.163005","6501000","淡水區"
"251003","766-UM","2018/02/19 18:19:31","新北市淡水區北新路137號","121.449385","25.1788933333333","6501000","淡水區"
"207003","225-TW","2018/02/19 18:19:32","新北市萬里區野柳里港西路77-2號","121.686098333333","25.2050966666667","6502800","萬里區"
"252003","249-BX","2018/02/19 18:19:39","新北市三芝區錫板里海尾14-32號","121.477741666667","25.2596633333333","6502100","三芝區"
"252001","292-VK","2018/02/19 18:19:40","新北市三芝區中興街二段2號","121.498358333333","25.2566033333333","6502100","三芝區"
"237009","210-TH","2018/02/19 18:19:47","新北市三峽區中山路120號","121.365638333333","24.9359566666667","6500900","三峽區"
"237012","275-BY","2018/02/19 18:19:39","新北市三峽區三樹路38號","121.377716666667","24.9376733333333","6500900","三峽區"
"237008","302-VK","2018/02/19 18:19:31","新北市三峽區白雞68-331號","121.39161","24.9096383333333","6500900","三峽區"
"237014","433-BY","2018/02/19 18:19:32","新北市三峽區文化路112號","121.37131","24.9361783333333","6500900","三峽區"
"237006","5529-G3","2018/02/19 18:19:45","新北市三峽區溪東路367號","121.411663333333","24.9292866666667","6500900","三峽區"
"237010","706-TV","2018/02/19 18:19:41","新北市三峽區仁愛街18號","121.368306666667","24.93241","6500900","三峽區"
"237005","AKY-6261","2018/02/19 18:19:40","新北市三峽區大同路1-6號","121.378103333333","24.9295066666667","6500900","三峽區"
"236069","105-UM","2018/02/19 18:19:28","新北市土城區永豐路151巷1號","121.467405","24.9825583333333","6501300","土城區"
"236042","107-UM","2018/02/19 18:19:34","新北市土城區樂利街3巷20號","121.4487","24.9863566666667","6501300","土城區"
"236078","166-UM","2018/02/19 18:19:37","新北市土城區永寧路32巷10弄35號","121.428466666667","24.961165","6501300","土城區"
"236030","253-BX","2018/02/19 18:19:38","新北市土城區順風路66號","121.440341666667","24.97757","6501300","土城區"
"236026","269-VK","2018/02/19 18:19:38","新北市土城區南天母路135巷31號","121.449018333333","24.9544383333333","6501300","土城區"
"236014","270-VK","2018/02/19 18:19:34","新北市土城區青雲路39巷7號","121.460293333333","24.9874233333333","6501300","土城區"
"236036","271-VK","2018/02/19 18:19:40","新北市土城區青雲路483巷9號","121.45948","24.973535","6501300","土城區"
"236020","401-BY","2018/02/19 18:19:34","新北市土城區城林路6巷80號","121.438536666667","24.9796516666667","6501300","土城區"
"236058","912-UM","2018/02/19 18:19:34","新北市土城區中央路四段307-3號","121.410786666667","24.9514333333333","6501300","土城區"
"236048","913-UM","2018/02/19 18:19:43","新北市土城區明德路一段375-1號","121.454988333333","24.9780583333333","6501300","土城區"
"236053","AAC-216","2018/02/19 18:19:26","新北市土城區中華路二段199號","121.438083333333","24.9742116666667","6501300","土城區"
"242050","751-BX","2018/02/19 18:19:35","新北市新莊區民安西路37號","121.42762","25.0208766666667","6500500","新莊區"
"242025","615-BX","2018/02/19 18:19:39","新北市新莊區五工路68巷11號","121.458618333333","25.0639533333333","6500500","新莊區"
"242023","613-BX","2018/02/19 18:19:44","新北市新莊區新泰路255巷83號","121.442198333333","25.0391433333333","6500500","新莊區"
"242027","612-BX","2018/02/19 18:19:37","新北市新莊區新泰路500號","121.442018333333","25.0464633333333","6500500","新莊區"
"242044","497-BY","2018/02/19 18:19:36","新北市新莊區龍安路99號","121.416353333333","25.0222883333333","6500500","新莊區"
"242053","440-UM","2018/02/19 18:19:32","新北市新莊區民安西路410巷12弄4號","121.427826666667","25.0091183333333","6500500","新莊區"
"242004","413-TV","2018/02/19 18:19:34","新北市新莊區幸福路914號","121.442396666667","25.0487366666667","6500500","新莊區"
"242042","400-BY","2018/02/19 18:19:37","新北市新莊區天祥街61巷4號","121.41595","25.0289483333333","6500500","新莊區"
"242060","362-BY","2018/02/19 18:19:33","新北市新莊區民安路192號","121.42547","25.0234666666667","6500500","新莊區"
"242058","353-BY","2018/02/19 18:19:38","新北市新莊區中正路732號","121.41396","25.0233316666667","6500500","新莊區"
"242007","132-UY","2018/02/19 18:19:37","新北市新莊區自信街2號","121.453096666667","25.0480683333333","6500500","新莊區"
"242021","135-UY","2018/02/19 18:19:34","新北市新莊區中正路170號","121.450783333333","25.0358316666667","6500500","新莊區"
"242046","172-VK","2018/02/19 18:19:43","新北市新莊區中正路803巷1號","121.421643333333","25.02809","6500500","新莊區"
"242009","173-VK","2018/02/19 18:19:37","新北市新莊區中華路二段40號","121.454158333333","25.0455483333333","6500500","新莊區"
"242015","175-VK","2018/02/19 18:19:27","新北市新莊區中和街114號","121.44761","25.0474416666667","6500500","新莊區"
"242002","176-VK","2018/02/19 18:19:36","新北市新莊區新莊路173號","121.456086666667","25.0359016666667","6500500","新莊區"
"242056","349-TH","2018/02/19 18:19:43","新北市新莊區豐年街66號","121.44643","25.0315383333333","6500500","新莊區"
"242011","351-TH","2018/02/19 18:19:43","新北市新莊區中榮街49巷5號","121.449478333333","25.0522866666667","6500500","新莊區"
"238015","755-BX","2018/02/19 18:19:44","新北市樹林區文化街65號","121.416896666667","24.9891183333333","6500700","樹林區"
"238019","599-UM","2018/02/19 18:19:45","新北市樹林區中華路190-16號","121.411776666667","24.980645","6500700","樹林區"
"238018","571-TV","2018/02/19 18:19:33","新北市樹林區保安街一段18-3號","121.427546666667","24.9935283333333","6500700","樹林區"
"238024","5061-A6","2018/02/19 18:19:38","新北市樹林區中山路一段149-3號","121.422158333333","24.98915","6500700","樹林區"
"238021","KEA-2217","2018/02/19 18:19:45","新北市樹林區八德街828-2號","121.394076666667","24.968005","6500700","樹林區"
"238025","303-VK","2018/02/19 18:19:39","新北市樹林區大安路586號","121.411605","24.9832583333333","6500700","樹林區"
"238014","282-BY","2018/02/19 18:19:26","新北市樹林區大安路111巷25號","121.423215","24.997665","6500700","樹林區"
"238020","268-VK","2018/02/19 18:19:34","新北市樹林區三龍街103號","121.417023333333","25.0184016666667","6500700","樹林區"
"238026","172-UY","2018/02/19 18:19:27","新北市樹林區八德街624號","121.397046666667","24.9696833333333","6500700","樹林區"
"238016","169-UY","2018/02/19 18:19:29","新北市樹林區文化街23號","121.4194","24.9875016666667","6500700","樹林區"
"221008","489-VK","2018/02/19 18:19:31","新北市汐止區康寧街706-2號","121.638543333333","25.073135","6501100","汐止區"
"221036","130-UY","2018/02/19 18:19:36","新北市汐止區長安路10號","121.667721666667","25.0776683333333","6501100","汐止區"
"221015","131-UY","2018/02/19 18:19:29","新北市汐止區鄉長路二段33號","121.66798","25.0832883333333","6501100","汐止區"
"221010","269-BY","2018/02/19 18:19:34","新北市汐止區汐萬路二段260號","121.645826666667","25.0892933333333","6501100","汐止區"
"221012","278-VK","2018/02/19 18:19:34","新北市汐止區保一街8巷1號","121.673723333333","25.08116","6501100","汐止區"
"221023","279-VK","2018/02/19 18:19:25","新北市汐止區明峰街192號","121.628096666667","25.0695916666667","6501100","汐止區"
"221032","280-BY","2018/02/19 18:19:42","新北市汐止區力行街41號","121.616715","25.0500133333333","6501100","汐止區"
"221027","281-BY","2018/02/19 18:19:34","新北市汐止區和平街6巷5弄2號","121.663621666667","25.071815","6501100","汐止區"
"221029","298-VK","2018/02/19 18:19:29","新北市汐止區康寧街777-1號","121.64492","25.0756066666667","6501100","汐止區"
"221021","299-VK","2018/02/19 18:19:41","新北市汐止區連興街120號","121.653745","25.0625533333333","6501100","汐止區"
"221031","353-TW","2018/02/19 18:19:34","新北市汐止區中興路144號","121.632711666667","25.064405","6501100","汐止區"
"221035","622-UM","2018/02/19 18:19:36","新北市汐止區大同路二段182號","121.652178333333","25.064105","6501100","汐止區"
"221025","623-UM","2018/02/19 18:19:30","新北市汐止區勤進路12巷49號","121.65899","25.0628816666667","6501100","汐止區"
"221038","646-BX","2018/02/19 18:19:35","新北市汐止區仁愛路315號","121.664596666667","25.0675766666667","6501100","汐止區"
"221033","647-BX","2018/02/19 18:19:43","新北市汐止區宜興街40巷22弄2號","121.622596666667","25.0411183333333","6501100","汐止區"
"221002","707-TV","2018/02/19 18:19:32","新北市汐止區福德一路201巷25號","121.636215","25.0644483333333","6501100","汐止區"
"221018","753-BX","2018/02/19 18:19:32","新北市汐止區茄苳路72巷9號","121.666628333333","25.0701816666667","6501100","汐止區"
"242031","280-VK","2018/02/19 18:19:37","新北市新莊區新泰路255巷40號","121.444471666667","25.0396233333333","6500500","新莊區"
"220054","741-BX","2018/02/19 18:19:28","新北市板橋區華東街1-9號","121.448148333333","24.99477","6500100","板橋區"
