"lineid","car","time","location","longitude","latitude","cityid","cityname"
"234046","148-BY","2018/02/19 18:39:57","新北市永和區永元路52巷14號","121.52274","25.000845","6500400","永和區"
"234067","149-BY","2018/02/19 18:39:51","新北市永和區福和路8巷3號","121.524978333333","25.009065","6500400","永和區"
"234007","207-UY","2018/02/19 18:39:54","新北市永和區文化路170號","121.511771666667","25.0155116666667","6500400","永和區"
"234086","338-UY","2018/02/19 18:39:36","新北市永和區福和路22號","121.524078333333","25.0084333333333","6500400","永和區"
"234017","745-BX","2018/02/19 18:39:47","新北市永和區福和路1號","121.526336666667","25.00958","6500400","永和區"
"234030","746-BX","2018/02/19 18:39:53","新北市永和區成功路一段139號","121.526906666667","25.0014816666667","6500400","永和區"
"234013","KEA-2591","2018/02/19 18:39:54","新北市永和區保福路二段105號","121.51029","25.0132833333333","6500400","永和區"
"234042","862-TW","2018/02/19 18:39:38","新北市永和區永貞路308號","121.511868333333","25.0049016666667","6500400","永和區"
"234050","863-TW","2018/02/19 18:36:52","新北市永和區福和路1號","121.525498333333","25.0093566666667","6500400","永和區"
"234026","9371-KE","2018/02/19 18:39:54","新北市永和區仁愛路281號","121.505683333333","25.009675","6500400","永和區"
"234011","9373-KE","2018/02/19 18:39:47","新北市永和區文化路9巷22弄38號","121.514341666667","25.0145666666667","6500400","永和區"
"249005","172-UM","2018/02/19 18:39:53","新北市八里區中華路三段232號","121.388338333333","25.124465","6502300","八里區"
"249001","173-UM","2018/02/19 18:39:39","新北市八里區龍米路一段360號","121.451586666667","25.131355","6502300","八里區"
"249004","303-UY","2018/02/19 18:39:52","新北市八里區中山路一段178號","121.416911666667","25.1593683333333","6502300","八里區"
"249002","305-UY","2018/02/19 18:39:38","新北市八里區龍形一街33巷6-1號","121.449228333333","25.12956","6502300","八里區"
"248014","025-BX","2018/02/19 18:39:29","新北市五股區成泰路一段235-1號","121.4362","25.0794983333333","6501500","五股區"
"248016","026-BX","2018/02/19 18:39:37","新北市五股區凌雲路一段149巷7號","121.448985","25.1015766666667","6501500","五股區"
"248008","095-VK","2018/02/19 18:39:54","新北市五股區中興路一段151巷29號","121.46523","25.0723033333333","6501500","五股區"
"248018","225-UY","2018/02/19 18:39:46","新北市五股區民義路二段52巷11-1號","121.411053333333","25.10848","6501500","五股區"
"248012","247-BX","2018/02/19 18:39:53","新北市五股區成泰路三段31號","121.441901666667","25.0883783333333","6501500","五股區"
"248004","677-BX","2018/02/19 18:39:54","新北市五股區民義路一段236-6號","121.42745","25.09126","6501500","五股區"
"248002","678-BX","2018/02/19 18:39:39","新北市五股區西雲路240號","121.448891666667","25.0967933333333","6501500","五股區"
"248010","682-TV","2018/02/19 18:39:43","新北市五股區水碓九路71號","121.43019","25.0730716666667","6501500","五股區"
"234023","9380-KE","2018/02/19 18:39:41","新北市永和區福和路12巷2號","121.52437","25.0086333333333","6500400","永和區"
"234077","969-R7","2018/02/19 18:39:42","新北市永和區福和路8巷3號","121.524956666667","25.009105","6500400","永和區"
"234074","AAC-211","2018/02/19 18:39:40","新北市永和區福和路1號","121.52622","25.009825","6500400","永和區"
"244013","069-UM","2018/02/19 18:39:52","新北市林口區文化一路一段135巷7號","121.373331666667","25.0721383333333","6501700","林口區"
"244007","080-UY","2018/02/19 18:39:53","新北市林口區後湖1-4號","121.388136666667","25.0968033333333","6501700","林口區"
"244019","402-UM","2018/02/19 18:39:36","新北市林口區忠孝路616巷15號","121.377233333333","25.067645","6501700","林口區"
"244023","483-VK","2018/02/19 18:39:50","新北市林口區文化二路二段88巷11號","121.379536666667","25.0808666666667","6501700","林口區"
"244017","485-VK","2018/02/19 18:39:55","新北市林口區文化二路一段20巷50-2號","121.365233333333","25.0663233333333","6501700","林口區"
"244009","657-BX","2018/02/19 18:39:54","新北市林口區中山路598號","121.375723333333","25.085955","6501700","林口區"
"244011","701-TV","2018/02/19 18:39:36","新北市林口區林口路31號","121.390721666667","25.078645","6501700","林口區"
"244025","837-TS","2018/02/19 18:39:41","新北市林口區南勢里53-7號","121.355136666667","25.0747233333333","6501700","林口區"
"244021","838-TS","2018/02/19 18:39:50","新北市林口區工六路21號","121.401185","25.0767866666667","6501700","林口區"
"243003","267-VK","2018/02/19 18:39:43","新北市泰山區泰林路二段199號","121.433195","25.0614583333333","6501600","泰山區"
"243015","380-SR","2018/02/19 18:39:02","新北市泰山區同榮里12號","121.417585","25.0577266666667","6501600","泰山區"
"243012","539-UM","2018/02/19 18:39:49","新北市泰山區福興三街13號","121.434481666667","25.057705","6501600","泰山區"
"243013","646-TV","2018/02/19 18:39:37","新北市泰山區明志路三段206巷10號","121.423251666667","25.03805","6501600","泰山區"
"222003","436-BY","2018/02/19 18:39:55","新北市深坑區翠谷街53號","121.627463333333","25.0091916666667","6501800","深坑區"
"222002","659-BX","2018/02/19 18:39:42","新北市深坑區雲鄉路70號","121.621508333333","24.999245","6501800","深坑區"
"231041","002-UM","2018/02/19 18:39:50","新北市新店區安華路28-1號","121.519635","24.9606883333333","6500600","新店區"
"231059","046-UY","2018/02/19 18:39:36","新北市新店區安華路28-1號","121.519645","24.960715","6500600","新店區"
"231061","047-UY","2018/02/19 18:39:39","新北市新店區安華路28-1號","121.519265","24.9609216666667","6500600","新店區"
"231060","106-UY","2018/02/19 18:39:50","新北市新店區安華路28-1號","121.519915","24.960805","6500600","新店區"
"231051","107-UY","2018/02/19 18:39:49","新北市新店區中央路98號","121.53186","24.9759383333333","6500600","新店區"
"231047","108-UY","2018/02/19 18:39:46","新北市新店區安康路一段48號","121.53039","24.9611516666667","6500600","新店區"
"231052","187-VK","2018/02/19 18:39:53","新北市新店區永興路2號","121.545863333333","24.9406833333333","6500600","新店區"
"231050","KEA-2219","2018/02/19 18:39:54","新北市新店區安華路28-1號","121.520095","24.9611483333333","6500600","新店區"
"231057","256-BX","2018/02/19 18:39:46","新北市新店區新烏路一段215號","121.549488333333","24.93165","6500600","新店區"
"231046","278-BY","2018/02/19 18:39:48","新北市新店區直潭二街1號","121.535531666667","24.9431966666667","6500600","新店區"
"231054","AAD-862","2018/02/19 18:39:53","新北市新店區安華路28-1號","121.519706666667","24.96123","6500600","新店區"
"231058","3712-VJ","2018/02/19 18:39:42","新北市新店區北宜路一段105巷4弄3-1號","121.539996666667","24.95568","6500600","新店區"
"231056","3713-VJ","2018/02/19 18:39:45","新北市新店區建國路133號","121.53931","24.97816","6500600","新店區"
"231055","4716-K9","2018/02/19 18:39:42","新北市新店區華興街3號","121.538165","24.9698783333333","6500600","新店區"
"231067","4772-VM","2018/02/19 18:39:40","新北市新店區安康路一段76巷9號","121.52845","24.9624216666667","6500600","新店區"
"231065","512-UM","2018/02/19 18:39:46","新北市新店區安華路28-1號","121.51906","24.96126","6500600","新店區"
"231049","513-UM","2018/02/19 18:39:41","新北市新店區安康路一段50號","121.530186666667","24.9611233333333","6500600","新店區"
"231064","515-UM","2018/02/19 18:39:50","新北市新店區安華路28-1號","121.519371666667","24.9611083333333","6500600","新店區"
"231040","619-UM","2018/02/19 18:39:41","新北市新店區安華路28-1號","121.519455","24.960875","6500600","新店區"
"231042","641-BX","2018/02/19 18:39:39","新北市新店區安華路28-1號","121.519565","24.960615","6500600","新店區"
"231063","645-TV","2018/02/19 18:39:49","新北市新店區安華路28-1號","121.519341666667","24.9606266666667","6500600","新店區"
"231062","720-UM","2018/02/19 18:39:41","新北市新店區安華路28-1號","121.519268333333","24.9611066666667","6500600","新店區"
"231044","897-TW","2018/02/19 18:39:41","新北市新店區中興路二段196號","121.548368333333","24.9737466666667","6500600","新店區"
"231045","898-TW","2018/02/19 18:39:35","新北市新店區安華路28-1號","121.519373333333","24.9608966666667","6500600","新店區"
"231043","899-TW","2018/02/19 18:39:45","新北市新店區安華路28-1號","121.519265","24.9608533333333","6500600","新店區"
"231066","AKT-0513","2018/02/19 18:39:50","新北市新店區車子路10-4號","121.504933333333","24.954565","6500600","新店區"
"241011","013-R5","2018/02/19 18:39:47","新北市三重區龍濱路257號","121.501543333333","25.0727866666667","6500200","三重區"
"241008","059-VK","2018/02/19 18:39:51","新北市三重區永福街172號","121.480943333333","25.0743983333333","6500200","三重區"
"241009","060-VK","2018/02/19 18:39:51","新北市三重區碧華街45號","121.484595","25.0812816666667","6500200","三重區"
"241031","061-VK","2018/02/19 18:39:41","新北市三重區重新路四段162號","121.486626666667","25.0556683333333","6500200","三重區"
"241017","063-VK","2018/02/19 18:39:49","新北市三重區重新路三段31號","121.49423","25.0614283333333","6500200","三重區"
"241002","090-VK","2018/02/19 18:39:49","新北市三重區自強路五段35號","121.493725","25.0811333333333","6500200","三重區"
"241003","156-TC","2018/02/19 18:39:47","新北市三重區富福街3號","121.489965","25.0831183333333","6500200","三重區"
"241016","265-UM","2018/02/19 18:39:52","新北市三重區正義北路86號","121.49705","25.0645033333333","6500200","三重區"
"241022","267-UM","2018/02/19 18:39:43","新北市三重區忠孝路三段40巷59號","121.483596666667","25.0652933333333","6500200","三重區"
"241018","268-UM","2018/02/19 18:39:55","新北市三重區重陽路四段27號","121.491535","25.0694616666667","6500200","三重區"
"241032","269-UM","2018/02/19 18:39:38","新北市三重區新生街92號","121.483635","25.059285","6500200","三重區"
"241025","271-UM","2018/02/19 18:39:42","新北市三重區中正北路450號","121.473435","25.07148","6500200","三重區"
"241020","413-TH","2018/02/19 18:39:50","新北市三重區忠孝路一段133號","121.488481666667","25.0719833333333","6500200","三重區"
"241004","475-VK","2018/02/19 18:39:56","新北市三重區仁愛街445巷45號","121.491126666667","25.08303","6500200","三重區"
"241023","545-UM","2018/02/19 18:39:36","新北市三重區忠孝路三段99巷25號","121.479408333333","25.0642716666667","6500200","三重區"
"241001","547-UM","2018/02/19 18:39:54","新北市三重區五華街18號","121.494748333333","25.08027","6500200","三重區"
"241012","941-UM","2018/02/19 18:39:49","新北市三重區仁興街31巷36號","121.500115","25.0755983333333","6500200","三重區"
"241029","942-UM","2018/02/19 18:39:35","新北市三重區重安街8號","121.490231666667","25.0583483333333","6500200","三重區"
"235066","003-UY","2018/02/19 18:39:45","新北市中和區中和路102號","121.502665","24.9996916666667","6500300","中和區"
"235064","005-UY","2018/02/19 18:39:40","新北市中和區連城路87-1號","121.49671","25.0002","6500300","中和區"
"235063","006-UY","2018/02/19 18:39:48","新北市中和區建一路198號","121.487575","24.9963166666667","6500300","中和區"
"235056","096-UM","2018/02/19 18:39:51","新北市中和區員山路611巷5弄5號","121.478075","25.0111716666667","6500300","中和區"
"235039","097-UM","2018/02/19 18:39:41","新北市中和區安平路182號","121.512928333333","24.9989666666667","6500300","中和區"
"235065","098-UM","2018/02/19 18:39:46","新北市中和區莊敬路33巷36弄10號","121.500483333333","25.0063483333333","6500300","中和區"
"235040","150-BY","2018/02/19 18:39:37","新北市中和區安平路36巷5號","121.51033","24.9948566666667","6500300","中和區"
"235058","151-BY","2018/02/19 18:39:52","新北市中和區圓通路369巷30弄6號","121.4889","24.984505","6500300","中和區"
"235055","183-VK","2018/02/19 18:39:42","新北市中和區民生街28巷12號","121.46987","25.0059116666667","6500300","中和區"
"235038","185-VK","2018/02/19 18:39:43","新北市中和區立人街16號","121.51927","24.994195","6500300","中和區"
"235049","186-VK","2018/02/19 18:39:38","新北市中和區景安路120巷3號","121.505093333333","24.994885","6500300","中和區"
"235067","255-BX","2018/02/19 18:39:50","新北市中和區中正路877巷4號","121.484106666667","25.00401","6500300","中和區"
"235044","293-VK","2018/02/19 18:39:45","新北市中和區復興路280巷24號","121.501935","24.9917633333333","6500300","中和區"
"235072","301-VK","2018/02/19 18:39:37","新北市中和區中山路二段193號","121.499943333333","25.0027033333333","6500300","中和區"
"235043","352-BY","2018/02/19 18:39:41","新北市中和區景平路45號","121.521853333333","24.99055","6500300","中和區"
"235068","377-QA","2018/02/19 18:39:40","新北市中和區中正路175號","121.497496666667","24.9936483333333","6500300","中和區"
"235061","378-QA","2018/02/19 18:39:53","新北市中和區民享街99號","121.47509","24.9998183333333","6500300","中和區"
"235050","4979-A6","2018/02/19 18:39:41","新北市中和區景新街496巷28弄6號","121.513235","24.9858766666667","6500300","中和區"
"235069","4980-A6","2018/02/19 18:39:48","新北市中和區連城路65巷10號","121.497901666667","25.0008516666667","6500300","中和區"
"235042","551-UM","2018/02/19 18:39:49","新北市中和區成功路50號","121.526095","24.992675","6500300","中和區"
"235070","558-UM","2018/02/19 18:39:41","新北市中和區南華路44號","121.503853333333","24.9965033333333","6500300","中和區"
"235045","565-BX","2018/02/19 18:39:44","新北市中和區南山路236巷63弄27號","121.504626666667","24.9879833333333","6500300","中和區"
"235054","640-BX","2018/02/19 18:39:51","新北市中和區民享街32巷15號","121.472965","25.0031033333333","6500300","中和區"
"235060","647-TV","2018/02/19 18:39:41","新北市中和區中山路三段32號","121.479063333333","25.0060033333333","6500300","中和區"
"235047","732-UM","2018/02/19 18:39:54","新北市中和區興南路二段34巷20號","121.506086666667","24.98627","6500300","中和區"
"235046","733-UM","2018/02/19 18:39:56","新北市中和區仁愛街36巷40號","121.511325","24.98649","6500300","中和區"
"235062","800-TS","2018/02/19 18:39:53","新北市中和區中山路二段312巷29-3號","121.495245","25.0037633333333","6500300","中和區"
"235057","801-TS","2018/02/19 18:39:49","新北市中和區員山路327巷18號","121.480816666667","25.001355","6500300","中和區"
"235052","805-TS","2018/02/19 18:39:50","新北市中和區興南路二段341號","121.50167","24.98098","6500300","中和區"
"235048","896-TW","2018/02/19 18:39:52","新北市中和區華新街13號","121.507606666667","24.9850983333333","6500300","中和區"
"235053","900-TW","2018/02/19 18:39:51","新北市中和區華順街105號","121.465241666667","24.9972683333333","6500300","中和區"
"235051","157-BY","2018/02/19 18:39:41","新北市中和區華新街143巷58號","121.506028333333","24.9795316666667","6500300","中和區"
"235001","AAC-213","2018/02/19 18:39:38","新北市中和區景德街56號","121.517433333333","24.991555","6500300","中和區"
"235059","AAC-215","2018/02/19 18:39:40","新北市中和區錦和路354巷5號","121.490258333333","24.9915283333333","6500300","中和區"
"220068","013-TV","2018/02/19 18:39:46","新北市板橋區民生路二段120號","121.47032","25.0196683333333","6500100","板橋區"
"220072","015-TV","2018/02/19 18:39:37","新北市板橋區大觀路三段59巷17弄6-1號","121.437125","24.9953916666667","6500100","板橋區"
"220065","072-UY","2018/02/19 18:39:41","新北市板橋區縣民大道一段94巷2號","121.456356666667","25.0049033333333","6500100","板橋區"
"220086","073-UY","2018/02/19 18:39:50","新北市板橋區大智街71巷8弄18-4號","121.452751666667","25.0155066666667","6500100","板橋區"
"220069","AAD-861","2018/02/19 18:39:50","新北市板橋區板城路407號","121.447441666667","24.9952216666667","6500100","板橋區"
"247004","336-TH","2018/02/19 18:37:24","新北市八里區荖阡坑路34-2號","121.40128","25.13007","6501400","蘆洲區"
"247004","335-TH","2018/02/19 18:39:42","新北市五股區新五路三段202號","121.446003333333","25.0898966666667","6501400","蘆洲區"
"226004","312-R5","2018/02/19 18:39:52","新北市平溪區靜安路二段240號","121.724581666667","25.0220233333333","6502400","平溪區"
"235041","251-BX","2018/02/19 18:39:46","新北市中和區宜安路160號","121.509113333333","24.9988833333333","6500300","中和區"
"228003","097-TW","2018/02/19 18:39:41","新北市貢寮區和美里和美街48號","121.918161666667","25.102745","6502600","貢寮區"
"228002","585-TW","2018/02/19 18:39:54","新北市貢寮區福連里福連街18號","121.98817","25.0127516666667","6502600","貢寮區"
"228001","663-BX","2018/02/19 18:39:52","新北市貢寮區仁理村保健街71號","121.923726666667","25.0516516666667","6502600","貢寮區"
"224010","AGQ-8101","2018/02/19 18:39:54","新北市瑞芳區九份中山巷10號","121.843881666667","25.1074683333333","6501200","瑞芳區"
"224006","676-BX","2018/02/19 18:39:47","新北市瑞芳區明燈路三段55號","121.80604","25.1082083333333","6501200","瑞芳區"
"224002","639-TC","2018/02/19 18:39:36","新北市瑞芳區東和路31號","121.805035","25.106075","6501200","瑞芳區"
"224009","285-BY","2018/02/19 18:39:55","新北市瑞芳區五號路96號","121.854676666667","25.1104233333333","6501200","瑞芳區"
"224008","275-VK","2018/02/19 18:39:48","新北市瑞芳區岳王路37號","121.80795","25.1113783333333","6501200","瑞芳區"
"224007","273-VK","2018/02/19 18:39:43","新北市瑞芳區大埔路227號","121.762423333333","25.1012983333333","6501200","瑞芳區"
"224005","271-BY","2018/02/19 18:39:39","新北市瑞芳區深澳路10-4號","121.81858","25.130015","6501200","瑞芳區"
"227003","642-TC","2018/02/19 18:39:41","新北市雙溪區魚行里坤溪3-5號","121.875145","25.0216116666667","6502500","雙溪區"
"227008","400-TW","2018/02/19 18:39:41","新北市雙溪區牡丹里牡丹227號","121.850858333333","25.05729","6502500","雙溪區"
"253006","295-VK","2018/02/19 18:39:49","新北市石門區公地15號","121.54567","25.290245","6502200","石門區"
"253005","741-TV","2018/02/19 18:39:49","新北市石門區中央路2號","121.564171666667","25.2909216666667","6502200","石門區"
"222001","KEA-2212","2018/02/19 18:39:38","新北市深坑區北深路一段100號","121.635675","25.0106066666667","6501800","深坑區"
"208002","KEA-2872","2018/02/19 18:39:40","新北市金山區忠孝一路3號","121.63939","25.2190916666667","6502700","金山區"
"208003","665-BX","2018/02/19 18:39:35","新北市金山區中山路222號","121.637231666667","25.222005","6502700","金山區"
"208001","761-BX","2018/02/19 18:39:53","新北市金山區文化三路7號","121.63508","25.2249633333333","6502700","金山區"
"251004","009-UM","2018/02/19 18:39:54","新北市淡水區民族路35巷14號","121.465105","25.1373383333333","6501000","淡水區"
"251013","179-VK","2018/02/19 18:39:55","新北市淡水區椿子林19-1號","121.48045","25.2039666666667","6501000","淡水區"
"251014","180-VK","2018/02/19 18:39:52","新北市淡水區崙頂12-8號","121.495558333333","25.217235","6501000","淡水區"
"251008","181-VK","2018/02/19 18:39:57","新北市淡水區北投子17-1號","121.45386","25.1833933333333","6501000","淡水區"
"251015","182-VK","2018/02/19 18:39:40","新北市淡水區樹林口52號","121.485255","25.1627216666667","6501000","淡水區"
"251010","413-VK","2018/02/19 18:39:43","新北市淡水區沙崙路122號","121.423255","25.1827766666667","6501000","淡水區"
"251012","441-VK","2018/02/19 18:39:52","新北市淡水區北新路一段15號","121.453993333333","25.1810366666667","6501000","淡水區"
"251016","442-VK","2018/02/19 18:39:42","新北市淡水區下圭柔山81號","121.438298333333","25.205155","6501000","淡水區"
"251001","559-UM","2018/02/19 18:39:49","新北市淡水區自強路415巷2號","121.465476666667","25.1342033333333","6501000","淡水區"
"251006","561-UM","2018/02/19 18:39:46","新北市淡水區中山北路二段375號","121.444346666667","25.1871516666667","6501000","淡水區"
"251011","650-BX","2018/02/19 18:39:38","新北市淡水區學府路32巷37號","121.448293333333","25.1677666666667","6501000","淡水區"
"251002","672-BX","2018/02/19 18:39:42","新北市淡水區竿蓁二街65號","121.45481","25.1633166666667","6501000","淡水區"
"251003","766-UM","2018/02/19 18:39:51","新北市淡水區北新路69巷24號","121.446858333333","25.1799833333333","6501000","淡水區"
"207003","225-TW","2018/02/19 18:39:53","新北市萬里區野柳里港東路72號","121.687888333333","25.2046866666667","6502800","萬里區"
"252002","178-VK","2018/02/19 18:39:47","新北市三芝區民生街36號","121.50367","25.2561966666667","6502100","三芝區"
"252003","249-BX","2018/02/19 18:39:39","新北市三芝區後厝里北勢子45-14號","121.467656666667","25.2501733333333","6502100","三芝區"
"252001","292-VK","2018/02/19 18:39:39","新北市三芝區中興街二段260號","121.501365","25.2533583333333","6502100","三芝區"
"237004","KEA-2597","2018/02/19 18:39:48","新北市三峽區插角117號","121.408363333333","24.8704216666667","6500900","三峽區"
"237007","153-BY","2018/02/19 18:39:48","新北市三峽區大埔路303號","121.368678333333","24.9025666666667","6500900","三峽區"
"237009","210-TH","2018/02/19 18:39:47","新北市三峽區大同路221巷1號","121.367671666667","24.92691","6500900","三峽區"
"237012","275-BY","2018/02/19 18:39:39","新北市樹林區佳園路三段486號","121.382785","24.9439883333333","6500900","三峽區"
"237008","302-VK","2018/02/19 18:39:52","新北市三峽區白雞57-1號","121.389023333333","24.91231","6500900","三峽區"
"237014","433-BY","2018/02/19 18:39:52","新北市三峽區中山路277巷3號","121.361871666667","24.9371883333333","6500900","三峽區"
"237006","5529-G3","2018/02/19 18:39:44","新北市三峽區溪東路233巷47弄2號","121.410551666667","24.9346533333333","6500900","三峽區"
"237010","706-TV","2018/02/19 18:39:41","新北市三峽區復興路361號","121.363725","24.9385716666667","6500900","三峽區"
"237005","AKY-6261","2018/02/19 18:39:40","新北市三峽區秀川街44巷1號","121.371555","24.934","6500900","三峽區"
"236069","105-UM","2018/02/19 18:39:48","新北市土城區永豐路214-1號","121.467095","24.98276","6501300","土城區"
"236042","107-UM","2018/02/19 18:39:53","新北市土城區裕民路55巷12號","121.449311666667","24.988405","6501300","土城區"
"236078","166-UM","2018/02/19 18:39:37","新北市土城區中央路三段281巷23弄19號","121.426343333333","24.961525","6501300","土城區"
"236030","253-BX","2018/02/19 18:39:57","新北市土城區慶樂街35號","121.437786666667","24.9734316666667","6501300","土城區"
"236026","269-VK","2018/02/19 18:39:41","新北市土城區興城路66號","121.44122","24.9722283333333","6501300","土城區"
"236014","270-VK","2018/02/19 18:39:56","新北市土城區清水路196號","121.460345","24.9818283333333","6501300","土城區"
"236036","271-VK","2018/02/19 18:39:40","新北市土城區明德路一段291巷11弄3號","121.460603333333","24.976595","6501300","土城區"
"236020","401-BY","2018/02/19 18:39:54","新北市土城區延吉街291巷4號","121.467103333333","24.984345","6501300","土城區"
"236058","912-UM","2018/02/19 18:39:54","新北市土城區中央路四段21號","121.42513","24.9625866666667","6501300","土城區"
"236048","913-UM","2018/02/19 18:39:43","新北市土城區金城路三段1號","121.464285","24.98604","6501300","土城區"
"236062","915-UM","2018/02/19 18:39:51","新北市土城區延壽路77巷4弄33號","121.469071666667","24.9933066666667","6501300","土城區"
"236053","AAC-216","2018/02/19 18:39:46","新北市土城區裕民路6-5號","121.446958333333","24.989055","6501300","土城區"
"242058","353-BY","2018/02/19 18:39:38","新北市新莊區中正路879-7號","121.417755","25.0261216666667","6500500","新莊區"
"242007","132-UY","2018/02/19 18:39:57","新北市新莊區自強街59巷9號","121.454255","25.047125","6500500","新莊區"
"238019","599-UM","2018/02/19 18:39:45","新北市樹林區東榮街169號","121.413983333333","24.98143","6500700","樹林區"
"238018","571-TV","2018/02/19 18:39:53","新北市樹林區樹新路107號","121.428061666667","24.9956683333333","6500700","樹林區"
"238024","5061-A6","2018/02/19 18:39:38","新北市樹林區太元街58號","121.418508333333","24.9794516666667","6500700","樹林區"
"238022","KEA-2213","2018/02/19 18:39:40","新北市樹林區中華路379巷5號","121.412573333333","24.9796833333333","6500700","樹林區"
"238025","303-VK","2018/02/19 18:39:39","新北市樹林區中山路三段153-2號","121.395711666667","24.9728633333333","6500700","樹林區"
"238017","283-BY","2018/02/19 18:39:49","新北市樹林區中山路三段214號","121.380191666667","24.9676216666667","6500700","樹林區"
"238014","282-BY","2018/02/19 18:39:46","新北市樹林區大安路111巷25號","121.423271666667","24.9976483333333","6500700","樹林區"
"238020","268-VK","2018/02/19 18:39:54","新北市樹林區俊英街83巷1號","121.425791666667","25.0080316666667","6500700","樹林區"
"238026","172-UY","2018/02/19 18:39:27","新北市樹林區信和街126-1號","121.38761","24.973485","6500700","樹林區"
"238016","169-UY","2018/02/19 18:39:49","新北市樹林區文化街23號","121.41937","24.987535","6500700","樹林區"
"221008","489-VK","2018/02/19 18:39:51","新北市汐止區康寧街901號","121.651345","25.0750183333333","6501100","汐止區"
"221036","130-UY","2018/02/19 18:39:57","新北市汐止區茄苳路3號","121.664525","25.071035","6501100","汐止區"
"221015","131-UY","2018/02/19 18:39:49","新北市汐止區鄉友街5號","121.668058333333","25.08072","6501100","汐止區"
"221010","269-BY","2018/02/19 18:39:54","新北市汐止區汐萬路三段64號","121.644058333333","25.0934533333333","6501100","汐止區"
"221012","278-VK","2018/02/19 18:39:54","新北市汐止區保長路51巷15號","121.673993333333","25.0790716666667","6501100","汐止區"
"221023","279-VK","2018/02/19 18:39:45","新北市汐止區康寧街541巷14號","121.633761666667","25.0693783333333","6501100","汐止區"
"221032","280-BY","2018/02/19 18:39:42","新北市汐止區福山街62巷2號","121.617815","25.0467233333333","6501100","汐止區"
"221027","281-BY","2018/02/19 18:39:53","新北市汐止區和平街84號","121.661476666667","25.0707483333333","6501100","汐止區"
"221029","298-VK","2018/02/19 18:34:49","新北市汐止區樟樹一路268-7號","121.642645","25.0684666666667","6501100","汐止區"
"221021","299-VK","2018/02/19 18:39:41","新北市汐止區復興路69號","121.65724","25.06207","6501100","汐止區"
"221031","353-TW","2018/02/19 18:39:54","新北市汐止區大同路一段286巷18號","121.635298333333","25.05655","6501100","汐止區"
"221035","622-UM","2018/02/19 18:39:56","新北市汐止區大同路二段294號","121.65521","25.066545","6501100","汐止區"
"221025","623-UM","2018/02/19 18:39:54","新北市汐止區仁愛路119巷7號","121.662435","25.0639","6501100","汐止區"
"221038","646-BX","2018/02/19 18:39:55","新北市汐止區忠孝東路428號","121.666111666667","25.07197","6501100","汐止區"
"221033","647-BX","2018/02/19 18:39:43","新北市汐止區宜興街28號","121.621753333333","25.04177","6501100","汐止區"
"221002","707-TV","2018/02/19 18:39:52","新北市汐止區中興路39號","121.634586666667","25.0622366666667","6501100","汐止區"
"221018","753-BX","2018/02/19 18:39:52","新北市汐止區汐萬路一段256巷3號","121.652535","25.07454","6501100","汐止區"
"220079","145-BY","2018/02/19 18:39:55","新北市板橋區民權路101巷2號","121.458911666667","25.0133683333333","6500100","板橋區"
"220080","200-UY","2018/02/19 18:39:46","新北市板橋區大觀路二段265巷76弄35號","121.441175","24.9967366666667","6500100","板橋區"
"220082","610-BX","2018/02/19 18:39:46","新北市板橋區大觀路三段59巷17弄6-1號","121.43704","24.9954","6500100","板橋區"
"220056","276-BY","2018/02/19 18:39:50","新北市板橋區四川路二段113號","121.45152","24.9943216666667","6500100","板橋區"
"220071","283-VK","2018/02/19 18:39:39","新北市板橋區四川路二段橋頭6號","121.448313333333","24.994055","6500100","板橋區"
"220094","285-UM","2018/02/19 18:39:38","新北市板橋區民生路二段161巷1號","121.470091666667","25.0198583333333","6500100","板橋區"
"220053","285-VK","2018/02/19 18:39:49","新北市板橋區民生路二段161巷1號","121.470203333333","25.0199433333333","6500100","板橋區"
"220083","286-VK","2018/02/19 18:39:54","新北市板橋區大觀路二段107號","121.446106666667","25.00172","6500100","板橋區"
"220081","287-VK","2018/02/19 18:39:47","新北市板橋區華東街328號","121.452818333333","25.0033466666667","6500100","板橋區"
"220061","293-UM","2018/02/19 18:39:39","新北市板橋區民生路二段120號","121.470388333333","25.0196883333333","6500100","板橋區"
"220084","296-UM","2018/02/19 18:39:38","新北市板橋區大觀路二段力行1巷3弄2號","121.445421666667","24.9991166666667","6500100","板橋區"
"220075","303-R5","2018/02/19 18:39:55","新北市板橋區南雅南路二段92巷40號","121.45269","25.00222","6500100","板橋區"
"220064","486-VK","2018/02/19 18:39:46","新北市板橋區縣民大道一段300號","121.461323333333","25.0105366666667","6500100","板橋區"
"220035","560-BX","2018/02/19 18:39:40","新北市板橋區南雅西路二段301巷6-2號","121.451856666667","25.0157816666667","6500100","板橋區"
"220063","609-BX","2018/02/19 18:39:54","新北市板橋區民生路二段165號","121.469665","25.0199283333333","6500100","板橋區"
"220057","686-BX","2018/02/19 18:39:49","新北市板橋區華東街1-9號","121.448223333333","24.9949533333333","6500100","板橋區"
"220077","687-BX","2018/02/19 18:39:55","新北市板橋區大觀路二段265巷130弄32號","121.44105","24.9964916666667","6500100","板橋區"
"220054","741-BX","2018/02/19 18:39:48","新北市板橋區華東街1-9號","121.4481","24.9948666666667","6500100","板橋區"
"220055","827-TW","2018/02/19 18:39:43","新北市板橋區南雅南路二段144巷60號","121.45013","24.997275","6500100","板橋區"
"220067","829-TW","2018/02/19 18:39:55","新北市板橋區民生路二段161巷1號","121.470135","25.0199183333333","6500100","板橋區"
"220074","895-R6","2018/02/19 18:39:48","新北市板橋區南雅南路二段138號","121.452101666667","24.9964133333333","6500100","板橋區"
"220073","985-R7","2018/02/19 18:39:42","新北市板橋區南雅南路二段132號","121.452116666667","24.996595","6500100","板橋區"
"220097","AAC-210","2018/02/19 18:39:46","新北市板橋區民生路二段161巷5號","121.470201666667","25.01971","6500100","板橋區"
"220070","AAC-253","2018/02/19 18:39:38","新北市板橋區南雅南路二段144巷60號","121.450235","24.9973733333333","6500100","板橋區"
