"lineid","car","time","location","longitude","latitude","cityid","cityname"
"234046","148-BY","2018/02/19 19:29:37","新北市永和區永元路68號","121.522365","25.00154","6500400","永和區"
"234067","149-BY","2018/02/19 19:29:31","新北市永和區保平路176號","121.510796666667","25.0066516666667","6500400","永和區"
"234007","207-UY","2018/02/19 19:29:34","新北市永和區永和路一段112-1號","121.513475","25.0073083333333","6500400","永和區"
"234081","298-R6","2018/02/19 19:29:38","新北市永和區國中路104巷6號","121.52469","25.006915","6500400","永和區"
"234038","336-UY","2018/02/19 19:29:42","新北市永和區民樂街38號","121.527496666667","25.0007233333333","6500400","永和區"
"234064","337-UY","2018/02/19 19:29:31","新北市永和區中正路368巷1弄88號","121.520573333333","25.0007016666667","6500400","永和區"
"234086","338-UY","2018/02/19 19:29:36","新北市永和區林森路74號","121.523741666667","25.0039116666667","6500400","永和區"
"234070","552-UM","2018/02/19 19:29:36","新北市永和區中正路666巷64號","121.518926666667","25.009025","6500400","永和區"
"234017","745-BX","2018/02/19 19:29:27","新北市永和區環河西路一段1號","121.515185","25.01807","6500400","永和區"
"234030","746-BX","2018/02/19 19:29:34","新北市永和區民生路2號","121.522475","24.9981383333333","6500400","永和區"
"234054","KEA-2590","2018/02/19 19:29:34","新北市永和區復興街20號","121.515945","25.0129133333333","6500400","永和區"
"234013","KEA-2591","2018/02/19 19:29:34","新北市永和區永平路210號","121.509496666667","25.0102133333333","6500400","永和區"
"234061","AAD-866","2018/02/19 19:29:39","新北市永和區中正路504號","121.517441666667","25.0045116666667","6500400","永和區"
"234042","862-TW","2018/02/19 19:29:38","新北市永和區水源街39巷2號","121.51039","25.0041533333333","6500400","永和區"
"234050","863-TW","2018/02/19 19:29:32","新北市永和區信義路84號","121.512491666667","25.01346","6500400","永和區"
"234026","9371-KE","2018/02/19 19:29:34","新北市中和區安樂路255號","121.514041666667","24.9999216666667","6500400","永和區"
"234011","9373-KE","2018/02/19 19:29:47","新北市永和區保福路二段9巷9號","121.510615","25.0108683333333","6500400","永和區"
"249003","593-UM","2018/02/19 19:29:31","新北市八里區中山路二段500巷30號","121.39713","25.147905","6502300","八里區"
"248014","025-BX","2018/02/19 19:29:40","新北市五股區工商路166號","121.433656666667","25.0882133333333","6501500","五股區"
"248008","095-VK","2018/02/19 19:29:35","新北市五股區中興路一段95巷15號","121.466566666667","25.07232","6501500","五股區"
"248018","225-UY","2018/02/19 19:29:46","新北市五股區民義路一段255-6號","121.426","25.0914933333333","6501500","五股區"
"248012","247-BX","2018/02/19 19:29:33","新北市五股區成泰路二段97號","121.43801","25.0842833333333","6501500","五股區"
"248004","677-BX","2018/02/19 19:29:34","新北市五股區工商路148-1號","121.433868333333","25.0872666666667","6501500","五股區"
"248002","678-BX","2018/02/19 19:29:39","新北市五股區凌雲路一段158巷14號","121.447838333333","25.1033916666667","6501500","五股區"
"248010","682-TV","2018/02/19 19:29:43","新北市五股區水碓一路23號","121.430585","25.0712766666667","6501500","五股區"
"234023","9380-KE","2018/02/19 19:29:41","新北市永和區竹林路91巷43弄2號","121.521281666667","25.012785","6500400","永和區"
"234077","969-R7","2018/02/19 19:29:42","新北市永和區民治街29號","121.519691666667","24.9976566666667","6500400","永和區"
"234074","AAC-211","2018/02/19 19:29:40","新北市永和區竹林路9號","121.516568333333","25.01491","6500400","永和區"
"234003","AAC-295","2018/02/19 19:29:48","新北市永和區福和路387號","121.514186666667","25.0077366666667","6500400","永和區"
"244019","402-UM","2018/02/19 19:29:36","新北市林口區四維路116號","121.377485","25.0780533333333","6501700","林口區"
"244023","483-VK","2018/02/19 19:29:30","新北市林口區文化三路二段63號","121.373875","25.0796833333333","6501700","林口區"
"243003","267-VK","2018/02/19 19:29:43","新北市泰山區全興路13號","121.432298333333","25.0589316666667","6501600","泰山區"
"243011","297-R6","2018/02/19 19:29:45","新北市泰山區貴子路67巷4弄4號","121.431008333333","25.0404416666667","6501600","泰山區"
"243015","380-SR","2018/02/19 19:29:42","新北市泰山區明志路二段134號","121.42743","25.0512683333333","6501600","泰山區"
"243014","421-VK","2018/02/19 19:29:38","新北市泰山區泰林路二段33-7號","121.435205","25.0564216666667","6501600","泰山區"
"243012","539-UM","2018/02/19 19:29:29","新北市泰山區仁武街21號","121.433575","25.054695","6501600","泰山區"
"243010","KEA-2215","2018/02/19 19:29:41","新北市泰山區民生路17巷33號","121.429566666667","25.0516483333333","6501600","泰山區"
"243009","KEA-2216","2018/02/19 19:29:36","新北市泰山區美寧街58號","121.430683333333","25.0646816666667","6501600","泰山區"
"243013","646-TV","2018/02/19 19:29:37","新北市泰山區明志路三段44號","121.424858333333","25.042535","6501600","泰山區"
"243016","680-BX","2018/02/19 19:29:36","新北市泰山區明志路三段427號","121.421115","25.0329916666667","6501600","泰山區"
"222003","436-BY","2018/02/19 19:29:35","新北市深坑區深南路88巷1號","121.621181666667","25.01179","6501800","深坑區"
"222002","659-BX","2018/02/19 19:29:42","新北市深坑區深南路51-1號","121.621318333333","25.010245","6501800","深坑區"
"231041","002-UM","2018/02/19 19:29:30","新北市新店區中正路545號","121.533781666667","24.9876116666667","6500600","新店區"
"231059","046-UY","2018/02/19 19:29:36","新北市新店區安和路三段85號","121.517798333333","24.9838683333333","6500600","新店區"
"231061","047-UY","2018/02/19 19:29:39","新北市新店區安民街48號","121.51618","24.965705","6500600","新店區"
"231060","106-UY","2018/02/19 19:29:37","新北市新店區安康路二段86號","121.51393","24.96319","6500600","新店區"
"231051","107-UY","2018/02/19 19:29:29","新北市新店區中央路95巷2號","121.531423333333","24.9749366666667","6500600","新店區"
"231047","108-UY","2018/02/19 19:29:26","新北市新店區五峰路63巷8弄72號","121.547958333333","24.96855","6500600","新店區"
"231052","187-VK","2018/02/19 19:29:33","新北市新店區新烏路二段212-1號","121.547483333333","24.9160083333333","6500600","新店區"
"231050","KEA-2219","2018/02/19 19:29:34","新北市新店區秀水路11號","121.55479","24.9546283333333","6500600","新店區"
"231057","256-BX","2018/02/19 19:29:36","新北市新店區花園一路二段11-2號","121.550451666667","24.9335016666667","6500600","新店區"
"231046","278-BY","2018/02/19 19:29:28","新北市新店區光明街151號","121.539448333333","24.9623033333333","6500600","新店區"
"231054","AAD-862","2018/02/19 19:29:32","新北市新店區文中路51號","121.53979","24.9566316666667","6500600","新店區"
"231056","3713-VJ","2018/02/19 19:29:45","新北市新店區力行路96號","121.538141666667","24.967035","6500600","新店區"
"231055","4716-K9","2018/02/19 19:29:42","新北市新店區力行路96號","121.538153333333","24.9669533333333","6500600","新店區"
"231065","512-UM","2018/02/19 19:29:26","新北市新店區安祥路109巷1弄1號","121.475523333333","24.9593733333333","6500600","新店區"
"231049","513-UM","2018/02/19 19:29:41","新北市新店區北新路三段65巷34弄2號","121.540115","24.9812","6500600","新店區"
"231064","515-UM","2018/02/19 19:29:30","新北市新店區安和路二段1號","121.51785","24.967115","6500600","新店區"
"231040","619-UM","2018/02/19 19:29:41","新北市新店區北新路一段235號","121.54073","24.9656416666667","6500600","新店區"
"231042","641-BX","2018/02/19 19:29:39","新北市新店區中興路一段216號","121.543923333333","24.9657233333333","6500600","新店區"
"231063","645-TV","2018/02/19 19:29:29","新北市新店區達觀路16號","121.503078333333","24.9407516666667","6500600","新店區"
"231062","720-UM","2018/02/19 19:29:41","新北市新店區秀山路14號","121.532551666667","24.9601733333333","6500600","新店區"
"231044","897-TW","2018/02/19 19:29:41","新北市新店區中興路三段173號","121.544241666667","24.980595","6500600","新店區"
"231045","898-TW","2018/02/19 19:29:35","新北市新店區北宜路二段213號","121.55322","24.9532666666667","6500600","新店區"
"231043","899-TW","2018/02/19 19:29:25","新北市新店區北新路二段125號","121.542963333333","24.97515","6500600","新店區"
"231066","AKT-0513","2018/02/19 19:29:38","新北市新店區安康路二段341巷4號","121.496768333333","24.9549816666667","6500600","新店區"
"241008","059-VK","2018/02/19 19:29:31","新北市三重區車路頭街135-1號","121.484271666667","25.0761216666667","6500200","三重區"
"241015","062-VK","2018/02/19 19:29:42","新北市三重區福德北路83號","121.501886666667","25.0659483333333","6500200","三重區"
"241026","066-VK","2018/02/19 19:29:25","新北市三重區同安東街39號","121.497973333333","25.057235","6500200","三重區"
"241002","090-VK","2018/02/19 19:29:29","新北市三重區仁義街211巷33號","121.49772","25.08239","6500200","三重區"
"241005","262-UM","2018/02/19 19:29:30","新北市三重區溪尾街325巷25號","121.488555","25.083325","6500200","三重區"
"241016","265-UM","2018/02/19 19:29:32","新北市三重區正義北路36巷24號","121.49633","25.063275","6500200","三重區"
"241018","268-UM","2018/02/19 19:29:32","新北市三重區正義北路244巷94號","121.493453333333","25.0675","6500200","三重區"
"241025","271-UM","2018/02/19 19:29:42","新北市三重區頂崁街210巷28弄3號","121.47588","25.06762","6500200","三重區"
"241007","398-BY","2018/02/19 19:29:35","新北市三重區溪尾街124-1號","121.48941","25.0793916666667","6500200","三重區"
"241035","462-BY","2018/02/19 19:29:33","新北市三重區信義西街40號","121.49824","25.064645","6500200","三重區"
"241024","478-VK","2018/02/19 19:29:42","新北市三重區中正北路193巷35弄69號","121.478656666667","25.0713616666667","6500200","三重區"
"241014","543-UM","2018/02/19 19:29:30","新北市三重區三和路二段35-1號","121.500956666667","25.0673083333333","6500200","三重區"
"241001","547-UM","2018/02/19 19:29:34","新北市三重區福隆路15號","121.489818333333","25.0772166666667","6500200","三重區"
"241019","KEA-2593","2018/02/19 19:29:34","新北市三重區自強路二段67巷15號","121.489375","25.0703066666667","6500200","三重區"
"241012","941-UM","2018/02/19 19:29:29","新北市三重區仁興街42巷7號","121.498583333333","25.07557","6500200","三重區"
"241029","942-UM","2018/02/19 19:29:35","新北市三重區光明路67號","121.491825","25.0575383333333","6500200","三重區"
"235064","005-UY","2018/02/19 19:29:40","新北市中和區南山路131-10號","121.502251666667","24.9964683333333","6500300","中和區"
"235063","006-UY","2018/02/19 19:29:28","新北市中和區連城路164號","121.494133333333","24.9976483333333","6500300","中和區"
"235056","096-UM","2018/02/19 19:29:31","新北市中和區民富街44號","121.476676666667","25.0068583333333","6500300","中和區"
"235039","097-UM","2018/02/19 19:29:41","新北市中和區秀峰街87號","121.521331666667","24.99023","6500300","中和區"
"235065","098-UM","2018/02/19 19:29:46","新北市中和區中山路二段2巷45弄5號","121.502463333333","25.00652","6500300","中和區"
"235040","150-BY","2018/02/19 19:29:37","新北市中和區保健路67巷7號","121.509945","24.9975983333333","6500300","中和區"
"235058","151-BY","2018/02/19 19:29:32","新北市中和區員山路36巷16-2號","121.485305","24.9915583333333","6500300","中和區"
"235055","183-VK","2018/02/19 19:29:42","新北市中和區國光街102巷40號","121.471221666667","25.0005966666667","6500300","中和區"
"235038","185-VK","2018/02/19 19:29:42","新北市中和區自立路29巷8號","121.522643333333","24.9958016666667","6500300","中和區"
"235049","186-VK","2018/02/19 19:29:38","新北市中和區景新街218號","121.50714","24.9950833333333","6500300","中和區"
"235067","255-BX","2018/02/19 19:29:30","新北市中和區新生街242巷11弄1號","121.482978333333","24.9976583333333","6500300","中和區"
"235044","293-VK","2018/02/19 19:29:45","新北市中和區捷運路151號","121.506593333333","24.9911216666667","6500300","中和區"
"235072","301-VK","2018/02/19 19:29:37","新北市中和區錦和路91-1號","121.490101666667","24.9957183333333","6500300","中和區"
"235043","352-BY","2018/02/19 19:29:40","新北市中和區南山路78號","121.502548333333","24.9952516666667","6500300","中和區"
"235068","377-QA","2018/02/19 19:29:40","新北市中和區圓通路158巷1弄9號","121.497403333333","24.996035","6500300","中和區"
"235061","378-QA","2018/02/19 19:29:32","新北市中和區民利街9巷2弄4號","121.480586666667","24.9986933333333","6500300","中和區"
"235071","269-TV","2018/02/19 19:29:43","新北市中和區連城路469巷21弄22號","121.484266666667","24.99506","6500300","中和區"
"235050","4979-A6","2018/02/19 19:29:41","新北市中和區中正路637巷60弄61號","121.485453333333","24.9926616666667","6500300","中和區"
"235042","551-UM","2018/02/19 19:29:29","新北市中和區中和路378巷14弄17號","121.511045","25.001365","6500300","中和區"
"235070","558-UM","2018/02/19 19:29:41","新北市中和區中和路81號","121.500956666667","25.0007833333333","6500300","中和區"
"235045","565-BX","2018/02/19 19:29:44","新北市中和區景新街383巷38號","121.513815","24.9907366666667","6500300","中和區"
"235054","640-BX","2018/02/19 19:29:30","新北市中和區國光街112巷11弄1號","121.469705","25.0016516666667","6500300","中和區"
"235060","647-TV","2018/02/19 19:29:41","新北市中和區員山路266巷31號","121.48253","25.0017883333333","6500300","中和區"
"235047","732-UM","2018/02/19 19:29:34","新北市中和區仁愛街6號","121.510591666667","24.9892333333333","6500300","中和區"
"235046","733-UM","2018/02/19 19:29:36","新北市中和區忠孝街39-4號","121.51179","24.98392","6500300","中和區"
"235057","801-TS","2018/02/19 19:29:29","新北市中和區中山路三段2號","121.47979","25.006095","6500300","中和區"
"235052","805-TS","2018/02/19 19:29:30","新北市中和區華新街143巷51號","121.506326666667","24.9802416666667","6500300","中和區"
"235048","896-TW","2018/02/19 19:29:45","新北市中和區忠孝街1巷2-1號","121.509151666667","24.98303","6500300","中和區"
"235053","900-TW","2018/02/19 19:29:32","新北市中和區華順街30巷2號","121.466751666667","24.99886","6500300","中和區"
"235051","157-BY","2018/02/19 19:29:41","新北市中和區景新街226號","121.508006666667","24.99442","6500300","中和區"
"235037","AAC-213","2018/02/19 19:29:38","新北市中和區秀朗路三段10巷14弄13號","121.524746666667","24.996535","6500300","中和區"
"235059","AAC-215","2018/02/19 19:29:40","新北市中和區圓通路252-3號","121.493683333333","24.9910866666667","6500300","中和區"
"220068","013-TV","2018/02/19 19:29:46","新北市板橋區翠華街6巷105號","121.481875","25.0252933333333","6500100","板橋區"
"220072","015-TV","2018/02/19 19:29:37","新北市板橋區篤行路二段141巷8號","121.430046666667","24.987865","6500100","板橋區"
"220065","072-UY","2018/02/19 19:29:41","新北市板橋區國泰街75巷28弄62號","121.467415","25.0045633333333","6500100","板橋區"
"220086","073-UY","2018/02/19 19:29:45","新北市板橋區中正路236巷118號","121.459398333333","25.019525","6500100","板橋區"
"220106","075-UY","2018/02/19 19:29:40","新北市板橋區江寧路三段117號","121.473198333333","25.03303","6500100","板橋區"
"220069","AAD-861","2018/02/19 19:29:32","新北市板橋區稚暉街25號","121.45666","25.0042233333333","6500100","板橋區"
"220090","120-SR","2018/02/19 19:29:47","新北市板橋區裕民街92號","121.4603","25.0281033333333","6500100","板橋區"
"247008","341-TH","2018/02/19 19:29:05","新北市蘆洲區中山一路176號","121.474111666667","25.0812933333333","6501400","蘆洲區"
"247004","337-TH","2018/02/19 19:29:37","新北市蘆洲區長安街150號","121.459921666667","25.0822883333333","6501400","蘆洲區"
"247004","336-TH","2018/02/19 19:29:48","新北市五股區中興路二段182巷3號","121.455648333333","25.07804","6501400","蘆洲區"
"247002","335-TH","2018/02/19 19:29:40","新北市五股區成泰路三段454號","121.451308333333","25.1001716666667","6501400","蘆洲區"
"247006","053-VK","2018/02/19 19:29:32","新北市五股區中興路三段188號","121.444391666667","25.0812433333333","6501400","蘆洲區"
"226004","312-R5","2018/02/19 19:29:32","新北市平溪區望古里望古坑2號","121.752921666667","25.026995","6502400","平溪區"
"235041","251-BX","2018/02/19 19:29:46","新北市中和區中和路324巷7弄7號","121.510428333333","25.0009716666667","6500300","中和區"
"228003","097-TW","2018/02/19 19:29:41","新北市貢寮區和美里和美街19-2號","121.912728333333","25.0826433333333","6502600","貢寮區"
"228002","585-TW","2018/02/19 19:29:34","新北市貢寮區龍門里龍門街60-1號","121.932601666667","25.0267183333333","6502600","貢寮區"
"228001","663-BX","2018/02/19 19:29:32","新北市貢寮區真理里延平街68-1號","121.925391666667","25.0574416666667","6502600","貢寮區"
"224010","AGQ-8101","2018/02/19 19:29:34","新北市瑞芳區汽車路9號","121.845626666667","25.1098566666667","6501200","瑞芳區"
"224006","676-BX","2018/02/19 19:29:47","新北市瑞芳區三爪子坑路124號","121.806003333333","25.1055716666667","6501200","瑞芳區"
"224009","285-BY","2018/02/19 19:29:44","新北市瑞芳區洞頂路101巷13號","121.860685","25.1208033333333","6501200","瑞芳區"
"224008","275-VK","2018/02/19 19:29:28","新北市瑞芳區一坑路317-2號","121.801473333333","25.1090083333333","6501200","瑞芳區"
"224005","271-BY","2018/02/19 19:29:40","新北市瑞芳區瑞濱路20-1號","121.826026666667","25.121195","6501200","瑞芳區"
"227003","642-TC","2018/02/19 19:29:41","新北市雙溪區雙溪里光復街20號","121.865156666667","25.035465","6502500","雙溪區"
"227008","400-TW","2018/02/19 19:29:41","新北市雙溪區新基里新基北街43號","121.868148333333","25.0397133333333","6502500","雙溪區"
"253006","295-VK","2018/02/19 19:29:29","新北市石門區崁子腳61-1號","121.532481666667","25.2875933333333","6502200","石門區"
"253005","741-TV","2018/02/19 19:29:29","新北市石門區阿里荖18-3號","121.607711666667","25.2804466666667","6502200","石門區"
"222001","KEA-2212","2018/02/19 19:29:38","新北市深坑區北深路二段121號","121.616715","25.0030466666667","6501800","深坑區"
"208002","KEA-2872","2018/02/19 19:29:40","新北市金山區仁愛路78巷6號","121.634901666667","25.221675","6502700","金山區"
"208003","665-BX","2018/02/19 19:29:35","新北市金山區仁愛路66號","121.635025","25.221115","6502700","金山區"
"208001","761-BX","2018/02/19 19:29:33","新北市金山區民生路69號","121.640175","25.219695","6502700","金山區"
"251009","008-UM","2018/02/19 19:29:44","新北市淡水區大忠街5巷8號","121.443346666667","25.176525","6501000","淡水區"
"251013","179-VK","2018/02/19 19:29:34","新北市淡水區頂田寮路147號","121.462361666667","25.2164466666667","6501000","淡水區"
"251014","180-VK","2018/02/19 19:29:32","新北市淡水區小中寮19-7號","121.484756666667","25.2296466666667","6501000","淡水區"
"251015","182-VK","2018/02/19 19:29:40","新北市淡水區山子邊3號","121.4843","25.18396","6501000","淡水區"
"251010","413-VK","2018/02/19 19:29:43","新北市淡水區淡海路242號","121.42015","25.1867383333333","6501000","淡水區"
"251012","441-VK","2018/02/19 19:29:32","新北市淡水區中山北路三段164號","121.445728333333","25.1965483333333","6501000","淡水區"
"251016","442-VK","2018/02/19 19:29:42","新北市淡水區淡金路三段350巷18號","121.450748333333","25.20839","6501000","淡水區"
"251005","443-VK","2018/02/19 19:29:31","新北市淡水區水源街一段51號","121.443991666667","25.1723366666667","6501000","淡水區"
"251001","559-UM","2018/02/19 19:29:29","新北市淡水區民權路139號","121.460225","25.1364933333333","6501000","淡水區"
"251006","561-UM","2018/02/19 19:29:46","新北市淡水區大義街40號","121.442121666667","25.1784116666667","6501000","淡水區"
"251007","577-R6","2018/02/19 19:29:26","新北市淡水區民生路117巷46號","121.46491","25.140055","6501000","淡水區"
"251011","650-BX","2018/02/19 19:29:43","新北市淡水區中正東路二段161巷11弄22號","121.46065","25.1456116666667","6501000","淡水區"
"251003","766-UM","2018/02/19 19:29:31","新北市淡水區中山北路三段16巷20號","121.443773333333","25.18987","6501000","淡水區"
"207003","225-TW","2018/02/19 19:29:27","新北市萬里區大鵬里萬里加投153-1號","121.645163333333","25.2137766666667","6502800","萬里區"
"252002","178-VK","2018/02/19 19:29:27","新北市三芝區淡金路二段18-1號","121.502681666667","25.2595566666667","6502100","三芝區"
"252003","249-BX","2018/02/19 19:29:39","新北市三芝區錫板里南勢崗6號","121.479548333333","25.261995","6502100","三芝區"
"252001","292-VK","2018/02/19 19:29:40","新北市三芝區長勤街39號","121.500781666667","25.2554416666667","6502100","三芝區"
"237004","KEA-2597","2018/02/19 19:29:28","新北市三峽區有木205號","121.439113333333","24.851985","6500900","三峽區"
"237007","153-BY","2018/02/19 19:29:28","新北市三峽區二鬮路136巷20弄83號","121.358245","24.9092633333333","6500900","三峽區"
"237009","210-TH","2018/02/19 19:29:27","新北市三峽區中園街69號","121.36816","24.9256416666667","6500900","三峽區"
"237012","275-BY","2018/02/19 19:29:38","新北市三峽區安溪路324號","121.370906666667","24.92822","6500900","三峽區"
"237008","302-VK","2018/02/19 19:29:31","新北市三峽區永安街180號","121.373513333333","24.928155","6500900","三峽區"
"237014","433-BY","2018/02/19 19:29:32","新北市三峽區添福13-16號","121.374325","24.90725","6500900","三峽區"
"237006","5529-G3","2018/02/19 19:29:44","新北市三峽區中正路一段330-10號","121.369888333333","24.9246333333333","6500900","三峽區"
"237005","AKY-6261","2018/02/19 19:29:40","新北市三峽區文化路117號","121.370146666667","24.93611","6500900","三峽區"
"236069","105-UM","2018/02/19 19:29:36","新北市土城區裕民路185巷6弄3號","121.45423","24.9844566666667","6501300","土城區"
"236078","166-UM","2018/02/19 19:29:39","新北市土城區龍泉路39-2號","121.414813333333","24.9438066666667","6501300","土城區"
"236026","269-VK","2018/02/19 19:29:38","新北市土城區中央路二段61巷20號","121.443225","24.978955","6501300","土城區"
"236020","401-BY","2018/02/19 19:29:34","新北市土城區明峰街83號","121.468913333333","24.9873716666667","6501300","土城區"
"236058","912-UM","2018/02/19 19:29:34","新北市土城區中央路二段63號","121.442606666667","24.979005","6501300","土城區"
"236048","913-UM","2018/02/19 19:29:43","新北市土城區清水路262號","121.461596666667","24.9832116666667","6501300","土城區"
"242044","497-BY","2018/02/19 19:29:36","新北市新莊區新北大道七段365號","121.412346666667","25.026725","6500500","新莊區"
"242009","173-VK","2018/02/19 19:29:37","新北市新莊區三和路12-21號","121.441835","25.0387866666667","6500500","新莊區"
"238015","755-BX","2018/02/19 19:29:45","新北市樹林區日新街117號","121.421325","24.9896283333333","6500700","樹林區"
"238019","599-UM","2018/02/19 19:29:38","新北市樹林區八德街1號","121.417708333333","24.984655","6500700","樹林區"
"238018","571-TV","2018/02/19 19:29:33","新北市樹林區八德街262-1號","121.41748","24.9720866666667","6500700","樹林區"
"238024","5061-A6","2018/02/19 19:29:37","新北市樹林區山佳街19號","121.393801666667","24.9727983333333","6500700","樹林區"
"238021","KEA-2217","2018/02/19 19:29:39","新北市樹林區大義路392號","121.376633333333","24.9497966666667","6500700","樹林區"
"238022","KEA-2213","2018/02/19 19:29:40","新北市樹林區名園街64號","121.419993333333","24.9780433333333","6500700","樹林區"
"238025","303-VK","2018/02/19 19:29:39","新北市樹林區中山路二段10號","121.41762","24.9851183333333","6500700","樹林區"
"238017","283-BY","2018/02/19 19:29:29","新北市樹林區保安街二段107巷1弄5號","121.415108333333","25.00093","6500700","樹林區"
"238014","282-BY","2018/02/19 19:29:46","新北市樹林區保安二街64巷25號","121.424471666667","24.9965916666667","6500700","樹林區"
"238020","268-VK","2018/02/19 19:29:34","新北市樹林區中正路241號","121.430181666667","24.9988566666667","6500700","樹林區"
"238026","172-UY","2018/02/19 19:29:47","新北市樹林區佳園路二段15巷9弄3號","121.39369","24.9632883333333","6500700","樹林區"
"238016","169-UY","2018/02/19 19:29:30","新北市樹林區大安路592號","121.411398333333","24.9831383333333","6500700","樹林區"
"221008","489-VK","2018/02/19 19:29:33","新北市汐止區明峰街317號","121.625283333333","25.06699","6501100","汐止區"
"221036","130-UY","2018/02/19 19:29:36","新北市汐止區仁愛路324號","121.664348333333","25.0679066666667","6501100","汐止區"
"221015","131-UY","2018/02/19 19:29:29","新北市汐止區汐萬路一段306號","121.650368333333","25.0746266666667","6501100","汐止區"
"221010","269-BY","2018/02/19 19:29:34","新北市汐止區連峰街5巷1號","121.646591666667","25.0767966666667","6501100","汐止區"
"221012","278-VK","2018/02/19 19:29:37","新北市汐止區大同路三段174號","121.674055","25.0749966666667","6501100","汐止區"
"221023","279-VK","2018/02/19 19:29:45","新北市汐止區中興路270號","121.628835","25.0688566666667","6501100","汐止區"
"221032","280-BY","2018/02/19 19:29:42","新北市汐止區汐萬路一段256巷3號","121.652553333333","25.0745416666667","6501100","汐止區"
"221027","281-BY","2018/02/19 19:29:33","新北市汐止區忠孝東路9號","121.658288333333","25.0659466666667","6501100","汐止區"
"221029","298-VK","2018/02/19 19:14:49","新北市汐止區康寧街901號","121.651446666667","25.0749433333333","6501100","汐止區"
"221031","353-TW","2018/02/19 19:29:34","新北市汐止區福德一路86巷38號","121.637758333333","25.0694116666667","6501100","汐止區"
"221025","623-UM","2018/02/19 19:29:30","新北市汐止區新台五路二段36號","121.660845","25.0652916666667","6501100","汐止區"
"221038","646-BX","2018/02/19 19:29:35","新北市汐止區大同路二段370號","121.657755","25.0671633333333","6501100","汐止區"
"221033","647-BX","2018/02/19 19:29:43","新北市汐止區南勢街1巷1號","121.627098333333","25.0374616666667","6501100","汐止區"
"221002","707-TV","2018/02/19 19:29:32","新北市汐止區大同路一段337巷17弄1號","121.637308333333","25.0599266666667","6501100","汐止區"
"220079","145-BY","2018/02/19 19:29:33","新北市板橋區復興街76號","121.459253333333","25.0176133333333","6500100","板橋區"
"220080","200-UY","2018/02/19 19:29:26","新北市板橋區大觀路二段37巷180號","121.449578333333","25.0021583333333","6500100","板橋區"
"220082","610-BX","2018/02/19 19:29:36","新北市板橋區金門街81號","121.433203333333","24.9926083333333","6500100","板橋區"
"220101","245-BX","2018/02/19 19:29:40","新北市板橋區莊敬路220巷60號","121.471488333333","25.0207633333333","6500100","板橋區"
"220056","276-BY","2018/02/19 19:29:30","新北市板橋區信義路1巷26弄30號","121.458333333333","24.9965616666667","6500100","板橋區"
"220071","283-VK","2018/02/19 19:29:41","新北市板橋區忠孝路24巷24號","121.46025","25.0008866666667","6500100","板橋區"
"220094","285-UM","2018/02/19 19:29:43","新北市板橋區松江街124巷7號","121.469523333333","25.0302783333333","6500100","板橋區"
"220053","285-VK","2018/02/19 19:29:30","新北市板橋區富山街53巷1弄22號","121.477841666667","25.02034","6500100","板橋區"
"220083","286-VK","2018/02/19 19:29:34","新北市板橋區龍興街73巷53號","121.44172","25.00303","6500100","板橋區"
"220081","287-VK","2018/02/19 19:29:27","新北市板橋區南雅南路一段106號","121.454936666667","25.0043433333333","6500100","板橋區"
"220061","293-UM","2018/02/19 19:29:41","新北市板橋區中山路二段181號","121.476045","25.01706","6500100","板橋區"
"220084","296-UM","2018/02/19 19:29:38","新北市板橋區滿平街84巷120弄23號","121.426325","24.9856033333333","6500100","板橋區"
"220075","303-R5","2018/02/19 19:29:41","新北市板橋區中正路289巷25號","121.454716666667","25.0189366666667","6500100","板橋區"
"220062","305-R5","2018/02/19 19:29:26","新北市板橋區三民路二段81巷41號","121.480666666667","25.0169416666667","6500100","板橋區"
"220092","307-R5","2018/02/19 19:29:32","新北市板橋區光武街2巷24號","121.46863","25.02543","6500100","板橋區"
"220098","317-R6","2018/02/19 19:29:46","新北市板橋區民生路三段299巷6號","121.463116666667","25.0304883333333","6500100","板橋區"
"220064","486-VK","2018/02/19 19:29:26","新北市板橋區館前東路5號","121.45976","25.0073083333333","6500100","板橋區"
"220089","487-VK","2018/02/19 19:29:44","新北市板橋區文化路一段113號","121.461741666667","25.01482","6500100","板橋區"
"242031","280-VK","2018/02/19 19:29:35","新北市新莊區新泰路225巷2號","121.445938333333","25.03921","6500500","新莊區"
"220088","491-VK","2018/02/19 19:29:37","新北市板橋區文化路二段366號","121.473185","25.03074","6500100","板橋區"
"220035","560-BX","2018/02/19 19:29:40","新北市板橋區英士路190巷2號","121.458076666667","25.0224116666667","6500100","板橋區"
"220103","561-BX","2018/02/19 19:29:45","新北市板橋區文化路一段290號","121.467521666667","25.0214166666667","6500100","板橋區"
"220063","609-BX","2018/02/19 19:29:36","新北市板橋區中山路二段529號","121.483365","25.0213283333333","6500100","板橋區"
"220091","637-BX","2018/02/19 19:29:39","新北市板橋區文聖街135巷15號","121.478751666667","25.0288866666667","6500100","板橋區"
"220057","686-BX","2018/02/19 19:29:29","新北市板橋區和平路23號","121.459521666667","24.9952433333333","6500100","板橋區"
"220077","687-BX","2018/02/19 19:29:43","新北市板橋區僑中二街124巷2號","121.445538333333","25.0055216666667","6500100","板橋區"
"220093","689-BX","2018/02/19 19:29:24","新北市板橋區新海路387號","121.458991666667","25.0261866666667","6500100","板橋區"
"220054","741-BX","2018/02/19 19:29:28","新北市板橋區光明街1號","121.460101666667","25.0024683333333","6500100","板橋區"
"220102","KEA-2699","2018/02/19 19:29:35","新北市板橋區松柏街22巷36號","121.475048333333","25.0289266666667","6500100","板橋區"
"220055","827-TW","2018/02/19 19:29:43","新北市板橋區國慶路149巷6號","121.461275","24.9969016666667","6500100","板橋區"
"220067","829-TW","2018/02/19 19:29:48","新北市板橋區漢生東路313巷26號","121.472866666667","25.0084916666667","6500100","板橋區"
"220096","830-TW","2018/02/19 19:29:41","新北市板橋區雙十路二段47巷9號","121.476035","25.025935","6500100","板橋區"
"220074","895-R6","2018/02/19 19:29:46","新北市板橋區民權路172巷2號","121.459793333333","25.013315","6500100","板橋區"
"220073","985-R7","2018/02/19 19:29:42","新北市板橋區國光路33號","121.457255","25.0175916666667","6500100","板橋區"
"220097","AAC-210","2018/02/19 19:29:46","新北市板橋區新海路53號","121.462116666667","25.0212283333333","6500100","板橋區"
"220070","AAC-253","2018/02/19 19:29:40","新北市板橋區民族路230號","121.468878333333","25.00734","6500100","板橋區"
