"lineid","car","time","location","longitude","latitude","cityid","cityname"
"234067","149-BY","2018/02/19 20:09:31","新北市永和區保平路236巷12弄4號","121.508706666667","25.006485","6500400","永和區"
"234007","207-UY","2018/02/19 20:09:14","新北市永和區保順路37巷16號","121.502915","25.01041","6500400","永和區"
"234081","298-R6","2018/02/19 20:09:18","新北市永和區國中路130號","121.52356","25.0069016666667","6500400","永和區"
"234038","336-UY","2018/02/19 20:09:16","新北市永和區成功路一段113號","121.526901666667","25.0022166666667","6500400","永和區"
"234064","337-UY","2018/02/19 20:09:31","新北市永和區永利路96號","121.520851666667","25.00363","6500400","永和區"
"234086","338-UY","2018/02/19 20:09:24","新北市永和區福和路127號","121.521515","25.0077833333333","6500400","永和區"
"234070","552-UM","2018/02/19 20:09:16","新北市永和區大新街69巷6號","121.51724","25.0082883333333","6500400","永和區"
"234017","745-BX","2018/02/19 20:09:26","新北市永和區永和路二段245號","121.515701666667","25.0149716666667","6500400","永和區"
"234030","746-BX","2018/02/19 20:09:13","新北市永和區民族街178巷1號","121.518236666667","24.9973216666667","6500400","永和區"
"234054","KEA-2590","2018/02/19 20:09:34","新北市永和區博愛街17號","121.517298333333","25.0158666666667","6500400","永和區"
"234013","KEA-2591","2018/02/19 20:09:14","新北市永和區保生路5巷1號","121.506225","25.0070983333333","6500400","永和區"
"234061","AAD-866","2018/02/19 20:09:19","新北市永和區安樂路58巷16號","121.515355","24.998195","6500400","永和區"
"234042","862-TW","2018/02/19 20:09:22","新北市永和區雙和街30號","121.50892","25.0027416666667","6500400","永和區"
"234050","863-TW","2018/02/19 20:09:35","新北市永和區環河西路二段101號","121.506425","25.0147433333333","6500400","永和區"
"234026","9371-KE","2018/02/19 20:09:14","新北市永和區仁愛路301號","121.503905","25.0081166666667","6500400","永和區"
"234011","9373-KE","2018/02/19 20:09:27","新北市永和區仁愛路352巷112弄12號","121.501146666667","25.0085416666667","6500400","永和區"
"249005","172-UM","2018/02/19 20:09:32","新北市八里區下罟子48號","121.384455","25.1365516666667","6502300","八里區"
"249001","173-UM","2018/02/19 20:09:34","新北市八里區中華路二段316號","121.403568333333","25.14817","6502300","八里區"
"249004","303-UY","2018/02/19 20:09:19","新北市八里區中山路一段418-7號","121.410731666667","25.1583333333333","6502300","八里區"
"249002","305-UY","2018/02/19 20:09:18","新北市八里區龍米路一段40號","121.456776666667","25.11835","6502300","八里區"
"249003","593-UM","2018/02/19 20:09:31","新北市八里區中山路二段540巷9弄25號","121.39658","25.1465233333333","6502300","八里區"
"248014","025-BX","2018/02/19 20:09:29","新北市五股區成泰路三段93號","121.443951666667","25.0901283333333","6501500","五股區"
"248016","026-BX","2018/02/19 20:09:25","新北市五股區成泰路三段577巷80弄72號","121.449006666667","25.1047866666667","6501500","五股區"
"248018","225-UY","2018/02/19 20:09:26","新北市五股區登林路105-6號","121.407608333333","25.0790383333333","6501500","五股區"
"248012","247-BX","2018/02/19 20:09:32","新北市五股區六合街118號","121.430275","25.0908033333333","6501500","五股區"
"248004","677-BX","2018/02/19 20:09:14","新北市五股區成泰路一段235-3號","121.436366666667","25.0796716666667","6501500","五股區"
"248002","678-BX","2018/02/19 20:09:19","新北市五股區成泰路三段280號","121.447296666667","25.0941266666667","6501500","五股區"
"248010","682-TV","2018/02/19 20:09:23","新北市五股區成泰路一段7巷22號","121.432988333333","25.0668733333333","6501500","五股區"
"234023","9380-KE","2018/02/19 20:09:22","新北市永和區中正路654巷25號","121.517463333333","25.0086116666667","6500400","永和區"
"234077","969-R7","2018/02/19 20:09:22","新北市永和區智光街94號","121.516085","24.9969783333333","6500400","永和區"
"234074","AAC-211","2018/02/19 20:09:20","新北市永和區豫溪街205號","121.523631666667","25.0097233333333","6500400","永和區"
"234003","AAC-295","2018/02/19 20:09:24","新北市永和區中正路609巷5弄2號","121.516126666667","25.0091483333333","6500400","永和區"
"243003","267-VK","2018/02/19 20:09:23","新北市泰山區泰林路三段745巷145號","121.405626666667","25.0679683333333","6501600","泰山區"
"243011","297-R6","2018/02/19 20:09:17","新北市泰山區壽山路32號","121.420641666667","25.0289883333333","6501600","泰山區"
"243015","380-SR","2018/02/19 20:09:22","新北市泰山區明志路一段384號","121.430766666667","25.05741","6501600","泰山區"
"243014","421-VK","2018/02/19 20:09:19","新北市泰山區明志路一段24-1號","121.433583333333","25.06558","6501600","泰山區"
"243012","539-UM","2018/02/19 20:09:29","新北市泰山區楓江路142-1號","121.440066666667","25.06528","6501600","泰山區"
"243010","KEA-2215","2018/02/19 20:09:21","新北市泰山區明志路二段136巷17號","121.426226666667","25.0517166666667","6501600","泰山區"
"243009","KEA-2216","2018/02/19 20:09:16","新北市泰山區泰林路二段116巷1弄2號","121.434913333333","25.0594733333333","6501600","泰山區"
"243013","646-TV","2018/02/19 20:09:20","新北市泰山區民國街8號","121.425376666667","25.0435183333333","6501600","泰山區"
"243016","680-BX","2018/02/19 20:09:30","新北市泰山區明志路三段427號","121.421018333333","25.033385","6501600","泰山區"
"222003","436-BY","2018/02/19 20:09:24","新北市深坑區埔新街60號","121.62023","25.0024633333333","6501800","深坑區"
"222002","659-BX","2018/02/19 20:09:22","新北市深坑區北深路二段118號","121.616633333333","25.0032116666667","6501800","深坑區"
"231041","002-UM","2018/02/19 20:09:30","新北市新店區中正路460號","121.534","24.9793466666667","6500600","新店區"
"231059","046-UY","2018/02/19 20:09:16","新北市新店區安德街60巷17號","121.510746666667","24.9627566666667","6500600","新店區"
"231061","047-UY","2018/02/19 20:09:19","新北市新店區安興路32號","121.515763333333","24.9704133333333","6500600","新店區"
"231060","106-UY","2018/02/19 20:09:30","新北市新店區安康路三段335號","121.485511666667","24.9515366666667","6500600","新店區"
"231051","107-UY","2018/02/19 20:09:29","新北市新店區中央六街5號","121.530306666667","24.97444","6500600","新店區"
"231047","108-UY","2018/02/19 20:09:30","新北市新店區寶橋路85巷51號","121.544381666667","24.9768483333333","6500600","新店區"
"231052","187-VK","2018/02/19 20:09:13","新北市新店區新烏路三段208號","121.550846666667","24.9015166666667","6500600","新店區"
"231050","KEA-2219","2018/02/19 20:09:34","新北市新店區北新路一段96巷23號","121.542875","24.968755","6500600","新店區"
"231057","256-BX","2018/02/19 20:09:15","新北市新店區花園一路一段2號","121.553158333333","24.9324233333333","6500600","新店區"
"231054","AAD-862","2018/02/19 20:09:32","新北市新店區檳榔路34號","121.541491666667","24.9638366666667","6500600","新店區"
"231058","3712-VJ","2018/02/19 20:09:21","新北市新店區中正路347號","121.535435","24.975765","6500600","新店區"
"231056","3713-VJ","2018/02/19 20:09:29","新北市新店區中正路269號","121.537801666667","24.974205","6500600","新店區"
"231055","4716-K9","2018/02/19 20:09:22","新北市新店區中華路83號","121.539341666667","24.968675","6500600","新店區"
"231067","4772-VM","2018/02/19 20:09:19","新北市新店區安康路一段30號","121.53179","24.9610116666667","6500600","新店區"
"231065","512-UM","2018/02/19 20:09:26","新北市新店區安祥路106巷50號","121.476678333333","24.9614883333333","6500600","新店區"
"231049","513-UM","2018/02/19 20:09:21","新北市新店區北新路二段97巷7號","121.542241666667","24.9741966666667","6500600","新店區"
"231064","515-UM","2018/02/19 20:09:30","新北市新店區安光路15巷15號","121.51233","24.9632516666667","6500600","新店區"
"231040","619-UM","2018/02/19 20:09:21","新北市新店區中正路110號","121.542841666667","24.970405","6500600","新店區"
"231042","641-BX","2018/02/19 20:09:19","新北市新店區中興路二段231-2號","121.547753333333","24.9750566666667","6500600","新店區"
"231063","645-TV","2018/02/19 20:09:29","新北市新店區黎明路54巷2號","121.502358333333","24.948415","6500600","新店區"
"231068","718-UY","2018/02/19 20:09:20","新北市新店區中興路二段186-2號","121.548051666667","24.9726066666667","6500600","新店區"
"231062","720-UM","2018/02/19 20:09:21","新北市新店區安康路二段109號","121.512568333333","24.9618983333333","6500600","新店區"
"231044","897-TW","2018/02/19 20:09:21","新北市新店區寶慶街58巷8號","121.542066666667","24.9871183333333","6500600","新店區"
"231045","898-TW","2018/02/19 20:09:15","新北市新店區北宜路一段154號","121.540236666667","24.9536916666667","6500600","新店區"
"231043","899-TW","2018/02/19 20:09:25","新北市新店區民族路207號","121.536971666667","24.976015","6500600","新店區"
"231066","AKT-0513","2018/02/19 20:09:30","新北市新店區安興路112號","121.514623333333","24.9776433333333","6500600","新店區"
"241011","013-R5","2018/02/19 20:09:27","新北市三重區秀江街229號","121.497106666667","25.07155","6500200","三重區"
"241028","022-UY","2018/02/19 20:09:28","新北市三重區仁化街107號","121.494515","25.05804","6500200","三重區"
"241026","066-VK","2018/02/19 20:09:25","新北市三重區中央南路47號","121.501373333333","25.0618633333333","6500200","三重區"
"241005","262-UM","2018/02/19 20:09:30","新北市蘆洲區復興路323巷166-1號","121.478486666667","25.0964116666667","6500200","三重區"
"241013","270-UM","2018/02/19 20:09:22","新北市三重區仁賢街24號","121.49625","25.0748116666667","6500200","三重區"
"241035","462-BY","2018/02/19 20:09:13","新北市三重區正義北路33巷36號","121.498586666667","25.063905","6500200","三重區"
"241024","478-VK","2018/02/19 20:09:22","新北市三重區中正北路278號","121.480818333333","25.0684983333333","6500200","三重區"
"241023","545-UM","2018/02/19 20:09:15","新北市三重區頂崁街210巷3號","121.476948333333","25.0677883333333","6500200","三重區"
"241033","AAC-255","2018/02/19 20:09:17","新北市三重區光復路一段70號","121.471828333333","25.0493816666667","6500200","三重區"
"235066","003-UY","2018/02/19 20:09:25","新北市中和區水源路113號","121.507845","25.0031333333333","6500300","中和區"
"235039","097-UM","2018/02/19 20:09:21","新北市中和區景平路278巷16弄24號","121.514491666667","24.9937533333333","6500300","中和區"
"235065","098-UM","2018/02/19 20:09:33","新北市中和區永和路67-3號","121.496773333333","25.0054966666667","6500300","中和區"
"235040","150-BY","2018/02/19 20:09:17","新北市中和區保健路33巷11號","121.50927","24.997905","6500300","中和區"
"235044","293-VK","2018/02/19 20:09:29","新北市中和區復興路335號","121.500298333333","24.990255","6500300","中和區"
"235068","377-QA","2018/02/19 20:09:20","新北市新店區安康路一段355號","121.519838333333","24.9638733333333","6500300","中和區"
"235050","4979-A6","2018/02/19 20:09:21","新北市中和區景新街313號","121.511068333333","24.9923316666667","6500300","中和區"
"235069","4980-A6","2018/02/19 20:09:27","新北市中和區南山路127巷27弄25號","121.503235","24.9980916666667","6500300","中和區"
"235070","558-UM","2018/02/19 20:09:21","新北市中和區中正路426號","121.49159","24.9942366666667","6500300","中和區"
"235047","732-UM","2018/02/19 20:09:34","新北市中和區捷運路56號","121.507658333333","24.9906","6500300","中和區"
"235051","157-BY","2018/02/19 20:09:21","新北市中和區景安路220巷22號","121.502673333333","24.9914333333333","6500300","中和區"
"235037","AAC-213","2018/02/19 20:09:18","新北市中和區自強路52號","121.520178333333","24.9948316666667","6500300","中和區"
"235059","AAC-215","2018/02/19 20:09:20","新北市中和區圓通路335巷33弄17號","121.492978333333","24.9888533333333","6500300","中和區"
"220068","013-TV","2018/02/19 20:09:26","新北市板橋區中山路二段290號","121.479638333333","25.0188433333333","6500100","板橋區"
"220072","015-TV","2018/02/19 20:09:16","新北市板橋區金門街109巷23號","121.433785","24.9917233333333","6500100","板橋區"
"220065","072-UY","2018/02/19 20:09:21","新北市板橋區縣民大道二段86號","121.466288333333","25.014935","6500100","板橋區"
"220069","AAD-861","2018/02/19 20:09:10","新北市板橋區貴興路48號","121.457205","25.0032466666667","6500100","板橋區"
"220090","120-SR","2018/02/19 20:09:27","新北市板橋區幸福路32巷65號","121.460328333333","25.0222716666667","6500100","板橋區"
"247022","893-R6","2018/02/19 20:09:32","新北市蘆洲區三民路229號","121.46962","25.0884216666667","6501400","蘆洲區"
"247008","341-TH","2018/02/19 20:09:25","新北市蘆洲區集賢路413號","121.479938333333","25.0809416666667","6501400","蘆洲區"
"247010","339-TH","2018/02/19 20:09:22","新北市蘆洲區集賢路406號","121.480158333333","25.0819166666667","6501400","蘆洲區"
"247004","337-TH","2018/02/19 20:09:17","新北市五股區中興路三段171-2號","121.443445","25.081115","6501400","蘆洲區"
"247004","336-TH","2018/02/19 20:09:28","新北市蘆洲區長安街285巷10號","121.457633333333","25.08422","6501400","蘆洲區"
"247002","335-TH","2018/02/19 20:09:20","新北市蘆洲區永康街2巷8號","121.459321666667","25.0861666666667","6501400","蘆洲區"
"247016","056-VK","2018/02/19 20:09:33","新北市蘆洲區光華路160號","121.465575","25.0821833333333","6501400","蘆洲區"
"247006","053-VK","2018/02/19 20:09:32","新北市蘆洲區永安南路二段18號","121.467733333333","25.0771666666667","6501400","蘆洲區"
"247014","007-UY","2018/02/19 20:09:26","新北市蘆洲區中山二路265巷14號","121.470638333333","25.0795333333333","6501400","蘆洲區"
"247024","002-UY","2018/02/19 20:09:31","新北市蘆洲區光明路88巷29號","121.463385","25.086865","6501400","蘆洲區"
"226004","312-R5","2018/02/19 20:09:32","新北市平溪區十分里十分街178號","121.778581666667","25.043865","6502400","平溪區"
"224010","AGQ-8101","2018/02/19 20:09:34","新北市萬里區雙興里豐稟路11號","121.845578333333","25.109055","6501200","瑞芳區"
"224005","271-BY","2018/02/19 20:09:19","新北市瑞芳區三爪子坑路1號","121.814795","25.1080333333333","6501200","瑞芳區"
"227003","642-TC","2018/02/19 20:09:21","新北市雙溪區魚行里新店21號","121.86994","25.032235","6502500","雙溪區"
"253006","295-VK","2018/02/19 20:09:29","新北市石門區小坑9號","121.594418333333","25.2885233333333","6502200","石門區"
"222001","KEA-2212","2018/02/19 20:09:18","新北市深坑區北深路三段187號","121.601356666667","25.0036883333333","6501800","深坑區"
"208002","KEA-2872","2018/02/19 20:09:20","新北市金山區仁愛路37-26號","121.635366666667","25.22063","6502700","金山區"
"208003","665-BX","2018/02/19 20:09:15","新北市金山區永興里忠義路1號","121.632958333333","25.2589833333333","6502700","金山區"
"208001","761-BX","2018/02/19 20:09:12","新北市金山區重和里六股林口13-1號","121.60267","25.2180283333333","6502700","金山區"
"251014","180-VK","2018/02/19 20:09:12","新北市淡水區石頭厝1號","121.458718333333","25.2355383333333","6501000","淡水區"
"251008","181-VK","2018/02/19 20:09:16","新北市淡水區淡海路72巷28弄9號","121.42533","25.1823933333333","6501000","淡水區"
"251015","182-VK","2018/02/19 20:09:20","新北市淡水區商工路184號","121.449765","25.1885366666667","6501000","淡水區"
"251010","413-VK","2018/02/19 20:09:23","新北市淡水區崁頂五路303號","121.42401","25.1973366666667","6501000","淡水區"
"251012","441-VK","2018/02/19 20:09:32","新北市淡水區下圭柔山70-9號","121.4466","25.2073566666667","6501000","淡水區"
"251016","442-VK","2018/02/19 20:09:22","新北市淡水區番子田19號","121.457526666667","25.2288983333333","6501000","淡水區"
"251005","443-VK","2018/02/19 20:09:31","新北市淡水區學府路136巷90號","121.453481666667","25.172735","6501000","淡水區"
"251006","561-UM","2018/02/19 20:09:26","新北市淡水區北新路141巷60弄11號","121.448178333333","25.1796783333333","6501000","淡水區"
"251009","575-R6","2018/02/19 20:09:16","新北市淡水區清水街26號","121.444915","25.17046","6501000","淡水區"
"251002","672-BX","2018/02/19 20:09:21","新北市淡水區中正路296號","121.437476666667","25.1721466666667","6501000","淡水區"
"251003","766-UM","2018/02/19 20:09:31","新北市淡水區新市一路二段255號","121.443711666667","25.1832083333333","6501000","淡水區"
"207003","225-TW","2018/02/19 20:09:27","新北市萬里區大鵬里萬里加投44-3號","121.640475","25.209255","6502800","萬里區"
"252002","178-VK","2018/02/19 20:09:27","新北市三芝區三民街23號","121.504125","25.258305","6502100","三芝區"
"252001","AAC-283","2018/02/19 20:09:17","新北市三芝區公正街66號","121.499856666667","25.2574333333333","6502100","三芝區"
"237004","KEA-2597","2018/02/19 20:09:28","新北市三峽區嘉添179號","121.369536666667","24.91153","6500900","三峽區"
"237006","5529-G3","2018/02/19 20:09:24","新北市三峽區嘉添227號","121.369813333333","24.9104183333333","6500900","三峽區"
"237005","AKY-6261","2018/02/19 20:09:20","新北市三峽區學成路258號","121.375378333333","24.9422366666667","6500900","三峽區"
"236069","105-UM","2018/02/19 20:09:28","新北市土城區大安路18號","121.432858333333","24.9661666666667","6501300","土城區"
"236042","107-UM","2018/02/19 20:09:13","新北市土城區學成路19號","121.453033333333","24.98665","6501300","土城區"
"236078","166-UM","2018/02/19 20:09:26","新北市土城區龍泉路347號","121.409468333333","24.9504183333333","6501300","土城區"
"236030","253-BX","2018/02/19 20:09:18","新北市土城區中央路一段118巷1弄3號","121.446075","24.98808","6501300","土城區"
"236026","269-VK","2018/02/19 20:09:18","新北市土城區裕生路67巷16號","121.448646666667","24.9841516666667","6501300","土城區"
"236014","270-VK","2018/02/19 20:09:34","新北市土城區德興街135號","121.455058333333","24.991715","6501300","土城區"
"236036","271-VK","2018/02/19 20:09:30","新北市土城區延吉街363巷7號","121.464371666667","24.983505","6501300","土城區"
"236020","401-BY","2018/02/19 20:09:34","新北市土城區延吉街21巷2號","121.472601666667","24.9884416666667","6501300","土城區"
"236058","912-UM","2018/02/19 20:09:30","新北市土城區光明街1號","121.442088333333","24.9748583333333","6501300","土城區"
"236048","913-UM","2018/02/19 20:09:27","新北市土城區清水路133號","121.458066666667","24.98165","6501300","土城區"
"236062","915-UM","2018/02/19 20:09:15","新北市土城區立德路107號","121.46394","24.9877666666667","6501300","土城區"
"236053","AAC-216","2018/02/19 20:09:33","新北市土城區中華路一段22號","121.447491666667","24.9903216666667","6501300","土城區"
"242029","986-R7","2018/02/19 20:09:33","新北市新莊區中平路378號","121.444635","25.05342","6500500","新莊區"
"242050","751-BX","2018/02/19 20:09:29","新北市新莊區民安西路172巷1弄1號","121.42582","25.0159033333333","6500500","新莊區"
"242025","615-BX","2018/02/19 20:09:24","新北市新莊區五權一路12巷25弄19號","121.45858","25.064645","6500500","新莊區"
"242023","613-BX","2018/02/19 20:09:14","新北市新莊區化成路562號","121.466195","25.0540633333333","6500500","新莊區"
"242027","612-BX","2018/02/19 20:09:18","新北市新莊區幸福路743號","121.448653333333","25.0491883333333","6500500","新莊區"
"242039","566-BX","2018/02/19 20:09:28","新北市新莊區民安西路90-2號","121.426848333333","25.018975","6500500","新莊區"
"242044","497-BY","2018/02/19 20:09:25","桃園市龜山區萬壽路一段27號","121.410275","25.0205716666667","6500500","新莊區"
"242053","440-UM","2018/02/19 20:09:22","新北市新莊區西盛街387巷34弄5號","121.4285","25.01296","6500500","新莊區"
"242034","415-TV","2018/02/19 20:09:31","新北市新莊區建中街97號","121.44666","25.0360466666667","6500500","新莊區"
"242004","413-TV","2018/02/19 20:09:28","新北市新莊區頭興街5巷2號","121.462791666667","25.0535566666667","6500500","新莊區"
"242042","400-BY","2018/02/19 20:09:19","新北市新莊區新北大道七段370號","121.413011666667","25.0311016666667","6500500","新莊區"
"242060","362-BY","2018/02/19 20:09:24","新北市新莊區瓊林路瓊英巷4弄2號","121.44367","25.0274533333333","6500500","新莊區"
"242058","353-BY","2018/02/19 20:09:18","新北市新莊區龍安路333號","121.422415","25.01919","6500500","新莊區"
"242007","132-UY","2018/02/19 20:09:17","新北市新莊區福壽街184巷15號","121.459021666667","25.05313","6500500","新莊區"
"242036","133-UY","2018/02/19 20:09:16","新北市新莊區建安街35巷20號","121.42993","25.0258816666667","6500500","新莊區"
"242021","135-UY","2018/02/19 20:09:14","新北市新莊區中興街6-1號","121.449295","25.0359716666667","6500500","新莊區"
"242046","172-VK","2018/02/19 20:09:28","新北市新莊區裕民街55巷15號","121.419326666667","25.02357","6500500","新莊區"
"242009","173-VK","2018/02/19 20:09:08","新北市新莊區昌盛街35巷2弄2號","121.4542","25.0502","6500500","新莊區"
"242015","175-VK","2018/02/19 20:09:27","新北市新莊區中平路26巷32號","121.446221666667","25.043265","6500500","新莊區"
"242002","176-VK","2018/02/19 20:09:15","新北市新莊區中正路145號","121.459526666667","25.0382616666667","6500500","新莊區"
"242013","346-TH","2018/02/19 20:09:31","新北市新莊區中和街186巷23號","121.448441666667","25.0498483333333","6500500","新莊區"
"242019","348-TH","2018/02/19 20:09:21","新北市新莊區博愛路5巷2號","121.45629","25.0432783333333","6500500","新莊區"
"242056","349-TH","2018/02/19 20:09:23","新北市新莊區新莊路649巷15弄3號","121.445113333333","25.03155","6500500","新莊區"
"242017","350-TH","2018/02/19 20:09:19","新北市新莊區中港路318號","121.452681666667","25.045715","6500500","新莊區"
"242011","351-TH","2018/02/19 20:09:23","新北市新莊區中信街53號","121.449623333333","25.050705","6500500","新莊區"
"238021","KEA-2217","2018/02/19 20:09:19","新北市樹林區佳園路三段101巷56號","121.392651666667","24.9502866666667","6500700","樹林區"
"238014","282-BY","2018/02/19 20:09:26","新北市樹林區中山路三段210-2號","121.381238333333","24.9658066666667","6500700","樹林區"
"221008","489-VK","2018/02/19 20:09:31","新北市汐止區康寧街145號","121.621818333333","25.0665533333333","6501100","汐止區"
"221036","130-UY","2018/02/19 20:09:16","新北市汐止區新台五路二段41巷14號","121.663043333333","25.0668466666667","6501100","汐止區"
"221015","131-UY","2018/02/19 20:09:29","新北市汐止區建成路26號","121.664458333333","25.07264","6501100","汐止區"
"221010","269-BY","2018/02/19 20:09:14","新北市汐止區八連路一段198巷2號","121.64285","25.0823933333333","6501100","汐止區"
"221012","278-VK","2018/02/19 20:09:22","新北市汐止區汐平路一段166號","121.68916","25.06681","6501100","汐止區"
"221023","279-VK","2018/02/19 20:09:25","新北市汐止區明峰街106號","121.630773333333","25.071065","6501100","汐止區"
"221032","280-BY","2018/02/19 20:09:22","新北市汐止區弘道街9巷2弄2號","121.61704","25.0488883333333","6501100","汐止區"
"221027","281-BY","2018/02/19 20:09:33","新北市汐止區和平街97號","121.661081666667","25.06996","6501100","汐止區"
"221029","298-VK","2018/02/19 20:03:09","新北市汐止區樟樹一路135巷19號","121.641318333333","25.0654366666667","6501100","汐止區"
"221021","299-VK","2018/02/19 20:09:21","新北市汐止區連興街126號","121.65374","25.061885","6501100","汐止區"
"221031","353-TW","2018/02/19 20:09:14","新北市汐止區原興路73巷1號","121.632093333333","25.0661183333333","6501100","汐止區"
"221035","622-UM","2018/02/19 20:09:16","新北市汐止區長江街57巷15號","121.65592","25.0719633333333","6501100","汐止區"
"221025","623-UM","2018/02/19 20:09:29","新北市汐止區秀峰路78號","121.65993","25.064235","6501100","汐止區"
"221038","646-BX","2018/02/19 20:09:15","新北市汐止區忠孝東路528號","121.667085","25.076295","6501100","汐止區"
"221033","647-BX","2018/02/19 20:09:22","新北市汐止區東勢街201巷104號","121.633531666667","25.042905","6501100","汐止區"
"221018","753-BX","2018/02/19 20:09:32","新北市汐止區茄興街12號","121.673468333333","25.067115","6501100","汐止區"
"220080","200-UY","2018/02/19 20:09:28","新北市板橋區大觀路二段力行2巷65號","121.445861666667","24.9990533333333","6500100","板橋區"
"220101","245-BX","2018/02/19 20:09:33","新北市板橋區雙十路二段69巷1號","121.475593333333","25.0262883333333","6500100","板橋區"
"220071","283-VK","2018/02/19 20:09:19","新北市板橋區廣權路9號","121.46063","24.991295","6500100","板橋區"
"220053","285-VK","2018/02/19 20:09:29","新北市板橋區中山路二段275號","121.477781666667","25.0179416666667","6500100","板橋區"
"220083","286-VK","2018/02/19 20:09:34","新北市板橋區僑中二街88巷26號","121.445035","25.009605","6500100","板橋區"
"220081","287-VK","2018/02/19 20:09:27","新北市板橋區僑中一街124巷20弄5號","121.44643","25.014075","6500100","板橋區"
"220061","293-UM","2018/02/19 20:09:19","新北市板橋區中山路一段295號","121.471118333333","25.014485","6500100","板橋區"
"220084","296-UM","2018/02/19 20:09:18","新北市板橋區滿平街84巷80號","121.426028333333","24.9871633333333","6500100","板橋區"
"242048","281-VK","2018/02/19 20:09:15","新北市新莊區民安路144巷9號","121.424066666667","25.02533","6500500","新莊區"
"220075","303-R5","2018/02/19 20:09:25","新北市板橋區金華街10巷55號","121.457491666667","25.0203966666667","6500100","板橋區"
"220092","307-R5","2018/02/19 20:09:32","新北市板橋區文化路一段47號","121.460485","25.0132666666667","6500100","板橋區"
"220064","486-VK","2018/02/19 20:09:26","新北市板橋區長安街331巷5號","121.47421","25.01226","6500100","板橋區"
"220089","487-VK","2018/02/19 20:09:25","新北市板橋區互助街85號","121.459866666667","25.0258766666667","6500100","板橋區"
"242031","280-VK","2018/02/19 20:09:15","新北市新莊區忠孝街29巷38號","121.443631666667","25.0371483333333","6500500","新莊區"
"220088","491-VK","2018/02/19 20:09:17","新北市板橋區民治街92號","121.479203333333","25.031725","6500100","板橋區"
"220093","689-BX","2018/02/19 20:09:24","新北市板橋區長江路一段413號","121.462456666667","25.0326483333333","6500100","板橋區"
"220102","KEA-2699","2018/02/19 20:09:35","新北市板橋區民治街136號","121.477653333333","25.03079","6500100","板橋區"
"220055","827-TW","2018/02/19 20:09:23","新北市板橋區仁愛路23號","121.458948333333","24.9994666666667","6500100","板橋區"
"220067","829-TW","2018/02/19 20:09:35","新北市板橋區中山路一段208號","121.469816666667","25.0138","6500100","板橋區"
"220096","830-TW","2018/02/19 20:09:22","新北市板橋區萬板路116號","121.474743333333","25.0234183333333","6500100","板橋區"
"220074","895-R6","2018/02/19 20:09:28","新北市板橋區文化路一段32巷2號","121.459571666667","25.01128","6500100","板橋區"
"220097","AAC-210","2018/02/19 20:09:26","新北市板橋區復興街135號","121.461161666667","25.018065","6500100","板橋區"
"220070","AAC-253","2018/02/19 20:09:19","新北市板橋區南雅南路二段160號","121.45158","24.9954533333333","6500100","板橋區"
