"lineid","car","time","location","longitude","latitude","cityid","cityname"
"232013","291-BY","2018/02/20 06:39:39","新北市坪林區北宜路八段558號","121.71801","24.90925","6502000","坪林區"
"232006","758-BX","2018/02/20 06:39:41","新北市坪林區北宜路八段558號","121.71787","24.9093233333333","6502000","坪林區"
"235001","611-BX","2018/02/20 06:39:30","新北市中和區圓通路417號","121.488841666667","24.9891216666667","6500300","中和區"
"223006","022-BY","2018/02/20 06:39:40","新北市石碇區楓子林55-5號","121.64279","25.008285","6501900","石碇區"
"223001","205-TH","2018/02/20 06:39:25","新北市石碇區碇坪路一段186號","121.667291666667","24.984975","6501900","石碇區"
"223008","406-TH","2018/02/20 06:39:29","新北市石碇區碇坪路一段242號","121.675598333333","24.978705","6501900","石碇區"
"223007","661-BX","2018/02/20 06:39:40","新北市石碇區碇坪路一段18號","121.651918333333","25.0051683333333","6501900","石碇區"
"227006","282-VK","2018/02/20 06:39:38","新北市雙溪區牡丹里聖南14號","121.858516666667","25.0527416666667","6502500","雙溪區"
"236008","165-UM","2018/02/20 06:39:32","新北市土城區永平街51號","121.428025","24.9591716666667","6501300","土城區"
"220064","282-UM","2018/02/20 06:39:29","新北市板橋區南雅西路二段145巷5號","121.451698333333","25.0113933333333","6500100","板橋區"
