"lineid","car","time","location","longitude","latitude","cityid","cityname"
"232002","290-BY","2018/02/20 07:09:26","新北市坪林區大粗坑27號","121.708276666667","24.9626566666667","6502000","坪林區"
"232013","291-BY","2018/02/20 07:09:39","新北市坪林區灣潭4-3號","121.676556666667","24.9320933333333","6502000","坪林區"
"232006","758-BX","2018/02/20 07:09:41","新北市坪林區北宜路九段86號","121.73624","24.8946466666667","6502000","坪林區"
"244002","248-BX","2018/02/20 07:09:34","新北市林口區忠孝路53號","121.365306666667","25.0750766666667","6501700","林口區"
"222004","289-BY","2018/02/20 07:09:42","新北市深坑區昇高坑路30號","121.626815","25.0003766666667","6501800","深坑區"
"235001","611-BX","2018/02/20 07:09:30","新北市中和區圓通路367巷4號","121.491335","24.9892783333333","6500300","中和區"
"226005","5620-A6","2018/02/20 07:09:30","新北市平溪區靜安路二段141號","121.722525","25.0232033333333","6502400","平溪區"
"226002","7418-A5","2018/02/20 07:09:27","新北市平溪區石底里公園街18-3號","121.734661666667","25.0255816666667","6502400","平溪區"
"226003","AGD-0702","2018/02/20 07:09:44","新北市平溪區嶺腳里嶺腳寮8號","121.747128333333","25.0297383333333","6502400","平溪區"
"223006","022-BY","2018/02/20 07:09:38","新北市石碇區崩山12-1號","121.674258333333","24.97284","6501900","石碇區"
"223001","205-TH","2018/02/20 07:09:24","新北市石碇區石碇東街143號","121.658986666667","24.9891116666667","6501900","石碇區"
"223008","406-TH","2018/02/20 07:09:34","新北市石碇區十八重溪45號","121.675473333333","25.01257","6501900","石碇區"
"223001","592-UM","2018/02/20 07:09:28","新北市石碇區石碇西街21號","121.658665","24.9881933333333","6501900","石碇區"
"223004","660-BX","2018/02/20 07:09:30","新北市石碇區碇坪路一段2號","121.651633333333","25.00634","6501900","石碇區"
"223007","661-BX","2018/02/20 07:09:28","新北市石碇區十八重溪45號","121.675516666667","25.01251","6501900","石碇區"
"223005","677-TV","2018/02/20 07:09:39","新北市石碇區碇坪路一段10號","121.651731666667","25.0060616666667","6501900","石碇區"
"227006","282-VK","2018/02/20 07:09:37","新北市雙溪區新基里自強路5號","121.866331666667","25.0390233333333","6502500","雙溪區"
"252004","249-BX","2018/02/20 07:09:43","新北市三芝區錫板里小坑子20號","121.501111666667","25.2353016666667","6502100","三芝區"
"252007","AAC-283","2018/02/20 07:09:41","新北市三芝區福德里埔尾27號","121.502541666667","25.2402","6502100","三芝區"
"236008","165-UM","2018/02/20 07:09:32","新北市土城區中華路一段50號","121.446085","24.9890616666667","6501300","土城區"
"236002","339-SR","2018/02/20 07:09:38","新北市土城區永平街51號","121.427675","24.9592033333333","6501300","土城區"
"220064","282-UM","2018/02/20 07:08:41","新北市板橋區國光路49巷2號","121.458021666667","25.0180283333333","6500100","板橋區"
