"lineid","car","time","location","longitude","latitude","cityid","cityname"
"232002","290-BY","2018/02/20 07:19:26","新北市坪林區大粗坑25-2號","121.709621666667","24.9613466666667","6502000","坪林區"
"232013","291-BY","2018/02/20 07:19:39","新北市坪林區北宜路七段223號","121.688776666667","24.93537","6502000","坪林區"
"244002","248-BX","2018/02/20 07:19:34","新北市林口區南福路68號","121.355985","25.0780983333333","6501700","林口區"
"222004","289-BY","2018/02/20 07:19:02","新北市深坑區昇高坑路72號","121.630931666667","24.987745","6501800","深坑區"
"235001","611-BX","2018/02/20 07:19:31","新北市中和區圓通路367巷4號","121.491375","24.98931","6500300","中和區"
"226005","5620-A6","2018/02/20 07:19:29","新北市平溪區靜安路二段125號","121.722016666667","25.023375","6502400","平溪區"
"226002","7418-A5","2018/02/20 07:19:27","新北市平溪區南山里南山坪6號","121.764676666667","25.0318366666667","6502400","平溪區"
"226003","AGD-0702","2018/02/20 07:19:43","新北市平溪區嶺腳里嶺腳寮32-1號","121.74852","25.030495","6502400","平溪區"
"223006","022-BY","2018/02/20 07:19:38","新北市石碇區碇坪路二段86號","121.685528333333","24.9614116666667","6501900","石碇區"
"223001","205-TH","2018/02/20 07:19:24","新北市石碇區烏塗窟8號","121.655888333333","24.9751083333333","6501900","石碇區"
"223008","406-TH","2018/02/20 07:19:34","新北市石碇區頭9號","121.704991666667","25.0049216666667","6501900","石碇區"
"223001","592-UM","2018/02/20 07:19:28","新北市石碇區蓬菜寮5-1號","121.65206","24.973795","6501900","石碇區"
"223004","660-BX","2018/02/20 07:19:32","新北市石碇區新興坑6-2號","121.65427","25.017555","6501900","石碇區"
"223007","661-BX","2018/02/20 07:19:28","新北市石碇區番子坑14-2號","121.680481666667","25.00174","6501900","石碇區"
"223005","677-TV","2018/02/20 07:19:39","新北市石碇區新興坑1-1號","121.653958333333","25.015055","6501900","石碇區"
"227006","282-VK","2018/02/20 07:19:37","新北市雙溪區新基里自強路5號","121.866328333333","25.0390283333333","6502500","雙溪區"
"252004","249-BX","2018/02/20 07:19:43","新北市三芝區錫板里棟板頭32號","121.505556666667","25.2264766666667","6502100","三芝區"
"252007","AAC-283","2018/02/20 07:19:41","新北市三芝區錫板里海尾13-5號","121.479415","25.2577666666667","6502100","三芝區"
"237001","159-UY","2018/02/20 07:19:41","新北市三峽區中山路459巷66號","121.355466666667","24.9363866666667","6500900","三峽區"
"236008","165-UM","2018/02/20 07:19:32","新北市土城區延和路63號","121.466893333333","24.9898133333333","6501300","土城區"
"236002","339-SR","2018/02/20 07:19:38","新北市土城區忠義路102號","121.443341666667","24.95932","6501300","土城區"
"220064","282-UM","2018/02/20 07:08:41","新北市板橋區國光路49巷2號","121.458021666667","25.0180283333333","6500100","板橋區"
