"lineid","car","time","location","longitude","latitude","cityid","cityname"
"232002","290-BY","2018/02/20 07:29:26","新北市坪林區下坑子口6-15號","121.711336666667","24.943365","6502000","坪林區"
"244002","248-BX","2018/02/20 07:29:34","新北市林口區頂福里71-68號","121.354215","25.0813","6501700","林口區"
"222004","289-BY","2018/02/20 07:19:02","新北市深坑區昇高坑路72號","121.630931666667","24.987745","6501800","深坑區"
"235001","611-BX","2018/02/20 07:29:30","新北市中和區圓通路367巷4號","121.49131","24.989205","6500300","中和區"
"226005","5620-A6","2018/02/20 07:29:29","新北市平溪區靜安路二段200號","121.723641666667","25.0220083333333","6502400","平溪區"
"226002","7418-A5","2018/02/20 07:21:27","新北市平溪區望古里灰4-2號","121.763586666667","25.0286983333333","6502400","平溪區"
"226003","AGD-0702","2018/02/20 07:29:43","新北市平溪區嶺腳里嶺腳寮106-3號","121.745693333333","25.03874","6502400","平溪區"
"223006","022-BY","2018/02/20 07:29:38","新北市坪林區坪碇路173號","121.698115","24.9483866666667","6501900","石碇區"
"223001","205-TH","2018/02/20 07:29:24","新北市石碇區蓬菜寮17號","121.649025","24.97209","6501900","石碇區"
"223008","406-TH","2018/02/20 07:29:34","新北市石碇區西勢坑6-1號","121.702628333333","24.9938983333333","6501900","石碇區"
"223001","592-UM","2018/02/20 07:29:28","新北市石碇區中楒子腳4號","121.641275","24.9712266666667","6501900","石碇區"
"223004","660-BX","2018/02/20 07:29:30","新北市石碇區新興坑29-2號","121.646608333333","25.015295","6501900","石碇區"
"223007","661-BX","2018/02/20 07:29:28","新北市石碇區蚯蚓坑22-1號","121.689213333333","25.0064066666667","6501900","石碇區"
"223005","677-TV","2018/02/20 07:29:39","新北市石碇區新興坑29-2號","121.64666","25.0152566666667","6501900","石碇區"
"227006","282-VK","2018/02/20 07:29:37","新北市雙溪區新基里自強路5號","121.86636","25.0390966666667","6502500","雙溪區"
"252004","249-BX","2018/02/20 07:29:43","新北市三芝區福德里大湖10號","121.504631666667","25.2231916666667","6502100","三芝區"
"252007","AAC-283","2018/02/20 07:29:42","新北市三芝區古庄里古庄110-2號","121.495723333333","25.2622316666667","6502100","三芝區"
"237001","159-UY","2018/02/20 07:29:41","新北市三峽區隆恩街245號","121.357723333333","24.9409216666667","6500900","三峽區"
"236008","165-UM","2018/02/20 07:29:32","新北市土城區金城路三段11號","121.46467","24.9861183333333","6501300","土城區"
"236002","339-SR","2018/02/20 07:29:38","新北市土城區南天母路18-3號","121.448121666667","24.9529383333333","6501300","土城區"
"220064","282-UM","2018/02/20 07:29:17","新北市板橋區國光路53號","121.45822","25.01799","6500100","板橋區"
