"lineid","car","time","location","longitude","latitude","cityid","cityname"
"248005","653-BX","2018/07/23 09:49:45","新北市五股區成泰路一段7巷13號","121.432771666667","25.0669583333333","6501500","五股區"
"248003","655-BX","2018/07/23 09:49:30","新北市五股區御成路145號","121.440803333333","25.0944166666667","6501500","五股區"
"244018","403-UM","2018/07/23 09:49:29","新北市林口區麗園二街1巷6-2號","121.37797","25.0699983333333","6501700","林口區"
"244008","410-SL","2018/07/23 09:49:32","新北市林口區竹林路361號","121.388316666667","25.0844516666667","6501700","林口區"
"244022","483-VK","2018/07/23 09:49:41","新北市林口區民權路12巷5號","121.371648333333","25.079895","6501700","林口區"
"244016","485-VK","2018/07/23 09:49:36","新北市林口區文化二路一段120巷5號","121.367876666667","25.06998","6501700","林口區"
"222005","289-BY","2018/07/23 09:49:16","新北市深坑區昇高坑路43號","121.629198333333","24.9972566666667","6501800","深坑區"
"231007","189-VK","2018/07/23 09:49:35","新北市新店區新潭路三段215巷25號","121.508131666667","24.9040683333333","6500600","新店區"
"231008","192-VK","2018/07/23 09:39:42","新北市新店區平廣路一段256號","121.507788333333","24.8882083333333","6500600","新店區"
"235001","611-BX","2018/07/23 09:49:39","新北市中和區員山路102巷7號","121.481686666667","24.9948533333333","6500300","中和區"
"223006","022-BY","2018/07/23 09:24:20","新北市石碇區小粗坑(潭邊里)9-2號","121.67863","24.985605","6501900","石碇區"
"223008","406-TH","2018/07/23 09:47:48","新北市石碇區西勢坑7號","121.69146","24.9903366666667","6501900","石碇區"
"223004","660-BX","2018/07/23 09:49:38","新北市石碇區碇坪路一段242號","121.675516666667","24.9786616666667","6501900","石碇區"
"223005","677-TV","2018/07/23 09:49:37","新北市石碇區崩山9號","121.676991666667","24.9752533333333","6501900","石碇區"
"227005","282-VK","2018/07/23 09:49:29","新北市雙溪區泰平里烏山路29號","121.814938333333","24.9292033333333","6502500","雙溪區"
"252004","249-BX","2018/07/23 09:49:26","新北市三芝區福德里土地公埔46-1號","121.514305","25.2284283333333","6502100","三芝區"
"252007","AAC-283","2018/07/23 09:49:39","新北市三芝區新庄里新庄子61-2號","121.507813333333","25.2740966666667","6502100","三芝區"
"237001","159-UY","2018/07/23 09:49:23","新北市三峽區大義路382號","121.376395","24.9487233333333","6500900","三峽區"
"236005","498-BY","2018/07/23 09:49:40","新北市土城區中央路二段396巷30號","121.43842","24.9709966666667","6501300","土城區"
"242057","986-R7","2018/07/23 09:49:28","新北市新莊區四維路147號","121.422648333333","25.02218","6500500","新莊區"
"242024","613-BX","2018/07/23 09:49:44","新北市新莊區新泰路255巷83號","121.442193333333","25.0391466666667","6500500","新莊區"
"242049","441-UM","2018/07/23 09:49:41","新北市樹林區中山路三段214號","121.380043333333","24.9679466666667","6500500","新莊區"
"242055","440-UM","2018/07/23 09:49:27","新北市新莊區瓊林路59-89號","121.4423","25.0244833333333","6500500","新莊區"
"242030","135-UY","2018/07/23 09:49:38","新北市新莊區中正路535-12號","121.437295","25.03296","6500500","新莊區"
"242001","349-TH","2018/07/23 09:49:37","新北市新莊區瓊林南路61-87號","121.439291666667","25.0179883333333","6500500","新莊區"
