"lineid","car","time","location","longitude","latitude","cityid","cityname"
"234044","148-BY","2018/07/23 12:59:25","新北市永和區得和路373巷31弄8號","121.52469","25.000705","6500400","永和區"
"234070","149-BY","2018/07/23 12:59:43","新北市永和區得和路376號","121.52463","24.999185","6500400","永和區"
"234005","207-UY","2018/07/23 12:59:33","新北市永和區永和路二段28號","121.514736666667","25.0103133333333","6500400","永和區"
"234078","298-R6","2018/07/23 12:59:40","新北市永和區國中路200號","121.52235","25.0061116666667","6500400","永和區"
"234036","336-UY","2018/07/23 12:59:38","新北市中和區秀朗路三段38號","121.526438333333","24.9959666666667","6500400","永和區"
"234062","337-UY","2018/07/23 12:59:35","新北市永和區秀朗路一段199號","121.518326666667","25.003665","6500400","永和區"
"234084","338-UY","2018/07/23 12:59:42","新北市永和區永寧街66號","121.518003333333","25.0051183333333","6500400","永和區"
"234068","552-UM","2018/07/23 12:59:28","新北市永和區中興街84巷8號","121.518576666667","25.0116866666667","6500400","永和區"
"234066","553-UM","2018/07/23 12:59:20","新北市永和區自由街69號","121.513536666667","25.0053416666667","6500400","永和區"
"234015","745-BX","2018/07/23 12:59:34","新北市永和區永和路二段299號","121.515998333333","25.016175","6500400","永和區"
"234028","746-BX","2018/07/23 12:59:28","新北市永和區秀朗路二段289號","121.526141666667","24.9980916666667","6500400","永和區"
"234052","KEA-2590","2018/07/23 12:59:25","新北市永和區竹林路66巷15-7號","121.518358333333","25.01322","6500400","永和區"
"234012","KEA-2591","2018/07/23 12:59:26","新北市永和區信義路17巷9弄2號","121.513688333333","25.0113866666667","6500400","永和區"
"234060","AAD-866","2018/07/23 12:59:39","新北市永和區福和路309巷3號","121.516366666667","25.0069883333333","6500400","永和區"
"234040","862-TW","2018/07/23 12:59:39","新北市永和區永貞路273號","121.51161","25.004965","6500400","永和區"
"234048","863-TW","2018/07/23 12:59:34","新北市永和區文化路145號","121.510801666667","25.0161416666667","6500400","永和區"
"234025","9371-KE","2018/07/23 12:59:41","新北市永和區水源街2巷12號","121.512325","25.0055766666667","6500400","永和區"
"234010","9373-KE","2018/07/23 12:59:21","新北市永和區文化路113巷9號","121.51296","25.0147483333333","6500400","永和區"
"248013","025-BX","2018/07/23 12:59:25","新北市五股區中興路二段182巷3號","121.456795","25.0781133333333","6501500","五股區"
"248015","026-BX","2018/07/23 12:59:40","新北市五股區中興路二段103巷14號","121.458515","25.0762566666667","6501500","五股區"
"248005","077-UY","2018/07/23 12:59:26","新北市五股區中興路二段83巷26-6號","121.459911666667","25.07509","6501500","五股區"
"248007","095-VK","2018/07/23 12:59:28","新北市五股區中興路二段150號","121.458698333333","25.0784816666667","6501500","五股區"
"248019","225-UY","2018/07/23 12:59:27","新北市五股區中興路二段83巷26-6號","121.460003333333","25.0751316666667","6501500","五股區"
"248011","247-BX","2018/07/23 12:59:28","新北市五股區中興路二段83巷26-6號","121.460158333333","25.0752633333333","6501500","五股區"
"248009","682-TV","2018/07/23 12:59:31","新北市五股區中興路二段63巷17號","121.460208333333","25.0753133333333","6501500","五股區"
"234022","9380-KE","2018/07/23 12:59:24","新北市永和區竹林路75巷33弄21號","121.52086","25.01449","6500400","永和區"
"234076","969-R7","2018/07/23 12:59:38","新北市永和區民享街3號","121.515086666667","24.9955783333333","6500400","永和區"
"234072","AAC-211","2018/07/23 12:59:35","新北市永和區環河東路二段100號","121.524135","25.010305","6500400","永和區"
"234001","AAC-295","2018/07/23 12:59:39","新北市永和區永平路9號","121.513515","25.0087533333333","6500400","永和區"
"244001","248-BX","2018/07/23 12:59:38","新北市林口區中山路298號","121.381813333333","25.0815166666667","6501700","林口區"
"243005","AAD-798","2018/07/23 12:59:25","新北市泰山區黎明路25號","121.422005","25.0607916666667","6501600","泰山區"
"231002","002-UM","2018/07/23 12:59:31","新北市新店區安華路28-1號","121.519593333333","24.9609433333333","6500600","新店區"
"231028","046-UY","2018/07/23 12:59:28","新北市新店區安一路一段1-1號","121.519646666667","24.9610866666667","6500600","新店區"
"231001","047-UY","2018/07/23 12:59:29","新北市新店區安華路28-1號","121.519293333333","24.96087","6500600","新店區"
"231005","106-UY","2018/07/23 12:59:25","新北市新店區安華路28-1號","121.519698333333","24.9608766666667","6500600","新店區"
"231010","107-UY","2018/07/23 12:59:24","新北市新店區安一路一段1-1號","121.519438333333","24.9613216666667","6500600","新店區"
"231011","187-VK","2018/07/23 12:59:31","新北市新店區安一路一段1-1號","121.519566666667","24.9610733333333","6500600","新店區"
"231023","KEA-2219","2018/07/23 12:59:26","新北市新店區安一路一段1-1號","121.519756666667","24.96128","6500600","新店區"
"231003","268-BY","2018/07/23 12:59:26","新北市新店區安華路28-1號","121.519365","24.9605533333333","6500600","新店區"
"231018","278-BY","2018/07/23 12:59:20","新北市新店區安一路一段1-1號","121.519871666667","24.961375","6500600","新店區"
"231014","AAD-862","2018/07/23 12:59:32","新北市新店區安一路一段1-1號","121.519555","24.961165","6500600","新店區"
"231037","4716-K9","2018/07/23 12:59:24","新北市新店區安華路28-1號","121.519873333333","24.9609833333333","6500600","新店區"
"231036","512-UM","2018/07/23 12:59:41","新北市新店區安一路一段1-1號","121.519423333333","24.9613816666667","6500600","新店區"
"231013","513-UM","2018/07/23 12:59:24","新北市新店區安一路一段1-1號","121.519688333333","24.961155","6500600","新店區"
"231034","616-UM","2018/07/23 12:59:30","新北市新店區安華路28-1號","121.519445","24.9606783333333","6500600","新店區"
"231006","617-UM","2018/07/23 12:59:26","新北市新店區安華路28-1號","121.519503333333","24.9609316666667","6500600","新店區"
"231030","619-UM","2018/07/23 12:59:26","新北市新店區安一路一段1-1號","121.519526666667","24.9611566666667","6500600","新店區"
"231035","719-UM","2018/07/23 12:59:30","新北市新店區安一路一段1-1號","121.519803333333","24.961505","6500600","新店區"
"231031","720-UM","2018/07/23 12:59:22","新北市新店區安一路一段1-1號","121.519298333333","24.9611733333333","6500600","新店區"
"231029","897-TW","2018/07/23 12:59:30","新北市新店區安華路28-1號","121.519671666667","24.960745","6500600","新店區"
"231024","AKT-0513","2018/07/23 12:59:37","新北市新店區安華路28-1號","121.51964","24.96052","6500600","新店區"
"235028","005-UY","2018/07/23 12:59:36","新北市中和區員山路36巷16-3號","121.485051666667","24.9912566666667","6500300","中和區"
"235027","006-UY","2018/07/23 12:59:30","新北市中和區員山路36巷16-3號","121.485011666667","24.9913483333333","6500300","中和區"
"235029","098-UM","2018/07/23 12:59:36","新北市中和區景平路727號","121.496415","25.0041683333333","6500300","中和區"
"235022","151-BY","2018/07/23 12:59:22","新北市中和區圓通路367巷6號","121.491476666667","24.989265","6500300","中和區"
"235002","185-VK","2018/07/23 12:59:35","新北市中和區秀朗路三段10巷14弄24-3號","121.525045","24.997125","6500300","中和區"
"235031","255-BX","2018/07/23 12:59:27","新北市中和區中正路895號","121.484261666667","25.0046766666667","6500300","中和區"
"235006","551-UM","2018/07/23 12:59:35","新北市中和區和城路一段271巷1號","121.485455","24.9921083333333","6500300","中和區"
"235034","558-UM","2018/07/23 12:59:32","新北市中和區員山路36巷16-3號","121.484893333333","24.9918066666667","6500300","中和區"
"235018","640-BX","2018/07/23 12:59:36","新北市中和區和城路一段271巷1號","121.485428333333","24.9921633333333","6500300","中和區"
"235011","732-UM","2018/07/23 12:59:39","新北市中和區錦和路350-1號","121.490046666667","24.9935216666667","6500300","中和區"
"235035","783-BX","2018/07/23 12:59:38","新北市中和區新生街142號","121.483615","25.00093","6500300","中和區"
"235026","800-TS","2018/07/23 12:59:41","新北市中和區和城路一段271巷1號","121.4863","24.99239","6500300","中和區"
"235021","801-TS","2018/07/23 12:59:35","新北市中和區員山路36巷16-3號","121.484828333333","24.9916633333333","6500300","中和區"
"235017","900-TW","2018/07/23 12:59:29","新北市中和區員山路36巷16-2號","121.4852","24.9917866666667","6500300","中和區"
"235015","157-BY","2018/07/23 12:59:35","新北市中和區和城路一段271巷1號","121.485395","24.9917966666667","6500300","中和區"
"235001","AAC-213","2018/07/23 12:59:20","新北市中和區錦和路350-1號","121.490546666667","24.99357","6500300","中和區"
"235016","251-BX","2018/07/23 12:59:26","新北市中和區員山路36巷16號","121.484533333333","24.9914583333333","6500300","中和區"
"253001","6251-TK","2018/07/23 12:59:24","新北市石門區中央路6號","121.566551666667","25.291345","6502200","石門區"
"253002","637-UY","2018/07/23 12:59:33","新北市石門區中山路64-1號","121.567386666667","25.2904983333333","6502200","石門區"
"253004","8270-PC","2018/07/23 12:59:28","新北市石門區中山路64-1號","121.567558333333","25.290455","6502200","石門區"
"207002","749-BX","2018/07/23 12:59:38","新北市萬里區雙興里大坪路45-2號","121.627898333333","25.1693466666667","6502800","萬里區"
"252005","073-UM","2018/07/23 12:59:33","新北市三芝區埔坪里埔頭坑107號","121.504616666667","25.2616766666667","6502100","三芝區"
"207001","662-BX","2018/07/23 12:59:37","新北市萬里區萬里里獅頭路23號","121.693645","25.1782666666667","6502800","萬里區"
"236005","498-BY","2018/07/23 12:59:39","新北市土城區亞洲路34號","121.435968333333","24.97429","6501300","土城區"
"242047","172-VK","2018/07/23 12:59:37","新北市新莊區新泰路2-2號","121.449763333333","25.03258","6500500","新莊區"
"221032","280-BY","2018/07/23 12:59:37","新北市汐止區建成路57巷1號","121.662488333333","25.0724916666667","6501100","汐止區"
"235032","KEA-2873","2018/07/23 12:59:37","新北市中和區員山路36巷16-3號","121.485148333333","24.9912833333333","6500300","中和區"
"235025","KEA-2875","2018/07/23 12:59:16","新北市中和區和城路一段271巷1號","121.485456666667","24.9915833333333","6500300","中和區"
