"lineid","car","time","location","longitude","latitude","cityid","cityname"
"234044","148-BY","2018/07/23 13:39:24","新北市永和區永元路102號","121.522543333333","25.0020016666667","6500400","永和區"
"234070","149-BY","2018/07/23 13:39:23","新北市永和區豫溪街217巷21號","121.524436666667","25.0100183333333","6500400","永和區"
"234005","207-UY","2018/07/23 13:39:33","新北市永和區永和路一段136號","121.514045","25.0079583333333","6500400","永和區"
"234078","298-R6","2018/07/23 13:39:40","新北市永和區林森路20巷7號","121.5258","25.0056866666667","6500400","永和區"
"234036","336-UY","2018/07/23 13:39:38","新北市永和區民樂街37巷8號","121.528116666667","25.000605","6500400","永和區"
"234062","337-UY","2018/07/23 13:39:35","新北市永和區秀朗路二段24巷43號","121.520008333333","25.0019183333333","6500400","永和區"
"234084","338-UY","2018/07/23 13:39:42","新北市永和區永亨路139號","121.525153333333","25.00396","6500400","永和區"
"234068","552-UM","2018/07/23 13:39:28","新北市永和區永和路二段217號","121.515531666667","25.01408","6500400","永和區"
"234066","553-UM","2018/07/23 13:39:20","新北市永和區中山路一段191巷7弄2號","121.509548333333","25.0082333333333","6500400","永和區"
"234015","745-BX","2018/07/23 13:39:34","新北市永和區文化路90巷32弄9-1號","121.513511666667","25.0170316666667","6500400","永和區"
"234028","746-BX","2018/07/23 13:39:33","新北市永和區民權路29巷12號","121.520756666667","24.9978933333333","6500400","永和區"
"234052","KEA-2590","2018/07/23 13:39:25","新北市永和區竹林路39巷22號","121.519053333333","25.014555","6500400","永和區"
"234012","KEA-2591","2018/07/23 13:39:26","新北市永和區永平路238巷6號","121.509315","25.0113633333333","6500400","永和區"
"234060","AAD-866","2018/07/23 13:39:39","新北市永和區中正路324號","121.517526666667","24.9994816666667","6500400","永和區"
"234040","862-TW","2018/07/23 13:39:39","新北市永和區水源街17巷1號","121.511593333333","25.0046516666667","6500400","永和區"
"234048","863-TW","2018/07/23 13:39:40","新北市永和區保安路29號","121.510025","25.0162533333333","6500400","永和區"
"234010","9373-KE","2018/07/23 13:39:41","新北市永和區仁愛路141巷5弄7號","121.51199","25.0121766666667","6500400","永和區"
"248013","025-BX","2018/07/23 13:39:26","新北市五股區蓬萊路24號","121.433876666667","25.0798833333333","6501500","五股區"
"248015","026-BX","2018/07/23 13:39:39","新北市五股區凌雲路一段149巷13-1號","121.448616666667","25.1008733333333","6501500","五股區"
"248005","077-UY","2018/07/23 13:39:26","新北市五股區中興路一段13號","121.469185","25.0723216666667","6501500","五股區"
"248007","095-VK","2018/07/23 13:39:28","新北市五股區中興路一段140巷10-1號","121.465061666667","25.0745783333333","6501500","五股區"
"248019","225-UY","2018/07/23 13:38:07","新北市五股區孝義路71-5號","121.445908333333","25.11946","6501500","五股區"
"248011","247-BX","2018/07/23 13:39:28","新北市五股區成泰路三段6號","121.441125","25.0875116666667","6501500","五股區"
"248003","655-BX","2018/07/23 13:39:32","新北市五股區民義路一段310-1號","121.424491666667","25.093805","6501500","五股區"
"248001","678-BX","2018/07/23 13:10:50","新北市五股區成泰路三段101-1號","121.444071666667","25.090205","6501500","五股區"
"248009","682-TV","2018/07/23 13:39:31","新北市五股區水碓三路143號","121.43167","25.0736216666667","6501500","五股區"
"234022","9380-KE","2018/07/23 13:39:24","新北市永和區竹林路91巷60弄70號","121.522941666667","25.0124066666667","6500400","永和區"
"234076","969-R7","2018/07/23 13:39:38","新北市永和區民權路42號","121.520163333333","24.9987383333333","6500400","永和區"
"234072","AAC-211","2018/07/23 13:39:35","新北市永和區竹林路213巷44號","121.523293333333","25.0091066666667","6500400","永和區"
"234001","AAC-295","2018/07/23 13:39:30","新北市永和區秀朗路一段37號","121.514106666667","25.006875","6500400","永和區"
"244001","248-BX","2018/07/23 13:39:38","新北市林口區汕頭12號","121.362596666667","25.13362","6501700","林口區"
"243005","AAD-798","2018/07/23 13:29:53","新北市泰山區明志路三段206巷3號","121.423293333333","25.03795","6501600","泰山區"
"243004","646-TV","2018/07/23 13:39:31","新北市泰山區泰林路二段533號","121.423426666667","25.0637516666667","6501600","泰山區"
"231002","002-UM","2018/07/23 13:39:31","新北市新店區中央三街127號","121.52406","24.9768083333333","6500600","新店區"
"231027","0293-UT","2018/07/23 13:39:38","新北市新店區北宜路一段115巷8弄3號","121.540918333333","24.95449","6500600","新店區"
"231028","046-UY","2018/07/23 13:39:28","新北市新店區安和路一段41號","121.517201666667","24.96541","6500600","新店區"
"231001","047-UY","2018/07/23 13:39:29","新北市新店區中正路359號","121.53502","24.976115","6500600","新店區"
"231005","106-UY","2018/07/23 13:39:25","新北市新店區寶中路45-3號","121.545148333333","24.9790516666667","6500600","新店區"
"231010","107-UY","2018/07/23 13:39:24","新北市新店區中正路307巷17號","121.535791666667","24.97357","6500600","新店區"
"231019","108-UY","2018/07/23 13:39:25","新北市新店區永興路88-1號","121.543925","24.9336483333333","6500600","新店區"
"231011","187-VK","2018/07/23 13:39:31","新北市新店區德正街29號","121.544618333333","24.9714233333333","6500600","新店區"
"231023","KEA-2219","2018/07/23 13:39:26","新北市新店區新店路122號","121.537096666667","24.95494","6500600","新店區"
"231026","256-BX","2018/07/23 13:39:25","新北市新店區中正路331-1號","121.53609","24.97525","6500600","新店區"
"231003","268-BY","2018/07/23 13:39:26","新北市新店區中正路84號","121.543703333333","24.9704216666667","6500600","新店區"
"231018","278-BY","2018/07/23 13:39:40","新北市新店區百忍街31號","121.533675","24.9756716666667","6500600","新店區"
"231014","AAD-862","2018/07/23 13:39:42","新北市新店區竹林路23號","121.551443333333","24.9515316666667","6500600","新店區"
"231038","3712-VJ","2018/07/23 13:39:38","新北市新店區安華路28-1號","121.519431666667","24.96062","6500600","新店區"
"231037","4716-K9","2018/07/23 13:39:24","新北市新店區薏仁坑路57號","121.49047","24.9647816666667","6500600","新店區"
"231025","4715-K9","2018/07/23 13:39:36","新北市新店區中央五街53號","121.528005","24.97554","6500600","新店區"
"231036","512-UM","2018/07/23 13:39:21","新北市新店區安祥路147巷55號","121.476173333333","24.9560233333333","6500600","新店區"
"231013","513-UM","2018/07/23 13:39:24","新北市新店區中正路454-5號","121.534445","24.9790133333333","6500600","新店區"
"231034","616-UM","2018/07/23 13:39:30","新北市新店區車子路121號","121.505243333333","24.9501166666667","6500600","新店區"
"231006","617-UM","2018/07/23 13:39:26","新北市新店區北宜路一段106號","121.538988333333","24.9552933333333","6500600","新店區"
"231030","619-UM","2018/07/23 13:39:06","新北市新店區安康路一段259號","121.524465","24.9633633333333","6500600","新店區"
"231035","719-UM","2018/07/23 13:39:30","新北市新店區安忠路56巷6號","121.51304","24.9594183333333","6500600","新店區"
"231031","720-UM","2018/07/23 13:39:42","新北市新店區莒光路85巷2號","121.523213333333","24.9561383333333","6500600","新店區"
"231029","897-TW","2018/07/23 13:39:29","新北市新店區安康路二段356號","121.502226666667","24.9574433333333","6500600","新店區"
"231004","899-TW","2018/07/23 13:39:22","新北市新店區北新路二段7號","121.542706666667","24.9713116666667","6500600","新店區"
"231024","AKT-0513","2018/07/23 13:39:37","新北市新店區北新路一段271巷34號","121.539863333333","24.967135","6500600","新店區"
"235030","003-UY","2018/07/23 13:39:35","新北市中和區水源路22號","121.504235","25.0035366666667","6500300","中和區"
"235028","005-UY","2018/07/23 13:39:36","新北市中和區連城路96號","121.496506666667","24.9999533333333","6500300","中和區"
"235027","006-UY","2018/07/23 13:39:30","新北市中和區連城路347巷4弄37號","121.486626666667","24.9955466666667","6500300","中和區"
"235020","096-UM","2018/07/23 13:39:28","新北市中和區員山路466巷21弄1號","121.48064","25.0069183333333","6500300","中和區"
"235003","097-UM","2018/07/23 13:39:20","新北市中和區景平路278巷14弄4號","121.514276666667","24.9928983333333","6500300","中和區"
"235029","098-UM","2018/07/23 13:39:36","新北市中和區中山路二段2巷79號","121.501351666667","25.0075733333333","6500300","中和區"
"235004","150-BY","2018/07/23 13:39:22","新北市中和區安平路59號","121.509596666667","24.9949533333333","6500300","中和區"
"235022","151-BY","2018/07/23 13:39:42","新北市中和區圓通路369巷39號","121.489751666667","24.985965","6500300","中和區"
"235019","183-VK","2018/07/23 13:39:24","新北市中和區莒光路120巷15弄2號","121.471691666667","25.001165","6500300","中和區"
"235002","185-VK","2018/07/23 13:39:34","新北市中和區大勇街76號","121.518228333333","24.9947783333333","6500300","中和區"
"235013","186-VK","2018/07/23 13:39:29","新北市中和區景平路490號","121.504873333333","24.993775","6500300","中和區"
"235031","255-BX","2018/07/23 13:39:27","新北市中和區新生街186巷5弄27號","121.482891666667","24.9986833333333","6500300","中和區"
"235008","293-VK","2018/07/23 13:39:40","新北市中和區復興路280巷1弄2號","121.502253333333","24.9906816666667","6500300","中和區"
"235036","301-VK","2018/07/23 13:39:37","新北市中和區連城路169號","121.495575","24.9983366666667","6500300","中和區"
"235007","352-BY","2018/07/23 13:39:42","新北市中和區景平路155號","121.513501666667","24.9922433333333","6500300","中和區"
"235014","4979-A6","2018/07/23 13:39:25","新北市中和區忠孝街124巷10號","121.512811666667","24.985965","6500300","中和區"
"235006","551-UM","2018/07/23 13:39:37","新北市中和區成功路107巷2號","121.526156666667","24.9912416666667","6500300","中和區"
"235034","558-UM","2018/07/23 13:39:32","新北市中和區南華路50號","121.504156666667","24.9967583333333","6500300","中和區"
"235009","565-BX","2018/07/23 13:39:28","新北市中和區南山路236巷63弄1號","121.503851666667","24.9876283333333","6500300","中和區"
"235018","640-BX","2018/07/23 13:39:36","新北市中和區民享街52號","121.473913333333","25.0024633333333","6500300","中和區"
"235024","647-TV","2018/07/23 13:39:23","新北市中和區中山路二段614號","121.481593333333","25.00539","6500300","中和區"
"235011","732-UM","2018/07/23 13:39:39","新北市中和區南山路320巷10弄21號","121.506745","24.98668","6500300","中和區"
"235010","733-UM","2018/07/23 13:39:22","新北市中和區興南路一段85巷8號","121.509965","24.988535","6500300","中和區"
"235035","783-BX","2018/07/23 13:39:38","新北市中和區永和路356巷51號","121.487235","25.014375","6500300","中和區"
"235026","800-TS","2018/07/23 13:39:26","新北市中和區景平路677巷2弄1號","121.496146666667","25.0027233333333","6500300","中和區"
"235021","801-TS","2018/07/23 13:39:35","新北市中和區民安街2巷20號","121.480173333333","25.00173","6500300","中和區"
"235005","802-TS","2018/07/23 13:39:21","新北市中和區中和路400巷27號","121.511916666667","25.0020633333333","6500300","中和區"
"235012","896-TW","2018/07/23 13:39:21","新北市中和區中正路83號","121.500596666667","24.9934116666667","6500300","中和區"
"235017","900-TW","2018/07/23 13:39:29","新北市中和區莒光路213號","121.469025","24.99462","6500300","中和區"
"235015","157-BY","2018/07/23 13:39:35","新北市中和區華新街143巷106弄28號","121.50609","24.97881","6500300","中和區"
"235001","AAC-213","2018/07/23 13:39:20","新北市中和區景德街72號","121.516795","24.9914916666667","6500300","中和區"
"235023","AAC-215","2018/07/23 13:39:26","新北市中和區中正路501號","121.488993333333","24.9935533333333","6500300","中和區"
"220013","072-UY","2018/07/23 13:39:33","新北市板橋區民族路151巷52號","121.470125","25.0084766666667","6500100","板橋區"
"220034","073-UY","2018/07/23 13:39:41","新北市板橋區南雅西路一段39巷30號","121.452765","25.00462","6500100","板橋區"
"220017","AAD-861","2018/07/23 13:39:25","新北市板橋區華東街1-10號","121.448338333333","24.9950166666667","6500100","板橋區"
"247005","336-TH","2018/07/23 13:39:25","新北市蘆洲區永安南路二段44-2號","121.466321666667","25.0775333333333","6501400","蘆洲區"
"247007","056-VK","2018/07/23 13:39:35","新北市蘆洲區國道路二段105號","121.470541666667","25.07492","6501400","蘆洲區"
"247001","002-UY","2018/07/23 13:39:32","新北市五股區中興路三段163號","121.449215","25.0806833333333","6501400","蘆洲區"
"235016","251-BX","2018/07/23 13:39:25","新北市中和區興南路三段42-3號","121.49566","24.977025","6500300","中和區"
"253003","6232-TK","2018/07/23 13:39:32","新北市石門區尖子鹿4號","121.573963333333","25.2835733333333","6502200","石門區"
"253001","6251-TK","2018/07/23 13:39:24","新北市石門區下員坑20號","121.51128","25.2788383333333","6502200","石門區"
"253002","637-UY","2018/07/23 13:39:33","新北市石門區內石門78-1號","121.568848333333","25.2561983333333","6502200","石門區"
"253004","8270-PC","2018/07/23 13:39:28","新北市石門區五爪崙4號","121.61335","25.258235","6502200","石門區"
"207002","749-BX","2018/07/23 13:39:38","新北市萬里區崁腳里崁腳路166號","121.645068333333","25.155805","6502800","萬里區"
"252005","073-UM","2018/07/23 13:39:33","新北市三芝區圓山里內柑宅27-1號","121.537198333333","25.2200666666667","6502100","三芝區"
"207001","662-BX","2018/07/23 13:39:37","新北市萬里區磺潭里公館崙18-1號","121.637963333333","25.2141083333333","6502800","萬里區"
"236064","105-UM","2018/07/23 13:39:35","新北市土城區城林路6巷80號","121.43865","24.9796566666667","6501300","土城區"
"236040","107-UM","2018/07/23 13:39:37","新北市土城區城林路6巷80號","121.438501666667","24.9797766666667","6501300","土城區"
"236074","166-UM","2018/07/23 13:39:24","新北市土城區城林路6巷80號","121.438778333333","24.9797016666667","6501300","土城區"
"236032","271-VK","2018/07/23 13:39:26","新北市土城區城林路6巷80號","121.43845","24.9798","6501300","土城區"
"236016","401-BY","2018/07/23 13:39:36","新北市土城區城林路6巷80號","121.438473333333","24.979795","6501300","土城區"
"236005","498-BY","2018/07/23 13:39:39","新北市土城區中華路二段90號","121.438185","24.974905","6501300","土城區"
"236057","912-UM","2018/07/23 13:39:33","新北市土城區城林路6巷80號","121.438551666667","24.97971","6501300","土城區"
"242047","172-VK","2018/07/23 13:39:37","新北市新莊區新樹路613號","121.435193333333","25.004415","6500500","新莊區"
"221032","280-BY","2018/07/23 13:39:37","新北市汐止區新台五路一段280號","121.659231666667","25.064875","6501100","汐止區"
"220028","200-UY","2018/07/23 13:39:41","新北市板橋區大觀路二段265巷76弄27號","121.441513333333","24.9966616666667","6500100","板橋區"
"220030","610-BX","2018/07/23 13:39:40","新北市板橋區篤行路一段22號","121.431958333333","24.9943216666667","6500100","板橋區"
"220027","256-TC","2018/07/23 13:39:40","新北市板橋區南雅西路二段190號","121.45161","25.014435","6500100","板橋區"
"220004","276-BY","2018/07/23 13:39:31","新北市板橋區四川路二段140巷20號","121.449245","24.9933733333333","6500100","板橋區"
"220020","277-BY","2018/07/23 13:39:24","新北市板橋區大觀路三段62巷2號","121.433266666667","24.9951733333333","6500100","板橋區"
"220019","283-VK","2018/07/23 13:39:39","新北市板橋區四川路二段140巷14號","121.449435","24.99328","6500100","板橋區"
"220043","285-UM","2018/07/23 13:39:36","新北市板橋區民生路二段161巷1號","121.47002","25.019795","6500100","板橋區"
"220031","286-VK","2018/07/23 13:39:36","新北市板橋區大觀路二段5-4號","121.44689","25.0037033333333","6500100","板橋區"
"220029","287-VK","2018/07/23 13:39:34","新北市板橋區大觀路二段5-4號","121.446908333333","25.0037116666667","6500100","板橋區"
"220039","288-VK","2018/07/23 13:39:37","新北市板橋區民生路二段120號","121.47041","25.019475","6500100","板橋區"
"220009","293-UM","2018/07/23 13:39:32","新北市板橋區民生路二段56-6號","121.470861666667","25.0188066666667","6500100","板橋區"
"220032","296-UM","2018/07/23 13:39:36","新北市板橋區大觀路二段148巷26號","121.441931666667","24.9997633333333","6500100","板橋區"
"220023","303-R5","2018/07/23 13:39:28","新北市板橋區華東街260號","121.452581666667","25.0015883333333","6500100","板橋區"
"220010","305-R5","2018/07/23 13:39:33","新北市板橋區民生路二段120號","121.470565","25.01947","6500100","板橋區"
"220047","317-R6","2018/07/23 13:39:37","新北市板橋區民生路二段161巷7號","121.470176666667","25.0196583333333","6500100","板橋區"
"220012","486-VK","2018/07/23 13:39:29","新北市板橋區縣民大道二段200巷33號","121.47061","25.01791","6500100","板橋區"
"220104","560-BX","2018/07/23 13:39:23","新北市板橋區中正路275巷79弄13號","121.452108333333","25.01747","6500100","板橋區"
"220052","561-BX","2018/07/23 13:39:40","新北市板橋區民生路二段161巷5號","121.470191666667","25.019705","6500100","板橋區"
"220011","609-BX","2018/07/23 13:39:29","新北市板橋區民生路二段188號","121.46991","25.0203733333333","6500100","板橋區"
"220005","686-BX","2018/07/23 13:39:24","新北市板橋區華東街1-9號","121.4482","24.99489","6500100","板橋區"
"220025","687-BX","2018/07/23 13:39:38","新北市板橋區沙崙街41號","121.430261666667","24.994365","6500100","板橋區"
"220042","689-BX","2018/07/23 13:39:42","新北市板橋區民生路二段120號","121.470783333333","25.019915","6500100","板橋區"
"220002","741-BX","2018/07/23 13:39:26","新北市板橋區華東街1-8號","121.44793","24.9947716666667","6500100","板橋區"
"220003","827-TW","2018/07/23 13:39:32","新北市板橋區華東街1-9號","121.44823","24.99496","6500100","板橋區"
"220014","829-TW","2018/07/23 13:39:28","新北市板橋區民生路二段120號","121.470736666667","25.0197916666667","6500100","板橋區"
"220045","831-TW","2018/07/23 13:26:44","新北市板橋區民生路二段89-6號","121.470656666667","25.01932","6500100","板橋區"
"220038","833-TW","2018/07/23 13:39:25","新北市板橋區三民路二段257號","121.479075","25.011595","6500100","板橋區"
"220022","895-R6","2018/07/23 13:39:33","新北市板橋區南雅南路一段83號","121.455605","25.00553","6500100","板橋區"
"220021","985-R7","2018/07/23 13:39:31","新北市板橋區南雅南路二段140號","121.451778333333","24.996245","6500100","板橋區"
"220046","AAC-210","2018/07/23 13:39:19","新北市板橋區民生路二段120號","121.470488333333","25.0199583333333","6500100","板橋區"
"220018","AAC-253","2018/07/23 13:39:39","新北市板橋區華東街1-9號","121.448275","24.9948816666667","6500100","板橋區"
"235032","KEA-2873","2018/07/23 13:39:36","新北市中和區圓通路265巷38號","121.496128333333","24.9924466666667","6500300","中和區"
"235025","KEA-2875","2018/07/23 13:39:30","新北市中和區民享街52號","121.474055","25.00251","6500300","中和區"
