"lineid","car","time","location","longitude","latitude","cityid","cityname"
"234044","148-BY","2018/07/23 13:49:25","新北市永和區永利路141號","121.524188333333","25.003385","6500400","永和區"
"234070","149-BY","2018/07/23 13:49:43","新北市板橋區文化路二段656號","121.481503333333","25.03783","6500400","永和區"
"234005","207-UY","2018/07/23 13:49:33","新北市永和區永和路一段8號","121.512911666667","25.0045266666667","6500400","永和區"
"234078","298-R6","2018/07/23 13:49:39","新北市永和區林森路99號","121.523521666667","25.0036466666667","6500400","永和區"
"234036","336-UY","2018/07/23 13:49:38","新北市永和區民樂街57巷6號","121.52798","24.99846","6500400","永和區"
"234062","337-UY","2018/07/23 13:49:35","新北市永和區中正路416號","121.517596666667","25.00209","6500400","永和區"
"234084","338-UY","2018/07/23 13:49:22","新北市永和區中正路558號","121.517208333333","25.0057366666667","6500400","永和區"
"234068","552-UM","2018/07/23 13:49:28","新北市永和區竹林路88號","121.519381666667","25.0125683333333","6500400","永和區"
"234066","553-UM","2018/07/23 13:49:41","新北市永和區永貞路355巷24號","121.50875","25.007305","6500400","永和區"
"234015","745-BX","2018/07/23 13:49:34","新北市永和區永和路二段264號","121.516068333333","25.015185","6500400","永和區"
"234028","746-BX","2018/07/23 13:49:28","新北市永和區民生路47巷4號","121.523066666667","24.9978066666667","6500400","永和區"
"234052","KEA-2590","2018/07/23 13:49:25","新北市永和區竹林路75巷25弄8號","121.520118333333","25.0143983333333","6500400","永和區"
"234012","KEA-2591","2018/07/23 13:49:26","新北市永和區永平路286號","121.507603333333","25.011945","6500400","永和區"
"234060","AAD-866","2018/07/23 13:49:38","新北市永和區中正路283巷28號","121.516991666667","25.0006933333333","6500400","永和區"
"234040","862-TW","2018/07/23 13:49:41","新北市永和區中和路389巷44弄2號","121.508048333333","25.0021683333333","6500400","永和區"
"234048","863-TW","2018/07/23 13:49:34","新北市永和區保安路144號","121.508515","25.0148233333333","6500400","永和區"
"234010","9373-KE","2018/07/23 13:49:22","新北市永和區保福路二段23巷21號","121.510045","25.0112316666667","6500400","永和區"
"248013","025-BX","2018/07/23 13:49:26","新北市五股區民義路一段43號","121.436338333333","25.08446","6501500","五股區"
"248015","026-BX","2018/07/23 13:49:39","新北市五股區凌雲路一段83巷44號","121.449005","25.1012283333333","6501500","五股區"
"248005","077-UY","2018/07/23 13:49:26","新北市蘆洲區中山二路300巷1號","121.468505","25.076635","6501500","五股區"
"248007","095-VK","2018/07/23 13:49:28","新北市五股區中興路一段149號","121.465065","25.0733916666667","6501500","五股區"
"248019","225-UY","2018/07/23 13:49:27","新北市五股區凌雲路三段35-1號","121.430505","25.1166333333333","6501500","五股區"
"248011","247-BX","2018/07/23 13:49:28","新北市五股區成泰路二段195巷1號","121.440328333333","25.08736","6501500","五股區"
"248003","655-BX","2018/07/23 13:49:32","新北市五股區民義路二段83號","121.40843","25.1059116666667","6501500","五股區"
"248009","682-TV","2018/07/23 13:49:31","新北市五股區水碓九路35號","121.4288","25.07198","6501500","五股區"
"234076","969-R7","2018/07/23 13:49:38","新北市永和區民族街41巷15號","121.519243333333","24.998955","6500400","永和區"
"234072","AAC-211","2018/07/23 13:49:36","新北市永和區竹林路201巷26弄8號","121.522665","25.0100516666667","6500400","永和區"
"234001","AAC-295","2018/07/23 13:49:28","新北市永和區永和路一段63號","121.513155","25.007035","6500400","永和區"
"243005","AAD-798","2018/07/23 13:29:53","新北市泰山區明志路三段206巷3號","121.423293333333","25.03795","6501600","泰山區"
"243008","380-SR","2018/07/23 13:49:24","新北市泰山區明志路二段125號","121.427918333333","25.0513","6501600","泰山區"
"243003","KEA-2215","2018/07/23 13:49:25","新北市泰山區泰林路二段233號","121.432173333333","25.06201","6501600","泰山區"
"243002","KEA-2216","2018/07/23 13:49:29","新北市泰山區公園路97號","121.424683333333","25.0559233333333","6501600","泰山區"
"243004","646-TV","2018/07/23 13:49:31","新北市泰山區泰林路二段73巷33號","121.434356666667","25.057785","6501600","泰山區"
"243006","680-BX","2018/07/23 13:49:34","新北市泰山區犁頭窠3-1號","121.422168333333","25.060495","6501600","泰山區"
"231002","002-UM","2018/07/23 13:49:31","新北市新店區溪園路393號","121.524278333333","24.9790266666667","6500600","新店區"
"231027","0293-UT","2018/07/23 13:49:38","新北市新店區中興路一段24號","121.538638333333","24.9582883333333","6500600","新店區"
"231028","046-UY","2018/07/23 13:49:36","新北市新店區安和路二段221號","121.517373333333","24.9758716666667","6500600","新店區"
"231001","047-UY","2018/07/23 13:49:29","新北市新店區三民路139號","121.53429","24.97259","6500600","新店區"
"231005","106-UY","2018/07/23 13:49:25","新北市新店區寶中路121-1號","121.549576666667","24.979395","6500600","新店區"
"231010","107-UY","2018/07/23 13:49:24","新北市新店區平等街66號","121.535693333333","24.97228","6500600","新店區"
"231019","108-UY","2018/07/23 13:49:25","新北市新店區永興路90-1號","121.54385","24.9315416666667","6500600","新店區"
"231011","187-VK","2018/07/23 13:49:31","新北市新店區德正街27巷29弄3號","121.545588333333","24.9718566666667","6500600","新店區"
"231023","KEA-2219","2018/07/23 13:49:31","新北市新店區國校路65巷1號","121.538305","24.95411","6500600","新店區"
"231026","256-BX","2018/07/23 13:49:25","新北市新店區三民路159巷19弄34號","121.53238","24.9734066666667","6500600","新店區"
"231003","268-BY","2018/07/23 13:49:27","新北市新店區中興路一段164號","121.54273","24.9641183333333","6500600","新店區"
"231018","278-BY","2018/07/23 13:49:20","新北市新店區中正路400巷4號","121.534833333333","24.9775433333333","6500600","新店區"
"231014","AAD-862","2018/07/23 13:49:42","新北市新店區竹林路94號","121.5539","24.9502366666667","6500600","新店區"
"231038","3712-VJ","2018/07/23 13:49:38","新北市新店區安華路28-1號","121.519428333333","24.9605966666667","6500600","新店區"
"231037","4716-K9","2018/07/23 13:49:24","新北市新店區安康路三段250號","121.487556666667","24.9518033333333","6500600","新店區"
"231025","4715-K9","2018/07/23 13:49:39","新北市新店區中正路281號","121.53755","24.9743966666667","6500600","新店區"
"231036","512-UM","2018/07/23 13:49:21","新北市新店區安祥路114號","121.474965","24.956535","6500600","新店區"
"231013","513-UM","2018/07/23 13:49:24","新北市新店區二十張路25巷18弄16號","121.539146666667","24.9816183333333","6500600","新店區"
"231034","616-UM","2018/07/23 13:49:30","新北市新店區達觀路14巷2號","121.503245","24.9415483333333","6500600","新店區"
"231006","617-UM","2018/07/23 13:49:26","新北市新店區北宜路一段278號","121.54636","24.9526766666667","6500600","新店區"
"231030","619-UM","2018/07/23 13:49:28","新北市新店區安康路一段46巷4號","121.530645","24.96104","6500600","新店區"
"231035","719-UM","2018/07/23 13:49:30","新北市新店區安忠路57巷2號","121.513461666667","24.959195","6500600","新店區"
"231031","720-UM","2018/07/23 13:49:42","新北市新店區莒光路44巷21弄11-6號","121.518496666667","24.952225","6500600","新店區"
"231029","897-TW","2018/07/23 13:49:30","新北市新店區安康路二段274號","121.508398333333","24.9587283333333","6500600","新店區"
"231004","899-TW","2018/07/23 13:49:42","新北市新店區寶橋路132號","121.547208333333","24.9761783333333","6500600","新店區"
"231024","AKT-0513","2018/07/23 13:49:37","新北市新店區北新路一段271巷8號","121.540578333333","24.9667733333333","6500600","新店區"
"235030","003-UY","2018/07/23 13:49:35","新北市中和區水源路16號","121.504051666667","25.0034866666667","6500300","中和區"
"235028","005-UY","2018/07/23 13:49:36","新北市中和區中和路49號","121.50014","25.0012966666667","6500300","中和區"
"235027","006-UY","2018/07/23 13:49:30","新北市中和區錦和路196巷5號","121.489751666667","24.994925","6500300","中和區"
"235020","096-UM","2018/07/23 13:49:28","新北市中和區立德街329號","121.481568333333","25.0104366666667","6500300","中和區"
"235003","097-UM","2018/07/23 13:49:40","新北市中和區大仁街108號","121.520581666667","24.9928583333333","6500300","中和區"
"235029","098-UM","2018/07/23 13:49:36","新北市中和區勝利路35巷9弄22號","121.500008333333","25.00746","6500300","中和區"
"235004","150-BY","2018/07/23 13:49:42","新北市中和區保健路48巷54號","121.50925","24.9960233333333","6500300","中和區"
"235022","151-BY","2018/07/23 13:49:42","新北市中和區連城路585號","121.478746666667","24.99412","6500300","中和區"
"235019","183-VK","2018/07/23 13:49:24","新北市中和區德光路77巷1號","121.4695","25.0035033333333","6500300","中和區"
"235002","185-VK","2018/07/23 13:49:34","新北市中和區大勇街76號","121.518235","24.994865","6500300","中和區"
"235013","186-VK","2018/07/23 13:49:29","新北市中和區景安路177巷1號","121.50552","24.99422","6500300","中和區"
"235031","255-BX","2018/07/23 13:49:27","新北市中和區新生街242巷1弄2號","121.483281666667","24.9976416666667","6500300","中和區"
"235008","293-VK","2018/07/23 13:49:40","新北市中和區中興街133號","121.499956666667","24.9914966666667","6500300","中和區"
"235036","301-VK","2018/07/23 13:49:37","新北市中和區中山路二段191號","121.500041666667","25.0026816666667","6500300","中和區"
"235007","352-BY","2018/07/23 13:49:43","新北市中和區景平路4號","121.524331666667","24.9903116666667","6500300","中和區"
"235014","4979-A6","2018/07/23 13:49:25","新北市中和區忠孝街62巷40號","121.512976666667","24.98369","6500300","中和區"
"235006","551-UM","2018/07/23 13:49:35","新北市中和區秀朗路三段100巷4號","121.525528333333","24.9933233333333","6500300","中和區"
"235034","558-UM","2018/07/23 13:49:32","新北市中和區南山路17號","121.501988333333","24.999125","6500300","中和區"
"235009","565-BX","2018/07/23 13:49:28","新北市中和區興南路一段86號","121.509871666667","24.9894283333333","6500300","中和區"
"235018","640-BX","2018/07/23 13:49:36","新北市中和區民享街35巷10號","121.474663333333","25.0039683333333","6500300","中和區"
"235024","647-TV","2018/07/23 13:49:36","新北市中和區中山路三段208號","121.471561666667","25.006565","6500300","中和區"
"235011","732-UM","2018/07/23 13:49:39","新北市中和區興南路二段34巷58號","121.504863333333","24.9850183333333","6500300","中和區"
"235010","733-UM","2018/07/23 13:49:22","新北市中和區仁愛街36巷36號","121.511228333333","24.9866383333333","6500300","中和區"
"235035","783-BX","2018/07/23 13:49:38","新北市中和區立德街12號","121.49011","25.0066083333333","6500300","中和區"
"235026","800-TS","2018/07/23 13:49:39","新北市中和區景平路703巷6號","121.495916666667","25.0034983333333","6500300","中和區"
"235021","801-TS","2018/07/23 13:49:35","新北市中和區民安街25巷13號","121.480573333333","25.0001883333333","6500300","中和區"
"235005","802-TS","2018/07/23 13:49:41","新北市永和區中和路603號","121.512351666667","25.00418","6500300","中和區"
"235012","896-TW","2018/07/23 13:49:41","新北市中和區南山路198號","121.506033333333","24.9905433333333","6500300","中和區"
"235017","900-TW","2018/07/23 13:49:29","新北市中和區華福街36號","121.466218333333","24.9966616666667","6500300","中和區"
"235015","157-BY","2018/07/23 13:49:35","新北市中和區忠孝街46號","121.511048333333","24.9834516666667","6500300","中和區"
"235001","AAC-213","2018/07/23 13:49:40","新北市中和區秀朗路三段128巷7弄1號","121.524563333333","24.9927866666667","6500300","中和區"
"235023","AAC-215","2018/07/23 13:49:26","新北市中和區圓通路393巷16號","121.489791666667","24.988565","6500300","中和區"
"220013","072-UY","2018/07/23 13:49:33","新北市板橋區民族路247巷5弄48號","121.470425","25.0085133333333","6500100","板橋區"
"220034","073-UY","2018/07/23 13:49:21","新北市板橋區大智街20號","121.455718333333","25.0148433333333","6500100","板橋區"
"220105","075-UY","2018/07/23 13:49:24","新北市板橋區民生路二段161巷9號","121.470193333333","25.019575","6500100","板橋區"
"220017","AAD-861","2018/07/23 13:49:25","新北市板橋區南雅南路一段1巷42號","121.45749","25.0063266666667","6500100","板橋區"
"247003","337-TH","2018/07/23 13:49:27","新北市蘆洲區中原路26號","121.46014","25.0829266666667","6501400","蘆洲區"
"247005","336-TH","2018/07/23 13:49:42","新北市蘆洲區中山二路256號","121.46931","25.078965","6501400","蘆洲區"
"247007","056-VK","2018/07/23 13:49:35","新北市蘆洲區重陽街70號","121.481783333333","25.084185","6501400","蘆洲區"
"247015","007-UY","2018/07/23 13:49:31","新北市蘆洲區光華路29號","121.469171666667","25.083175","6501400","蘆洲區"
"247001","002-UY","2018/07/23 13:49:32","新北市蘆洲區長榮路709號","121.461043333333","25.0929733333333","6501400","蘆洲區"
"235016","251-BX","2018/07/23 13:49:36","新北市中和區興南路二段399巷2-1號","121.49856","24.9794583333333","6500300","中和區"
"253003","6232-TK","2018/07/23 13:49:32","新北市石門區尖子鹿50號","121.579535","25.2734933333333","6502200","石門區"
"253001","6251-TK","2018/07/23 13:49:24","新北市石門區下員坑18-1號","121.510918333333","25.2791733333333","6502200","石門區"
"253002","637-UY","2018/07/23 13:49:33","新北市石門區尖山湖55號","121.56524","25.2485633333333","6502200","石門區"
"253004","8270-PC","2018/07/23 13:49:39","新北市石門區阿里荖60-1號","121.607355","25.27124","6502200","石門區"
"207002","749-BX","2018/07/23 13:49:38","新北市萬里區崁腳里崁腳路166號","121.64509","25.1558066666667","6502800","萬里區"
"252005","073-UM","2018/07/23 13:49:33","新北市三芝區圓山里內柑宅25-1號","121.537316666667","25.2241566666667","6502100","三芝區"
"207001","662-BX","2018/07/23 13:49:37","新北市萬里區磺潭里公館崙42號","121.630653333333","25.2080583333333","6502800","萬里區"
"236064","105-UM","2018/07/23 13:49:35","新北市土城區城林路6巷80號","121.43864","24.9796733333333","6501300","土城區"
"236040","107-UM","2018/07/23 13:49:37","新北市土城區城林路6巷80號","121.438455","24.979765","6501300","土城區"
"236074","166-UM","2018/07/23 13:49:24","新北市土城區中央路三段134-1號","121.433566666667","24.9656116666667","6501300","土城區"
"236029","253-BX","2018/07/23 13:49:26","新北市土城區城林路6巷80號","121.438538333333","24.9797716666667","6501300","土城區"
"236024","269-VK","2018/07/23 13:49:26","新北市土城區中華路二段26-1號","121.439291666667","24.9781183333333","6501300","土城區"
"236012","270-VK","2018/07/23 13:49:32","新北市土城區城林路6巷80號","121.438583333333","24.9797666666667","6501300","土城區"
"236032","271-VK","2018/07/23 13:49:26","新北市土城區城林路6巷80號","121.43848","24.9798166666667","6501300","土城區"
"236016","401-BY","2018/07/23 13:49:36","新北市土城區城林路6巷80號","121.438476666667","24.979775","6501300","土城區"
"236005","498-BY","2018/07/23 13:49:39","新北市土城區員福街8號","121.441755","24.9784383333333","6501300","土城區"
"236057","912-UM","2018/07/23 13:49:33","新北市土城區中央路三段138巷1號","121.433281666667","24.965695","6501300","土城區"
"236060","915-UM","2018/07/23 13:49:28","新北市土城區城林路6巷80號","121.438581666667","24.979705","6501300","土城區"
"242047","172-VK","2018/07/23 13:49:37","新北市板橋區金門街215巷57弄22-1號","121.43501","24.99004","6500500","新莊區"
"221032","280-BY","2018/07/23 13:49:37","新北市汐止區汐萬路一段256巷3號","121.652445","25.0745666666667","6501100","汐止區"
"220028","200-UY","2018/07/23 13:49:24","新北市板橋區大觀路二段265巷60弄51號","121.441415","24.997745","6500100","板橋區"
"220030","610-BX","2018/07/23 13:49:40","新北市板橋區篤行路三段玉平巷68弄2號","121.428008333333","24.98613","6500100","板橋區"
"220050","245-BX","2018/07/23 13:49:34","新北市板橋區莊敬路208巷8弄9號","121.470658333333","25.0204366666667","6500100","板橋區"
"220027","256-TC","2018/07/23 13:49:20","新北市板橋區民權路202巷1弄2號","121.459525","25.0142133333333","6500100","板橋區"
"220004","276-BY","2018/07/23 13:49:38","新北市板橋區四川路二段28號","121.454275","24.995595","6500100","板橋區"
"220020","277-BY","2018/07/23 13:49:29","新北市板橋區大觀路三段36巷46號","121.434403333333","24.9968116666667","6500100","板橋區"
"220019","283-VK","2018/07/23 13:49:39","新北市板橋區忠孝路176巷48號","121.465496666667","25.001695","6500100","板橋區"
"220043","285-UM","2018/07/23 13:49:36","新北市板橋區民生路二段161巷9號","121.470226666667","25.0196516666667","6500100","板橋區"
"220001","285-VK","2018/07/23 13:49:27","新北市板橋區縣民大道二段200巷35號","121.470916666667","25.0181033333333","6500100","板橋區"
"220031","286-VK","2018/07/23 13:49:33","新北市板橋區大觀路一段38巷156弄147號","121.443793333333","25.00891","6500100","板橋區"
"220029","287-VK","2018/07/23 13:49:34","新北市板橋區光華街15巷2號","121.454028333333","25.01188","6500100","板橋區"
"220039","288-VK","2018/07/23 13:49:37","新北市板橋區民生路二段120號","121.470561666667","25.01943","6500100","板橋區"
"220009","293-UM","2018/07/23 13:49:33","新北市板橋區民生路二段89-4號","121.471215","25.018585","6500100","板橋區"
"220032","296-UM","2018/07/23 13:49:36","新北市板橋區大觀路二段156巷67號","121.441183333333","25.00037","6500100","板橋區"
"220023","303-R5","2018/07/23 13:49:28","新北市板橋區南雅西路一段174巷3號","121.452931666667","25.0077833333333","6500100","板橋區"
"220010","305-R5","2018/07/23 13:49:33","新北市板橋區中山路二段28號","121.472661666667","25.0151616666667","6500100","板橋區"
"220047","317-R6","2018/07/23 13:49:37","新北市板橋區民生路二段120號","121.470505","25.019545","6500100","板橋區"
"220012","486-VK","2018/07/23 13:49:39","新北市板橋區中山路二段37號","121.473066666667","25.0155316666667","6500100","板橋區"
"220037","491-VK","2018/07/23 13:49:28","新北市板橋區民生路二段188號","121.469928333333","25.0204116666667","6500100","板橋區"
"220104","560-BX","2018/07/23 13:49:23","新北市板橋區中正路275巷15號","121.454883333333","25.0186366666667","6500100","板橋區"
"220052","561-BX","2018/07/23 13:49:40","新北市板橋區民生路二段120號","121.470445","25.0199583333333","6500100","板橋區"
"220011","609-BX","2018/07/23 13:49:28","新北市板橋區民生路二段56-2號","121.472141666667","25.01712","6500100","板橋區"
"220005","686-BX","2018/07/23 13:49:24","新北市板橋區南雅西路一段7巷5號","121.454488333333","25.0038516666667","6500100","板橋區"
"220025","687-BX","2018/07/23 13:49:18","新北市板橋區金門街86-2號","121.433125","24.9926966666667","6500100","板橋區"
"220042","689-BX","2018/07/23 13:49:22","新北市板橋區民生路二段188號","121.47023","25.020255","6500100","板橋區"
"220002","741-BX","2018/07/23 13:49:26","新北市板橋區後埔街14號","121.460366666667","25.0067416666667","6500100","板橋區"
"220051","KEA-2699","2018/07/23 13:49:30","新北市板橋區民生路二段120號","121.470626666667","25.0196883333333","6500100","板橋區"
"220003","827-TW","2018/07/23 13:49:32","新北市板橋區縣民大道一段296號","121.46072","25.00986","6500100","板橋區"
"220014","829-TW","2018/07/23 13:49:28","新北市板橋區三民路二段正隆巷45號","121.47682","25.0133266666667","6500100","板橋區"
"220045","831-TW","2018/07/23 13:26:44","新北市板橋區民生路二段89-6號","121.470656666667","25.01932","6500100","板橋區"
"220038","833-TW","2018/07/23 13:49:25","新北市板橋區雙十路二段37-1號","121.476823333333","25.0259133333333","6500100","板橋區"
"220022","895-R6","2018/07/23 13:49:36","新北市板橋區府中路53號","121.458416666667","25.0091516666667","6500100","板橋區"
"220021","985-R7","2018/07/23 13:49:31","新北市板橋區館前西路127號","121.456513333333","25.0075883333333","6500100","板橋區"
"220046","AAC-210","2018/07/23 13:47:19","新北市板橋區民生路二段148號","121.471455","25.0194116666667","6500100","板橋區"
"220018","AAC-253","2018/07/23 13:49:39","新北市板橋區四川路一段2號","121.459313333333","25.0070566666667","6500100","板橋區"
"235032","KEA-2873","2018/07/23 13:49:36","新北市中和區圓通路162巷35號","121.496516666667","24.9955866666667","6500300","中和區"
"235025","KEA-2875","2018/07/23 13:49:16","新北市中和區民治街132巷1號","121.475301666667","25.002365","6500300","中和區"
