"lineid","car","time","location","longitude","latitude","cityid","cityname"
"234044","148-BY","2018/07/23 14:09:25","新北市永和區得和路352號","121.523823333333","24.999365","6500400","永和區"
"234070","149-BY","2018/07/23 14:09:23","新北市八里區中山路三段382號","121.368603333333","25.13589","6500400","永和區"
"234005","207-UY","2018/07/23 14:09:33","新北市中和區中和路232號","121.506653333333","24.999605","6500400","永和區"
"234078","298-R6","2018/07/23 14:09:20","新北市永和區國中路53號","121.524555","25.0061066666667","6500400","永和區"
"234036","336-UY","2018/07/23 14:09:18","新北市永和區成功路一段74號","121.526865","25.003435","6500400","永和區"
"234062","337-UY","2018/07/23 14:09:35","新北市永和區永利路83-1號","121.521313333333","25.0035266666667","6500400","永和區"
"234084","338-UY","2018/07/23 14:09:33","新北市永和區中正路539號","121.516776666667","25.0079183333333","6500400","永和區"
"234068","552-UM","2018/07/23 14:09:28","新北市永和區永貞路10巷1弄1號","121.520515","25.00728","6500400","永和區"
"234066","553-UM","2018/07/23 14:09:20","新北市永和區保平路236巷12弄7號","121.50871","25.0065416666667","6500400","永和區"
"234015","745-BX","2018/07/23 14:09:34","新北市永和區永和路二段215號","121.515518333333","25.0139516666667","6500400","永和區"
"234028","746-BX","2018/07/23 14:09:28","新北市永和區民權路49巷6號","121.520483333333","24.9969633333333","6500400","永和區"
"234052","KEA-2590","2018/07/23 14:09:25","新北市永和區博愛街45巷2號","121.51932","25.0158766666667","6500400","永和區"
"234012","KEA-2591","2018/07/23 14:09:26","新北市永和區永貞路387號","121.508031666667","25.0086783333333","6500400","永和區"
"234060","AAD-866","2018/07/23 14:09:19","新北市永和區安樂路158號","121.51445","25.0006716666667","6500400","永和區"
"234040","862-TW","2018/07/23 14:09:32","新北市永和區雙和街41號","121.508858333333","25.00246","6500400","永和區"
"234048","863-TW","2018/07/23 14:09:34","新北市永和區環河西路二段81號","121.506678333333","25.015105","6500400","永和區"
"234025","9371-KE","2018/07/23 14:09:25","新北市永和區安樂路272巷9弄7號","121.515056666667","25.004575","6500400","永和區"
"234010","9373-KE","2018/07/23 14:09:21","新北市永和區仁愛路352巷94號","121.50117","25.00798","6500400","永和區"
"248015","026-BX","2018/07/23 14:09:19","新北市五股區成泰路三段543巷56號","121.449553333333","25.103085","6501500","五股區"
"248006","077-UY","2018/07/23 14:05:34","新北市五股區中興路二段83巷26-6號","121.460016666667","25.074995","6501500","五股區"
"248007","095-VK","2018/07/23 14:09:28","新北市五股區中興路一段118巷6弄27號","121.466316666667","25.075165","6501500","五股區"
"248019","225-UY","2018/07/23 14:02:51","新北市五股區凌雲路三段57號","121.425313333333","25.124995","6501500","五股區"
"248011","247-BX","2018/07/23 14:09:28","新北市五股區工商路36巷16號","121.439781666667","25.084235","6501500","五股區"
"248003","655-BX","2018/07/23 14:09:32","新北市五股區五福路7-1號","121.434286666667","25.0880783333333","6501500","五股區"
"248009","682-TV","2018/07/23 14:09:31","新北市五股區水碓一路23號","121.430608333333","25.071305","6501500","五股區"
"234022","9380-KE","2018/07/23 14:09:24","新北市永和區中正路662巷48號","121.518375","25.0088466666667","6500400","永和區"
"234076","969-R7","2018/07/23 14:09:18","新北市永和區民族街81巷62號","121.520201666667","24.9964566666667","6500400","永和區"
"234072","AAC-211","2018/07/23 14:09:35","新北市永和區豫溪街156-1號","121.522791666667","25.0097366666667","6500400","永和區"
"234001","AAC-295","2018/07/23 14:09:28","新北市永和區中正路704號","121.516263333333","25.0098716666667","6500400","永和區"
"244001","248-BX","2018/07/23 14:09:18","新北市林口區嘉寶里42號","121.333758333333","25.1223616666667","6501700","林口區"
"243005","AAD-798","2018/07/23 14:09:20","新北市泰山區明志路三段231巷4弄1號","121.424303333333","25.03759","6501600","泰山區"
"243001","297-R6","2018/07/23 14:09:29","新北市泰山區楓樹街15巷26號","121.434575","25.06312","6501600","泰山區"
"243008","380-SR","2018/07/23 14:09:23","新北市泰山區明志路二段341號","121.425566666667","25.0447333333333","6501600","泰山區"
"243007","421-VK","2018/07/23 14:09:34","新北市泰山區公園路2號","121.429981666667","25.0539316666667","6501600","泰山區"
"243003","KEA-2215","2018/07/23 14:08:45","新北市泰山區明志路二段341號","121.425581666667","25.044715","6501600","泰山區"
"243002","KEA-2216","2018/07/23 14:09:29","新北市泰山區明志路一段458巷11號","121.430008333333","25.055705","6501600","泰山區"
"243004","646-TV","2018/07/23 14:09:31","新北市泰山區辭修路36巷1弄1號","121.427881666667","25.0583683333333","6501600","泰山區"
"243006","680-BX","2018/07/23 14:09:34","新北市泰山區泰林路二段480號","121.425065","25.0641283333333","6501600","泰山區"
"231002","002-UM","2018/07/23 14:09:31","新北市新店區中正路503-7號","121.53361","24.984475","6500600","新店區"
"231027","0293-UT","2018/07/23 14:09:38","新北市新店區光明街138巷13弄2號","121.540136666667","24.9614233333333","6500600","新店區"
"231028","046-UY","2018/07/23 14:09:35","新北市新店區安和路三段53號","121.517955","24.9827316666667","6500600","新店區"
"231001","047-UY","2018/07/23 14:09:29","新北市新店區中華路63號","121.539886666667","24.9681033333333","6500600","新店區"
"231005","106-UY","2018/07/23 14:09:25","新北市新店區中興路三段295號","121.54223","24.9850183333333","6500600","新店區"
"231010","107-UY","2018/07/23 14:09:24","新北市新店區安華路1-1號","121.519548333333","24.9603983333333","6500600","新店區"
"231019","108-UY","2018/07/23 14:09:25","新北市新店區新烏路二段50巷3號","121.547593333333","24.9276633333333","6500600","新店區"
"231011","187-VK","2018/07/23 14:09:31","新北市新店區五峰路63巷10號","121.546373333333","24.9684683333333","6500600","新店區"
"231023","KEA-2219","2018/07/23 14:09:26","新北市新店區文中路40號","121.539656666667","24.9565966666667","6500600","新店區"
"231003","268-BY","2018/07/23 14:09:26","新北市新店區北宜路一段3號","121.538545","24.958465","6500600","新店區"
"231018","278-BY","2018/07/23 14:09:20","新北市新店區中央五街46號","121.528133333333","24.975065","6500600","新店區"
"231014","AAD-862","2018/07/23 14:09:22","新北市新店區北宜路二段392巷12號","121.566133333333","24.95307","6500600","新店區"
"231038","3712-VJ","2018/07/23 14:09:17","新北市新店區安華路30巷3號","121.519536666667","24.95923","6500600","新店區"
"231037","4716-K9","2018/07/23 14:09:24","新北市新店區安康路三段165巷6號","121.48967","24.951245","6500600","新店區"
"231025","4715-K9","2018/07/23 14:09:36","新北市新店區二十張路129巷5弄4號","121.536625","24.9787233333333","6500600","新店區"
"231036","512-UM","2018/07/23 14:09:21","新北市新店區安祥路109巷1弄83號","121.478633333333","24.96042","6500600","新店區"
"231013","513-UM","2018/07/23 14:09:24","新北市新店區北新路三段65巷34弄27號","121.539978333333","24.9819416666667","6500600","新店區"
"231034","616-UM","2018/07/23 14:09:29","新北市新店區黎明路3號","121.503163333333","24.9521516666667","6500600","新店區"
"231006","617-UM","2018/07/23 14:09:26","新北市新店區北宜路二段174-1號","121.558523333333","24.9541466666667","6500600","新店區"
"231030","619-UM","2018/07/23 14:09:26","新北市新店區安民街65巷21-2號","121.51518","24.96752","6500600","新店區"
"231035","719-UM","2018/07/23 14:09:30","新北市新店區安和路一段53號","121.517561666667","24.9660533333333","6500600","新店區"
"231031","720-UM","2018/07/23 14:09:22","新北市新店區永業路21號","121.533306666667","24.955725","6500600","新店區"
"231029","897-TW","2018/07/23 14:09:30","新北市新店區安康路二段3-1號","121.515985","24.9637","6500600","新店區"
"231004","899-TW","2018/07/23 14:09:22","新北市新店區北新路二段228巷1號","121.543008333333","24.9775983333333","6500600","新店區"
"235030","003-UY","2018/07/23 14:09:34","新北市中和區廣福路12-1號","121.505558333333","25.00269","6500300","中和區"
"235028","005-UY","2018/07/23 14:09:36","新北市中和區泰和街3號","121.499793333333","25.0007533333333","6500300","中和區"
"235027","006-UY","2018/07/23 14:09:30","新北市中和區連城路263巷1號","121.491935","24.9964683333333","6500300","中和區"
"235020","096-UM","2018/07/23 14:09:28","新北市中和區員山路516號","121.479151666667","25.0095166666667","6500300","中和區"
"235003","097-UM","2018/07/23 14:09:20","新北市中和區秀峰街103巷4弄11號","121.519825","24.99018","6500300","中和區"
"235029","098-UM","2018/07/23 14:09:23","新北市中和區中山路二段64巷11號","121.5033","25.0056683333333","6500300","中和區"
"235004","150-BY","2018/07/23 14:09:22","新北市中和區宜安路73號","121.511035","24.9973133333333","6500300","中和區"
"235022","151-BY","2018/07/23 14:09:22","新北市中和區員山路143巷14-3號","121.480355","24.9961583333333","6500300","中和區"
"235019","183-VK","2018/07/23 14:09:24","新北市中和區德光路109號","121.468213333333","25.003215","6500300","中和區"
"235002","185-VK","2018/07/23 14:09:34","新北市中和區大仁街10巷27弄3號","121.519148333333","24.9926983333333","6500300","中和區"
"235013","186-VK","2018/07/23 14:09:29","新北市中和區明禮街25巷2號","121.50438","24.996075","6500300","中和區"
"235031","255-BX","2018/07/23 14:09:27","新北市中和區中正路711號","121.484513333333","24.9985066666667","6500300","中和區"
"235008","293-VK","2018/07/23 14:09:20","新北市中和區中興街235巷1號","121.50068","24.9895766666667","6500300","中和區"
"235036","301-VK","2018/07/23 14:09:37","新北市中和區中山路二段165號","121.501433333333","25.00255","6500300","中和區"
"235007","352-BY","2018/07/23 14:09:22","新北市中和區景平路4號","121.524233333333","24.99051","6500300","中和區"
"247009","KEA-2869","2018/07/23 14:09:32","新北市蘆洲區信義路231號","121.4791","25.083935","6501400","蘆洲區"
"235014","4979-A6","2018/07/23 14:09:28","新北市中和區復興路280巷18弄2號","121.502488333333","24.9915466666667","6500300","中和區"
"235006","551-UM","2018/07/23 14:09:15","新北市中和區自強路15巷16號","121.520991666667","24.9934133333333","6500300","中和區"
"235034","558-UM","2018/07/23 14:09:32","新北市中和區枋寮街2號","121.502483333333","24.9998116666667","6500300","中和區"
"235009","565-BX","2018/07/23 14:09:28","新北市中和區景新街467巷15弄11號","121.51375","24.988765","6500300","中和區"
"235018","640-BX","2018/07/23 14:09:16","新北市中和區民德路143號","121.468701666667","25.000395","6500300","中和區"
"235024","647-TV","2018/07/23 14:09:23","新北市中和區民有街50號","121.475786666667","25.00481","6500300","中和區"
"235011","732-UM","2018/07/23 14:09:19","新北市中和區興南路一段77號","121.510076666667","24.98923","6500300","中和區"
"235010","733-UM","2018/07/23 14:09:37","新北市中和區忠孝街1巷11號","121.508598333333","24.9836783333333","6500300","中和區"
"235035","783-BX","2018/07/23 14:09:18","新北市中和區中山路二段482巷11弄5號","121.488413333333","25.006495","6500300","中和區"
"235026","800-TS","2018/07/23 14:09:26","新北市中和區中山路二段380-1號","121.49105","25.0034883333333","6500300","中和區"
"235021","801-TS","2018/07/23 14:09:35","新北市中和區民利街48號","121.479383333333","24.99885","6500300","中和區"
"235005","802-TS","2018/07/23 14:09:21","新北市中和區中安街132號","121.510913333333","25.0004016666667","6500300","中和區"
"235012","896-TW","2018/07/23 14:09:28","新北市中和區華新街143巷71弄13號","121.508233333333","24.97888","6500300","中和區"
"235017","900-TW","2018/07/23 14:09:29","新北市中和區民德路274號","121.467765","24.99644","6500300","中和區"
"235015","157-BY","2018/07/23 14:09:35","新北市中和區興南路一段71號","121.510223333333","24.9892383333333","6500300","中和區"
"235001","AAC-213","2018/07/23 14:09:20","新北市中和區秀朗路三段60巷24號","121.525461666667","24.9950266666667","6500300","中和區"
"235023","AAC-215","2018/07/23 14:09:26","新北市中和區圓通路294巷17-5號","121.488701666667","24.9904566666667","6500300","中和區"
"220013","072-UY","2018/07/23 14:09:36","新北市板橋區民族路219巷31號","121.469161666667","25.0086533333333","6500100","板橋區"
"220034","073-UY","2018/07/23 14:09:21","新北市板橋區中正路216巷52號","121.457418333333","25.0188833333333","6500100","板橋區"
"220105","075-UY","2018/07/23 14:09:32","新北市板橋區雙十路三段8-1號","121.472026666667","25.0306266666667","6500100","板橋區"
"220017","AAD-861","2018/07/23 14:09:25","新北市板橋區貴興路5號","121.457816666667","25.0044383333333","6500100","板橋區"
"247023","893-R6","2018/07/23 14:09:19","新北市蘆洲區光榮路112號","121.4644","25.0893316666667","6501400","蘆洲區"
"247013","546-UM","2018/07/23 14:09:22","新北市蘆洲區忠孝路100號","121.471381666667","25.0861566666667","6501400","蘆洲區"
"247021","500-BY","2018/07/23 14:09:27","新北市蘆洲區三民路211號","121.470146666667","25.0879633333333","6501400","蘆洲區"
"247011","339-TH","2018/07/23 14:09:25","新北市蘆洲區信義路329號","121.478166666667","25.0866433333333","6501400","蘆洲區"
"247003","337-TH","2018/07/23 14:09:27","新北市蘆洲區長安街102巷26號","121.46292","25.0820633333333","6501400","蘆洲區"
"247005","336-TH","2018/07/23 14:09:22","新北市蘆洲區九芎街13號","121.468245","25.0785533333333","6501400","蘆洲區"
"247017","057-VK","2018/07/23 14:09:24","新北市蘆洲區復興路105巷9號","121.476415","25.0882733333333","6501400","蘆洲區"
"247007","056-VK","2018/07/23 14:09:14","新北市蘆洲區中山一路351巷3-1號","121.471641666667","25.0775983333333","6501400","蘆洲區"
"247015","007-UY","2018/07/23 14:09:30","新北市蘆洲區光華路46巷34號","121.467918333333","25.084155","6501400","蘆洲區"
"247001","002-UY","2018/07/23 14:09:32","新北市蘆洲區永平街55號","121.4576","25.0912633333333","6501400","蘆洲區"
"247019","001-UY","2018/07/23 14:09:33","新北市蘆洲區仁愛街36巷15號","121.472663333333","25.093615","6501400","蘆洲區"
"235016","251-BX","2018/07/23 14:09:25","新北市中和區興南路二段128巷9弄1號","121.503385","24.9841683333333","6500300","中和區"
"253003","6232-TK","2018/07/23 14:09:32","新北市石門區內石門62號","121.578078333333","25.2658383333333","6502200","石門區"
"253001","6251-TK","2018/07/23 14:09:24","新北市石門區八甲58-2號","121.522023333333","25.2747466666667","6502200","石門區"
"253002","637-UY","2018/07/23 14:09:33","新北市石門區七股56號","121.552866666667","25.2558133333333","6502200","石門區"
"253004","8270-PC","2018/07/23 14:08:54","新北市石門區小坑43-2號","121.600296666667","25.2644216666667","6502200","石門區"
"207002","749-BX","2018/07/23 14:08:38","新北市萬里區溪底里瑞泉路2-2號","121.610498333333","25.1436366666667","6502800","萬里區"
"252005","073-UM","2018/07/23 14:09:33","新北市三芝區橫山里橫山45-1號","121.53705","25.2575233333333","6502100","三芝區"
"207001","662-BX","2018/07/23 14:09:17","新北市萬里區磺潭里清水18號","121.637886666667","25.19766","6502800","萬里區"
"236064","105-UM","2018/07/23 14:09:35","新北市土城區青雲路318號","121.458785","24.977035","6501300","土城區"
"236040","107-UM","2018/07/23 14:09:16","新北市土城區城林路6巷80號","121.438551666667","24.980025","6501300","土城區"
"236074","166-UM","2018/07/23 14:09:24","新北市土城區永和街5號","121.434606666667","24.9649933333333","6501300","土城區"
"236029","253-BX","2018/07/23 14:09:26","新北市土城區城林路6巷80號","121.438386666667","24.97984","6501300","土城區"
"236024","269-VK","2018/07/23 14:09:26","新北市土城區承天路43巷6號","121.43931","24.963905","6501300","土城區"
"236012","270-VK","2018/07/23 14:09:32","新北市土城區中央路二段61巷50弄2號","121.444388333333","24.9783633333333","6501300","土城區"
"236032","271-VK","2018/07/23 14:09:26","新北市土城區明德路一段375-1號","121.454948333333","24.9781033333333","6501300","土城區"
"236016","401-BY","2018/07/23 14:09:16","新北市土城區城林路6巷80號","121.438466666667","24.97979","6501300","土城區"
"236005","498-BY","2018/07/23 14:09:19","新北市土城區中央路一段5號","121.449538333333","24.992555","6501300","土城區"
"236057","912-UM","2018/07/23 14:09:33","新北市土城區中央路四段123號","121.416413333333","24.9576833333333","6501300","土城區"
"236045","913-UM","2018/07/23 14:09:27","新北市土城區明德路一段365-1號","121.453556666667","24.9790316666667","6501300","土城區"
"236060","915-UM","2018/07/23 14:09:28","新北市土城區金城路二段396號","121.463776666667","24.985765","6501300","土城區"
"236054","AAC-216","2018/07/23 14:09:30","新北市土城區中央路二段280號","121.440696666667","24.9739933333333","6501300","土城區"
"221032","280-BY","2018/07/23 14:09:37","新北市汐止區龍安路34號","121.654861666667","25.064145","6501100","汐止區"
"220028","200-UY","2018/07/23 14:09:24","新北市板橋區大觀路二段7巷16號","121.447603333333","25.0034233333333","6500100","板橋區"
"220030","610-BX","2018/07/23 14:09:24","新北市板橋區大觀路三段263號","121.42919","24.992155","6500100","板橋區"
"220050","245-BX","2018/07/23 14:09:35","新北市板橋區莊敬路208巷2弄6號","121.471741666667","25.0216733333333","6500100","板橋區"
"220027","256-TC","2018/07/23 14:09:34","新北市板橋區民權路260巷16號","121.458345","25.015345","6500100","板橋區"
"220004","276-BY","2018/07/23 14:09:31","新北市板橋區信義路74巷2弄2號","121.457246666667","24.9932533333333","6500100","板橋區"
"220020","277-BY","2018/07/23 14:09:23","新北市板橋區金門街372巷40號","121.427501666667","24.9849816666667","6500100","板橋區"
"220019","283-VK","2018/07/23 14:09:19","新北市板橋區重慶路265號","121.463335","24.9999733333333","6500100","板橋區"
"220043","285-UM","2018/07/23 14:09:36","新北市板橋區光武街121號","121.466386666667","25.028005","6500100","板橋區"
"220001","285-VK","2018/07/23 14:09:28","新北市板橋區懷仁街24巷23號","121.475578333333","25.0191433333333","6500100","板橋區"
"220031","286-VK","2018/07/23 14:09:32","新北市板橋區大觀路二段174巷186弄6號","121.442513333333","25.003535","6500100","板橋區"
"220029","287-VK","2018/07/23 14:09:34","新北市板橋區南雅西路二段167號","121.451938333333","25.012315","6500100","板橋區"
"220039","288-VK","2018/07/23 14:09:18","新北市板橋區裕民街45巷4號","121.461548333333","25.0283283333333","6500100","板橋區"
"220009","293-UM","2018/07/23 14:09:32","新北市板橋區三民路二段21巷40號","121.480595","25.0181666666667","6500100","板橋區"
"220032","296-UM","2018/07/23 14:09:16","新北市板橋區溪崑二街22巷28號","121.428215","24.9918416666667","6500100","板橋區"
"220023","303-R5","2018/07/23 14:09:28","新北市板橋區北門街61號","121.455755","25.0118716666667","6500100","板橋區"
"220010","305-R5","2018/07/23 14:09:33","新北市板橋區三民路二段205-2號","121.479318333333","25.0132066666667","6500100","板橋區"
"220041","307-R5","2018/07/23 14:09:27","新北市板橋區文化路二段225巷35號","121.469473333333","25.0283666666667","6500100","板橋區"
"220047","317-R6","2018/07/23 14:09:37","新北市板橋區自由路51巷14弄1號","121.464656666667","25.0235416666667","6500100","板橋區"
"220012","486-VK","2018/07/23 14:09:29","新北市板橋區民生路一段33號","121.476293333333","25.0118683333333","6500100","板橋區"
"220037","491-VK","2018/07/23 14:09:28","新北市板橋區文化路二段182巷9弄9號","121.47261","25.0269133333333","6500100","板橋區"
"220104","560-BX","2018/07/23 14:09:23","新北市板橋區中正路377-3號","121.454206666667","25.021545","6500100","板橋區"
"220052","561-BX","2018/07/23 14:09:28","新北市板橋區文化路一段188巷9弄21號","121.468551666667","25.01953","6500100","板橋區"
"220011","609-BX","2018/07/23 14:09:28","新北市板橋區三民路二段113號","121.479201666667","25.0158766666667","6500100","板橋區"
"220040","637-BX","2018/07/23 14:09:35","新北市板橋區縣民大道247巷33號","121.482055","25.026715","6500100","板橋區"
"220005","686-BX","2018/07/23 14:09:25","新北市板橋區重慶路290-3號","121.463671666667","24.9988566666667","6500100","板橋區"
"220025","687-BX","2018/07/23 14:09:18","新北市板橋區龍興街65巷2號","121.44358","25.0014883333333","6500100","板橋區"
"220042","689-BX","2018/07/23 14:09:24","新北市板橋區民生路三段191號","121.465261666667","25.0275316666667","6500100","板橋區"
"220002","741-BX","2018/07/23 14:09:26","新北市板橋區重慶路69巷20號","121.462871666667","25.0071033333333","6500100","板橋區"
"220051","KEA-2699","2018/07/23 14:09:30","新北市板橋區田單街40號","121.482525","25.02794","6500100","板橋區"
"220003","827-TW","2018/07/23 14:09:32","新北市板橋區中山路一段134號","121.463446666667","25.0109133333333","6500100","板橋區"
"220014","829-TW","2018/07/23 14:09:28","新北市板橋區中山路二段90巷43弄2號","121.476515","25.0148916666667","6500100","板橋區"
"220016","830-TW","2018/07/23 14:09:37","新北市板橋區翠華街6巷63號","121.481196666667","25.0248583333333","6500100","板橋區"
"220045","831-TW","2018/07/23 14:09:29","新北市板橋區雙十路二段47巷5-1號","121.476158333333","25.025955","6500100","板橋區"
"220038","833-TW","2018/07/23 14:09:25","新北市板橋區文化路二段331號","121.472411666667","25.0302183333333","6500100","板橋區"
"220022","895-R6","2018/07/23 14:09:33","新北市板橋區林園街2號","121.454345","25.0091633333333","6500100","板橋區"
"220021","985-R7","2018/07/23 14:09:31","新北市板橋區中正路134號","121.456623333333","25.0159583333333","6500100","板橋區"
"220046","AAC-210","2018/07/23 14:09:30","新北市板橋區新海路135巷4號","121.459775","25.02302","6500100","板橋區"
"220018","AAC-253","2018/07/23 14:09:19","新北市板橋區忠孝路28號","121.460315","25.001875","6500100","板橋區"
"235032","KEA-2873","2018/07/23 14:09:06","新北市中和區景平路493巷12弄11號","121.498758333333","24.9970933333333","6500300","中和區"
"235025","KEA-2875","2018/07/23 14:09:15","新北市中和區民樂路11號","121.481735","25.0017566666667","6500300","中和區"
