"lineid","car","time","location","longitude","latitude","cityid","cityname"
"234070","149-BY","2018/07/23 15:29:23","新北市永和區福和路1號","121.52629","25.0099166666667","6500400","永和區"
"234010","9373-KE","2018/07/23 15:29:34","新北市永和區中和路597巷4號","121.51223","25.0044916666667","6500400","永和區"
"243014","680-BX","2018/07/23 15:29:25","新北市泰山區黎明路25號","121.421923333333","25.06076","6501600","泰山區"
"231002","002-UM","2018/07/23 15:29:31","新北市新店區環河路152號","121.535208333333","24.9668833333333","6500600","新店區"
"231028","046-UY","2018/07/23 15:29:28","新北市新店區僑信路55號","121.49936","24.9495116666667","6500600","新店區"
"231005","106-UY","2018/07/23 15:29:25","新北市新店區民權路90巷36號","121.537","24.98444","6500600","新店區"
"231019","108-UY","2018/07/23 15:29:25","新北市新店區永福路72-1號","121.560988333333","24.928315","6500600","新店區"
"231011","187-VK","2018/07/23 15:29:31","新北市新店區寶元路一段105號","121.545398333333","24.9832166666667","6500600","新店區"
"231023","KEA-2219","2018/07/23 15:29:25","新北市新店區北新路一段88巷1號","121.541676666667","24.9676933333333","6500600","新店區"
"231026","256-BX","2018/07/23 15:29:22","新北市新店區三民路117巷6弄1號","121.534063333333","24.9712766666667","6500600","新店區"
"231003","268-BY","2018/07/23 15:29:26","新北市新店區寶高路120巷1號","121.554613333333","24.9760866666667","6500600","新店區"
"231018","278-BY","2018/07/23 15:29:20","新北市新店區中央七街61巷3號","121.529276666667","24.978165","6500600","新店區"
"231014","AAD-862","2018/07/23 15:29:22","新北市新店區明山路45號","121.563951666667","24.955835","6500600","新店區"
"231038","3712-VJ","2018/07/23 15:29:38","新北市新店區安華路28-1號","121.519773333333","24.9609233333333","6500600","新店區"
"231037","4716-K9","2018/07/23 15:29:24","新北市新店區安興路85-52號","121.513656666667","24.9754983333333","6500600","新店區"
"231025","4715-K9","2018/07/23 15:29:36","新北市新店區安民街3巷1號","121.514618333333","24.96419","6500600","新店區"
"231036","512-UM","2018/07/23 15:29:21","新北市新店區安祥路69巷54弄32號","121.482775","24.9587233333333","6500600","新店區"
"231034","616-UM","2018/07/23 15:29:30","新北市新店區富貴街10巷1號","121.49414","24.9495","6500600","新店區"
"231030","619-UM","2018/07/23 15:29:25","新北市新店區新和街50號","121.519583333333","24.9851733333333","6500600","新店區"
"231039","718-UY","2018/07/23 15:29:24","新北市新店區寶元路一段85巷6弄2號","121.543191666667","24.9856933333333","6500600","新店區"
"231035","719-UM","2018/07/23 15:29:30","新北市新店區安興路81號","121.515423333333","24.97523","6500600","新店區"
"231031","720-UM","2018/07/23 15:29:22","新北市新店區裕合街92號","121.490355","24.9488233333333","6500600","新店區"
"231029","897-TW","2018/07/23 15:29:29","新北市新店區安泰路60巷30號","121.4825","24.9468833333333","6500600","新店區"
"231004","899-TW","2018/07/23 15:29:22","新北市新店區民族路177號","121.537433333333","24.9764833333333","6500600","新店區"
"241011","013-R5","2018/07/23 15:29:25","新北市三重區環河南路222號","121.49305","25.05131","6500200","三重區"
"241028","022-UY","2018/07/23 15:29:22","新北市三重區重新路四段121號","121.484791666667","25.0527416666667","6500200","三重區"
"241015","062-VK","2018/07/23 15:29:19","新北市三重區重新路四段121號","121.484968333333","25.0524166666667","6500200","三重區"
"241017","063-VK","2018/07/23 15:29:17","新北市三重區重新路四段121號","121.484755","25.0522733333333","6500200","三重區"
"241003","091-VK","2018/07/23 15:29:33","新北市三重區重新路四段121號","121.485168333333","25.052175","6500200","三重區"
"241016","266-UM","2018/07/23 15:29:21","新北市三重區重新路四段121號","121.484871666667","25.0522883333333","6500200","三重區"
"241013","270-UM","2018/07/23 15:29:33","新北市三重區忠孝路三段52號","121.480665","25.0657283333333","6500200","三重區"
"241007","398-BY","2018/07/23 15:29:38","新北市三重區重新路四段121號","121.485085","25.052415","6500200","三重區"
"241026","413-TH","2018/07/23 15:29:30","新北市三重區重新路四段121號","121.484903333333","25.05194","6500200","三重區"
"241020","478-VK","2018/07/23 15:29:21","新北市三重區忠孝路三段84巷5號","121.480175","25.0644566666667","6500200","三重區"
"241014","543-UM","2018/07/23 15:29:24","新北市三重區重新路四段121號","121.485043333333","25.052465","6500200","三重區"
"241029","942-UM","2018/07/23 15:29:21","新北市三重區環河南路261號","121.490271666667","25.0500066666667","6500200","三重區"
"241033","AAC-255","2018/07/23 15:29:29","新北市三重區成功路92號","121.488","25.0513933333333","6500200","三重區"
"235030","003-UY","2018/07/23 15:29:34","新北市中和區中山路二段3巷22弄40號","121.505725","25.0040183333333","6500300","中和區"
"247009","KEA-2869","2018/07/23 15:29:31","新北市林口區太平里180號","121.366785","25.1347316666667","6501400","蘆洲區"
"235014","4979-A6","2018/07/23 15:29:25","新北市中和區景平路564號","121.502035","24.995295","6500300","中和區"
"235012","896-TW","2018/07/23 15:29:20","新北市中和區景新街397號","121.51255","24.9898583333333","6500300","中和區"
"235023","AAC-215","2018/07/23 15:29:26","新北市中和區員山路30-3號","121.483848333333","24.9878016666667","6500300","中和區"
"220034","073-UY","2018/07/23 15:29:21","新北市林口區太平里180號","121.368216666667","25.1346","6500100","板橋區"
"253003","6232-TK","2018/07/23 15:29:32","新北市石門區小坑9號","121.594698333333","25.2881833333333","6502200","石門區"
"253001","6251-TK","2018/07/23 15:26:24","新北市石門區小坑9號","121.593843333333","25.2886116666667","6502200","石門區"
"253004","8270-PC","2018/07/23 15:29:18","新北市石門區小坑20-1號","121.596055","25.2800066666667","6502200","石門區"
"207001","662-BX","2018/07/23 15:28:36","新北市萬里區龜吼里新墾丁路122號","121.677868333333","25.2003833333333","6502800","萬里區"
"236064","105-UM","2018/07/23 15:29:35","新北市土城區中央路二段181號","121.442063333333","24.9760233333333","6501300","土城區"
"236040","107-UM","2018/07/23 15:29:36","新北市土城區學府路一段164巷21號","121.453543333333","24.9874033333333","6501300","土城區"
"236074","166-UM","2018/07/23 15:29:24","新北市土城區中央路四段321巷26號","121.411326666667","24.9512816666667","6501300","土城區"
"236029","253-BX","2018/07/23 15:29:26","新北市土城區中央路一段269-3號","121.444838333333","24.98516","6501300","土城區"
"236024","269-VK","2018/07/23 15:29:25","新北市土城區中央路一段300號","121.44338","24.9820383333333","6501300","土城區"
"236012","270-VK","2018/07/23 15:29:31","新北市土城區廣明街10號","121.455966666667","24.992045","6501300","土城區"
"236032","271-VK","2018/07/23 15:29:26","新北市土城區延吉街351號","121.464623333333","24.983965","6501300","土城區"
"236016","401-BY","2018/07/23 15:29:31","新北市土城區延吉街165巷1號","121.470203333333","24.9854033333333","6501300","土城區"
"236057","912-UM","2018/07/23 15:29:33","新北市土城區中華路二段2號","121.439263333333","24.979715","6501300","土城區"
"236045","913-UM","2018/07/23 15:29:31","新北市土城區青雲路275號","121.459076666667","24.980285","6501300","土城區"
"236060","915-UM","2018/07/23 15:29:30","新北市土城區延和路62巷2號","121.465786666667","24.98891","6501300","土城區"
"236054","AAC-216","2018/07/23 15:29:30","新北市土城區金城路三段173號","121.46931","24.988685","6501300","土城區"
"238002","755-BX","2018/07/23 15:29:37","新北市樹林區復興路227號","121.420038333333","24.990955","6500700","樹林區"
"238010","601-UM","2018/07/23 15:29:36","新北市樹林區三福街44號","121.407855","25.0164366666667","6500700","樹林區"
"238006","599-UM","2018/07/23 15:29:21","新北市樹林區太元街55號","121.418678333333","24.979065","6500700","樹林區"
"238005","571-TV","2018/07/23 15:29:35","新北市樹林區鎮前街168號","121.424378333333","24.98996","6500700","樹林區"
"238011","5061-A6","2018/07/23 15:29:28","新北市樹林區八德街212巷20號","121.415355","24.9732933333333","6500700","樹林區"
"238009","KEA-2213","2018/07/23 15:29:28","新北市樹林區仁愛街14號","121.422001666667","24.9818833333333","6500700","樹林區"
"238008","KEA-2539","2018/07/23 15:29:25","新北市樹林區柑園街一段21巷2號","121.404615","24.9604616666667","6500700","樹林區"
"238012","303-VK","2018/07/23 15:29:30","新北市樹林區中山路一段213號","121.420956666667","24.9872516666667","6500700","樹林區"
"238001","283-BY","2018/07/23 15:29:26","新北市樹林區保安街二段333巷1號","121.411983333333","25.0074166666667","6500700","樹林區"
"238001","282-BY","2018/07/23 15:29:38","新北市樹林區中正路55巷11號","121.4263","24.9993233333333","6500700","樹林區"
"238007","268-VK","2018/07/23 15:29:31","新北市樹林區俊英街116巷41弄33號","121.428116666667","25.0072916666667","6500700","樹林區"
"238013","172-UY","2018/07/23 15:29:35","新北市樹林區新興街19巷2弄32號","121.401703333333","24.9727733333333","6500700","樹林區"
"238003","169-UY","2018/07/23 15:29:12","新北市樹林區中山路一段4號","121.42411","24.9933783333333","6500700","樹林區"
"220050","245-BX","2018/07/23 15:29:35","新北市板橋區漢生東路83巷1號","121.466381666667","25.0157816666667","6500100","板橋區"
"220029","287-VK","2018/07/23 15:29:34","新北市樹林區太平路269號","121.419465","24.9730333333333","6500100","板橋區"
"220052","561-BX","2018/07/23 15:29:40","新北市板橋區漢生東路43巷28號","121.46646","25.0175416666667","6500100","板橋區"
"220011","609-BX","2018/07/23 15:29:28","新北市板橋區三民路一段195號","121.479225","25.0191033333333","6500100","板橋區"
"220038","833-TW","2018/07/23 15:29:25","新北市板橋區四維路137巷23號","121.46407","25.0248016666667","6500100","板橋區"
"220046","AAC-210","2018/07/23 15:29:19","新北市板橋區文化路二段652號","121.478606666667","25.0378483333333","6500100","板橋區"
"220018","AAC-253","2018/07/23 15:29:19","新北市板橋區華東街1-10號","121.448648333333","24.9949866666667","6500100","板橋區"
