"lineid","car","time","location","longitude","latitude","cityid","cityname"
"234070","149-BY","2018/07/23 16:19:22","新北市永和區福和路1號","121.526336666667","25.0097916666667","6500400","永和區"
"234010","9373-KE","2018/07/23 16:19:28","新北市永和區竹林路39巷42弄1號","121.52009","25.0152133333333","6500400","永和區"
"248004","655-BX","2018/07/23 16:18:50","新北市五股區中興路二段83巷26-6號","121.459883333333","25.075265","6501500","五股區"
"231046","107-UY","2018/07/23 16:19:24","新北市新店區灣潭路3-3號","121.538245","24.95077","6500600","新店區"
"231018","278-BY","2018/07/23 16:19:20","新北市新店區中正路700巷82號","121.536001666667","24.993225","6500600","新店區"
"241011","013-R5","2018/07/23 16:19:25","新北市三重區龍濱路196號","121.501021666667","25.0732516666667","6500200","三重區"
"241028","022-UY","2018/07/23 16:19:22","新北市三重區正義南路165號","121.498695","25.0574583333333","6500200","三重區"
"241008","059-VK","2018/07/23 16:19:27","新北市三重區力行路二段136巷45弄10號","121.479186666667","25.0753566666667","6500200","三重區"
"241022","060-VK","2018/07/23 16:19:19","新北市三重區新北大道一段11號","121.4886","25.060645","6500200","三重區"
"241031","061-VK","2018/07/23 16:19:33","新北市三重區重新路四段218號","121.48598","25.0542516666667","6500200","三重區"
"241015","062-VK","2018/07/23 16:19:19","新北市三重區福德北路73號","121.501986666667","25.06577","6500200","三重區"
"241017","063-VK","2018/07/23 16:19:37","新北市三重區大同北路91號","121.49473","25.0636216666667","6500200","三重區"
"241024","065-VK","2018/07/23 16:19:27","新北市三重區中正北路316號","121.479133333333","25.0691166666667","6500200","三重區"
"241002","090-VK","2018/07/23 16:19:21","新北市三重區仁義街91號","121.499853333333","25.0793316666667","6500200","三重區"
"241003","091-VK","2018/07/23 16:19:33","新北市三重區五華街63巷2號","121.492913333333","25.0827933333333","6500200","三重區"
"241019","742-BX","2018/07/23 16:19:27","新北市三重區重陽路三段97號","121.490376666667","25.06803","6500200","三重區"
"241005","262-UM","2018/07/23 16:19:27","新北市三重區溪尾街305號","121.487571666667","25.08371","6500200","三重區"
"241009","265-UM","2018/07/23 16:19:33","新北市三重區溪尾街196巷4號","121.487751666667","25.0807433333333","6500200","三重區"
"241016","266-UM","2018/07/23 16:19:21","新北市三重區大仁街86號","121.492866666667","25.0653983333333","6500200","三重區"
"241018","268-UM","2018/07/23 16:19:19","新北市三重區重陽路三段142-1號","121.48936","25.067135","6500200","三重區"
"241032","269-UM","2018/07/23 16:19:38","新北市三重區三陽路100巷3弄13號","121.482991666667","25.0581083333333","6500200","三重區"
"241013","270-UM","2018/07/23 16:19:33","新北市三重區三和路三段83巷52號","121.496605","25.07278","6500200","三重區"
"241025","271-UM","2018/07/23 16:19:27","新北市三重區中正北路560巷100弄2號","121.472406666667","25.0682066666667","6500200","三重區"
"241007","398-BY","2018/07/23 16:19:38","新北市三重區三和路四段163巷58號","121.486428333333","25.07956","6500200","三重區"
"241026","413-TH","2018/07/23 16:19:30","新北市三重區正義南路44號","121.498451666667","25.0609333333333","6500200","三重區"
"241004","475-VK","2018/07/23 16:19:26","新北市三重區五華街74號","121.49349","25.0819666666667","6500200","三重區"
"241020","478-VK","2018/07/23 16:19:21","新北市三重區車路頭街4巷23號","121.483248333333","25.0701433333333","6500200","三重區"
"241030","480-VK","2018/07/23 16:19:26","新北市三重區重新路四段121號","121.484765","25.0523716666667","6500200","三重區"
"241014","543-UM","2018/07/23 16:19:24","新北市三重區河邊北街96-1號","121.504033333333","25.06989","6500200","三重區"
"241023","545-UM","2018/07/23 16:19:33","新北市三重區中正北路145巷4弄8號","121.483023333333","25.0678433333333","6500200","三重區"
"241001","547-UM","2018/07/23 16:19:35","新北市三重區仁政街159號","121.491221666667","25.0795266666667","6500200","三重區"
"241006","AAD-863","2018/07/23 16:19:37","新北市三重區永福街46巷31弄16號","121.481738333333","25.0774383333333","6500200","三重區"
"241012","941-UM","2018/07/23 16:19:22","新北市三重區仁愛街39號","121.49664","25.07154","6500200","三重區"
"241029","942-UM","2018/07/23 16:19:21","新北市三重區環河南路220-8號","121.493351666667","25.0526933333333","6500200","三重區"
"241033","AAC-255","2018/07/23 16:19:29","新北市三重區重新路五段328號","121.477413333333","25.0482133333333","6500200","三重區"
"235026","800-TS","2018/07/23 16:19:26","新北市中和區中山路二段332巷63號","121.493791666667","25.00481","6500300","中和區"
"247002","002-UY","2018/07/23 16:05:32","新北市五股區中興路三段2巷10號","121.44924","25.080795","6501400","蘆洲區"
"224007","275-VK","2018/07/23 16:19:26","新北市瑞芳區大埔路108-1號","121.762338333333","25.1019733333333","6501200","瑞芳區"
"224005","271-BY","2018/07/23 16:19:36","新北市瑞芳區中山路67號","121.804098333333","25.1061766666667","6501200","瑞芳區"
"227008","642-TC","2018/07/23 16:19:27","新北市雙溪區三港里雙澳路80號","121.883791666667","25.0538716666667","6502500","雙溪區"
"227001","400-TW","2018/07/23 16:19:23","新北市雙溪區上林里內平林80號","121.828331666667","25.0279516666667","6502500","雙溪區"
"251013","KEA-2871","2018/07/23 16:19:23","新北市淡水區北新路一段129-1號","121.456731666667","25.1818166666667","6501000","淡水區"
"251014","180-VK","2018/07/23 16:19:34","新北市淡水區新民街一段117號","121.428311666667","25.1877083333333","6501000","淡水區"
"251008","443-VK","2018/07/23 16:19:26","新北市淡水區中正東路36-1號","121.44893","25.1657","6501000","淡水區"
"252004","249-BX","2018/07/23 16:19:26","新北市三芝區忠孝街131號","121.506356666667","25.2598083333333","6502100","三芝區"
"238002","755-BX","2018/07/23 16:19:37","新北市樹林區中山路二段235號","121.402378333333","24.9761816666667","6500700","樹林區"
"238006","599-UM","2018/07/23 16:19:21","新北市樹林區東華街30號","121.414775","24.9822066666667","6500700","樹林區"
"238011","5061-A6","2018/07/23 16:19:28","新北市樹林區中山路三段210-2號","121.381458333333","24.96557","6500700","樹林區"
"238012","303-VK","2018/07/23 16:19:30","新北市樹林區中正路22-1號","121.427898333333","24.9993766666667","6500700","樹林區"
"238001","283-BY","2018/07/23 16:19:26","新北市樹林區中正路433-2號","121.414906666667","25.00818","6500700","樹林區"
"238001","282-BY","2018/07/23 16:19:37","新北市樹林區中正路22-1號","121.427791666667","24.9993833333333","6500700","樹林區"
"238007","268-VK","2018/07/23 16:19:32","新北市樹林區三龍街94巷31號","121.414563333333","25.0171","6500700","樹林區"
