"lineid","car","time","location","longitude","latitude","cityid","cityname"
"234070","149-BY","2018/07/23 16:29:23","新北市永和區福和路1號","121.52628","25.0097083333333","6500400","永和區"
"234067","553-UM","2018/07/23 16:24:41","新北市永和區福和路1號","121.526333333333","25.00966","6500400","永和區"
"234010","9373-KE","2018/07/23 16:29:28","新北市永和區福和路1號","121.526768333333","25.0100166666667","6500400","永和區"
"249002","305-UY","2018/07/23 16:29:30","新北市八里區忠孝路298號","121.418568333333","25.1613533333333","6502300","八里區"
"248004","655-BX","2018/07/23 16:18:50","新北市五股區中興路二段83巷26-6號","121.459883333333","25.075265","6501500","五股區"
"231046","107-UY","2018/07/23 16:29:24","新北市新店區灣潭路3-2號","121.538265","24.950755","6500600","新店區"
"241011","013-R5","2018/07/23 16:29:25","新北市三重區龍濱路168-1號","121.501258333333","25.07263","6500200","三重區"
"241028","022-UY","2018/07/23 16:29:22","新北市三重區中正南路212號","121.493903333333","25.0556066666667","6500200","三重區"
"241008","059-VK","2018/07/23 16:29:27","新北市三重區力行路二段136巷45弄10號","121.479246666667","25.0753433333333","6500200","三重區"
"241022","060-VK","2018/07/23 16:29:38","新北市三重區新北大道一段86巷5號","121.486056666667","25.061865","6500200","三重區"
"241031","061-VK","2018/07/23 16:29:33","新北市三重區重陽路一段59號","121.48671","25.0584866666667","6500200","三重區"
"241015","062-VK","2018/07/23 16:29:39","新北市三重區福德北路36號","121.501931666667","25.06519","6500200","三重區"
"241017","063-VK","2018/07/23 16:29:37","新北市三重區重新路二段99號","121.495638333333","25.0618916666667","6500200","三重區"
"241024","065-VK","2018/07/23 16:29:27","新北市三重區中正北路315巷16弄3號","121.475176666667","25.071605","6500200","三重區"
"241002","090-VK","2018/07/23 16:29:24","新北市三重區五華街19-1號","121.494893333333","25.0804516666667","6500200","三重區"
"241003","091-VK","2018/07/23 16:29:33","新北市三重區仁義街228巷8號","121.494436666667","25.08454","6500200","三重區"
"241019","742-BX","2018/07/23 16:29:27","新北市三重區重陽路三段95號","121.490345","25.0678483333333","6500200","三重區"
"241005","262-UM","2018/07/23 16:29:27","新北市三重區溪尾街305號","121.48754","25.0837633333333","6500200","三重區"
"241009","265-UM","2018/07/23 16:29:33","新北市三重區三和路四段191巷78號","121.484521666667","25.0798183333333","6500200","三重區"
"241016","266-UM","2018/07/23 16:29:41","新北市三重區大智街21號","121.494256666667","25.0657683333333","6500200","三重區"
"241018","268-UM","2018/07/23 16:29:38","新北市三重區重陽路四段120號","121.492173333333","25.070715","6500200","三重區"
"241032","269-UM","2018/07/23 16:29:38","新北市三重區三陽路100巷3弄13號","121.482988333333","25.058105","6500200","三重區"
"241013","270-UM","2018/07/23 16:29:33","新北市三重區仁愛街50號","121.496015","25.0728133333333","6500200","三重區"
"241025","271-UM","2018/07/23 16:29:27","新北市三重區中正北路560巷100弄17-2號","121.472688333333","25.0685666666667","6500200","三重區"
"241007","398-BY","2018/07/23 16:29:38","新北市三重區三和路四段167巷192號","121.488211666667","25.0804183333333","6500200","三重區"
"241026","413-TH","2018/07/23 16:29:30","新北市三重區光興街5號","121.500155","25.0604016666667","6500200","三重區"
"241004","475-VK","2018/07/23 16:29:26","新北市三重區仁愛街377巷30號","121.492091666667","25.08075","6500200","三重區"
"241020","478-VK","2018/07/23 16:29:21","新北市三重區後竹圍街258號","121.48406","25.0712233333333","6500200","三重區"
"241030","480-VK","2018/07/23 16:29:26","新北市三重區成功路106-1號","121.487605","25.05159","6500200","三重區"
"241014","543-UM","2018/07/23 16:29:24","新北市三重區河邊北街72-6號","121.504351666667","25.0684416666667","6500200","三重區"
"241023","545-UM","2018/07/23 16:29:33","新北市三重區忠孝路三段50巷82號","121.482936666667","25.0645016666667","6500200","三重區"
"241001","547-UM","2018/07/23 16:29:35","新北市三重區福隆路42號","121.492251666667","25.0784166666667","6500200","三重區"
"241006","AAD-863","2018/07/23 16:29:37","新北市三重區力行路二段131號","121.483261666667","25.07684","6500200","三重區"
"241012","941-UM","2018/07/23 16:29:22","新北市三重區河邊北街272號","121.501546666667","25.0767116666667","6500200","三重區"
"241029","942-UM","2018/07/23 16:29:21","新北市三重區集美街126巷2號","121.489025","25.053585","6500200","三重區"
"241033","AAC-255","2018/07/23 16:29:29","新北市三重區五谷王北街2巷5號","121.474795","25.047815","6500200","三重區"
"235026","800-TS","2018/07/23 16:29:26","新北市中和區建八路130號","121.489033333333","24.9984416666667","6500300","中和區"
"247008","056-VK","2018/07/23 16:29:28","新北市五股區中興路三段2巷10號","121.449055","25.0808666666667","6501400","蘆洲區"
"247002","002-UY","2018/07/23 16:05:32","新北市五股區中興路三段2巷10號","121.44924","25.080795","6501400","蘆洲區"
"224007","275-VK","2018/07/23 16:29:26","新北市瑞芳區瑞竹路69-2號","121.763985","25.1029383333333","6501200","瑞芳區"
"224005","271-BY","2018/07/23 16:29:36","新北市瑞芳區阿美家園1號","121.821756666667","25.1160133333333","6501200","瑞芳區"
"227008","642-TC","2018/07/23 16:29:27","新北市雙溪區三港里雙澳路37-5號","121.872765","25.0501566666667","6502500","雙溪區"
"227001","400-TW","2018/07/23 16:29:23","新北市雙溪區上林里內平林120-2號","121.824456666667","25.0262533333333","6502500","雙溪區"
"251013","KEA-2871","2018/07/23 16:29:23","新北市淡水區北新路三段162號","121.492378333333","25.191515","6501000","淡水區"
"251016","179-VK","2018/07/23 16:29:29","新北市淡水區中正路二段31號","121.41915","25.1821616666667","6501000","淡水區"
"251014","180-VK","2018/07/23 16:29:34","新北市淡水區淡金路三段324號","121.44916","25.2083","6501000","淡水區"
"251008","443-VK","2018/07/23 16:29:37","新北市淡水區民權路6號","121.459596666667","25.1398083333333","6501000","淡水區"
"252002","178-VK","2018/07/23 16:29:35","新北市三芝區埔坪里埔頭坑84號","121.508375","25.2541916666667","6502100","三芝區"
"238002","755-BX","2018/07/23 16:28:18","新北市樹林區中山路三段214號","121.38042","24.9679883333333","6500700","樹林區"
"238011","5061-A6","2018/07/23 16:29:28","新北市樹林區中山路一段249號","121.420415","24.9864933333333","6500700","樹林區"
"238012","303-VK","2018/07/23 16:29:30","新北市樹林區中正路22-1號","121.427881666667","24.9992833333333","6500700","樹林區"
"238001","283-BY","2018/07/23 16:29:26","新北市樹林區中正路433-1號","121.41491","25.008135","6500700","樹林區"
"238001","282-BY","2018/07/23 16:29:37","新北市樹林區大慶街99-1號","121.427813333333","24.9997816666667","6500700","樹林區"
"238007","268-VK","2018/07/23 16:29:31","新北市樹林區三俊街65巷2號","121.413553333333","25.0163266666667","6500700","樹林區"
