"lineid","car","time","location","longitude","latitude","cityid","cityname"
"234070","149-BY","2018/07/23 16:59:22","新北市永和區福和路1號","121.526383333333","25.00984","6500400","永和區"
"249005","172-UM","2018/07/23 16:59:21","新北市八里區渡船頭3-6號","121.434375","25.153005","6502300","八里區"
"249001","173-UM","2018/07/23 16:59:29","新北市八里區中山路三段106號","121.39103","25.14221","6502300","八里區"
"249004","303-UY","2018/07/23 16:59:26","新北市八里區挖子尾街58號","121.415508333333","25.1662633333333","6502300","八里區"
"249002","305-UY","2018/07/23 16:56:50","新北市八里區牛寮埔25號","121.432503333333","25.1431716666667","6502300","八里區"
"249003","593-UM","2018/07/23 16:59:34","新北市八里區中山路二段398號","121.400538333333","25.1477533333333","6502300","八里區"
"244007","080-UY","2018/07/23 16:59:34","新北市林口區中湖39-54號","121.384926666667","25.0862633333333","6501700","林口區"
"244019","403-UM","2018/07/23 16:59:35","新北市林口區仁愛路一段410號","121.386538333333","25.0769233333333","6501700","林口區"
"244023","483-VK","2018/07/23 16:59:24","新北市林口區粉寮路二段30號","121.403021666667","25.0864566666667","6501700","林口區"
"244025","837-TS","2018/07/23 16:59:19","新北市林口區粉寮69號","121.405101666667","25.09084","6501700","林口區"
"244021","838-TS","2018/07/23 16:59:35","新北市林口區粉寮69號","121.404773333333","25.09076","6501700","林口區"
"231046","107-UY","2018/07/23 16:59:24","新北市新店區灣潭路2-22號","121.534591666667","24.9473666666667","6500600","新店區"
"241011","013-R5","2018/07/23 16:59:25","新北市三重區仁愛街55巷150號","121.499441666667","25.07304","6500200","三重區"
"241028","022-UY","2018/07/23 16:59:30","新北市三重區中正南路54號","121.494008333333","25.0597933333333","6500200","三重區"
"241008","059-VK","2018/07/23 16:59:27","新北市三重區永福街179-2號","121.478821666667","25.0750716666667","6500200","三重區"
"241022","060-VK","2018/07/23 16:59:18","新北市三重區貴陽街42號","121.484198333333","25.06265","6500200","三重區"
"241031","061-VK","2018/07/23 16:59:33","新北市三重區三寧街18號","121.489343333333","25.0598766666667","6500200","三重區"
"241015","062-VK","2018/07/23 16:59:39","新北市三重區三和路二段1-4號","121.50157","25.0666266666667","6500200","三重區"
"241017","063-VK","2018/07/23 16:59:37","新北市三重區大仁街3巷39號","121.492755","25.0638883333333","6500200","三重區"
"241024","065-VK","2018/07/23 16:59:27","新北市三重區大勇街82巷15弄21號","121.48063","25.0721433333333","6500200","三重區"
"241002","090-VK","2018/07/23 16:59:41","新北市三重區仁義街101巷2號","121.497575","25.0802533333333","6500200","三重區"
"241003","091-VK","2018/07/23 16:59:33","新北市三重區五華街141巷60號","121.4936","25.0868266666667","6500200","三重區"
"241019","742-BX","2018/07/23 16:59:27","新北市三重區自強路二段74巷19號","121.488008333333","25.07","6500200","三重區"
"241005","262-UM","2018/07/23 16:59:29","新北市三重區仁華街63號","121.484251666667","25.08269","6500200","三重區"
"241009","265-UM","2018/07/23 16:59:33","新北市三重區溪尾街218巷39號","121.48643","25.0809966666667","6500200","三重區"
"241016","266-UM","2018/07/23 16:59:21","新北市三重區大同北路117號","121.494115","25.0642316666667","6500200","三重區"
"241018","268-UM","2018/07/23 16:59:19","新北市三重區民生東街6號","121.49268","25.0684566666667","6500200","三重區"
"241032","269-UM","2018/07/23 16:59:38","新北市三重區重陽路一段120巷25號","121.485726666667","25.0601866666667","6500200","三重區"
"241013","270-UM","2018/07/23 16:59:33","新北市三重區仁興街28巷44號","121.498358333333","25.074935","6500200","三重區"
"241025","271-UM","2018/07/23 16:59:27","新北市三重區中正北路508巷9號","121.47267","25.0712333333333","6500200","三重區"
"241007","398-BY","2018/07/23 16:59:38","新北市三重區三和路四段181巷240號","121.487731666667","25.0806133333333","6500200","三重區"
"241024","KEA-2210","2018/07/23 16:59:31","新北市三重區重新路四段121號","121.485131666667","25.05211","6500200","三重區"
"241026","413-TH","2018/07/23 16:59:30","新北市三重區文化南路42號","121.500421666667","25.06015","6500200","三重區"
"241004","475-VK","2018/07/23 16:59:26","新北市三重區五華街92巷19號","121.491586666667","25.0816233333333","6500200","三重區"
"241020","478-VK","2018/07/23 16:59:42","新北市三重區後竹圍街173-1號","121.485965","25.0719466666667","6500200","三重區"
"241030","480-VK","2018/07/23 16:59:26","新北市三重區昌隆街64號","121.491103333333","25.051095","6500200","三重區"
"241014","543-UM","2018/07/23 16:59:24","新北市三重區三和路二段173巷149號","121.501121666667","25.0708","6500200","三重區"
"241023","545-UM","2018/07/23 16:59:33","新北市三重區新北大道一段252號","121.480036666667","25.061635","6500200","三重區"
"241001","547-UM","2018/07/23 16:59:35","新北市三重區仁政街9號","121.49344","25.0763866666667","6500200","三重區"
"241006","AAD-863","2018/07/23 16:59:37","新北市三重區車路頭街117巷55號","121.485521666667","25.0756583333333","6500200","三重區"
"241012","941-UM","2018/07/23 16:59:22","新北市三重區仁壽街200號","121.500936666667","25.074905","6500200","三重區"
"241029","942-UM","2018/07/23 16:59:21","新北市三重區重安街99-2號","121.493553333333","25.055315","6500200","三重區"
"241033","AAC-255","2018/07/23 16:59:29","新北市三重區中興北街271號","121.469023333333","25.0605933333333","6500200","三重區"
"247010","KEA-2869","2018/07/23 16:59:26","新北市蘆洲區三民路26巷75號","121.478881666667","25.08335","6501400","蘆洲區"
"235046","733-UM","2018/07/23 16:40:29","新北市中和區員山路36巷13號","121.484148333333","24.9908","6500300","中和區"
"247024","893-R6","2018/07/23 16:59:24","新北市蘆洲區長興路202號","121.46058","25.0875033333333","6501400","蘆洲區"
"247014","546-UM","2018/07/23 16:59:39","新北市蘆洲區中央路32巷18號","121.474006666667","25.0831466666667","6501400","蘆洲區"
"247004","337-TH","2018/07/23 16:59:32","新北市蘆洲區長安街110號","121.460946666667","25.0815116666667","6501400","蘆洲區"
"247006","336-TH","2018/07/23 16:59:33","新北市蘆洲區長安街99巷31號","121.4607","25.0797466666667","6501400","蘆洲區"
"247018","057-VK","2018/07/23 16:59:21","新北市蘆洲區民族路227巷20號","121.47681","25.0891933333333","6501400","蘆洲區"
"247008","056-VK","2018/07/23 16:59:28","新北市蘆洲區信義路58號","121.475596666667","25.0796483333333","6501400","蘆洲區"
"247016","007-UY","2018/07/23 16:59:39","新北市蘆洲區正和街14號","121.470171666667","25.082495","6501400","蘆洲區"
"247002","002-UY","2018/07/23 16:59:37","新北市蘆洲區永平街20號","121.459078333333","25.0906833333333","6501400","蘆洲區"
"247020","001-UY","2018/07/23 16:59:18","新北市蘆洲區民族路422巷82弄14號","121.47398","25.0939566666667","6501400","蘆洲區"
"228003","097-TW","2018/07/23 16:59:23","新北市貢寮區福隆里興隆街24-1號","121.944285","25.0165466666667","6502600","貢寮區"
"228002","663-BX","2018/07/23 16:59:28","新北市貢寮區貢寮里朝陽街2號","121.912173333333","25.021605","6502600","貢寮區"
"228001","670-TC","2018/07/23 16:59:31","新北市貢寮區貢寮里朝陽街1-2號","121.912313333333","25.0212366666667","6502600","貢寮區"
"224006","676-BX","2018/07/23 16:59:32","新北市瑞芳區大寮路2-1號","121.785553333333","25.1013483333333","6501200","瑞芳區"
"224008","285-BY","2018/07/23 16:59:29","新北市瑞芳區明燈路一段267號","121.816773333333","25.1085083333333","6501200","瑞芳區"
"224007","275-VK","2018/07/23 16:59:26","新北市瑞芳區楓子瀨路54-1號","121.768845","25.1036083333333","6501200","瑞芳區"
"224009","273-VK","2018/07/23 16:59:29","新北市瑞芳區濱二路30號","121.840356666667","25.1150416666667","6501200","瑞芳區"
"224005","271-BY","2018/07/23 16:59:36","新北市瑞芳區明里路54號","121.86895","25.12229","6501200","瑞芳區"
"227008","642-TC","2018/07/23 16:59:31","新北市雙溪區牡丹里聖南19號","121.85777","25.052705","6502500","雙溪區"
"227001","400-TW","2018/07/23 16:59:31","新北市雙溪區長源里柑腳8號","121.804688333333","25.0145983333333","6502500","雙溪區"
"251004","009-UM","2018/07/23 16:59:36","新北市淡水區中正路二段31號","121.419543333333","25.1813633333333","6501000","淡水區"
"251005","010-UM","2018/07/23 16:59:37","新北市淡水區文化路63號","121.438221666667","25.172855","6501000","淡水區"
"251013","KEA-2871","2018/07/23 16:59:23","新北市淡水區泉洲厝32號","121.489313333333","25.1925666666667","6501000","淡水區"
"251016","179-VK","2018/07/23 16:59:29","新北市淡水區瓦坑3號","121.4775","25.1807816666667","6501000","淡水區"
"251014","180-VK","2018/07/23 16:59:31","新北市淡水區八里堆2-8號","121.453438333333","25.2240033333333","6501000","淡水區"
"251015","181-VK","2018/07/23 16:59:37","新北市淡水區忠愛街12號","121.457336666667","25.174385","6501000","淡水區"
"251010","413-VK","2018/07/23 16:59:00","新北市淡水區沙崙路二段112號","121.433428333333","25.1984716666667","6501000","淡水區"
"251012","441-VK","2018/07/23 16:59:31","新北市淡水區沙崙路333號","121.427698333333","25.18772","6501000","淡水區"
"251007","442-VK","2018/07/23 16:59:41","新北市淡水區中山路18-1號","121.44442","25.1694183333333","6501000","淡水區"
"251008","443-VK","2018/07/23 16:59:37","新北市淡水區樹梅坑9號","121.472706666667","25.1427033333333","6501000","淡水區"
"251009","575-R6","2018/07/23 16:59:38","新北市淡水區中正路235號","121.435125","25.17355","6501000","淡水區"
"251011","650-BX","2018/07/23 16:59:28","新北市淡水區中山路30號","121.444358333333","25.1698016666667","6501000","淡水區"
"252002","178-VK","2018/07/23 16:59:35","新北市三芝區忠孝街171號","121.50586","25.2610066666667","6502100","三芝區"
"252001","292-VK","2018/07/23 16:59:20","新北市三芝區淡金路二段81號","121.503825","25.2606416666667","6502100","三芝區"
"242058","986-R7","2018/07/23 16:59:29","新北市新莊區新泰路357巷3弄57號","121.442028333333","25.0392783333333","6500500","新莊區"
"242053","751-BX","2018/07/23 16:59:30","新北市新莊區新泰路357巷3弄57號","121.442068333333","25.0390883333333","6500500","新莊區"
"242029","705-TV","2018/07/23 16:59:26","新北市新莊區新泰路357巷3弄57號","121.442026666667","25.039085","6500500","新莊區"
"242023","362-BY","2018/07/23 16:59:20","新北市新莊區新泰路357巷3弄57號","121.44236","25.03937","6500500","新莊區"
"242039","133-UY","2018/07/23 16:59:36","新北市新莊區三和路12-21號","121.442071666667","25.0387833333333","6500500","新莊區"
"242017","175-VK","2018/07/23 16:59:18","新北市新莊區三和路12-21號","121.44176","25.038625","6500500","新莊區"
"242013","351-TH","2018/07/23 16:59:29","新北市新莊區新泰路357巷3弄57號","121.442056666667","25.03951","6500500","新莊區"
"238023","601-UM","2018/07/23 16:59:29","新北市樹林區中山路二段219號","121.40266","24.976255","6500700","樹林區"
"238005","571-TV","2018/07/23 16:59:39","新北市樹林區八德街1022號","121.391108333333","24.96844","6500700","樹林區"
"238021","KEA-2539","2018/07/23 16:59:42","新北市樹林區八德街640號","121.396715","24.9694116666667","6500700","樹林區"
"238012","303-VK","2018/07/23 16:59:30","新北市樹林區中正路22-1號","121.427885","24.9992683333333","6500700","樹林區"
"238001","283-BY","2018/07/23 16:59:26","新北市樹林區中正路433-1號","121.414876666667","25.0079933333333","6500700","樹林區"
"238001","282-BY","2018/07/23 16:59:37","新北市樹林區中正路22-1號","121.427786666667","24.999685","6500700","樹林區"
"239007","AAC-297","2018/07/23 16:59:39","新北市鶯歌區二甲路13-16號","121.345306666667","24.9351516666667","6500800","鶯歌區"
"239003","360-BY","2018/07/23 16:59:22","新北市鶯歌區二甲路12-2號","121.345496666667","24.935145","6500800","鶯歌區"
"235061","KEA-2875","2018/07/23 16:46:07","新北市中和區員山路36巷16-2號","121.485306666667","24.9916683333333","6500300","中和區"
