"lineid","car","time","location","longitude","latitude","cityid","cityname"
"234070","149-BY","2018/07/23 17:03:49","新北市永和區福和路1號","121.526436666667","25.009815","6500400","永和區"
"249005","172-UM","2018/07/23 17:29:21","新北市八里區荖阡坑路97號","121.409605","25.127355","6502300","八里區"
"249001","173-UM","2018/07/23 17:29:29","新北市八里區龍米路三段49-1號","121.424128333333","25.1588716666667","6502300","八里區"
"249004","303-UY","2018/07/23 17:29:26","新北市八里區民有街78號","121.415113333333","25.15627","6502300","八里區"
"249002","305-UY","2018/07/23 17:29:30","新北市八里區龍米路二段65巷15弄1號","121.447081666667","25.1408733333333","6502300","八里區"
"249003","593-UM","2018/07/23 17:29:34","新北市八里區中山路二段313號","121.400746666667","25.1478533333333","6502300","八里區"
"244007","080-UY","2018/07/23 17:29:34","新北市林口區湖子8-1號","121.392116666667","25.0921316666667","6501700","林口區"
"244019","403-UM","2018/07/23 17:29:35","新北市林口區文化一路一段83巷14弄42號","121.372151666667","25.0715183333333","6501700","林口區"
"244013","742-UY","2018/07/23 17:29:37","新北市林口區粉寮69號","121.404783333333","25.0908133333333","6501700","林口區"
"244023","483-VK","2018/07/23 17:29:24","新北市林口區東明一街95巷20號","121.391318333333","25.0704733333333","6501700","林口區"
"244017","485-VK","2018/07/23 17:29:30","新北市林口區文化一路二段40號","121.380553333333","25.0773583333333","6501700","林口區"
"244011","657-BX","2018/07/23 17:29:20","新北市林口區中正路380號","121.38551","25.0777483333333","6501700","林口區"
"244025","837-TS","2018/07/23 17:29:40","新北市林口區南勢街112號","121.363705","25.0747633333333","6501700","林口區"
"244021","838-TS","2018/07/23 17:29:35","新北市林口區粉寮路二段66-1號","121.403946666667","25.0875683333333","6501700","林口區"
"231046","107-UY","2018/07/23 17:29:24","新北市新店區直潭路92號","121.53091","24.9375783333333","6500600","新店區"
"241011","013-R5","2018/07/23 17:29:25","新北市三重區龍濱路183號","121.50215","25.0706283333333","6500200","三重區"
"241015","062-VK","2018/07/23 17:29:19","新北市三重區長元街65巷20弄18號","121.5035","25.0661083333333","6500200","三重區"
"241017","063-VK","2018/07/23 17:29:37","新北市三重區大同北路34巷52號","121.493561666667","25.0618883333333","6500200","三重區"
"241024","065-VK","2018/07/23 17:29:27","新北市三重區大勇街82巷15弄21號","121.480745","25.071935","6500200","三重區"
"241019","742-BX","2018/07/23 17:29:33","新北市三重區自強路二段46號","121.489151666667","25.0695333333333","6500200","三重區"
"241005","262-UM","2018/07/23 17:29:27","新北市三重區永安北路二段43巷22號","121.483033333333","25.0827566666667","6500200","三重區"
"241009","265-UM","2018/07/23 17:29:33","新北市三重區車路頭街135-1號","121.484283333333","25.076065","6500200","三重區"
"241016","266-UM","2018/07/23 17:29:41","新北市三重區信義西街41號","121.495295","25.063965","6500200","三重區"
"241018","268-UM","2018/07/23 17:29:38","新北市三重區中正北路25巷11號","121.4928","25.0623933333333","6500200","三重區"
"241032","269-UM","2018/07/23 17:29:38","新北市三重區名源街44號","121.482398333333","25.05945","6500200","三重區"
"241013","270-UM","2018/07/23 17:29:33","新北市三重區仁愛街141巷18號","121.496201666667","25.0757516666667","6500200","三重區"
"241025","271-UM","2018/07/23 17:29:27","新北市三重區中正北路380號","121.476475","25.06994","6500200","三重區"
"241007","398-BY","2018/07/23 17:29:38","新北市三重區三和路四段145巷76號","121.486135","25.0787733333333","6500200","三重區"
"241024","KEA-2210","2018/07/23 17:29:31","新北市三重區國道路一段58巷13號","121.481451666667","25.0721366666667","6500200","三重區"
"241020","478-VK","2018/07/23 17:29:41","新北市三重區忠孝路一段127號","121.488706666667","25.07209","6500200","三重區"
"241030","480-VK","2018/07/23 17:29:26","新北市三重區新興路7號","121.492636666667","25.053295","6500200","三重區"
"241014","543-UM","2018/07/23 17:29:24","新北市三重區安和路13號","121.501361666667","25.06836","6500200","三重區"
"241023","545-UM","2018/07/23 17:29:33","新北市三重區三民街146巷3弄2號","121.481676666667","25.06468","6500200","三重區"
"241006","AAD-863","2018/07/23 17:29:37","新北市五股區中興路二段182巷15弄13號","121.457245","25.0813816666667","6500200","三重區"
"241012","941-UM","2018/07/23 17:29:22","新北市三重區仁昌街74號","121.498768333333","25.074785","6500200","三重區"
"241033","AAC-255","2018/07/23 17:29:29","新北市三重區興德路133號","121.470086666667","25.05306","6500200","三重區"
"247010","KEA-2869","2018/07/23 17:29:26","新北市蘆洲區中山一路120巷42號","121.478428333333","25.0820866666667","6501400","蘆洲區"
"247024","893-R6","2018/07/23 17:29:24","新北市蘆洲區長榮路713號","121.461203333333","25.093065","6501400","蘆洲區"
"247014","546-UM","2018/07/23 17:29:39","新北市蘆洲區復興路56-1號","121.473315","25.0854716666667","6501400","蘆洲區"
"247022","500-BY","2018/07/23 17:29:31","新北市蘆洲區三民路277號","121.46778","25.0898766666667","6501400","蘆洲區"
"247012","339-TH","2018/07/23 17:29:27","新北市蘆洲區民族路42號","121.47663","25.0843766666667","6501400","蘆洲區"
"247004","337-TH","2018/07/23 17:29:36","新北市蘆洲區長安街233巷6號","121.459125","25.08285","6501400","蘆洲區"
"247006","336-TH","2018/07/23 17:29:33","新北市蘆洲區長安街68巷29號","121.463816666667","25.0809483333333","6501400","蘆洲區"
"247018","057-VK","2018/07/23 17:29:41","新北市蘆洲區水湳街30號","121.47187","25.088095","6501400","蘆洲區"
"247008","056-VK","2018/07/23 17:29:36","新北市蘆洲區民生街101號","121.473625","25.07865","6501400","蘆洲區"
"247016","007-UY","2018/07/23 17:29:39","新北市蘆洲區光華路22巷45號","121.468211666667","25.0848383333333","6501400","蘆洲區"
"247002","002-UY","2018/07/23 17:29:25","新北市蘆洲區永樂街38巷67弄39號","121.457285","25.0911216666667","6501400","蘆洲區"
"247020","001-UY","2018/07/23 17:29:38","新北市蘆洲區仁愛街101巷10號","121.470643333333","25.0940816666667","6501400","蘆洲區"
"228003","097-TW","2018/07/23 17:29:23","新北市貢寮區仁理村尖山腳街2號","121.925166666667","25.0464516666667","6502600","貢寮區"
"228002","663-BX","2018/07/23 17:29:28","新北市貢寮區福隆里興隆街21-2號","121.933003333333","25.0188233333333","6502600","貢寮區"
"228001","670-TC","2018/07/23 17:29:31","新北市貢寮區仁理村仁愛路26號","121.92473","25.0532316666667","6502600","貢寮區"
"224010","AGQ-8101","2018/07/23 17:29:15","新北市瑞芳區明燈路二段2巷14號","121.81456","25.1090483333333","6501200","瑞芳區"
"224006","676-BX","2018/07/23 17:29:35","新北市瑞芳區靜安路四段98號","121.793306666667","25.1104433333333","6501200","瑞芳區"
"224008","285-BY","2018/07/23 17:29:29","新北市瑞芳區侯硐路268號","121.831275","25.0886733333333","6501200","瑞芳區"
"224009","273-VK","2018/07/23 17:29:38","新北市瑞芳區汽車路2號","121.846765","25.1107033333333","6501200","瑞芳區"
"224005","271-BY","2018/07/23 17:29:36","新北市瑞芳區洞頂路106號","121.86035","25.1237666666667","6501200","瑞芳區"
"227008","642-TC","2018/07/23 17:29:27","新北市雙溪區三貂里政光路3-1號","121.85078","25.0633716666667","6502500","雙溪區"
"227001","400-TW","2018/07/23 17:29:22","新北市雙溪區平林里外平林62號","121.84467","25.03483","6502500","雙溪區"
"251004","009-UM","2018/07/23 17:29:36","新北市淡水區中正東路二段88巷15號","121.459145","25.1504516666667","6501000","淡水區"
"251005","010-UM","2018/07/23 17:29:37","新北市淡水區鄧公路31巷15號","121.451935","25.1706833333333","6501000","淡水區"
"251013","KEA-2871","2018/07/23 17:29:23","新北市淡水區大竹圍5-1號","121.466478333333","25.194605","6501000","淡水區"
"251016","179-VK","2018/07/23 17:29:29","新北市淡水區大竹圍9號","121.465731666667","25.1927866666667","6501000","淡水區"
"251014","180-VK","2018/07/23 17:29:31","新北市淡水區公埔子20-6號","121.469293333333","25.22645","6501000","淡水區"
"251015","181-VK","2018/07/23 17:29:37","新北市淡水區三空泉16-10號","121.472276666667","25.16466","6501000","淡水區"
"251010","413-VK","2018/07/23 17:29:20","新北市淡水區中正路二段211號","121.426205","25.1890833333333","6501000","淡水區"
"251012","441-VK","2018/07/23 17:29:31","新北市淡水區北新路126號","121.44812","25.17828","6501000","淡水區"
"251007","442-VK","2018/07/23 17:29:41","新北市淡水區民生路58號","121.462083333333","25.1378683333333","6501000","淡水區"
"251008","443-VK","2018/07/23 17:29:37","新北市淡水區大同路124巷1號","121.463436666667","25.140365","6501000","淡水區"
"251006","561-UM","2018/07/23 17:29:30","新北市淡水區大仁街32-3號","121.442616666667","25.1753416666667","6501000","淡水區"
"251009","575-R6","2018/07/23 17:29:38","新北市淡水區新生街30巷64號","121.43967","25.1731183333333","6501000","淡水區"
"251011","650-BX","2018/07/23 17:29:28","新北市淡水區坪頂路718號","121.482573333333","25.1585016666667","6501000","淡水區"
"251002","672-BX","2018/07/23 17:29:21","新北市淡水區中正路32巷2號","121.430836666667","25.175195","6501000","淡水區"
"251003","766-UM","2018/07/23 17:29:39","新北市淡水區中正路235號","121.435208333333","25.17356","6501000","淡水區"
"207003","550-UM","2018/07/23 17:29:32","新北市萬里區龜吼里翡翠路17號","121.683378333333","25.1872366666667","6502800","萬里區"
"207004","225-TW","2018/07/23 17:29:34","新北市萬里區萬里里景美路11-2號","121.685393333333","25.173025","6502800","萬里區"
"252002","178-VK","2018/07/23 17:29:35","新北市三芝區忠孝街1-15號","121.505541666667","25.2539033333333","6502100","三芝區"
"252001","292-VK","2018/07/23 17:29:20","新北市三芝區淡金路一段3號","121.498111666667","25.2596316666667","6502100","三芝區"
"237012","275-BY","2018/07/23 17:29:31","新北市三峽區中山路459巷163-3號","121.34892","24.9332266666667","6500900","三峽區"
"237011","KEA-2596","2018/07/23 17:29:24","新北市三峽區中山路459巷163-3號","121.348591666667","24.9328716666667","6500900","三峽區"
"237015","649-BX","2018/07/23 17:29:40","新北市三峽區中山路259號","121.362346666667","24.93736","6500900","三峽區"
"237010","706-TV","2018/07/23 17:29:36","新北市三峽區中山路459巷131號","121.351426666667","24.9352083333333","6500900","三峽區"
"242034","AAC-296","2018/07/23 17:29:27","新北市新莊區新泰路47號","121.449463333333","25.033595","6500500","新莊區"
"242058","986-R7","2018/07/23 17:29:29","新北市新莊區中正路615號","121.432363333333","25.0319833333333","6500500","新莊區"
"242053","751-BX","2018/07/23 17:29:30","新北市新莊區瓊林南路301巷13號","121.43601","25.005915","6500500","新莊區"
"242029","705-TV","2018/07/23 17:29:26","新北市新莊區福壽街69號","121.458228333333","25.0494883333333","6500500","新莊區"
"242027","615-BX","2018/07/23 17:29:24","新北市新莊區思源路28號","121.460238333333","25.0402533333333","6500500","新莊區"
"242025","613-BX","2018/07/23 17:29:36","新北市新莊區復興路二段24號","121.454313333333","25.0438083333333","6500500","新莊區"
"242042","566-BX","2018/07/23 17:29:30","新北市新莊區新樹路113巷21號","121.439378333333","25.0263833333333","6500500","新莊區"
"242046","497-BY","2018/07/23 17:29:40","新北市新莊區新樹路43號","121.440243333333","25.0321066666667","6500500","新莊區"
"242050","441-UM","2018/07/23 17:29:27","新北市新莊區新樹路453號","121.432661666667","25.0134366666667","6500500","新莊區"
"242056","440-UM","2018/07/23 17:29:24","新北市新莊區新泰路53號","121.449475","25.0338866666667","6500500","新莊區"
"242007","413-TV","2018/07/23 17:29:34","新北市新莊區自強街2號","121.454771666667","25.045455","6500500","新莊區"
"242044","400-BY","2018/07/23 17:29:39","新北市新莊區富國路74號","121.419948333333","25.0258916666667","6500500","新莊區"
"242023","362-BY","2018/07/23 17:29:40","新北市新莊區公園路154號","121.453248333333","25.0400983333333","6500500","新莊區"
"242060","353-BY","2018/07/23 17:29:40","新北市新莊區瓊林南路7號","121.438385","25.0205916666667","6500500","新莊區"
"242009","132-UY","2018/07/23 17:29:23","新北市新莊區中原路228號","121.45329","25.0546983333333","6500500","新莊區"
"242039","133-UY","2018/07/23 17:29:36","新北市新莊區民安東路1號","121.427426666667","25.0211933333333","6500500","新莊區"
"242031","135-UY","2018/07/23 17:29:23","新北市新莊區新泰路381巷38號","121.44248","25.0436333333333","6500500","新莊區"
"242048","172-VK","2018/07/23 17:29:35","新北市新莊區四維路227號","121.421375","25.0196483333333","6500500","新莊區"
"242017","175-VK","2018/07/23 17:29:38","新北市新莊區德豐街2號","121.45164","25.0438883333333","6500500","新莊區"
"242004","176-VK","2018/07/23 17:29:32","新北市新莊區中港路288巷14號","121.453448333333","25.04455","6500500","新莊區"
"242015","347-TH","2018/07/23 17:29:38","新北市新莊區新泰路187號","121.447305","25.03768","6500500","新莊區"
"242021","348-TH","2018/07/23 17:29:38","新北市新莊區中華路一段18號","121.452031666667","25.037145","6500500","新莊區"
"242002","349-TH","2018/07/23 17:29:37","新北市新莊區新莊路215號","121.455283333333","25.035335","6500500","新莊區"
"242019","350-TH","2018/07/23 17:29:38","新北市新莊區中港路91號","121.455423333333","25.0392416666667","6500500","新莊區"
"242013","351-TH","2018/07/23 17:29:28","新北市新莊區中誠街14號","121.451955","25.0482383333333","6500500","新莊區"
"238015","755-BX","2018/07/23 17:29:38","新北市樹林區大安路267號","121.419055","24.9937066666667","6500700","樹林區"
"238023","601-UM","2018/07/23 17:29:29","新北市樹林區中正路350號","121.414136666667","25.0108083333333","6500700","樹林區"
"238019","599-UM","2018/07/23 17:29:21","新北市樹林區太平路56巷1號","121.418985","24.981865","6500700","樹林區"
"238018","571-TV","2018/07/23 17:29:39","新北市樹林區鎮前街97巷10號","121.424716666667","24.9895866666667","6500700","樹林區"
"238011","5061-A6","2018/07/23 17:29:26","新北市樹林區鎮前街169巷21號","121.423648333333","24.98856","6500700","樹林區"
"238022","KEA-2213","2018/07/23 17:29:27","新北市樹林區和平街2巷2號","121.420926666667","24.98146","6500700","樹林區"
"238021","KEA-2539","2018/07/23 17:29:22","新北市樹林區西圳街一段203巷13號","121.393253333333","24.9596716666667","6500700","樹林區"
"238025","303-VK","2018/07/23 17:29:30","新北市樹林區保安街二段65號","121.416096666667","25.0005133333333","6500700","樹林區"
"238017","283-BY","2018/07/23 17:29:32","新北市樹林區中正路438號","121.413621666667","25.01176","6500700","樹林區"
"238014","282-BY","2018/07/23 17:29:37","新北市樹林區保安街一段217號","121.420013333333","24.9959666666667","6500700","樹林區"
"238020","268-VK","2018/07/23 17:29:31","新北市樹林區中正路22-1號","121.42791","24.9992816666667","6500700","樹林區"
"238026","172-UY","2018/07/23 17:29:35","新北市樹林區新興街22號","121.399835","24.9727116666667","6500700","樹林區"
"238016","169-UY","2018/07/23 17:29:32","新北市樹林區樹德街38巷10號","121.422623333333","24.9920233333333","6500700","樹林區"
"239007","AAC-297","2018/07/23 17:29:28","新北市鶯歌區國華路15號","121.342861666667","24.9561983333333","6500800","鶯歌區"
"239006","891-R6","2018/07/23 17:29:34","新北市鶯歌區鳳鳴路101號","121.334245","24.9661833333333","6500800","鶯歌區"
"239008","527-UM","2018/07/23 17:29:37","新北市鶯歌區西湖街279巷1號","121.339436666667","24.9680333333333","6500800","鶯歌區"
"239005","526-UM","2018/07/23 17:29:42","新北市鶯歌區鶯桃路二段7號","121.326126666667","24.9719366666667","6500800","鶯歌區"
"239001","417-VK","2018/07/23 17:29:41","新北市鶯歌區中正三路146號","121.336216666667","24.9399766666667","6500800","鶯歌區"
"239003","360-BY","2018/07/23 17:29:42","新北市鶯歌區德昌街3-1號","121.33381","24.960635","6500800","鶯歌區"
"239002","359-BY","2018/07/23 17:29:22","新北市鶯歌區育英街49號","121.34697","24.9536866666667","6500800","鶯歌區"
"239004","193-VK","2018/07/23 17:29:37","新北市鶯歌區三鶯路9號","121.356443333333","24.941225","6500800","鶯歌區"
"221008","489-VK","2018/07/23 17:29:36","新北市汐止區康寧街901號","121.65139","25.0750433333333","6501100","汐止區"
"221010","269-BY","2018/07/23 17:29:40","新北市汐止區汐萬路一段256巷3號","121.652108333333","25.0747466666667","6501100","汐止區"
"221033","297-VK","2018/07/23 17:29:30","新北市汐止區汐萬路一段160號","121.652568333333","25.071485","6501100","汐止區"
"242036","280-VK","2018/07/23 17:29:24","新北市新莊區建國二路5-3號","121.434851666667","25.0236616666667","6500500","新莊區"
