"lineid","car","time","location","longitude","latitude","cityid","cityname"
"234046","148-BY","2018/07/23 18:49:47","新北市永和區秀朗路二段124-4號","121.524791666667","25.0013","6500400","永和區"
"234007","207-UY","2018/07/23 18:49:50","新北市永和區文化路130號","121.51287","25.015255","6500400","永和區"
"234081","298-R6","2018/07/23 18:49:51","新北市永和區林森路114號","121.522606666667","25.003165","6500400","永和區"
"234038","336-UY","2018/07/23 18:49:52","新北市永和區成功路一段146號","121.526736666667","25.0016516666667","6500400","永和區"
"234064","337-UY","2018/07/23 18:49:50","新北市永和區福和路1號","121.526545","25.0100766666667","6500400","永和區"
"234086","338-UY","2018/07/23 18:49:47","新北市永和區中正路51號","121.514603333333","24.996255","6500400","永和區"
"234070","552-UM","2018/07/23 18:49:47","新北市永和區環河東路二段92號","121.52441","25.0106333333333","6500400","永和區"
"234067","553-UM","2018/07/23 18:49:44","新北市永和區中和路625號","121.512945","25.0048616666667","6500400","永和區"
"234017","745-BX","2018/07/23 18:49:38","新北市永和區永和路二段409號","121.515206666667","25.0172266666667","6500400","永和區"
"234030","746-BX","2018/07/23 18:49:37","新北市永和區得和路321號","121.52342","24.999675","6500400","永和區"
"234054","KEA-2590","2018/07/23 18:49:48","新北市永和區豫溪街189巷1號","121.522578333333","25.0103266666667","6500400","永和區"
"234013","KEA-2591","2018/07/23 18:49:56","新北市永和區保福路二段133巷34號","121.508851666667","25.013435","6500400","永和區"
"234061","AAD-866","2018/07/23 18:49:38","新北市永和區福和路103號","121.521783333333","25.0077466666667","6500400","永和區"
"234050","863-TW","2018/07/23 18:49:38","新北市永和區福和路1號","121.526191666667","25.0095966666667","6500400","永和區"
"234026","9371-KE","2018/07/23 18:49:45","新北市永和區自由街58號","121.51393","25.006035","6500400","永和區"
"234011","9373-KE","2018/07/23 18:49:40","新北市永和區仁愛路31巷2弄16號","121.513345","25.0129183333333","6500400","永和區"
"249005","172-UM","2018/07/23 18:49:41","新北市八里區長道坑16-2號","121.394918333333","25.11708","6502300","八里區"
"249001","173-UM","2018/07/23 18:49:49","新北市八里區龍米路二段58-1號","121.448176666667","25.14092","6502300","八里區"
"249004","303-UY","2018/07/23 18:49:46","新北市八里區中山路一段150巷80號","121.416086666667","25.1602816666667","6502300","八里區"
"248014","025-BX","2018/07/23 18:49:48","新北市五股區民義路一段107巷11號","121.433238333333","25.085475","6501500","五股區"
"248016","026-BX","2018/07/23 18:49:38","新北市五股區凌雲路一段135號","121.44949","25.102135","6501500","五股區"
"248006","077-UY","2018/07/23 18:49:50","新北市五股區中興路二段9巷40號","121.461858333333","25.0730083333333","6501500","五股區"
"248008","095-VK","2018/07/23 18:49:55","新北市五股區中興路一段128巷47號","121.4656","25.075205","6501500","五股區"
"248018","225-UY","2018/07/23 18:49:55","新北市五股區民義路二段46-6號","121.413776666667","25.1016583333333","6501500","五股區"
"248012","247-BX","2018/07/23 18:49:40","新北市五股區成泰路二段147巷6號","121.437696666667","25.089125","6501500","五股區"
"248004","655-BX","2018/07/23 18:49:45","新北市五股區民義路二段68號","121.405746666667","25.1078233333333","6501500","五股區"
"248002","678-BX","2018/07/23 18:49:50","新北市五股區成泰路三段437號","121.44986","25.0977983333333","6501500","五股區"
"248010","682-TV","2018/07/23 18:49:42","新北市五股區水碓七路81號","121.429733333333","25.072205","6501500","五股區"
"234023","9380-KE","2018/07/23 18:49:42","新北市永和區竹林路119巷27號","121.52115","25.0118583333333","6500400","永和區"
"234077","969-R7","2018/07/23 18:49:51","新北市永和區中正路42巷5號","121.51343","24.9941716666667","6500400","永和區"
"234003","AAC-295","2018/07/23 18:49:48","新北市永和區豫溪街33號","121.51638","25.0098383333333","6500400","永和區"
"232011","375-UM","2018/07/23 18:49:47","新北市坪林區坪林街50號","121.711556666667","24.9372583333333","6502000","坪林區"
"244007","080-UY","2018/07/23 18:49:54","新北市林口區太平里2鄰12號","121.378571666667","25.1146066666667","6501700","林口區"
"244019","403-UM","2018/07/23 18:49:35","新北市林口區麗園二街3巷1-2號","121.378158333333","25.0696233333333","6501700","林口區"
"244013","742-UY","2018/07/23 18:49:37","新北市林口區麗園一街6巷6-3號","121.37534","25.0705383333333","6501700","林口區"
"244009","410-SL","2018/07/23 18:49:38","新北市林口區竹林路358巷1號","121.391681666667","25.0843083333333","6501700","林口區"
"244023","483-VK","2018/07/23 18:49:44","新北市林口區文化三路二段77巷39號","121.373068333333","25.0802366666667","6501700","林口區"
"244017","485-VK","2018/07/23 18:49:50","新北市林口區文化二路一段156號","121.36839","25.0715283333333","6501700","林口區"
"244011","657-BX","2018/07/23 18:49:40","新北市林口區中正路57巷12弄2號","121.395263333333","25.0766716666667","6501700","林口區"
"244025","837-TS","2018/07/23 18:49:40","新北市林口區忠孝一路176號","121.359056666667","25.074045","6501700","林口區"
"243013","AAD-798","2018/07/23 18:33:46","新北市泰山區明志路三段206巷3號","121.423266666667","25.0379233333333","6501600","泰山區"
"243009","297-R6","2018/07/23 18:49:51","新北市泰山區泰林路二段33-2號","121.435676666667","25.05676","6501600","泰山區"
"243016","380-SR","2018/07/23 18:49:40","新北市泰山區明志路二段135號","121.42762","25.05083","6501600","泰山區"
"243015","421-VK","2018/07/23 18:49:49","新北市泰山區美寧街55號","121.430286666667","25.0648783333333","6501600","泰山區"
"243011","KEA-2215","2018/07/23 18:49:50","新北市泰山區明志路二段246-1號","121.426923333333","25.0482066666667","6501600","泰山區"
"243012","646-TV","2018/07/23 18:49:40","新北市泰山區泰林路二段73巷37號","121.434265","25.057755","6501600","泰山區"
"222003","436-BY","2018/07/23 18:49:45","新北市深坑區深南路51-1號","121.621335","25.0101716666667","6501800","深坑區"
"222002","659-BX","2018/07/23 18:49:45","新北市深坑區文山路一段69號","121.626978333333","25.0018833333333","6501800","深坑區"
"231041","002-UM","2018/07/23 18:49:44","新北市新店區安華路28-1號","121.519853333333","24.96076","6500600","新店區"
"231059","046-UY","2018/07/23 18:49:48","新北市新店區安華路28-1號","121.51961","24.9607416666667","6500600","新店區"
"231040","047-UY","2018/07/23 18:49:50","新北市新店區中央路167-1號","121.533206666667","24.970455","6500600","新店區"
"231044","106-UY","2018/07/23 18:49:43","新北市新店區中興路三段3號","121.54607","24.977665","6500600","新店區"
"231046","107-UY","2018/07/23 18:49:44","新北市新店區直潭路29號","121.534176666667","24.94275","6500600","新店區"
"231052","108-UY","2018/07/23 18:49:48","新北市新店區永興路73-1號","121.544765","24.9367166666667","6500600","新店區"
"231047","187-VK","2018/07/23 18:49:44","新北市新店區北新路一段303號","121.541403333333","24.967545","6500600","新店區"
"231054","KEA-2219","2018/07/23 18:49:51","新北市新店區光明街136號","121.539288333333","24.961305","6500600","新店區"
"231042","268-BY","2018/07/23 18:49:57","新北市新店區光明街161號","121.539525","24.9624783333333","6500600","新店區"
"231051","278-BY","2018/07/23 18:49:44","新北市新店區中央路63號","121.532501666667","24.9770233333333","6500600","新店區"
"231050","AAD-862","2018/07/23 18:49:46","新北市新店區安康路一段17號","121.533111666667","24.9603283333333","6500600","新店區"
"231058","3713-VJ","2018/07/23 18:49:57","新北市新店區中正路5號","121.545758333333","24.9691","6500600","新店區"
"231066","4716-K9","2018/07/23 18:49:44","新北市新店區安一路一段1-1號","121.519313333333","24.9612733333333","6500600","新店區"
"231056","4715-K9","2018/07/23 18:49:46","新北市新店區建國路150號","121.538821666667","24.979205","6500600","新店區"
"231067","4772-VM","2018/07/23 18:49:38","新北市新店區安華路1-1號","121.519076666667","24.960585","6500600","新店區"
"231065","512-UM","2018/07/23 18:49:23","新北市新店區安豐路30-1號","121.50088","24.9570833333333","6500600","新店區"
"231049","513-UM","2018/07/23 18:49:54","新北市新店區環河路113-1號","121.531133333333","24.97124","6500600","新店區"
"231063","616-UM","2018/07/23 18:49:44","新北市新店區安華路1-1號","121.519505","24.9604866666667","6500600","新店區"
"231045","617-UM","2018/07/23 18:49:39","新北市新店區安康路一段33-1號","121.532201666667","24.9604933333333","6500600","新店區"
"231061","619-UM","2018/07/23 18:49:44","新北市新店區安華路28-1號","121.519568333333","24.96072","6500600","新店區"
"231064","719-UM","2018/07/23 18:49:49","新北市新店區安一路一段1-1號","121.519578333333","24.9611166666667","6500600","新店區"
"231062","720-UM","2018/07/23 18:49:49","新北市新店區安華路16號","121.515905","24.9579933333333","6500600","新店區"
"231060","897-TW","2018/07/23 18:49:49","新北市新店區安華路28-1號","121.519738333333","24.9605183333333","6500600","新店區"
"231043","899-TW","2018/07/23 18:49:53","新北市新店區安康路一段85號","121.5294","24.9614216666667","6500600","新店區"
"231055","AKT-0513","2018/07/23 18:49:37","新北市新店區北新路一段271巷22號","121.540258333333","24.967185","6500600","新店區"
"241035","462-BY","2018/07/23 18:49:55","新北市三重區重新路四段121號","121.484786666667","25.0520066666667","6500200","三重區"
"241006","AAD-863","2018/07/23 18:49:37","新北市三重區車路頭街139巷12號","121.484248333333","25.0762783333333","6500200","三重區"
"235066","003-UY","2018/07/23 18:49:54","新北市中和區水源路18巷5號","121.504006666667","25.003065","6500300","中和區"
"235063","006-UY","2018/07/23 18:49:38","新北市中和區連城路319巷12號","121.48918","24.995085","6500300","中和區"
"235056","096-UM","2018/07/23 18:49:52","新北市中和區員山路611巷5弄1號","121.47794","25.0111566666667","6500300","中和區"
"235039","097-UM","2018/07/23 18:49:41","新北市中和區宜安路52巷14號","121.512373333333","24.997215","6500300","中和區"
"235065","098-UM","2018/07/23 18:49:54","新北市中和區莊敬路33巷7號","121.500103333333","25.006625","6500300","中和區"
"235040","150-BY","2018/07/23 18:49:43","新北市中和區保健路106巷53號","121.511673333333","24.995095","6500300","中和區"
"235058","151-BY","2018/07/23 18:49:54","新北市中和區連城路569巷9弄13號","121.479796666667","24.9941166666667","6500300","中和區"
"235055","183-VK","2018/07/23 18:49:56","新北市中和區民生街71號","121.469305","25.0049583333333","6500300","中和區"
"235038","185-VK","2018/07/23 18:49:49","新北市中和區大勇街43巷1號","121.517691666667","24.9946033333333","6500300","中和區"
"235049","186-VK","2018/07/23 18:49:44","新北市中和區景安路132巷4弄1號","121.504676666667","24.9943683333333","6500300","中和區"
"235067","255-BX","2018/07/23 18:49:48","新北市中和區中正路875號","121.484491666667","25.0039766666667","6500300","中和區"
"235044","293-VK","2018/07/23 18:49:55","新北市中和區中興街169號","121.499838333333","24.9905366666667","6500300","中和區"
"235072","301-VK","2018/07/23 18:49:47","新北市中和區中山路二段41號","121.504523333333","25.005155","6500300","中和區"
"235043","352-BY","2018/07/23 18:49:49","新北市中和區成功路129號","121.525968333333","24.990655","6500300","中和區"
"235050","4979-A6","2018/07/23 18:49:54","新北市中和區忠孝街62巷7弄1號","121.51292","24.9836533333333","6500300","中和區"
"235042","551-UM","2018/07/23 18:49:41","新北市中和區秀朗路三段70巷11號","121.52576","24.9944483333333","6500300","中和區"
"235070","558-UM","2018/07/23 18:49:48","新北市中和區南山路7號","121.5021","24.9994366666667","6500300","中和區"
"235045","565-BX","2018/07/23 18:49:41","新北市中和區捷運路123-1號","121.507565","24.9904983333333","6500300","中和區"
"235054","640-BX","2018/07/23 18:49:51","新北市中和區民治街24號","121.475185","25.004135","6500300","中和區"
"235060","647-TV","2018/07/23 18:49:46","新北市中和區中山路三段206號","121.47159","25.0064483333333","6500300","中和區"
"235047","732-UM","2018/07/23 18:49:46","新北市中和區興南路二段92號","121.505263333333","24.9844933333333","6500300","中和區"
"235046","733-UM","2018/07/23 18:49:44","新北市中和區仁愛街69號","121.511468333333","24.9875383333333","6500300","中和區"
"235071","783-BX","2018/07/23 18:49:52","新北市中和區員山路36巷16-3號","121.485238333333","24.9910966666667","6500300","中和區"
"235062","800-TS","2018/07/23 18:49:42","新北市中和區中山路二段312巷47號","121.495088333333","25.004215","6500300","中和區"
"235057","801-TS","2018/07/23 18:49:42","新北市中和區民安街25巷12號","121.480566666667","24.9997566666667","6500300","中和區"
"235041","802-TS","2018/07/23 18:49:42","新北市中和區中安街226號","121.512175","24.998645","6500300","中和區"
"235048","896-TW","2018/07/23 18:49:40","新北市中和區南山路300號","121.507861666667","24.98708","6500300","中和區"
"235053","900-TW","2018/07/23 18:49:52","新北市中和區民德路290巷19號","121.466458333333","24.995995","6500300","中和區"
"235064","911-UM","2018/07/23 18:49:53","新北市中和區連勝街7號","121.499023333333","24.9984833333333","6500300","中和區"
"235051","157-BY","2018/07/23 18:49:43","新北市中和區忠孝街106巷43號","121.513731666667","24.9843083333333","6500300","中和區"
"235037","AAC-213","2018/07/23 18:49:49","新北市中和區秀朗路三段128巷7弄2號","121.524495","24.9930166666667","6500300","中和區"
"235059","AAC-215","2018/07/23 18:49:44","新北市中和區圓通路393巷13號","121.489996666667","24.9886366666667","6500300","中和區"
"220065","072-UY","2018/07/23 18:49:38","新北市板橋區民族路247巷5弄42號","121.47024","25.0084833333333","6500100","板橋區"
"220086","073-UY","2018/07/23 18:49:43","新北市板橋區大智街71巷28弄4號","121.453026666667","25.01471","6500100","板橋區"
"220106","075-UY","2018/07/23 18:49:45","新北市板橋區民生路二段161巷9號","121.470303333333","25.0196366666667","6500100","板橋區"
"220069","AAD-861","2018/07/23 18:49:47","新北市板橋區南雅南路一段1巷35號","121.457711666667","25.006415","6500100","板橋區"
"226004","312-R5","2018/07/23 18:49:44","新北市平溪區平溪里平溪街22號","121.738793333333","25.0253416666667","6502400","平溪區"
"235052","251-BX","2018/07/23 18:49:46","新北市中和區興南路二段399巷98弄40號","121.499405","24.9770366666667","6500300","中和區"
"228003","097-TW","2018/07/23 18:49:43","新北市瑞芳區鼻頭路127號","121.917313333333","25.1210333333333","6502600","貢寮區"
"228002","663-BX","2018/07/23 18:49:48","新北市貢寮區福隆里東興街6-11號","121.950741666667","25.0210666666667","6502600","貢寮區"
"228001","670-TC","2018/07/23 18:49:51","新北市貢寮區仁理村保健街73號","121.92374","25.0516716666667","6502600","貢寮區"
"224010","AGQ-8101","2018/07/23 18:49:35","新北市瑞芳區烏勢巷145號","121.847506666667","25.1087183333333","6501200","瑞芳區"
"224006","676-BX","2018/07/23 18:49:52","新北市瑞芳區中正路65號","121.80609","25.1074233333333","6501200","瑞芳區"
"224002","639-TC","2018/07/23 18:49:45","新北市瑞芳區靜安路四段36號","121.793253333333","25.10045","6501200","瑞芳區"
"224008","285-BY","2018/07/23 18:49:54","新北市瑞芳區逢甲路189號","121.804785","25.1105516666667","6501200","瑞芳區"
"224007","275-VK","2018/07/23 18:49:46","新北市瑞芳區大埔路東泰新村3號","121.761233333333","25.1012","6501200","瑞芳區"
"224009","273-VK","2018/07/23 18:49:49","新北市瑞芳區祈堂路8號","121.858851666667","25.1141966666667","6501200","瑞芳區"
"224005","271-BY","2018/07/23 18:49:56","新北市瑞芳區濱二路67-1號","121.83051","25.1198733333333","6501200","瑞芳區"
"227008","642-TC","2018/07/23 18:49:47","新北市雙溪區牡丹里聖南26號","121.856516666667","25.0532033333333","6502500","雙溪區"
"227001","400-TW","2018/07/23 18:49:42","新北市雙溪區平林里梅竹蹊28號","121.861636666667","25.03602","6502500","雙溪區"
"253005","032-BX","2018/07/23 18:49:51","新北市石門區中山路32-3號","121.56599","25.289915","6502200","石門區"
"253006","295-VK","2018/07/23 18:49:50","新北市石門區下員坑15-10號","121.512955","25.2839483333333","6502200","石門區"
"222001","KEA-2212","2018/07/23 18:49:37","新北市深坑區松柏街26號","121.638635","25.0109516666667","6501800","深坑區"
"208002","KEA-2872","2018/07/23 18:49:43","新北市金山區信義路61號","121.635993333333","25.21911","6502700","金山區"
"208003","665-BX","2018/07/23 18:49:53","新北市金山區中山路373號","121.634341666667","25.22467","6502700","金山區"
"208001","761-BX","2018/07/23 18:49:43","新北市金山區文化三路66巷1號","121.634126666667","25.2256266666667","6502700","金山區"
"251004","009-UM","2018/07/23 18:49:36","新北市淡水區八勢二街16號","121.460633333333","25.1491983333333","6501000","淡水區"
"251013","KEA-2871","2018/07/23 18:49:42","新北市淡水區安子內5號","121.483821666667","25.21516","6501000","淡水區"
"251016","179-VK","2018/07/23 18:49:49","新北市淡水區下圭柔山71-3號","121.447098333333","25.2062533333333","6501000","淡水區"
"251014","180-VK","2018/07/23 18:49:51","新北市淡水區崙頂2-2號","121.491633333333","25.2239116666667","6501000","淡水區"
"251015","181-VK","2018/07/23 18:49:57","新北市淡水區糞箕湖20號","121.485615","25.1709983333333","6501000","淡水區"
"251010","413-VK","2018/07/23 18:49:40","新北市淡水區沙崙路20號","121.421171666667","25.1811433333333","6501000","淡水區"
"251012","441-VK","2018/07/23 18:49:46","新北市淡水區新興街21號","121.442851666667","25.1802116666667","6501000","淡水區"
"251007","442-VK","2018/07/23 18:49:41","新北市淡水區中正東路二段143巷6弄1號","121.461135","25.147185","6501000","淡水區"
"251001","559-UM","2018/07/23 18:49:41","新北市淡水區自強路82號","121.462773333333","25.128155","6501000","淡水區"
"251006","561-UM","2018/07/23 18:49:50","新北市淡水區下圭柔山90-8號","121.431951666667","25.2115383333333","6501000","淡水區"
"251011","650-BX","2018/07/23 18:49:48","新北市淡水區中正東路71號","121.447298333333","25.1675","6501000","淡水區"
"251002","672-BX","2018/07/23 18:49:41","新北市淡水區學府路75號","121.448448333333","25.16992","6501000","淡水區"
"251003","766-UM","2018/07/23 18:49:39","新北市淡水區北新路65號","121.446245","25.1784983333333","6501000","淡水區"
"207003","550-UM","2018/07/23 18:49:52","新北市萬里區大鵬里頂社1號","121.656991666667","25.2097083333333","6502800","萬里區"
"207004","225-TW","2018/07/23 18:49:54","新北市萬里區萬里里獅頭路23號","121.693213333333","25.178265","6502800","萬里區"
"252002","178-VK","2018/07/23 18:49:35","新北市三芝區中正路一段101-1號","121.504768333333","25.2563983333333","6502100","三芝區"
"252003","249-BX","2018/07/23 18:49:50","新北市三芝區後厝里大片頭81-1號","121.45914","25.2444433333333","6502100","三芝區"
"252001","292-VK","2018/07/23 18:49:40","新北市三芝區中正路三段9號","121.50286","25.2539866666667","6502100","三芝區"
"237004","KEA-2597","2018/07/23 18:49:42","新北市三峽區插角219-3號","121.416406666667","24.8657416666667","6500900","三峽區"
"237007","153-BY","2018/07/23 18:49:41","新北市三峽區中正路二段399號","121.364981666667","24.9074683333333","6500900","三峽區"
"237009","210-TH","2018/07/23 18:49:53","新北市三峽區民權街153-1號","121.368373333333","24.9313083333333","6500900","三峽區"
"237013","252-BX","2018/07/23 18:49:54","新北市三峽區光明路69巷25號","121.376731666667","24.92923","6500900","三峽區"
"237012","275-BY","2018/07/23 18:49:51","新北市樹林區佳園路三段488號","121.3827","24.944025","6500900","三峽區"
"237008","302-VK","2018/07/23 18:49:40","新北市三峽區白雞28-1號","121.370358333333","24.91219","6500900","三峽區"
"237014","433-BY","2018/07/23 18:49:43","新北市三峽區復興路480巷32號","121.359628333333","24.9400566666667","6500900","三峽區"
"237006","5529-G3","2018/07/23 18:49:43","新北市三峽區溪東路211巷7號","121.40511","24.9336283333333","6500900","三峽區"
"237011","KEA-2596","2018/07/23 18:49:44","新北市三峽區溪北街101號","121.39806","24.9354916666667","6500900","三峽區"
"237015","649-BX","2018/07/23 18:49:40","新北市三峽區成福路337號","121.43324","24.9240733333333","6500900","三峽區"
"237010","706-TV","2018/07/23 18:49:36","新北市三峽區復興路311-3號","121.3652","24.9388366666667","6500900","三峽區"
"237005","AKY-6261","2018/07/23 18:49:43","新北市三峽區中山路459巷52-1號","121.35647","24.9360416666667","6500900","三峽區"
"236069","105-UM","2018/07/23 18:49:51","新北市土城區延吉街317號","121.465883333333","24.984315","6501300","土城區"
"236042","107-UM","2018/07/23 18:49:55","新北市土城區裕民路113號","121.451175","24.986535","6501300","土城區"
"236078","166-UM","2018/07/23 18:49:41","新北市土城區中央路四段185巷23號","121.415601666667","24.9557833333333","6501300","土城區"
"236030","253-BX","2018/07/23 18:49:52","新北市土城區忠義路26巷10號","121.439891666667","24.9698866666667","6501300","土城區"
"236026","269-VK","2018/07/23 18:49:49","新北市土城區興城路78號","121.44095","24.9720316666667","6501300","土城區"
"236014","270-VK","2018/07/23 18:49:59","新北市土城區清水路235巷5弄2號","121.46081","24.9838316666667","6501300","土城區"
"236039","271-VK","2018/07/23 18:49:51","新北市土城區仁愛路25號","121.462613333333","24.97844","6501300","土城區"
"236020","401-BY","2018/07/23 18:49:50","新北市土城區延吉街253巷9號","121.467861666667","24.9844433333333","6501300","土城區"
"236059","912-UM","2018/07/23 18:49:51","新北市土城區金城路一段72號","121.443765","24.9723166666667","6501300","土城區"
"236048","913-UM","2018/07/23 18:49:56","新北市土城區青雲路22號","121.460018333333","24.988775","6501300","土城區"
"236063","915-UM","2018/07/23 18:49:48","新北市土城區延和路230號","121.469301666667","24.9901383333333","6501300","土城區"
"236055","AAC-216","2018/07/23 18:49:53","新北市土城區裕民路184號","121.452856666667","24.9851766666667","6501300","土城區"
"242058","986-R7","2018/07/23 18:49:49","新北市泰山區中山路二段269號","121.434406666667","25.046375","6500500","新莊區"
"242053","751-BX","2018/07/23 18:49:50","新北市樹林區八德街828-3號","121.393275","24.9686633333333","6500500","新莊區"
"242002","349-TH","2018/07/23 18:49:37","新北市新莊區瓊林南路77-41號","121.437716666667","25.012535","6500500","新莊區"
"238023","601-UM","2018/07/23 18:49:49","桃園市龜山區萬壽路一段420號","121.399645","25.0163983333333","6500700","樹林區"
"238019","599-UM","2018/07/23 18:49:41","新北市樹林區東榮街147巷27弄1號","121.414701666667","24.9806833333333","6500700","樹林區"
"238022","KEA-2213","2018/07/23 18:49:47","新北市樹林區東興街43-1號","121.410941666667","24.977385","6500700","樹林區"
"238021","KEA-2539","2018/07/23 18:49:53","新北市樹林區西圳街二段30號","121.38856","24.96179","6500700","樹林區"
"238025","303-VK","2018/07/23 18:49:50","新北市樹林區中山路三段22號","121.395551666667","24.972945","6500700","樹林區"
"238017","283-BY","2018/07/23 18:49:46","新北市樹林區中山路三段210-2號","121.38154","24.9654916666667","6500700","樹林區"
"238014","282-BY","2018/07/23 18:49:37","新北市樹林區大安路111巷25號","121.423188333333","24.9975983333333","6500700","樹林區"
"238020","268-VK","2018/07/23 18:49:51","新北市樹林區俊英街83巷2號","121.425791666667","25.0080266666667","6500700","樹林區"
"238026","172-UY","2018/07/23 18:49:35","新北市樹林區德和街38號","121.38984","24.9784633333333","6500700","樹林區"
"238016","169-UY","2018/07/23 18:49:52","新北市樹林區文化街28號","121.41936","24.9877283333333","6500700","樹林區"
"239007","AAC-297","2018/07/23 18:49:39","新北市鶯歌區成功街20巷3號","121.358585","24.957725","6500800","鶯歌區"
"239005","526-UM","2018/07/23 18:49:48","新北市鶯歌區鳳吉二街156號","121.32886","24.9751516666667","6500800","鶯歌區"
"239001","417-VK","2018/07/23 18:49:41","新北市鶯歌區永明街13號","121.33824","24.9551466666667","6500800","鶯歌區"
"239003","360-BY","2018/07/23 18:49:42","新北市鶯歌區鶯桃路561號","121.330191666667","24.9683033333333","6500800","鶯歌區"
"239004","193-VK","2018/07/23 18:49:37","新北市鶯歌區中正三路156巷2-2號","121.33327","24.9400333333333","6500800","鶯歌區"
"221008","489-VK","2018/07/23 18:49:56","新北市汐止區康寧街901號","121.651386666667","25.07502","6501100","汐止區"
"221036","130-UY","2018/07/23 18:49:44","新北市汐止區南昌街35號","121.66291","25.069125","6501100","汐止區"
"221015","131-UY","2018/07/23 18:49:52","新北市汐止區吉祥街12巷12號","121.668921666667","25.0803216666667","6501100","汐止區"
"221010","269-BY","2018/07/23 18:49:40","新北市汐止區康寧街901號","121.65118","25.0751166666667","6501100","汐止區"
"221012","278-VK","2018/07/23 18:49:39","新北市汐止區康寧街901號","121.65081","25.0752016666667","6501100","汐止區"
"221023","279-VK","2018/07/23 18:49:49","新北市汐止區汐萬路一段256巷3號","121.652736666667","25.0744666666667","6501100","汐止區"
"221032","280-BY","2018/07/23 18:49:37","新北市汐止區橫科路121巷11弄5號","121.622118333333","25.0507483333333","6501100","汐止區"
"221027","281-BY","2018/07/23 18:49:38","新北市汐止區康寧街901號","121.651298333333","25.0750166666667","6501100","汐止區"
"221033","297-VK","2018/07/23 18:49:50","新北市汐止區南勢街1巷1號","121.627073333333","25.037445","6501100","汐止區"
"221029","298-VK","2018/07/23 18:49:54","新北市汐止區工建路60號","121.640735","25.06278","6501100","汐止區"
"221021","299-VK","2018/07/23 18:49:55","新北市汐止區康寧街901號","121.651536666667","25.07502","6501100","汐止區"
"221031","353-TW","2018/07/23 18:49:47","新北市汐止區福德一路300巷29號","121.630533333333","25.0642783333333","6501100","汐止區"
"221035","622-UM","2018/07/23 18:49:54","新北市汐止區禮門街4號","121.656816666667","25.067505","6501100","汐止區"
"221025","623-UM","2018/07/23 18:49:51","新北市汐止區仁愛路87號","121.661523333333","25.0629066666667","6501100","汐止區"
"221038","646-BX","2018/07/23 18:49:55","新北市汐止區康寧街901號","121.65072","25.0753016666667","6501100","汐止區"
"221002","707-TV","2018/07/23 18:49:52","新北市汐止區大同路一段154-1號","121.632066666667","25.0560133333333","6501100","汐止區"
"221018","753-BX","2018/07/23 18:49:41","新北市汐止區茄苳路85號","121.666888333333","25.0706","6501100","汐止區"
"220080","200-UY","2018/07/23 18:46:05","新北市板橋區大觀路二段265巷72弄15號","121.441786666667","24.9969516666667","6500100","板橋區"
"220082","610-BX","2018/07/23 18:49:49","新北市板橋區篤行路三段99號","121.426188333333","24.9846","6500100","板橋區"
"220101","245-BX","2018/07/23 18:49:00","新北市板橋區民生路二段161巷9號","121.470216666667","25.0195216666667","6500100","板橋區"
"220079","256-TC","2018/07/23 18:49:50","新北市板橋區民權路202巷7弄9號","121.459645","25.0148466666667","6500100","板橋區"
"220056","276-BY","2018/07/23 18:49:49","新北市板橋區信義路71號","121.457146666667","24.9953916666667","6500100","板橋區"
"220071","283-VK","2018/07/23 18:49:39","新北市板橋區忠孝路196巷43號","121.46564","25.00166","6500100","板橋區"
"220094","285-UM","2018/07/23 18:49:36","新北市板橋區民生路二段161巷1號","121.46998","25.0198616666667","6500100","板橋區"
"220053","285-VK","2018/07/23 18:49:40","新北市板橋區民生路二段123號","121.470735","25.018645","6500100","板橋區"
"220083","286-VK","2018/07/23 18:49:53","新北市板橋區僑中二街12巷36號","121.445311666667","25.0109033333333","6500100","板橋區"
"220081","287-VK","2018/07/23 18:49:49","新北市板橋區光華街13巷19號","121.453403333333","25.0113566666667","6500100","板橋區"
"220090","288-VK","2018/07/23 18:49:44","新北市板橋區民生路二段161巷3號","121.470241666667","25.0198033333333","6500100","板橋區"
"220061","293-UM","2018/07/23 18:49:40","新北市板橋區民生路二段89-4號","121.471225","25.018365","6500100","板橋區"
"220084","296-UM","2018/07/23 18:49:54","新北市板橋區大觀路二段152號","121.441661666667","24.998865","6500100","板橋區"
"220075","303-R5","2018/07/23 18:49:45","新北市板橋區館前西路257號","121.454235","25.0086883333333","6500100","板橋區"
"220062","305-R5","2018/07/23 18:49:55","新北市板橋區中山路二段26號","121.472536666667","25.015125","6500100","板橋區"
"220098","317-R6","2018/07/23 18:49:52","新北市板橋區民生路二段161巷3號","121.470078333333","25.0197716666667","6500100","板橋區"
"220064","486-VK","2018/07/23 18:49:53","新北市板橋區中山路二段50-1號","121.473136666667","25.0155766666667","6500100","板橋區"
"220088","491-VK","2018/07/23 18:49:43","新北市板橋區民生路二段171號","121.469715","25.0200816666667","6500100","板橋區"
"220104","560-BX","2018/07/23 18:49:45","新北市板橋區中正路252號","121.455495","25.0192533333333","6500100","板橋區"
"220103","561-BX","2018/07/23 18:49:40","新北市板橋區民生路二段161巷3號","121.470155","25.0197516666667","6500100","板橋區"
"220063","609-BX","2018/07/23 18:49:42","新北市板橋區民生路二段89號","121.471555","25.0174916666667","6500100","板橋區"
"220091","637-BX","2018/07/23 18:49:43","新北市板橋區民生路二段161巷1號","121.469811666667","25.0198983333333","6500100","板橋區"
"220057","686-BX","2018/07/23 18:49:50","新北市板橋區南雅南路一段1巷35號","121.457545","25.0064616666667","6500100","板橋區"
"220077","687-BX","2018/07/23 18:49:54","新北市板橋區龍興街103巷1號","121.444498333333","25.00338","6500100","板橋區"
"220093","689-BX","2018/07/23 18:49:44","新北市板橋區民生路二段161巷1號","121.470061666667","25.0201966666667","6500100","板橋區"
"220054","741-BX","2018/07/23 18:49:43","新北市板橋區館前東路26-4號","121.460365","25.0072116666667","6500100","板橋區"
"220102","KEA-2699","2018/07/23 18:49:38","新北市板橋區民生路二段120號","121.470445","25.019585","6500100","板橋區"
"220055","827-TW","2018/07/23 18:49:55","新北市板橋區縣民大道一段290號","121.461218333333","25.0106066666667","6500100","板橋區"
"220067","829-TW","2018/07/23 18:49:55","新北市板橋區中山路二段90巷47弄16號","121.477288333333","25.0149966666667","6500100","板橋區"
"220068","830-TW","2018/07/23 18:49:56","新北市板橋區三民路一段129-2號","121.479438333333","25.020715","6500100","板橋區"
"220074","895-R6","2018/07/23 18:49:48","新北市板橋區南門街53號","121.457125","25.008365","6500100","板橋區"
"220073","985-R7","2018/07/23 18:49:36","新北市板橋區館前西路52號","121.458446666667","25.0068983333333","6500100","板橋區"
"220070","AAC-253","2018/07/23 18:49:55","新北市板橋區四川路一段61號","121.45965","25.0061183333333","6500100","板橋區"
"235068","KEA-2873","2018/07/23 18:49:47","新北市中和區圓通路265巷60號","121.496236666667","24.992425","6500300","中和區"
"235061","KEA-2875","2018/07/23 18:49:27","新北市中和區民治街132巷5號","121.475045","25.0022916666667","6500300","中和區"
