"lineid","car","time","location","longitude","latitude","cityid","cityname"
"234046","148-BY","2018/07/23 19:19:14","新北市永和區得和路373巷6弄1號","121.524765","24.999775","6500400","永和區"
"234007","207-UY","2018/07/23 19:19:10","新北市永和區中山路一段242號","121.507736666667","25.0081083333333","6500400","永和區"
"234081","298-R6","2018/07/23 19:19:20","新北市永和區福和路57巷2號","121.522971666667","25.00766","6500400","永和區"
"234038","336-UY","2018/07/23 19:19:25","新北市永和區民樂街59巷1-1號","121.527613333333","24.9983266666667","6500400","永和區"
"234064","337-UY","2018/07/23 19:19:10","新北市永和區永元路17巷15號","121.521311666667","25.0007783333333","6500400","永和區"
"234086","338-UY","2018/07/23 19:19:27","新北市永和區永利路74號","121.520338333333","25.0042183333333","6500400","永和區"
"234070","552-UM","2018/07/23 19:19:27","新北市永和區豫溪街55號","121.517168333333","25.0098783333333","6500400","永和區"
"234067","553-UM","2018/07/23 19:19:24","新北市永和區保平路50巷8弄1號","121.51107","25.0075233333333","6500400","永和區"
"234017","745-BX","2018/07/23 19:19:19","新北市永和區文化路144巷31弄8號","121.512371666667","25.016785","6500400","永和區"
"234030","746-BX","2018/07/23 19:19:16","新北市永和區厚德街101號","121.52332","24.9988883333333","6500400","永和區"
"234054","KEA-2590","2018/07/23 19:19:08","新北市永和區中興街25號","121.516016666667","25.0119483333333","6500400","永和區"
"234013","KEA-2591","2018/07/23 19:19:16","新北市永和區仁愛路96號","121.512303333333","25.0132866666667","6500400","永和區"
"234061","AAD-866","2018/07/23 19:19:18","新北市永和區秀朗路一段175號","121.516983333333","25.0037","6500400","永和區"
"234042","862-TW","2018/07/23 19:19:11","新北市永和區保平路151巷2弄1號","121.510085","25.0055933333333","6500400","永和區"
"234050","863-TW","2018/07/23 19:19:18","新北市永和區仁愛路104巷10號","121.512058333333","25.0137333333333","6500400","永和區"
"234026","9371-KE","2018/07/23 19:19:13","新北市永和區安樂路144巷27號","121.51509","24.9998283333333","6500400","永和區"
"234011","9373-KE","2018/07/23 19:19:20","新北市永和區保福路二段23巷19號","121.51009","25.0111066666667","6500400","永和區"
"249005","172-UM","2018/07/23 19:19:21","新北市八里區中華路三段120-2號","121.39269","25.1377316666667","6502300","八里區"
"249001","173-UM","2018/07/23 19:19:09","新北市八里區中山路一段452號","121.410385","25.15707","6502300","八里區"
"249003","593-UM","2018/07/23 19:19:18","新北市八里區中山路二段462號","121.399043333333","25.1472083333333","6502300","八里區"
"248008","095-VK","2018/07/23 19:19:15","新北市五股區中興路二段83巷26-3號","121.46009","25.0753666666667","6501500","五股區"
"248018","225-UY","2018/07/23 19:19:21","新北市五股區民義路一段255-6號","121.426066666667","25.091465","6501500","五股區"
"248012","247-BX","2018/07/23 19:19:20","新北市五股區中興路四段48巷16號","121.438598333333","25.0834616666667","6501500","五股區"
"248004","655-BX","2018/07/23 19:19:25","新北市五股區五福路59號","121.432881666667","25.090015","6501500","五股區"
"248002","678-BX","2018/07/23 19:19:10","新北市五股區凌雲路一段158巷14-1號","121.44788","25.1034733333333","6501500","五股區"
"248010","682-TV","2018/07/23 19:19:22","新北市五股區水碓一路23號","121.430625","25.071325","6501500","五股區"
"234023","9380-KE","2018/07/23 19:19:22","新北市永和區竹林路124巷12號","121.519223333333","25.01129","6500400","永和區"
"234077","969-R7","2018/07/23 19:19:20","新北市永和區民族街42號","121.518421666667","24.9988033333333","6500400","永和區"
"234074","AAC-211","2018/07/23 19:19:14","新北市永和區竹林路104號","121.519665","25.0118983333333","6500400","永和區"
"234003","AAC-295","2018/07/23 19:19:08","新北市永和區中山路一段106號","121.510955","25.010545","6500400","永和區"
"244023","483-VK","2018/07/23 19:19:24","新北市林口區仁愛路二段265號","121.373583333333","25.0773616666667","6501700","林口區"
"244017","485-VK","2018/07/23 19:19:10","新北市林口區頂福里82號","121.371055","25.083215","6501700","林口區"
"244011","657-BX","2018/07/23 19:19:20","新北市林口區中山路97巷18號","121.389501666667","25.0781116666667","6501700","林口區"
"243013","AAD-798","2018/07/23 19:19:21","新北市泰山區明志路三段145巷2弄15號","121.425041666667","25.03939","6501600","泰山區"
"243009","297-R6","2018/07/23 19:19:23","新北市泰山區和平街9-2號","121.434123333333","25.0646133333333","6501600","泰山區"
"243016","380-SR","2018/07/23 19:19:20","新北市泰山區明志路三段155號","121.42478","25.0397766666667","6501600","泰山區"
"243015","421-VK","2018/07/23 19:19:09","新北市泰山區公園路19號","121.429355","25.05416","6501600","泰山區"
"243011","KEA-2215","2018/07/23 19:19:15","新北市泰山區中央路7巷2號","121.426391666667","25.0432733333333","6501600","泰山區"
"243010","KEA-2216","2018/07/23 19:19:24","新北市泰山區明志路一段492巷2號","121.430193333333","25.0547416666667","6501600","泰山區"
"243012","646-TV","2018/07/23 19:19:20","新北市泰山區仁愛路100巷29號","121.433636666667","25.0550266666667","6501600","泰山區"
"243014","680-BX","2018/07/23 19:19:20","新北市泰山區泰林路二段93巷1號","121.434758333333","25.0587983333333","6501600","泰山區"
"222003","436-BY","2018/07/23 19:19:05","新北市深坑區深南路204號","121.62668","25.016005","6501800","深坑區"
"222002","659-BX","2018/07/23 19:19:25","新北市深坑區北深路一段177號","121.632491666667","25.010865","6501800","深坑區"
"231041","002-UM","2018/07/23 19:19:24","新北市新店區溪園路247號","121.525433333333","24.9833216666667","6500600","新店區"
"231059","046-UY","2018/07/23 19:19:08","新北市新店區安和路二段173號","121.518578333333","24.974615","6500600","新店區"
"231040","047-UY","2018/07/23 19:19:10","新北市新店區三民路45號","121.537071666667","24.9708966666667","6500600","新店區"
"231044","106-UY","2018/07/23 19:19:26","新北市新店區寶慶街71號","121.541913333333","24.98662","6500600","新店區"
"231046","107-UY","2018/07/23 19:19:24","新北市新店區華城路5-3號","121.52927","24.9579333333333","6500600","新店區"
"231052","108-UY","2018/07/23 19:19:08","新北市新店區自強路215號","121.546826666667","24.9194783333333","6500600","新店區"
"231047","187-VK","2018/07/23 19:19:25","新北市新店區中興路二段57巷23號","121.545495","24.9709516666667","6500600","新店區"
"231054","KEA-2219","2018/07/23 19:19:26","新北市新店區北宜路一段72-1號","121.537945","24.9560166666667","6500600","新店區"
"231042","268-BY","2018/07/23 19:19:17","新北市新店區中興路一段92號","121.539951666667","24.9605166666667","6500600","新店區"
"231051","278-BY","2018/07/23 19:19:24","新北市新店區中央路133巷4號","121.530581666667","24.973665","6500600","新店區"
"231050","AAD-862","2018/07/23 19:19:26","新北市新店區竹林路30號","121.552388333333","24.951275","6500600","新店區"
"231058","3713-VJ","2018/07/23 19:19:17","新北市新店區北新路二段94號","121.542933333333","24.97306","6500600","新店區"
"231066","4716-K9","2018/07/23 19:19:24","新北市新店區安康路三段355巷12號","121.484586666667","24.950125","6500600","新店區"
"231056","4715-K9","2018/07/23 19:19:26","新北市新店區溪園路401號","121.523783333333","24.9780283333333","6500600","新店區"
"231067","4772-VM","2018/07/23 19:19:18","新北市新店區安康路一段263巷7號","121.524083333333","24.9624266666667","6500600","新店區"
"231065","512-UM","2018/07/23 19:19:20","新北市新店區安祥路109巷3弄32號","121.47635","24.9603016666667","6500600","新店區"
"231049","513-UM","2018/07/23 19:19:14","新北市新店區明德路111號","121.541498333333","24.9794566666667","6500600","新店區"
"231063","616-UM","2018/07/23 19:19:24","新北市新店區達觀路12號","121.505078333333","24.94092","6500600","新店區"
"231045","617-UM","2018/07/23 19:19:19","新北市新店區北宜路二段4號","121.547676666667","24.9518966666667","6500600","新店區"
"231061","619-UM","2018/07/23 19:19:24","新北市新店區安康路一段65號","121.530353333333","24.9609966666667","6500600","新店區"
"231064","719-UM","2018/07/23 19:19:09","新北市新店區安忠路57巷2號","121.513446666667","24.9592066666667","6500600","新店區"
"231062","720-UM","2018/07/23 19:19:24","新北市新店區莒光路38巷3號","121.522308333333","24.958885","6500600","新店區"
"231060","897-TW","2018/07/23 19:19:09","新北市新店區安康路二段113號","121.512581666667","24.96179","6500600","新店區"
"231043","899-TW","2018/07/23 19:19:13","新北市新店區寶橋路6巷4號","121.543201666667","24.97354","6500600","新店區"
"231055","AKT-0513","2018/07/23 19:19:17","新北市新店區安德街60巷35號","121.511031666667","24.9637983333333","6500600","新店區"
"241022","060-VK","2018/07/23 19:19:21","新北市三重區中正北路52號","121.487068333333","25.0642433333333","6500200","三重區"
"241031","061-VK","2018/07/23 19:19:13","新北市三重區重新路四段216號","121.485988333333","25.0542816666667","6500200","三重區"
"241017","063-VK","2018/07/23 19:19:17","新北市三重區大同北路158號","121.492265","25.065585","6500200","三重區"
"241009","265-UM","2018/07/23 19:19:22","新北市三重區仁美街115號","121.485783333333","25.0810616666667","6500200","三重區"
"241032","269-UM","2018/07/23 19:19:11","新北市三重區新生街92號","121.48357","25.0593483333333","6500200","三重區"
"241025","271-UM","2018/07/23 19:19:14","新北市三重區中正北路406號","121.475375","25.0704716666667","6500200","三重區"
"241007","398-BY","2018/07/23 19:19:18","新北市三重區慈愛街50號","121.485996666667","25.0791716666667","6500200","三重區"
"241026","413-TH","2018/07/23 19:19:06","新北市三重區中正南路248號","121.49335","25.0538783333333","6500200","三重區"
"241035","462-BY","2018/07/23 19:19:15","新北市三重區信義西街138號","121.495591666667","25.0643783333333","6500200","三重區"
"241020","478-VK","2018/07/23 19:19:21","新北市三重區永德街21號","121.489045","25.0728333333333","6500200","三重區"
"241030","480-VK","2018/07/23 19:19:26","新北市三重區新興路46號","121.491486666667","25.0536116666667","6500200","三重區"
"241006","AAD-863","2018/07/23 19:19:16","新北市三重區車路頭街182號","121.483638333333","25.07721","6500200","三重區"
"241029","942-UM","2018/07/23 19:19:21","新北市三重區重安街70-4號","121.491295","25.0569483333333","6500200","三重區"
"235066","003-UY","2018/07/23 19:19:14","新北市中和區中和路102號","121.50276","24.9998216666667","6500300","中和區"
"235063","006-UY","2018/07/23 19:19:18","新北市中和區連城路249巷26弄3-3號","121.494568333333","24.9953383333333","6500300","中和區"
"235056","096-UM","2018/07/23 19:19:12","新北市中和區中正路1207號","121.480176666667","25.0101666666667","6500300","中和區"
"235039","097-UM","2018/07/23 19:19:21","新北市中和區秀峰街121號","121.519965","24.990795","6500300","中和區"
"235065","098-UM","2018/07/23 19:19:14","新北市中和區中山路二段64巷12弄2號","121.503786666667","25.0051966666667","6500300","中和區"
"235040","150-BY","2018/07/23 19:19:23","新北市中和區保健路46巷11號","121.50944","24.99669","6500300","中和區"
"235058","151-BY","2018/07/23 19:19:14","新北市中和區員山路36巷16-2號","121.485348333333","24.9916883333333","6500300","中和區"
"235055","183-VK","2018/07/23 19:19:16","新北市中和區德光路23號","121.470823333333","25.00429","6500300","中和區"
"235038","185-VK","2018/07/23 19:19:09","新北市中和區大仁街108號","121.520436666667","24.99284","6500300","中和區"
"235049","186-VK","2018/07/23 19:19:24","新北市中和區景新街237號","121.508225","24.9945433333333","6500300","中和區"
"235067","255-BX","2018/07/23 19:19:08","新北市中和區新生街148巷21號","121.482513333333","25.0006716666667","6500300","中和區"
"235044","293-VK","2018/07/23 19:19:16","新北市中和區復興路314號","121.501013333333","24.9903066666667","6500300","中和區"
"235072","301-VK","2018/07/23 19:19:27","新北市中和區連城路265巷1號","121.491396666667","24.9962783333333","6500300","中和區"
"235043","352-BY","2018/07/23 19:19:08","新北市中和區景平路390號","121.510491666667","24.9930333333333","6500300","中和區"
"235050","4979-A6","2018/07/23 19:19:14","新北市中和區景安路208巷7號","121.503515","24.9911166666667","6500300","中和區"
"235042","551-UM","2018/07/23 19:19:22","新北市中和區安樂路217巷21弄16號","121.514006666667","24.997775","6500300","中和區"
"235070","558-UM","2018/07/23 19:19:08","新北市中和區中山路二段228-1號","121.498666666667","25.0027283333333","6500300","中和區"
"235045","565-BX","2018/07/23 19:19:21","新北市中和區景新街423巷35弄23號","121.513895","24.9904783333333","6500300","中和區"
"235054","640-BX","2018/07/23 19:19:10","新北市中和區國光街109巷14號","121.469705","25.0000516666667","6500300","中和區"
"235060","647-TV","2018/07/23 19:19:26","新北市中和區員山路469巷1號","121.48017","25.0045366666667","6500300","中和區"
"235047","732-UM","2018/07/23 19:19:19","新北市中和區和平街54巷1弄4號","121.50863","24.991145","6500300","中和區"
"235046","733-UM","2018/07/23 19:19:24","新北市中和區華新街136號","121.508026666667","24.9825433333333","6500300","中和區"
"235071","783-BX","2018/07/23 19:19:12","新北市中和區中正路649號","121.485195","24.9959266666667","6500300","中和區"
"235057","801-TS","2018/07/23 19:19:22","新北市中和區員山路423巷7號","121.480501666667","25.00321","6500300","中和區"
"235041","802-TS","2018/07/23 19:19:22","新北市中和區景安路2號","121.507885","24.9991533333333","6500300","中和區"
"235048","896-TW","2018/07/23 19:19:21","新北市中和區忠孝街39-12號","121.511978333333","24.984385","6500300","中和區"
"235053","900-TW","2018/07/23 19:19:12","新北市中和區民德路260號","121.467836666667","24.99691","6500300","中和區"
"235064","911-UM","2018/07/23 19:19:13","新北市中和區中和路33號","121.500031666667","25.001635","6500300","中和區"
"235051","157-BY","2018/07/23 19:19:23","新北市中和區和平街54巷8弄30號","121.509605","24.99139","6500300","中和區"
"235037","AAC-213","2018/07/23 19:19:12","新北市中和區秀朗路三段10巷37弄12號","121.5237","24.995885","6500300","中和區"
"235059","AAC-215","2018/07/23 19:19:25","新北市中和區錦和路195巷12號","121.491246666667","24.9909133333333","6500300","中和區"
"220065","072-UY","2018/07/23 19:19:18","新北市板橋區民族路170巷2-2號","121.467416666667","25.0077866666667","6500100","板橋區"
"220086","073-UY","2018/07/23 19:19:23","新北市板橋區中正路216巷70號","121.457848333333","25.01893","6500100","板橋區"
"220106","075-UY","2018/07/23 19:19:25","新北市板橋區雙十路三段66巷1號","121.470538333333","25.0319633333333","6500100","板橋區"
"220069","AAD-861","2018/07/23 19:19:27","新北市板橋區華興街56號","121.457963333333","25.0047383333333","6500100","板橋區"
"226004","312-R5","2018/07/23 19:19:24","新北市平溪區十分里十分街132-1號","121.777383333333","25.0432983333333","6502400","平溪區"
"235052","251-BX","2018/07/23 19:19:20","新北市中和區華新街210號","121.506578333333","24.9818333333333","6500300","中和區"
"228003","097-TW","2018/07/23 19:19:23","新北市貢寮區和美里和美街22-1號","121.912776666667","25.08264","6502600","貢寮區"
"228002","663-BX","2018/07/23 19:19:08","新北市貢寮區雙玉里田寮洋街22號","121.928635","25.0222166666667","6502600","貢寮區"
"228001","670-TC","2018/07/23 19:19:11","新北市貢寮區真理里新港街10號","121.925531666667","25.0543733333333","6502600","貢寮區"
"224010","AGQ-8101","2018/07/23 19:11:55","新北市瑞芳區金光路372號","121.848668333333","25.1105116666667","6501200","瑞芳區"
"224008","285-BY","2018/07/23 19:19:08","基隆市信義區深澳坑路346號","121.79605","25.1126816666667","6501200","瑞芳區"
"227008","642-TC","2018/07/23 19:19:27","新北市雙溪區新基里新基北街40號","121.868573333333","25.038015","6502500","雙溪區"
"227001","400-TW","2018/07/23 19:19:22","新北市雙溪區平林里梅竹蹊66-1號","121.860136666667","25.03584","6502500","雙溪區"
"253005","032-BX","2018/07/23 19:19:05","新北市石門區阿里荖10號","121.608941666667","25.2800766666667","6502200","石門區"
"253006","295-VK","2018/07/23 19:19:20","新北市石門區楓林17-10號","121.536185","25.2929","6502200","石門區"
"222001","KEA-2212","2018/07/23 19:19:17","新北市深坑區北深路二段82號","121.617546666667","25.0035216666667","6501800","深坑區"
"208002","KEA-2872","2018/07/23 19:19:24","新北市金山區中正路67號","121.63387","25.2218033333333","6502700","金山區"
"208003","665-BX","2018/07/23 19:19:13","新北市金山區中正路135號","121.632391666667","25.2215516666667","6502700","金山區"
"208001","761-BX","2018/07/23 19:19:23","新北市金山區慈護街35號","121.639408333333","25.21984","6502700","金山區"
"251005","010-UM","2018/07/23 19:19:17","新北市淡水區水源街一段34巷1號","121.443188333333","25.172265","6501000","淡水區"
"251013","KEA-2871","2018/07/23 19:19:22","新北市淡水區安子內12-1號","121.481521666667","25.21909","6501000","淡水區"
"251016","179-VK","2018/07/23 19:19:09","新北市淡水區下圭柔山119-51號","121.450653333333","25.2085483333333","6501000","淡水區"
"251014","180-VK","2018/07/23 19:19:11","新北市淡水區小中寮19-7號","121.484746666667","25.2296033333333","6501000","淡水區"
"251015","181-VK","2018/07/23 19:19:16","新北市淡水區山子邊5-2號","121.4833","25.184395","6501000","淡水區"
"251010","413-VK","2018/07/23 19:19:20","新北市淡水區沙崙路23號","121.421348333333","25.1814633333333","6501000","淡水區"
"251007","442-VK","2018/07/23 19:19:21","新北市淡水區民生路145巷18號","121.466246666667","25.138655","6501000","淡水區"
"251001","559-UM","2018/07/23 19:19:22","新北市淡水區自強路201巷39號","121.462095","25.1268266666667","6501000","淡水區"
"251006","561-UM","2018/07/23 19:19:10","新北市淡水區大信街33號","121.441915","25.177335","6501000","淡水區"
"251009","575-R6","2018/07/23 19:19:18","新北市淡水區中正路32號","121.44387","25.169235","6501000","淡水區"
"251003","766-UM","2018/07/23 19:19:18","新北市淡水區中山北路一段239號","121.44455","25.179715","6501000","淡水區"
"207003","550-UM","2018/07/23 19:19:11","新北市萬里區大鵬里萬里加投79-3號","121.647311666667","25.2123466666667","6502800","萬里區"
"207004","225-TW","2018/07/23 19:19:24","新北市萬里區萬里里成功新村44號","121.687726666667","25.1746266666667","6502800","萬里區"
"252002","178-VK","2018/07/23 19:19:15","新北市三芝區淡金路二段18-1號","121.50266","25.2595566666667","6502100","三芝區"
"252001","292-VK","2018/07/23 19:19:20","新北市三芝區長勤街9巷11弄1號","121.501758333333","25.25477","6502100","三芝區"
"237004","KEA-2597","2018/07/23 19:19:22","新北市三峽區有木206號","121.439096666667","24.851535","6500900","三峽區"
"237007","153-BY","2018/07/23 19:19:21","新北市三峽區二鬮路83號","121.359495","24.9069133333333","6500900","三峽區"
"237013","252-BX","2018/07/23 19:19:14","新北市三峽區光明路75巷25號","121.377531666667","24.92826","6500900","三峽區"
"237012","275-BY","2018/07/23 19:19:11","新北市三峽區三樹路222巷236弄8-1號","121.391073333333","24.9430466666667","6500900","三峽區"
"237008","302-VK","2018/07/23 19:19:20","新北市三峽區光明路106巷57號","121.375278333333","24.9266516666667","6500900","三峽區"
"237014","433-BY","2018/07/23 19:19:23","新北市三峽區中山路257巷39號","121.362071666667","24.93641","6500900","三峽區"
"237006","5529-G3","2018/07/23 19:19:23","新北市三峽區橫溪路99巷18-2號","121.400653333333","24.93609","6500900","三峽區"
"237011","KEA-2596","2018/07/23 19:19:24","新北市三峽區介壽路二段25號","121.390201666667","24.9350483333333","6500900","三峽區"
"237015","649-BX","2018/07/23 19:19:20","新北市三峽區建安83號","121.453651666667","24.92052","6500900","三峽區"
"237010","706-TV","2018/07/23 19:19:16","新北市三峽區國光街16號","121.375338333333","24.9372066666667","6500900","三峽區"
"237005","AKY-6261","2018/07/23 19:19:23","新北市三峽區隆恩街245號","121.35766","24.9409266666667","6500900","三峽區"
"236069","105-UM","2018/07/23 19:19:11","新北市土城區中央路一段69巷4號","121.447971666667","24.989435","6501300","土城區"
"236078","166-UM","2018/07/23 19:19:23","新北市土城區龍泉路8號","121.409425","24.9499083333333","6501300","土城區"
"236026","269-VK","2018/07/23 19:19:16","新北市土城區中正路67巷27號","121.444146666667","24.97659","6501300","土城區"
"236014","270-VK","2018/07/23 19:19:19","新北市土城區學府路一段23巷25弄32號","121.457345","24.98622","6501300","土城區"
"236020","401-BY","2018/07/23 19:19:09","新北市土城區峰廷街3號","121.46922","24.9874533333333","6501300","土城區"
"236059","912-UM","2018/07/23 19:19:12","新北市土城區中央路二段274號","121.441205","24.9742266666667","6501300","土城區"
"236048","913-UM","2018/07/23 19:19:16","新北市土城區明德路一段365-1號","121.453671666667","24.9791033333333","6501300","土城區"
"242048","172-VK","2018/07/23 19:19:15","新北市新莊區後港一路19號","121.424306666667","25.0261566666667","6500500","新莊區"
"238015","755-BX","2018/07/23 19:19:08","新北市樹林區大安路502號","121.413926666667","24.9862933333333","6500700","樹林區"
"238023","601-UM","2018/07/23 19:19:09","新北市樹林區三興路87巷1-2號","121.393706666667","25.012905","6500700","樹林區"
"238019","599-UM","2018/07/23 19:19:21","新北市樹林區鎮前街411巷1弄17號","121.415621666667","24.98321","6500700","樹林區"
"238011","5061-A6","2018/07/23 19:19:26","新北市樹林區福德街48-10號","121.398838333333","24.9748333333333","6500700","樹林區"
"238022","KEA-2213","2018/07/23 19:19:27","新北市樹林區國凱街66號","121.420675","24.9790033333333","6500700","樹林區"
"238021","KEA-2539","2018/07/23 19:19:13","新北市樹林區柑園街二段247巷17號","121.375493333333","24.9503766666667","6500700","樹林區"
"238025","303-VK","2018/07/23 19:19:10","新北市樹林區中山路二段193號","121.404366666667","24.9774533333333","6500700","樹林區"
"238017","283-BY","2018/07/23 19:19:26","新北市樹林區光興街155巷4號","121.407555","25.0035166666667","6500700","樹林區"
"238014","282-BY","2018/07/23 19:19:17","新北市樹林區保安二街12號","121.425085","24.9939783333333","6500700","樹林區"
"238020","268-VK","2018/07/23 19:19:11","新北市樹林區俊英街123巷53號","121.423151666667","25.0103966666667","6500700","樹林區"
"238026","172-UY","2018/07/23 19:19:15","新北市樹林區佳園路二段108號","121.38994","24.957315","6500700","樹林區"
"238016","169-UY","2018/07/23 19:19:18","新北市樹林區復興路464巷21號","121.412875","24.9832633333333","6500700","樹林區"
"239007","AAC-297","2018/07/23 19:19:19","新北市鶯歌區大湖路余厝巷11號","121.341961666667","24.961555","6500800","鶯歌區"
"239006","891-R6","2018/07/23 19:19:14","新北市鶯歌區鶯桃路184號","121.336606666667","24.9555866666667","6500800","鶯歌區"
"239008","527-UM","2018/07/23 19:19:17","新北市鶯歌區國際二路6巷3號","121.338446666667","24.9736616666667","6500800","鶯歌區"
"239005","526-UM","2018/07/23 19:19:20","新北市鶯歌區大湖路305號","121.344323333333","24.97353","6500800","鶯歌區"
"239001","417-VK","2018/07/23 19:19:21","新北市鶯歌區建國路596巷10號","121.340353333333","24.951715","6500800","鶯歌區"
"239003","360-BY","2018/07/23 19:19:22","新北市鶯歌區中正二路145號","121.34679","24.950135","6500800","鶯歌區"
"239004","193-VK","2018/07/23 19:19:17","新北市鶯歌區鶯華新村37號","121.33047","24.93424","6500800","鶯歌區"
"221008","489-VK","2018/07/23 19:19:16","新北市汐止區康寧街310號","121.626625","25.0672666666667","6501100","汐止區"
"221036","130-UY","2018/07/23 19:19:24","新北市汐止區康寧街901號","121.650876666667","25.0752166666667","6501100","汐止區"
"221015","131-UY","2018/07/23 19:19:12","新北市汐止區汐萬路一段256巷3號","121.653366666667","25.074745","6501100","汐止區"
"221012","278-VK","2018/07/23 19:19:18","新北市汐止區汐萬路一段312號","121.650343333333","25.0749266666667","6501100","汐止區"
"221023","279-VK","2018/07/23 19:19:09","新北市汐止區康寧街901號","121.650988333333","25.0752683333333","6501100","汐止區"
"221032","280-BY","2018/07/23 19:19:17","新北市汐止區汐萬路一段167號","121.652725","25.070935","6501100","汐止區"
"221027","281-BY","2018/07/23 19:19:18","新北市汐止區汐萬路一段312號","121.650478333333","25.0752083333333","6501100","汐止區"
"221033","297-VK","2018/07/23 19:19:10","新北市汐止區南勢街3號","121.627075","25.03742","6501100","汐止區"
"221029","298-VK","2018/07/23 19:19:14","新北市汐止區康寧街901號","121.65145","25.0749183333333","6501100","汐止區"
"221021","299-VK","2018/07/23 19:19:15","新北市汐止區康寧街901號","121.65136","25.0750333333333","6501100","汐止區"
"221031","353-TW","2018/07/23 19:19:27","新北市汐止區汐萬路一段256巷3號","121.652473333333","25.0745666666667","6501100","汐止區"
"221025","623-UM","2018/07/23 19:19:11","新北市汐止區康寧街901號","121.65165","25.0748933333333","6501100","汐止區"
"221038","646-BX","2018/07/23 19:19:15","新北市汐止區汐萬路一段312號","121.65066","25.0752416666667","6501100","汐止區"
"221002","707-TV","2018/07/23 19:19:12","新北市汐止區大同路一段398號","121.63979","25.0598716666667","6501100","汐止區"
"220080","200-UY","2018/07/23 19:19:25","新北市板橋區大觀路二段19巷23號","121.447686666667","25.0031666666667","6500100","板橋區"
"220082","610-BX","2018/07/23 19:19:15","新北市板橋區金門街328-1號","121.42834","24.9848133333333","6500100","板橋區"
"220101","245-BX","2018/07/23 19:19:20","新北市板橋區莊敬路15號","121.474296666667","25.0280316666667","6500100","板橋區"
"220079","256-TC","2018/07/23 19:19:09","新北市板橋區民權路202巷17弄8號","121.460401666667","25.0166183333333","6500100","板橋區"
"220056","276-BY","2018/07/23 19:19:23","新北市板橋區信義路85號","121.45732","24.9940883333333","6500100","板橋區"
"220071","283-VK","2018/07/23 19:19:19","新北市板橋區忠孝路48巷7弄8號","121.461428333333","25.0004183333333","6500100","板橋區"
"220094","285-UM","2018/07/23 19:19:16","新北市板橋區吳鳳路21巷2號","121.466985","25.03119","6500100","板橋區"
"220053","285-VK","2018/07/23 19:19:20","新北市板橋區富山街5號","121.478618333333","25.02163","6500100","板橋區"
"220083","286-VK","2018/07/23 19:19:08","新北市板橋區龍興街73巷24號","121.443011666667","25.0025283333333","6500100","板橋區"
"220081","287-VK","2018/07/23 19:19:19","新北市板橋區南雅西路一段148號","121.452458333333","25.0074016666667","6500100","板橋區"
"220090","288-VK","2018/07/23 19:19:24","新北市板橋區長江路一段106巷13弄25號","121.461056666667","25.02959","6500100","板橋區"
"220061","293-UM","2018/07/23 19:19:20","新北市板橋區中山路二段309巷8號","121.478596666667","25.0189183333333","6500100","板橋區"
"220084","296-UM","2018/07/23 19:19:27","新北市板橋區滿平街136巷8弄12號","121.427426666667","24.9876783333333","6500100","板橋區"
"220075","303-R5","2018/07/23 19:19:20","新北市板橋區僑中一街124巷70-5號","121.449663333333","25.0169266666667","6500100","板橋區"
"220062","305-R5","2018/07/23 19:19:15","新北市板橋區三民路二段153巷36弄2號","121.481175","25.014165","6500100","板橋區"
"220092","307-R5","2018/07/23 19:19:19","新北市板橋區光武街48巷30號","121.468196666667","25.0269616666667","6500100","板橋區"
"220098","317-R6","2018/07/23 19:19:12","新北市板橋區民有街89巷11號","121.464271666667","25.0273416666667","6500100","板橋區"
"220064","486-VK","2018/07/23 19:19:12","新北市板橋區中山路一段137號","121.462791666667","25.010755","6500100","板橋區"
"220088","491-VK","2018/07/23 19:19:23","新北市板橋區雙十路二段4-1號","121.47719","25.025515","6500100","板橋區"
"220104","560-BX","2018/07/23 19:19:25","新北市板橋區中正路433巷27號","121.453248333333","25.023615","6500100","板橋區"
"220103","561-BX","2018/07/23 19:19:20","新北市板橋區介壽街20號","121.46762","25.020105","6500100","板橋區"
"220063","609-BX","2018/07/23 19:19:22","新北市板橋區三民路二段202-8號","121.479023333333","25.0142216666667","6500100","板橋區"
"220091","637-BX","2018/07/23 19:19:23","新北市板橋區萬板路478號","121.47999","25.0259566666667","6500100","板橋區"
"220057","686-BX","2018/07/23 19:19:10","新北市中和區壽德街26號","121.466701666667","24.99431","6500100","板橋區"
"220077","687-BX","2018/07/23 19:19:14","新北市板橋區大觀路一段28巷73號","121.449613333333","25.0111983333333","6500100","板橋區"
"220093","689-BX","2018/07/23 19:15:44","新北市板橋區文化路一段321號","121.466336666667","25.0204433333333","6500100","板橋區"
"220054","741-BX","2018/07/23 19:19:23","新北市板橋區四川路一段205號","121.460048333333","25.003615","6500100","板橋區"
"220102","KEA-2699","2018/07/23 19:19:18","新北市板橋區文聖街207-1號","121.479941666667","25.026295","6500100","板橋區"
"220055","827-TW","2018/07/23 19:19:15","新北市板橋區實踐路72-4號","121.463896666667","25.0056583333333","6500100","板橋區"
"220067","829-TW","2018/07/23 19:19:18","新北市板橋區長安街138巷7弄66號","121.474308333333","25.009385","6500100","板橋區"
"220068","830-TW","2018/07/23 19:19:19","新北市板橋區翠華街6巷53號","121.481411666667","25.0246516666667","6500100","板橋區"
"220096","831-TW","2018/07/23 19:19:28","新北市板橋區大同街26巷3號","121.47809","25.027145","6500100","板橋區"
"220089","833-TW","2018/07/23 19:19:12","新北市板橋區文化路一段479巷44號","121.467746666667","25.0227466666667","6500100","板橋區"
"220074","895-R6","2018/07/23 19:19:25","新北市板橋區中正路1巷18-1號","121.455156666667","25.0115433333333","6500100","板橋區"
"220073","985-R7","2018/07/23 19:19:15","新北市板橋區新生街89巷6號","121.458023333333","25.02223","6500100","板橋區"
"220097","AAC-210","2018/07/23 19:19:14","新北市板橋區幸福路60巷4號","121.460671666667","25.0209383333333","6500100","板橋區"
"220070","AAC-253","2018/07/23 19:19:14","新北市板橋區忠孝路146號","121.46389","25.002405","6500100","板橋區"
"235068","KEA-2873","2018/07/23 19:19:17","新北市中和區圓通路158巷3-1號","121.497655","24.9961616666667","6500300","中和區"
"235061","KEA-2875","2018/07/23 19:19:27","新北市中和區員山路143巷40弄1號","121.479095","24.9956083333333","6500300","中和區"
