"lineid","car","time","location","longitude","latitude","cityid","cityname"
"234081","298-R6","2018/07/23 20:29:20","新北市永和區福和路135號","121.521328333333","25.0077366666667","6500400","永和區"
"234038","336-UY","2018/07/23 20:29:13","新北市永和區民樂街31巷19弄3號","121.528536666667","25.002255","6500400","永和區"
"234064","337-UY","2018/07/23 20:29:10","新北市永和區中正路417號","121.517065","25.0048166666667","6500400","永和區"
"234086","338-UY","2018/07/23 20:29:07","新北市永和區光復街26-1號","121.51656","25.0173516666667","6500400","永和區"
"234070","552-UM","2018/07/23 20:29:27","新北市永和區永亨路7號","121.519393333333","25.0056516666667","6500400","永和區"
"234067","553-UM","2018/07/23 20:29:23","新北市永和區保平路292巷4號","121.507901666667","25.00475","6500400","永和區"
"234017","745-BX","2018/07/23 20:29:19","新北市永和區仁愛路95號","121.512921666667","25.01305","6500400","永和區"
"234030","746-BX","2018/07/23 20:29:22","新北市永和區民族街81巷46號","121.519696666667","24.9964733333333","6500400","永和區"
"234054","KEA-2590","2018/07/23 20:29:28","新北市永和區環河東路一段76號","121.519586666667","25.016575","6500400","永和區"
"234061","AAD-866","2018/07/23 20:29:18","新北市永和區安樂路194巷39弄8號","121.516273333333","25.0014816666667","6500400","永和區"
"234042","862-TW","2018/07/23 20:29:11","新北市永和區安樂路242-20號","121.514895","25.0031833333333","6500400","永和區"
"234050","863-TW","2018/07/23 20:29:21","新北市永和區新生路108號","121.507093333333","25.0147366666667","6500400","永和區"
"249001","173-UM","2018/07/23 20:29:25","新北市八里區中山路三段109號","121.390173333333","25.1421316666667","6502300","八里區"
"249004","303-UY","2018/07/23 20:29:26","新北市八里區中山路一段129巷19-1號","121.413945","25.1586","6502300","八里區"
"249002","305-UY","2018/07/23 20:29:13","新北市八里區龍米路二段125巷23號","121.445761666667","25.1455716666667","6502300","八里區"
"249003","593-UM","2018/07/23 20:29:17","新北市八里區華峰一街45號","121.398665","25.1463","6502300","八里區"
"248002","678-BX","2018/07/23 20:29:25","新北市五股區成泰路三段43-2號","121.442251666667","25.0889883333333","6501500","五股區"
"234023","9380-KE","2018/07/23 20:29:22","新北市永和區光復街2巷16弄50號","121.518378333333","25.016285","6500400","永和區"
"234077","969-R7","2018/07/23 20:29:20","新北市永和區智光街126號","121.514955","24.995695","6500400","永和區"
"234074","AAC-211","2018/07/23 20:29:14","新北市永和區福和路8巷3號","121.524995","25.0092433333333","6500400","永和區"
"243013","AAD-798","2018/07/23 20:29:24","新北市泰山區貴子路2號","121.425076666667","25.0421516666667","6501600","泰山區"
"243009","297-R6","2018/07/23 20:29:23","新北市泰山區忠孝街41巷2號","121.428716666667","25.0654966666667","6501600","泰山區"
"243016","380-SR","2018/07/23 20:29:23","新北市泰山區明志路二段323號","121.42639","25.04585","6501600","泰山區"
"243015","421-VK","2018/07/23 20:29:09","新北市泰山區泰林路二段65號","121.435233333333","25.058095","6501600","泰山區"
"243011","KEA-2215","2018/07/23 20:29:10","新北市泰山區新北大道六段293號","121.424285","25.0342366666667","6501600","泰山區"
"243010","KEA-2216","2018/07/23 20:29:24","新北市泰山區新生路33號","121.427566666667","25.0453616666667","6501600","泰山區"
"243012","646-TV","2018/07/23 20:29:22","新北市泰山區忠孝街19巷3-2號","121.427321666667","25.0657266666667","6501600","泰山區"
"243014","680-BX","2018/07/23 20:29:09","新北市泰山區泰林路二段2-6號","121.419706666667","25.0651216666667","6501600","泰山區"
"222003","436-BY","2018/07/23 20:29:26","新北市深坑區深坑街45號","121.61542","25.001815","6501800","深坑區"
"222002","659-BX","2018/07/23 20:29:25","新北市深坑區萬福路16巷35號","121.608611666667","25.0088666666667","6501800","深坑區"
"231041","002-UM","2018/07/23 20:29:24","新北市新店區中正路501-2號","121.533651666667","24.983675","6500600","新店區"
"231059","046-UY","2018/07/23 20:29:08","新北市新店區安德街173號","121.508716666667","24.9588983333333","6500600","新店區"
"231040","047-UY","2018/07/23 20:29:10","新北市新店區自由街2-1號","121.535766666667","24.97554","6500600","新店區"
"231044","106-UY","2018/07/23 20:29:23","新北市新店區建國路134號","121.539038333333","24.9788866666667","6500600","新店區"
"231052","108-UY","2018/07/23 20:29:28","新北市新店區松林路38號","121.546321666667","24.910225","6500600","新店區"
"231047","187-VK","2018/07/23 20:29:25","新北市新店區寶慶街58巷21-1號","121.542033333333","24.98731","6500600","新店區"
"231054","KEA-2219","2018/07/23 20:29:11","新北市新店區檳榔路109號","121.544593333333","24.961595","6500600","新店區"
"231057","256-BX","2018/07/23 20:29:23","新北市新店區花園五路二段3號","121.553615","24.9342283333333","6500600","新店區"
"231042","268-BY","2018/07/23 20:29:17","新北市新店區寶橋路132號","121.547375","24.97626","6500600","新店區"
"231051","278-BY","2018/07/23 20:29:24","新北市新店區中央七街31號","121.529395","24.97555","6500600","新店區"
"231050","AAD-862","2018/07/23 20:29:26","新北市新店區建興街9巷1號","121.539866666667","24.9763133333333","6500600","新店區"
"231058","3713-VJ","2018/07/23 20:29:25","新北市新店區中正路329巷9弄8號","121.535321666667","24.9735383333333","6500600","新店區"
"231066","4716-K9","2018/07/23 20:29:24","新北市新店區安興路112號","121.514878333333","24.9776166666667","6500600","新店區"
"231056","4715-K9","2018/07/23 20:29:26","新北市新店區中正路487-3號","121.532726666667","24.9819666666667","6500600","新店區"
"231067","4772-VM","2018/07/23 20:29:18","新北市新店區安華路28-1號","121.519621666667","24.9608766666667","6500600","新店區"
"231065","512-UM","2018/07/23 20:29:15","新北市新店區安祥路102巷42弄35號","121.485238333333","24.9634416666667","6500600","新店區"
"231049","513-UM","2018/07/23 20:29:13","新北市新店區安康路一段44號","121.530821666667","24.9610433333333","6500600","新店區"
"231063","616-UM","2018/07/23 20:29:24","新北市新店區安康路三段51號","121.492436666667","24.9523516666667","6500600","新店區"
"231045","617-UM","2018/07/23 20:29:19","新北市新店區長春路21巷1號","121.549353333333","24.9581483333333","6500600","新店區"
"231061","619-UM","2018/07/23 20:29:24","新北市新店區新和街33號","121.519073333333","24.9847783333333","6500600","新店區"
"231068","718-UY","2018/07/23 20:29:28","新北市新店區中興路三段226號","121.54339","24.9831216666667","6500600","新店區"
"231064","719-UM","2018/07/23 20:29:29","新北市新店區永安街74巷8號","121.519531666667","24.9863683333333","6500600","新店區"
"231062","720-UM","2018/07/23 20:29:24","新北市新店區安泰路60巷18號","121.483768333333","24.9467116666667","6500600","新店區"
"231060","897-TW","2018/07/23 20:29:09","新北市新店區錦秀路71巷1號","121.478873333333","24.9424666666667","6500600","新店區"
"231043","899-TW","2018/07/23 20:29:13","新北市新店區明德路67巷17號","121.540475","24.9771216666667","6500600","新店區"
"231055","AKT-0513","2018/07/23 20:29:17","新北市新店區薏仁坑路6號","121.500025","24.9582566666667","6500600","新店區"
"241011","013-R5","2018/07/23 20:29:10","新北市三重區龍門路42號","121.496071666667","25.0725016666667","6500200","三重區"
"241028","022-UY","2018/07/23 20:29:22","新北市三重區光興街91號","121.49737","25.059885","6500200","三重區"
"241008","059-VK","2018/07/23 20:29:29","新北市三重區車路頭街107號","121.484466666667","25.0747566666667","6500200","三重區"
"241022","060-VK","2018/07/23 20:29:10","新北市三重區民生街61巷31弄1號","121.487775","25.0631266666667","6500200","三重區"
"241031","061-VK","2018/07/23 20:29:13","新北市三重區三寧街15號","121.489495","25.0597866666667","6500200","三重區"
"241015","062-VK","2018/07/23 20:29:07","新北市三重區文化北路92號","121.498731666667","25.06583","6500200","三重區"
"241017","063-VK","2018/07/23 20:28:57","新北市三重區自強路一段290號","121.491528333333","25.0683233333333","6500200","三重區"
"241024","065-VK","2018/07/23 20:29:29","新北市三重區中正北路276巷22號","121.480373333333","25.06759","6500200","三重區"
"241002","090-VK","2018/07/23 20:29:21","新北市三重區仁義街211巷51號","121.498215","25.0826533333333","6500200","三重區"
"241003","091-VK","2018/07/23 20:29:23","新北市三重區富華街190號","121.493026666667","25.0849333333333","6500200","三重區"
"241019","742-BX","2018/07/23 20:29:18","新北市三重區重陽路四段81號","121.492713333333","25.0709166666667","6500200","三重區"
"241005","262-UM","2018/07/23 20:29:27","新北市三重區碧華街328號","121.490158333333","25.083815","6500200","三重區"
"241009","265-UM","2018/07/23 20:29:22","新北市三重區三和路四段396巷40號","121.479563333333","25.0787433333333","6500200","三重區"
"241016","266-UM","2018/07/23 20:29:21","新北市三重區正義北路86號","121.497043333333","25.0644783333333","6500200","三重區"
"241018","268-UM","2018/07/23 20:29:10","新北市三重區雙園街68號","121.495675","25.0677466666667","6500200","三重區"
"241032","269-UM","2018/07/23 20:29:27","新北市三重區重陽路一段120巷46號","121.485111666667","25.0601283333333","6500200","三重區"
"241013","270-UM","2018/07/23 20:29:13","新北市三重區溪尾街5巷31號","121.49293","25.0745883333333","6500200","三重區"
"241025","271-UM","2018/07/23 20:29:14","新北市三重區頂崁街210巷27號","121.475785","25.0681866666667","6500200","三重區"
"241007","398-BY","2018/07/23 20:29:18","新北市三重區自強路四段51號","121.489875","25.078025","6500200","三重區"
"241009","KEA-2210","2018/07/23 20:29:22","新北市三重區三和路四段390巷52號","121.48001","25.0783966666667","6500200","三重區"
"241026","413-TH","2018/07/23 20:29:26","新北市三重區環河南路27號","121.503435","25.0620983333333","6500200","三重區"
"241035","462-BY","2018/07/23 20:29:15","新北市三重區正義北路120號","121.496875","25.0654066666667","6500200","三重區"
"241004","475-VK","2018/07/23 20:29:28","新北市三重區溪尾街209號","121.488445","25.080885","6500200","三重區"
"241020","478-VK","2018/07/23 20:29:23","新北市三重區明德街61號","121.491955","25.0721033333333","6500200","三重區"
"241030","480-VK","2018/07/23 20:29:26","新北市三重區成功路79號","121.48866","25.0512466666667","6500200","三重區"
"241014","543-UM","2018/07/23 20:29:24","新北市三重區長興街103號","121.501875","25.0691916666667","6500200","三重區"
"241023","545-UM","2018/07/23 20:29:13","新北市三重區自由街17巷1號","121.47983","25.06663","6500200","三重區"
"241001","547-UM","2018/07/23 20:29:28","新北市三重區福隆路12號","121.490321666667","25.0774916666667","6500200","三重區"
"241006","AAD-863","2018/07/23 20:29:16","新北市三重區車路頭街139巷14號","121.484283333333","25.0762116666667","6500200","三重區"
"241012","941-UM","2018/07/23 20:29:21","新北市三重區龍濱路190號","121.501106666667","25.0733","6500200","三重區"
"241029","942-UM","2018/07/23 20:29:21","新北市三重區集美街116號","121.488865","25.0539666666667","6500200","三重區"
"241033","AAC-255","2018/07/23 20:29:09","新北市三重區五谷王北街82號","121.476028333333","25.0527533333333","6500200","三重區"
"235066","003-UY","2018/07/23 20:29:14","新北市中和區中山路二段3巷22弄38號","121.505743333333","25.0041033333333","6500300","中和區"
"247010","KEA-2869","2018/07/23 20:29:27","新北市蘆洲區信義路224號","121.479075","25.08529","6501400","蘆洲區"
"235050","4979-A6","2018/07/23 20:29:14","新北市中和區景新街162號","121.505748333333","24.9971916666667","6500300","中和區"
"235042","551-UM","2018/07/23 20:29:21","新北市三峽區介壽路三段241巷5號","121.406788333333","24.9501166666667","6500300","中和區"
"235059","AAC-215","2018/07/23 20:29:25","新北市中和區員山路28-11號","121.481118333333","24.986365","6500300","中和區"
"247024","893-R6","2018/07/23 20:29:24","新北市蘆洲區光復路70巷19號","121.464641666667","25.0851783333333","6501400","蘆洲區"
"247014","546-UM","2018/07/23 20:29:21","新北市蘆洲區中山二路166號","121.47082","25.0809433333333","6501400","蘆洲區"
"247022","500-BY","2018/07/23 20:29:27","新北市蘆洲區民族路562號","121.467398333333","25.0889966666667","6501400","蘆洲區"
"247012","339-TH","2018/07/23 20:29:27","新北市蘆洲區復興路218號","121.479006666667","25.0892883333333","6501400","蘆洲區"
"247004","337-TH","2018/07/23 20:29:30","新北市蘆洲區長安街297號","121.458091666667","25.08487","6501400","蘆洲區"
"247006","336-TH","2018/07/23 20:29:10","新北市蘆洲區和平路121巷14弄38號","121.46609","25.080195","6501400","蘆洲區"
"247018","057-VK","2018/07/23 20:29:25","新北市蘆洲區民族路327巷100-1號","121.475065","25.0902033333333","6501400","蘆洲區"
"247008","056-VK","2018/07/23 20:29:10","新北市蘆洲區永安北路二段70-6號","121.483301666667","25.0842966666667","6501400","蘆洲區"
"247016","007-UY","2018/07/23 20:29:19","新北市蘆洲區光華路94號","121.467558333333","25.0826233333333","6501400","蘆洲區"
"247002","002-UY","2018/07/23 20:29:12","新北市蘆洲區長安街361巷36號","121.455685","25.08757","6501400","蘆洲區"
"247020","001-UY","2018/07/23 20:29:10","新北市蘆洲區仁愛街76號","121.470926666667","25.0943833333333","6501400","蘆洲區"
"222001","KEA-2212","2018/07/23 20:29:17","新北市深坑區北深路三段345號","121.597068333333","25.00503","6501800","深坑區"
"251013","KEA-2871","2018/07/23 20:29:22","新北市淡水區奎柔山路413號","121.463566666667","25.2048666666667","6501000","淡水區"
"251016","179-VK","2018/07/23 20:29:20","新北市淡水區新埔子11-7號","121.447478333333","25.2284583333333","6501000","淡水區"
"251014","180-VK","2018/07/23 20:29:11","新北市淡水區石頭厝8-6號","121.459045","25.2371366666667","6501000","淡水區"
"251015","181-VK","2018/07/23 20:29:16","新北市淡水區淡金路四段542巷17號","121.452711666667","25.2270733333333","6501000","淡水區"
"251010","413-VK","2018/07/23 20:29:20","新北市淡水區沙崙路181巷1號","121.424146666667","25.1842066666667","6501000","淡水區"
"251012","441-VK","2018/07/23 20:29:18","新北市淡水區興仁路88號","121.45209","25.2177666666667","6501000","淡水區"
"251008","443-VK","2018/07/23 20:29:21","新北市淡水區淡海路189巷9號","121.419835","25.184415","6501000","淡水區"
"251001","559-UM","2018/07/23 20:29:22","新北市淡水區淡金路一段571號","121.452546666667","25.180765","6501000","淡水區"
"251006","561-UM","2018/07/23 20:29:10","新北市淡水區商工路296號","121.460838333333","25.1862416666667","6501000","淡水區"
"251003","766-UM","2018/07/23 20:29:18","新北市淡水區新生街108巷2號","121.440055","25.1747183333333","6501000","淡水區"
"252002","178-VK","2018/07/23 20:29:14","新北市三芝區淡金路二段47-2號","121.503675","25.26049","6502100","三芝區"
"252001","292-VK","2018/07/23 20:29:20","新北市三芝區中山路一段37號","121.500768333333","25.257815","6502100","三芝區"
"242034","AAC-296","2018/07/23 20:29:22","新北市新莊區新泰路183號","121.447473333333","25.037575","6500500","新莊區"
"242058","986-R7","2018/07/23 20:29:19","新北市新莊區四維路209號","121.42167","25.020145","6500500","新莊區"
"242053","751-BX","2018/07/23 20:29:30","新北市新莊區西盛街362巷14號","121.427238333333","25.01371","6500500","新莊區"
"242029","705-TV","2018/07/23 20:29:27","新北市新莊區中華路二段186號","121.453075","25.0513316666667","6500500","新莊區"
"242027","615-BX","2018/07/23 20:29:16","新北市新莊區思源路319號","121.459991666667","25.0492966666667","6500500","新莊區"
"242025","613-BX","2018/07/23 20:29:14","新北市新莊區五工三路62巷27號","121.460403333333","25.0651516666667","6500500","新莊區"
"242042","566-BX","2018/07/23 20:29:29","新北市新莊區天祥街56號","121.416508333333","25.02912","6500500","新莊區"
"242046","497-BY","2018/07/23 20:29:15","新北市新莊區中正路新雅巷2弄20號","121.417711666667","25.0248333333333","6500500","新莊區"
"242050","441-UM","2018/07/23 20:29:07","新北市新莊區民安西路252巷31號","121.425166666667","25.01372","6500500","新莊區"
"242056","440-UM","2018/07/23 20:29:15","新北市新莊區瓊泰路152號","121.443245","25.0323766666667","6500500","新莊區"
"242007","413-TV","2018/07/23 20:29:14","新北市新莊區思源路243號","121.459731666667","25.0468916666667","6500500","新莊區"
"242044","400-BY","2018/07/23 20:29:20","新北市新莊區龍安路26號","121.41461","25.0222433333333","6500500","新莊區"
"242023","362-BY","2018/07/23 20:29:24","新北市新莊區化成路896號","121.464576666667","25.061565","6500500","新莊區"
"242060","353-BY","2018/07/23 20:29:23","新北市新莊區民安路318號","121.428671666667","25.0221166666667","6500500","新莊區"
"242009","132-UY","2018/07/23 20:29:17","新北市新莊區昌盛街81巷4弄1號","121.455511666667","25.05056","6500500","新莊區"
"242039","133-UY","2018/07/23 20:29:11","新北市新莊區民安路232號","121.426063333333","25.0222083333333","6500500","新莊區"
"242031","135-UY","2018/07/23 20:29:18","新北市新莊區三泰路24-2號","121.440006666667","25.034265","6500500","新莊區"
"242048","172-VK","2018/07/23 20:29:15","新北市新莊區富國路84號","121.420306666667","25.025885","6500500","新莊區"
"242017","175-VK","2018/07/23 20:29:25","新北市新莊區中港三街22號","121.450576666667","25.04653","6500500","新莊區"
"242004","176-VK","2018/07/23 20:29:22","新北市新莊區化成路746巷2號","121.46597","25.0577366666667","6500500","新莊區"
"242015","347-TH","2018/07/23 20:29:25","新北市新莊區中平路82巷20號","121.445625","25.0449016666667","6500500","新莊區"
"242021","348-TH","2018/07/23 20:29:18","新北市新莊區公園路40號","121.448901666667","25.0392316666667","6500500","新莊區"
"242002","349-TH","2018/07/23 20:29:16","新北市新莊區中正路48號","121.464028333333","25.0411316666667","6500500","新莊區"
"242019","350-TH","2018/07/23 20:29:20","新北市新莊區銘德街49巷15號","121.457338333333","25.042875","6500500","新莊區"
"242013","351-TH","2018/07/23 20:29:24","新北市新莊區中和街191巷1-1號","121.44783","25.0512316666667","6500500","新莊區"
"221008","489-VK","2018/07/23 20:29:16","新北市汐止區康寧街504號","121.632971666667","25.0685666666667","6501100","汐止區"
"221036","130-UY","2018/07/23 20:29:24","新北市汐止區新台五路二段126巷9號","121.663638333333","25.0661066666667","6501100","汐止區"
"221015","131-UY","2018/07/23 20:29:12","新北市汐止區建成路142巷19弄3號","121.662178333333","25.073905","6501100","汐止區"
"221010","269-BY","2018/07/23 20:29:20","新北市汐止區八連路一段530巷2號","121.640211666667","25.0914366666667","6501100","汐止區"
"221012","278-VK","2018/07/23 20:29:18","新北市汐止區大同路三段279號","121.674303333333","25.0748866666667","6501100","汐止區"
"221023","279-VK","2018/07/23 20:29:09","新北市汐止區湖東街41號","121.635038333333","25.0729616666667","6501100","汐止區"
"221032","280-BY","2018/07/23 20:29:17","新北市汐止區弘道街53巷13號","121.618716666667","25.0490833333333","6501100","汐止區"
"221027","281-BY","2018/07/23 20:29:19","新北市汐止區中正路226號","121.658066666667","25.068855","6501100","汐止區"
"221033","297-VK","2018/07/23 20:29:10","新北市汐止區林森街124號","121.624605","25.040635","6501100","汐止區"
"221029","298-VK","2018/07/23 20:29:14","新北市汐止區樟樹一路129巷34弄6號","121.640653333333","25.0653533333333","6501100","汐止區"
"221021","299-VK","2018/07/23 20:29:15","新北市汐止區水源路一段284號","121.654221666667","25.0582716666667","6501100","汐止區"
"221031","353-TW","2018/07/23 20:29:27","新北市汐止區中興路110巷10號","121.633781666667","25.0641366666667","6501100","汐止區"
"221035","622-UM","2018/07/23 20:29:14","新北市汐止區長江街101-5號","121.65872","25.0731883333333","6501100","汐止區"
"221025","623-UM","2018/07/23 20:29:11","新北市汐止區水源路二段86號","121.656513333333","25.0561466666667","6501100","汐止區"
"221038","646-BX","2018/07/23 20:29:15","新北市汐止區忠孝東路9號","121.657716666667","25.0657583333333","6501100","汐止區"
"221002","707-TV","2018/07/23 20:29:19","新北市汐止區福德二路30號","121.634715","25.067655","6501100","汐止區"
"221018","753-BX","2018/07/23 20:29:21","新北市汐止區茄苳路225巷2號","121.67107","25.0687916666667","6501100","汐止區"
"220079","256-TC","2018/07/23 20:29:09","新北市樹林區中山路三段204號","121.387238333333","24.9682166666667","6500100","板橋區"
"220083","286-VK","2018/07/23 20:29:10","新北市板橋區僑中二街116巷31號","121.444311666667","25.0065283333333","6500100","板橋區"
"242036","280-VK","2018/07/23 20:29:27","新北市新莊區後港一路76巷14弄1號","121.427401666667","25.0254416666667","6500500","新莊區"
"220103","561-BX","2018/07/23 20:29:20","新北市板橋區漢生東路33巷33號","121.465981666667","25.0176383333333","6500100","板橋區"
"220102","KEA-2699","2018/07/23 20:29:18","新北市板橋區文化路一段413號","121.467571666667","25.0223683333333","6500100","板橋區"
"220089","833-TW","2018/07/23 20:29:15","新北市板橋區四維路319號","121.462898333333","25.02902","6500100","板橋區"
"220070","AAC-253","2018/07/23 20:29:14","新北市板橋區華東街310號","121.452798333333","25.0030183333333","6500100","板橋區"
