"lineid","car","time","location","longitude","latitude","cityid","cityname"
"249004","303-UY","2018/07/23 20:49:26","新北市八里區中山路一段63號","121.418398333333","25.1594833333333","6502300","八里區"
"234077","969-R7","2018/07/23 20:49:21","新北市五股區成泰路四段22巷6-4號","121.454045","25.1051733333333","6500400","永和區"
"234074","AAC-211","2018/07/23 20:49:14","新北市永和區環河東路二段8號","121.522123333333","25.0133616666667","6500400","永和區"
"222003","436-BY","2018/07/23 20:49:25","新北市深坑區阿柔洋40號","121.610321666667","24.9984616666667","6501800","深坑區"
"222002","659-BX","2018/07/23 20:49:25","新北市深坑區北深路三段93巷54號","121.603546666667","25.0011883333333","6501800","深坑區"
"231059","046-UY","2018/07/23 20:49:28","新北市新店區僑信路132巷38號","121.499791666667","24.945395","6500600","新店區"
"231040","047-UY","2018/07/23 20:49:30","新北市新店區中正路270號","121.539023333333","24.9736983333333","6500600","新店區"
"231044","106-UY","2018/07/23 20:49:23","新北市新店區中正路374號","121.535045","24.9763566666667","6500600","新店區"
"231052","108-UY","2018/07/23 20:49:27","新北市新店區新烏路一段171號","121.545035","24.93473","6500600","新店區"
"231047","187-VK","2018/07/23 20:49:24","新北市新店區寶元路二段1巷1號","121.550753333333","24.984035","6500600","新店區"
"231054","KEA-2219","2018/07/23 20:49:11","新北市新店區北新路一段126巷27號","121.543318333333","24.9695483333333","6500600","新店區"
"231057","256-BX","2018/07/23 20:49:23","新北市新店區永興路12號","121.545301666667","24.9399316666667","6500600","新店區"
"231042","268-BY","2018/07/23 20:49:17","新北市新店區寶高路120巷1號","121.554583333333","24.9760583333333","6500600","新店區"
"231051","278-BY","2018/07/23 20:49:24","新北市新店區民生路156巷53號","121.52784","24.9815816666667","6500600","新店區"
"231050","AAD-862","2018/07/23 20:49:26","新北市新店區中正路247巷45號","121.538233333333","24.9720366666667","6500600","新店區"
"231058","3713-VJ","2018/07/23 20:49:25","新北市新店區溪園路395號","121.523573333333","24.97746","6500600","新店區"
"231066","4716-K9","2018/07/23 20:49:24","新北市新店區安民街365巷1弄10號","121.516485","24.9751666666667","6500600","新店區"
"231056","4715-K9","2018/07/23 20:49:26","新北市新店區安德街60巷19號","121.510288333333","24.96322","6500600","新店區"
"231067","4772-VM","2018/07/23 20:49:18","新北市新店區安華路28-1號","121.519735","24.9607633333333","6500600","新店區"
"231065","512-UM","2018/07/23 20:49:15","新北市新店區安祥路104巷6弄9號","121.481886666667","24.9628666666667","6500600","新店區"
"231049","513-UM","2018/07/23 20:49:13","新北市新店區永業路81巷1弄17號","121.530525","24.950395","6500600","新店區"
"231063","616-UM","2018/07/23 20:49:24","新北市新店區富貴街11巷34號","121.49486","24.94832","6500600","新店區"
"231045","617-UM","2018/07/23 20:49:19","新北市新店區北新路一段105號","121.539193333333","24.962205","6500600","新店區"
"231061","619-UM","2018/07/23 20:49:24","新北市新店區新和街75號","121.520573333333","24.9860216666667","6500600","新店區"
"231068","718-UY","2018/07/23 20:49:28","新北市新店區中興路三段228巷28號","121.544733333333","24.9834983333333","6500600","新店區"
"231064","719-UM","2018/07/23 20:49:09","新北市新店區安和路二段238號","121.516546666667","24.9781183333333","6500600","新店區"
"231062","720-UM","2018/07/23 20:49:24","新北市新店區和成街16巷31號","121.488781666667","24.946875","6500600","新店區"
"231060","897-TW","2018/07/23 20:49:29","新北市新店區安康路三段800號","121.470868333333","24.93991","6500600","新店區"
"231043","899-TW","2018/07/23 20:49:13","新北市新店區建國路91號","121.540416666667","24.9766983333333","6500600","新店區"
"241011","013-R5","2018/07/23 20:49:09","新北市三重區龍濱路211號","121.501858333333","25.0716966666667","6500200","三重區"
"241028","022-UY","2018/07/23 20:49:22","新北市三重區中正南路42號","121.49389","25.0601016666667","6500200","三重區"
"241008","059-VK","2018/07/23 20:49:09","新北市三重區永福街72巷11號","121.479503333333","25.0768483333333","6500200","三重區"
"241022","060-VK","2018/07/23 20:49:10","新北市三重區過圳街27-5號","121.488081666667","25.062405","6500200","三重區"
"241031","061-VK","2018/07/23 20:49:13","新北市三重區重陽路一段113巷1弄1號","121.487488333333","25.0597766666667","6500200","三重區"
"241015","062-VK","2018/07/23 20:49:27","新北市三重區自強路一段10-2號","121.498951666667","25.0681933333333","6500200","三重區"
"241017","063-VK","2018/07/23 20:49:17","新北市三重區民生街30號","121.491796666667","25.0671566666667","6500200","三重區"
"241024","065-VK","2018/07/23 20:49:09","新北市三重區國道路一段58巷20號","121.481295","25.072075","6500200","三重區"
"241002","090-VK","2018/07/23 20:49:21","新北市三重區仁義街159巷30號","121.498158333333","25.08174","6500200","三重區"
"241019","742-BX","2018/07/23 20:49:18","新北市三重區三張街58號","121.491201666667","25.07102","6500200","三重區"
"241005","262-UM","2018/07/23 20:49:27","新北市三重區五華街141巷38號","121.492468333333","25.0858416666667","6500200","三重區"
"241009","265-UM","2018/07/23 20:49:22","新北市三重區中正北路319號","121.47367","25.071825","6500200","三重區"
"241016","266-UM","2018/07/23 20:49:21","新北市三重區正義北路202號","121.496116666667","25.06718","6500200","三重區"
"241018","268-UM","2018/07/23 20:49:10","新北市三重區正義北路284-1號","121.495661666667","25.069405","6500200","三重區"
"241032","269-UM","2018/07/23 20:49:27","新北市三重區重陽路一段120巷46號","121.485086666667","25.060125","6500200","三重區"
"241013","270-UM","2018/07/23 20:49:13","新北市三重區仁賢街12-1號","121.49564","25.0749116666667","6500200","三重區"
"241025","271-UM","2018/07/23 20:49:13","新北市三重區貴陽街18號","121.484118333333","25.0618733333333","6500200","三重區"
"241007","398-BY","2018/07/23 20:49:18","新北市三重區慈愛街8號","121.484483333333","25.0783716666667","6500200","三重區"
"241009","KEA-2210","2018/07/23 20:49:22","新北市三重區三和路四段382巷46弄1號","121.480905","25.078325","6500200","三重區"
"241026","413-TH","2018/07/23 20:49:26","新北市三重區文化南路7號","121.499955","25.062365","6500200","三重區"
"241035","462-BY","2018/07/23 20:49:15","新北市三重區自強路一段282號","121.49192","25.0680233333333","6500200","三重區"
"241004","475-VK","2018/07/23 20:49:27","新北市三重區分子尾街19號","121.489521666667","25.0810133333333","6500200","三重區"
"241020","478-VK","2018/07/23 20:49:22","新北市三重區忠孝路一段101號","121.489556666667","25.0721016666667","6500200","三重區"
"241030","480-VK","2018/07/23 20:49:26","新北市三重區昌隆街26號","121.491975","25.0523066666667","6500200","三重區"
"241014","543-UM","2018/07/23 20:49:25","新北市三重區萬全街70號","121.501241666667","25.070165","6500200","三重區"
"241023","545-UM","2018/07/23 20:49:13","新北市三重區忠孝路三段56-1號","121.480308333333","25.06525","6500200","三重區"
"241001","547-UM","2018/07/23 20:49:08","新北市三重區自強路三段80號","121.487071666667","25.07439","6500200","三重區"
"241006","AAD-863","2018/07/23 20:49:16","新北市三重區車路頭街135-1號","121.484253333333","25.07618","6500200","三重區"
"241012","941-UM","2018/07/23 20:49:21","新北市三重區仁信街27號","121.501265","25.0755516666667","6500200","三重區"
"241029","942-UM","2018/07/23 20:49:21","新北市三重區重安街14號","121.490373333333","25.05823","6500200","三重區"
"241033","AAC-255","2018/07/23 20:49:09","新北市三重區光復路二段1號","121.472421666667","25.0532566666667","6500200","三重區"
"247010","KEA-2869","2018/07/23 20:49:25","新北市蘆洲區民族路20號","121.476035","25.08409","6501400","蘆洲區"
"235042","551-UM","2018/07/23 20:49:21","新北市中和區和城路一段271巷1號","121.485718333333","24.9915933333333","6500300","中和區"
"247024","893-R6","2018/07/23 20:49:24","新北市蘆洲區長樂路136號","121.462161666667","25.0900433333333","6501400","蘆洲區"
"247022","500-BY","2018/07/23 20:49:20","新北市蘆洲區中正路164號","121.468695","25.0857133333333","6501400","蘆洲區"
"247012","339-TH","2018/07/23 20:49:27","新北市蘆洲區集賢路224巷23號","121.481586666667","25.0869866666667","6501400","蘆洲區"
"247004","337-TH","2018/07/23 20:49:30","新北市蘆洲區長安街100號","121.461611666667","25.0809066666667","6501400","蘆洲區"
"247006","336-TH","2018/07/23 20:49:21","新北市蘆洲區永安南路二段76號","121.464463333333","25.0780633333333","6501400","蘆洲區"
"247016","007-UY","2018/07/23 20:49:19","新北市蘆洲區中正路53號","121.470851666667","25.0826266666667","6501400","蘆洲區"
"247002","002-UY","2018/07/23 20:49:19","新北市蘆洲區長安街240號","121.45774","25.0856866666667","6501400","蘆洲區"
"247020","001-UY","2018/07/23 20:49:30","新北市蘆洲區仁愛街64號","121.471391666667","25.0939116666667","6501400","蘆洲區"
"222001","KEA-2212","2018/07/23 20:49:17","新北市深坑區北深路三段92號","121.60721","25.0015866666667","6501800","深坑區"
"251013","KEA-2871","2018/07/23 20:49:22","新北市淡水區行忠路112號","121.452213333333","25.1987016666667","6501000","淡水區"
"251016","179-VK","2018/07/23 20:49:20","新北市淡水區淡金路四段469號","121.451746666667","25.2238466666667","6501000","淡水區"
"251014","180-VK","2018/07/23 20:49:11","新北市淡水區公埔子32-8號","121.46164","25.2323583333333","6501000","淡水區"
"251015","181-VK","2018/07/23 20:49:16","新北市淡水區淡金路四段542巷17號","121.452721666667","25.2270633333333","6501000","淡水區"
"251010","413-VK","2018/07/23 20:49:20","新北市淡水區沙崙路141-1號","121.423313333333","25.1829533333333","6501000","淡水區"
"251012","441-VK","2018/07/23 20:49:30","新北市淡水區淡金路四段514號","121.45205","25.225745","6501000","淡水區"
"251007","442-VK","2018/07/23 20:49:21","新北市淡水區學府路102巷62號","121.453433333333","25.171115","6501000","淡水區"
"251001","559-UM","2018/07/23 20:49:21","新北市淡水區淡金路一段96號","121.458413333333","25.1736983333333","6501000","淡水區"
"251006","561-UM","2018/07/23 20:49:30","新北市淡水區新春街117號","121.441451666667","25.1818483333333","6501000","淡水區"
"251011","650-BX","2018/07/23 20:49:10","新北市淡水區新民街一段13號","121.432928333333","25.1847266666667","6501000","淡水區"
"251002","672-BX","2018/07/23 20:49:21","新北市淡水區中正東路6號","121.447025","25.1670716666667","6501000","淡水區"
"251003","766-UM","2018/07/23 20:49:18","新北市淡水區中山北路一段207巷54號","121.44228","25.1792883333333","6501000","淡水區"
"242034","AAC-296","2018/07/23 20:49:23","新北市新莊區中正路312號","121.446651666667","25.0350216666667","6500500","新莊區"
"242058","986-R7","2018/07/23 20:49:18","新北市新莊區民安路138號","121.42419","25.02538","6500500","新莊區"
"242053","751-BX","2018/07/23 20:49:10","新北市新莊區民安西路217號","121.42598","25.0145","6500500","新莊區"
"242029","705-TV","2018/07/23 20:49:27","新北市新莊區公園路4號","121.44746","25.0386633333333","6500500","新莊區"
"242027","615-BX","2018/07/23 20:49:12","新北市新莊區環河路636-7號","121.43708","25.0114466666667","6500500","新莊區"
"242042","566-BX","2018/07/23 20:49:29","新北市新莊區天祥街49號","121.416631666667","25.0288833333333","6500500","新莊區"
"242046","497-BY","2018/07/23 20:49:29","新北市板橋區大觀路三段45號","121.434036666667","24.9954283333333","6500500","新莊區"
"242050","441-UM","2018/07/23 20:49:27","新北市新莊區民安西路110號","121.426825","25.0189183333333","6500500","新莊區"
"242056","440-UM","2018/07/23 20:49:15","新北市新莊區瓊林路59-17號","121.44213","25.0246483333333","6500500","新莊區"
"242023","362-BY","2018/07/23 20:49:24","新北市新莊區環河路116-1號","121.460651666667","25.0379166666667","6500500","新莊區"
"242060","353-BY","2018/07/23 20:49:23","新北市新莊區新樹路280號","121.432586666667","25.0126816666667","6500500","新莊區"
"242009","132-UY","2018/07/23 20:49:17","新北市新莊區幸福路562號","121.454496666667","25.0494516666667","6500500","新莊區"
"242039","133-UY","2018/07/23 20:49:11","新北市新莊區瓊林路59-90號","121.440925","25.0218916666667","6500500","新莊區"
"242002","349-TH","2018/07/23 20:49:16","新北市新莊區中港路36號","121.455141666667","25.0375133333333","6500500","新莊區"
"221036","130-UY","2018/07/23 20:49:24","新北市汐止區仁愛路329號","121.664145","25.067935","6501100","汐止區"
"221015","131-UY","2018/07/23 20:49:12","新北市汐止區大同路二段605號","121.664066666667","25.0707183333333","6501100","汐止區"
"221010","269-BY","2018/07/23 20:49:20","新北市汐止區汐萬路一段256巷3號","121.652096666667","25.0747583333333","6501100","汐止區"
"221027","281-BY","2018/07/23 20:49:18","新北市汐止區汐萬路一段39-3號","121.654986666667","25.0692416666667","6501100","汐止區"
"221033","297-VK","2018/07/23 20:49:10","新北市汐止區合順街18巷8弄5號","121.620286666667","25.0419","6501100","汐止區"
"221029","298-VK","2018/07/23 20:49:14","新北市汐止區康寧街777-1號","121.644865","25.0754616666667","6501100","汐止區"
"221035","622-UM","2018/07/23 20:48:54","新北市汐止區汐萬路一段261號","121.650816666667","25.0740883333333","6501100","汐止區"
"221038","646-BX","2018/07/23 20:49:15","新北市汐止區汐萬路一段256巷1號","121.651925","25.07482","6501100","汐止區"
"221002","707-TV","2018/07/23 20:49:16","新北市汐止區福德二路162號","121.630031666667","25.0650033333333","6501100","汐止區"
"221018","753-BX","2018/07/23 20:49:21","新北市汐止區忠孝東路401號","121.665711666667","25.070995","6501100","汐止區"
"220079","256-TC","2018/07/23 20:49:09","新北市土城區日新街33巷14號","121.440611666667","24.9884033333333","6500100","板橋區"
"242036","280-VK","2018/07/23 20:49:27","新北市新莊區後港一路214號","121.433776666667","25.0283216666667","6500500","新莊區"
"220070","AAC-253","2018/07/23 20:49:13","新北市八里區下罟子5-6號","121.385976666667","25.145485","6500100","板橋區"
