"lineid","car","time","location","longitude","latitude","cityid","cityname"
"234074","AAC-211","2018/07/23 22:09:14","新北市永和區福和路1號","121.526178333333","25.0097616666667","6500400","永和區"
"241006","AAD-863","2018/07/23 22:09:16","新北市五股區中興路三段2巷10號","121.449126666667","25.0808766666667","6500200","三重區"
"235010","733-UM","2018/07/23 21:44:28","新北市中和區員山路36巷13號","121.484173333333","24.99086","6500300","中和區"
"251004","009-UM","2018/07/23 22:09:14","新北市淡水區民族路33號","121.462308333333","25.1358683333333","6501000","淡水區"
"251005","010-UM","2018/07/23 22:09:17","新北市淡水區鄧公路30巷2弄26號","121.453703333333","25.1692216666667","6501000","淡水區"
"251010","413-VK","2018/07/23 22:09:20","新北市淡水區沙崙路200號","121.42469","25.1839016666667","6501000","淡水區"
"251007","442-VK","2018/07/23 22:09:21","新北市淡水區北新路137號","121.449488333333","25.1788416666667","6501000","淡水區"
"251008","443-VK","2018/07/23 22:09:20","新北市淡水區學府路104號","121.45001","25.1719266666667","6501000","淡水區"
"251006","561-UM","2018/07/23 22:09:25","新北市淡水區中山北路一段245號","121.444688333333","25.18001","6501000","淡水區"
"251011","650-BX","2018/07/23 22:09:30","新北市淡水區水碓街7號","121.44317","25.1772366666667","6501000","淡水區"
