"lineid","car","time","location","longitude","latitude","cityid","cityname"
"232002","290-BY","2018/07/24 06:49:22","新北市坪林區九芎林14-1號","121.707116666667","24.9313483333333","6502000","坪林區"
"232013","291-BY","2018/07/24 06:49:22","新北市坪林區北宜路八段17號","121.702491666667","24.9365133333333","6502000","坪林區"
"232006","758-BX","2018/07/24 06:49:33","新北市坪林區石49號","121.733048333333","24.8941666666667","6502000","坪林區"
"244002","248-BX","2018/07/24 06:49:27","新北市林口區粉寮69號","121.40477","25.0907783333333","6501700","林口區"
"235001","611-BX","2018/07/24 06:49:37","新北市中和區圓通路305巷25弄2號","121.49485","24.9891566666667","6500300","中和區"
"223006","022-BY","2018/07/24 06:49:38","新北市石碇區靜安路一段60號","121.645371666667","25.01224","6501900","石碇區"
"223002","KEA-2673","2018/07/24 06:49:36","新北市石碇區烏塗窟48-2號","121.654465","24.970775","6501900","石碇區"
"223003","205-TH","2018/07/24 06:49:24","新北市石碇區石崁33-2號","121.659071666667","24.99267","6501900","石碇區"
"223008","406-TH","2018/07/24 06:49:28","新北市石碇區雙溪84-1號","121.66164","25.00897","6501900","石碇區"
"223001","592-UM","2018/07/24 06:49:31","新北市石碇區石崁40-9號","121.659725","24.995865","6501900","石碇區"
"223004","660-BX","2018/07/24 06:49:34","新北市石碇區碇坪路一段130號","121.65945","24.9913166666667","6501900","石碇區"
"223007","661-BX","2018/07/24 06:49:23","新北市深坑區文山路一段7號","121.644496666667","25.0086616666667","6501900","石碇區"
"223005","677-TV","2018/07/24 06:49:27","新北市石碇區碇坪路一段61號","121.659838333333","24.99154","6501900","石碇區"
"227006","282-VK","2018/07/24 06:49:25","新北市雙溪區新基里自強路5號","121.866336666667","25.0390216666667","6502500","雙溪區"
