"lineid","car","time","location","longitude","latitude","cityid","cityname"
"248005","653-BX","2018/01/25 08:34:40","新北市五股區明德路10號","121.433376666667","25.0717516666667","6501500","五股區"
"232001","290-BY","2018/01/25 08:39:18","新北市坪林區粗石斛6-1號","121.750435","24.9527016666667","6502000","坪林區"
"244012","069-UM","2018/01/25 08:39:25","新北市林口區中山路67號","121.393711666667","25.0784416666667","6501700","林口區"
"244006","080-UY","2018/01/25 08:39:24","新北市林口區林口路162號","121.387816666667","25.0824416666667","6501700","林口區"
"244003","248-BX","2018/01/25 08:39:14","新北市林口區下福里13鄰157號","121.302331666667","25.1147716666667","6501700","林口區"
"244018","402-UM","2018/01/25 08:39:12","新北市林口區文化一路一段111號","121.373023333333","25.07107","6501700","林口區"
"244008","410-SL","2018/01/25 08:39:19","新北市林口區竹林路582巷16-1號","121.3861","25.08339","6501700","林口區"
"244022","483-VK","2018/01/25 08:39:30","新北市林口區東明二街92號","121.389541666667","25.0702133333333","6501700","林口區"
"244016","485-VK","2018/01/25 08:39:22","新北市林口區忠孝路504巷16號","121.3701","25.0697633333333","6501700","林口區"
"244010","656-BX","2018/01/25 08:39:14","新北市林口區粉寮路一段51號","121.396696666667","25.0777216666667","6501700","林口區"
"244020","657-BX","2018/01/25 08:39:28","新北市林口區自強三街21號","121.397921666667","25.0775366666667","6501700","林口區"
"244024","837-TS","2018/01/25 08:39:30","新北市林口區南勢六街51號","121.355886666667","25.0715316666667","6501700","林口區"
"222006","289-BY","2018/01/25 08:36:07","新北市深坑區土庫尖路75-1號","121.631203333333","25.0182","6501800","深坑區"
"231069","189-VK","2018/01/25 08:39:29","新北市新店區新潭路三段160巷7號","121.50969","24.90809","6500600","新店區"
"231008","192-VK","2018/01/25 08:39:31","新北市新店區新烏路三段165巷38號","121.553508333333","24.9010816666667","6500600","新店區"
"235001","611-BX","2018/01/25 08:39:27","新北市中和區民安街42巷36號","121.478963333333","25.001195","6500300","中和區"
"226005","5620-A6","2018/01/25 08:39:17","新北市平溪區十分里十分街214號","121.779135","25.044795","6502400","平溪區"
"226002","7418-A5","2018/01/25 08:39:12","新北市平溪區東勢里芊蓁林9-1號","121.735778333333","24.9902283333333","6502400","平溪區"
"226003","AGD-0702","2018/01/25 08:39:30","新北市平溪區十分里十分街214號","121.779098333333","25.0448416666667","6502400","平溪區"
"223006","022-BY","2018/01/25 08:39:28","新北市石碇區摸乳巷9號","121.660463333333","24.9838233333333","6501900","石碇區"
"223002","198-BX","2018/01/25 08:37:24","新北市石碇區溪邊寮2-2號","121.657631666667","24.9760616666667","6501900","石碇區"
"223001","205-TH","2018/01/25 08:39:35","新北市石碇區北宜路六段水底寮巷2號","121.658671666667","24.9492333333333","6501900","石碇區"
"223008","406-TH","2018/01/25 08:39:29","新北市石碇區碇南路二段松柏崎巷25-1號","121.675175","25.0203033333333","6501900","石碇區"
"223001","437-BY","2018/01/25 08:39:30","新北市石碇區北宜路六段十三股巷1號","121.650258333333","24.9449466666667","6501900","石碇區"
"223007","592-UM","2018/01/25 08:39:16","新北市石碇區碇南路二段松柏崎巷12-1號","121.676095","25.0180733333333","6501900","石碇區"
"223004","660-BX","2018/01/25 08:39:22","新北市石碇區崩山24-2號","121.67863","24.9678783333333","6501900","石碇區"
"223005","677-TV","2018/01/25 08:39:18","新北市石碇區崩山24-2號","121.67861","24.9678583333333","6501900","石碇區"
"252004","249-BX","2018/01/25 08:39:22","新北市三芝區興華里田心子10-3號","121.496573333333","25.2056683333333","6502100","三芝區"
"252007","AAC-283","2018/01/25 08:39:32","新北市三芝區後厝里番子崙26號","121.481591666667","25.2452366666667","6502100","三芝區"
"237001","159-UY","2018/01/25 08:39:32","新北市三峽區大觀路12-5號","121.375478333333","24.944","6500900","三峽區"
"236009","165-UM","2018/01/25 08:39:34","新北市土城區青雲路449號","121.458781666667","24.9751133333333","6501300","土城區"
"236003","339-SR","2018/01/25 08:39:20","新北市土城區中州路78號","121.411916666667","24.9583666666667","6501300","土城區"
"236005","498-BY","2018/01/25 08:39:27","新北市土城區永和街2巷24號","121.433901666667","24.9643783333333","6501300","土城區"
"242030","AAC-296","2018/01/25 08:39:24","新北市新莊區新泰路255巷35號","121.444758333333","25.0396366666667","6500500","新莊區"
"242028","986-R7","2018/01/25 08:39:13","新北市新莊區幸福路852號","121.443988333333","25.049055","6500500","新莊區"
"242024","615-BX","2018/01/25 08:39:22","新北市新莊區五工二路95號","121.459225","25.0665966666667","6500500","新莊區"
"242022","613-BX","2018/01/25 08:39:22","新北市新莊區化成路354號","121.46586","25.0492483333333","6500500","新莊區"
"242026","612-BX","2018/01/25 08:39:32","新北市新莊區幸福路838號","121.445033333333","25.0491566666667","6500500","新莊區"
"242038","566-BX","2018/01/25 08:39:34","新北市新莊區民安路346號","121.429456666667","25.0223883333333","6500500","新莊區"
"242043","442-UM","2018/01/25 08:39:26","新北市新莊區新北大道七段752號","121.412708333333","25.025595","6500500","新莊區"
"242047","441-UM","2018/01/25 08:39:33","新北市新莊區後港一路28巷1弄1號","121.42542","25.0257983333333","6500500","新莊區"
"242052","440-UM","2018/01/25 08:39:14","新北市新莊區民安西路327巷4弄17號","121.428606666667","25.0112283333333","6500500","新莊區"
"242033","415-TV","2018/01/25 08:39:27","新北市新莊區福海街31巷2號","121.445241666667","25.0339966666667","6500500","新莊區"
"242003","413-TV","2018/01/25 08:39:28","新北市新莊區思源路42巷3-3號","121.460605","25.04363","6500500","新莊區"
"242040","400-BY","2018/01/25 08:39:27","新北市新莊區天祥街92巷14號","121.415605","25.02998","6500500","新莊區"
"242059","362-BY","2018/01/25 08:39:30","新北市新莊區四維路7號","121.424016666667","25.0245666666667","6500500","新莊區"
"242057","353-BY","2018/01/25 08:39:34","新北市新莊區中正路895-50號","121.41195","25.021785","6500500","新莊區"
"242006","132-UY","2018/01/25 08:39:16","新北市新莊區思源路593巷8號","121.4592","25.0597616666667","6500500","新莊區"
"242035","133-UY","2018/01/25 08:39:33","新北市新莊區後港一路49巷3弄11號","121.425121666667","25.0267083333333","6500500","新莊區"
"242045","172-VK","2018/01/25 08:39:31","新北市新莊區福營路336號","121.42166","25.0267633333333","6500500","新莊區"
"242008","173-VK","2018/01/25 08:39:28","新北市新莊區中華路二段152-1號","121.453298333333","25.0504283333333","6500500","新莊區"
"242014","175-VK","2018/01/25 08:39:20","新北市新莊區中平路184巷10弄5號","121.445403333333","25.0482666666667","6500500","新莊區"
"242001","176-VK","2018/01/25 08:39:26","新北市新莊區武前街29號","121.45036","25.0325416666667","6500500","新莊區"
"242012","346-TH","2018/01/25 08:39:32","新北市新莊區中泰街27號","121.45097","25.046915","6500500","新莊區"
"242049","347-TH","2018/01/25 08:39:23","新北市新莊區民安西路81巷21號","121.428121666667","25.0192366666667","6500500","新莊區"
"242018","348-TH","2018/01/25 08:39:23","新北市新莊區明智街13號","121.454403333333","25.0413533333333","6500500","新莊區"
"242055","349-TH","2018/01/25 08:39:24","新北市新莊區豐年街53巷2號","121.44647","25.031495","6500500","新莊區"
"242016","350-TH","2018/01/25 08:39:22","新北市新莊區中港路352號","121.451866666667","25.046725","6500500","新莊區"
"242010","351-TH","2018/01/25 08:39:18","新北市新莊區中港路615巷21弄1號","121.450161666667","25.0531583333333","6500500","新莊區"
"220064","282-UM","2018/01/25 08:39:34","新北市八里區中山路三段363號","121.375546666667","25.1385233333333","6500100","板橋區"
"242020","280-VK","2018/01/25 08:39:19","新北市新莊區新興街48巷1號","121.450858333333","25.0374783333333","6500500","新莊區"
