"lineid","car","time","location","longitude","latitude","cityid","cityname"
"248005","653-BX","2018/01/25 09:09:15","新北市五股區水碓路26號","121.433343333333","25.0727983333333","6501500","五股區"
"244012","069-UM","2018/01/25 09:09:25","新北市林口區中山路299號","121.384083333333","25.080145","6501700","林口區"
"244006","080-UY","2018/01/25 09:09:24","新北市林口區竹林路548號","121.387568333333","25.084725","6501700","林口區"
"244003","248-BX","2018/01/25 09:09:14","新北市林口區嘉溪雅坑5-8號","121.344931666667","25.1004216666667","6501700","林口區"
"244018","402-UM","2018/01/25 09:09:32","新北市林口區文化一路一段89-5號","121.372161666667","25.0704133333333","6501700","林口區"
"244008","410-SL","2018/01/25 09:09:19","新北市林口區中山路576-11號","121.376896666667","25.0856","6501700","林口區"
"244022","483-VK","2018/01/25 09:09:30","新北市林口區東湖路153巷135號","121.382215","25.0735666666667","6501700","林口區"
"244016","485-VK","2018/01/25 09:09:26","新北市林口區文化二路一段20巷21號","121.36585","25.0675883333333","6501700","林口區"
"244010","656-BX","2018/01/25 09:09:14","新北市林口區中正路26號","121.395933333333","25.0775083333333","6501700","林口區"
"244024","837-TS","2018/01/25 09:09:19","新北市林口區文化一路二段159號","121.38262","25.080955","6501700","林口區"
"222006","289-BY","2018/01/25 09:09:19","新北市深坑區土庫尖路27-1號","121.636503333333","25.0170533333333","6501800","深坑區"
"231069","189-VK","2018/01/25 09:01:09","新北市新店區新潭路三段256號","121.508896666667","24.9041283333333","6500600","新店區"
"231008","192-VK","2018/01/25 09:09:31","新北市新店區廣興路60巷6-2號","121.539813333333","24.9142833333333","6500600","新店區"
"235001","611-BX","2018/01/25 09:09:27","新北市中和區民享街136-1號","121.473488333333","24.9968116666667","6500300","中和區"
"226002","7418-A5","2018/01/25 09:09:32","新北市平溪區東勢里芊蓁坑30號","121.727506666667","24.9791166666667","6502400","平溪區"
"223001","205-TH","2018/01/25 09:09:34","新北市石碇區北宜路五段14號","121.630956666667","24.9560833333333","6501900","石碇區"
"223008","406-TH","2018/01/25 09:08:49","新北市石碇區光明路16號","121.685618333333","25.0336733333333","6501900","石碇區"
"223001","437-BY","2018/01/25 09:09:30","新北市石碇區北宜路四段30號","121.623698333333","24.9567616666667","6501900","石碇區"
"223007","592-UM","2018/01/25 09:06:56","新北市石碇區光明路17-2號","121.685973333333","25.0321666666667","6501900","石碇區"
"223004","660-BX","2018/01/25 09:09:22","新北市石碇區碇坪路二段56號","121.683116666667","24.96996","6501900","石碇區"
"223005","677-TV","2018/01/25 09:06:27","新北市石碇區崩山53號","121.6824","24.9688533333333","6501900","石碇區"
"252004","249-BX","2018/01/25 09:09:21","新北市三芝區興華里車埕69-4號","121.49331","25.1937016666667","6502100","三芝區"
"252007","AAC-283","2018/01/25 09:09:32","新北市三芝區古庄里四棧橋18號","121.490298333333","25.26068","6502100","三芝區"
"236009","165-UM","2018/01/25 09:09:33","新北市土城區金城路一段1號","121.43909","24.9688733333333","6501300","土城區"
"236003","339-SR","2018/01/25 09:09:20","新北市土城區和平路46號","121.443193333333","24.970535","6501300","土城區"
"236005","498-BY","2018/01/25 09:09:27","新北市土城區中央路三段74號","121.43647","24.9671183333333","6501300","土城區"
"242030","AAC-296","2018/01/25 09:09:27","新北市新莊區忠孝街55號","121.443898333333","25.0361083333333","6500500","新莊區"
"242028","986-R7","2018/01/25 09:09:33","新北市新莊區中原路213號","121.450513333333","25.0543066666667","6500500","新莊區"
"242024","615-BX","2018/01/25 09:09:22","新北市新莊區五工一路80巷1號","121.46196","25.067425","6500500","新莊區"
"242022","613-BX","2018/01/25 09:09:30","新北市新莊區化成路493-2號","121.464885","25.0631066666667","6500500","新莊區"
"242026","612-BX","2018/01/25 09:09:32","新北市新莊區思源路237號","121.459873333333","25.046755","6500500","新莊區"
"242038","566-BX","2018/01/25 09:09:32","新北市新莊區成功街99號","121.424216666667","25.0189266666667","6500500","新莊區"
"242043","442-UM","2018/01/25 09:09:26","新北市新莊區中正路895-45號","121.412285","25.0213433333333","6500500","新莊區"
"242047","441-UM","2018/01/25 09:09:32","新北市新莊區龍安路212號","121.419978333333","25.0199233333333","6500500","新莊區"
"242052","440-UM","2018/01/25 09:09:14","新北市新莊區民安西路265-1號","121.426341666667","25.012995","6500500","新莊區"
"242033","415-TV","2018/01/25 09:09:27","新北市新莊區建中街103號","121.446526666667","25.03608","6500500","新莊區"
"242003","413-TV","2018/01/25 09:09:28","新北市新莊區化成路290號","121.465615","25.04776","6500500","新莊區"
"242040","400-BY","2018/01/25 09:09:31","新北市新莊區中正路694巷3弄4號","121.418225","25.0283","6500500","新莊區"
"242059","362-BY","2018/01/25 09:09:29","新北市新莊區瓊林路96-4號","121.44394","25.02724","6500500","新莊區"
"242057","353-BY","2018/01/25 09:09:14","新北市新莊區八德街167號","121.423336666667","25.0191216666667","6500500","新莊區"
"242006","132-UY","2018/01/25 09:09:16","新北市新莊區思源路287巷1弄68號","121.459321666667","25.04755","6500500","新莊區"
"242035","133-UY","2018/01/25 09:09:33","新北市新莊區建安街9巷7號","121.42917","25.0266883333333","6500500","新莊區"
"242045","172-VK","2018/01/25 09:09:31","新北市新莊區中正路新生巷17號","121.416813333333","25.0238533333333","6500500","新莊區"
"242008","173-VK","2018/01/25 09:09:28","新北市新莊區幸福路564巷2弄2號","121.454481666667","25.0495466666667","6500500","新莊區"
"242014","175-VK","2018/01/25 09:09:20","新北市新莊區中平路36巷24號","121.44574","25.0435583333333","6500500","新莊區"
"242001","176-VK","2018/01/25 09:09:29","新北市新莊區中正路48-3號","121.463813333333","25.041105","6500500","新莊區"
"242012","346-TH","2018/01/25 09:09:32","新北市新莊區中和街155巷24弄85號","121.44658","25.05149","6500500","新莊區"
"242049","347-TH","2018/01/25 09:09:23","新北市新莊區西盛街280巷14號","121.427551666667","25.0154133333333","6500500","新莊區"
"242018","348-TH","2018/01/25 09:09:18","新北市新莊區民樂街80號","121.458086666667","25.043705","6500500","新莊區"
"242055","349-TH","2018/01/25 09:09:24","新北市新莊區中正路347巷17-1號","121.44747","25.03447","6500500","新莊區"
"242016","350-TH","2018/01/25 09:09:22","新北市新莊區中正路473-1號","121.44195","25.03295","6500500","新莊區"
"242010","351-TH","2018/01/25 09:09:18","新北市新莊區中港路515號","121.451858333333","25.05078","6500500","新莊區"
"220064","282-UM","2018/01/25 09:09:34","新北市板橋區華東街1-9號","121.448138333333","24.9949083333333","6500100","板橋區"
"242020","280-VK","2018/01/25 09:09:19","新北市新莊區中正路281號","121.44908","25.0354083333333","6500500","新莊區"
