"lineid","car","time","location","longitude","latitude","cityid","cityname"
"248005","653-BX","2018/01/25 09:29:35","新北市五股區登林路貿商巷3弄15號","121.429701666667","25.069975","6501500","五股區"
"244012","069-UM","2018/01/25 09:29:25","新北市林口區麗園一街6巷7-2號","121.375278333333","25.0707683333333","6501700","林口區"
"244003","248-BX","2018/01/25 09:29:14","新北市林口區粉寮路60-16號","121.404501666667","25.0895666666667","6501700","林口區"
"244018","402-UM","2018/01/25 09:29:32","新北市林口區忠孝路616巷26號","121.37723","25.0673416666667","6501700","林口區"
"244008","410-SL","2018/01/25 09:29:19","新北市林口區竹林路346巷7號","121.392031666667","25.0836033333333","6501700","林口區"
"244022","483-VK","2018/01/25 09:29:30","新北市林口區信義路128號","121.380393333333","25.07951","6501700","林口區"
"244010","656-BX","2018/01/25 09:29:14","新北市林口區竹林路48號","121.387241666667","25.0777466666667","6501700","林口區"
"222006","289-BY","2018/01/25 09:28:58","新北市深坑區昇高坑路51-1號","121.62956","24.9950966666667","6501800","深坑區"
"231069","189-VK","2018/01/25 09:01:09","新北市新店區新潭路三段256號","121.508896666667","24.9041283333333","6500600","新店區"
"231008","192-VK","2018/01/25 09:29:31","新北市新店區平廣路一段11號","121.53793","24.9072666666667","6500600","新店區"
"235001","611-BX","2018/01/25 09:29:27","新北市中和區中山路三段96號","121.477421666667","25.0056716666667","6500300","中和區"
"223002","198-BX","2018/01/25 09:29:33","新北市石碇區靜安路一段102號","121.648276666667","25.0090716666667","6501900","石碇區"
"223001","205-TH","2018/01/25 09:19:22","新北市石碇區北宜路四段30號","121.624236666667","24.9564633333333","6501900","石碇區"
"223008","406-TH","2018/01/25 09:27:09","新北市石碇區南勢坑2-3號","121.699438333333","24.9905433333333","6501900","石碇區"
"223007","592-UM","2018/01/25 09:29:16","新北市石碇區南勢坑12號","121.698885","24.982675","6501900","石碇區"
"223004","660-BX","2018/01/25 09:29:22","新北市石碇區碇坪路二段35號","121.68482","24.976715","6501900","石碇區"
"223005","677-TV","2018/01/25 09:29:30","新北市石碇區大崙8號","121.68357","24.979175","6501900","石碇區"
"252004","249-BX","2018/01/25 09:29:21","新北市三芝區店子里店子32號","121.505815","25.208715","6502100","三芝區"
"252007","AAC-283","2018/01/25 09:29:32","新北市三芝區新庄里新庄子95-29號","121.512748333333","25.272335","6502100","三芝區"
"237001","159-UY","2018/01/25 09:29:14","新北市三峽區中山路459巷163-1號","121.349263333333","24.9335033333333","6500900","三峽區"
"236009","165-UM","2018/01/25 09:29:33","新北市土城區中央路四段390號","121.41268","24.9543","6501300","土城區"
"236003","339-SR","2018/01/25 09:29:20","新北市土城區明德路二段66號","121.447611666667","24.98329","6501300","土城區"
"236005","498-BY","2018/01/25 09:29:27","新北市土城區承天路73號","121.440075","24.9630183333333","6501300","土城區"
"242030","AAC-296","2018/01/25 09:29:24","新北市新莊區三泰路20號","121.440401666667","25.03412","6500500","新莊區"
"242028","986-R7","2018/01/25 09:29:33","新北市新莊區中華路二段93號","121.452676666667","25.04945","6500500","新莊區"
"242022","613-BX","2018/01/25 09:29:22","新北市新莊區中正路119號","121.460338333333","25.0383566666667","6500500","新莊區"
"242038","566-BX","2018/01/25 09:29:14","新北市新莊區民安路421號","121.433238333333","25.0227733333333","6500500","新莊區"
"242043","442-UM","2018/01/25 09:29:26","新北市新莊區龍安路66號","121.41511","25.0215466666667","6500500","新莊區"
"242047","441-UM","2018/01/25 09:29:32","新北市新莊區中正路695號","121.4258","25.0299316666667","6500500","新莊區"
"242052","440-UM","2018/01/25 09:29:14","新北市新莊區西盛街324巷34號","121.426748333333","25.014925","6500500","新莊區"
"242033","415-TV","2018/01/25 09:29:27","新北市新莊區中正路334巷19號","121.445656666667","25.0356483333333","6500500","新莊區"
"242003","413-TV","2018/01/25 09:29:28","新北市新莊區頭前路16號","121.468088333333","25.0524916666667","6500500","新莊區"
"242059","362-BY","2018/01/25 09:29:29","新北市新莊區新樹路357號","121.432925","25.018375","6500500","新莊區"
"242057","353-BY","2018/01/25 09:29:21","新北市新莊區四維路159號","121.422521666667","25.0217866666667","6500500","新莊區"
"242035","133-UY","2018/01/25 09:29:33","新北市新莊區後港一路74號","121.426923333333","25.0265183333333","6500500","新莊區"
"242045","172-VK","2018/01/25 09:29:31","新北市樹林區三俊街125號","121.417856666667","25.0158516666667","6500500","新莊區"
"242008","173-VK","2018/01/25 09:29:28","新北市土城區中華路一段118-5號","121.43997","24.9862566666667","6500500","新莊區"
"242049","347-TH","2018/01/25 09:29:23","新北市新莊區民安東路123號","121.43076","25.0207116666667","6500500","新莊區"
"242055","349-TH","2018/01/25 09:29:24","新北市新莊區新莊路715號","121.443676666667","25.03282","6500500","新莊區"
"242010","351-TH","2018/01/25 09:29:18","新北市新莊區中原路662號","121.442695","25.0543666666667","6500500","新莊區"
"242020","280-VK","2018/01/25 09:29:19","新北市新莊區公園路100號","121.450706666667","25.039875","6500500","新莊區"
