"lineid","car","time","location","longitude","latitude","cityid","cityname"
"234048","863-TW","2018/01/25 12:19:21","新北市永和區福和路1號","121.526476666667","25.0098916666667","6500400","永和區"
"243007","380-SR","2018/01/25 12:08:52","新北市泰山區犁頭窠12鄰3號","121.422666666667","25.060145","6501600","泰山區"
"231008","192-VK","2018/01/25 12:19:31","新北市新店區新烏路一段58-2號","121.545951666667","24.9465283333333","6500600","新店區"
"228005","097-TW","2018/01/25 12:19:25","新北市貢寮區福連里福連街37號","121.988785","25.0103433333333","6502600","貢寮區"
"228004","212-TW","2018/01/25 12:19:34","新北市貢寮區貢寮里長泰路17-2號","121.892341666667","25.020945","6502600","貢寮區"
"207001","662-BX","2018/01/25 12:19:23","新北市萬里區萬里里獅頭路15-1號","121.697711666667","25.180285","6502800","萬里區"
