"lineid","car","time","location","longitude","latitude","cityid","cityname"
"234044","148-BY","2018/01/25 12:39:45","新北市永和區永元路68號","121.522565","25.0015733333333","6500400","永和區"
"234005","207-UY","2018/01/25 12:39:36","新北市永和區福和路1號","121.525823333333","25.0094833333333","6500400","永和區"
"234078","298-R6","2018/01/25 12:39:43","新北市永和區林森路77號","121.523926666667","25.00399","6500400","永和區"
"234036","336-UY","2018/01/25 12:39:48","新北市永和區福和路1號","121.526608333333","25.0100566666667","6500400","永和區"
"234084","338-UY","2018/01/25 12:39:36","新北市中和區安和路25號","121.510725","24.99422","6500400","永和區"
"234068","552-UM","2018/01/25 12:39:51","新北市永和區福和路1號","121.525486666667","25.0095183333333","6500400","永和區"
"234015","745-BX","2018/01/25 12:39:39","新北市永和區福和路1號","121.526448333333","25.0095533333333","6500400","永和區"
"234028","746-BX","2018/01/25 12:39:40","新北市永和區得和路319巷2號","121.52345","24.9998316666667","6500400","永和區"
"234060","AAD-866","2018/01/25 12:39:40","新北市永和區福和路1號","121.525746666667","25.009485","6500400","永和區"
"234040","862-TW","2018/01/25 12:39:46","新北市永和區永貞路306號","121.51193","25.00489","6500400","永和區"
"234048","863-TW","2018/01/25 12:39:41","新北市永和區保安路2號","121.510803333333","25.01753","6500400","永和區"
"234010","9381-KE","2018/01/25 12:39:42","新北市永和區福和路1號","121.525531666667","25.009435","6500400","永和區"
"234076","969-R7","2018/01/25 12:39:37","新北市永和區中正路188號","121.515431666667","24.997055","6500400","永和區"
"234072","AAC-211","2018/01/25 12:39:40","新北市永和區福和路1號","121.526195","25.0095166666667","6500400","永和區"
"234066","AAC-212","2018/01/25 12:39:37","新北市永和區中正路403號","121.517176666667","25.0046183333333","6500400","永和區"
"243004","AAD-798","2018/01/25 12:27:39","新北市泰山區黎明路25號","121.422048333333","25.0608116666667","6501600","泰山區"
"231017","KEA-2219","2018/01/25 12:39:44","新北市新店區安華路28-1號","121.520113333333","24.9610933333333","6500600","新店區"
"231010","278-BY","2018/01/25 12:39:34","新北市新店區安華路28-1號","121.519963333333","24.9612116666667","6500600","新店區"
"231023","AAD-862","2018/01/25 12:39:41","新北市新店區安華路28-1號","121.51971","24.9612866666667","6500600","新店區"
"231036","512-UM","2018/01/25 12:39:41","新北市新店區安華路28-1號","121.519475","24.961295","6500600","新店區"
"231035","515-UM","2018/01/25 12:39:33","新北市新店區安華路28-1號","121.519643333333","24.9610766666667","6500600","新店區"
"231013","719-UM","2018/01/25 12:39:36","新北市新店區安康路一段355-3號","121.51963","24.9616683333333","6500600","新店區"
"231004","899-TW","2018/01/25 12:39:38","新北市新店區安華路28-1號","121.519693333333","24.96089","6500600","新店區"
"231037","AKT-0513","2018/01/25 12:39:51","新北市新店區安華路1-1號","121.51943","24.9604783333333","6500600","新店區"
"235029","098-UM","2018/01/25 12:39:34","新北市中和區員山路36巷16-3號","121.485293333333","24.9910633333333","6500300","中和區"
"235031","255-BX","2018/01/25 12:39:42","新北市中和區連城路469巷13號","121.48358","24.995405","6500300","中和區"
"235001","611-BX","2018/01/25 12:39:46","新北市中和區員山路479號","121.479991666667","25.0052916666667","6500300","中和區"
"228005","097-TW","2018/01/25 12:39:45","新北市貢寮區福連里蓬萊街16號","121.983438333333","24.99353","6502600","貢寮區"
"228004","212-TW","2018/01/25 12:39:34","新北市貢寮區吉林里枋腳街6-2號","121.887715","25.0060783333333","6502600","貢寮區"
"207002","749-BX","2018/01/25 12:39:35","新北市萬里區雙興里太和路7-2號","121.658568333333","25.17408","6502800","萬里區"
"207001","662-BX","2018/01/25 12:39:43","新北市萬里區萬里里獅頭路15-1號","121.69771","25.1803","6502800","萬里區"
