"lineid","car","time","location","longitude","latitude","cityid","cityname"
"234044","148-BY","2018/01/25 12:59:36","新北市永和區得和路373巷16弄9號","121.52555","25.000105","6500400","永和區"
"234005","207-UY","2018/01/25 12:59:36","新北市永和區永和路二段116號","121.515145","25.01211","6500400","永和區"
"234078","298-R6","2018/01/25 12:59:23","新北市永和區永亨路83號","121.521953333333","25.0057316666667","6500400","永和區"
"234036","336-UY","2018/01/25 12:59:28","新北市中和區秀朗路三段38號","121.52651","24.9959766666667","6500400","永和區"
"234062","337-UY","2018/01/25 12:59:32","新北市永和區秀朗路一段166號","121.518545","25.0032816666667","6500400","永和區"
"234084","338-UY","2018/01/25 12:59:36","新北市永和區中正路399號","121.517258333333","25.0043033333333","6500400","永和區"
"234068","552-UM","2018/01/25 12:59:31","新北市永和區中興街68巷5弄4號","121.518495","25.0116016666667","6500400","永和區"
"234015","745-BX","2018/01/25 12:59:39","新北市永和區永和路二段299號","121.51606","25.0160983333333","6500400","永和區"
"234028","746-BX","2018/01/25 12:59:40","新北市永和區四維街70號","121.523793333333","24.9983383333333","6500400","永和區"
"234052","KEA-2590","2018/01/25 12:59:31","新北市永和區竹林路62號","121.518248333333","25.0135966666667","6500400","永和區"
"234012","KEA-2591","2018/01/25 12:59:30","新北市永和區信義路17巷16號","121.513546666667","25.01138","6500400","永和區"
"234060","AAD-866","2018/01/25 12:59:40","新北市永和區福和路301號","121.516441666667","25.0071233333333","6500400","永和區"
"234040","862-TW","2018/01/25 12:59:26","新北市永和區永貞路267號","121.511798333333","25.0047866666667","6500400","永和區"
"234048","863-TW","2018/01/25 12:59:41","新北市永和區文化路194號","121.510755","25.0162083333333","6500400","永和區"
"234025","9371-KE","2018/01/25 12:59:26","新北市永和區永和路一段45-1號","121.512845","25.0062966666667","6500400","永和區"
"234010","9381-KE","2018/01/25 12:59:42","新北市永和區文化路206號","121.510378333333","25.0165633333333","6500400","永和區"
"248015","026-BX","2018/01/25 12:59:34","新北市五股區中興路二段63巷17號","121.460203333333","25.0754666666667","6501500","五股區"
"248005","077-UY","2018/01/25 12:59:30","新北市五股區中興路二段37巷28號","121.46011","25.07488","6501500","五股區"
"248007","095-VK","2018/01/25 12:59:25","新北市五股區更洲路10號","121.458426666667","25.0787916666667","6501500","五股區"
"248017","225-UY","2018/01/25 12:59:34","新北市五股區中興路二段83巷26-6號","121.460085","25.075175","6501500","五股區"
"248011","247-BX","2018/01/25 12:59:31","新北市五股區中興路二段83巷26-6號","121.46006","25.0750866666667","6501500","五股區"
"248013","261-SL","2018/01/25 12:59:42","新北市五股區中興路二段163號","121.457616666667","25.0777033333333","6501500","五股區"
"248009","272-BY","2018/01/25 12:59:27","新北市五股區中興路二段37巷28號","121.460131666667","25.0750116666667","6501500","五股區"
"248003","677-BX","2018/01/25 12:59:23","新北市五股區中興路二段83巷26-6號","121.459818333333","25.0749616666667","6501500","五股區"
"248001","678-BX","2018/01/25 12:53:48","新北市五股區中興路二段37巷25號","121.46076","25.0743983333333","6501500","五股區"
"234022","9380-KE","2018/01/25 12:59:41","新北市永和區竹林路75巷33弄47號","121.521105","25.0146083333333","6500400","永和區"
"234076","969-R7","2018/01/25 12:59:37","新北市永和區民享街3號","121.515095","24.9955616666667","6500400","永和區"
"234072","AAC-211","2018/01/25 12:59:40","新北市永和區環河東路二段98號","121.524108333333","25.010345","6500400","永和區"
"234066","AAC-212","2018/01/25 12:59:37","新北市永和區中和路625號","121.512875","25.004875","6500400","永和區"
"234001","AAC-295","2018/01/25 12:59:42","新北市永和區永平路35號","121.513031666667","25.0087066666667","6500400","永和區"
"231028","046-UY","2018/01/25 12:59:29","新北市新店區安華路28-1號","121.519556666667","24.960815","6500600","新店區"
"231030","047-UY","2018/01/25 12:59:36","新北市新店區安華路28-1號","121.519266666667","24.9608616666667","6500600","新店區"
"231029","106-UY","2018/01/25 12:59:43","新北市新店區安華路28-1號","121.51969","24.9608616666667","6500600","新店區"
"231018","107-UY","2018/01/25 12:59:39","新北市新店區安華路28-1號","121.519443333333","24.9613166666667","6500600","新店區"
"231021","110-UY","2018/01/25 12:59:42","新北市新店區安華路28-1號","121.519298333333","24.961315","6500600","新店區"
"231017","KEA-2219","2018/01/25 12:59:25","新北市新店區安華路28-1號","121.519903333333","24.961305","6500600","新店區"
"231010","278-BY","2018/01/25 12:58:54","新北市新店區安華路28-1號","121.51932","24.96103","6500600","新店區"
"231023","AAD-862","2018/01/25 12:59:41","新北市新店區安華路28-1號","121.51978","24.9611716666667","6500600","新店區"
"231027","3712-VJ","2018/01/25 12:59:41","新北市新店區安華路28-1號","121.519325","24.9606583333333","6500600","新店區"
"231038","4715-K9","2018/01/25 12:59:23","新北市新店區安華路1-1號","121.519295","24.9605533333333","6500600","新店區"
"231036","512-UM","2018/01/25 12:59:41","新北市新店區安華路28-1號","121.519266666667","24.9613716666667","6500600","新店區"
"231035","515-UM","2018/01/25 12:59:33","新北市新店區安華路28-1號","121.519658333333","24.96139","6500600","新店區"
"231001","619-UM","2018/01/25 12:59:28","新北市新店區安華路28-1號","121.519513333333","24.9607966666667","6500600","新店區"
"231034","645-TV","2018/01/25 12:59:24","新北市新店區安華路28-1號","121.519346666667","24.9606983333333","6500600","新店區"
"231013","719-UM","2018/01/25 12:59:37","新北市新店區安華路28-1號","121.51959","24.96114","6500600","新店區"
"231031","720-UM","2018/01/25 12:59:25","新北市新店區安華路28-1號","121.519311666667","24.9611916666667","6500600","新店區"
"231005","897-TW","2018/01/25 12:59:30","新北市新店區安華路1-1號","121.519815","24.96045","6500600","新店區"
"231006","898-TW","2018/01/25 12:59:25","新北市新店區安華路28-1號","121.51938","24.9608466666667","6500600","新店區"
"231004","899-TW","2018/01/25 12:59:39","新北市新店區安華路28-1號","121.519425","24.9608416666667","6500600","新店區"
"231037","AKT-0513","2018/01/25 12:59:31","新北市新店區安華路1-1號","121.519441666667","24.9604933333333","6500600","新店區"
"235029","098-UM","2018/01/25 12:59:34","新北市中和區景平路997巷2號","121.495693333333","25.00592","6500300","中和區"
"235004","150-BY","2018/01/25 12:59:30","新北市中和區和城路一段271巷1號","121.485531666667","24.99179","6500300","中和區"
"235022","151-BY","2018/01/25 12:59:30","新北市中和區錦和路350-1號","121.490568333333","24.9935216666667","6500300","中和區"
"235002","185-VK","2018/01/25 12:59:37","新北市永和區民生路67巷44號","121.525005","24.997315","6500300","中和區"
"235031","255-BX","2018/01/25 12:59:23","新北市中和區中山路二段449號","121.483858333333","25.0049883333333","6500300","中和區"
"235006","551-UM","2018/01/25 12:59:26","新北市中和區和城路一段271巷1號","121.485461666667","24.9917183333333","6500300","中和區"
"235001","611-BX","2018/01/25 12:59:26","新北市中和區中山路三段136巷25號","121.473758333333","25.0075566666667","6500300","中和區"
"235005","802-TS","2018/01/25 12:59:36","新北市中和區中正路726號","121.485511666667","24.9974766666667","6500300","中和區"
"235001","AAC-213","2018/01/25 12:59:40","新北市中和區錦和路350-1號","121.490306666667","24.9935683333333","6500300","中和區"
"228005","097-TW","2018/01/25 12:59:25","新北市貢寮區福隆里桂安街18號","121.956578333333","25.0198433333333","6502600","貢寮區"
"228004","212-TW","2018/01/25 12:59:34","新北市貢寮區吉林里內寮街19號","121.887245","24.988825","6502600","貢寮區"
"253004","8270-PC","2018/01/25 12:59:25","新北市石門區中山路64-1號","121.567506666667","25.29055","6502200","石門區"
"208004","AAC-292","2018/01/25 12:59:43","新北市金山區磺港里磺港路328號","121.647248333333","25.2294766666667","6502700","金山區"
"207002","749-BX","2018/01/25 12:59:35","新北市萬里區雙興里大坪路34-6號","121.63161","25.1686233333333","6502800","萬里區"
"252005","073-UM","2018/01/25 12:59:38","新北市三芝區埔坪里埔頭坑44號","121.50465","25.2617616666667","6502100","三芝區"
"207001","662-BX","2018/01/25 12:59:43","新北市萬里區萬里里獅頭路23號","121.693171666667","25.178315","6502800","萬里區"
"236005","498-BY","2018/01/25 12:59:26","新北市土城區亞洲路14號","121.43663","24.9747883333333","6501300","土城區"
"221032","280-BY","2018/01/25 12:59:34","新北市汐止區建成路37巷8號","121.662578333333","25.0725616666667","6501100","汐止區"
