"lineid","car","time","location","longitude","latitude","cityid","cityname"
"234044","148-BY","2018/01/25 13:19:27","新北市永和區得和路373巷7號","121.524803333333","24.999905","6500400","永和區"
"234005","207-UY","2018/01/25 13:19:16","新北市永和區保生路3號","121.506466666667","25.0075133333333","6500400","永和區"
"234078","298-R6","2018/01/25 13:19:23","新北市永和區福和路28號","121.523913333333","25.0083766666667","6500400","永和區"
"234036","336-UY","2018/01/25 13:19:28","新北市永和區民樂街70號","121.527418333333","24.9983733333333","6500400","永和區"
"234062","337-UY","2018/01/25 13:19:32","新北市永和區得和路243巷28弄21號","121.521408333333","25.0010833333333","6500400","永和區"
"234084","338-UY","2018/01/25 13:19:36","新北市永和區永利路5號","121.517445","25.0060616666667","6500400","永和區"
"234068","552-UM","2018/01/25 13:19:31","新北市永和區豫溪街82-2號","121.517926666667","25.0099433333333","6500400","永和區"
"234015","745-BX","2018/01/25 13:19:19","新北市永和區文化路144巷31弄3號","121.51238","25.0166683333333","6500400","永和區"
"234028","746-BX","2018/01/25 13:19:20","新北市永和區厚德街61-1號","121.525483333333","24.998545","6500400","永和區"
"234052","KEA-2590","2018/01/25 13:19:32","新北市永和區中興街50號","121.516721666667","25.01161","6500400","永和區"
"234012","KEA-2591","2018/01/25 13:19:35","新北市永和區信義路57號","121.512935","25.012535","6500400","永和區"
"234060","AAD-866","2018/01/25 13:19:19","新北市永和區秀朗路一段120號","121.516961666667","25.0036066666667","6500400","永和區"
"234040","862-TW","2018/01/25 13:19:26","新北市永和區水源街43巷2號","121.509776666667","25.00413","6500400","永和區"
"234048","863-TW","2018/01/25 13:19:21","新北市永和區仁愛路144號","121.510848333333","25.0134516666667","6500400","永和區"
"234025","9371-KE","2018/01/25 13:19:26","新北市永和區豫溪街28巷3號","121.515326666667","25.0096333333333","6500400","永和區"
"234010","9381-KE","2018/01/25 13:19:22","新北市永和區文化路90巷32弄9號","121.513481666667","25.0168066666667","6500400","永和區"
"248015","026-BX","2018/01/25 13:19:14","新北市五股區成泰路三段477巷18號","121.449901666667","25.09889","6501500","五股區"
"248005","077-UY","2018/01/25 13:19:30","新北市五股區中興路一段193號","121.46406","25.073925","6501500","五股區"
"248007","095-VK","2018/01/25 13:19:25","新北市五股區更洲路32巷8弄14號","121.459246666667","25.0796566666667","6501500","五股區"
"248017","225-UY","2018/01/25 13:19:14","新北市五股區御史路134號","121.435211666667","25.09828","6501500","五股區"
"248011","247-BX","2018/01/25 13:19:30","新北市五股區御史路1巷75號","121.44119","25.0903716666667","6501500","五股區"
"248013","261-SL","2018/01/25 13:19:22","新北市五股區自強路19巷5-1號","121.434568333333","25.0737383333333","6501500","五股區"
"248009","272-BY","2018/01/25 13:19:27","新北市五股區成泰路一段139巷2弄1號","121.435051666667","25.07298","6501500","五股區"
"248003","677-BX","2018/01/25 13:19:24","新北市五股區成泰路二段226號","121.43971","25.0864816666667","6501500","五股區"
"248001","678-BX","2018/01/25 12:53:48","新北市五股區中興路二段37巷25號","121.46076","25.0743983333333","6501500","五股區"
"234022","9380-KE","2018/01/25 13:19:26","新北市永和區竹林路101號","121.519753333333","25.0119316666667","6500400","永和區"
"234076","969-R7","2018/01/25 13:19:17","新北市永和區智光街101號","121.51627","24.99689","6500400","永和區"
"234072","AAC-211","2018/01/25 13:19:20","新北市永和區竹林路43號","121.51799","25.01403","6500400","永和區"
"234066","AAC-212","2018/01/25 13:19:16","新北市永和區保平路43號","121.511913333333","25.0072316666667","6500400","永和區"
"234001","AAC-295","2018/01/25 13:19:23","新北市永和區保福路一段98號","121.511936666667","25.0105966666667","6500400","永和區"
"244003","248-BX","2018/01/25 13:19:17","新北市林口區寶斗厝坑83號","121.332298333333","25.119935","6501700","林口區"
"243005","646-TV","2018/01/25 13:19:26","新北市泰山區南林路89-4號","121.415551666667","25.0512316666667","6501600","泰山區"
"231002","002-UM","2018/01/25 13:19:26","新北市新店區安華路28-1號","121.519381666667","24.9607866666667","6500600","新店區"
"231025","0293-UT","2018/01/25 13:19:17","新北市新店區中央路218號","121.529855","24.9731283333333","6500600","新店區"
"231028","046-UY","2018/01/25 13:19:29","新北市新店區安華路28-1號","121.519638333333","24.9608266666667","6500600","新店區"
"231030","047-UY","2018/01/25 13:19:16","新北市新店區安華路28-1號","121.518986666667","24.9609433333333","6500600","新店區"
"231029","106-UY","2018/01/25 13:19:23","新北市新店區安華路28-1號","121.519701666667","24.9609266666667","6500600","新店區"
"231018","107-UY","2018/01/25 13:19:18","新北市新店區安康路一段75-1號","121.530045","24.9611466666667","6500600","新店區"
"231011","108-UY","2018/01/25 13:19:29","新北市新店區安康路一段65號","121.53032","24.961055","6500600","新店區"
"231021","110-UY","2018/01/25 13:19:22","新北市新店區北宜路一段107號","121.53942","24.9553166666667","6500600","新店區"
"231017","KEA-2219","2018/01/25 13:19:25","新北市新店區安康路一段355號","121.519898333333","24.963175","6500600","新店區"
"231026","256-BX","2018/01/25 13:19:33","新北市新店區安華路28-1號","121.519708333333","24.9611833333333","6500600","新店區"
"231010","278-BY","2018/01/25 13:19:34","新北市新店區安康路一段35號","121.531586666667","24.9607266666667","6500600","新店區"
"231023","AAD-862","2018/01/25 13:19:21","新北市新店區安康路一段75-1號","121.530071666667","24.9611283333333","6500600","新店區"
"231027","3712-VJ","2018/01/25 13:19:21","新北市新店區秀山路14號","121.532756666667","24.96024","6500600","新店區"
"231024","4716-K9","2018/01/25 13:19:23","新北市新店區安康路一段94-2號","121.52776","24.9621233333333","6500600","新店區"
"231038","4715-K9","2018/01/25 13:19:23","新北市新店區安華路3號","121.519161666667","24.9600766666667","6500600","新店區"
"231036","512-UM","2018/01/25 13:19:21","新北市新店區安康路三段269號","121.4863","24.9517483333333","6500600","新店區"
"231035","515-UM","2018/01/25 13:19:14","新北市新店區安華路28-1號","121.519506666667","24.9612116666667","6500600","新店區"
"231003","616-UM","2018/01/25 13:19:25","新北市新店區安華路28-1號","121.519488333333","24.9606266666667","6500600","新店區"
"231001","619-UM","2018/01/25 13:19:28","新北市新店區安華路28-1號","121.519453333333","24.9605666666667","6500600","新店區"
"231034","645-TV","2018/01/25 13:19:24","新北市新店區安華路30巷1號","121.519488333333","24.959605","6500600","新店區"
"231013","719-UM","2018/01/25 13:19:17","新北市新店區安康路一段355-3號","121.519841666667","24.9625683333333","6500600","新店區"
"231031","720-UM","2018/01/25 13:19:25","新北市新店區安忠路57巷11弄14號","121.515288333333","24.95793","6500600","新店區"
"231005","897-TW","2018/01/25 13:19:30","新北市新店區安華路28-1號","121.519508333333","24.9606033333333","6500600","新店區"
"231006","898-TW","2018/01/25 13:19:29","新北市新店區安華路28-1號","121.519381666667","24.9608233333333","6500600","新店區"
"231004","899-TW","2018/01/25 13:19:19","新北市新店區安華路28-1號","121.519205","24.9608866666667","6500600","新店區"
"231037","AKT-0513","2018/01/25 13:19:31","新北市新店區安華路1-1號","121.519436666667","24.9605316666667","6500600","新店區"
"235030","003-UY","2018/01/25 13:19:26","新北市中和區中山路二段62號","121.503828333333","25.0048116666667","6500300","中和區"
"235028","005-UY","2018/01/25 13:19:29","新北市中和區中正路154號","121.498711666667","24.993705","6500300","中和區"
"235027","006-UY","2018/01/25 13:19:28","新北市中和區中正路589巷1號","121.485833333333","24.9943633333333","6500300","中和區"
"235021","031-BX","2018/01/25 13:19:26","新北市中和區民樂路64號","121.484","25.0011666666667","6500300","中和區"
"235003","097-UM","2018/01/25 13:19:24","新北市中和區景安路123號","121.505688333333","24.9961783333333","6500300","中和區"
"235029","098-UM","2018/01/25 13:19:14","新北市中和區莊敬路49巷20弄20號","121.50265","25.0057033333333","6500300","中和區"
"235004","150-BY","2018/01/25 13:19:30","新北市中和區安和路39號","121.50965","24.994845","6500300","中和區"
"235022","151-BY","2018/01/25 13:19:30","新北市中和區圓通路367巷17號","121.49246","24.98682","6500300","中和區"
"235019","183-VK","2018/01/25 13:19:34","新北市中和區和城路一段271巷1號","121.485383333333","24.99206","6500300","中和區"
"235002","185-VK","2018/01/25 13:19:17","新北市中和區大智街100號","121.523983333333","24.992415","6500300","中和區"
"235031","255-BX","2018/01/25 13:19:23","新北市中和區新生街163號","121.48377","25.00121","6500300","中和區"
"235007","352-BY","2018/01/25 13:19:20","新北市中和區景平路377號","121.504086666667","24.9933133333333","6500300","中和區"
"235025","378-QA","2018/01/25 13:19:16","新北市中和區國光街215巷24弄12號","121.46672","24.9999266666667","6500300","中和區"
"235014","4979-A6","2018/01/25 13:19:28","新北市中和區捷運路61巷8號","121.508726666667","24.989485","6500300","中和區"
"235033","4980-A6","2018/01/25 13:19:15","新北市中和區連城路123號","121.496256666667","24.9991333333333","6500300","中和區"
"235006","551-UM","2018/01/25 13:19:26","新北市中和區景平路161-1號","121.512663333333","24.9924516666667","6500300","中和區"
"235034","558-UM","2018/01/25 13:19:27","新北市中和區圓通路162巷13號","121.497165","24.9948","6500300","中和區"
"235009","565-BX","2018/01/25 13:19:19","新北市中和區復興路348號","121.500025","24.9904283333333","6500300","中和區"
"235018","640-BX","2018/01/25 13:19:23","新北市中和區國光街38號","121.471031666667","25.0003266666667","6500300","中和區"
"235024","647-TV","2018/01/25 13:19:28","新北市中和區中正路637巷52弄1號","121.485393333333","24.9933933333333","6500300","中和區"
"235011","732-UM","2018/01/25 13:19:20","新北市中和區復興路255號","121.503106666667","24.990125","6500300","中和區"
"235026","800-TS","2018/01/25 13:19:34","新北市中和區景平路999巷1號","121.495451666667","25.005895","6500300","中和區"
"235005","802-TS","2018/01/25 13:19:16","新北市中和區景安路26號","121.507355","24.9984483333333","6500300","中和區"
"235012","896-TW","2018/01/25 13:19:35","新北市中和區員山路36巷16-3號","121.4849","24.9918983333333","6500300","中和區"
"235017","900-TW","2018/01/25 13:19:21","新北市中和區員山路36巷16-3號","121.484893333333","24.9917116666667","6500300","中和區"
"235015","157-BY","2018/01/25 13:19:26","新北市中和區忠孝街39-13號","121.512091666667","24.9844266666667","6500300","中和區"
"235001","AAC-213","2018/01/25 13:19:20","新北市中和區景德街53號","121.517715","24.9913683333333","6500300","中和區"
"220034","073-UY","2018/01/25 13:19:17","新北市板橋區華東街1-10號","121.44826","24.9950633333333","6500100","板橋區"
"228005","097-TW","2018/01/25 13:19:25","新北市貢寮區美豐里丹裡街18-2號","121.912033333333","25.0578483333333","6502600","貢寮區"
"228004","212-TW","2018/01/25 13:19:14","新北市貢寮區吉林里內寮街23號","121.901783333333","24.9842166666667","6502600","貢寮區"
"253003","6232-TK","2018/01/25 13:19:23","新北市石門區石崩山19-2號","121.56645","25.2661216666667","6502200","石門區"
"253001","6251-TK","2018/01/25 13:19:15","新北市石門區楓林1號","121.536731666667","25.2983116666667","6502200","石門區"
"253002","637-UY","2018/01/25 13:19:14","新北市石門區大溪墘9-7號","121.552643333333","25.2749466666667","6502200","石門區"
"253004","8270-PC","2018/01/25 13:19:25","新北市石門區阿里荖31號","121.606976666667","25.28086","6502200","石門區"
"208004","AAC-292","2018/01/25 13:19:23","新北市金山區南勢湖86號","121.607233333333","25.21","6502700","金山區"
"207002","749-BX","2018/01/25 13:19:15","新北市萬里區崁腳里崁腳路166號","121.645008333333","25.1558516666667","6502800","萬里區"
"252005","073-UM","2018/01/25 13:19:17","新北市三芝區八賢里八連溪87號","121.520325","25.2292416666667","6502100","三芝區"
"207001","662-BX","2018/01/25 13:19:23","新北市萬里區龜吼里玉田路29號","121.681361666667","25.1945666666667","6502800","萬里區"
"236005","498-BY","2018/01/25 13:19:26","新北市土城區亞洲路108巷8號","121.433921666667","24.9726616666667","6501300","土城區"
"221032","280-BY","2018/01/25 13:19:34","新北市汐止區龍安路44號","121.65422","25.0636883333333","6501100","汐止區"
"220028","200-UY","2018/01/25 13:19:27","新北市板橋區華東街1-9號","121.44813","24.9948666666667","6500100","板橋區"
