"lineid","car","time","location","longitude","latitude","cityid","cityname"
"234044","148-BY","2018/01/25 13:29:16","新北市永和區秀朗路二段124-1號","121.524565","25.0016433333333","6500400","永和區"
"234005","207-UY","2018/01/25 13:29:16","新北市永和區中山路一段305號","121.506543333333","25.006675","6500400","永和區"
"234078","298-R6","2018/01/25 13:29:06","新北市永和區環河東路三段60號","121.52694","25.005935","6500400","永和區"
"234036","336-UY","2018/01/25 13:29:08","新北市永和區民樂街30巷1號","121.527533333333","25.0010833333333","6500400","永和區"
"234062","337-UY","2018/01/25 13:29:12","新北市永和區中正路368巷1弄88號","121.520475","25.000625","6500400","永和區"
"234084","338-UY","2018/01/25 13:29:16","新北市永和區永利路146號","121.522216666667","25.002825","6500400","永和區"
"234068","552-UM","2018/01/25 13:29:11","新北市永和區警光街5-1號","121.519721666667","25.0094883333333","6500400","永和區"
"234015","745-BX","2018/01/25 13:29:19","新北市永和區環河西路一段87號","121.51233","25.0178316666667","6500400","永和區"
"234028","746-BX","2018/01/25 13:29:20","新北市永和區民權路3號","121.520363333333","24.9984233333333","6500400","永和區"
"234052","KEA-2590","2018/01/25 13:29:11","新北市永和區復興街5號","121.515693333333","25.0128733333333","6500400","永和區"
"234012","KEA-2591","2018/01/25 13:29:10","新北市永和區中山路一段184巷9弄19號","121.508238333333","25.008915","6500400","永和區"
"234060","AAD-866","2018/01/25 13:29:21","新北市永和區中正路558號","121.51718","25.0056466666667","6500400","永和區"
"234040","862-TW","2018/01/25 13:29:06","新北市永和區中和路523號","121.511145","25.0026933333333","6500400","永和區"
"234048","863-TW","2018/01/25 13:29:21","新北市永和區信義路120號","121.512403333333","25.0146966666667","6500400","永和區"
"234025","9371-KE","2018/01/25 13:29:05","新北市永和區中正路659號","121.5148","25.010215","6500400","永和區"
"234010","9381-KE","2018/01/25 13:29:22","新北市永和區保福路二段44巷2弄10號","121.511675","25.0117833333333","6500400","永和區"
"248015","026-BX","2018/01/25 13:29:13","新北市五股區凌雲路一段83巷10弄5號","121.450321666667","25.101095","6501500","五股區"
"248005","077-UY","2018/01/25 13:29:11","新北市五股區中興路一段70號","121.466971666667","25.0729583333333","6501500","五股區"
"248007","095-VK","2018/01/25 13:29:04","新北市五股區四維路185巷46號","121.463388333333","25.0774716666667","6501500","五股區"
"248017","225-UY","2018/01/25 13:29:14","新北市五股區御史路287號","121.419911666667","25.1066383333333","6501500","五股區"
"248011","247-BX","2018/01/25 13:29:10","新北市五股區御成路148號","121.440871666667","25.0944783333333","6501500","五股區"
"248013","261-SL","2018/01/25 13:29:22","新北市五股區自強路186號","121.431426666667","25.06937","6501500","五股區"
"248009","272-BY","2018/01/25 13:29:24","新北市五股區明德路8號","121.433305","25.0716116666667","6501500","五股區"
"248003","677-BX","2018/01/25 13:29:24","新北市五股區六合街3號","121.431935","25.0885216666667","6501500","五股區"
"234022","9380-KE","2018/01/25 13:29:26","新北市永和區竹林路91巷45號","121.52136","25.0128516666667","6500400","永和區"
"234076","969-R7","2018/01/25 13:29:17","新北市永和區民治街79巷8號","121.517328333333","24.9978333333333","6500400","永和區"
"234072","AAC-211","2018/01/25 13:29:20","新北市永和區永和路二段105號","121.5149","25.011885","6500400","永和區"
"234066","AAC-212","2018/01/25 13:29:24","新北市永和區保平路178號","121.510741666667","25.0066966666667","6500400","永和區"
"234001","AAC-295","2018/01/25 13:29:22","新北市永和區自強街2號","121.51406","25.0080416666667","6500400","永和區"
"244003","248-BX","2018/01/25 13:29:20","新北市林口區瑞平里8鄰54號","121.34058","25.125395","6501700","林口區"
"243004","AAD-798","2018/01/25 13:29:21","新北市泰山區黎明路25號","121.422053333333","25.060775","6501600","泰山區"
"243005","646-TV","2018/01/25 13:29:06","新北市泰山區明志路三段166號","121.424416666667","25.03938","6501600","泰山區"
"231002","002-UM","2018/01/25 13:29:06","新北市新店區環河路64號","121.537023333333","24.9626916666667","6500600","新店區"
"231025","0293-UT","2018/01/25 13:29:17","新北市新店區中央七街61巷5號","121.528488333333","24.9764666666667","6500600","新店區"
"231028","046-UY","2018/01/25 13:29:09","新北市新店區安康路一段355號","121.519905","24.9637533333333","6500600","新店區"
"231030","047-UY","2018/01/25 13:29:16","新北市新店區安康路一段351-1號","121.519603333333","24.9638333333333","6500600","新店區"
"231029","106-UY","2018/01/25 13:29:23","新北市新店區安豐路48號","121.50035","24.9540883333333","6500600","新店區"
"231018","107-UY","2018/01/25 13:29:18","新北市新店區中央路230號","121.529516666667","24.972715","6500600","新店區"
"231011","108-UY","2018/01/25 13:29:08","新北市新店區德正街12號","121.543715","24.9726066666667","6500600","新店區"
"231021","110-UY","2018/01/25 13:29:22","新北市新店區新烏路一段130號","121.544505","24.933805","6500600","新店區"
"231017","KEA-2219","2018/01/25 13:29:25","新北市新店區北宜路二段30巷5弄2號","121.548023333333","24.9507233333333","6500600","新店區"
"231026","256-BX","2018/01/25 13:29:12","新北市新店區安康路一段44號","121.530673333333","24.96101","6500600","新店區"
"231010","278-BY","2018/01/25 13:29:14","新北市新店區中正路331-1號","121.536111666667","24.9752216666667","6500600","新店區"
"231023","AAD-862","2018/01/25 13:29:21","新北市新店區新店路21號","121.540253333333","24.95277","6500600","新店區"
"231027","3712-VJ","2018/01/25 13:29:21","新北市新店區新店後街87號","121.537566666667","24.9555866666667","6500600","新店區"
"231024","4716-K9","2018/01/25 13:29:23","新北市新店區北新路二段29巷3弄2號","121.542091666667","24.9731083333333","6500600","新店區"
"231038","4715-K9","2018/01/25 13:29:03","新北市新店區安華路30巷3號","121.519596666667","24.95921","6500600","新店區"
"231036","512-UM","2018/01/25 13:29:21","新北市新店區建業路90號","121.479621666667","24.9553916666667","6500600","新店區"
"231035","515-UM","2018/01/25 13:29:14","新北市新店區安康路二段5號","121.514966666667","24.9636633333333","6500600","新店區"
"231003","616-UM","2018/01/25 13:29:05","新北市新店區安康路一段79巷1號","121.529906666667","24.9611966666667","6500600","新店區"
"231001","619-UM","2018/01/25 13:29:08","新北市新店區環河路88號","121.536906666667","24.9636516666667","6500600","新店區"
"231034","645-TV","2018/01/25 13:29:05","新北市新店區車子路109號","121.505203333333","24.9521116666667","6500600","新店區"
"231013","719-UM","2018/01/25 13:29:17","新北市新店區中正路454-5號","121.53445","24.97902","6500600","新店區"
"231031","720-UM","2018/01/25 13:29:05","新北市新店區安豐路54-1號","121.499795","24.954155","6500600","新店區"
"231005","897-TW","2018/01/25 13:29:10","新北市新店區北新路一段89號","121.538671666667","24.9616416666667","6500600","新店區"
"231006","898-TW","2018/01/25 13:29:09","新北市新店區安康路一段133號","121.527983333333","24.961885","6500600","新店區"
"231004","899-TW","2018/01/25 13:29:19","新北市新店區安康路一段89號","121.529138333333","24.9614833333333","6500600","新店區"
"231037","AKT-0513","2018/01/25 13:29:11","新北市新店區薏仁坑路24號","121.498683333333","24.9598283333333","6500600","新店區"
"235030","003-UY","2018/01/25 13:29:26","新北市中和區中山路二段120號","121.50274","25.0036366666667","6500300","中和區"
"235028","005-UY","2018/01/25 13:29:09","新北市中和區圓通路141巷41號","121.498768333333","24.9946366666667","6500300","中和區"
"235027","006-UY","2018/01/25 13:29:08","新北市中和區連城路347巷2弄3-3號","121.487978333333","24.9958033333333","6500300","中和區"
"235021","031-BX","2018/01/25 13:29:06","新北市中和區民安街111巷4弄3號","121.476325","24.999035","6500300","中和區"
"235003","097-UM","2018/01/25 13:29:04","新北市中和區大勇街23號","121.517031666667","24.993045","6500300","中和區"
"235029","098-UM","2018/01/25 13:29:14","新北市中和區莊敬路51號","121.501401666667","25.0053016666667","6500300","中和區"
"235004","150-BY","2018/01/25 13:29:10","新北市中和區安平路59號","121.50943","24.9950116666667","6500300","中和區"
"235022","151-BY","2018/01/25 13:29:10","新北市中和區圓通路369巷152號","121.48796","24.98158","6500300","中和區"
"235019","183-VK","2018/01/25 13:29:13","新北市中和區民享街283號","121.471655","24.99616","6500300","中和區"
"235002","185-VK","2018/01/25 13:29:17","新北市中和區立人街14巷40弄7號","121.519051666667","24.9958016666667","6500300","中和區"
"235013","186-VK","2018/01/25 13:29:18","新北市中和區景安路142號","121.504928333333","24.9940716666667","6500300","中和區"
"235031","255-BX","2018/01/25 13:29:23","新北市中和區連城路340巷14弄22號","121.482806666667","24.9972183333333","6500300","中和區"
"235008","293-VK","2018/01/25 13:29:17","新北市中和區復興路301巷2弄1號","121.50149","24.9898766666667","6500300","中和區"
"235036","301-VK","2018/01/25 13:29:20","新北市中和區錦和路111-1號","121.490191666667","24.9951983333333","6500300","中和區"
"235007","352-BY","2018/01/25 13:29:20","新北市中和區景平路329巷2弄2號","121.50581","24.99307","6500300","中和區"
"235025","378-QA","2018/01/25 13:29:16","新北市中和區民享街107號","121.47492","24.9995733333333","6500300","中和區"
"235014","4979-A6","2018/01/25 13:29:08","新北市中和區景新街362巷5號","121.511976666667","24.9901083333333","6500300","中和區"
"235033","4980-A6","2018/01/25 13:29:15","新北市中和區連城路99巷45號","121.497146666667","24.9987933333333","6500300","中和區"
"235006","551-UM","2018/01/25 13:29:26","新北市中和區秀朗路三段150巷11號","121.52378","24.9909033333333","6500300","中和區"
"235034","558-UM","2018/01/25 13:27:27","新北市中和區景平路479號","121.500375","24.9973733333333","6500300","中和區"
"235009","565-BX","2018/01/25 13:29:19","新北市中和區復興路22號","121.50534","24.9898916666667","6500300","中和區"
"235018","640-BX","2018/01/25 13:29:23","新北市中和區民享街90巷1號","121.474746666667","25.000295","6500300","中和區"
"235024","647-TV","2018/01/25 13:29:08","新北市中和區連城路569巷9弄1號","121.479356666667","24.994305","6500300","中和區"
"235011","732-UM","2018/01/25 13:29:20","新北市中和區南山路300號","121.507915","24.9871333333333","6500300","中和區"
"235026","800-TS","2018/01/25 13:29:14","新北市中和區景平路756號","121.496405","25.0047116666667","6500300","中和區"
"235005","802-TS","2018/01/25 13:29:16","新北市中和區中和路320號","121.509701666667","25.0006033333333","6500300","中和區"
"235012","896-TW","2018/01/25 13:29:15","新北市中和區中正路637巷52弄1號","121.485376666667","24.99347","6500300","中和區"
"235017","900-TW","2018/01/25 13:29:21","新北市土城區延壽路46號","121.470481666667","24.9918266666667","6500300","中和區"
"235015","157-BY","2018/01/25 13:29:06","新北市中和區興南路二段142巷35弄4號","121.502298333333","24.98454","6500300","中和區"
"235001","AAC-213","2018/01/25 13:29:20","新北市中和區景德街95-9號","121.515176666667","24.9910683333333","6500300","中和區"
"235023","AAC-215","2018/01/25 13:29:15","新北市中和區員山路36巷16-3號","121.485011666667","24.9914666666667","6500300","中和區"
"220013","072-UY","2018/01/25 13:29:16","新北市板橋區南雅南路二段1-1號","121.454733333333","25.0036583333333","6500100","板橋區"
"220034","073-UY","2018/01/25 13:29:17","新北市板橋區南雅南路二段116號","121.452468333333","25.0004666666667","6500100","板橋區"
"228005","097-TW","2018/01/25 13:29:05","新北市貢寮區美豐里文秀坑8號","121.902475","25.050305","6502600","貢寮區"
"228004","212-TW","2018/01/25 13:29:14","新北市貢寮區龍崗里石壁坑街17號","121.910366666667","24.989465","6502600","貢寮區"
"253003","6232-TK","2018/01/25 13:29:23","新北市石門區內石門84號","121.568341666667","25.264615","6502200","石門區"
"253001","6251-TK","2018/01/25 13:29:15","新北市石門區崁子腳58-17號","121.531106666667","25.287385","6502200","石門區"
"253002","637-UY","2018/01/25 13:29:14","新北市石門區老崩山40-3號","121.563063333333","25.2669016666667","6502200","石門區"
"253004","8270-PC","2018/01/25 13:29:25","新北市石門區阿里荖69號","121.612596666667","25.2686683333333","6502200","石門區"
"208004","AAC-292","2018/01/25 13:29:23","新北市金山區南勢湖70-2號","121.615393333333","25.2158233333333","6502700","金山區"
"207002","749-BX","2018/01/25 13:29:15","新北市萬里區崁腳里崁腳路166號","121.645055","25.1558616666667","6502800","萬里區"
"252005","073-UM","2018/01/25 13:29:17","新北市三芝區圓山里八連溪頭3號","121.524743333333","25.22274","6502100","三芝區"
"207001","662-BX","2018/01/25 13:29:23","新北市萬里區野柳里八斗60-1號","121.675985","25.2005816666667","6502800","萬里區"
"236005","498-BY","2018/01/25 13:29:26","新北市土城區亞洲路11巷1弄35號","121.436148333333","24.9720166666667","6501300","土城區"
"221032","280-BY","2018/01/25 13:29:14","新北市汐止區水源路一段56號","121.657478333333","25.0655316666667","6501100","汐止區"
"220027","145-BY","2018/01/25 13:29:22","新北市板橋區華東街1-10號","121.448375","24.994985","6500100","板橋區"
"220028","200-UY","2018/01/25 13:29:08","新北市板橋區華東街1-9號","121.448133333333","24.9949","6500100","板橋區"
"220030","610-BX","2018/01/25 13:29:15","新北市板橋區華東街1-10號","121.448278333333","24.9949016666667","6500100","板橋區"
"220032","296-UM","2018/01/25 13:29:17","新北市板橋區華東街1-9號","121.448155","24.9949033333333","6500100","板橋區"
"220104","560-BX","2018/01/25 13:29:22","新北市板橋區南雅東路120號","121.453335","25.0083183333333","6500100","板橋區"
"220003","568-UM","2018/01/25 13:29:18","新北市板橋區華東街1-9號","121.448236666667","24.994785","6500100","板橋區"
"220005","686-BX","2018/01/25 13:29:09","新北市板橋區華東街1-9號","121.448218333333","24.9949066666667","6500100","板橋區"
"220025","687-BX","2018/01/25 13:29:25","新北市板橋區大觀路三段59巷17弄6-1號","121.437498333333","24.9954116666667","6500100","板橋區"
"220002","741-BX","2018/01/25 13:29:15","新北市板橋區華東街1-9號","121.448093333333","24.9948966666667","6500100","板橋區"
"220022","895-R6","2018/01/25 13:29:20","新北市板橋區華東街1-9號","121.44828","24.99473","6500100","板橋區"
"220021","985-R7","2018/01/25 13:29:17","新北市板橋區華東街1-10號","121.448345","24.994965","6500100","板橋區"
"220018","AAC-253","2018/01/25 13:29:16","新北市板橋區華東街1-9號","121.448278333333","24.9948633333333","6500100","板橋區"
