"lineid","car","time","location","longitude","latitude","cityid","cityname"
"234044","148-BY","2018/01/25 13:49:36","新北市永和區永亨路207號","121.52602","25.0025283333333","6500400","永和區"
"234005","207-UY","2018/01/25 13:49:36","新北市永和區永和路一段39號","121.51296","25.0061183333333","6500400","永和區"
"234078","298-R6","2018/01/25 13:49:43","新北市永和區林森路99號","121.523441666667","25.003565","6500400","永和區"
"234036","336-UY","2018/01/25 13:49:34","新北市永和區民樂街39巷18弄42號","121.528451666667","24.9990416666667","6500400","永和區"
"234062","337-UY","2018/01/25 13:49:32","新北市永和區中正路368巷4號","121.517976666667","25.0008216666667","6500400","永和區"
"234084","338-UY","2018/01/25 13:49:36","新北市永和區永亨路114號","121.523781666667","25.0043866666667","6500400","永和區"
"234068","552-UM","2018/01/25 13:49:31","新北市永和區竹林路77號","121.519551666667","25.0127283333333","6500400","永和區"
"234015","745-BX","2018/01/25 13:49:39","新北市永和區永和路二段280號","121.516145","25.0154016666667","6500400","永和區"
"234028","746-BX","2018/01/25 13:49:40","新北市永和區四維街103巷16號","121.523723333333","24.9970816666667","6500400","永和區"
"234052","KEA-2590","2018/01/25 13:49:32","新北市永和區竹林路67巷10號","121.518908333333","25.0137516666667","6500400","永和區"
"234012","KEA-2591","2018/01/25 13:49:30","新北市永和區永平路286-1號","121.507621666667","25.0120416666667","6500400","永和區"
"234060","AAD-866","2018/01/25 13:49:39","新北市永和區中正路35號","121.514238333333","24.9960366666667","6500400","永和區"
"234040","862-TW","2018/01/25 13:49:26","新北市永和區中和路389巷8號","121.508096666667","25.0009566666667","6500400","永和區"
"234048","863-TW","2018/01/25 13:49:41","新北市永和區保安路140號","121.50861","25.01501","6500400","永和區"
"234010","9381-KE","2018/01/25 13:49:42","新北市永和區保生路55號","121.50476","25.0106133333333","6500400","永和區"
"248015","026-BX","2018/01/25 13:49:33","新北市五股區凌雲路一段133巷3號","121.449466666667","25.1018366666667","6501500","五股區"
"248005","077-UY","2018/01/25 13:49:31","新北市五股區四維路117號","121.467475","25.0736483333333","6501500","五股區"
"248007","095-VK","2018/01/25 13:49:45","新北市五股區中興路一段151巷84號","121.465126666667","25.0716816666667","6501500","五股區"
"248017","225-UY","2018/01/25 13:49:34","新北市五股區民義路一段328巷12號","121.422698333333","25.0978383333333","6501500","五股區"
"248011","247-BX","2018/01/25 13:49:30","新北市五股區成泰路二段195巷1號","121.440318333333","25.0874016666667","6501500","五股區"
"248013","261-SL","2018/01/25 13:49:42","新北市五股區民義路一段84號","121.436096666667","25.0848533333333","6501500","五股區"
"248009","272-BY","2018/01/25 13:49:27","新北市五股區水碓九路104號","121.429583333333","25.0722783333333","6501500","五股區"
"248003","677-BX","2018/01/25 13:49:44","新北市五股區民義路二段41號","121.413941666667","25.1014116666667","6501500","五股區"
"234022","9380-KE","2018/01/25 13:49:46","新北市永和區中正路654巷28號","121.517711666667","25.0085783333333","6500400","永和區"
"234076","969-R7","2018/01/25 13:49:37","新北市永和區民族街27巷3號","121.519113333333","24.9996816666667","6500400","永和區"
"234072","AAC-211","2018/01/25 13:49:40","新北市永和區豫溪街189巷1號","121.522558333333","25.0102816666667","6500400","永和區"
"234066","AAC-212","2018/01/25 13:49:37","新北市永和區保平路236巷24弄15號","121.508428333333","25.0070416666667","6500400","永和區"
"234001","AAC-295","2018/01/25 13:49:42","新北市永和區永和路一段104號","121.513363333333","25.007195","6500400","永和區"
"244003","248-BX","2018/01/25 13:49:37","新北市林口區太平里12鄰2號","121.361698333333","25.1329283333333","6501700","林口區"
"243004","AAD-798","2018/01/25 13:49:41","新北市泰山區泰林路二段73巷27號","121.434403333333","25.0579016666667","6501600","泰山區"
"243007","380-SR","2018/01/25 13:49:26","新北市泰山區美寧街54號","121.43059","25.0644716666667","6501600","泰山區"
"243006","421-VK","2018/01/25 13:49:35","新北市泰山區黎明路31號","121.421771666667","25.0607116666667","6501600","泰山區"
"243008","539-UM","2018/01/25 13:49:47","新北市泰山區明志路一段517號","121.430445","25.0541533333333","6501600","泰山區"
"243002","KEA-2215","2018/01/25 13:49:43","新北市泰山區明志路一段519號","121.430326666667","25.0541116666667","6501600","泰山區"
"243005","646-TV","2018/01/25 13:46:37","新北市泰山區明志路三段206巷3號","121.423268333333","25.0379066666667","6501600","泰山區"
"231002","002-UM","2018/01/25 13:49:46","新北市新店區溪園路411號","121.52425","24.9784666666667","6500600","新店區"
"231025","0293-UT","2018/01/25 13:49:37","新北市新店區中央路206號","121.530351666667","24.9739866666667","6500600","新店區"
"231028","046-UY","2018/01/25 13:49:39","新北市新店區安和路三段29-3號","121.517468333333","24.9812233333333","6500600","新店區"
"231030","047-UY","2018/01/25 13:49:36","新北市新店區安康路一段194號","121.524578333333","24.9633833333333","6500600","新店區"
"231029","106-UY","2018/01/25 13:49:43","新北市新店區安康路二段125-1號","121.512381666667","24.96096","6500600","新店區"
"231018","107-UY","2018/01/25 13:49:39","新北市新店區中正路398號","121.534693333333","24.9774866666667","6500600","新店區"
"231011","108-UY","2018/01/25 13:49:47","新北市新店區中興路二段67巷16號","121.545868333333","24.9712683333333","6500600","新店區"
"231021","110-UY","2018/01/25 13:49:42","新北市新店區新烏路二段7號","121.543841666667","24.9295933333333","6500600","新店區"
"231017","KEA-2219","2018/01/25 13:49:44","新北市新店區竹林路63號","121.552981666667","24.9513016666667","6500600","新店區"
"231026","256-BX","2018/01/25 13:49:33","新北市新店區三民路84巷12號","121.53487","24.9731666666667","6500600","新店區"
"231010","278-BY","2018/01/25 13:49:34","新北市新店區平等街85號","121.535478333333","24.9722683333333","6500600","新店區"
"231023","AAD-862","2018/01/25 13:49:41","新北市新店區國校路20-1號","121.537875","24.9551716666667","6500600","新店區"
"231027","3712-VJ","2018/01/25 13:49:41","新北市新店區中興路一段34號","121.53886","24.9585816666667","6500600","新店區"
"231024","4716-K9","2018/01/25 13:49:43","新北市新店區北新路一段271巷35號","121.539571666667","24.9669666666667","6500600","新店區"
"231038","4715-K9","2018/01/25 13:49:43","新北市新店區安康路一段321巷3號","121.52168","24.96306","6500600","新店區"
"231036","512-UM","2018/01/25 13:49:41","新北市新店區安祥路145巷4號","121.474871666667","24.9557033333333","6500600","新店區"
"231035","515-UM","2018/01/25 13:49:33","新北市新店區安忠路57巷9弄2號","121.513463333333","24.95823","6500600","新店區"
"231003","616-UM","2018/01/25 13:49:45","新北市新店區中興路一段115號","121.541523333333","24.96275","6500600","新店區"
"231001","619-UM","2018/01/25 13:49:28","新北市新店區三民路86號","121.534333333333","24.9726966666667","6500600","新店區"
"231034","645-TV","2018/01/25 13:49:45","新北市新店區達觀路16號","121.502883333333","24.9411316666667","6500600","新店區"
"231013","719-UM","2018/01/25 13:49:37","新北市新店區二十張路25巷18弄16號","121.539238333333","24.9816616666667","6500600","新店區"
"231031","720-UM","2018/01/25 13:49:45","新北市新店區青山路211巷26弄16號","121.518456666667","24.9525566666667","6500600","新店區"
"231005","897-TW","2018/01/25 13:49:30","新北市新店區寶中路120號","121.550188333333","24.9789083333333","6500600","新店區"
"231006","898-TW","2018/01/25 13:49:29","新北市新店區北宜路一段260號","121.545648333333","24.9528033333333","6500600","新店區"
"231004","899-TW","2018/01/25 13:49:39","新北市新店區寶橋路132號","121.547313333333","24.9761","6500600","新店區"
"231037","AKT-0513","2018/01/25 13:49:31","新北市新店區安康路三段359巷10弄2號","121.484235","24.9504266666667","6500600","新店區"
"235030","003-UY","2018/01/25 13:49:25","新北市中和區水源路7巷29號","121.504111666667","25.003895","6500300","中和區"
"235028","005-UY","2018/01/25 13:49:29","新北市中和區連城路109巷32號","121.497051666667","24.9982033333333","6500300","中和區"
"235027","006-UY","2018/01/25 13:49:28","新北市中和區連城路319巷3弄1號","121.489168333333","24.995615","6500300","中和區"
"235021","031-BX","2018/01/25 13:49:26","新北市中和區民安街9號","121.480733333333","25.0007866666667","6500300","中和區"
"235020","096-UM","2018/01/25 13:49:47","新北市中和區立德街329號","121.481545","25.0104616666667","6500300","中和區"
"235003","097-UM","2018/01/25 13:49:44","新北市中和區大勇街29巷21號","121.515745","24.9947233333333","6500300","中和區"
"235029","098-UM","2018/01/25 13:49:34","新北市中和區中山路二段2巷31號","121.503046666667","25.0068916666667","6500300","中和區"
"235004","150-BY","2018/01/25 13:49:30","新北市中和區保健路48巷47號","121.509545","24.9961783333333","6500300","中和區"
"235022","151-BY","2018/01/25 13:49:30","新北市中和區連城路573-1號","121.479011666667","24.9943683333333","6500300","中和區"
"235019","183-VK","2018/01/25 13:49:33","新北市中和區德光路77巷1號","121.469476666667","25.0035183333333","6500300","中和區"
"235002","185-VK","2018/01/25 13:49:37","新北市中和區大勇街31巷1號","121.51745","24.994175","6500300","中和區"
"235013","186-VK","2018/01/25 13:49:37","新北市中和區景安路177巷1號","121.505505","24.9942033333333","6500300","中和區"
"235031","255-BX","2018/01/25 13:49:43","新北市中和區新生街220巷13號","121.482995","24.9983933333333","6500300","中和區"
"235008","293-VK","2018/01/25 13:49:37","新北市中和區中興街143號","121.500005","24.9912516666667","6500300","中和區"
"235036","301-VK","2018/01/25 13:49:40","新北市中和區連城路133-1號","121.495918333333","24.99905","6500300","中和區"
"235007","352-BY","2018/01/25 13:49:40","新北市中和區景平路1號","121.525631666667","24.9900683333333","6500300","中和區"
"235032","377-QA","2018/01/25 13:49:28","新北市中和區中正路211巷38-1號","121.497775","24.9925216666667","6500300","中和區"
"235025","378-QA","2018/01/25 13:49:35","新北市中和區民享街51號","121.474148333333","25.002705","6500300","中和區"
"235014","4979-A6","2018/01/25 13:49:28","新北市中和區忠孝街62巷7弄1號","121.512911666667","24.9835816666667","6500300","中和區"
"235033","4980-A6","2018/01/25 13:49:35","新北市中和區景平路618巷7號","121.500935","24.9972183333333","6500300","中和區"
"235006","551-UM","2018/01/25 13:49:26","新北市中和區秀朗路三段70巷31號","121.525546666667","24.9943883333333","6500300","中和區"
"235034","558-UM","2018/01/25 13:47:27","新北市中和區景平路574號","121.501726666667","24.9956416666667","6500300","中和區"
"235009","565-BX","2018/01/25 13:49:39","新北市中和區景安路218號","121.503741666667","24.990435","6500300","中和區"
"235018","640-BX","2018/01/25 13:49:43","新北市中和區民享街68巷14號","121.47349","25.0017966666667","6500300","中和區"
"235024","647-TV","2018/01/25 13:49:29","新北市中和區中山路三段32號","121.47899","25.0059583333333","6500300","中和區"
"235011","732-UM","2018/01/25 13:49:40","新北市中和區興南路二段34巷55弄1號","121.504838333333","24.9862283333333","6500300","中和區"
"235010","733-UM","2018/01/25 13:49:42","新北市中和區仁愛街36巷36號","121.511158333333","24.9865916666667","6500300","中和區"
"235026","800-TS","2018/01/25 13:49:34","新北市中和區景平路713號","121.496325","25.00377","6500300","中和區"
"235005","802-TS","2018/01/25 13:49:36","新北市永和區中和路603號","121.512458333333","25.004205","6500300","中和區"
"235016","805-TS","2018/01/25 13:49:42","新北市中和區興南路二段399巷11號","121.498766666667","24.9793233333333","6500300","中和區"
"235012","896-TW","2018/01/25 13:49:45","新北市中和區南山路407號","121.506945","24.989845","6500300","中和區"
"235017","900-TW","2018/01/25 13:49:44","新北市中和區華福街36號","121.466225","24.99667","6500300","中和區"
"235015","157-BY","2018/01/25 13:49:46","新北市中和區忠孝街2號","121.5087","24.982815","6500300","中和區"
"235001","AAC-213","2018/01/25 13:49:45","新北市中和區秀朗路三段128巷7弄1號","121.524553333333","24.992675","6500300","中和區"
"235023","AAC-215","2018/01/25 13:49:36","新北市中和區圓通路395號","121.48962","24.9889766666667","6500300","中和區"
"220016","013-TV","2018/01/25 13:49:43","新北市板橋區富山街109巷60弄21號","121.475635","25.0213883333333","6500100","板橋區"
"220013","072-UY","2018/01/25 13:49:36","新北市板橋區民族路247巷7弄58號","121.470828333333","25.0087316666667","6500100","板橋區"
"220034","073-UY","2018/01/25 13:49:37","新北市板橋區大智街71巷7弄1號","121.4531","25.0146766666667","6500100","板橋區"
"220105","075-UY","2018/01/25 13:49:30","新北市板橋區民生路二段161巷5號","121.470253333333","25.0197433333333","6500100","板橋區"
"220045","120-SR","2018/01/25 13:49:30","新北市板橋區民生路二段161巷9號","121.470263333333","25.0196283333333","6500100","板橋區"
"247007","341-TH","2018/01/25 13:49:28","新北市蘆洲區重陽街112號","121.482528333333","25.0853833333333","6501400","蘆洲區"
"247003","336-TH","2018/01/25 13:49:32","新北市蘆洲區中原路31號","121.460196666667","25.0827133333333","6501400","蘆洲區"
"247005","056-VK","2018/01/25 13:49:36","新北市蘆洲區中山二路281號","121.46934","25.0790133333333","6501400","蘆洲區"
"228005","097-TW","2018/01/25 13:49:25","新北市貢寮區美豐里土地公嶺23號","121.889098333333","25.05994","6502600","貢寮區"
"228004","212-TW","2018/01/25 13:48:14","新北市貢寮區龍崗里嵩陽街8號","121.902255","25.0110266666667","6502600","貢寮區"
"253003","6232-TK","2018/01/25 13:49:43","新北市石門區尖子鹿8號","121.575203333333","25.279965","6502200","石門區"
"253001","6251-TK","2018/01/25 13:49:35","新北市石門區下員坑16-5號","121.508213333333","25.2796833333333","6502200","石門區"
"253002","637-UY","2018/01/25 13:49:34","新北市石門區尖山湖3-1號","121.563983333333","25.2410433333333","6502200","石門區"
"253004","8270-PC","2018/01/25 13:49:45","新北市石門區阿里荖60-1號","121.60737","25.271255","6502200","石門區"
"208004","AAC-292","2018/01/25 13:49:43","新北市金山區山城路93號","121.598965","25.1998683333333","6502700","金山區"
"207002","749-BX","2018/01/25 13:49:15","新北市萬里區崁腳里崁腳路166號","121.645043333333","25.1558166666667","6502800","萬里區"
"252005","073-UM","2018/01/25 13:48:38","新北市三芝區圓山里內柑宅25-1號","121.536251666667","25.2258383333333","6502100","三芝區"
"207001","662-BX","2018/01/25 13:49:43","新北市萬里區磺潭里清水1號","121.63791","25.2021883333333","6502800","萬里區"
"236066","105-UM","2018/01/25 13:49:25","新北市土城區城林路6巷80號","121.438316666667","24.9796633333333","6501300","土城區"
"236076","166-UM","2018/01/25 13:49:41","新北市土城區中央路三段120號","121.435156666667","24.966185","6501300","土城區"
"236024","269-VK","2018/01/25 13:49:46","新北市土城區承天路1號","121.435883333333","24.9665766666667","6501300","土城區"
"236012","270-VK","2018/01/25 13:49:31","新北市土城區城林路6巷80號","121.438553333333","24.9797216666667","6501300","土城區"
"236033","271-VK","2018/01/25 13:49:29","新北市土城區城林路6巷80號","121.438818333333","24.979645","6501300","土城區"
"236018","401-BY","2018/01/25 13:49:27","新北市土城區城林路6巷80號","121.438588333333","24.9797666666667","6501300","土城區"
"236005","498-BY","2018/01/25 13:49:26","新北市土城區中華路二段87-1號","121.439348333333","24.97789","6501300","土城區"
"236056","912-UM","2018/01/25 13:49:34","新北市土城區中華路二段2號","121.439035","24.9797916666667","6501300","土城區"
"220027","145-BY","2018/01/25 13:49:42","新北市板橋區中正路79號","121.456343333333","25.0140916666667","6500100","板橋區"
"220028","200-UY","2018/01/25 13:49:29","新北市板橋區大觀路二段265巷72弄23號","121.441555","24.996995","6500100","板橋區"
"220030","610-BX","2018/01/25 13:49:35","新北市板橋區篤行路三段49號","121.42815","24.9861866666667","6500100","板橋區"
"220017","257-TC","2018/01/25 13:49:37","新北市板橋區介壽街84巷1號","121.470181666667","25.0185633333333","6500100","板橋區"
"220004","276-BY","2018/01/25 13:49:32","新北市板橋區四川路二段23-3號","121.454671666667","24.9955333333333","6500100","板橋區"
"220020","277-BY","2018/01/25 13:49:24","新北市板橋區金門街8號","121.433366666667","24.99482","6500100","板橋區"
"220043","283-UM","2018/01/25 13:49:36","新北市板橋區民生路二段161巷1號","121.469925","25.0198133333333","6500100","板橋區"
"220019","283-VK","2018/01/25 13:49:36","新北市板橋區忠孝路196巷43號","121.465565","25.0016983333333","6500100","板橋區"
"220001","285-VK","2018/01/25 13:49:38","新北市板橋區民生路二段123號","121.470745","25.018585","6500100","板橋區"
"220031","286-VK","2018/01/25 13:49:29","新北市板橋區僑中二街116巷1號","121.445651666667","25.006255","6500100","板橋區"
"220029","287-VK","2018/01/25 13:49:38","新北市板橋區光華街13巷27號","121.453156666667","25.0112383333333","6500100","板橋區"
"220039","288-VK","2018/01/25 13:49:38","新北市板橋區民生路二段161巷9號","121.470243333333","25.019655","6500100","板橋區"
"220009","293-UM","2018/01/25 13:49:44","新北市板橋區太和街4巷14號","121.474333333333","25.019975","6500100","板橋區"
"220010","295-UM","2018/01/25 13:49:34","新北市板橋區中山路二段25號","121.472445","25.015265","6500100","板橋區"
"220032","296-UM","2018/01/25 13:49:38","新北市板橋區大觀路二段150巷60號","121.441591666667","25.0005616666667","6500100","板橋區"
"220023","303-R5","2018/01/25 13:49:25","新北市板橋區南雅西路一段174巷1弄8號","121.452965","25.00739","6500100","板橋區"
"220041","307-R5","2018/01/25 13:49:49","新北市板橋區民生路二段89-6號","121.470535","25.0191483333333","6500100","板橋區"
"220047","317-R6","2018/01/25 13:49:39","新北市板橋區民生路二段120號","121.470671666667","25.0196283333333","6500100","板橋區"
"220012","486-VK","2018/01/25 13:49:35","新北市板橋區觀光街12巷1弄2號","121.471898333333","25.01684","6500100","板橋區"
"220038","487-VK","2018/01/25 13:49:38","新北市板橋區民生路二段188號","121.469966666667","25.0203316666667","6500100","板橋區"
"220037","491-VK","2018/01/25 13:49:26","新北市板橋區民生路二段161巷1號","121.470031666667","25.0200716666667","6500100","板橋區"
"220104","560-BX","2018/01/25 13:49:42","新北市板橋區中正路325巷41號","121.45349","25.019305","6500100","板橋區"
"220003","568-UM","2018/01/25 13:49:38","新北市板橋區館前西路47號","121.458061666667","25.0069083333333","6500100","板橋區"
"220011","609-BX","2018/01/25 13:49:31","新北市板橋區民生路二段89-6號","121.470526666667","25.01885","6500100","板橋區"
"220040","637-BX","2018/01/25 13:49:35","新北市板橋區民生路二段188號","121.47006","25.0203233333333","6500100","板橋區"
"220005","686-BX","2018/01/25 13:49:28","新北市板橋區大觀路2段435-7號","121.447793333333","24.9954883333333","6500100","板橋區"
"220025","687-BX","2018/01/25 13:49:45","新北市板橋區金門街81號","121.433233333333","24.9926016666667","6500100","板橋區"
"220042","689-BX","2018/01/25 13:49:30","新北市板橋區民生路二段171號","121.469945","25.0202066666667","6500100","板橋區"
"220002","741-BX","2018/01/25 13:49:35","新北市板橋區南雅南路一段1巷35號","121.45769","25.006465","6500100","板橋區"
"220014","829-TW","2018/01/25 13:49:28","新北市板橋區中山路二段37號","121.47305","25.0156033333333","6500100","板橋區"
"220022","895-R6","2018/01/25 13:49:44","新北市板橋區南門街10號","121.457373333333","25.0090316666667","6500100","板橋區"
"220021","985-R7","2018/01/25 13:49:37","新北市板橋區府中路32號","121.458248333333","25.0096516666667","6500100","板橋區"
"220046","AAC-210","2018/01/25 13:49:29","新北市板橋區民生路二段120號","121.47043","25.019635","6500100","板橋區"
"220018","AAC-253","2018/01/25 13:49:36","新北市板橋區四川路一段60號","121.459621666667","25.0056516666667","6500100","板橋區"
