"lineid","car","time","location","longitude","latitude","cityid","cityname"
"234005","207-UY","2018/01/25 14:39:16","新北市永和區中正路486號","121.517478333333","25.003855","6500400","永和區"
"234062","337-UY","2018/01/25 14:39:32","新北市永和區永和路二段192號","121.515541666667","25.0136666666667","6500400","永和區"
"234028","746-BX","2018/01/25 14:39:19","新北市五股區中興路三段163號","121.449085","25.080405","6500400","永和區"
"234052","KEA-2590","2018/01/25 14:39:32","新北市永和區光復街2巷13號","121.51708","25.0166133333333","6500400","永和區"
"234025","9371-KE","2018/01/25 14:39:26","新北市永和區中和路503號","121.51069","25.002305","6500400","永和區"
"248015","026-BX","2018/01/25 14:39:33","新北市五股區成泰路三段577巷82號","121.44963","25.1038216666667","6501500","五股區"
"248007","095-VK","2018/01/25 14:39:32","新北市五股區四維路116-2號","121.467818333333","25.0746","6501500","五股區"
"248017","225-UY","2018/01/25 14:25:34","新北市五股區壟路16號","121.415425","25.0856016666667","6501500","五股區"
"248011","247-BX","2018/01/25 14:39:30","新北市五股區民義路一段132號","121.434501666667","25.08602","6501500","五股區"
"248013","261-SL","2018/01/25 14:39:33","新北市五股區五福路52巷11弄1號","121.43371","25.0898183333333","6501500","五股區"
"248009","272-BY","2018/01/25 14:39:27","新北市五股區登林路49號","121.430953333333","25.0692416666667","6501500","五股區"
"248003","677-BX","2018/01/25 14:39:24","新北市五股區成泰路二段78號","121.437408333333","25.0821933333333","6501500","五股區"
"234072","AAC-211","2018/01/25 14:39:20","新北市永和區竹林路91巷70號","121.521993333333","25.0135683333333","6500400","永和區"
"234001","AAC-295","2018/01/25 14:39:22","新北市永和區中正路553號","121.516845","25.0082733333333","6500400","永和區"
"243004","AAD-798","2018/01/25 14:39:21","新北市泰山區楓江路9號","121.433581666667","25.0625283333333","6501600","泰山區"
"243003","297-R6","2018/01/25 14:39:32","新北市泰山區明志路三段196巷21弄18號","121.422898333333","25.0388116666667","6501600","泰山區"
"243007","380-SR","2018/01/25 14:39:26","新北市泰山區明志路二段239號","121.427378333333","25.0481266666667","6501600","泰山區"
"243006","421-VK","2018/01/25 14:39:15","新北市泰山區泰林路二段33-8號","121.43513","25.0564133333333","6501600","泰山區"
"243008","539-UM","2018/01/25 14:39:27","新北市泰山區明志路三段514號","121.421043333333","25.0308616666667","6501600","泰山區"
"243002","KEA-2215","2018/01/25 14:39:23","新北市泰山區中華街18巷1號","121.427351666667","25.0518666666667","6501600","泰山區"
"243001","KEA-2216","2018/01/25 14:39:15","新北市泰山區泰林路二段142巷5號","121.434676666667","25.0600933333333","6501600","泰山區"
"243005","646-TV","2018/01/25 14:39:17","新北市泰山區應化街13號","121.423831666667","25.0436866666667","6501600","泰山區"
"231002","002-UM","2018/01/25 14:39:26","新北市新店區中央路17號","121.5333","24.9782683333333","6500600","新店區"
"231025","0293-UT","2018/01/25 14:39:17","新北市新店區民族路161號","121.537656666667","24.9767483333333","6500600","新店區"
"231028","046-UY","2018/01/25 14:39:29","新北市新店區安德街60巷19-1號","121.510886666667","24.96293","6500600","新店區"
"231030","047-UY","2018/01/25 14:39:16","新北市新店區安民街160號","121.5168","24.9702966666667","6500600","新店區"
"231029","106-UY","2018/01/25 14:39:23","新北市新店區安康路三段230號","121.488093333333","24.9518033333333","6500600","新店區"
"231018","107-UY","2018/01/25 14:39:18","新北市新店區中央三街17號","121.529051666667","24.973735","6500600","新店區"
"231011","108-UY","2018/01/25 14:39:28","新北市新店區寶宏路38號","121.549448333333","24.97547","6500600","新店區"
"231021","110-UY","2018/01/25 14:39:22","新北市新店區桂山路37號","121.56166","24.9049333333333","6500600","新店區"
"231017","KEA-2219","2018/01/25 14:39:25","新北市新店區北宜路三段221號","121.592415","24.9532883333333","6500600","新店區"
"231023","AAD-862","2018/01/25 14:39:21","新北市新店區檳榔路29巷2號","121.54191","24.96363","6500600","新店區"
"231027","3712-VJ","2018/01/25 14:39:21","新北市新店區北新路二段2號","121.542826666667","24.970685","6500600","新店區"
"231038","4715-K9","2018/01/25 14:39:23","新北市新店區安康路一段76巷34-1號","121.52854","24.9634883333333","6500600","新店區"
"231036","512-UM","2018/01/25 14:39:21","新北市新店區安祥路106巷60號","121.476125","24.9611666666667","6500600","新店區"
"231035","515-UM","2018/01/25 14:39:33","新北市新店區安光路10-1號","121.513716666667","24.9640766666667","6500600","新店區"
"231003","616-UM","2018/01/25 14:39:25","新北市新店區中興路一段290號","121.546008333333","24.96901","6500600","新店區"
"231001","619-UM","2018/01/25 14:39:28","新北市新店區中正路4號","121.545746666667","24.9694733333333","6500600","新店區"
"231034","645-TV","2018/01/25 14:39:24","新北市新店區黎明路51巷2號","121.502038333333","24.9490566666667","6500600","新店區"
"231013","719-UM","2018/01/25 14:39:17","新北市新店區北新路二段171巷13號","121.542105","24.9763683333333","6500600","新店區"
"231005","897-TW","2018/01/25 14:39:30","新北市新店區順安街19號","121.540915","24.98555","6500600","新店區"
"231006","898-TW","2018/01/25 14:39:29","新北市新店區北宜路二段103號","121.55028","24.95236","6500600","新店區"
"231004","899-TW","2018/01/25 14:39:19","新北市新店區中正路273號","121.537691666667","24.9742233333333","6500600","新店區"
"231037","AKT-0513","2018/01/25 14:39:31","新北市新店區安德街60巷19-1號","121.510448333333","24.96325","6500600","新店區"
"235030","003-UY","2018/01/25 14:39:25","新北市中和區景新街162號","121.505675","24.99712","6500300","中和區"
"235028","005-UY","2018/01/25 14:39:29","新北市中和區南山路131-1號","121.502186666667","24.996625","6500300","中和區"
"235027","006-UY","2018/01/25 14:39:28","新北市中和區連城路174巷40號","121.49442","25.000365","6500300","中和區"
"235021","031-BX","2018/01/25 14:39:34","新北市中和區員山路325號","121.481216666667","25.0006466666667","6500300","中和區"
"235020","096-UM","2018/01/25 14:39:27","新北市中和區員山路581巷31弄20號","121.476761666667","25.0103783333333","6500300","中和區"
"235003","097-UM","2018/01/25 14:39:23","新北市永和區中正路22號","121.512725","24.9939966666667","6500300","中和區"
"235029","098-UM","2018/01/25 14:39:16","新北市中和區莊敬路31巷2號","121.500268333333","25.0049766666667","6500300","中和區"
"235004","150-BY","2018/01/25 14:39:30","新北市中和區宜安路23巷26號","121.512161666667","24.9949916666667","6500300","中和區"
"235022","151-BY","2018/01/25 14:39:30","新北市中和區員山路132巷19號","121.482273333333","24.9962883333333","6500300","中和區"
"235019","183-VK","2018/01/25 14:39:33","新北市中和區民生街10巷2號","121.471101666667","25.00587","6500300","中和區"
"235002","185-VK","2018/01/25 14:39:28","新北市中和區大智街55巷30弄31號","121.522001666667","24.9934133333333","6500300","中和區"
"235013","186-VK","2018/01/25 14:39:17","新北市中和區安平路17號","121.509188333333","24.9941233333333","6500300","中和區"
"235031","255-BX","2018/01/25 14:39:23","新北市中和區連城路340巷14弄14號","121.483078333333","24.9972083333333","6500300","中和區"
"235008","293-VK","2018/01/25 14:39:29","新北市中和區興南路一段123號","121.509103333333","24.9878566666667","6500300","中和區"
"235036","301-VK","2018/01/25 14:39:20","新北市中和區光華街49號","121.5057","25.00373","6500300","中和區"
"235007","352-BY","2018/01/25 14:39:20","新北市中和區景平路530號","121.502781666667","24.9944666666667","6500300","中和區"
"235032","377-QA","2018/01/25 14:38:09","新北市中和區枋寮街46號","121.502026666667","25.0006883333333","6500300","中和區"
"235025","378-QA","2018/01/25 14:39:35","新北市中和區員山路226巷5弄2號","121.481753333333","25.0006783333333","6500300","中和區"
"235014","4979-A6","2018/01/25 14:39:28","新北市中和區中正路269號","121.495936666667","24.9935266666667","6500300","中和區"
"235006","551-UM","2018/01/25 14:39:26","新北市中和區景安路2號","121.507755","24.9991716666667","6500300","中和區"
"235034","558-UM","2018/01/25 14:38:27","新北市中和區泰和街37號","121.499243333333","24.9996266666667","6500300","中和區"
"235009","565-BX","2018/01/25 14:39:19","新北市中和區安樂路1號","121.511635","24.9918333333333","6500300","中和區"
"235018","640-BX","2018/01/25 14:39:23","新北市中和區國光街102巷11號","121.470756666667","25.0008533333333","6500300","中和區"
"235024","647-TV","2018/01/25 14:39:29","新北市中和區中山路二段523巷41號","121.482236666667","25.0031966666667","6500300","中和區"
"235011","732-UM","2018/01/25 14:39:20","新北市中和區興南路一段86號","121.509913333333","24.9893566666667","6500300","中和區"
"235010","733-UM","2018/01/25 14:39:22","新北市中和區四維街32號","121.512765","24.9870483333333","6500300","中和區"
"235026","800-TS","2018/01/25 14:39:34","新北市中和區中山路二段532號","121.485673333333","25.0050016666667","6500300","中和區"
"235005","802-TS","2018/01/25 14:39:36","新北市中和區中和路232號","121.506603333333","24.9995916666667","6500300","中和區"
"235016","805-TS","2018/01/25 14:39:24","新北市中和區華新街232巷29號","121.50562","24.9823016666667","6500300","中和區"
"235012","896-TW","2018/01/25 14:39:35","新北市中和區四維街14號","121.513113333333","24.98725","6500300","中和區"
"235017","900-TW","2018/01/25 14:39:33","新北市中和區民德路146巷14號","121.467788333333","25.0004666666667","6500300","中和區"
"235015","157-BY","2018/01/25 14:39:28","新北市中和區中興街132號","121.499645","24.99225","6500300","中和區"
"235001","AAC-213","2018/01/25 14:39:20","新北市中和區秀朗路三段22巷15號","121.525535","24.9961066666667","6500300","中和區"
"235023","AAC-215","2018/01/25 14:39:15","新北市中和區圓通路274-7號","121.492205","24.9907483333333","6500300","中和區"
"220016","013-TV","2018/01/25 14:39:31","新北市板橋區中山路二段418號","121.483","25.0210733333333","6500100","板橋區"
"220013","072-UY","2018/01/25 14:39:16","新北市板橋區國泰街104號","121.466663333333","25.0064533333333","6500100","板橋區"
"220105","075-UY","2018/01/25 14:39:30","新北市板橋區江寧路三段50號","121.471798333333","25.0320616666667","6500100","板橋區"
"220017","AAD-861","2018/01/25 14:39:19","新北市板橋區貴興路106巷12號","121.455091666667","25.00313","6500100","板橋區"
"220045","120-SR","2018/01/25 14:39:30","新北市板橋區民生路二段226巷31弄2號","121.471236666667","25.0221466666667","6500100","板橋區"
"247021","893-R6","2018/01/25 14:39:21","新北市蘆洲區三民路128巷10號","121.471091666667","25.0877633333333","6501400","蘆洲區"
"247011","546-UM","2018/01/25 14:39:16","新北市蘆洲區集賢路224巷37弄10-1號","121.480663333333","25.0880933333333","6501400","蘆洲區"
"247019","500-BY","2018/01/25 14:39:26","新北市蘆洲區民權路125號","121.472015","25.090105","6501400","蘆洲區"
"247007","341-TH","2018/01/25 14:39:28","新北市蘆洲區成功路31號","121.473126666667","25.0796833333333","6501400","蘆洲區"
"247009","339-TH","2018/01/25 14:39:16","新北市蘆洲區信義路222巷45號","121.48043","25.0855633333333","6501400","蘆洲區"
"247001","337-TH","2018/01/25 14:39:24","新北市蘆洲區長安街274巷9號","121.457893333333","25.08713","6501400","蘆洲區"
"247003","336-TH","2018/01/25 14:39:32","新北市蘆洲區中原路12巷25號","121.460658333333","25.0840483333333","6501400","蘆洲區"
"247015","057-VK","2018/01/25 14:38:37","新北市蘆洲區光華路54巷2號","121.468238333333","25.0832133333333","6501400","蘆洲區"
"247005","056-VK","2018/01/25 14:39:16","新北市蘆洲區長安街68巷20號","121.463783333333","25.0808666666667","6501400","蘆洲區"
"247013","007-UY","2018/01/25 14:39:33","新北市蘆洲區忠孝路22號","121.470936666667","25.0841866666667","6501400","蘆洲區"
"247023","002-UY","2018/01/25 14:39:31","新北市蘆洲區中山二路222巷20號","121.46943","25.0802766666667","6501400","蘆洲區"
"247017","001-UY","2018/01/25 14:39:24","新北市蘆洲區民族路402號","121.474763333333","25.0914766666667","6501400","蘆洲區"
"228005","097-TW","2018/01/25 14:39:25","新北市貢寮區美豐里雞母嶺街6-6號","121.902063333333","25.06425","6502600","貢寮區"
"228004","212-TW","2018/01/25 14:39:34","新北市貢寮區福隆里龜壽谷街30-1號","121.947005","25.0131983333333","6502600","貢寮區"
"253003","6232-TK","2018/01/25 14:39:23","新北市石門區尖子鹿116-6號","121.575076666667","25.2965366666667","6502200","石門區"
"253001","6251-TK","2018/01/25 14:39:35","新北市石門區崁子腳65號","121.53197","25.28608","6502200","石門區"
"253002","637-UY","2018/01/25 14:39:34","新北市石門區七股10-5號","121.544891666667","25.2690833333333","6502200","石門區"
"253004","8270-PC","2018/01/25 14:39:17","新北市石門區內阿里磅31-2號","121.586193333333","25.2405966666667","6502200","石門區"
"208004","AAC-292","2018/01/25 14:39:23","新北市金山區兩湖里倒照湖37號","121.591456666667","25.2365166666667","6502700","金山區"
"207002","749-BX","2018/01/25 14:39:35","新北市萬里區崁腳里崁腳路73號","121.646948333333","25.1596166666667","6502800","萬里區"
"252005","073-UM","2018/01/25 14:39:17","新北市三芝區埔坪里埔頭坑150號","121.510571666667","25.249595","6502100","三芝區"
"207001","662-BX","2018/01/25 14:39:23","新北市萬里區雙興里豐稟路26號","121.641356666667","25.1876516666667","6502800","萬里區"
"236066","105-UM","2018/01/25 14:39:30","新北市土城區永豐路217號","121.474543333333","24.97537","6501300","土城區"
"236040","107-UM","2018/01/25 14:39:19","新北市土城區學成路106號","121.449851666667","24.9892016666667","6501300","土城區"
"236076","166-UM","2018/01/25 14:39:21","新北市土城區中央路四段52巷50號","121.418578333333","24.9602216666667","6501300","土城區"
"236028","253-BX","2018/01/25 14:39:28","新北市土城區中華路二段92號","121.438315","24.97471","6501300","土城區"
"236024","269-VK","2018/01/25 14:39:33","新北市土城區忠義路47號","121.440445","24.9693216666667","6501300","土城區"
"236012","270-VK","2018/01/25 14:39:31","新北市土城區清水路224號","121.46091","24.9822233333333","6501300","土城區"
"236033","271-VK","2018/01/25 14:39:29","新北市土城區明德路一段313巷3弄3號","121.459726666667","24.976435","6501300","土城區"
"236018","401-BY","2018/01/25 14:39:26","新北市土城區明德路一段34號","121.465118333333","24.9846233333333","6501300","土城區"
"236005","498-BY","2018/01/25 14:39:26","新北市土城區中華路一段301號","121.439725","24.9796566666667","6501300","土城區"
"236056","912-UM","2018/01/25 14:39:34","新北市土城區中央路四段27巷4號","121.424905","24.9626183333333","6501300","土城區"
"236047","913-UM","2018/01/25 14:39:21","新北市土城區明德路一段101號","121.465596666667","24.9828333333333","6501300","土城區"
"236060","915-UM","2018/01/25 14:39:21","新北市土城區延壽路55巷9弄5號","121.469768333333","24.991355","6501300","土城區"
"236052","AAC-216","2018/01/25 14:39:17","新北市土城區中華路一段49號","121.445701666667","24.988275","6501300","土城區"
"220027","145-BY","2018/01/25 14:39:22","新北市板橋區復興街56-2號","121.45878","25.0175366666667","6500100","板橋區"
"220028","200-UY","2018/01/25 14:39:31","新北市板橋區大觀路二段37巷252號","121.449873333333","25.0021","6500100","板橋區"
"220030","610-BX","2018/01/25 14:39:35","新北市板橋區沙崙街9號","121.43252","24.994055","6500100","板橋區"
"220050","245-BX","2018/01/25 14:39:33","新北市板橋區縣民大道三段33巷17-1號","121.473903333333","25.0212933333333","6500100","板橋區"
"220051","255-TC","2018/01/25 14:39:32","新北市板橋區文化路二段410巷56號","121.474833333333","25.0301733333333","6500100","板橋區"
"220052","257-TC","2018/01/25 14:39:18","新北市板橋區文化路一段286巷2弄1號","121.468503333333","25.0210733333333","6500100","板橋區"
"220004","276-BY","2018/01/25 14:39:32","新北市板橋區四川路一段487號","121.457333333333","24.9970633333333","6500100","板橋區"
"220020","277-BY","2018/01/25 14:39:25","新北市板橋區篤行路二段151巷9號","121.430396666667","24.9875583333333","6500100","板橋區"
"220043","283-UM","2018/01/25 14:39:16","新北市板橋區宏國路93號","121.469766666667","25.0322783333333","6500100","板橋區"
"220019","283-VK","2018/01/25 14:39:16","新北市板橋區信義路279巷21號","121.464323333333","24.9902733333333","6500100","板橋區"
"220001","285-VK","2018/01/25 14:39:18","新北市板橋區中山路二段146號","121.476595","25.0170566666667","6500100","板橋區"
"220031","286-VK","2018/01/25 14:39:29","新北市板橋區龍興街65巷82號","121.441828333333","25.0022366666667","6500100","板橋區"
"220029","287-VK","2018/01/25 14:39:27","新北市板橋區大觀路一段29巷131弄27號","121.45059","25.0046633333333","6500100","板橋區"
"220039","288-VK","2018/01/25 14:39:18","新北市板橋區長江路一段48巷12號","121.459503333333","25.0279583333333","6500100","板橋區"
"220009","293-UM","2018/01/25 14:39:32","新北市板橋區中山路一段283巷2弄16號","121.47055","25.01482","6500100","板橋區"
"220010","295-UM","2018/01/25 14:39:34","新北市板橋區三民路二段109巷24號","121.480538333333","25.015865","6500100","板橋區"
"220032","296-UM","2018/01/25 14:39:17","新北市板橋區滿平二街43-4號","121.425111666667","24.98797","6500100","板橋區"
"220023","303-R5","2018/01/25 14:39:25","新北市板橋區中正路253巷40號","121.45417","25.0177516666667","6500100","板橋區"
"220041","307-R5","2018/01/25 14:39:29","新北市板橋區文化路二段6號","121.468713333333","25.02403","6500100","板橋區"
"220047","317-R6","2018/01/25 14:39:22","新北市板橋區四維路269巷16號","121.462451666667","25.028165","6500100","板橋區"
"220012","486-VK","2018/01/25 14:39:15","新北市板橋區民權路16號","121.463256666667","25.0098966666667","6500100","板橋區"
"220038","487-VK","2018/01/25 14:39:17","新北市板橋區雨農路17巷1號","121.461936666667","25.0245566666667","6500100","板橋區"
"220037","491-VK","2018/01/25 14:39:26","新北市板橋區雙十路二段193號","121.473475","25.0289966666667","6500100","板橋區"
"220104","560-BX","2018/01/25 14:39:22","新北市板橋區新生街94號","121.458253333333","25.0219083333333","6500100","板橋區"
"220003","568-UM","2018/01/25 14:39:18","新北市板橋區國慶路149巷5號","121.461173333333","24.996945","6500100","板橋區"
"220011","609-BX","2018/01/25 14:39:32","新北市板橋區三民路二段140號","121.479131666667","25.01583","6500100","板橋區"
"220040","637-BX","2018/01/25 14:39:26","新北市板橋區懷德街201巷12號","121.481265","25.0293733333333","6500100","板橋區"
"220005","686-BX","2018/01/25 14:39:28","新北市板橋區和平路69號","121.46123","24.9946283333333","6500100","板橋區"
"220025","687-BX","2018/01/25 14:39:25","新北市板橋區僑中二街104巷1號","121.44595","25.0077516666667","6500100","板橋區"
"220042","689-BX","2018/01/25 14:39:30","新北市板橋區新海路364號","121.459585","25.0252633333333","6500100","板橋區"
"220002","741-BX","2018/01/25 14:39:15","新北市板橋區忠孝路239巷29號","121.466888333333","25.00344","6500100","板橋區"
"220014","829-TW","2018/01/25 14:39:28","新北市板橋區長安街138巷1弄11號","121.47315","25.0098983333333","6500100","板橋區"
"220022","895-R6","2018/01/25 14:39:20","新北市板橋區大東街24號","121.456461666667","25.0089133333333","6500100","板橋區"
"220021","985-R7","2018/01/25 14:39:17","新北市板橋區瑞安街2號","121.45446","25.0234","6500100","板橋區"
"220046","AAC-210","2018/01/25 14:39:29","新北市板橋區漢生西路89巷2弄19-2號","121.461696666667","25.0197483333333","6500100","板橋區"
"220018","AAC-253","2018/01/25 14:39:16","新北市板橋區館前東路98號","121.462486666667","25.00757","6500100","板橋區"
