"lineid","car","time","location","longitude","latitude","cityid","cityname"
"234028","746-BX","2018/01/25 15:39:28","新北市永和區環河西路二段7-2號","121.50881","25.0167166666667","6500400","永和區"
"234025","9371-KE","2018/01/25 15:39:25","新北市永和區福和路1號","121.526386666667","25.0098766666667","6500400","永和區"
"231028","046-UY","2018/01/25 15:39:29","新北市新店區僑信路2巷2號","121.49981","24.95359","6500600","新店區"
"231030","047-UY","2018/01/25 15:39:36","新北市新店區永安街109巷9號","121.521285","24.9858783333333","6500600","新店區"
"231029","106-UY","2018/01/25 15:39:43","新北市新店區安康路三段29號","121.49313","24.9531","6500600","新店區"
"231018","107-UY","2018/01/25 15:39:38","新北市新店區民生路126號","121.529785","24.9825616666667","6500600","新店區"
"231011","108-UY","2018/01/25 15:39:28","新北市新店區文化路92號","121.544931666667","24.98255","6500600","新店區"
"231021","110-UY","2018/01/25 15:39:22","新北市新店區新烏路一段247號","121.547341666667","24.9300233333333","6500600","新店區"
"231017","KEA-2219","2018/01/25 15:39:25","新北市新店區北宜路二段85號","121.549981666667","24.952035","6500600","新店區"
"231026","256-BX","2018/01/25 15:39:33","新北市新店區三民路75巷4弄2號","121.535475","24.9709366666667","6500600","新店區"
"231046","278-BY","2018/01/25 15:39:26","新北市新店區安華路28-1號","121.519585","24.9612266666667","6500600","新店區"
"231023","AAD-862","2018/01/25 15:39:21","新北市新店區大新街7巷21號","121.544125","24.96791","6500600","新店區"
"231038","4715-K9","2018/01/25 15:39:23","新北市新店區安康路一段355號","121.519873333333","24.9638016666667","6500600","新店區"
"231036","512-UM","2018/01/25 15:39:41","新北市新店區安祥路86號","121.49117","24.9561183333333","6500600","新店區"
"231035","515-UM","2018/01/25 15:39:33","新北市新店區安興路83-8號","121.515271666667","24.9756133333333","6500600","新店區"
"231003","616-UM","2018/01/25 15:39:25","新北市新店區寶橋路97號","121.547165","24.9761766666667","6500600","新店區"
"231034","645-TV","2018/01/25 15:39:24","新北市新店區玫瑰路58巷11號","121.494788333333","24.94661","6500600","新店區"
"231039","718-UY","2018/01/25 15:39:36","新北市新店區寶元路二段29號","121.546588333333","24.9818733333333","6500600","新店區"
"231013","719-UM","2018/01/25 15:39:29","新北市新店區永業路81巷25號","121.530816666667","24.9486383333333","6500600","新店區"
"231031","720-UM","2018/01/25 15:39:25","新北市新店區雙城路145號","121.495838333333","24.9437133333333","6500600","新店區"
"231005","897-TW","2018/01/25 15:39:30","新北市新店區民族路192號","121.536235","24.975445","6500600","新店區"
"231037","AKT-0513","2018/01/25 15:39:31","新北市新店區安興路112號","121.51463","24.97767","6500600","新店區"
"241011","013-R5","2018/01/25 15:39:38","新北市三重區仁愛街19號","121.496985","25.07085","6500200","三重區"
"241028","022-UY","2018/01/25 15:39:41","新北市三重區重新路四段121號","121.484715","25.0528483333333","6500200","三重區"
"241015","062-VK","2018/01/25 15:39:31","新北市三重區重新路四段121號","121.485148333333","25.052025","6500200","三重區"
"241017","063-VK","2018/01/25 15:39:30","新北市三重區重新路三段94號","121.492756666667","25.0607166666667","6500200","三重區"
"241005","262-UM","2018/01/25 15:39:36","新北市三重區重新路四段121號","121.484741666667","25.0518766666667","6500200","三重區"
"241016","266-UM","2018/01/25 15:39:37","新北市三重區重新路四段121號","121.48518","25.0519866666667","6500200","三重區"
"241018","268-UM","2018/01/25 15:39:23","新北市三重區重新路四段121號","121.484968333333","25.052415","6500200","三重區"
"241013","270-UM","2018/01/25 15:39:22","新北市三重區忠孝路二段160號","121.482088333333","25.0678233333333","6500200","三重區"
"241007","398-BY","2018/01/25 15:39:38","新北市三重區重新路四段121號","121.485265","25.0521216666667","6500200","三重區"
"241020","413-TH","2018/01/25 15:39:26","新北市三重區忠孝路二段54號","121.484981666667","25.07043","6500200","三重區"
"241014","543-UM","2018/01/25 15:39:39","新北市三重區重新路四段121號","121.485121666667","25.0520566666667","6500200","三重區"
"241012","941-UM","2018/01/25 15:39:22","新北市三重區自強路一段66號","121.497151666667","25.0666166666667","6500200","三重區"
"241029","942-UM","2018/01/25 15:39:35","新北市三重區大同南路202號","121.49677","25.056735","6500200","三重區"
"241033","AAC-255","2018/01/25 15:39:30","新北市三重區重新路五段447號","121.474423333333","25.0473166666667","6500200","三重區"
"235033","4980-A6","2018/01/25 15:39:35","新北市中和區中正路590號","121.485833333333","24.9949816666667","6500300","中和區"
"235026","800-TS","2018/01/25 15:39:34","新北市中和區中正路764號","121.485391666667","24.9994883333333","6500300","中和區"
"235023","AAC-215","2018/01/25 15:39:36","新北市中和區員山路20-3號","121.483876666667","24.983685","6500300","中和區"
"227004","400-TW","2018/01/25 15:39:39","新北市雙溪區牡丹里頂坪5-1號","121.862801666667","25.038705","6502500","雙溪區"
"236066","105-UM","2018/01/25 15:39:25","新北市土城區中央路三段38號","121.438388333333","24.9687866666667","6501300","土城區"
"236040","107-UM","2018/01/25 15:39:39","新北市土城區學享街41號","121.45173","24.98719","6501300","土城區"
"236076","166-UM","2018/01/25 15:39:41","新北市土城區中央路四段321巷12號","121.411073333333","24.95123","6501300","土城區"
"236028","253-BX","2018/01/25 15:39:28","新北市土城區中央路一段121巷8弄4號","121.447486666667","24.98796","6501300","土城區"
"236024","269-VK","2018/01/25 15:39:27","新北市土城區中央路一段213號","121.4458","24.9866616666667","6501300","土城區"
"236012","270-VK","2018/01/25 15:39:31","新北市土城區廣明街41巷2弄20號","121.454758333333","24.9935483333333","6501300","土城區"
"236033","271-VK","2018/01/25 15:39:29","新北市土城區明德路一段243號","121.46265","24.978185","6501300","土城區"
"236018","401-BY","2018/01/25 15:39:28","新北市土城區延吉街137巷12弄3號","121.470721666667","24.9854683333333","6501300","土城區"
"236056","912-UM","2018/01/25 15:39:33","新北市土城區中央路一段195號","121.445958333333","24.9869833333333","6501300","土城區"
"236047","913-UM","2018/01/25 15:39:21","新北市中和區連城路631-2號","121.475576666667","24.9913366666667","6501300","土城區"
"236052","AAC-216","2018/01/25 15:39:36","新北市土城區學府路一段8號","121.459448333333","24.9884533333333","6501300","土城區"
"238002","755-BX","2018/01/25 15:39:41","新北市樹林區日新街86號","121.421588333333","24.9903033333333","6500700","樹林區"
"238010","601-UM","2018/01/25 15:39:27","新北市樹林區三福街132號","121.405786666667","25.01625","6500700","樹林區"
"238006","599-UM","2018/01/25 15:39:25","新北市樹林區太平路243號","121.418731666667","24.9755783333333","6500700","樹林區"
"238005","571-TV","2018/01/25 15:39:30","新北市樹林區太平路57-1號","121.41926","24.9822766666667","6500700","樹林區"
"238011","5061-A6","2018/01/25 15:39:39","新北市樹林區中山路二段187號","121.404948333333","24.9769933333333","6500700","樹林區"
"238008","KEA-2217","2018/01/25 15:39:39","新北市樹林區柑園街一段73號","121.402046666667","24.9602533333333","6500700","樹林區"
"238009","KEA-2213","2018/01/25 15:39:23","新北市樹林區和平街2巷15號","121.421196666667","24.9810283333333","6500700","樹林區"
"238012","303-VK","2018/01/25 15:39:21","新北市樹林區中山路二段110-2號","121.413991666667","24.9832766666667","6500700","樹林區"
"238004","283-BY","2018/01/25 15:39:30","新北市樹林區保安街二段269號","121.412953333333","25.005395","6500700","樹林區"
"238001","282-BY","2018/01/25 15:39:34","新北市樹林區潭興街141巷1號","121.425435","24.99943","6500700","樹林區"
"238007","268-VK","2018/01/25 15:39:23","新北市樹林區俊英街218號","121.424923333333","25.0098783333333","6500700","樹林區"
"238013","172-UY","2018/01/25 15:39:22","新北市樹林區新興街19巷2弄26號","121.401466666667","24.9727816666667","6500700","樹林區"
"238003","169-UY","2018/01/25 15:39:36","新北市樹林區育英街126號","121.419878333333","24.989305","6500700","樹林區"
"220050","245-BX","2018/01/25 15:39:32","新北市板橋區永豐街89巷5弄8號","121.472758333333","25.0195533333333","6500100","板橋區"
"220051","255-TC","2018/01/25 15:39:32","新北市板橋區民生路二段161巷1號","121.469836666667","25.0199833333333","6500100","板橋區"
"220052","257-TC","2018/01/25 15:39:38","新北市板橋區漢生東路53巷28號","121.466773333333","25.017355","6500100","板橋區"
"220029","287-VK","2018/01/25 15:39:38","新北市板橋區大觀路三段131-1號","121.435106666667","24.992755","6500100","板橋區"
"220038","487-VK","2018/01/25 15:39:38","新北市板橋區四維路314號","121.462428333333","25.02989","6500100","板橋區"
