"lineid","car","time","location","longitude","latitude","cityid","cityname"
"231028","046-UY","2018/01/25 15:49:29","新北市新店區薏仁坑路自強巷1號","121.49703","24.9577416666667","6500600","新店區"
"231030","047-UY","2018/01/25 15:49:36","新北市新店區永安街22-1號","121.517438333333","24.9864733333333","6500600","新店區"
"231018","107-UY","2018/01/25 15:49:38","新北市新店區中正路663巷3弄8號","121.533168333333","24.990235","6500600","新店區"
"231011","108-UY","2018/01/25 15:49:28","新北市新店區寶強路19號","121.54322","24.9793483333333","6500600","新店區"
"231021","110-UY","2018/01/25 15:49:42","新北市新店區新烏路一段85巷6-6號","121.549698333333","24.94271","6500600","新店區"
"231017","KEA-2219","2018/01/25 15:49:25","新北市新店區中華路83巷2弄5號","121.538915","24.96858","6500600","新店區"
"231026","256-BX","2018/01/25 15:49:33","新北市新店區中央路2號","121.533945","24.9789066666667","6500600","新店區"
"231046","278-BY","2018/01/25 15:49:26","新北市新店區安華路28-1號","121.519791666667","24.96116","6500600","新店區"
"231023","AAD-862","2018/01/25 15:49:21","新北市新店區檳榔路7號","121.540973333333","24.96492","6500600","新店區"
"231038","4715-K9","2018/01/25 15:49:23","新北市新店區安康路二段140號","121.512461666667","24.9617033333333","6500600","新店區"
"231035","515-UM","2018/01/25 15:49:33","新北市新店區安民街332號","121.517366666667","24.9749566666667","6500600","新店區"
"231003","616-UM","2018/01/25 15:49:25","新北市新店區寶興路60巷4號","121.549846666667","24.9718383333333","6500600","新店區"
"231034","645-TV","2018/01/25 15:49:24","新北市新店區玫瑰路57巷5號","121.495978333333","24.94627","6500600","新店區"
"231013","719-UM","2018/01/25 15:49:21","新北市新店區永業路81巷9弄2號","121.530945","24.950335","6500600","新店區"
"231037","AKT-0513","2018/01/25 15:49:31","新北市新店區安興路112號","121.514628333333","24.9776033333333","6500600","新店區"
"241011","013-R5","2018/01/25 15:49:24","新北市三重區三和路二段228號","121.497545","25.0696566666667","6500200","三重區"
"241028","022-UY","2018/01/25 15:49:41","新北市三重區中正南路50號","121.494036666667","25.059995","6500200","三重區"
"241008","059-VK","2018/01/25 15:49:37","新北市三重區重新路四段121號","121.484896666667","25.0519916666667","6500200","三重區"
"241015","062-VK","2018/01/25 15:49:31","新北市三重區重新路四段121號","121.485093333333","25.0520783333333","6500200","三重區"
"241017","063-VK","2018/01/25 15:49:30","新北市三重區大仁街38號","121.49161","25.0643","6500200","三重區"
"241024","065-VK","2018/01/25 15:49:28","新北市三重區名源街29巷2號","121.480296666667","25.0601933333333","6500200","三重區"
"241005","262-UM","2018/01/25 15:49:36","新北市三重區長元街105號","121.504613333333","25.0671","6500200","三重區"
"241016","266-UM","2018/01/25 15:49:37","新北市三重區重新路四段121號","121.485143333333","25.05203","6500200","三重區"
"241022","267-UM","2018/01/25 15:49:30","新北市三重區成功路108巷8號","121.485738333333","25.05042","6500200","三重區"
"241018","268-UM","2018/01/25 15:49:23","新北市三重區成功路97號","121.48791","25.0514316666667","6500200","三重區"
"241013","270-UM","2018/01/25 15:49:42","新北市三重區六張街28號","121.495321666667","25.07058","6500200","三重區"
"241007","398-BY","2018/01/25 15:49:38","新北市三重區重新路四段121號","121.48434","25.052115","6500200","三重區"
"241020","413-TH","2018/01/25 15:49:26","新北市三重區忠孝路二段56號","121.484923333333","25.07038","6500200","三重區"
"241014","543-UM","2018/01/25 15:49:39","新北市三重區重新路四段121號","121.485071666667","25.052095","6500200","三重區"
"241023","545-UM","2018/01/25 15:49:29","新北市三重區新北大道一段250號","121.479665","25.0613366666667","6500200","三重區"
"241006","AAD-863","2018/01/25 15:49:40","新北市三重區重新路四段121號","121.484698333333","25.0521866666667","6500200","三重區"
"241012","941-UM","2018/01/25 15:49:41","新北市三重區文化北路83巷2-2號","121.498423333333","25.0669466666667","6500200","三重區"
"241029","942-UM","2018/01/25 15:49:35","新北市三重區大同南路246號","121.496996666667","25.055715","6500200","三重區"
"241033","AAC-255","2018/01/25 15:49:30","新北市三重區光復路一段115號","121.472043333333","25.0519266666667","6500200","三重區"
"235033","4980-A6","2018/01/25 15:49:39","新北市中和區員山路284號","121.481295","25.00224","6500300","中和區"
"235026","800-TS","2018/01/25 15:49:34","新北市中和區橋和路120號","121.492171666667","25.0057033333333","6500300","中和區"
"235023","AAC-215","2018/01/25 15:49:36","新北市中和區員山路31-8號","121.480655","24.9877083333333","6500300","中和區"
"247004","336-TH","2018/01/25 15:44:29","新北市五股區中興路三段163號","121.44927","25.0807016666667","6501400","蘆洲區"
"224005","271-BY","2018/01/25 15:49:26","新北市瑞芳區大寮路356-1號","121.78549","25.1031833333333","6501200","瑞芳區"
"227010","642-TC","2018/01/25 15:49:30","新北市雙溪區牡丹里自強路16號","121.865338333333","25.0392816666667","6502500","雙溪區"
"227004","400-TW","2018/01/25 15:49:39","新北市雙溪區平林里外平林44號","121.852925","25.0363583333333","6502500","雙溪區"
"236066","105-UM","2018/01/25 15:49:25","新北市土城區中山路38號","121.425281666667","24.9642333333333","6501300","土城區"
"236076","166-UM","2018/01/25 15:49:31","新北市土城區福安街57號","121.418445","24.9644666666667","6501300","土城區"
"236024","269-VK","2018/01/25 15:49:27","新北市土城區裕生路84巷2號","121.447365","24.9854733333333","6501300","土城區"
"236012","270-VK","2018/01/25 15:49:42","新北市土城區廣明街76號","121.45499","24.9939383333333","6501300","土城區"
"236018","401-BY","2018/01/25 15:49:32","新北市土城區延吉街111巷12弄15-3號","121.471541666667","24.984945","6501300","土城區"
"236056","912-UM","2018/01/25 15:49:33","新北市土城區中央路一段278號","121.443641666667","24.98294","6501300","土城區"
"236047","913-UM","2018/01/25 15:49:41","新北市土城區裕民路285號","121.456081666667","24.9816716666667","6501300","土城區"
"236052","AAC-216","2018/01/25 15:49:36","新北市土城區中華路一段50號","121.445883333333","24.9887833333333","6501300","土城區"
"238002","755-BX","2018/01/25 15:49:21","新北市樹林區啟智街40號","121.42062","24.9930933333333","6500700","樹林區"
"238010","601-UM","2018/01/25 15:49:36","新北市樹林區龍興街14巷19號","121.402075","25.0158683333333","6500700","樹林區"
"238006","599-UM","2018/01/25 15:49:25","新北市樹林區水源街27號","121.42528","24.9824766666667","6500700","樹林區"
"238005","571-TV","2018/01/25 15:49:31","新北市樹林區中華路173號","121.420808333333","24.981895","6500700","樹林區"
"238011","5061-A6","2018/01/25 15:49:39","新北市樹林區山佳街57號","121.392903333333","24.9725416666667","6500700","樹林區"
"238008","KEA-2217","2018/01/25 15:49:39","新北市樹林區柑園街二段18號","121.387841666667","24.9557383333333","6500700","樹林區"
"238009","KEA-2213","2018/01/25 15:49:23","新北市樹林區太順街60號","121.417905","24.9793233333333","6500700","樹林區"
"238012","303-VK","2018/01/25 15:49:41","新北市樹林區中山路一段73-1號","121.423573333333","24.99177","6500700","樹林區"
"238004","283-BY","2018/01/25 15:49:30","新北市樹林區保安街二段199號","121.413993333333","25.0034233333333","6500700","樹林區"
"238001","282-BY","2018/01/25 15:49:38","新北市樹林區千歲街19巷3號","121.424695","24.99577","6500700","樹林區"
"238007","268-VK","2018/01/25 15:49:33","新北市樹林區三俊街217號","121.421218333333","25.0150766666667","6500700","樹林區"
"238013","172-UY","2018/01/25 15:49:42","新北市樹林區新興街20-12號","121.398456666667","24.97269","6500700","樹林區"
"238003","169-UY","2018/01/25 15:49:35","新北市樹林區復興路372巷4號","121.415276666667","24.9859966666667","6500700","樹林區"
"220029","287-VK","2018/01/25 15:49:38","新北市樹林區八德街830-1號","121.392601666667","24.9686533333333","6500100","板橋區"
