"lineid","car","time","location","longitude","latitude","cityid","cityname"
"231028","046-UY","2018/01/25 15:59:29","新北市新店區安華路28-1號","121.519548333333","24.9610316666667","6500600","新店區"
"231030","047-UY","2018/01/25 15:59:36","新北市新店區安和路三段77號","121.517561666667","24.98342","6500600","新店區"
"231018","107-UY","2018/01/25 15:59:18","新北市新店區中正路663巷1弄2號","121.53293","24.9900366666667","6500600","新店區"
"231011","108-UY","2018/01/25 15:59:28","新北市新店區民生路149巷20號","121.529346666667","24.979955","6500600","新店區"
"231021","110-UY","2018/01/25 15:59:22","新北市新店區北宜路一段260號","121.545781666667","24.9528933333333","6500600","新店區"
"231017","KEA-2219","2018/01/25 15:59:24","新北市新店區中正路284巷4弄3號","121.538513333333","24.9747416666667","6500600","新店區"
"231026","256-BX","2018/01/25 15:59:32","新北市新店區民生路45號","121.53226","24.9859283333333","6500600","新店區"
"231046","278-BY","2018/01/25 15:59:26","新北市新店區安康路一段255號","121.524533333333","24.96333","6500600","新店區"
"231023","AAD-862","2018/01/25 15:59:21","新北市新店區柴埕路59號","121.51364","24.96478","6500600","新店區"
"231038","4715-K9","2018/01/25 15:59:23","新北市新店區安康路二段226號","121.509586666667","24.959295","6500600","新店區"
"231035","515-UM","2018/01/25 15:59:33","新北市新店區安民街182號","121.517083333333","24.9711983333333","6500600","新店區"
"231034","645-TV","2018/01/25 15:59:24","新北市新店區吉祥街2巷2號","121.497288333333","24.9477333333333","6500600","新店區"
"231013","719-UM","2018/01/25 15:59:21","新北市新店區安康路一段220號","121.523863333333","24.9635616666667","6500600","新店區"
"231037","AKT-0513","2018/01/25 15:59:31","新北市新店區安民街49號","121.516081666667","24.9658","6500600","新店區"
"241011","013-R5","2018/01/25 15:59:31","新北市三重區雙園街1巷1號","121.496886666667","25.0680233333333","6500200","三重區"
"241028","022-UY","2018/01/25 15:59:21","新北市三重區大同南路134巷8號","121.496925","25.0583716666667","6500200","三重區"
"241008","059-VK","2018/01/25 15:59:17","新北市三重區朝陽街26巷1弄22號","121.481935","25.05696","6500200","三重區"
"241015","062-VK","2018/01/25 15:59:31","新北市三重區重新路四段121號","121.48511","25.0520916666667","6500200","三重區"
"241017","063-VK","2018/01/25 15:59:30","新北市三重區大仁街48巷25號","121.491166666667","25.06455","6500200","三重區"
"241024","065-VK","2018/01/25 15:59:28","新北市三重區中正北路145巷5弄2號","121.48437","25.0676566666667","6500200","三重區"
"241002","090-VK","2018/01/25 15:59:33","新北市三重區忠孝路二段9號","121.486881666667","25.0714483333333","6500200","三重區"
"241025","156-TC","2018/01/25 15:59:31","新北市三重區三民街206號","121.480888333333","25.06615","6500200","三重區"
"241005","262-UM","2018/01/25 15:59:36","新北市三重區五華街182號","121.488785","25.0863516666667","6500200","三重區"
"241026","265-UM","2018/01/25 15:59:31","新北市三重區重新路二段126號","121.496288333333","25.0616733333333","6500200","三重區"
"241016","266-UM","2018/01/25 15:59:17","新北市三重區重新路四段121號","121.485106666667","25.052075","6500200","三重區"
"241022","267-UM","2018/01/25 15:59:30","新北市三重區忠孝路三段40巷56號","121.483205","25.065585","6500200","三重區"
"241018","268-UM","2018/01/25 15:59:23","新北市三重區中正北路27號","121.491778333333","25.0624566666667","6500200","三重區"
"241013","270-UM","2018/01/25 15:59:22","新北市三重區三和路三段16巷13號","121.496451666667","25.070105","6500200","三重區"
"241007","398-BY","2018/01/25 15:59:18","新北市三重區力行路二段3號","121.482021666667","25.07192","6500200","三重區"
"241020","413-TH","2018/01/25 15:59:26","新北市三重區車路頭街4巷14號","121.483413333333","25.0699683333333","6500200","三重區"
"241014","543-UM","2018/01/25 15:59:19","新北市三重區重新路四段121號","121.485083333333","25.0520983333333","6500200","三重區"
"241023","545-UM","2018/01/25 15:59:29","新北市三重區中正北路174號","121.483915","25.0665733333333","6500200","三重區"
"241001","547-UM","2018/01/25 15:59:23","新北市三重區名源街61巷17號","121.480801666667","25.0592483333333","6500200","三重區"
"241006","AAD-863","2018/01/25 15:59:20","新北市三重區重新路四段121號","121.4847","25.0518983333333","6500200","三重區"
"241012","941-UM","2018/01/25 15:59:22","新北市三重區文化北路118巷59號","121.497335","25.0661866666667","6500200","三重區"
"241029","942-UM","2018/01/25 15:59:35","新北市三重區大同南路212巷28號","121.497581666667","25.0566516666667","6500200","三重區"
"241033","AAC-255","2018/01/25 15:59:30","新北市三重區重新路五段446號","121.474726666667","25.0473883333333","6500200","三重區"
"235033","4980-A6","2018/01/25 15:59:14","新北市中和區連城路469巷21弄3號","121.483913333333","24.995095","6500300","中和區"
"235026","800-TS","2018/01/25 15:59:34","新北市中和區永和路191巷9號","121.491336666667","25.006865","6500300","中和區"
"235023","AAC-215","2018/01/25 15:59:36","新北市中和區員山路49-9號","121.480476666667","24.9913016666667","6500300","中和區"
"247004","336-TH","2018/01/25 15:44:29","新北市五股區中興路三段163號","121.44927","25.0807016666667","6501400","蘆洲區"
"224007","273-VK","2018/01/25 15:59:28","新北市瑞芳區大埔路52號","121.769095","25.1042083333333","6501200","瑞芳區"
"224005","271-BY","2018/01/25 15:59:26","新北市瑞芳區中山路256號","121.799736666667","25.1073616666667","6501200","瑞芳區"
"227010","642-TC","2018/01/25 15:59:33","新北市雙溪區三港里雙澳路38號","121.871958333333","25.05098","6502500","雙溪區"
"227004","400-TW","2018/01/25 15:59:19","新北市雙溪區平林里外平林61號","121.844751666667","25.0349433333333","6502500","雙溪區"
"251013","179-VK","2018/01/25 15:59:30","新北市淡水區中正路二段31號","121.419451666667","25.1815816666667","6501000","淡水區"
"236076","166-UM","2018/01/25 15:59:21","新北市土城區福安街31號","121.419321666667","24.964745","6501300","土城區"
"236018","401-BY","2018/01/25 15:59:26","新北市土城區和城路二段133-2號","121.475356666667","24.9876916666667","6501300","土城區"
"236056","912-UM","2018/01/25 15:59:33","新北市土城區中央路二段195號","121.442195","24.9751383333333","6501300","土城區"
"238002","755-BX","2018/01/25 15:59:21","新北市樹林區文德街2巷17號","121.41972","24.99172","6500700","樹林區"
"238010","601-UM","2018/01/25 15:59:27","新北市樹林區福興街29號","121.404293333333","25.0157416666667","6500700","樹林區"
"238006","599-UM","2018/01/25 15:59:30","新北市樹林區國凱街142號","121.423865","24.9805816666667","6500700","樹林區"
"238005","571-TV","2018/01/25 15:59:30","新北市樹林區鎮前街42-1號","121.425938333333","24.9928716666667","6500700","樹林區"
"238011","5061-A6","2018/01/25 15:59:26","新北市樹林區中山路三段96號","121.392913333333","24.9722066666667","6500700","樹林區"
"238008","KEA-2217","2018/01/25 15:59:19","新北市樹林區柑園街二段189號","121.3796","24.9526416666667","6500700","樹林區"
"238009","KEA-2213","2018/01/25 15:59:30","新北市樹林區太順街94號","121.417056666667","24.978515","6500700","樹林區"
"238012","303-VK","2018/01/25 15:59:21","新北市樹林區保安街一段92號","121.424166666667","24.9946183333333","6500700","樹林區"
"238004","283-BY","2018/01/25 15:59:30","新北市樹林區中正路433-2號","121.414971666667","25.008265","6500700","樹林區"
"238001","282-BY","2018/01/25 15:59:14","新北市樹林區千歲街30巷30弄2號","121.425851666667","24.9963816666667","6500700","樹林區"
"238007","268-VK","2018/01/25 15:59:23","新北市新莊區龍安路254巷18-1號","121.420631666667","25.018375","6500700","樹林區"
"238013","172-UY","2018/01/25 15:59:26","新北市樹林區佳園路一段46號","121.39292","24.9709266666667","6500700","樹林區"
"238003","169-UY","2018/01/25 15:59:32","新北市樹林區中山路一段213號","121.420963333333","24.987315","6500700","樹林區"
"220029","287-VK","2018/01/25 15:59:17","新北市樹林區中山路三段210-2號","121.381371666667","24.96567","6500100","板橋區"
