"lineid","car","time","location","longitude","latitude","cityid","cityname"
"231030","047-UY","2018/01/25 16:09:16","新北市新店區薏仁坑路6號","121.500106666667","24.958245","6500600","新店區"
"231018","107-UY","2018/01/25 16:09:18","新北市新店區中正路694巷15號","121.535391666667","24.9908216666667","6500600","新店區"
"231021","110-UY","2018/01/25 16:09:22","新北市新店區安和路一段1號","121.516805","24.9638666666667","6500600","新店區"
"231046","278-BY","2018/01/25 16:09:07","新北市新店區永業路81巷60號","121.529175","24.9478016666667","6500600","新店區"
"231035","515-UM","2018/01/25 16:09:14","新北市新店區薏仁坑路自強巷1號","121.497145","24.9578433333333","6500600","新店區"
"231034","645-TV","2018/01/25 16:09:04","新北市新店區富貴街18巷16號","121.493326666667","24.9480766666667","6500600","新店區"
"241011","013-R5","2018/01/25 16:09:24","新北市三重區正義北路374號","121.493478333333","25.07149","6500200","三重區"
"241028","022-UY","2018/01/25 16:09:21","新北市三重區正義南路107號","121.498243333333","25.0585566666667","6500200","三重區"
"241008","059-VK","2018/01/25 16:09:17","新北市三重區忠孝路二段94號","121.483595","25.0694133333333","6500200","三重區"
"241015","062-VK","2018/01/25 16:09:11","新北市三重區福德南路108-14號","121.501546666667","25.0582616666667","6500200","三重區"
"241017","063-VK","2018/01/25 16:09:10","新北市三重區大同北路148巷76號","121.490151666667","25.0645916666667","6500200","三重區"
"241024","065-VK","2018/01/25 16:09:08","新北市三重區力行路一段40號","121.486216666667","25.068065","6500200","三重區"
"241002","090-VK","2018/01/25 16:09:13","新北市三重區五華街1巷15號","121.496363333333","25.0792683333333","6500200","三重區"
"241025","156-TC","2018/01/25 16:09:11","新北市三重區忠孝路三段40巷16弄4號","121.482263333333","25.0665683333333","6500200","三重區"
"241005","262-UM","2018/01/25 16:09:16","新北市三重區溪尾街305號","121.487531666667","25.083725","6500200","三重區"
"241026","265-UM","2018/01/25 16:09:13","新北市三重區重新路二段78號","121.497201666667","25.0614583333333","6500200","三重區"
"241016","266-UM","2018/01/25 16:09:17","新北市三重區重新路三段94號","121.492613333333","25.0610083333333","6500200","三重區"
"241022","267-UM","2018/01/25 16:09:10","新北市三重區中正北路111-2號","121.48508","25.0656766666667","6500200","三重區"
"241018","268-UM","2018/01/25 16:09:23","新北市三重區大仁街26號","121.49149","25.06388","6500200","三重區"
"241013","270-UM","2018/01/25 16:09:22","新北市三重區安樂街41號","121.496196666667","25.0697133333333","6500200","三重區"
"241007","398-BY","2018/01/25 16:09:18","新北市三重區三和路四段143-1號","121.484338333333","25.078275","6500200","三重區"
"241020","413-TH","2018/01/25 16:09:26","新北市三重區大勇街2號","121.483501666667","25.0712816666667","6500200","三重區"
"241004","475-VK","2018/01/25 16:09:20","新北市三重區五華街74號","121.493465","25.08196","6500200","三重區"
"241019","478-VK","2018/01/25 16:09:23","新北市三重區重陽路三段97號","121.490248333333","25.0680766666667","6500200","三重區"
"241014","543-UM","2018/01/25 16:09:19","新北市三重區環河南路86-7號","121.502248333333","25.05909","6500200","三重區"
"241023","545-UM","2018/01/25 16:09:09","新北市三重區力行路一段74號","121.484191666667","25.0694516666667","6500200","三重區"
"241001","547-UM","2018/01/25 16:09:23","新北市三重區自強路四段68號","121.490305","25.0784683333333","6500200","三重區"
"241006","AAD-863","2018/01/25 16:09:20","新北市三重區忠孝路二段102號","121.483461666667","25.0693533333333","6500200","三重區"
"241012","941-UM","2018/01/25 16:09:23","新北市三重區自強路一段64號","121.497271666667","25.0664666666667","6500200","三重區"
"241029","942-UM","2018/01/25 16:09:15","新北市三重區同安街24號","121.496266666667","25.0568166666667","6500200","三重區"
"241033","AAC-255","2018/01/25 16:09:10","新北市三重區五谷王南街50-1號","121.473696666667","25.0445616666667","6500200","三重區"
"235026","800-TS","2018/01/25 16:09:14","新北市中和區永和路171巷3弄5號","121.4926","25.0067083333333","6500300","中和區"
"247004","336-TH","2018/01/25 15:44:29","新北市五股區中興路三段163號","121.44927","25.0807016666667","6501400","蘆洲區"
"224007","273-VK","2018/01/25 16:09:08","新北市瑞芳區粗坑口路24號","121.761425","25.0989716666667","6501200","瑞芳區"
"224005","271-BY","2018/01/25 16:09:26","新北市瑞芳區明燈路二段66號","121.809413333333","25.1075633333333","6501200","瑞芳區"
"227010","642-TC","2018/01/25 16:09:10","新北市雙溪區三港里雙澳路73號","121.882561666667","25.0545283333333","6502500","雙溪區"
"227004","400-TW","2018/01/25 16:09:19","新北市雙溪區上林里內平林47號","121.833311666667","25.03043","6502500","雙溪區"
"251013","179-VK","2018/01/25 16:09:10","新北市淡水區新市一路一段303號","121.43526","25.18628","6501000","淡水區"
"236018","401-BY","2018/01/25 16:09:26","新北市土城區金城路二段316號","121.45918","24.9844466666667","6501300","土城區"
"236056","912-UM","2018/01/25 16:09:14","新北市土城區中央路三段62號","121.436715","24.96736","6501300","土城區"
"238002","755-BX","2018/01/25 16:09:21","新北市樹林區啟智街86巷11號","121.418283333333","24.9907466666667","6500700","樹林區"
"238010","601-UM","2018/01/25 16:09:27","新北市樹林區龍興街31巷23號","121.403793333333","25.016155","6500700","樹林區"
"238006","599-UM","2018/01/25 16:09:25","新北市樹林區中華路190-16號","121.411726666667","24.980625","6500700","樹林區"
"238005","571-TV","2018/01/25 16:09:10","新北市樹林區博愛街182號","121.425708333333","24.9904383333333","6500700","樹林區"
"238011","5061-A6","2018/01/25 16:08:59","新北市樹林區育德街76巷1號","121.38869","24.9682333333333","6500700","樹林區"
"238009","KEA-2213","2018/01/25 16:09:23","新北市樹林區太平路186號","121.418345","24.976545","6500700","樹林區"
"238012","303-VK","2018/01/25 16:09:21","新北市樹林區中正路22-1號","121.427906666667","24.9992866666667","6500700","樹林區"
"238004","283-BY","2018/01/25 16:09:10","新北市樹林區中正路433-2號","121.414918333333","25.0082283333333","6500700","樹林區"
"238001","282-BY","2018/01/25 16:09:14","新北市樹林區千歲街63-12號","121.426958333333","24.9985433333333","6500700","樹林區"
"238007","268-VK","2018/01/25 16:09:23","新北市樹林區俊興街286號","121.418661666667","25.0170933333333","6500700","樹林區"
"238013","172-UY","2018/01/25 16:09:22","新北市樹林區佳園路一段80巷2號","121.393188333333","24.969765","6500700","樹林區"
"238003","169-UY","2018/01/25 16:09:12","新北市樹林區復興路323號","121.418256666667","24.9883533333333","6500700","樹林區"
"220029","287-VK","2018/01/25 16:09:17","新北市土城區民權街14號","121.415008333333","24.9643","6500100","板橋區"
