"lineid","car","time","location","longitude","latitude","cityid","cityname"
"234007","207-UY","2018/01/25 18:19:28","新北市永和區保生路55-1號","121.504751666667","25.011355","6500400","永和區"
"234086","338-UY","2018/01/25 18:19:40","新北市永和區福和路1號","121.526445","25.00975","6500400","永和區"
"234042","862-TW","2018/01/25 18:19:40","新北市永和區福和路1號","121.526461666667","25.0096516666667","6500400","永和區"
"234026","9371-KE","2018/01/25 18:19:31","新北市永和區豫溪街44號","121.515596666667","25.00975","6500400","永和區"
"249005","172-UM","2018/01/25 18:19:40","新北市八里區荖阡坑路15-4號","121.399785","25.14124","6502300","八里區"
"249001","173-UM","2018/01/25 18:19:35","新北市八里區龍米路一段131號","121.452171666667","25.126725","6502300","八里區"
"249004","303-UY","2018/01/25 18:19:35","新北市八里區龍米路二段232巷3號","121.431563333333","25.1589666666667","6502300","八里區"
"249002","305-UY","2018/01/25 18:19:25","新北市八里區龍形五街21號","121.450103333333","25.1331366666667","6502300","八里區"
"248016","026-BX","2018/01/25 18:19:30","新北市五股區西雲路290號","121.449635","25.0992066666667","6501500","五股區"
"248006","077-UY","2018/01/25 18:19:25","新北市五股區中興路一段201號","121.46365","25.0740533333333","6501500","五股區"
"248008","095-VK","2018/01/25 18:19:24","新北市五股區更洲路32巷8弄14號","121.459266666667","25.07963","6501500","五股區"
"248020","225-UY","2018/01/25 18:19:40","新北市五股區孝義路47巷1-2號","121.45409","25.1104366666667","6501500","五股區"
"248012","247-BX","2018/01/25 18:19:26","新北市五股區御史路1巷101弄2號","121.441055","25.0911683333333","6501500","五股區"
"248014","261-SL","2018/01/25 18:19:26","新北市五股區自強路19巷11號","121.434598333333","25.073705","6501500","五股區"
"248010","272-BY","2018/01/25 18:19:34","新北市五股區成泰路一段139巷2弄2號","121.435086666667","25.0729966666667","6501500","五股區"
"248004","677-BX","2018/01/25 18:19:22","新北市五股區成泰路二段156號","121.4383","25.084145","6501500","五股區"
"232011","375-UM","2018/01/25 18:19:44","新北市坪林區坪雙路一段31號","121.711668333333","24.942425","6502000","坪林區"
"244013","069-UM","2018/01/25 18:19:27","新北市林口區中山路148號","121.391265","25.0787416666667","6501700","林口區"
"244007","080-UY","2018/01/25 18:19:37","新北市林口區後湖32-1號","121.386466666667","25.0955516666667","6501700","林口區"
"244019","402-UM","2018/01/25 18:19:31","新北市林口區麗園路52巷10號","121.373653333333","25.0698766666667","6501700","林口區"
"244009","410-SL","2018/01/25 18:19:37","新北市林口區文化三路二段297號","121.379095","25.086605","6501700","林口區"
"244023","483-VK","2018/01/25 18:19:28","新北市林口區仁愛路二段20號","121.385548333333","25.0761333333333","6501700","林口區"
"244017","485-VK","2018/01/25 18:19:41","新北市林口區八德路20巷3號","121.367898333333","25.06754","6501700","林口區"
"244011","656-BX","2018/01/25 18:19:33","新北市林口區中正路74巷5弄2號","121.394621666667","25.0780066666667","6501700","林口區"
"244021","657-BX","2018/01/25 18:19:38","新北市林口區自強一街48號","121.399306666667","25.07751","6501700","林口區"
"244025","837-TS","2018/01/25 18:19:25","新北市林口區南勢二街20-2號","121.355001666667","25.067915","6501700","林口區"
"243013","646-TV","2018/01/25 18:19:19","新北市泰山區南林路103號","121.41523","25.04311","6501600","泰山區"
"222003","436-BY","2018/01/25 18:19:29","新北市深坑區旺耽路67號","121.626236666667","25.0030083333333","6501800","深坑區"
"222002","659-BX","2018/01/25 18:19:37","新北市深坑區文山路一段62巷10號","121.62172","25.0010766666667","6501800","深坑區"
"231041","002-UM","2018/01/25 18:19:24","新北市新店區安華路28-1號","121.519646666667","24.960855","6500600","新店區"
"231059","046-UY","2018/01/25 18:19:30","新北市新店區安華路28-1號","121.519511666667","24.9608366666667","6500600","新店區"
"231061","047-UY","2018/01/25 18:19:41","新北市新店區安華路28-1號","121.51928","24.9609283333333","6500600","新店區"
"231060","106-UY","2018/01/25 18:19:24","新北市新店區安華路28-1號","121.519638333333","24.9607633333333","6500600","新店區"
"231047","108-UY","2018/01/25 18:19:28","新北市新店區安華路28-1號","121.519756666667","24.9609833333333","6500600","新店區"
"231052","110-UY","2018/01/25 18:19:29","新北市新店區安康路一段355號","121.519915","24.9634966666667","6500600","新店區"
"231050","KEA-2219","2018/01/25 18:19:32","新北市新店區安華路28-1號","121.520058333333","24.9610533333333","6500600","新店區"
"231057","256-BX","2018/01/25 18:19:39","新北市新店區安華路28-1號","121.519706666667","24.96111","6500600","新店區"
"231046","278-BY","2018/01/25 18:19:26","新北市新店區直潭七街60號","121.53226","24.939835","6500600","新店區"
"231054","AAD-862","2018/01/25 18:19:39","新北市新店區安華路28-1號","121.519696666667","24.9612616666667","6500600","新店區"
"231058","3712-VJ","2018/01/25 18:19:24","新北市新店區環河路19巷3弄4號","121.537851666667","24.9610133333333","6500600","新店區"
"231056","3713-VJ","2018/01/25 18:19:26","新北市新店區中央路39號","121.532986666667","24.977745","6500600","新店區"
"231055","4716-K9","2018/01/25 18:19:39","新北市新店區環河路29巷1號","121.536245","24.961165","6500600","新店區"
"231065","512-UM","2018/01/25 18:19:39","新北市新店區安華路28-1號","121.519288333333","24.9612366666667","6500600","新店區"
"231064","515-UM","2018/01/25 18:19:37","新北市新店區安華路28-1號","121.519596666667","24.9611916666667","6500600","新店區"
"231042","616-UM","2018/01/25 18:19:24","新北市新店區安華路1-1號","121.519466666667","24.9604733333333","6500600","新店區"
"231040","619-UM","2018/01/25 18:19:21","新北市新店區安華路28-1號","121.519766666667","24.9606683333333","6500600","新店區"
"231063","645-TV","2018/01/25 18:19:30","新北市新店區安華路28-1號","121.519428333333","24.9606583333333","6500600","新店區"
"231049","719-UM","2018/01/25 18:19:26","新北市新店區安華路28-1號","121.519536666667","24.9612666666667","6500600","新店區"
"231062","720-UM","2018/01/25 18:19:26","新北市新店區安華路28-1號","121.519258333333","24.9612066666667","6500600","新店區"
"231043","899-TW","2018/01/25 18:19:23","新北市新店區安華路28-1號","121.519591666667","24.9612816666667","6500600","新店區"
"231066","AKT-0513","2018/01/25 18:19:41","新北市新店區安華路28-1號","121.519506666667","24.9607133333333","6500600","新店區"
"241003","091-VK","2018/01/25 18:19:38","新北市八里區中華路三段7巷5號","121.397621666667","25.143735","6500200","三重區"
"241033","AAC-255","2018/01/25 18:19:29","新北市三重區中興北街42巷17號","121.468866666667","25.0493533333333","6500200","三重區"
"235066","003-UY","2018/01/25 18:19:33","新北市中和區中山路二段135號","121.502165","25.00308","6500300","中和區"
"235064","005-UY","2018/01/25 18:19:35","新北市中和區中正路91號","121.500378333333","24.9933333333333","6500300","中和區"
"235063","006-UY","2018/01/25 18:19:24","新北市中和區中正路589巷1號","121.485825","24.9944383333333","6500300","中和區"
"235057","031-BX","2018/01/25 18:19:33","新北市中和區中正路637巷52弄1號","121.48534","24.9936466666667","6500300","中和區"
"235056","096-UM","2018/01/25 18:19:34","新北市中和區中正路830號","121.484848333333","25.0039916666667","6500300","中和區"
"235039","097-UM","2018/01/25 18:19:13","新北市中和區中正路6號","121.503056666667","24.993765","6500300","中和區"
"235065","098-UM","2018/01/25 18:19:24","新北市中和區莊敬路49巷18號","121.501601666667","25.0061366666667","6500300","中和區"
"235040","150-BY","2018/01/25 18:17:53","新北市中和區中正路45號","121.501925","24.99348","6500300","中和區"
"235058","151-BY","2018/01/25 18:19:24","新北市中和區錦和路410號","121.49084","24.989525","6500300","中和區"
"235055","183-VK","2018/01/25 18:19:37","新北市中和區中正路637巷52弄1號","121.485383333333","24.9936133333333","6500300","中和區"
"235038","185-VK","2018/01/25 18:19:22","新北市中和區秀朗路三段128巷7弄2號","121.524541666667","24.9928716666667","6500300","中和區"
"235072","301-VK","2018/01/25 18:19:40","新北市中和區中正路589巷1號","121.485873333333","24.9944366666667","6500300","中和區"
"235043","352-BY","2018/01/25 18:19:31","新北市中和區景平路373號","121.504246666667","24.9934216666667","6500300","中和區"
"235068","377-QA","2018/01/25 18:19:25","新北市中和區員山路36巷16-3號","121.485176666667","24.99104","6500300","中和區"
"235050","4979-A6","2018/01/25 18:19:21","新北市中和區南山路313號","121.504866666667","24.9914333333333","6500300","中和區"
"235069","4980-A6","2018/01/25 18:19:26","新北市中和區連城路187號","121.495073333333","24.998165","6500300","中和區"
"235042","551-UM","2018/01/25 18:19:31","新北市中和區大仁街44號","121.518428333333","24.9937983333333","6500300","中和區"
"235070","558-UM","2018/01/25 18:09:56","新北市中和區中正路395號","121.489675","24.9936683333333","6500300","中和區"
"235045","565-BX","2018/01/25 18:19:38","新北市中和區景安路200巷2弄2號","121.503976666667","24.9914083333333","6500300","中和區"
"235054","640-BX","2018/01/25 18:19:20","新北市中和區莒光路203號","121.472561666667","24.9989066666667","6500300","中和區"
"235060","647-TV","2018/01/25 18:19:40","新北市中和區中正路637巷52弄11號","121.484896666667","24.9937633333333","6500300","中和區"
"235047","732-UM","2018/01/25 18:19:22","新北市中和區中正路275號","121.495488333333","24.99371","6500300","中和區"
"235046","733-UM","2018/01/25 18:19:32","新北市中和區員山路36巷13號","121.484135","24.9907983333333","6500300","中和區"
"235062","800-TS","2018/01/25 18:19:25","新北市中和區景平路999巷2號","121.495351666667","25.00598","6500300","中和區"
"235041","802-TS","2018/01/25 18:19:35","新北市中和區中正路250號","121.495675","24.99392","6500300","中和區"
"235052","805-TS","2018/01/25 18:19:34","新北市中和區興南路二段40號","121.506875","24.985185","6500300","中和區"
"235048","896-TW","2018/01/25 18:19:31","新北市中和區錦和路350-1號","121.490223333333","24.9935533333333","6500300","中和區"
"235051","157-BY","2018/01/25 18:19:36","新北市中和區仁愛街93號","121.511955","24.986985","6500300","中和區"
"235037","AAC-213","2018/01/25 18:19:33","新北市中和區景德街26號","121.518388333333","24.991435","6500300","中和區"
"220086","073-UY","2018/01/25 18:19:30","新北市板橋區華東街1-10號","121.44827","24.9950316666667","6500100","板橋區"
"226004","312-R5","2018/01/25 18:19:27","新北市平溪區薯榔里雙菁路110號","121.705588333333","25.01903","6502400","平溪區"
"228003","097-TW","2018/01/25 18:19:36","新北市貢寮區和美里和美街63號","121.92215","25.0712666666667","6502600","貢寮區"
"228001","212-TW","2018/01/25 18:19:22","新北市貢寮區真理里新港街26巷55弄2-1號","121.927381666667","25.0528816666667","6502600","貢寮區"
"228002","663-BX","2018/01/25 18:19:38","新北市貢寮區福連里馬崗街25-1號","122.003655","25.01355","6502600","貢寮區"
"224006","676-BX","2018/01/25 18:19:29","新北市瑞芳區民權街3-2號","121.808048333333","25.1074116666667","6501200","瑞芳區"
"224002","639-TC","2018/01/25 18:19:24","新北市瑞芳區三爪子坑路153號","121.81064","25.106205","6501200","瑞芳區"
"224009","285-BY","2018/01/25 18:19:36","新北市瑞芳區金光路250號","121.855288333333","25.106545","6501200","瑞芳區"
"224008","275-VK","2018/01/25 18:19:36","新北市瑞芳區逢甲路84號","121.80956","25.10874","6501200","瑞芳區"
"224007","273-VK","2018/01/25 18:19:29","新北市瑞芳區大埔路43-1號","121.764908333333","25.102055","6501200","瑞芳區"
"224005","271-BY","2018/01/25 18:19:06","新北市瑞芳區建基路二段49號","121.806918333333","25.133395","6501200","瑞芳區"
"227010","642-TC","2018/01/25 18:19:30","新北市雙溪區牡丹里牡丹73號","121.85172","25.0593533333333","6502500","雙溪區"
"227004","400-TW","2018/01/25 18:19:39","新北市雙溪區共和里中山路2號","121.863791666667","25.0337833333333","6502500","雙溪區"
"253005","032-BX","2018/01/25 18:19:35","新北市石門區石門街1號","121.565928333333","25.2914116666667","6502200","石門區"
"253006","295-VK","2018/01/25 18:19:21","新北市石門區老梅路78號","121.547083333333","25.28925","6502200","石門區"
"222001","KEA-2212","2018/01/25 18:19:32","新北市深坑區北深路二段58號","121.619051666667","25.0044016666667","6501800","深坑區"
"208002","742-BX","2018/01/25 18:19:21","新北市金山區磺清路135號","121.639393333333","25.2273083333333","6502700","金山區"
"208003","665-BX","2018/01/25 18:19:34","新北市金山區民生路192號","121.646463333333","25.2225016666667","6502700","金山區"
"208001","761-BX","2018/01/25 18:19:22","新北市金山區中山路16號","121.641568333333","25.217725","6502700","金山區"
"251004","009-UM","2018/01/25 18:19:22","新北市淡水區民族路31巷36號","121.462428333333","25.1365483333333","6501000","淡水區"
"251005","010-UM","2018/01/25 18:19:33","新北市淡水區水源街一段122巷37號","121.447108333333","25.1704783333333","6501000","淡水區"
"251013","179-VK","2018/01/25 18:19:30","新北市淡水區行忠路897號","121.479021666667","25.2001733333333","6501000","淡水區"
"251014","180-VK","2018/01/25 18:19:35","新北市淡水區南平17號","121.490301666667","25.22032","6501000","淡水區"
"251008","181-VK","2018/01/25 18:19:38","新北市淡水區淡金路12-1號","121.45799","25.16028","6501000","淡水區"
"251015","182-VK","2018/01/25 18:19:29","新北市淡水區興福寮88巷1號","121.485538333333","25.165055","6501000","淡水區"
"251010","413-VK","2018/01/25 18:19:22","新北市淡水區淡海路199號","121.420418333333","25.1848816666667","6501000","淡水區"
"251012","441-VK","2018/01/25 18:19:26","新北市淡水區北新路二段77-5號","121.480491666667","25.185565","6501000","淡水區"
"251016","442-VK","2018/01/25 18:19:35","新北市淡水區淡金路三段228巷16號","121.449466666667","25.2049516666667","6501000","淡水區"
"251001","559-UM","2018/01/25 18:19:42","新北市淡水區自強路307巷1號","121.462155","25.1317733333333","6501000","淡水區"
"251006","561-UM","2018/01/25 18:19:31","新北市淡水區新民街76巷6號","121.438856666667","25.1765233333333","6501000","淡水區"
"251011","650-BX","2018/01/25 18:19:30","新北市淡水區坪頂路50號","121.45794","25.1624883333333","6501000","淡水區"
"251002","672-BX","2018/01/25 18:19:32","新北市淡水區中正東路一段77號","121.452796666667","25.1621533333333","6501000","淡水區"
"251003","766-UM","2018/01/25 18:19:28","新北市淡水區北新路169巷14號","121.449715","25.18013","6501000","淡水區"
"207004","291-VK","2018/01/25 18:19:34","新北市萬里區中幅里中福路39-2號","121.677235","25.1658366666667","6502800","萬里區"
"207003","225-TW","2018/01/25 18:19:40","新北市萬里區野柳里港東新村1號","121.686155","25.203035","6502800","萬里區"
"252002","178-VK","2018/01/25 18:19:28","新北市三芝區中山路二段35號","121.502843333333","25.2551966666667","6502100","三芝區"
"252003","249-BX","2018/01/25 18:19:24","新北市三芝區錫板里南勢崗5-5號","121.480715","25.263125","6502100","三芝區"
"252001","292-VK","2018/01/25 18:19:38","新北市三芝區中興街二段2號","121.498381666667","25.2566416666667","6502100","三芝區"
"237004","078-UY","2018/01/25 18:19:39","新北市三峽區圳頭92號","121.380085","24.8783233333333","6500900","三峽區"
"237007","153-BY","2018/01/25 18:19:22","新北市三峽區中正路二段534號","121.360756666667","24.9065066666667","6500900","三峽區"
"237009","210-TH","2018/01/25 18:19:29","新北市三峽區大仁路2號","121.366865","24.9376933333333","6500900","三峽區"
"237013","252-BX","2018/01/25 18:19:32","新北市三峽區中正路一段19巷9號","121.376425","24.93041","6500900","三峽區"
"237012","275-BY","2018/01/25 18:19:22","新北市三峽區民生街1巷5-13號","121.37857","24.935705","6500900","三峽區"
"237008","302-VK","2018/01/25 18:19:20","新北市三峽區白雞64-2號","121.385456666667","24.9127","6500900","三峽區"
"237014","433-BY","2018/01/25 18:19:24","新北市三峽區復興路110巷1弄21號","121.372213333333","24.9383533333333","6500900","三峽區"
"237006","5529-G3","2018/01/25 18:19:30","新北市三峽區溪東路235號","121.406548333333","24.9325883333333","6500900","三峽區"
"237016","649-BX","2018/01/25 18:19:34","新北市三峽區紫微路6號","121.4265","24.9224466666667","6500900","三峽區"
"237010","706-TV","2018/01/25 18:19:21","新北市三峽區仁愛街1號","121.368453333333","24.9341483333333","6500900","三峽區"
"237005","AKY-6261","2018/01/25 18:19:34","新北市三峽區秀川街26巷1號","121.371563333333","24.9343133333333","6500900","三峽區"
"236071","105-UM","2018/01/25 18:19:30","新北市土城區永豐路236號","121.467316666667","24.980985","6501300","土城區"
"236042","107-UM","2018/01/25 18:19:15","新北市土城區樂利街3巷32號","121.448636666667","24.9864483333333","6501300","土城區"
"236078","166-UM","2018/01/25 18:19:39","新北市土城區永平街5號","121.42767","24.9632116666667","6501300","土城區"
"236030","253-BX","2018/01/25 18:19:35","新北市土城區中央路二段180巷15號","121.441003333333","24.9765466666667","6501300","土城區"
"236026","269-VK","2018/01/25 18:19:23","新北市土城區承天路73號","121.440083333333","24.962985","6501300","土城區"
"236014","270-VK","2018/01/25 18:19:33","新北市土城區青雲路39巷7號","121.460285","24.9873483333333","6501300","土城區"
"236037","271-VK","2018/01/25 18:19:39","新北市土城區青雲路451巷8弄10號","121.459533333333","24.9742066666667","6501300","土城區"
"236021","401-BY","2018/01/25 18:19:39","新北市土城區明德路二段69號","121.451415","24.9810816666667","6501300","土城區"
"236058","912-UM","2018/01/25 18:19:28","新北市土城區中央路四段241號","121.413245","24.9550133333333","6501300","土城區"
"236051","913-UM","2018/01/25 18:19:28","新北市土城區明德路一段369號","121.455261666667","24.978005","6501300","土城區"
"236062","915-UM","2018/01/25 18:19:41","新北市土城區金城路三段185-1號","121.46978","24.9888166666667","6501300","土城區"
"236053","AAC-216","2018/01/25 18:19:41","新北市土城區中華路二段201號","121.437918333333","24.973905","6501300","土城區"
"242031","AAC-296","2018/01/25 18:19:25","新北市新莊區新泰路255巷15號","121.445425","25.039725","6500500","新莊區"
"242029","986-R7","2018/01/25 18:19:33","新北市新莊區中平路202號","121.444705","25.0487816666667","6500500","新莊區"
"242061","705-TV","2018/01/25 18:19:23","新北市新莊區新樹路138-1號","121.435293333333","25.0234833333333","6500500","新莊區"
"242025","615-BX","2018/01/25 18:19:44","新北市新莊區五工三路97號","121.458055","25.06542","6500500","新莊區"
"242027","612-BX","2018/01/25 18:19:38","新北市新莊區幸福路823號","121.445238333333","25.0490583333333","6500500","新莊區"
"242044","442-UM","2018/01/25 18:19:23","新北市新莊區新北大道七段728號","121.412608333333","25.0258333333333","6500500","新莊區"
"242053","440-UM","2018/01/25 18:19:37","新北市新莊區民安西路410巷9弄2號","121.42829","25.0092483333333","6500500","新莊區"
"242004","413-TV","2018/01/25 18:19:27","新北市新莊區中港一街54號","121.45033","25.0454666666667","6500500","新莊區"
"242042","400-BY","2018/01/25 18:19:43","新北市新莊區天祥街71巷25號","121.41551","25.02845","6500500","新莊區"
"242058","353-BY","2018/01/25 18:19:32","新北市新莊區新北大道七段852號","121.413905","25.023475","6500500","新莊區"
"242007","132-UY","2018/01/25 18:19:37","新北市新莊區中華路二段36-1號","121.453898333333","25.045515","6500500","新莊區"
"242046","172-VK","2018/01/25 18:19:36","新北市新莊區中正路831-14號","121.420783333333","25.0275883333333","6500500","新莊區"
"242009","173-VK","2018/01/25 18:19:28","新北市新莊區昌平街4號","121.45482","25.0524366666667","6500500","新莊區"
"242015","175-VK","2018/01/25 18:19:28","新北市新莊區中和街114號","121.44753","25.047435","6500500","新莊區"
"242002","176-VK","2018/01/25 18:19:38","新北市新莊區碧江街11號","121.455783333333","25.0349933333333","6500500","新莊區"
"242051","347-TH","2018/01/25 18:19:29","新北市新莊區民本街5巷1號","121.427903333333","25.0200333333333","6500500","新莊區"
"242056","349-TH","2018/01/25 18:19:07","新北市新莊區豐年街86號","121.446465","25.031045","6500500","新莊區"
"242011","351-TH","2018/01/25 18:19:31","新北市新莊區中港路615巷21弄3號","121.450051666667","25.052955","6500500","新莊區"
"238015","755-BX","2018/01/25 18:19:25","新北市樹林區文化街112巷55號","121.417725","24.9911533333333","6500700","樹林區"
"238023","601-UM","2018/01/25 18:19:26","新北市樹林區三福街67巷12號","121.407565","25.0158283333333","6500700","樹林區"
"238019","599-UM","2018/01/25 18:19:35","新北市樹林區中華路68號","121.419925","24.9814683333333","6500700","樹林區"
"238018","571-TV","2018/01/25 18:19:30","新北市樹林區保安街一段20巷2號","121.427606666667","24.9935883333333","6500700","樹林區"
"238024","5061-A6","2018/01/25 18:19:25","新北市樹林區中山路一段149-3號","121.42215","24.9891933333333","6500700","樹林區"
"238021","KEA-2217","2018/01/25 18:19:33","新北市樹林區柑園街二段61號","121.387003333333","24.9552433333333","6500700","樹林區"
"238025","303-VK","2018/01/25 18:19:34","新北市樹林區保安街二段37-1號","121.416265","25.00019","6500700","樹林區"
"238017","283-BY","2018/01/25 18:19:30","新北市樹林區中正路653號","121.412428333333","25.0128366666667","6500700","樹林區"
"238020","268-VK","2018/01/25 18:19:43","新北市樹林區三俊街56號","121.412796666667","25.0156566666667","6500700","樹林區"
"238026","172-UY","2018/01/25 18:19:42","新北市樹林區佳園路一段75巷14弄12號","121.395171666667","24.97003","6500700","樹林區"
"238016","169-UY","2018/01/25 18:19:31","新北市樹林區文化街28號","121.419258333333","24.9876783333333","6500700","樹林區"
"239007","AAC-297","2018/01/25 18:19:34","新北市鶯歌區育英街100號","121.34736","24.9517116666667","6500800","鶯歌區"
"239006","891-R6","2018/01/25 18:19:29","新北市鶯歌區德昌街140巷83號","121.332565","24.9623966666667","6500800","鶯歌區"
"239008","527-UM","2018/01/25 18:19:41","新北市鶯歌區國際一路14號","121.336215","24.9765633333333","6500800","鶯歌區"
"239005","526-UM","2018/01/25 18:19:42","新北市鶯歌區鶯桃路668巷59號","121.329458333333","24.971115","6500800","鶯歌區"
"239001","417-VK","2018/01/25 18:19:29","新北市鶯歌區國中街100號","121.34036","24.940455","6500800","鶯歌區"
"239003","360-BY","2018/01/25 18:19:33","新北市鶯歌區福安街58號","121.335601666667","24.9651966666667","6500800","鶯歌區"
"239002","359-BY","2018/01/25 18:19:35","新北市鶯歌區育英街17巷1弄3號","121.34749","24.9552233333333","6500800","鶯歌區"
"239004","193-VK","2018/01/25 18:19:23","新北市鶯歌區尖山路174巷35弄3號","121.344346666667","24.9485233333333","6500800","鶯歌區"
"221036","130-UY","2018/01/25 18:19:21","新北市汐止區大同路三段99號","121.668236666667","25.0774766666667","6501100","汐止區"
"221010","269-BY","2018/01/25 18:19:27","新北市汐止區祥雲街36號","121.647216666667","25.0897066666667","6501100","汐止區"
"221012","278-VK","2018/01/25 18:19:34","新北市汐止區保長路35巷20號","121.673266666667","25.0800366666667","6501100","汐止區"
"221023","279-VK","2018/01/25 18:19:31","新北市汐止區中興路244號","121.629576666667","25.0681766666667","6501100","汐止區"
"221032","280-BY","2018/01/25 18:19:40","新北市汐止區橫科路19號","121.617811666667","25.0512616666667","6501100","汐止區"
"221027","281-BY","2018/01/25 18:19:32","新北市汐止區和平街6巷8-1號","121.663496666667","25.0715666666667","6501100","汐止區"
"221002","297-VK","2018/01/25 18:19:28","新北市汐止區福德一路201巷23號","121.636055","25.0647833333333","6501100","汐止區"
"221029","298-VK","2018/01/25 18:19:40","新北市汐止區康寧街901號","121.651188333333","25.0750816666667","6501100","汐止區"
"221021","299-VK","2018/01/25 18:19:37","新北市汐止區連興街120號","121.65384","25.06253","6501100","汐止區"
"221031","353-TW","2018/01/25 18:19:40","新北市汐止區中興路202號","121.631303333333","25.0659916666667","6501100","汐止區"
"221008","358-BY","2018/01/25 18:19:21","新北市汐止區伯爵街2巷25號","121.642908333333","25.07557","6501100","汐止區"
"221015","567-BX","2018/01/25 18:18:26","新北市汐止區鄉長路二段146號","121.663603333333","25.0857666666667","6501100","汐止區"
"221035","622-UM","2018/01/25 18:19:38","新北市汐止區大同路二段175號","121.651323333333","25.0642966666667","6501100","汐止區"
"221025","623-UM","2018/01/25 18:19:23","新北市汐止區勤進路12巷39號","121.659071666667","25.06278","6501100","汐止區"
"221038","646-BX","2018/01/25 18:19:37","新北市汐止區仁愛路313號","121.664578333333","25.067435","6501100","汐止區"
"221033","647-BX","2018/01/25 18:19:33","新北市汐止區宜興街59巷9號","121.621976666667","25.0427533333333","6501100","汐止區"
"221018","753-BX","2018/01/25 18:19:30","新北市汐止區茄苳路118號","121.667935","25.07033","6501100","汐止區"
"242048","281-VK","2018/01/25 18:19:38","新北市樹林區俊興街244號","121.41808","25.0161416666667","6500500","新莊區"
"220064","486-VK","2018/01/25 18:19:40","新北市板橋區華東街1-10號","121.448376666667","24.994935","6500100","板橋區"
"242021","280-VK","2018/01/25 18:19:40","新北市新莊區新興街38巷2號","121.450711666667","25.0371366666667","6500500","新莊區"
"220054","741-BX","2018/01/25 18:19:26","新北市板橋區華東街1-9號","121.448115","24.99488","6500100","板橋區"
