"lineid","car","time","location","longitude","latitude","cityid","cityname"
"234046","148-BY","2018/01/25 18:59:29","新北市永和區秀朗路二段126巷30號","121.524595","25.0007716666667","6500400","永和區"
"234007","207-UY","2018/01/25 18:59:28","新北市永和區中山路一段27號","121.5135","25.0104433333333","6500400","永和區"
"234081","298-R6","2018/01/25 18:59:22","新北市永和區永亨路67號","121.521268333333","25.0060016666667","6500400","永和區"
"234038","336-UY","2018/01/25 18:59:21","新北市永和區成功路二段207號","121.52653","24.9959666666667","6500400","永和區"
"234064","337-UY","2018/01/25 18:59:27","新北市永和區秀朗路一段140號","121.518053333333","25.0033566666667","6500400","永和區"
"234086","338-UY","2018/01/25 18:59:20","新北市永和區中正路399號","121.517251666667","25.0043083333333","6500400","永和區"
"234070","552-UM","2018/01/25 18:59:19","新北市永和區中興街68巷5弄1號","121.517616666667","25.0115233333333","6500400","永和區"
"234017","745-BX","2018/01/25 18:59:40","新北市永和區永和路二段310號","121.516206666667","25.0160266666667","6500400","永和區"
"234030","746-BX","2018/01/25 18:59:24","新北市永和區四維街77號","121.525041666667","24.99809","6500400","永和區"
"234054","KEA-2590","2018/01/25 18:59:40","新北市永和區竹林路66巷2號","121.51836","25.0133633333333","6500400","永和區"
"234013","KEA-2591","2018/01/25 18:59:32","新北市永和區信義路17巷20號","121.51328","25.0111333333333","6500400","永和區"
"234061","AAD-866","2018/01/25 18:59:33","新北市永和區福和路307號","121.51624","25.00713","6500400","永和區"
"234042","862-TW","2018/01/25 18:59:26","新北市永和區永貞路308號","121.511795","25.0048566666667","6500400","永和區"
"234050","863-TW","2018/01/25 18:59:26","新北市永和區文化路194號","121.510723333333","25.0162216666667","6500400","永和區"
"234026","9371-KE","2018/01/25 18:59:31","新北市永和區自由街41-1號","121.513985","25.0060266666667","6500400","永和區"
"234011","9381-KE","2018/01/25 18:59:21","新北市永和區仁愛路141巷3弄1號","121.511683333333","25.0124983333333","6500400","永和區"
"249005","172-UM","2018/01/25 18:59:21","新北市八里區長道坑3-1號","121.393881666667","25.12415","6502300","八里區"
"249001","173-UM","2018/01/25 18:59:35","新北市八里區龍米路二段208號","121.433345","25.1585016666667","6502300","八里區"
"248016","026-BX","2018/01/25 18:59:28","新北市五股區成泰路三段543巷52-1號","121.449746666667","25.1030033333333","6501500","五股區"
"248006","077-UY","2018/01/25 18:59:25","新北市五股區中興路一段24號","121.46871","25.07242","6501500","五股區"
"248008","095-VK","2018/01/25 18:59:24","新北市五股區中興路一段126號","121.465641666667","25.0736216666667","6501500","五股區"
"248020","225-UY","2018/01/25 18:56:54","新北市五股區凌雲路三段57號","121.425298333333","25.1250033333333","6501500","五股區"
"248012","247-BX","2018/01/25 18:59:06","新北市五股區成泰路二段87號","121.438256666667","25.0840066666667","6501500","五股區"
"248010","272-BY","2018/01/25 18:59:34","新北市五股區登林路78-3號","121.42954","25.0708166666667","6501500","五股區"
"248004","677-BX","2018/01/25 18:59:22","新北市五股區民義路二段42號","121.414426666667","25.100895","6501500","五股區"
"234023","9380-KE","2018/01/25 18:59:36","新北市永和區竹林路91巷55弄1號","121.52193","25.0137733333333","6500400","永和區"
"234077","969-R7","2018/01/25 18:59:31","新北市永和區智光街27號","121.518128333333","24.9991516666667","6500400","永和區"
"234074","AAC-211","2018/01/25 18:59:35","新北市永和區環河東路二段100號","121.524115","25.0103116666667","6500400","永和區"
"234003","AAC-295","2018/01/25 18:59:35","新北市永和區和平街38號","121.512955","25.0099816666667","6500400","永和區"
"232011","375-UM","2018/01/25 18:59:24","新北市坪林區坪林街97號","121.71203","24.936415","6502000","坪林區"
"244013","069-UM","2018/01/25 18:59:27","新北市林口區麗園路2巷35號","121.374985","25.07106","6501700","林口區"
"244019","402-UM","2018/01/25 18:59:31","新北市林口區麗園二街58號","121.381238333333","25.0685566666667","6501700","林口區"
"244009","410-SL","2018/01/25 18:59:37","新北市林口區林口路362巷15號","121.392723333333","25.084475","6501700","林口區"
"244023","483-VK","2018/01/25 18:59:28","新北市林口區文林六街58號","121.370946666667","25.0817066666667","6501700","林口區"
"244017","485-VK","2018/01/25 18:59:21","新北市林口區公園路103號","121.36884","25.0699133333333","6501700","林口區"
"244011","656-BX","2018/01/25 18:59:40","新北市林口區仁愛路一段635號","121.389225","25.0766366666667","6501700","林口區"
"244025","837-TS","2018/01/25 18:59:25","新北市林口區忠孝路53號","121.365355","25.0749783333333","6501700","林口區"
"243012","AAD-798","2018/01/25 18:59:33","新北市泰山區仁德路106號","121.432463333333","25.0568883333333","6501600","泰山區"
"243015","380-SR","2018/01/25 18:59:31","新北市泰山區明志路一段203號","121.432688333333","25.0613883333333","6501600","泰山區"
"243014","421-VK","2018/01/25 18:59:37","新北市泰山區泰林路二段597號","121.421641666667","25.06349","6501600","泰山區"
"243010","KEA-2215","2018/01/25 18:59:37","新北市泰山區辭修路24號","121.429003333333","25.0581733333333","6501600","泰山區"
"243009","KEA-2216","2018/01/25 18:59:29","新北市泰山區泰林路二段240號","121.432223333333","25.0620983333333","6501600","泰山區"
"243013","646-TV","2018/01/25 18:59:28","新北市泰山區明志路三段351巷22號","121.42262","25.0348166666667","6501600","泰山區"
"243016","680-BX","2018/01/25 18:59:16","新北市泰山區明志路二段152-2號","121.427486666667","25.0505333333333","6501600","泰山區"
"222003","436-BY","2018/01/25 18:59:29","新北市深坑區深南路51-1號","121.621408333333","25.0101766666667","6501800","深坑區"
"222002","659-BX","2018/01/25 18:59:37","新北市深坑區文山路一段33號","121.62948","25.0038783333333","6501800","深坑區"
"231041","002-UM","2018/01/25 18:59:24","新北市新店區環河路78號","121.537006666667","24.963265","6500600","新店區"
"231059","046-UY","2018/01/25 18:59:30","新北市新店區安康路一段355號","121.519796666667","24.9630466666667","6500600","新店區"
"231061","047-UY","2018/01/25 18:59:21","新北市新店區安康路一段351-1號","121.519456666667","24.9638916666667","6500600","新店區"
"231060","106-UY","2018/01/25 18:59:24","新北市新店區安豐路45號","121.500265","24.9551766666667","6500600","新店區"
"231051","107-UY","2018/01/25 18:59:30","新北市新店區中央路22-1號","121.5333","24.978395","6500600","新店區"
"231047","108-UY","2018/01/25 18:59:28","新北市新店區德正街27巷29弄45號","121.545745","24.972125","6500600","新店區"
"231052","110-UY","2018/01/25 18:59:29","新北市新店區櫻花街55巷24號","121.548646666667","24.925885","6500600","新店區"
"231050","KEA-2219","2018/01/25 18:59:32","新北市新店區北宜路二段30巷5弄1號","121.548291666667","24.9507566666667","6500600","新店區"
"231046","278-BY","2018/01/25 18:59:26","新北市新店區直潭五街30號","121.534093333333","24.9415983333333","6500600","新店區"
"231054","AAD-862","2018/01/25 18:59:39","新北市新店區新店路13號","121.540315","24.9528716666667","6500600","新店區"
"231058","3712-VJ","2018/01/25 18:59:24","新北市新店區中興路一段121號","121.541613333333","24.9630033333333","6500600","新店區"
"231056","3713-VJ","2018/01/25 18:59:26","新北市新店區二十張路33巷22號","121.53923","24.9806733333333","6500600","新店區"
"231055","4716-K9","2018/01/25 18:59:19","新北市新店區新生街18巷36號","121.539686666667","24.9668816666667","6500600","新店區"
"231067","4772-VM","2018/01/25 18:59:19","新北市新店區安康路一段247巷21弄2號","121.524916666667","24.9623183333333","6500600","新店區"
"231065","512-UM","2018/01/25 18:59:39","新北市新店區安祥路147巷1號","121.47473","24.9542216666667","6500600","新店區"
"231064","515-UM","2018/01/25 18:59:37","新北市新店區安康路一段355號","121.51981","24.9630983333333","6500600","新店區"
"231042","616-UM","2018/01/25 18:59:24","新北市新店區中正路7號","121.545676666667","24.9693566666667","6500600","新店區"
"231040","619-UM","2018/01/25 18:59:21","新北市新店區中正路397號","121.534546666667","24.9773283333333","6500600","新店區"
"231063","645-TV","2018/01/25 18:59:30","新北市新店區車子路109號","121.505245","24.95211","6500600","新店區"
"231049","719-UM","2018/01/25 18:59:26","新北市新店區中正路450號","121.534416666667","24.9790183333333","6500600","新店區"
"231062","720-UM","2018/01/25 18:59:26","新北市新店區吉安街39號","121.515443333333","24.966105","6500600","新店區"
"231044","897-TW","2018/01/25 18:59:33","新北市新店區寶中路87號","121.54792","24.9806966666667","6500600","新店區"
"231045","898-TW","2018/01/25 18:59:23","新北市新店區光明街1-1號","121.538095","24.9592516666667","6500600","新店區"
"231043","899-TW","2018/01/25 18:59:23","新北市新店區北新路二段1號","121.542636666667","24.971245","6500600","新店區"
"231066","AKT-0513","2018/01/25 18:59:21","新北市新店區安康路二段456巷6號","121.493815","24.9542266666667","6500600","新店區"
"241011","013-R5","2018/01/25 18:59:24","新北市三重區河邊北街100巷1號","121.503803333333","25.070475","6500200","三重區"
"235066","003-UY","2018/01/25 18:59:09","新北市中和區中山路二段131巷12號","121.502866666667","25.0021033333333","6500300","中和區"
"235064","005-UY","2018/01/25 18:59:35","新北市中和區泰和街2號","121.500048333333","25.0012083333333","6500300","中和區"
"235063","006-UY","2018/01/25 18:59:24","新北市中和區錦和路95號","121.490063333333","24.9956016666667","6500300","中和區"
"235057","031-BX","2018/01/25 18:59:33","新北市中和區民安街25巷12弄28號","121.479578333333","24.99958","6500300","中和區"
"235056","096-UM","2018/01/25 18:59:34","新北市中和區員山路466巷17弄3號","121.480618333333","25.0068816666667","6500300","中和區"
"235039","097-UM","2018/01/25 18:59:33","新北市中和區宜安路52巷24號","121.512631666667","24.9974833333333","6500300","中和區"
"235065","098-UM","2018/01/25 18:59:24","新北市中和區勝利路35巷9弄22號","121.500073333333","25.0074733333333","6500300","中和區"
"235040","150-BY","2018/01/25 18:59:33","新北市中和區宜安路1巷8號","121.513081666667","24.995125","6500300","中和區"
"235058","151-BY","2018/01/25 18:59:24","新北市中和區連城路378號","121.481005","24.9952166666667","6500300","中和區"
"235055","183-VK","2018/01/25 18:59:36","新北市中和區民德路10號","121.468775","25.0027766666667","6500300","中和區"
"235038","185-VK","2018/01/25 18:59:22","新北市中和區立人街24-5號","121.518683333333","24.9940866666667","6500300","中和區"
"235013","186-VK","2018/01/25 18:59:32","新北市中和區景安路177巷28號","121.506581666667","24.994435","6500300","中和區"
"235067","255-BX","2018/01/25 18:59:21","新北市中和區民樂路81號","121.484581666667","25.00128","6500300","中和區"
"235044","293-VK","2018/01/25 18:59:35","新北市中和區中興街161巷10弄2號","121.501158333333","24.9909233333333","6500300","中和區"
"235072","301-VK","2018/01/25 18:59:20","新北市中和區水源路3巷7號","121.503548333333","25.0037583333333","6500300","中和區"
"235043","352-BY","2018/01/25 18:59:31","新北市中和區成功路41巷1號","121.52613","24.99331","6500300","中和區"
"235068","377-QA","2018/01/25 18:59:25","新北市中和區圓通路265巷26號","121.495476666667","24.99255","6500300","中和區"
"235061","378-QA","2018/01/25 18:59:29","新北市中和區民治街130巷10號","121.474736666667","25.00265","6500300","中和區"
"235050","4979-A6","2018/01/25 18:59:21","新北市中和區忠孝街35號","121.510603333333","24.9832716666667","6500300","中和區"
"235069","4980-A6","2018/01/25 18:59:26","新北市中和區南山路52巷14號","121.501446666667","24.9974316666667","6500300","中和區"
"235042","551-UM","2018/01/25 18:59:31","新北市中和區秀朗路三段128巷31-1號","121.524713333333","24.9944166666667","6500300","中和區"
"235045","565-BX","2018/01/25 18:59:17","新北市中和區景新街467巷3號","121.513623333333","24.9882033333333","6500300","中和區"
"235054","640-BX","2018/01/25 18:59:20","新北市中和區民享街27巷2號","121.474101666667","25.004585","6500300","中和區"
"235060","647-TV","2018/01/25 18:59:31","新北市中和區中山路三段145號","121.473878333333","25.006135","6500300","中和區"
"235047","732-UM","2018/01/25 18:59:22","新北市中和區興南路二段74巷16號","121.505446666667","24.9850716666667","6500300","中和區"
"235046","733-UM","2018/01/25 18:59:32","新北市中和區興南路二段11號","121.508213333333","24.9861033333333","6500300","中和區"
"235062","800-TS","2018/01/25 18:59:25","新北市中和區中山路二段398號","121.490221666667","25.0037833333333","6500300","中和區"
"235041","802-TS","2018/01/25 18:59:35","新北市中和區安平路100號","121.511505","24.9972533333333","6500300","中和區"
"235052","805-TS","2018/01/25 18:59:34","新北市中和區興南路二段347-2號","121.501013333333","24.980395","6500300","中和區"
"235048","896-TW","2018/01/25 18:59:31","新北市中和區華新街111號","121.508466666667","24.981575","6500300","中和區"
"235053","900-TW","2018/01/25 18:59:38","新北市中和區壽德街33-3號","121.466505","24.994565","6500300","中和區"
"235051","157-BY","2018/01/25 18:59:36","新北市中和區忠孝街9號","121.509913333333","24.9830033333333","6500300","中和區"
"235037","AAC-213","2018/01/25 18:59:33","新北市中和區自立路17號","121.522236666667","24.9960616666667","6500300","中和區"
"235059","AAC-215","2018/01/25 18:59:38","新北市中和區圓通路369巷5弄12號","121.491493333333","24.98843","6500300","中和區"
"220068","013-TV","2018/01/25 18:59:29","新北市板橋區三民路一段31巷42號","121.481071666667","25.0230133333333","6500100","板橋區"
"220065","072-UY","2018/01/25 18:59:36","新北市板橋區民族路287巷8號","121.47127","25.0071266666667","6500100","板橋區"
"220034","073-UY","2018/01/25 18:59:30","新北市板橋區中正路80巷11號","121.457346666667","25.01458","6500100","板橋區"
"220106","075-UY","2018/01/25 18:59:19","新北市板橋區文化路二段124巷28-2號","121.471216666667","25.025615","6500100","板橋區"
"220069","AAD-861","2018/01/25 18:59:18","新北市板橋區華興街73-1號","121.457103333333","25.005055","6500100","板橋區"
"220096","120-SR","2018/01/25 18:59:30","新北市板橋區莒光路99號","121.47248","25.0240083333333","6500100","板橋區"
"226004","312-R5","2018/01/25 18:59:27","新北市平溪區靜安路二段492號","121.743518333333","25.026495","6502400","平溪區"
"228003","097-TW","2018/01/25 18:59:36","新北市貢寮區和美里龍洞街39號","121.915216666667","25.1109516666667","6502600","貢寮區"
"228001","212-TW","2018/01/25 18:59:22","新北市貢寮區仁理村保健街71號","121.923728333333","25.0516433333333","6502600","貢寮區"
"228002","663-BX","2018/01/25 18:59:38","新北市貢寮區福隆里東興街106巷25弄1號","121.946438333333","25.0182916666667","6502600","貢寮區"
"224010","AGQ-8101","2018/01/25 18:58:21","新北市瑞芳區基山街85號","121.844846666667","25.1082816666667","6501200","瑞芳區"
"224006","676-BX","2018/01/25 18:59:37","新北市瑞芳區中正路13號","121.808108333333","25.1070266666667","6501200","瑞芳區"
"224009","285-BY","2018/01/25 18:59:21","新北市瑞芳區祈堂路53-1號","121.859536666667","25.1104383333333","6501200","瑞芳區"
"224008","275-VK","2018/01/25 18:59:35","新北市瑞芳區逢甲路343-1號","121.800266666667","25.112245","6501200","瑞芳區"
"224007","273-VK","2018/01/25 18:59:33","新北市瑞芳區中央路48巷56-26號","121.759368333333","25.10387","6501200","瑞芳區"
"224005","271-BY","2018/01/25 18:59:37","新北市瑞芳區濱二路40號","121.83291","25.1165833333333","6501200","瑞芳區"
"227010","642-TC","2018/01/25 18:59:30","新北市雙溪區牡丹里中正路58巷23號","121.86643","25.0416516666667","6502500","雙溪區"
"227004","400-TW","2018/01/25 18:59:39","新北市雙溪區平林里康福家園10號","121.858803333333","25.037345","6502500","雙溪區"
"253005","032-BX","2018/01/25 18:59:26","新北市石門區中央路37-5號","121.569215","25.2962483333333","6502200","石門區"
"253006","295-VK","2018/01/25 18:59:21","新北市石門區下員坑30-7號","121.519781666667","25.2821966666667","6502200","石門區"
"222001","KEA-2212","2018/01/25 18:59:32","新北市深坑區北深路一段98號","121.635741666667","25.0107033333333","6501800","深坑區"
"208002","742-BX","2018/01/25 18:59:27","新北市金山區信義路33號","121.63551","25.2197583333333","6502700","金山區"
"208003","665-BX","2018/01/25 18:59:34","新北市金山區中正路2號","121.63565","25.2222033333333","6502700","金山區"
"208001","761-BX","2018/01/25 18:59:22","新北市金山區中山路85號","121.640235","25.21871","6502700","金山區"
"251009","008-UM","2018/01/25 18:59:26","新北市淡水區重建街63號","121.439861666667","25.1718966666667","6501000","淡水區"
"251013","179-VK","2018/01/25 18:59:30","新北市淡水區安子內12號","121.481563333333","25.2190683333333","6501000","淡水區"
"251014","180-VK","2018/01/25 18:59:36","新北市淡水區小中寮31號","121.490206666667","25.2273183333333","6501000","淡水區"
"251015","182-VK","2018/01/25 18:59:29","新北市淡水區糞箕湖60號","121.48521","25.1722733333333","6501000","淡水區"
"251010","413-VK","2018/01/25 18:59:22","新北市淡水區沙崙路97號","121.422276666667","25.1823833333333","6501000","淡水區"
"251016","442-VK","2018/01/25 18:59:41","新北市淡水區淡金路三段325號","121.448973333333","25.2060633333333","6501000","淡水區"
"251001","559-UM","2018/01/25 18:59:22","新北市淡水區自強路60號","121.463193333333","25.127615","6501000","淡水區"
"251002","672-BX","2018/01/25 18:59:32","新北市淡水區學府路8號","121.447431666667","25.1678933333333","6501000","淡水區"
"251003","766-UM","2018/01/25 18:59:27","新北市淡水區中山北路一段149巷27號","121.442961666667","25.1778933333333","6501000","淡水區"
"207004","291-VK","2018/01/25 18:59:34","新北市萬里區萬里里獅頭路23號","121.693231666667","25.1782266666667","6502800","萬里區"
"207003","225-TW","2018/01/25 18:59:20","新北市萬里區大鵬里頂社40號","121.656118333333","25.21122","6502800","萬里區"
"252002","178-VK","2018/01/25 18:59:28","新北市三芝區中正路一段67-1號","121.50397","25.2573316666667","6502100","三芝區"
"252003","249-BX","2018/01/25 18:59:25","新北市三芝區後厝里北勢子42-3號","121.472205","25.2525866666667","6502100","三芝區"
"252001","292-VK","2018/01/25 18:59:38","新北市三芝區中興街二段260號","121.501718333333","25.253065","6502100","三芝區"
"237004","078-UY","2018/01/25 18:59:22","新北市三峽區有木183-2號","121.446376666667","24.8373766666667","6500900","三峽區"
"237007","153-BY","2018/01/25 18:59:22","新北市三峽區大埔路12號","121.365951666667","24.9095366666667","6500900","三峽區"
"237009","210-TH","2018/01/25 18:59:29","新北市三峽區大同路202-1號","121.36767","24.927825","6500900","三峽區"
"237013","252-BX","2018/01/25 18:59:32","新北市三峽區光明路69巷25號","121.37676","24.9292566666667","6500900","三峽區"
"237012","275-BY","2018/01/25 18:59:22","新北市樹林區佳園路三段620號","121.379315","24.94351","6500900","三峽區"
"237008","302-VK","2018/01/25 18:59:19","新北市三峽區正義街18號","121.369316666667","24.9188433333333","6500900","三峽區"
"237014","433-BY","2018/01/25 18:59:24","新北市三峽區隆恩街168-10號","121.363201666667","24.9431633333333","6500900","三峽區"
"237006","5529-G3","2018/01/25 18:59:30","新北市三峽區溪東路233巷2弄1號","121.406971666667","24.9333483333333","6500900","三峽區"
"237016","649-BX","2018/01/25 18:59:34","新北市三峽區建安77-1號","121.45106","24.9242016666667","6500900","三峽區"
"237010","706-TV","2018/01/25 18:59:21","新北市三峽區國光街362號","121.371006666667","24.9397383333333","6500900","三峽區"
"237005","AKY-6261","2018/01/25 18:59:34","新北市三峽區中山路459巷131號","121.351356666667","24.9352016666667","6500900","三峽區"
"236071","105-UM","2018/01/25 18:59:30","新北市土城區清水路85巷3弄21號","121.456785","24.9826583333333","6501300","土城區"
"236042","107-UM","2018/01/25 18:59:35","新北市土城區學府路一段219巷9號","121.451973333333","24.98394","6501300","土城區"
"236078","166-UM","2018/01/25 18:59:18","新北市土城區中央路四段307-1號","121.41096","24.95181","6501300","土城區"
"236030","253-BX","2018/01/25 18:59:35","新北市土城區慶利街9號","121.4396","24.9736533333333","6501300","土城區"
"236026","269-VK","2018/01/25 18:59:23","新北市土城區中正路56巷7號","121.444038333333","24.97497","6501300","土城區"
"236014","270-VK","2018/01/25 18:59:33","新北市土城區延和路13巷1號","121.463633333333","24.9884416666667","6501300","土城區"
"236037","271-VK","2018/01/25 18:59:19","新北市土城區明德路一段240巷12號","121.460268333333","24.9777966666667","6501300","土城區"
"236021","401-BY","2018/01/25 18:59:19","新北市土城區明峰街55號","121.467675","24.9865416666667","6501300","土城區"
"236058","912-UM","2018/01/25 18:59:28","新北市土城區金城路二段58號","121.452253333333","24.9796333333333","6501300","土城區"
"236051","913-UM","2018/01/25 18:59:28","新北市土城區青雲路322巷2弄4號","121.458276666667","24.9773","6501300","土城區"
"236062","915-UM","2018/01/25 18:59:28","新北市土城區延和路41巷15號","121.46591","24.9897983333333","6501300","土城區"
"236053","AAC-216","2018/01/25 18:59:38","新北市土城區學成路164號","121.448033333333","24.9891083333333","6501300","土城區"
"242056","349-TH","2018/01/25 18:59:27","新北市新莊區環河路636-7號","121.437438333333","25.01169","6500500","新莊區"
"238023","601-UM","2018/01/25 18:59:26","新北市樹林區工興街15號","121.398275","25.01375","6500700","樹林區"
"238019","599-UM","2018/01/25 18:59:35","新北市樹林區東榮街91巷1弄2號","121.416255","24.9823616666667","6500700","樹林區"
"238018","571-TV","2018/01/25 18:59:10","新北市樹林區中華路128號","121.417475","24.980465","6500700","樹林區"
"238021","KEA-2217","2018/01/25 18:59:13","新北市樹林區西圳街二段123巷6弄1號","121.384591666667","24.9570233333333","6500700","樹林區"
"238022","KEA-2213","2018/01/25 18:59:23","新北市樹林區東興街2-2號","121.409231666667","24.9796683333333","6500700","樹林區"
"238025","303-VK","2018/01/25 18:59:34","新北市樹林區中山路三段134號","121.391926666667","24.9722183333333","6500700","樹林區"
"238017","283-BY","2018/01/25 18:59:30","新北市樹林區中山路三段125-1號","121.397126666667","24.9734533333333","6500700","樹林區"
"238014","282-BY","2018/01/25 18:59:33","新北市樹林區潭興街141巷2號","121.425645","24.9995583333333","6500700","樹林區"
"238020","268-VK","2018/01/25 18:59:23","新北市樹林區俊英街83巷1號","121.4258","25.0080183333333","6500700","樹林區"
"238026","172-UY","2018/01/25 18:59:22","新北市樹林區中山路三段160-1號","121.389273333333","24.970275","6500700","樹林區"
"238016","169-UY","2018/01/25 18:59:31","新北市樹林區文化街25巷33號","121.41788","24.98638","6500700","樹林區"
"239007","AAC-297","2018/01/25 18:59:34","新北市鶯歌區成功街6巷26號","121.359265","24.9574133333333","6500800","鶯歌區"
"239008","527-UM","2018/01/25 18:59:21","新北市鶯歌區國際二路68號","121.335128333333","24.9763316666667","6500800","鶯歌區"
"239005","526-UM","2018/01/25 18:59:22","新北市鶯歌區鳳吉一街170號","121.329003333333","24.9756483333333","6500800","鶯歌區"
"239001","417-VK","2018/01/25 18:59:29","新北市鶯歌區永明街60巷7號","121.340666666667","24.9554066666667","6500800","鶯歌區"
"239003","360-BY","2018/01/25 18:59:32","新北市鶯歌區鶯桃路658巷49-2號","121.331006666667","24.970425","6500800","鶯歌區"
"239002","359-BY","2018/01/25 18:59:35","新北市鶯歌區中正一路460號","121.364343333333","24.95639","6500800","鶯歌區"
"239004","193-VK","2018/01/25 18:59:23","新北市鶯歌區中正三路282巷12弄7號","121.328188333333","24.9372466666667","6500800","鶯歌區"
"221036","130-UY","2018/01/25 18:59:21","新北市汐止區水碓街63號","121.665088333333","25.0686116666667","6501100","汐止區"
"221010","269-BY","2018/01/25 18:59:27","新北市汐止區康寧街901號","121.651553333333","25.0749266666667","6501100","汐止區"
"221012","278-VK","2018/01/25 18:59:34","新北市汐止區康寧街901號","121.650803333333","25.0752333333333","6501100","汐止區"
"221023","279-VK","2018/01/25 18:59:31","新北市汐止區康寧街901號","121.650946666667","25.0751933333333","6501100","汐止區"
"221032","280-BY","2018/01/25 18:59:20","新北市汐止區橫科路407巷30弄28號","121.627311666667","25.0482683333333","6501100","汐止區"
"221027","281-BY","2018/01/25 18:59:32","新北市汐止區康寧街901號","121.651468333333","25.0749866666667","6501100","汐止區"
"221002","297-VK","2018/01/25 18:59:28","新北市汐止區大同路一段2號","121.621063333333","25.05503","6501100","汐止區"
"221029","298-VK","2018/01/25 18:59:20","新北市汐止區樟樹一路254號","121.642441666667","25.0672866666667","6501100","汐止區"
"221031","353-TW","2018/01/25 18:59:20","新北市汐止區福德一路300巷2弄1號","121.631085","25.06366","6501100","汐止區"
"221008","358-BY","2018/01/25 18:59:22","新北市汐止區康寧街753巷2弄12號","121.639433333333","25.074035","6501100","汐止區"
"221015","567-BX","2018/01/25 18:59:26","新北市汐止區鄉長路一段55巷22號","121.664766666667","25.076315","6501100","汐止區"
"221025","623-UM","2018/01/25 18:59:23","新北市汐止區汐萬路一段256巷3號","121.652505","25.07458","6501100","汐止區"
"221038","646-BX","2018/01/25 18:59:37","新北市汐止區汐萬路一段312號","121.650683333333","25.0752966666667","6501100","汐止區"
"221033","647-BX","2018/01/25 18:59:32","新北市汐止區南勢街1巷1號","121.627068333333","25.0374216666667","6501100","汐止區"
"221018","753-BX","2018/01/25 18:59:30","新北市汐止區大同路二段370號","121.657665","25.067225","6501100","汐止區"
"220079","145-BY","2018/01/25 18:59:28","新北市板橋區民權路202巷12弄1號","121.460543333333","25.0156883333333","6500100","板橋區"
"220080","200-UY","2018/01/25 18:59:26","新北市板橋區大觀路二段265巷1弄24號","121.443956666667","24.9983416666667","6500100","板橋區"
"220082","610-BX","2018/01/25 18:59:29","新北市板橋區篤行路二段136號","121.429896666667","24.9885116666667","6500100","板橋區"
"220101","245-BX","2018/01/25 18:59:38","新北市板橋區文化路二段182巷7弄1號","121.471781666667","25.026785","6500100","板橋區"
"220102","255-TC","2018/01/25 18:59:38","新北市板橋區雙十路一段44巷36號","121.477166666667","25.024755","6500100","板橋區"
"220052","257-TC","2018/01/25 18:59:38","新北市板橋區民生路二段121號","121.470846666667","25.0183866666667","6500100","板橋區"
"220056","276-BY","2018/01/25 18:59:20","新北市板橋區信義路152號","121.458956666667","24.9917616666667","6500100","板橋區"
"220072","277-BY","2018/01/25 18:59:30","新北市板橋區篤行路一段29號","121.432","24.99467","6500100","板橋區"
"220094","283-UM","2018/01/25 18:59:27","新北市板橋區文化路二段76號","121.469483333333","25.0250216666667","6500100","板橋區"
"220071","283-VK","2018/01/25 18:59:32","新北市板橋區重慶路243號","121.463145","25.00061","6500100","板橋區"
"220053","285-VK","2018/01/25 18:59:28","新北市板橋區中山路二段89巷1號","121.473956666667","25.0162266666667","6500100","板橋區"
"220083","286-VK","2018/01/25 18:59:20","新北市板橋區大觀路一段38巷156弄77號","121.443013333333","25.0067666666667","6500100","板橋區"
"220081","287-VK","2018/01/25 18:59:19","新北市板橋區光華街19巷70號","121.452838333333","25.011885","6500100","板橋區"
"220090","288-VK","2018/01/25 18:59:31","新北市板橋區四維路177巷1弄2號","121.463991666667","25.0261666666667","6500100","板橋區"
"220061","293-UM","2018/01/25 18:59:26","新北市板橋區富山街85巷6弄2號","121.476583333333","25.02116","6500100","板橋區"
"220062","295-UM","2018/01/25 18:59:22","新北市板橋區民享街143號","121.47756","25.016935","6500100","板橋區"
"220084","296-UM","2018/01/25 18:59:20","新北市板橋區龍興街9號","121.442698333333","24.999505","6500100","板橋區"
"220075","303-R5","2018/01/25 18:59:30","新北市板橋區館前西路213巷5號","121.454531666667","25.0083566666667","6500100","板橋區"
"220092","307-R5","2018/01/25 18:59:21","新北市板橋區漢生東路21號","121.464815","25.0171816666667","6500100","板橋區"
"220098","317-R6","2018/01/25 18:59:40","新北市板橋區民有街28號","121.466113333333","25.025275","6500100","板橋區"
"220064","486-VK","2018/01/25 18:59:20","新北市板橋區漢生東路178號","121.467298333333","25.0143566666667","6500100","板橋區"
"220089","487-VK","2018/01/25 18:59:31","新北市板橋區文化路二段317號","121.472191666667","25.0298216666667","6500100","板橋區"
"220088","491-VK","2018/01/25 18:59:32","新北市板橋區民生路二段216號","121.469335","25.0215333333333","6500100","板橋區"
"220035","560-BX","2018/01/25 18:59:28","新北市板橋區中正路325巷23號","121.454221666667","25.019695","6500100","板橋區"
"220055","568-UM","2018/01/25 18:59:34","新北市板橋區中山路一段158巷20號","121.466328333333","25.011085","6500100","板橋區"
"220063","609-BX","2018/01/25 18:59:34","新北市板橋區中山路二段126號","121.476228333333","25.016885","6500100","板橋區"
"220091","637-BX","2018/01/25 18:59:21","新北市板橋區莒光路165巷32-2號","121.474216666667","25.0248916666667","6500100","板橋區"
"220057","686-BX","2018/01/25 18:59:34","新北市板橋區館前西路46巷2號","121.458946666667","25.0070383333333","6500100","板橋區"
"220077","687-BX","2018/01/25 18:59:28","新北市板橋區大觀路二段297號","121.442136666667","24.9987633333333","6500100","板橋區"
"220093","689-BX","2018/01/25 18:59:36","新北市板橋區民生路三段42號","121.467235","25.0249533333333","6500100","板橋區"
"220054","741-BX","2018/01/25 18:59:26","新北市板橋區重慶路127巷18號","121.463565","25.0049216666667","6500100","板橋區"
"220067","829-TW","2018/01/25 18:59:38","新北市板橋區三民路186巷13-1號","121.478656666667","25.0150316666667","6500100","板橋區"
"220074","895-R6","2018/01/25 18:59:26","新北市板橋區林園街51號","121.453701666667","25.010105","6500100","板橋區"
"220073","985-R7","2018/01/25 18:59:21","新北市板橋區民權路240號","121.458473333333","25.014535","6500100","板橋區"
"220097","AAC-210","2018/01/25 18:59:22","新北市板橋區四維路137巷31號","121.46371","25.024545","6500100","板橋區"
"220070","AAC-253","2018/01/25 18:59:25","新北市板橋區四川路一段278號","121.458796666667","25.0009433333333","6500100","板橋區"
