"lineid","car","time","location","longitude","latitude","cityid","cityname"
"234046","148-BY","2018/01/25 19:19:01","新北市永和區得和路275號","121.522388333333","24.9996883333333","6500400","永和區"
"234007","207-UY","2018/01/25 19:19:07","新北市永和區中山路一段303號","121.506541666667","25.00669","6500400","永和區"
"234081","298-R6","2018/01/25 19:19:01","新北市永和區福和路7巷3號","121.525135","25.0081466666667","6500400","永和區"
"234038","336-UY","2018/01/25 19:19:01","新北市永和區民樂街59巷3號","121.527831666667","24.99828","6500400","永和區"
"234064","337-UY","2018/01/25 19:19:04","新北市永和區永元路17巷6弄1號","121.521418333333","25.0008416666667","6500400","永和區"
"234086","338-UY","2018/01/25 19:19:00","新北市永和區永亨路2號","121.519188333333","25.0055","6500400","永和區"
"234070","552-UM","2018/01/25 19:19:00","新北市永和區豫溪街49號","121.517068333333","25.009935","6500400","永和區"
"234017","745-BX","2018/01/25 19:19:00","新北市永和區文化路144巷31弄8號","121.512378333333","25.0168033333333","6500400","永和區"
"234030","746-BX","2018/01/25 19:19:03","新北市永和區民生路45號","121.522716666667","24.9978866666667","6500400","永和區"
"234054","KEA-2590","2018/01/25 19:19:00","新北市永和區中興街44號","121.516618333333","25.011635","6500400","永和區"
"234013","KEA-2591","2018/01/25 19:19:02","新北市永和區信義路75號","121.512648333333","25.0129583333333","6500400","永和區"
"234061","AAD-866","2018/01/25 19:18:53","新北市永和區秀朗路一段114號","121.51691","25.0037383333333","6500400","永和區"
"234042","862-TW","2018/01/25 19:19:00","新北市永和區保平路177巷6弄11號","121.509388333333","25.00449","6500400","永和區"
"234050","863-TW","2018/01/25 19:19:06","新北市永和區保福路二段88巷19號","121.511613333333","25.0139416666667","6500400","永和區"
"234026","9371-KE","2018/01/25 19:18:51","新北市永和區安樂路144巷24號","121.515196666667","24.9996383333333","6500400","永和區"
"234011","9381-KE","2018/01/25 19:19:01","新北市永和區保福路二段37號","121.510868333333","25.0114433333333","6500400","永和區"
"249001","173-UM","2018/01/25 19:18:54","新北市八里區中華路二段61-2號","121.409993333333","25.1531666666667","6502300","八里區"
"249003","593-UM","2018/01/25 19:18:50","新北市八里區中山路二段446號","121.39944","25.14747","6502300","八里區"
"248020","225-UY","2018/01/25 18:56:54","新北市五股區凌雲路三段57號","121.425298333333","25.1250033333333","6501500","五股區"
"248012","247-BX","2018/01/25 19:19:06","新北市五股區中興路四段48巷16號","121.438611666667","25.0834283333333","6501500","五股區"
"248010","272-BY","2018/01/25 19:18:54","新北市五股區自強路90巷72號","121.43081","25.0711766666667","6501500","五股區"
"248004","677-BX","2018/01/25 19:19:04","新北市五股區五福路115號","121.432048333333","25.0910816666667","6501500","五股區"
"234023","9380-KE","2018/01/25 19:18:56","新北市永和區竹林路124巷34號","121.51808","25.01121","6500400","永和區"
"234077","969-R7","2018/01/25 19:19:03","新北市永和區民族街44號","121.518328333333","24.99881","6500400","永和區"
"234074","AAC-211","2018/01/25 19:18:55","新北市永和區竹林路94-1號","121.519533333333","25.01228","6500400","永和區"
"234003","AAC-295","2018/01/25 19:18:55","新北市永和區永平路186-1號","121.510378333333","25.0092533333333","6500400","永和區"
"244013","069-UM","2018/01/25 19:19:07","新北市林口區麗園一街4巷1號","121.37651","25.0713633333333","6501700","林口區"
"244019","402-UM","2018/01/25 19:18:52","新北市林口區麗園二街1巷2-2號","121.37692","25.0698616666667","6501700","林口區"
"244023","483-VK","2018/01/25 19:18:48","新北市林口區文化三路一段636-1號","121.371883333333","25.0771183333333","6501700","林口區"
"244017","485-VK","2018/01/25 19:19:01","新北市林口區寶斗厝坑7-2號","121.357085","25.0988683333333","6501700","林口區"
"244011","656-BX","2018/01/25 19:18:53","新北市林口區中山路200號","121.388721666667","25.0791033333333","6501700","林口區"
"243012","AAD-798","2018/01/25 19:18:53","新北市泰山區仁愛路100巷29號","121.433555","25.05508","6501600","泰山區"
"243011","297-R6","2018/01/25 19:18:46","新北市泰山區中央路11巷16號","121.426663333333","25.0425466666667","6501600","泰山區"
"243015","380-SR","2018/01/25 19:19:06","新北市泰山區公園路29號","121.428616666667","25.0544766666667","6501600","泰山區"
"243014","421-VK","2018/01/25 19:18:51","新北市泰山區泰林路二段137號","121.43409","25.0599533333333","6501600","泰山區"
"243010","KEA-2215","2018/01/25 19:18:56","新北市泰山區明志路一段492巷4弄1號","121.429938333333","25.0548633333333","6501600","泰山區"
"243009","KEA-2216","2018/01/25 19:19:03","新北市泰山區明志路一段19巷12號","121.43436","25.0656166666667","6501600","泰山區"
"243013","646-TV","2018/01/25 19:18:48","新北市泰山區明志路三段145巷9號","121.42551","25.0398816666667","6501600","泰山區"
"243016","680-BX","2018/01/25 19:18:58","新北市泰山區明志路三段151-1號","121.424923333333","25.040025","6501600","泰山區"
"222003","436-BY","2018/01/25 19:18:49","新北市深坑區深南路204號","121.626673333333","25.015995","6501800","深坑區"
"222002","659-BX","2018/01/25 19:18:57","新北市深坑區紅葉街10巷1號","121.632976666667","25.011785","6501800","深坑區"
"231041","002-UM","2018/01/25 19:18:44","新北市新店區溪園路245-6號","121.525485","24.9833566666667","6500600","新店區"
"231059","046-UY","2018/01/25 19:18:50","新北市新店區安興路141號","121.516856666667","24.9796166666667","6500600","新店區"
"231061","047-UY","2018/01/25 19:19:00","新北市新店區安康路一段204號","121.524248333333","24.96342","6500600","新店區"
"231060","106-UY","2018/01/25 19:18:44","新北市新店區安康路二段113號","121.512535","24.9617983333333","6500600","新店區"
"231051","107-UY","2018/01/25 19:18:49","新北市新店區百忍街50巷2弄2號","121.53363","24.9762833333333","6500600","新店區"
"231047","108-UY","2018/01/25 19:19:08","新北市新店區中興路二段77號","121.546841666667","24.9711","6500600","新店區"
"231052","110-UY","2018/01/25 19:18:49","新北市新店區自強路122號","121.545966666667","24.9219216666667","6500600","新店區"
"231050","KEA-2219","2018/01/25 19:18:51","新北市新店區竹林路94號","121.55393","24.95018","6500600","新店區"
"231046","278-BY","2018/01/25 19:18:46","新北市新店區華城路36巷1-1號","121.528355","24.9554116666667","6500600","新店區"
"231054","AAD-862","2018/01/25 19:18:59","新北市新店區北宜路一段20號","121.538018333333","24.9570516666667","6500600","新店區"
"231058","3712-VJ","2018/01/25 19:19:04","新北市新店區北新路二段2號","121.54256","24.9705866666667","6500600","新店區"
"231056","3713-VJ","2018/01/25 19:19:06","新北市新店區中央八街98號","121.526611666667","24.9779116666667","6500600","新店區"
"231065","512-UM","2018/01/25 19:18:59","新北市新店區安祥路110巷30弄1號","121.47367","24.9563866666667","6500600","新店區"
"231064","515-UM","2018/01/25 19:18:57","新北市新店區安忠路57巷26弄3號","121.513026666667","24.9587233333333","6500600","新店區"
"231042","616-UM","2018/01/25 19:19:04","新北市新店區中興路一段24-2號","121.538536666667","24.9583166666667","6500600","新店區"
"231040","619-UM","2018/01/25 19:19:01","新北市新店區三民路35巷2號","121.537475","24.9706783333333","6500600","新店區"
"231063","645-TV","2018/01/25 19:18:50","新北市新店區達觀路14巷1號","121.504391666667","24.9418433333333","6500600","新店區"
"231049","719-UM","2018/01/25 19:19:06","新北市新店區明德路64號","121.54155","24.9793716666667","6500600","新店區"
"231062","720-UM","2018/01/25 19:19:06","新北市新店區莒光路87巷10號","121.52392","24.9556233333333","6500600","新店區"
"231044","897-TW","2018/01/25 19:18:53","新北市新店區中興路三段301號","121.542118333333","24.9854133333333","6500600","新店區"
"231045","898-TW","2018/01/25 19:19:03","新北市新店區北宜路一段292號","121.546965","24.952405","6500600","新店區"
"231043","899-TW","2018/01/25 19:19:03","新北市新店區北新路二段107號","121.542953333333","24.9744716666667","6500600","新店區"
"231066","AKT-0513","2018/01/25 19:19:01","新北市新店區安康路三段207巷15號","121.488396666667","24.950775","6500600","新店區"
"241011","013-R5","2018/01/25 19:19:04","新北市三重區河邊北街124巷11號","121.503261666667","25.0713733333333","6500200","三重區"
"241009","060-VK","2018/01/25 19:18:51","新北市三重區仁美街115號","121.485648333333","25.0810566666667","6500200","三重區"
"241031","061-VK","2018/01/25 19:18:54","新北市三重區重新路四段97-1號","121.485671666667","25.0547433333333","6500200","三重區"
"241017","063-VK","2018/01/25 19:18:59","新北市三重區大同北路215號","121.491776666667","25.0660633333333","6500200","三重區"
"241025","156-TC","2018/01/25 19:18:51","新北市三重區中正北路450號","121.473466666667","25.0714966666667","6500200","三重區"
"241026","265-UM","2018/01/25 19:18:55","新北市三重區重安街99-2號","121.49365","25.0553933333333","6500200","三重區"
"241022","267-UM","2018/01/25 19:18:50","新北市三重區中正北路112號","121.485866666667","25.0650783333333","6500200","三重區"
"241032","269-UM","2018/01/25 19:19:02","新北市三重區新生街93號","121.483826666667","25.0594066666667","6500200","三重區"
"241007","398-BY","2018/01/25 19:18:58","新北市三重區三和路四段145巷62號","121.485706666667","25.078955","6500200","三重區"
"241020","413-TH","2018/01/25 19:19:06","新北市三重區永德街19號","121.4891","25.072725","6500200","三重區"
"241030","480-VK","2018/01/25 19:19:02","新北市三重區新興路40號","121.491536666667","25.05341","6500200","三重區"
"241035","743-BX","2018/01/25 19:18:52","新北市三重區中正北路25巷28號","121.493846666667","25.0633","6500200","三重區"
"241029","942-UM","2018/01/25 19:18:59","新北市三重區重安街15號","121.490478333333","25.0575116666667","6500200","三重區"
"235066","003-UY","2018/01/25 19:18:52","新北市中和區中和路103號","121.501591666667","25.0006016666667","6500300","中和區"
"235064","005-UY","2018/01/25 19:18:55","新北市中和區泰和街8號","121.499766666667","25.001225","6500300","中和區"
"235063","006-UY","2018/01/25 19:19:04","新北市中和區中正路616號","121.485538333333","24.995775","6500300","中和區"
"235057","031-BX","2018/01/25 19:18:53","新北市中和區民利街50號","121.479315","24.9987433333333","6500300","中和區"
"235056","096-UM","2018/01/25 19:18:54","新北市中和區中正路1203號","121.480453333333","25.0099316666667","6500300","中和區"
"235039","097-UM","2018/01/25 19:18:53","新北市中和區景平路64巷14弄15號","121.522698333333","24.9912983333333","6500300","中和區"
"235065","098-UM","2018/01/25 19:18:44","新北市中和區中山路二段2巷3弄5號","121.50469","25.0059533333333","6500300","中和區"
"235040","150-BY","2018/01/25 19:18:53","新北市中和區保健路50巷50號","121.509568333333","24.9958783333333","6500300","中和區"
"235058","151-BY","2018/01/25 19:18:44","新北市中和區連城路477巷6弄15號","121.48252","24.9950216666667","6500300","中和區"
"235055","183-VK","2018/01/25 19:18:56","新北市中和區德光路49號","121.47022","25.0039616666667","6500300","中和區"
"235038","185-VK","2018/01/25 19:19:02","新北市中和區大仁街10巷52號","121.520543333333","24.9926333333333","6500300","中和區"
"235013","186-VK","2018/01/25 19:18:52","新北市中和區景新街239號","121.508158333333","24.99448","6500300","中和區"
"235067","255-BX","2018/01/25 19:19:01","新北市中和區民樂路36號","121.482936666667","25.001205","6500300","中和區"
"235044","293-VK","2018/01/25 19:18:55","新北市中和區復興路329號","121.500755","24.9902433333333","6500300","中和區"
"235072","301-VK","2018/01/25 19:19:00","新北市中和區連城路19號","121.49899","25.0019933333333","6500300","中和區"
"235043","352-BY","2018/01/25 19:18:51","新北市中和區景平路360號","121.51111","24.992985","6500300","中和區"
"235068","377-QA","2018/01/25 19:19:05","新北市中和區連勝街40號","121.497933333333","24.9977533333333","6500300","中和區"
"235061","378-QA","2018/01/25 19:18:49","新北市中和區員山路314巷10號","121.482091666667","25.0027166666667","6500300","中和區"
"235050","4979-A6","2018/01/25 19:19:01","新北市中和區景安路208巷19號","121.503006666667","24.9914316666667","6500300","中和區"
"235069","4980-A6","2018/01/25 19:19:06","新北市中和區中山路二段181巷5號","121.501183333333","25.0019916666667","6500300","中和區"
"235042","551-UM","2018/01/25 19:18:51","新北市永和區民有街3-2號","121.515873333333","24.9971833333333","6500300","中和區"
"235045","565-BX","2018/01/25 19:18:58","新北市中和區景新街423巷30號","121.51446","24.989705","6500300","中和區"
"235054","640-BX","2018/01/25 19:19:00","新北市中和區國光街105號","121.470008333333","25.0004283333333","6500300","中和區"
"235060","647-TV","2018/01/25 19:18:59","新北市中和區民有街61號","121.476341666667","25.0035016666667","6500300","中和區"
"235047","732-UM","2018/01/25 19:19:02","新北市中和區景平路241巷57號","121.508056666667","24.992095","6500300","中和區"
"235046","733-UM","2018/01/25 19:18:52","新北市中和區華新街98號","121.5086","24.9828533333333","6500300","中和區"
"235041","802-TS","2018/01/25 19:18:55","新北市永和區中和路381號","121.508491666667","24.9998633333333","6500300","中和區"
"235052","805-TS","2018/01/25 19:18:54","新北市中和區興南路二段149號","121.50492","24.98368","6500300","中和區"
"235048","896-TW","2018/01/25 19:18:51","新北市中和區忠孝街39-13號","121.512023333333","24.984395","6500300","中和區"
"235053","900-TW","2018/01/25 19:18:53","新北市中和區華安街21巷9號","121.467436666667","24.9976","6500300","中和區"
"235051","157-BY","2018/01/25 19:18:56","新北市中和區和平街2巷1號","121.510168333333","24.9902533333333","6500300","中和區"
"235037","AAC-213","2018/01/25 19:19:01","新北市中和區秀朗路三段10巷37弄13號","121.524098333333","24.9957216666667","6500300","中和區"
"235059","AAC-215","2018/01/25 19:18:58","新北市中和區錦和路195巷8號","121.491151666667","24.990825","6500300","中和區"
"220068","013-TV","2018/01/25 19:18:57","新北市板橋區翠華街6巷27號","121.481371666667","25.024405","6500100","板橋區"
"220065","072-UY","2018/01/25 19:19:02","新北市板橋區民族路129巷1號","121.467496666667","25.00819","6500100","板橋區"
"220034","073-UY","2018/01/25 19:18:50","新北市板橋區中正路216巷73號","121.457871666667","25.0190083333333","6500100","板橋區"
"220106","075-UY","2018/01/25 19:18:59","新北市板橋區雙十路三段38號","121.471096666667","25.0311083333333","6500100","板橋區"
"220069","AAD-861","2018/01/25 19:18:58","新北市板橋區華興街54號","121.458038333333","25.0047666666667","6500100","板橋區"
"220096","120-SR","2018/01/25 19:19:07","新北市板橋區大同街29號","121.477701666667","25.027155","6500100","板橋區"
"247004","336-TH","2018/01/25 19:18:54","新北市蘆洲區長榮路681號","121.460405","25.0921383333333","6501400","蘆洲區"
"226004","312-R5","2018/01/25 19:18:47","新北市平溪區靜安路三段278號","121.776433333333","25.040625","6502400","平溪區"
"228003","097-TW","2018/01/25 19:18:56","新北市貢寮區和美里和美街22-1號","121.912786666667","25.0826283333333","6502600","貢寮區"
"228001","212-TW","2018/01/25 19:19:02","新北市貢寮區真理里新港街10號","121.92549","25.05442","6502600","貢寮區"
"228002","663-BX","2018/01/25 19:18:57","新北市貢寮區雙玉里田寮洋街6號","121.928448333333","25.022805","6502600","貢寮區"
"224010","AGQ-8101","2018/01/25 19:19:01","新北市瑞芳區豎崎路6號","121.843516666667","25.1090383333333","6501200","瑞芳區"
"224006","676-BX","2018/01/25 19:18:49","新北市瑞芳區中山路218號","121.800606666667","25.1068816666667","6501200","瑞芳區"
"224009","285-BY","2018/01/25 19:19:01","新北市瑞芳區洞頂路204號","121.860771666667","25.1195066666667","6501200","瑞芳區"
"224008","275-VK","2018/01/25 19:18:55","新北市瑞芳區一坑路70-8號","121.803496666667","25.108215","6501200","瑞芳區"
"224005","271-BY","2018/01/25 19:18:46","新北市瑞芳區三爪子坑路77號","121.812368333333","25.1073316666667","6501200","瑞芳區"
"227010","642-TC","2018/01/25 19:18:50","新北市雙溪區新基里新基北街40號","121.868466666667","25.0380833333333","6502500","雙溪區"
"227004","400-TW","2018/01/25 19:18:59","新北市雙溪區平林里梅竹蹊66-1號","121.860136666667","25.0358233333333","6502500","雙溪區"
"253005","032-BX","2018/01/25 19:19:06","新北市石門區阿里荖6-2號","121.610065","25.2799016666667","6502200","石門區"
"253006","295-VK","2018/01/25 19:19:01","新北市石門區楓林18號","121.53652","25.29099","6502200","石門區"
"222001","KEA-2212","2018/01/25 19:18:56","新北市深坑區北深路二段82號","121.617565","25.00354","6501800","深坑區"
"208002","742-BX","2018/01/25 19:19:01","新北市金山區中正路136號","121.631611666667","25.221955","6502700","金山區"
"208003","665-BX","2018/01/25 19:18:54","新北市金山區中山路136號","121.63889","25.2204033333333","6502700","金山區"
"208001","761-BX","2018/01/25 19:19:01","新北市金山區民生路69號","121.640101666667","25.219745","6502700","金山區"
"251009","008-UM","2018/01/25 19:18:46","新北市淡水區中山路88號","121.442926666667","25.17057","6501000","淡水區"
"251005","010-UM","2018/01/25 19:18:53","新北市淡水區水源街一段29號","121.44323","25.1725033333333","6501000","淡水區"
"251013","179-VK","2018/01/25 19:18:50","新北市淡水區安子內12號","121.481575","25.21906","6501000","淡水區"
"251014","180-VK","2018/01/25 19:18:55","新北市淡水區小中寮19-7號","121.484735","25.2296416666667","6501000","淡水區"
"251015","182-VK","2018/01/25 19:19:08","新北市淡水區南勢埔20號","121.482041666667","25.1790216666667","6501000","淡水區"
"251010","413-VK","2018/01/25 19:19:02","新北市淡水區沙崙路30號","121.42155","25.1814416666667","6501000","淡水區"
"251012","441-VK","2018/01/25 19:18:46","新北市淡水區下圭柔山91-3號","121.430876666667","25.2098083333333","6501000","淡水區"
"251016","442-VK","2018/01/25 19:18:46","新北市淡水區淡金路三段350巷18號","121.45082","25.208365","6501000","淡水區"
"251001","559-UM","2018/01/25 19:19:02","新北市淡水區自強路201巷49號","121.462038333333","25.1268916666667","6501000","淡水區"
"251006","561-UM","2018/01/25 19:18:51","新北市淡水區大信街33號","121.44205","25.1773383333333","6501000","淡水區"
"251007","577-R6","2018/01/25 19:18:58","新北市淡水區民生路117巷10號","121.46494","25.139055","6501000","淡水區"
"251003","766-UM","2018/01/25 19:19:07","新北市淡水區中山路185號","121.441248333333","25.1742983333333","6501000","淡水區"
"207004","291-VK","2018/01/25 19:18:57","新北市萬里區萬里里成功新村44號","121.687713333333","25.174625","6502800","萬里區"
"207003","225-TW","2018/01/25 19:19:00","新北市萬里區大鵬里萬里加投79-3號","121.64736","25.2123416666667","6502800","萬里區"
"252002","178-VK","2018/01/25 19:19:08","新北市三芝區淡金路二段18-1號","121.502561666667","25.259625","6502100","三芝區"
"252001","292-VK","2018/01/25 19:18:58","新北市三芝區長勤街9巷11弄1號","121.501758333333","25.2546833333333","6502100","三芝區"
"237004","078-UY","2018/01/25 19:19:02","新北市三峽區有木206號","121.439116666667","24.8514733333333","6500900","三峽區"
"237007","153-BY","2018/01/25 19:19:02","新北市三峽區麻園35-10號","121.363131666667","24.918535","6500900","三峽區"
"237009","210-TH","2018/01/25 19:18:49","新北市三峽區和平街45號","121.370335","24.93578","6500900","三峽區"
"237013","252-BX","2018/01/25 19:18:52","新北市三峽區光明路75巷19號","121.37728","24.9280783333333","6500900","三峽區"
"237012","275-BY","2018/01/25 19:19:02","新北市三峽區三樹路222巷236弄23號","121.391386666667","24.943075","6500900","三峽區"
"237008","302-VK","2018/01/25 19:19:04","新北市三峽區光明路100-6號","121.3761","24.9278616666667","6500900","三峽區"
"237014","433-BY","2018/01/25 19:19:04","新北市三峽區中山路257巷6號","121.36231","24.9369616666667","6500900","三峽區"
"237006","5529-G3","2018/01/25 19:18:50","新北市三峽區橫溪路99巷18-2號","121.400668333333","24.93596","6500900","三峽區"
"237016","649-BX","2018/01/25 19:18:54","新北市三峽區安坑49-7號","121.462336666667","24.931995","6500900","三峽區"
"237010","706-TV","2018/01/25 19:19:01","新北市三峽區復興路58號","121.373438333333","24.9370566666667","6500900","三峽區"
"237005","AKY-6261","2018/01/25 19:18:54","新北市三峽區隆恩街551號","121.357305","24.93997","6500900","三峽區"
"236071","105-UM","2018/01/25 19:18:49","新北市土城區中央路一段67-3號","121.447698333333","24.989765","6501300","土城區"
"236078","166-UM","2018/01/25 19:18:59","新北市土城區中央路四段321巷38號","121.411835","24.9512966666667","6501300","土城區"
"236026","269-VK","2018/01/25 19:19:03","新北市土城區員林街6-1號","121.442748333333","24.9780266666667","6501300","土城區"
"236014","270-VK","2018/01/25 19:18:53","新北市土城區學府路一段23巷25弄32號","121.457288333333","24.9862266666667","6501300","土城區"
"236021","401-BY","2018/01/25 19:18:59","新北市土城區峰廷街18號","121.468986666667","24.9872133333333","6501300","土城區"
"236058","912-UM","2018/01/25 19:18:48","新北市土城區金城路一段3號","121.439161666667","24.9689883333333","6501300","土城區"
"236051","913-UM","2018/01/25 19:18:48","新北市土城區明德路一段398-1號","121.45367","24.979095","6501300","土城區"
"238015","755-BX","2018/01/25 19:18:59","新北市樹林區備內街1巷39-8號","121.41211","24.9858","6500700","樹林區"
"238023","601-UM","2018/01/25 19:19:06","新北市樹林區三興路64號","121.393735","25.014585","6500700","樹林區"
"238019","599-UM","2018/01/25 19:18:55","新北市樹林區鎮前街411巷1弄18號","121.415561666667","24.983145","6500700","樹林區"
"238018","571-TV","2018/01/25 19:18:51","新北市樹林區中華路106號","121.418465","24.98091","6500700","樹林區"
"238024","5061-A6","2018/01/25 19:18:45","新北市樹林區福德街47號","121.399461666667","24.97479","6500700","樹林區"
"238021","KEA-2217","2018/01/25 19:19:05","新北市樹林區柑園街二段441號","121.36379","24.9465466666667","6500700","樹林區"
"238022","KEA-2213","2018/01/25 19:19:03","新北市樹林區中山路二段121-6號","121.408071666667","24.9798183333333","6500700","樹林區"
"238025","303-VK","2018/01/25 19:18:54","新北市樹林區中山路三段71號","121.400556666667","24.97486","6500700","樹林區"
"238017","283-BY","2018/01/25 19:18:30","新北市樹林區光興街376巷1號","121.406175","25.005665","6500700","樹林區"
"238014","282-BY","2018/01/25 19:18:54","新北市樹林區千歲街48號","121.425855","24.9970133333333","6500700","樹林區"
"238020","268-VK","2018/01/25 19:19:03","新北市樹林區俊英街125巷12號","121.423556666667","25.0108216666667","6500700","樹林區"
"238026","172-UY","2018/01/25 19:19:02","新北市樹林區佳園路二段74-1號","121.390596666667","24.9595516666667","6500700","樹林區"
"238016","169-UY","2018/01/25 19:18:59","新北市樹林區中山路二段84號","121.414708333333","24.9838533333333","6500700","樹林區"
"239007","AAC-297","2018/01/25 19:17:13","新北市鶯歌區中山路138巷21號","121.352026666667","24.9604516666667","6500800","鶯歌區"
"239006","891-R6","2018/01/25 19:18:54","新北市鶯歌區鶯桃路91巷8號","121.338938333333","24.9533433333333","6500800","鶯歌區"
"239008","527-UM","2018/01/25 19:19:00","新北市鶯歌區國際二路4巷2號","121.338668333333","24.9728983333333","6500800","鶯歌區"
"239005","526-UM","2018/01/25 19:19:02","新北市鶯歌區中湖街39號","121.349185","24.9731416666667","6500800","鶯歌區"
"239001","417-VK","2018/01/25 19:18:49","新北市鶯歌區永智街110號","121.336838333333","24.9530683333333","6500800","鶯歌區"
"239003","360-BY","2018/01/25 19:18:52","新北市鶯歌區中正二路149-5號","121.34597","24.9500183333333","6500800","鶯歌區"
"239004","193-VK","2018/01/25 19:19:03","新北市鶯歌區鶯華新村1號","121.329898333333","24.9350733333333","6500800","鶯歌區"
"221036","130-UY","2018/01/25 19:19:01","新北市汐止區連興街121號","121.653866666667","25.0623266666667","6501100","汐止區"
"221010","269-BY","2018/01/25 19:18:47","新北市汐止區康寧街901號","121.651518333333","25.07492","6501100","汐止區"
"221012","278-VK","2018/01/25 19:18:54","新北市汐止區汐萬路一段312號","121.650421666667","25.0750583333333","6501100","汐止區"
"221023","279-VK","2018/01/25 19:18:51","新北市汐止區康寧街901號","121.650921666667","25.0752683333333","6501100","汐止區"
"221027","281-BY","2018/01/25 19:18:53","新北市汐止區康寧街901號","121.651265","25.0750716666667","6501100","汐止區"
"221002","297-VK","2018/01/25 19:18:47","新北市汐止區大同路一段398-1號","121.640128333333","25.0599733333333","6501100","汐止區"
"221029","298-VK","2018/01/25 19:19:00","新北市汐止區康寧街901號","121.651631666667","25.0748783333333","6501100","汐止區"
"221031","353-TW","2018/01/25 19:18:59","新北市汐止區福德三路127號","121.633578333333","25.0675983333333","6501100","汐止區"
"221008","358-BY","2018/01/25 19:19:02","新北市汐止區康寧街301號","121.626946666667","25.0674533333333","6501100","汐止區"
"221015","567-BX","2018/01/25 19:19:06","新北市汐止區汐萬路一段256巷3號","121.653265","25.074465","6501100","汐止區"
"221025","623-UM","2018/01/25 19:18:50","新北市汐止區康寧街901號","121.651616666667","25.0748833333333","6501100","汐止區"
"221038","646-BX","2018/01/25 19:18:57","新北市汐止區汐萬路一段312號","121.650606666667","25.075295","6501100","汐止區"
"221033","647-BX","2018/01/25 19:18:53","新北市汐止區南勢街3號","121.627058333333","25.0373733333333","6501100","汐止區"
"220079","145-BY","2018/01/25 19:19:08","新北市板橋區民權路202巷17弄48-1號","121.45888","25.0166133333333","6500100","板橋區"
"220080","200-UY","2018/01/25 19:18:50","新北市板橋區大觀路二段19巷90號","121.449215","25.002795","6500100","板橋區"
"220082","610-BX","2018/01/25 19:19:03","新北市板橋區滿平街84巷102號","121.426615","24.9866683333333","6500100","板橋區"
"220101","245-BX","2018/01/25 19:18:58","新北市板橋區莊敬路40-3號","121.47298","25.0270583333333","6500100","板橋區"
"220102","255-TC","2018/01/25 19:18:58","新北市板橋區田單街27號","121.48226","25.0289316666667","6500100","板橋區"
"220052","257-TC","2018/01/25 19:18:58","新北市板橋區介壽街37號","121.468593333333","25.0198583333333","6500100","板橋區"
"220056","276-BY","2018/01/25 19:19:00","新北市板橋區信義路107-1號","121.457576666667","24.99346","6500100","板橋區"
"220072","277-BY","2018/01/25 19:18:53","新北市板橋區金門街337巷9弄1號","121.430503333333","24.9846316666667","6500100","板橋區"
"220094","283-UM","2018/01/25 19:18:47","新北市板橋區吳鳳路82號","121.466901666667","25.031355","6500100","板橋區"
"220071","283-VK","2018/01/25 19:19:05","新北市板橋區大豐街36號","121.461731666667","25.0013616666667","6500100","板橋區"
"220053","285-VK","2018/01/25 19:18:56","新北市板橋區富山街7巷5號","121.478603333333","25.0215033333333","6500100","板橋區"
"220083","286-VK","2018/01/25 19:19:00","新北市板橋區大觀路二段174巷196弄13號","121.442975","25.0036916666667","6500100","板橋區"
"220081","287-VK","2018/01/25 19:18:59","新北市板橋區南雅西路一段154號","121.452615","25.0076166666667","6500100","板橋區"
"220090","288-VK","2018/01/25 19:18:51","新北市板橋區長江路一段106巷13弄35號","121.461386666667","25.0297733333333","6500100","板橋區"
"220061","293-UM","2018/01/25 19:19:06","新北市板橋區中山路二段318巷20弄23號","121.481065","25.0188583333333","6500100","板橋區"
"220062","295-UM","2018/01/25 19:19:02","新北市板橋區三民路二段153巷36弄2號","121.48129","25.0141466666667","6500100","板橋區"
"220084","296-UM","2018/01/25 19:19:04","新北市板橋區滿平街112號","121.428218333333","24.988495","6500100","板橋區"
"220075","303-R5","2018/01/25 19:19:01","新北市板橋區南雅西路一段10巷15號","121.454423333333","25.0049983333333","6500100","板橋區"
"220092","307-R5","2018/01/25 19:19:05","新北市板橋區光武街36巷7號","121.467725","25.02618","6500100","板橋區"
"220098","317-R6","2018/01/25 19:19:07","新北市板橋區民有街88號","121.465011666667","25.0274466666667","6500100","板橋區"
"220064","486-VK","2018/01/25 19:19:00","新北市板橋區板新路182號","121.469715","25.0158866666667","6500100","板橋區"
"220089","487-VK","2018/01/25 19:18:52","新北市板橋區民生路二段250號","121.468178333333","25.02341","6500100","板橋區"
"220088","491-VK","2018/01/25 19:18:52","新北市板橋區雙十路二段52號","121.475403333333","25.0277266666667","6500100","板橋區"
"220035","560-BX","2018/01/25 19:18:56","新北市板橋區中正路360巷15號","121.455096666667","25.0236833333333","6500100","板橋區"
"220055","568-UM","2018/01/25 19:18:53","新北市板橋區館前東路156巷7弄1號","121.46447","25.007465","6500100","板橋區"
"220063","609-BX","2018/01/25 19:18:49","新北市板橋區三民路二段140號","121.479095","25.0159","6500100","板橋區"
"220091","637-BX","2018/01/25 19:19:01","新北市板橋區萬板路466-1號","121.479703333333","25.02586","6500100","板橋區"
"220057","686-BX","2018/01/25 19:18:56","新北市板橋區國慶路266號","121.463276666667","24.998395","6500100","板橋區"
"220077","687-BX","2018/01/25 19:19:02","新北市板橋區僑中二街10巷2號","121.446951666667","25.010965","6500100","板橋區"
"220093","689-BX","2018/01/25 19:18:56","新北市板橋區文化路一段280-3號","121.467166666667","25.0214066666667","6500100","板橋區"
"220054","741-BX","2018/01/25 19:18:52","新北市板橋區校前街82號","121.462301666667","25.0034416666667","6500100","板橋區"
"220067","829-TW","2018/01/25 19:18:58","新北市板橋區長安街138巷1弄54號","121.47401","25.0101666666667","6500100","板橋區"
"220074","895-R6","2018/01/25 19:19:06","新北市板橋區中正路自強新村91-3號","121.454808333333","25.0135816666667","6500100","板橋區"
"220073","985-R7","2018/01/25 19:19:06","新北市板橋區新生街56號","121.456981666667","25.0210183333333","6500100","板橋區"
"220097","AAC-210","2018/01/25 19:19:02","新北市板橋區漢生西路89巷3弄26號","121.461328333333","25.019785","6500100","板橋區"
"220070","AAC-253","2018/01/25 19:18:45","新北市板橋區忠孝路178-6號","121.464543333333","25.0025483333333","6500100","板橋區"
