"lineid","car","time","location","longitude","latitude","cityid","cityname"
"234046","148-BY","2018/01/25 19:29:29","新北市永和區秀朗路二段259號","121.526386666667","24.9992233333333","6500400","永和區"
"234007","207-UY","2018/01/25 19:29:27","新北市永和區中山路一段10號","121.514108333333","25.0105166666667","6500400","永和區"
"234081","298-R6","2018/01/25 19:29:25","新北市永和區福和路5-1號","121.524968333333","25.00867","6500400","永和區"
"234038","336-UY","2018/01/25 19:29:21","新北市永和區成功路二段65號","121.527408333333","25.0000816666667","6500400","永和區"
"234064","337-UY","2018/01/25 19:29:25","新北市永和區中正路368巷1弄88號","121.520535","25.0006866666667","6500400","永和區"
"234086","338-UY","2018/01/25 19:29:40","新北市永和區林森路78號","121.52354","25.0039133333333","6500400","永和區"
"234070","552-UM","2018/01/25 19:29:20","新北市永和區警光街5-1號","121.519698333333","25.0095183333333","6500400","永和區"
"234017","745-BX","2018/01/25 19:29:20","新北市永和區環河西路一段51巷1號","121.514153333333","25.0181166666667","6500400","永和區"
"234030","746-BX","2018/01/25 19:29:24","新北市永和區民生路37巷9號","121.523781666667","24.998105","6500400","永和區"
"234054","KEA-2590","2018/01/25 19:29:40","新北市永和區復興街21號","121.516151666667","25.0130816666667","6500400","永和區"
"234013","KEA-2591","2018/01/25 19:29:32","新北市永和區中山路一段184巷9弄1號","121.50832","25.0093916666667","6500400","永和區"
"234061","AAD-866","2018/01/25 19:29:33","新北市永和區中正路570號","121.51713","25.006295","6500400","永和區"
"234042","862-TW","2018/01/25 19:29:40","新北市永和區中和路573號","121.511836666667","25.0035133333333","6500400","永和區"
"234050","863-TW","2018/01/25 19:29:26","新北市永和區仁愛路150號","121.510983333333","25.0131316666667","6500400","永和區"
"234026","9371-KE","2018/01/25 19:29:36","新北市中和區安平路222號","121.51386","25.0003083333333","6500400","永和區"
"234011","9381-KE","2018/01/25 19:29:41","新北市永和區保福路二段85號","121.510595","25.012835","6500400","永和區"
"249002","305-UY","2018/01/25 19:29:25","新北市八里區龍形一街33巷6-2號","121.44932","25.129475","6502300","八里區"
"249003","593-UM","2018/01/25 19:29:30","新北市八里區商港六路11號","121.39696","25.148115","6502300","八里區"
"248008","095-VK","2018/01/25 19:29:24","新北市五股區中興路一段95巷9號","121.466616666667","25.072525","6501500","五股區"
"248012","247-BX","2018/01/25 19:29:26","新北市五股區成泰路二段97號","121.43802","25.0842566666667","6501500","五股區"
"248014","261-SL","2018/01/25 19:29:26","新北市五股區民義路一段161-7號","121.43218","25.0876966666667","6501500","五股區"
"248010","272-BY","2018/01/25 19:29:33","新北市五股區自強路90巷72號","121.430838333333","25.0712133333333","6501500","五股區"
"248004","677-BX","2018/01/25 19:29:22","新北市五股區工商路151號","121.435008333333","25.0865333333333","6501500","五股區"
"234023","9380-KE","2018/01/25 19:29:37","新北市永和區竹林路91巷47弄3號","121.521145","25.012905","6500400","永和區"
"234077","969-R7","2018/01/25 19:29:30","新北市永和區民族街43巷8號","121.518938333333","24.9983966666667","6500400","永和區"
"234074","AAC-211","2018/01/25 19:29:35","新北市永和區博愛街57巷1號","121.52003","25.0162083333333","6500400","永和區"
"234003","AAC-295","2018/01/25 19:29:35","新北市永和區福和路353號","121.514651666667","25.0073716666667","6500400","永和區"
"244013","069-UM","2018/01/25 19:29:27","新北市林口區麗園一街1號","121.375656666667","25.07263","6501700","林口區"
"244023","483-VK","2018/01/25 19:29:28","新北市林口區文化三路二段1-1號","121.372998333333","25.0786466666667","6501700","林口區"
"244017","485-VK","2018/01/25 19:29:41","新北市林口區瑞平里9鄰62號","121.34466","25.126765","6501700","林口區"
"243012","AAD-798","2018/01/25 19:29:33","新北市泰山區仁愛路58號","121.431871666667","25.0548266666667","6501600","泰山區"
"243011","297-R6","2018/01/25 19:29:25","新北市泰山區中山路二段567號","121.429435","25.04005","6501600","泰山區"
"243015","380-SR","2018/01/25 19:29:26","新北市泰山區明志路二段134號","121.427448333333","25.0512416666667","6501600","泰山區"
"243014","421-VK","2018/01/25 19:29:31","新北市泰山區仁愛路56號","121.43189","25.0547433333333","6501600","泰山區"
"243010","KEA-2215","2018/01/25 19:29:36","新北市泰山區民生路17巷62號","121.429191666667","25.0510633333333","6501600","泰山區"
"243009","KEA-2216","2018/01/25 19:29:23","新北市泰山區美寧街54號","121.430515","25.064575","6501600","泰山區"
"243013","646-TV","2018/01/25 19:29:28","新北市泰山區貴子路36巷3弄1號","121.425945","25.041465","6501600","泰山區"
"243016","680-BX","2018/01/25 19:29:36","新北市泰山區明志路三段339號","121.422143333333","25.035375","6501600","泰山區"
"222003","436-BY","2018/01/25 19:29:29","新北市深坑區深南路88巷1號","121.62133","25.01058","6501800","深坑區"
"222002","659-BX","2018/01/25 19:29:37","新北市深坑區北深路一段177號","121.632505","25.0108866666667","6501800","深坑區"
"231041","002-UM","2018/01/25 19:29:40","新北市新店區中正路545號","121.533806666667","24.9876916666667","6500600","新店區"
"231059","046-UY","2018/01/25 19:29:30","新北市新店區安和路三段128號","121.516648333333","24.9856883333333","6500600","新店區"
"231061","047-UY","2018/01/25 19:29:21","新北市新店區安民街46號","121.515896666667","24.9654416666667","6500600","新店區"
"231060","106-UY","2018/01/25 19:29:24","新北市新店區安康路二段57-1號","121.514085","24.96329","6500600","新店區"
"231051","107-UY","2018/01/25 19:29:30","新北市新店區中央路97號","121.531261666667","24.9750483333333","6500600","新店區"
"231047","108-UY","2018/01/25 19:29:28","新北市新店區五峰路157號","121.544875","24.9654683333333","6500600","新店區"
"231052","110-UY","2018/01/25 19:29:29","新北市新店區屈尺路16號","121.548715","24.9226516666667","6500600","新店區"
"231050","KEA-2219","2018/01/25 19:29:32","新北市新店區秀水路7號","121.554973333333","24.954505","6500600","新店區"
"231057","256-BX","2018/01/25 19:29:33","新北市新店區花園一路二段15號","121.550763333333","24.9333983333333","6500600","新店區"
"231046","278-BY","2018/01/25 19:29:26","新北市新店區光明街141號","121.53936","24.96213","6500600","新店區"
"231054","AAD-862","2018/01/25 19:29:39","新北市新店區文中路40號","121.539653333333","24.9566066666667","6500600","新店區"
"231058","3712-VJ","2018/01/25 19:29:24","新北市新店區寶橋路85巷23號","121.545275","24.9761433333333","6500600","新店區"
"231056","3713-VJ","2018/01/25 19:29:26","新北市新店區薏仁坑路自強巷6號","121.496666666667","24.95833","6500600","新店區"
"231067","4772-VM","2018/01/25 19:29:39","新北市新店區安和路一段39號","121.517203333333","24.9653183333333","6500600","新店區"
"231065","512-UM","2018/01/25 19:29:39","新北市新店區安祥路109巷3弄6號","121.475426666667","24.9596033333333","6500600","新店區"
"231064","515-UM","2018/01/25 19:29:37","新北市新店區安忠路36號","121.514401666667","24.9613033333333","6500600","新店區"
"231042","616-UM","2018/01/25 19:29:24","新北市新店區中興路一段202號","121.543633333333","24.965445","6500600","新店區"
"231040","619-UM","2018/01/25 19:29:21","新北市新店區北新路一段40號","121.54096","24.9660766666667","6500600","新店區"
"231063","645-TV","2018/01/25 19:29:30","新北市新店區達觀路16號","121.503041666667","24.9410566666667","6500600","新店區"
"231049","719-UM","2018/01/25 19:29:26","新北市新店區北新路三段65巷34弄29號","121.539955","24.9820583333333","6500600","新店區"
"231062","720-UM","2018/01/25 19:29:26","新北市新店區秀山路66號","121.530855","24.96097","6500600","新店區"
"231044","897-TW","2018/01/25 19:29:33","新北市新店區中興路三段145號","121.5445","24.9799083333333","6500600","新店區"
"231045","898-TW","2018/01/25 19:29:43","新北市新店區北宜路二段209號","121.553148333333","24.953285","6500600","新店區"
"231043","899-TW","2018/01/25 19:29:23","新北市新店區北新路二段256號","121.542881666667","24.977805","6500600","新店區"
"231066","AKT-0513","2018/01/25 19:29:21","新北市新店區安康路三段132號","121.490821666667","24.9517583333333","6500600","新店區"
"241011","013-R5","2018/01/25 19:29:24","新北市三重區秀江街96號","121.500415","25.0722983333333","6500200","三重區"
"241028","022-UY","2018/01/25 19:29:34","新北市三重區中寮街74號","121.493068333333","25.0582566666667","6500200","三重區"
"241008","059-VK","2018/01/25 19:29:37","新北市三重區永福街111巷35弄14號","121.477435","25.07683","6500200","三重區"
"241009","060-VK","2018/01/25 19:29:31","新北市三重區溪尾街242巷67號","121.486086666667","25.0814666666667","6500200","三重區"
"241031","061-VK","2018/01/25 19:29:34","新北市三重區集美街100號","121.488558333333","25.0542183333333","6500200","三重區"
"241017","063-VK","2018/01/25 19:29:30","新北市三重區中正北路25巷1號","121.492481666667","25.061985","6500200","三重區"
"241025","156-TC","2018/01/25 19:29:31","新北市三重區頂崁街210巷27號","121.475743333333","25.0681466666667","6500200","三重區"
"241026","265-UM","2018/01/25 19:29:35","新北市三重區文化南路47巷45號","121.499015","25.06108","6500200","三重區"
"241022","267-UM","2018/01/25 19:29:30","新北市三重區三民街114號","121.484968333333","25.063555","6500200","三重區"
"241032","269-UM","2018/01/25 19:29:22","新北市三重區三陽路113號","121.483745","25.058825","6500200","三重區"
"241013","270-UM","2018/01/25 19:29:21","新北市三重區仁愛街105號","121.495565","25.0740316666667","6500200","三重區"
"241007","398-BY","2018/01/25 19:29:38","新北市三重區溪尾街154號","121.488881666667","25.080045","6500200","三重區"
"241020","413-TH","2018/01/25 19:29:25","新北市三重區三和路四段44巷18號","121.489651666667","25.074195","6500200","三重區"
"241004","475-VK","2018/01/25 19:29:35","新北市三重區五華街74號","121.49345","25.081965","6500200","三重區"
"241030","480-VK","2018/01/25 19:29:42","新北市三重區成功路41巷15號","121.490525","25.05162","6500200","三重區"
"241023","545-UM","2018/01/25 19:29:28","新北市三重區頂崁街99號","121.478033333333","25.063825","6500200","三重區"
"241006","AAD-863","2018/01/25 19:29:23","新北市三重區三和路四段156號","121.487925","25.075685","6500200","三重區"
"241035","743-BX","2018/01/25 19:29:32","新北市三重區信義西街48號","121.498173333333","25.0647","6500200","三重區"
"241029","942-UM","2018/01/25 19:29:38","新北市三重區中正南路216號","121.493825","25.0550333333333","6500200","三重區"
"235066","003-UY","2018/01/25 19:29:32","新北市中和區景新街45號","121.504226666667","24.999015","6500300","中和區"
"235064","005-UY","2018/01/25 19:29:35","新北市中和區圓通路2號","121.501965","24.9980616666667","6500300","中和區"
"235063","006-UY","2018/01/25 19:29:32","新北市中和區連城路249巷17弄2號","121.493851666667","24.9964233333333","6500300","中和區"
"235057","031-BX","2018/01/25 19:29:33","新北市中和區員山路423巷14弄2號","121.480433333333","25.0030566666667","6500300","中和區"
"235056","096-UM","2018/01/25 19:29:34","新北市中和區中山路三段96號","121.47739","25.005555","6500300","中和區"
"235039","097-UM","2018/01/25 19:29:33","新北市中和區秀峰街52號","121.521121666667","24.9903283333333","6500300","中和區"
"235065","098-UM","2018/01/25 19:29:24","新北市中和區中山路二段2巷13弄14號","121.503016666667","25.0064516666667","6500300","中和區"
"235040","150-BY","2018/01/25 19:29:33","新北市中和區保健路46巷17號","121.509211666667","24.996355","6500300","中和區"
"235058","151-BY","2018/01/25 19:29:24","新北市中和區連城路469-1號","121.483568333333","24.9959066666667","6500300","中和區"
"235055","183-VK","2018/01/25 19:29:36","新北市中和區莒光路120巷56號","121.471651666667","25.0009116666667","6500300","中和區"
"235038","185-VK","2018/01/25 19:29:22","新北市中和區自立路127號","121.521836666667","24.994135","6500300","中和區"
"235013","186-VK","2018/01/25 19:29:32","新北市中和區安和路17號","121.511185","24.9938933333333","6500300","中和區"
"235067","255-BX","2018/01/25 19:29:21","新北市中和區連城路340巷8弄1號","121.482808333333","24.9964166666667","6500300","中和區"
"235044","293-VK","2018/01/25 19:29:35","新北市中和區捷運路122號","121.505378333333","24.991525","6500300","中和區"
"235072","301-VK","2018/01/25 19:29:20","新北市中和區連城路265-2號","121.491178333333","24.9963966666667","6500300","中和區"
"235043","352-BY","2018/01/25 19:29:31","新北市中和區南山路181號","121.50273","24.99508","6500300","中和區"
"235068","377-QA","2018/01/25 19:29:24","新北市中和區圓通路154號","121.497938333333","24.9957066666667","6500300","中和區"
"235061","378-QA","2018/01/25 19:29:29","新北市中和區員山路143巷34弄4號","121.479585","24.995885","6500300","中和區"
"235050","4979-A6","2018/01/25 19:29:21","新北市中和區中正路446號","121.490995","24.994195","6500300","中和區"
"235069","4980-A6","2018/01/25 19:29:26","新北市中和區景平路736巷3弄4號","121.497298333333","25.0036266666667","6500300","中和區"
"235042","551-UM","2018/01/25 19:29:31","新北市中和區中和路378巷14弄1號","121.51139","25.001615","6500300","中和區"
"235045","565-BX","2018/01/25 19:29:43","新北市中和區景新街402號","121.51266","24.9895283333333","6500300","中和區"
"235054","640-BX","2018/01/25 19:29:26","新北市中和區國光街112巷16弄1號","121.46979","25.0015883333333","6500300","中和區"
"235060","647-TV","2018/01/25 19:29:39","新北市中和區新生街114巷37弄12號","121.482293333333","25.0018666666667","6500300","中和區"
"235047","732-UM","2018/01/25 19:29:36","新北市中和區景平路259巷52號","121.50631","24.9928533333333","6500300","中和區"
"235046","733-UM","2018/01/25 19:29:31","新北市中和區忠孝街37巷44號","121.510658333333","24.9847033333333","6500300","中和區"
"235041","802-TS","2018/01/25 19:29:35","新北市中和區中安街76號","121.512213333333","25.001975","6500300","中和區"
"235052","805-TS","2018/01/25 19:29:34","新北市中和區華新街143巷69弄18號","121.507676666667","24.9788566666667","6500300","中和區"
"235048","896-TW","2018/01/25 19:29:31","新北市中和區忠孝街182號","121.512956666667","24.9880783333333","6500300","中和區"
"235053","900-TW","2018/01/25 19:29:33","新北市中和區華順街37號","121.466988333333","24.998565","6500300","中和區"
"235051","157-BY","2018/01/25 19:29:36","新北市中和區景新街246號","121.509285","24.9935233333333","6500300","中和區"
"235037","AAC-213","2018/01/25 19:29:32","新北市中和區秀朗路三段10巷14弄44號","121.524466666667","24.9965233333333","6500300","中和區"
"235059","AAC-215","2018/01/25 19:29:38","新北市中和區圓通路252巷4號","121.493103333333","24.9916566666667","6500300","中和區"
"220068","013-TV","2018/01/25 19:29:29","新北市板橋區翠華街10巷21號","121.48188","25.0244566666667","6500100","板橋區"
"220065","072-UY","2018/01/25 19:29:27","新北市板橋區國泰街75巷28弄22號","121.467598333333","25.005005","6500100","板橋區"
"220034","073-UY","2018/01/25 19:29:38","新北市板橋區中正路236巷28號","121.456878333333","25.0191533333333","6500100","板橋區"
"220106","075-UY","2018/01/25 19:29:19","新北市板橋區文化路二段417巷36號","121.473871666667","25.0336066666667","6500100","板橋區"
"220069","AAD-861","2018/01/25 19:29:38","新北市板橋區稚暉街13號","121.456421666667","25.004395","6500100","板橋區"
"220096","120-SR","2018/01/25 19:29:34","新北市板橋區大同街35巷33號","121.476468333333","25.0273633333333","6500100","板橋區"
"247004","336-TH","2018/01/25 19:29:34","新北市蘆洲區長安街263號","121.458775","25.0838","6501400","蘆洲區"
"226004","312-R5","2018/01/25 19:29:27","新北市平溪區十分里十分街193號","121.778358333333","25.04389","6502400","平溪區"
"228003","097-TW","2018/01/25 19:29:36","新北市貢寮區和美里和美街19號","121.912945","25.0825783333333","6502600","貢寮區"
"228001","212-TW","2018/01/25 19:29:42","新北市貢寮區真理里延平街70號","121.925286666667","25.0575416666667","6502600","貢寮區"
"228002","663-BX","2018/01/25 19:29:38","新北市貢寮區龍門里龍門街51-4號","121.932406666667","25.0261266666667","6502600","貢寮區"
"224005","271-BY","2018/01/25 19:29:31","新北市瑞芳區員山子路23號","121.821775","25.1029133333333","6501200","瑞芳區"
"227010","642-TC","2018/01/25 19:29:30","新北市雙溪區新基里新基北街43號","121.86815","25.0396966666667","6502500","雙溪區"
"227004","400-TW","2018/01/25 19:29:19","新北市雙溪區雙溪里光復街18號","121.865105","25.035465","6502500","雙溪區"
"253005","032-BX","2018/01/25 19:29:26","新北市石門區小坑9號","121.594308333333","25.2886483333333","6502200","石門區"
"253006","295-VK","2018/01/25 19:29:21","新北市石門區老崩山2-1號","121.554453333333","25.2918533333333","6502200","石門區"
"222001","KEA-2212","2018/01/25 19:29:32","新北市深坑區北深路二段123巷17號","121.616611666667","25.0030016666667","6501800","深坑區"
"208002","742-BX","2018/01/25 19:29:41","新北市金山區仁愛路87巷1號","121.634571666667","25.22142","6502700","金山區"
"208003","665-BX","2018/01/25 19:29:34","新北市金山區中山路263巷14號","121.636416666667","25.22155","6502700","金山區"
"208001","761-BX","2018/01/25 19:29:32","新北市金山區金包里街117號","121.637556666667","25.2225383333333","6502700","金山區"
"251009","008-UM","2018/01/25 19:29:26","新北市淡水區大忠街5巷9號","121.44335","25.17655","6501000","淡水區"
"251005","010-UM","2018/01/25 19:29:33","新北市淡水區水源街一段71巷12號","121.444331666667","25.17289","6501000","淡水區"
"251013","179-VK","2018/01/25 19:29:30","新北市淡水區頂田寮路558號","121.469176666667","25.217","6501000","淡水區"
"251014","180-VK","2018/01/25 19:29:35","新北市淡水區小中寮19-7號","121.484743333333","25.2296283333333","6501000","淡水區"
"251015","182-VK","2018/01/25 19:29:28","新北市淡水區北新路三段38巷7號","121.484503333333","25.1870266666667","6501000","淡水區"
"251010","413-VK","2018/01/25 19:29:42","新北市淡水區中正路二段150號","121.422846666667","25.1877066666667","6501000","淡水區"
"251012","441-VK","2018/01/25 19:29:26","新北市淡水區中山北路三段164號","121.445716666667","25.1965616666667","6501000","淡水區"
"251016","442-VK","2018/01/25 19:29:26","新北市淡水區淡金路三段350巷18號","121.450813333333","25.20836","6501000","淡水區"
"251001","559-UM","2018/01/25 19:29:22","新北市淡水區民權路155號","121.45996","25.1363116666667","6501000","淡水區"
"251006","561-UM","2018/01/25 19:29:31","新北市淡水區大義街40號","121.442123333333","25.1784466666667","6501000","淡水區"
"251007","577-R6","2018/01/25 19:29:38","新北市淡水區坪頂路48號","121.457906666667","25.1623633333333","6501000","淡水區"
"251011","650-BX","2018/01/25 19:29:25","新北市淡水區中正東路二段161巷11弄14號","121.460548333333","25.1464316666667","6501000","淡水區"
"251003","766-UM","2018/01/25 19:29:28","新北市淡水區中山北路二段185號","121.44424","25.18506","6501000","淡水區"
"207004","291-VK","2018/01/25 19:29:34","新北市萬里區萬里里瑪鋉路127-8號","121.68892","25.1778583333333","6502800","萬里區"
"207003","225-TW","2018/01/25 19:29:40","新北市萬里區大鵬里萬里加投197號","121.644021666667","25.215025","6502800","萬里區"
"252002","178-VK","2018/01/25 19:29:27","新北市三芝區淡金路二段18-1號","121.50258","25.2596166666667","6502100","三芝區"
"252001","292-VK","2018/01/25 19:29:38","新北市三芝區長勤街48-1號","121.500406666667","25.2553066666667","6502100","三芝區"
"237004","078-UY","2018/01/25 19:29:22","新北市三峽區有木131-10號","121.436463333333","24.854795","6500900","三峽區"
"237007","153-BY","2018/01/25 19:29:22","新北市三峽區中正路二段584巷4弄5號","121.359093333333","24.906775","6500900","三峽區"
"237009","210-TH","2018/01/25 19:29:29","新北市三峽區中山路11號","121.369491666667","24.9343783333333","6500900","三峽區"
"237013","252-BX","2018/01/25 19:29:36","新北市三峽區介壽路一段286號","121.379806666667","24.9302266666667","6500900","三峽區"
"237012","275-BY","2018/01/25 19:29:42","新北市三峽區三樹路98巷169號","121.384545","24.9394283333333","6500900","三峽區"
"237008","302-VK","2018/01/25 19:29:39","新北市三峽區大同路154號","121.373113333333","24.9268183333333","6500900","三峽區"
"237014","433-BY","2018/01/25 19:29:24","新北市三峽區中山路67巷32號","121.366868333333","24.934175","6500900","三峽區"
"237006","5529-G3","2018/01/25 19:29:30","新北市三峽區大同路152號","121.373278333333","24.9267016666667","6500900","三峽區"
"237016","649-BX","2018/01/25 19:29:34","新北市三峽區安坑13-3號","121.443796666667","24.926575","6500900","三峽區"
"237010","706-TV","2018/01/25 19:29:21","新北市三峽區復興路235號","121.368405","24.9391033333333","6500900","三峽區"
"237005","AKY-6261","2018/01/25 19:29:34","新北市三峽區復興路367巷7號","121.363848333333","24.9379116666667","6500900","三峽區"
"236071","105-UM","2018/01/25 19:29:30","新北市土城區學府路一段143巷20弄2號","121.453706666667","24.9853033333333","6501300","土城區"
"236078","166-UM","2018/01/25 19:29:38","新北市土城區中州路3巷11弄4號","121.413888333333","24.9568766666667","6501300","土城區"
"236030","253-BX","2018/01/25 19:29:35","新北市土城區中央路一段330號","121.443153333333","24.9814216666667","6501300","土城區"
"236026","269-VK","2018/01/25 19:29:23","新北市土城區中央路二段61巷26號","121.443276666667","24.9786966666667","6501300","土城區"
"236021","401-BY","2018/01/25 19:29:39","新北市土城區峰廷街3號","121.469095","24.9873283333333","6501300","土城區"
"236058","912-UM","2018/01/25 19:29:28","新北市土城區中央路二段274號","121.441093333333","24.9742583333333","6501300","土城區"
"236051","913-UM","2018/01/25 19:29:31","新北市土城區清水路144號","121.458841666667","24.98152","6501300","土城區"
"238015","755-BX","2018/01/25 19:29:35","新北市樹林區復興路196號","121.419915","24.990975","6500700","樹林區"
"238023","601-UM","2018/01/25 19:29:26","桃園市龜山區萬壽路一段274號","121.403678333333","25.0175833333333","6500700","樹林區"
"238019","599-UM","2018/01/25 19:29:15","新北市樹林區太平路45號","121.419075","24.9828516666667","6500700","樹林區"
"238018","571-TV","2018/01/25 19:29:30","新北市樹林區環河路10號","121.42702","24.97823","6500700","樹林區"
"238024","5061-A6","2018/01/25 19:29:05","新北市樹林區中山路三段155巷3號","121.395683333333","24.97263","6500700","樹林區"
"238021","KEA-2217","2018/01/25 19:29:33","新北市樹林區柑園街二段247巷17號","121.375541666667","24.95052","6500700","樹林區"
"238022","KEA-2213","2018/01/25 19:29:23","新北市樹林區名園街21號","121.419415","24.9792833333333","6500700","樹林區"
"238025","303-VK","2018/01/25 19:29:34","新北市樹林區中山路一段179-1號","121.421595","24.9881566666667","6500700","樹林區"
"238017","283-BY","2018/01/25 19:29:30","新北市樹林區光興街74號","121.409241666667","25.00275","6500700","樹林區"
"238014","282-BY","2018/01/25 19:29:33","新北市樹林區保安二街64巷3號","121.424456666667","24.9960366666667","6500700","樹林區"
"238020","268-VK","2018/01/25 19:29:23","新北市樹林區俊英街113-3號","121.424733333333","25.0102133333333","6500700","樹林區"
"238026","172-UY","2018/01/25 19:29:22","新北市樹林區佳園路三段51號","121.387778333333","24.95348","6500700","樹林區"
"238016","169-UY","2018/01/25 19:29:31","新北市樹林區大安路586號","121.411431666667","24.983415","6500700","樹林區"
"239007","AAC-297","2018/01/25 19:29:33","新北市鶯歌區大湖路余厝巷4-1號","121.341838333333","24.961585","6500800","鶯歌區"
"239006","891-R6","2018/01/25 19:29:29","新北市鶯歌區鶯桃路67巷5號","121.34093","24.95236","6500800","鶯歌區"
"239008","527-UM","2018/01/25 19:29:21","新北市鶯歌區大湖路460巷2弄2號","121.339995","24.9724316666667","6500800","鶯歌區"
"239005","526-UM","2018/01/25 19:29:22","新北市鶯歌區中湖街274號","121.348391666667","24.9768816666667","6500800","鶯歌區"
"239001","417-VK","2018/01/25 19:29:29","新北市鶯歌區建國路367巷1號","121.33911","24.949545","6500800","鶯歌區"
"239003","360-BY","2018/01/25 19:29:32","新北市鶯歌區國華路56號","121.342288333333","24.9549333333333","6500800","鶯歌區"
"239004","193-VK","2018/01/25 19:27:03","新北市鶯歌區二甲路26-2號","121.338998333333","24.93587","6500800","鶯歌區"
"221036","130-UY","2018/01/25 19:29:41","新北市汐止區汐萬路一段256巷3號","121.653406666667","25.074775","6501100","汐止區"
"221010","269-BY","2018/01/25 19:29:27","新北市汐止區連峰街7號","121.646355","25.0772733333333","6501100","汐止區"
"221012","278-VK","2018/01/25 19:29:38","新北市汐止區大同路三段174號","121.674023333333","25.0750766666667","6501100","汐止區"
"221023","279-VK","2018/01/25 19:29:31","新北市汐止區康寧街582號","121.635043333333","25.0698533333333","6501100","汐止區"
"221027","281-BY","2018/01/25 19:29:32","新北市汐止區忠孝東路9號","121.65827","25.066015","6501100","汐止區"
"221002","297-VK","2018/01/25 19:29:27","新北市汐止區大同路一段339-2號","121.638193333333","25.0597366666667","6501100","汐止區"
"221029","298-VK","2018/01/25 19:29:40","新北市汐止區康寧街901號","121.651416666667","25.0749333333333","6501100","汐止區"
"221031","353-TW","2018/01/25 19:29:40","新北市汐止區汐萬路一段256巷3號","121.653396666667","25.074475","6501100","汐止區"
"221008","358-BY","2018/01/25 19:29:21","新北市汐止區康寧街235號","121.623981666667","25.0668433333333","6501100","汐止區"
"221015","567-BX","2018/01/25 19:29:26","新北市汐止區康寧街901號","121.651663333333","25.0749933333333","6501100","汐止區"
"221025","623-UM","2018/01/25 19:29:30","新北市汐止區新台五路二段28號","121.660743333333","25.0652466666667","6501100","汐止區"
"221038","646-BX","2018/01/25 19:29:37","新北市汐止區汐萬路一段39號","121.655226666667","25.0688166666667","6501100","汐止區"
"221033","647-BX","2018/01/25 19:29:32","新北市汐止區南勢街1巷1號","121.627038333333","25.03741","6501100","汐止區"
"220079","145-BY","2018/01/25 19:29:28","新北市板橋區民權路202巷13弄2號","121.459613333333","25.01624","6500100","板橋區"
"220080","200-UY","2018/01/25 19:29:26","新北市板橋區大觀路二段37巷89號","121.450348333333","25.0024683333333","6500100","板橋區"
"220082","610-BX","2018/01/25 19:29:29","新北市板橋區金門街231號","121.432225","24.9896616666667","6500100","板橋區"
"220101","245-BX","2018/01/25 19:29:38","新北市板橋區縣民大道三段133巷19號","121.477076666667","25.0238466666667","6500100","板橋區"
"220102","255-TC","2018/01/25 19:29:40","新北市板橋區雙十路二段130巷2弄7號","121.474341666667","25.0290783333333","6500100","板橋區"
"220103","257-TC","2018/01/25 19:29:38","新北市板橋區文化路一段210號","121.466453333333","25.020175","6500100","板橋區"
"220056","276-BY","2018/01/25 19:29:40","新北市板橋區信義路1巷26弄36號","121.458703333333","24.99661","6500100","板橋區"
"220072","277-BY","2018/01/25 19:29:40","新北市板橋區金門街226號","121.430816666667","24.9875783333333","6500100","板橋區"
"220094","283-UM","2018/01/25 19:29:27","新北市板橋區吳鳳路50號","121.467966666667","25.0304233333333","6500100","板橋區"
"220071","283-VK","2018/01/25 19:29:32","新北市板橋區忠孝路24巷18號","121.460125","25.0012316666667","6500100","板橋區"
"220053","285-VK","2018/01/25 19:29:28","新北市板橋區永豐街118號","121.476311666667","25.020815","6500100","板橋區"
"220083","286-VK","2018/01/25 19:29:40","新北市板橋區龍興街73巷38號","121.442498333333","25.0027616666667","6500100","板橋區"
"220081","287-VK","2018/01/25 19:29:39","新北市板橋區大觀路一段28巷1弄102號","121.451855","25.006345","6500100","板橋區"
"220090","288-VK","2018/01/25 19:29:41","新北市板橋區裕民街92號","121.460295","25.028065","6500100","板橋區"
"220061","293-UM","2018/01/25 19:29:26","新北市板橋區中山路二段197號","121.476373333333","25.017195","6500100","板橋區"
"220062","295-UM","2018/01/25 19:29:22","新北市板橋區三民路二段153巷4號","121.479651666667","25.0148733333333","6500100","板橋區"
"220084","296-UM","2018/01/25 19:29:40","新北市板橋區篤行路三段玉平巷76弄8號","121.427633333333","24.985785","6500100","板橋區"
"220075","303-R5","2018/01/25 19:29:30","新北市板橋區中正路275巷31號","121.453755","25.0181","6500100","板橋區"
"220092","307-R5","2018/01/25 19:29:41","新北市板橋區光武街2巷47-3號","121.468431666667","25.0259733333333","6500100","板橋區"
"220098","317-R6","2018/01/25 19:29:27","新北市板橋區四維路266巷5弄14號","121.463686666667","25.0288816666667","6500100","板橋區"
"220064","486-VK","2018/01/25 19:29:20","新北市板橋區中山路一段3號","121.459611666667","25.0077633333333","6500100","板橋區"
"220089","487-VK","2018/01/25 19:29:32","新北市板橋區文化路一段123號","121.462081666667","25.0147516666667","6500100","板橋區"
"220088","491-VK","2018/01/25 19:29:37","新北市板橋區雙十路二段4-5號","121.476993333333","25.0257116666667","6500100","板橋區"
"220035","560-BX","2018/01/25 19:29:28","新北市板橋區中正路330號","121.454391666667","25.02167","6500100","板橋區"
"220055","568-UM","2018/01/25 19:29:34","新北市板橋區重慶路278巷20-2號","121.462223333333","24.9995916666667","6500100","板橋區"
"220063","609-BX","2018/01/25 19:29:35","新北市板橋區三民路一段31巷80號","121.48111","25.0232133333333","6500100","板橋區"
"220091","637-BX","2018/01/25 19:29:41","新北市板橋區文聖街135巷27號","121.479013333333","25.028995","6500100","板橋區"
"220057","686-BX","2018/01/25 19:29:34","新北市板橋區五權街18號","121.464433333333","24.9939383333333","6500100","板橋區"
"220077","687-BX","2018/01/25 19:29:35","新北市板橋區僑中二街120巷2號","121.445623333333","25.0059916666667","6500100","板橋區"
"220093","689-BX","2018/01/25 19:29:36","新北市板橋區雨農路27巷2號","121.46124","25.0240983333333","6500100","板橋區"
"220054","741-BX","2018/01/25 19:29:26","新北市板橋區四川路一段210號","121.459451666667","25.002165","6500100","板橋區"
"220067","829-TW","2018/01/25 19:29:38","新北市板橋區漢生東路313巷2弄3號","121.472268333333","25.0081916666667","6500100","板橋區"
"220074","895-R6","2018/01/25 19:29:26","新北市板橋區西門街14號","121.455375","25.0114983333333","6500100","板橋區"
"220073","985-R7","2018/01/25 19:29:40","新北市板橋區中正路281號","121.455541666667","25.0190816666667","6500100","板橋區"
"220097","AAC-210","2018/01/25 19:29:22","新北市板橋區漢生西路183號","121.463081666667","25.0238016666667","6500100","板橋區"
"220070","AAC-253","2018/01/25 19:29:39","新北市板橋區四川路一段126號","121.459916666667","25.0040033333333","6500100","板橋區"
