"lineid","car","time","location","longitude","latitude","cityid","cityname"
"234046","148-BY","2018/01/25 19:49:49","新北市永和區永利路109號","121.523496666667","25.0026783333333","6500400","永和區"
"234007","207-UY","2018/01/25 19:49:47","新北市中和區中和路265號","121.505366666667","24.9997516666667","6500400","永和區"
"234081","298-R6","2018/01/25 19:49:41","新北市永和區國中路1號","121.523966666667","25.0044083333333","6500400","永和區"
"234038","336-UY","2018/01/25 19:49:41","新北市永和區民樂街59巷9號","121.52808","24.9984066666667","6500400","永和區"
"234064","337-UY","2018/01/25 19:49:44","新北市永和區中正路368巷21號","121.518341666667","25.00087","6500400","永和區"
"234086","338-UY","2018/01/25 19:49:43","新北市永和區永利路45號","121.519135","25.0055416666667","6500400","永和區"
"234070","552-UM","2018/01/25 19:49:40","新北市永和區竹林路78號","121.519316666667","25.0127416666667","6500400","永和區"
"234017","745-BX","2018/01/25 19:49:51","新北市永和區永和路二段303號","121.515706666667","25.016445","6500400","永和區"
"234030","746-BX","2018/01/25 19:49:43","新北市永和區四維街103巷16號","121.52366","24.9971333333333","6500400","永和區"
"234054","KEA-2590","2018/01/25 19:49:40","新北市永和區竹林路75巷25弄5號","121.520105","25.01439","6500400","永和區"
"234013","KEA-2591","2018/01/25 19:49:53","新北市永和區保安路292號","121.505098333333","25.0118533333333","6500400","永和區"
"234061","AAD-866","2018/01/25 19:49:53","新北市永和區中正路79號","121.51515","24.99684","6500400","永和區"
"234042","862-TW","2018/01/25 19:49:42","新北市永和區中和路389巷44弄2號","121.508038333333","25.002165","6500400","永和區"
"234050","863-TW","2018/01/25 19:49:56","新北市永和區保安路87號","121.508463333333","25.01448","6500400","永和區"
"234026","9371-KE","2018/01/25 19:49:51","新北市永和區雙和街52巷2號","121.509018333333","25.00318","6500400","永和區"
"234011","9381-KE","2018/01/25 19:49:41","新北市永和區仁愛路352巷94號","121.501161666667","25.0079966666667","6500400","永和區"
"249001","173-UM","2018/01/25 19:49:37","新北市八里區中華路二段250號","121.405336666667","25.1497883333333","6502300","八里區"
"249004","303-UY","2018/01/25 19:49:52","新北市八里區中山路一段268巷5弄22號","121.414478333333","25.1611283333333","6502300","八里區"
"249002","305-UY","2018/01/25 19:49:45","新北市八里區頂寮五街17號","121.451388333333","25.1261066666667","6502300","八里區"
"249003","593-UM","2018/01/25 19:49:50","新北市八里區中華路二段538-4號","121.398726666667","25.1450983333333","6502300","八里區"
"248016","026-BX","2018/01/25 19:49:53","新北市五股區成泰路三段601巷21號","121.451698333333","25.1033233333333","6501500","五股區"
"248008","095-VK","2018/01/25 19:49:45","新北市五股區四維路171巷10號","121.46734","25.075245","6501500","五股區"
"248012","247-BX","2018/01/25 19:49:46","新北市五股區蓬萊路24號","121.433856666667","25.0799433333333","6501500","五股區"
"248014","261-SL","2018/01/25 19:49:45","新北市五股區五福路52巷11弄2號","121.433906666667","25.0899666666667","6501500","五股區"
"248010","272-BY","2018/01/25 19:49:54","新北市五股區登林路76-5號","121.430618333333","25.0695566666667","6501500","五股區"
"248004","677-BX","2018/01/25 19:49:42","新北市五股區成泰路一段42號","121.435371666667","25.06897","6501500","五股區"
"234077","969-R7","2018/01/25 19:49:50","新北市永和區智光街46號","121.517028333333","24.9980083333333","6500400","永和區"
"234074","AAC-211","2018/01/25 19:49:35","新北市永和區竹林路179巷18號","121.52142","25.00985","6500400","永和區"
"234003","AAC-295","2018/01/25 19:49:49","新北市永和區福和路318號","121.515788333333","25.0073366666667","6500400","永和區"
"244017","485-VK","2018/01/25 19:49:41","新北市八里區中華路三段192-1號","121.391828333333","25.128045","6501700","林口區"
"243012","AAD-798","2018/01/25 19:49:53","新北市泰山區全興路20號","121.432288333333","25.0589133333333","6501600","泰山區"
"243011","297-R6","2018/01/25 19:49:46","新北市泰山區明志路三段196巷37號","121.421913333333","25.0398033333333","6501600","泰山區"
"243015","380-SR","2018/01/25 19:49:46","新北市泰山區明志路二段246-1號","121.42685","25.0482516666667","6501600","泰山區"
"243014","421-VK","2018/01/25 19:49:51","新北市泰山區泰林路二段33-8號","121.43515","25.0565216666667","6501600","泰山區"
"243010","KEA-2215","2018/01/25 19:49:36","新北市泰山區民生路33號","121.430523333333","25.0521883333333","6501600","泰山區"
"243009","KEA-2216","2018/01/25 19:49:42","新北市泰山區美寧街75號","121.431338333333","25.064845","6501600","泰山區"
"243013","646-TV","2018/01/25 19:39:59","新北市泰山區應化街32號","121.423798333333","25.0437683333333","6501600","泰山區"
"243016","680-BX","2018/01/25 19:49:36","新北市新莊區中山路三段120號","121.417993333333","25.0325133333333","6501600","泰山區"
"222003","436-BY","2018/01/25 19:32:32","新北市深坑區深南路51-1號","121.621265","25.009785","6501800","深坑區"
"222002","659-BX","2018/01/25 19:49:37","新北市深坑區北深路二段55巷1弄8號","121.619281666667","25.003765","6501800","深坑區"
"231041","002-UM","2018/01/25 19:49:44","新北市新店區中央路155號","121.529821666667","24.9726283333333","6500600","新店區"
"231059","046-UY","2018/01/25 19:49:50","新北市新店區安和路二段1號","121.51776","24.9668533333333","6500600","新店區"
"231061","047-UY","2018/01/25 19:49:41","新北市新店區安民街304號","121.517668333333","24.9737866666667","6500600","新店區"
"231060","106-UY","2018/01/25 19:49:44","新北市新店區安康路二段199號","121.509148333333","24.9589516666667","6500600","新店區"
"231051","107-UY","2018/01/25 19:49:49","新北市新店區中央二街41號","121.527576666667","24.9740916666667","6500600","新店區"
"231047","108-UY","2018/01/25 19:49:48","新北市新店區寶興路61巷2號","121.550856666667","24.9720183333333","6500600","新店區"
"231052","110-UY","2018/01/25 19:49:49","新北市新店區新烏路三段118號","121.552693333333","24.9033083333333","6500600","新店區"
"231050","KEA-2219","2018/01/25 19:49:51","新北市新店區北宜路二段392巷2號","121.565256666667","24.9533433333333","6500600","新店區"
"231057","256-BX","2018/01/25 19:49:53","新北市新店區梅崗三路1號","121.558378333333","24.9312666666667","6500600","新店區"
"231046","278-BY","2018/01/25 19:49:46","新北市新店區三民路159巷19弄46號","121.532278333333","24.97319","6500600","新店區"
"231054","AAD-862","2018/01/25 19:49:52","新北市新店區光明街138巷12號","121.539885","24.96116","6500600","新店區"
"231058","3712-VJ","2018/01/25 19:49:44","新北市新店區安民街65巷15-1號","121.515458333333","24.9666733333333","6500600","新店區"
"231056","3713-VJ","2018/01/25 19:49:46","新北市新店區民權路120號","121.535283333333","24.9828916666667","6500600","新店區"
"231055","4716-K9","2018/01/25 19:49:39","新北市新店區新生街3巷2號","121.540335","24.96567","6500600","新店區"
"231067","4772-VM","2018/01/25 19:49:39","新北市新店區精忠路10-1號","121.532695","24.959065","6500600","新店區"
"231065","512-UM","2018/01/25 19:49:52","新北市新店區安祥路109巷151弄1號","121.477923333333","24.9584883333333","6500600","新店區"
"231064","515-UM","2018/01/25 19:49:37","新北市新店區安和路一段52巷2-1號","121.51763","24.96628","6500600","新店區"
"231042","616-UM","2018/01/25 19:49:44","新北市新店區中興路一段268-2號","121.545216666667","24.9678166666667","6500600","新店區"
"231040","619-UM","2018/01/25 19:49:41","新北市新店區北新路一段96巷23號","121.542968333333","24.9688783333333","6500600","新店區"
"231063","645-TV","2018/01/25 19:49:50","新北市新店區車子路11號","121.503031666667","24.9520416666667","6500600","新店區"
"231068","718-UY","2018/01/25 19:49:41","新北市新店區安華路28-1號","121.519366666667","24.9612133333333","6500600","新店區"
"231049","719-UM","2018/01/25 19:49:46","新北市新店區民權路127巷19號","121.535341666667","24.9817016666667","6500600","新店區"
"231062","720-UM","2018/01/25 19:49:46","新北市新店區永業路105號","121.528626666667","24.9485183333333","6500600","新店區"
"231044","897-TW","2018/01/25 19:49:53","新北市新店區復興路91號","121.535013333333","24.98772","6500600","新店區"
"231045","898-TW","2018/01/25 19:49:43","新北市新店區北宜路二段382號","121.564456666667","24.9529666666667","6500600","新店區"
"231043","899-TW","2018/01/25 19:49:43","新北市新店區中正路217號","121.539721666667","24.97285","6500600","新店區"
"231066","AKT-0513","2018/01/25 19:49:41","新北市新店區安德街60巷17號","121.510238333333","24.9630733333333","6500600","新店區"
"241011","013-R5","2018/01/25 19:49:43","新北市三重區三和路二段173巷47號","121.49932","25.0701716666667","6500200","三重區"
"241028","022-UY","2018/01/25 19:49:54","新北市三重區中正南路200號","121.49387","25.05596","6500200","三重區"
"241008","059-VK","2018/01/25 19:49:37","新北市三重區永福街96號","121.478881666667","25.0759416666667","6500200","三重區"
"241009","060-VK","2018/01/25 19:49:51","新北市三重區三和路四段398-1號","121.481371666667","25.0792316666667","6500200","三重區"
"241031","061-VK","2018/01/25 19:49:54","新北市三重區重新路四段242-2號","121.48593","25.0536233333333","6500200","三重區"
"241015","062-VK","2018/01/25 19:49:53","新北市三重區三和路一段2號","121.503856666667","25.0642383333333","6500200","三重區"
"241017","063-VK","2018/01/25 19:49:50","新北市三重區重陽路三段5巷8弄11號","121.489713333333","25.0661633333333","6500200","三重區"
"241003","091-VK","2018/01/25 19:49:46","新北市三重區五華街87巷56號","121.493581666667","25.0844716666667","6500200","三重區"
"241025","156-TC","2018/01/25 19:49:51","新北市三重區大有街1-1號","121.47767","25.0653016666667","6500200","三重區"
"241005","262-UM","2018/01/25 19:49:35","新北市三重區溪尾街311號","121.487671666667","25.08409","6500200","三重區"
"241026","265-UM","2018/01/25 19:49:55","新北市三重區光興街1號","121.50033","25.0603266666667","6500200","三重區"
"241016","266-UM","2018/01/25 19:49:46","新北市三重區正德街67號","121.495508333333","25.0634416666667","6500200","三重區"
"241022","267-UM","2018/01/25 19:49:50","新北市三重區新北大道一段7號","121.489755","25.06139","6500200","三重區"
"241018","268-UM","2018/01/25 19:49:43","新北市三重區雙園街57巷4號","121.494791666667","25.0675933333333","6500200","三重區"
"241032","269-UM","2018/01/25 19:49:42","新北市三重區重陽路一段44巷10號","121.486011666667","25.0577016666667","6500200","三重區"
"241013","270-UM","2018/01/25 19:49:41","新北市三重區仁愛街102巷8號","121.494758333333","25.0738933333333","6500200","三重區"
"241007","398-BY","2018/01/25 19:49:58","新北市三重區三和路四段121-1號","121.48499","25.0777366666667","6500200","三重區"
"241020","413-TH","2018/01/25 19:49:45","新北市三重區三和路四段3號","121.491563333333","25.0739983333333","6500200","三重區"
"241004","475-VK","2018/01/25 19:49:55","新北市三重區五華街74號","121.493448333333","25.0819866666667","6500200","三重區"
"241019","478-VK","2018/01/25 19:49:48","新北市三重區自強路二段74巷25號","121.487675","25.069715","6500200","三重區"
"241030","480-VK","2018/01/25 19:49:42","新北市三重區環河南路254巷22號","121.490235","25.0510216666667","6500200","三重區"
"241014","543-UM","2018/01/25 19:49:50","新北市三重區長安街82號","121.501476666667","25.0674616666667","6500200","三重區"
"241023","545-UM","2018/01/25 19:49:48","新北市三重區大有街1-1號","121.477696666667","25.0656016666667","6500200","三重區"
"241001","547-UM","2018/01/25 19:49:51","新北市三重區仁愛街327巷21號","121.492945","25.0797366666667","6500200","三重區"
"241006","AAD-863","2018/01/25 19:49:43","新北市三重區永福街279號","121.482473333333","25.0742083333333","6500200","三重區"
"241035","743-BX","2018/01/25 19:49:52","新北市三重區文化北路6-2號","121.499645","25.0635716666667","6500200","三重區"
"241012","941-UM","2018/01/25 19:49:41","新北市三重區仁興街42巷12號","121.4984","25.0753833333333","6500200","三重區"
"241029","942-UM","2018/01/25 19:49:38","新北市三重區光明路31-1號","121.491321666667","25.05834","6500200","三重區"
"241033","AAC-255","2018/01/25 19:49:46","新北市三重區中興南街74號","121.470888333333","25.043675","6500200","三重區"
"235066","003-UY","2018/01/25 19:49:52","新北市中和區南工路56號","121.506188333333","25.0015516666667","6500300","中和區"
"235064","005-UY","2018/01/25 19:49:35","新北市中和區南山路30號","121.501978333333","24.9979133333333","6500300","中和區"
"235063","006-UY","2018/01/25 19:49:44","新北市中和區連城路176號","121.493126666667","24.997","6500300","中和區"
"235057","031-BX","2018/01/25 19:49:53","新北市中和區員山路203號","121.481228333333","24.99748","6500300","中和區"
"235056","096-UM","2018/01/25 19:49:54","新北市中和區中山路三段112號","121.476256666667","25.005915","6500300","中和區"
"235039","097-UM","2018/01/25 19:49:53","新北市中和區大勇街8號","121.517115","24.9926116666667","6500300","中和區"
"235065","098-UM","2018/01/25 19:49:44","新北市中和區福祥路90巷5號","121.499631666667","25.0058416666667","6500300","中和區"
"235040","150-BY","2018/01/25 19:49:53","新北市中和區安平路38號","121.509698333333","24.9949483333333","6500300","中和區"
"235058","151-BY","2018/01/25 19:49:44","新北市中和區員山路144-1號","121.48134","24.9966516666667","6500300","中和區"
"235055","183-VK","2018/01/25 19:49:36","新北市中和區德光路29號","121.470771666667","25.004075","6500300","中和區"
"235038","185-VK","2018/01/25 19:49:42","新北市中和區自立路5號","121.522523333333","24.996595","6500300","中和區"
"235013","186-VK","2018/01/25 19:49:59","新北市中和區中興街37號","121.500806666667","24.994405","6500300","中和區"
"235067","255-BX","2018/01/25 19:49:41","新北市中和區新生街180號","121.483691666667","24.9998383333333","6500300","中和區"
"235044","293-VK","2018/01/25 19:49:55","新北市中和區景安路211號","121.504591666667","24.99172","6500300","中和區"
"235072","301-VK","2018/01/25 19:49:40","新北市中和區錦和路91-1號","121.490041666667","24.9957083333333","6500300","中和區"
"235043","352-BY","2018/01/25 19:49:51","新北市中和區華新街228號","121.506143333333","24.981715","6500300","中和區"
"235068","377-QA","2018/01/25 19:49:45","新北市新店區灣潭路2-6號","121.534265","24.9508033333333","6500300","中和區"
"235061","378-QA","2018/01/25 19:49:49","新北市中和區員山路174巷11號","121.482075","24.9999433333333","6500300","中和區"
"235050","4979-A6","2018/01/25 19:49:41","新北市中和區景平路241巷82弄27號","121.506685","24.9922966666667","6500300","中和區"
"235069","4980-A6","2018/01/25 19:49:46","新北市中和區中正路395號","121.49007","24.9937866666667","6500300","中和區"
"235042","551-UM","2018/01/25 19:49:51","新北市中和區保健路2巷32號","121.506951666667","24.9974083333333","6500300","中和區"
"235045","565-BX","2018/01/25 19:49:38","新北市中和區景平路177號","121.51185","24.9925033333333","6500300","中和區"
"235054","640-BX","2018/01/25 19:49:40","新北市中和區莒光路63號","121.472326666667","25.0037766666667","6500300","中和區"
"235060","647-TV","2018/01/25 19:49:39","新北市中和區員山路390號","121.480571666667","25.004525","6500300","中和區"
"235047","732-UM","2018/01/25 19:49:42","新北市中和區和平街7-1號","121.509323333333","24.9902433333333","6500300","中和區"
"235046","733-UM","2018/01/25 19:49:51","新北市中和區仁愛街49號","121.511193333333","24.9881533333333","6500300","中和區"
"235041","802-TS","2018/01/25 19:49:55","新北市中和區中安街40巷2號","121.512791666667","25.0029566666667","6500300","中和區"
"235052","805-TS","2018/01/25 19:49:54","新北市中和區興南路二段77號","121.506633333333","24.9848533333333","6500300","中和區"
"235048","896-TW","2018/01/25 19:49:51","新北市中和區興南路一段137號","121.508831666667","24.98762","6500300","中和區"
"235053","900-TW","2018/01/25 19:49:53","新北市中和區國光街189巷26號","121.46764","25.0007766666667","6500300","中和區"
"235051","157-BY","2018/01/25 19:49:36","新北市中和區中興街123號","121.499961666667","24.99175","6500300","中和區"
"235037","AAC-213","2018/01/25 19:49:52","新北市中和區秀朗路三段159號","121.524773333333","24.99205","6500300","中和區"
"235059","AAC-215","2018/01/25 19:49:57","新北市中和區圓通路305巷18號","121.49501","24.9890816666667","6500300","中和區"
"220068","013-TV","2018/01/25 19:49:49","新北市板橋區中山路二段416巷1弄4號","121.483283333333","25.0208516666667","6500100","板橋區"
"220065","072-UY","2018/01/25 19:49:47","新北市板橋區民族路229號","121.46977","25.00719","6500100","板橋區"
"220034","073-UY","2018/01/25 19:49:50","新北市板橋區南雅西路二段40號","121.452915","25.0100566666667","6500100","板橋區"
"220106","075-UY","2018/01/25 19:49:39","新北市板橋區文化路二段652號","121.478523333333","25.0356616666667","6500100","板橋區"
"220069","AAD-861","2018/01/25 19:49:38","新北市板橋區貴興路119巷3號","121.455781666667","25.00216","6500100","板橋區"
"220096","120-SR","2018/01/25 19:49:49","新北市板橋區莒光路16巷32號","121.469346666667","25.0239116666667","6500100","板橋區"
"247008","341-TH","2018/01/25 19:49:42","新北市蘆洲區信義路113巷1弄19號","121.477626666667","25.0802183333333","6501400","蘆洲區"
"247002","337-TH","2018/01/25 19:49:54","新北市蘆洲區永樂街38巷57弄2號","121.458423333333","25.09024","6501400","蘆洲區"
"247004","336-TH","2018/01/25 19:49:54","新北市蘆洲區中原路59號","121.458951666667","25.081975","6501400","蘆洲區"
"247016","057-VK","2018/01/25 19:49:36","新北市蘆洲區中正路259號","121.467615","25.087145","6501400","蘆洲區"
"247006","056-VK","2018/01/25 19:49:51","新北市蘆洲區永安南路二段42-1號","121.466591666667","25.0774433333333","6501400","蘆洲區"
"247014","007-UY","2018/01/25 19:49:41","新北市蘆洲區復興路30號","121.472181666667","25.0852866666667","6501400","蘆洲區"
"226004","312-R5","2018/01/25 19:49:47","新北市平溪區十分里十分街66巷17號","121.774898333333","25.0426783333333","6502400","平溪區"
"228003","097-TW","2018/01/25 19:49:42","新北市貢寮區真理里延平街72-5號","121.925091666667","25.0584316666667","6502600","貢寮區"
"228001","212-TW","2018/01/25 19:49:42","新北市貢寮區仁理村仁愛路122號","121.927283333333","25.0549","6502600","貢寮區"
"224010","AGQ-8101","2018/01/25 19:49:41","新北市瑞芳區輕便路280號","121.844165","25.10929","6501200","瑞芳區"
"224002","639-TC","2018/01/25 19:49:44","新北市瑞芳區員山子路員山巷19-1號","121.816716666667","25.103965","6501200","瑞芳區"
"227010","642-TC","2018/01/25 19:49:50","新北市雙溪區新基里自強路7號","121.86618","25.0390016666667","6502500","雙溪區"
"227004","400-TW","2018/01/25 19:49:39","新北市雙溪區雙溪里內挖路36號","121.863191666667","25.0367916666667","6502500","雙溪區"
"222001","KEA-2212","2018/01/25 19:49:52","新北市深坑區北深路三段68號","121.607883333333","25.00138","6501800","深坑區"
"208002","742-BX","2018/01/25 19:49:41","新北市金山區中華路366-7號","121.633328333333","25.2244766666667","6502700","金山區"
"208003","665-BX","2018/01/25 19:49:54","新北市金山區清泉里清水路12號","121.630063333333","25.2288516666667","6502700","金山區"
"208001","761-BX","2018/01/25 19:49:41","新北市金山區重和里六股林口81-1號","121.603683333333","25.2180566666667","6502700","金山區"
"251009","008-UM","2018/01/25 19:49:46","新北市淡水區中正路32號","121.443826666667","25.169225","6501000","淡水區"
"251004","009-UM","2018/01/25 19:49:43","新北市淡水區民權路177巷55號","121.46049","25.1338033333333","6501000","淡水區"
"251005","010-UM","2018/01/25 19:49:53","新北市淡水區中正東路6號","121.446995","25.1671866666667","6501000","淡水區"
"251013","179-VK","2018/01/25 19:49:50","新北市淡水區頂田寮1-3號","121.457505","25.2151416666667","6501000","淡水區"
"251014","180-VK","2018/01/25 19:49:35","新北市淡水區番社前1號","121.468033333333","25.2360716666667","6501000","淡水區"
"251008","181-VK","2018/01/25 19:49:37","新北市淡水區中正路二段24巷2-1號","121.426766666667","25.1769866666667","6501000","淡水區"
"251015","182-VK","2018/01/25 19:49:48","新北市淡水區北新路三段112號","121.4862","25.188275","6501000","淡水區"
"251012","441-VK","2018/01/25 19:49:46","新北市淡水區淡金路三段27號","121.446308333333","25.197285","6501000","淡水區"
"251016","442-VK","2018/01/25 19:49:46","新北市淡水區三塊厝2號","121.452826666667","25.2104433333333","6501000","淡水區"
"251001","559-UM","2018/01/25 19:49:42","新北市淡水區中正東路二段37號","121.459253333333","25.156245","6501000","淡水區"
"251006","561-UM","2018/01/25 19:49:51","新北市淡水區水碓街15號","121.443486666667","25.1769833333333","6501000","淡水區"
"251007","577-R6","2018/01/25 19:49:58","新北市淡水區竿蓁一街101號","121.454691666667","25.1664","6501000","淡水區"
"251011","650-BX","2018/01/25 19:49:45","新北市淡水區淡金路二段138號","121.446928333333","25.188","6501000","淡水區"
"251002","672-BX","2018/01/25 19:49:52","新北市淡水區新市二路三段16號","121.431825","25.1938816666667","6501000","淡水區"
"207004","291-VK","2018/01/25 19:49:54","新北市萬里區萬里里瑪鋉路238號","121.68919","25.1804183333333","6502800","萬里區"
"207003","225-TW","2018/01/25 19:49:39","新北市萬里區大鵬里萬里加投205-1號","121.643725","25.2153083333333","6502800","萬里區"
"252002","178-VK","2018/01/25 19:49:47","新北市三芝區三民街33-1號","121.504635","25.2585266666667","6502100","三芝區"
"252001","292-VK","2018/01/25 19:49:38","新北市三芝區公正街9號","121.49977","25.257495","6502100","三芝區"
"237004","078-UY","2018/01/25 19:49:42","新北市三峽區添福141-13號","121.37427","24.9009183333333","6500900","三峽區"
"237007","153-BY","2018/01/25 19:49:42","新北市三峽區二鬮路136巷2弄27號","121.359476666667","24.9088433333333","6500900","三峽區"
"237009","210-TH","2018/01/25 19:49:49","新北市三峽區中園街62-3號","121.368076666667","24.9257266666667","6500900","三峽區"
"237013","252-BX","2018/01/25 19:49:52","新北市三峽區溪北街35號","121.39686","24.9361483333333","6500900","三峽區"
"237012","275-BY","2018/01/25 19:49:42","新北市三峽區中華路30-2號","121.373253333333","24.9318916666667","6500900","三峽區"
"237008","302-VK","2018/01/25 19:49:39","新北市三峽區永安街179號","121.37315","24.9269916666667","6500900","三峽區"
"237014","433-BY","2018/01/25 19:49:44","新北市三峽區添福14-31號","121.373273333333","24.9003983333333","6500900","三峽區"
"237006","5529-G3","2018/01/25 19:49:50","新北市三峽區中正路一段336巷15弄2號","121.369923333333","24.9249616666667","6500900","三峽區"
"237016","649-BX","2018/01/25 19:49:54","新北市三峽區溪東路307號","121.40962","24.9308933333333","6500900","三峽區"
"237005","AKY-6261","2018/01/25 19:49:54","新北市三峽區民生街102號","121.373818333333","24.93547","6500900","三峽區"
"236071","105-UM","2018/01/25 19:49:49","新北市土城區水源街5號","121.441343333333","24.9749316666667","6501300","土城區"
"236042","107-UM","2018/01/25 19:49:55","新北市土城區金城路二段245巷21號","121.455211666667","24.9834466666667","6501300","土城區"
"236078","166-UM","2018/01/25 19:49:38","新北市土城區溪頭路131號","121.409728333333","24.9513366666667","6501300","土城區"
"236030","253-BX","2018/01/25 19:49:55","新北市土城區中央路一段290號","121.443298333333","24.9824733333333","6501300","土城區"
"236026","269-VK","2018/01/25 19:49:49","新北市土城區中央路二段61巷46號","121.444188333333","24.97851","6501300","土城區"
"236037","271-VK","2018/01/25 19:49:48","新北市土城區國際路158巷39號","121.468411666667","24.9755716666667","6501300","土城區"
"236021","401-BY","2018/01/25 19:49:39","新北市土城區峰廷街3號","121.469365","24.9874216666667","6501300","土城區"
"236058","912-UM","2018/01/25 19:49:48","新北市土城區中央路一段289-2號","121.444261666667","24.9839666666667","6501300","土城區"
"236051","913-UM","2018/01/25 19:49:54","新北市土城區青雲路250-1號","121.458996666667","24.979995","6501300","土城區"
"236062","915-UM","2018/01/25 19:49:44","新北市土城區延和路105巷4弄2號","121.46755","24.9906616666667","6501300","土城區"
"236053","AAC-216","2018/01/25 19:49:42","新北市土城區延和路89號","121.466921666667","24.9898916666667","6501300","土城區"
"242031","AAC-296","2018/01/25 19:49:38","新北市新莊區公園一路95號","121.444378333333","25.03781","6500500","新莊區"
"242029","986-R7","2018/01/25 19:49:52","新北市新莊區幸福路848號","121.444273333333","25.049035","6500500","新莊區"
"242025","615-BX","2018/01/25 19:49:44","新北市新莊區五權一路12巷21弄3號","121.457766666667","25.0645466666667","6500500","新莊區"
"242023","613-BX","2018/01/25 19:49:44","新北市新莊區化成路176號","121.46565","25.04563","6500500","新莊區"
"242027","612-BX","2018/01/25 19:49:39","新北市新莊區立信五街10號","121.444156666667","25.0516516666667","6500500","新莊區"
"242044","442-UM","2018/01/25 19:49:43","新北市新莊區新北大道七段365號","121.412248333333","25.0267733333333","6500500","新莊區"
"242034","415-TV","2018/01/25 19:49:41","新北市新莊區公園一路110號","121.44434","25.037455","6500500","新莊區"
"242004","413-TV","2018/01/25 19:49:47","新北市新莊區化成路63巷24弄45號","121.462013333333","25.04588","6500500","新莊區"
"242042","400-BY","2018/01/25 19:49:56","新北市新莊區青山路一段20號","121.411138333333","25.0275516666667","6500500","新莊區"
"242058","353-BY","2018/01/25 19:49:52","新北市新莊區八德街81號","121.424726666667","25.0217466666667","6500500","新莊區"
"242007","132-UY","2018/01/25 19:49:56","新北市新莊區思源路593巷6弄17號","121.458236666667","25.0599816666667","6500500","新莊區"
"242036","133-UY","2018/01/25 19:49:46","新北市新莊區建安街101巷2弄2號","121.426818333333","25.0240233333333","6500500","新莊區"
"242009","173-VK","2018/01/25 19:45:28","新北市板橋區溪頭街163-1號","121.45994","25.032445","6500500","新莊區"
"242002","176-VK","2018/01/25 19:49:38","新北市新莊區武前街29號","121.450313333333","25.0325616666667","6500500","新莊區"
"242013","346-TH","2018/01/25 19:49:38","新北市新莊區中誠街67號","121.450748333333","25.04777","6500500","新莊區"
"242019","348-TH","2018/01/25 19:49:43","新北市新莊區明智街2號","121.454748333333","25.0414683333333","6500500","新莊區"
"242017","350-TH","2018/01/25 19:49:49","新北市新莊區中華路一段226號","121.452636666667","25.042995","6500500","新莊區"
"242011","351-TH","2018/01/25 19:49:46","新北市新莊區中原路297號","121.447771666667","25.054295","6500500","新莊區"
"238015","755-BX","2018/01/25 19:49:55","新北市樹林區東佳路218號","121.410843333333","24.9819383333333","6500700","樹林區"
"238023","601-UM","2018/01/25 19:49:51","新北市樹林區三寶街21號","121.406613333333","25.01549","6500700","樹林區"
"238024","5061-A6","2018/01/25 19:47:05","新北市樹林區中山路三段214號","121.380196666667","24.9679916666667","6500700","樹林區"
"238021","KEA-2217","2018/01/25 19:49:33","新北市樹林區佳園路三段219巷41號","121.38835","24.9462433333333","6500700","樹林區"
"238025","303-VK","2018/01/25 19:49:54","新北市樹林區中山路二段162號","121.412041666667","24.9828983333333","6500700","樹林區"
"238017","283-BY","2018/01/25 19:49:50","新北市樹林區保安街二段45巷15號","121.41529","24.9999783333333","6500700","樹林區"
"238014","282-BY","2018/01/25 19:49:54","新北市樹林區中正路99號","121.425761666667","25.000795","6500700","樹林區"
"238020","268-VK","2018/01/25 19:49:43","新北市板橋區金門街337巷9弄2-1號","121.431941666667","24.98293","6500700","樹林區"
"238026","172-UY","2018/01/25 19:49:46","新北市樹林區佳園路二段15巷33號","121.394836666667","24.9629866666667","6500700","樹林區"
"239007","AAC-297","2018/01/25 19:49:53","新北市鶯歌區大湖路338巷11弄1號","121.346505","24.9694283333333","6500800","鶯歌區"
"239006","891-R6","2018/01/25 19:49:49","新北市鶯歌區文化路122號","121.351966666667","24.9519383333333","6500800","鶯歌區"
"221036","130-UY","2018/01/25 19:49:41","新北市汐止區汐萬路一段306號","121.650351666667","25.074625","6501100","汐止區"
"221010","269-BY","2018/01/25 19:49:47","新北市汐止區八連路一段13號","121.648423333333","25.0805583333333","6501100","汐止區"
"221012","278-VK","2018/01/25 19:49:54","新北市汐止區保長路267號","121.6809","25.07434","6501100","汐止區"
"221023","279-VK","2018/01/25 19:49:51","新北市汐止區民族六街3巷2號","121.629563333333","25.0701516666667","6501100","汐止區"
"221032","280-BY","2018/01/25 19:49:40","新北市汐止區橫科路119號","121.620226666667","25.0502716666667","6501100","汐止區"
"221027","281-BY","2018/01/25 19:49:52","新北市汐止區忠孝東路9號","121.658271666667","25.0659816666667","6501100","汐止區"
"221029","298-VK","2018/01/25 19:49:40","新北市汐止區康寧街901號","121.651391666667","25.0749516666667","6501100","汐止區"
"221021","299-VK","2018/01/25 19:49:37","新北市汐止區新興路78號","121.657688333333","25.0618816666667","6501100","汐止區"
"221031","353-TW","2018/01/25 19:49:40","新北市汐止區福德二路54巷4號","121.633778333333","25.067485","6501100","汐止區"
"221008","358-BY","2018/01/25 19:49:41","新北市汐止區康寧街39號","121.618518333333","25.0668116666667","6501100","汐止區"
"221015","567-BX","2018/01/25 19:49:46","新北市汐止區大同路二段538號","121.661436666667","25.068705","6501100","汐止區"
"221035","622-UM","2018/01/25 19:49:38","新北市汐止區長江街13巷6弄3號","121.654796666667","25.0716716666667","6501100","汐止區"
"221025","623-UM","2018/01/25 19:49:50","新北市汐止區新台五路二段70巷25號","121.661811666667","25.0648633333333","6501100","汐止區"
"221038","646-BX","2018/01/25 19:49:37","新北市汐止區忠孝東路295號","121.664126666667","25.0688716666667","6501100","汐止區"
"221033","647-BX","2018/01/25 19:49:53","新北市汐止區東勢街76巷100-1號","121.636371666667","25.038985","6501100","汐止區"
"221018","753-BX","2018/01/25 19:49:50","新北市汐止區茄苳路2巷1號","121.6645","25.0707766666667","6501100","汐止區"
"220079","145-BY","2018/01/25 19:49:48","新北市板橋區建國街32巷1號","121.457883333333","25.0169","6500100","板橋區"
"220080","200-UY","2018/01/25 19:49:53","新北市板橋區大觀路二段59巷31號","121.447621666667","25.0024583333333","6500100","板橋區"
"220082","610-BX","2018/01/25 19:49:49","新北市板橋區溪北路75號","121.428228333333","24.9895616666667","6500100","板橋區"
"220101","245-BX","2018/01/25 19:49:38","新北市板橋區縣民大道三段93巷23號","121.47478","25.0223833333333","6500100","板橋區"
"220102","255-TC","2018/01/25 19:49:52","新北市板橋區松柏街50巷2號","121.475716666667","25.0301633333333","6500100","板橋區"
"220103","257-TC","2018/01/25 19:49:58","新北市板橋區陽明街27巷12號","121.465418333333","25.0212366666667","6500100","板橋區"
"220056","276-BY","2018/01/25 19:49:41","新北市板橋區四川路二段97號","121.452555","24.99474","6500100","板橋區"
"220072","277-BY","2018/01/25 19:49:50","新北市板橋區金門街161號","121.43292","24.9903816666667","6500100","板橋區"
"220094","283-UM","2018/01/25 19:49:47","新北市板橋區長江路一段110號","121.459811666667","25.02955","6500100","板橋區"
"220071","283-VK","2018/01/25 19:49:52","新北市板橋區五權街32巷22號","121.464106666667","24.992855","6500100","板橋區"
"220053","285-VK","2018/01/25 19:49:48","新北市板橋區中山路二段90巷10號","121.475375","25.015955","6500100","板橋區"
"220083","286-VK","2018/01/25 19:49:40","新北市板橋區龍興街63巷22號","121.442613333333","25.0015766666667","6500100","板橋區"
"220081","287-VK","2018/01/25 19:49:55","新北市板橋區大觀路一段29巷15號","121.450181666667","25.00801","6500100","板橋區"
"220090","288-VK","2018/01/25 19:49:51","新北市板橋區龍泉街54巷5號","121.456838333333","25.02653","6500100","板橋區"
"220061","293-UM","2018/01/25 19:49:46","新北市板橋區板新路200巷4號","121.469151666667","25.0160933333333","6500100","板橋區"
"220062","295-UM","2018/01/25 19:49:42","新北市板橋區三民路二段81巷27弄28號","121.481291666667","25.01771","6500100","板橋區"
"220084","296-UM","2018/01/25 19:49:41","新北市板橋區溪崑二街128號","121.425908333333","24.98804","6500100","板橋區"
"242048","281-VK","2018/01/25 19:49:38","新北市新莊區建安街76巷3弄18號","121.425705","25.024815","6500500","新莊區"
"220075","303-R5","2018/01/25 19:49:50","新北市板橋區大勇街9號","121.455516666667","25.017465","6500100","板橋區"
"220092","307-R5","2018/01/25 19:49:41","新北市板橋區四維路125號","121.465305","25.0249916666667","6500100","板橋區"
"220098","317-R6","2018/01/25 19:49:47","新北市板橋區四維路269巷89號","121.459836666667","25.02661","6500100","板橋區"
"220064","486-VK","2018/01/25 19:49:45","新北市板橋區館前東路106號","121.462975","25.0074","6500100","板橋區"
"220089","487-VK","2018/01/25 19:49:32","新北市板橋區龍泉街82巷14弄1號","121.455671666667","25.02564","6500100","板橋區"
"242021","280-VK","2018/01/25 19:49:51","新北市新莊區建中街52號","121.448471666667","25.037255","6500500","新莊區"
"220088","491-VK","2018/01/25 19:49:52","新北市板橋區文聖街107號","121.477808333333","25.0293616666667","6500100","板橋區"
"220035","560-BX","2018/01/25 19:49:47","新北市板橋區金華街10巷13號","121.456246666667","25.02027","6500100","板橋區"
"220055","568-UM","2018/01/25 19:49:53","新北市板橋區國慶路149巷4弄16-4號","121.461913333333","24.996975","6500100","板橋區"
"220063","609-BX","2018/01/25 19:49:49","新北市板橋區中山路二段337號","121.479546666667","25.0188933333333","6500100","板橋區"
"220091","637-BX","2018/01/25 19:49:50","新北市板橋區懷德街127巷23弄31號","121.480258333333","25.032255","6500100","板橋區"
"220057","686-BX","2018/01/25 19:49:54","新北市板橋區廣和街85號","121.462758333333","24.9918283333333","6500100","板橋區"
"220077","687-BX","2018/01/25 19:49:46","新北市板橋區僑中一街102巷7弄20號","121.446073333333","25.0130216666667","6500100","板橋區"
"220093","689-BX","2018/01/25 19:49:52","新北市板橋區長江路二段238號","121.468835","25.0325466666667","6500100","板橋區"
"220054","741-BX","2018/01/25 19:49:46","新北市板橋區忠孝路忠義巷16弄1號","121.465918333333","25.0036816666667","6500100","板橋區"
"220067","829-TW","2018/01/25 19:49:42","新北市板橋區民生路一段19號","121.475048333333","25.0114666666667","6500100","板橋區"
"220074","895-R6","2018/01/25 19:49:46","新北市板橋區大東街35號","121.456606666667","25.00855","6500100","板橋區"
"220073","985-R7","2018/01/25 19:49:49","新北市板橋區大仁街61號","121.454315","25.0162516666667","6500100","板橋區"
"220097","AAC-210","2018/01/25 19:49:46","新北市板橋區文化路一段285巷2弄29號","121.463983333333","25.01952","6500100","板橋區"
"220070","AAC-253","2018/01/25 19:49:45","新北市板橋區民族路65號","121.465283333333","25.008725","6500100","板橋區"
