"lineid","car","time","location","longitude","latitude","cityid","cityname"
"234081","298-R6","2018/01/25 20:29:02","新北市永和區永亨路66號","121.520851666667","25.0059083333333","6500400","永和區"
"234038","336-UY","2018/01/25 20:29:23","新北市永和區民樂街31巷17弄6號","121.528471666667","25.0018916666667","6500400","永和區"
"234064","337-UY","2018/01/25 20:29:04","新北市永和區中正路433號","121.517138333333","25.00508","6500400","永和區"
"234086","338-UY","2018/01/25 20:29:20","新北市永和區光復街21號","121.516505","25.01739","6500400","永和區"
"234070","552-UM","2018/01/25 20:29:19","新北市永和區永亨路7號","121.519395","25.0057116666667","6500400","永和區"
"234017","745-BX","2018/01/25 20:29:21","新北市永和區仁愛路97號","121.512835","25.0130716666667","6500400","永和區"
"234030","746-BX","2018/01/25 20:29:03","新北市中和區大勇街2號","121.517208333333","24.9924216666667","6500400","永和區"
"234054","KEA-2590","2018/01/25 20:29:20","新北市永和區光復街60巷20弄2號","121.517673333333","25.0176083333333","6500400","永和區"
"234061","AAD-866","2018/01/25 20:29:14","新北市永和區安樂路194巷2號","121.515335","25.0011616666667","6500400","永和區"
"234042","862-TW","2018/01/25 20:29:20","新北市永和區安樂路431號","121.514436666667","25.004185","6500400","永和區"
"234050","863-TW","2018/01/25 20:29:08","新北市永和區新生路118巷1弄13號","121.506676666667","25.0144833333333","6500400","永和區"
"234026","9371-KE","2018/01/25 20:29:11","新北市永和區竹林路91巷55弄5-1號","121.521766666667","25.0139883333333","6500400","永和區"
"249001","173-UM","2018/01/25 20:29:17","新北市八里區下罟子8-3號","121.384618333333","25.1414766666667","6502300","八里區"
"249004","303-UY","2018/01/25 20:29:11","新北市八里區中山路一段129巷19-1號","121.413953333333","25.1586516666667","6502300","八里區"
"249002","305-UY","2018/01/25 20:29:05","新北市八里區龍米路二段125巷13號","121.445968333333","25.1454016666667","6502300","八里區"
"249003","593-UM","2018/01/25 20:29:10","新北市八里區華峰一街27號","121.399193333333","25.14634","6502300","八里區"
"234023","9380-KE","2018/01/25 20:29:16","新北市永和區光復街4號","121.516445","25.0167","6500400","永和區"
"234074","AAC-211","2018/01/25 20:29:15","新北市永和區福和路8巷5號","121.524775","25.0091283333333","6500400","永和區"
"234067","AAC-212","2018/01/25 20:29:11","新北市永和區保平路292巷13弄6號","121.507136666667","25.00536","6500400","永和區"
"234003","AAC-295","2018/01/25 20:29:15","新北市永和區中正路620號","121.517031666667","25.00781","6500400","永和區"
"243012","AAD-798","2018/01/25 20:28:53","新北市泰山區忠孝街19巷1弄2號","121.427478333333","25.0657116666667","6501600","泰山區"
"243011","297-R6","2018/01/25 20:29:06","新北市泰山區明志路二段254號","121.426941666667","25.047515","6501600","泰山區"
"243015","380-SR","2018/01/25 20:29:06","新北市泰山區福興三街9號","121.43468","25.0578883333333","6501600","泰山區"
"243014","421-VK","2018/01/25 20:29:16","新北市泰山區泰林路二段582號","121.42231","25.0636333333333","6501600","泰山區"
"243010","KEA-2215","2018/01/25 20:29:16","新北市泰山區新生路31巷7號","121.427608333333","25.0458533333333","6501600","泰山區"
"243009","KEA-2216","2018/01/25 20:29:03","新北市泰山區泰林路二段542巷1弄2號","121.422823333333","25.064265","6501600","泰山區"
"243016","680-BX","2018/01/25 20:29:15","新北市泰山區文程路19號","121.428151666667","25.0493716666667","6501600","泰山區"
"222003","436-BY","2018/01/25 20:29:12","新北市深坑區深坑街27號","121.615995","25.0023416666667","6501800","深坑區"
"222002","659-BX","2018/01/25 20:29:17","新北市深坑區萬福路16巷16號","121.606191666667","25.0076416666667","6501800","深坑區"
"231041","002-UM","2018/01/25 20:29:04","新北市新店區中正路501-4號","121.533606666667","24.983775","6500600","新店區"
"231059","046-UY","2018/01/25 20:29:10","新北市新店區安豐路49號","121.500018333333","24.9548983333333","6500600","新店區"
"231061","047-UY","2018/01/25 20:29:21","新北市新店區新和街34號","121.519116666667","24.9847316666667","6500600","新店區"
"231060","106-UY","2018/01/25 20:29:04","新北市新店區錦秀路56號","121.479013333333","24.943145","6500600","新店區"
"231051","107-UY","2018/01/25 20:29:09","新北市新店區中央七街85號","121.526831666667","24.9770516666667","6500600","新店區"
"231047","108-UY","2018/01/25 20:29:08","新北市新店區寶慶街58巷12號","121.542111666667","24.9872583333333","6500600","新店區"
"231052","110-UY","2018/01/25 20:29:09","新北市新店區松林路36號","121.545876666667","24.91027","6500600","新店區"
"231050","KEA-2219","2018/01/25 20:29:12","新北市新店區明德路41號","121.541318333333","24.9756816666667","6500600","新店區"
"231057","256-BX","2018/01/25 20:29:13","新北市新店區花園五路二段1號","121.553541666667","24.9341666666667","6500600","新店區"
"231054","AAD-862","2018/01/25 20:29:19","新北市新店區檳榔路109號","121.544406666667","24.9617","6500600","新店區"
"231058","3712-VJ","2018/01/25 20:29:04","新北市新店區平等街48巷32號","121.535048333333","24.9735333333333","6500600","新店區"
"231056","3713-VJ","2018/01/25 20:29:06","新北市新店區中正路328巷42弄14號","121.538511666667","24.97582","6500600","新店區"
"231065","512-UM","2018/01/25 20:29:19","新北市新店區安祥路102巷46弄89號","121.487288333333","24.9632166666667","6500600","新店區"
"231064","515-UM","2018/01/25 20:29:16","新北市新店區新和街69號","121.520256666667","24.9857966666667","6500600","新店區"
"231042","616-UM","2018/01/25 20:29:04","新北市新店區寶高路120巷1-1號","121.554605","24.9758716666667","6500600","新店區"
"231040","619-UM","2018/01/25 20:29:05","新北市新店區中正路265巷2-1號","121.537945","24.9738416666667","6500600","新店區"
"231063","645-TV","2018/01/25 20:29:10","新北市新店區安康路二段382號","121.500386666667","24.9571583333333","6500600","新店區"
"231068","718-UY","2018/01/25 20:29:21","新北市新店區民權路7號","121.542575","24.9826983333333","6500600","新店區"
"231049","719-UM","2018/01/25 20:29:16","新北市新店區永業路81巷7弄1號","121.530473333333","24.9488616666667","6500600","新店區"
"231062","720-UM","2018/01/25 20:29:06","新北市新店區安泰路60巷62號","121.483701666667","24.9461466666667","6500600","新店區"
"231044","897-TW","2018/01/25 20:29:13","新北市新店區民族路63號","121.539833333333","24.9782816666667","6500600","新店區"
"231045","898-TW","2018/01/25 20:29:03","新北市新店區長春路21巷5號","121.54945","24.95836","6500600","新店區"
"231043","899-TW","2018/01/25 20:29:23","新北市新店區建國路112號","121.539643333333","24.9781566666667","6500600","新店區"
"231066","AKT-0513","2018/01/25 20:29:21","新北市新店區安興路125-12號","121.514498333333","24.977675","6500600","新店區"
"241011","013-R5","2018/01/25 20:29:17","新北市三重區龍門路29號","121.495645","25.07198","6500200","三重區"
"241028","022-UY","2018/01/25 20:29:14","新北市三重區光興街93號","121.49733","25.0599833333333","6500200","三重區"
"241008","059-VK","2018/01/25 20:29:17","新北市三重區力行路二段51號","121.482143333333","25.07438","6500200","三重區"
"241009","060-VK","2018/01/25 20:29:11","新北市三重區永福街1號","121.482855","25.078335","6500200","三重區"
"241031","061-VK","2018/01/25 20:29:14","新北市三重區三寧街22號","121.489483333333","25.0599233333333","6500200","三重區"
"241015","062-VK","2018/01/25 20:29:13","新北市三重區文化北路41-1號","121.498908333333","25.0652466666667","6500200","三重區"
"241017","063-VK","2018/01/25 20:29:10","新北市三重區自強路一段207號","121.491501666667","25.0684266666667","6500200","三重區"
"241024","065-VK","2018/01/25 20:29:15","新北市三重區中正北路276巷28號","121.480355","25.0672866666667","6500200","三重區"
"241002","090-VK","2018/01/25 20:29:13","新北市三重區仁義街209號","121.496818333333","25.081785","6500200","三重區"
"241003","091-VK","2018/01/25 20:29:06","新北市三重區富華街113號","121.492375","25.0843816666667","6500200","三重區"
"241025","156-TC","2018/01/25 20:29:11","新北市三重區頂崁街210巷23弄1號","121.475853333333","25.06814","6500200","三重區"
"241005","262-UM","2018/01/25 20:29:16","新北市三重區碧華街317號","121.491001666667","25.0842083333333","6500200","三重區"
"241026","265-UM","2018/01/25 20:29:15","新北市三重區福德南路20號","121.50303","25.063275","6500200","三重區"
"241016","266-UM","2018/01/25 20:29:06","新北市三重區正義北路190巷5號","121.496071666667","25.066865","6500200","三重區"
"241022","267-UM","2018/01/25 20:29:10","新北市三重區重陽路二段19巷6號","121.487505","25.06247","6500200","三重區"
"241018","268-UM","2018/01/25 20:29:23","新北市三重區正義北路210號","121.49596","25.0674816666667","6500200","三重區"
"241032","269-UM","2018/01/25 20:29:02","新北市三重區重陽路一段120巷48號","121.485053333333","25.0601266666667","6500200","三重區"
"241013","270-UM","2018/01/25 20:29:20","新北市三重區溪尾街5巷17號","121.49244","25.074545","6500200","三重區"
"241007","398-BY","2018/01/25 20:29:18","新北市三重區自強路四段48號","121.48963","25.0778683333333","6500200","三重區"
"241020","413-TH","2018/01/25 20:29:06","新北市三重區明德街45號","121.492308333333","25.07225","6500200","三重區"
"241004","475-VK","2018/01/25 20:29:15","新北市三重區溪尾街167號","121.489158333333","25.080125","6500200","三重區"
"241019","478-VK","2018/01/25 20:29:08","新北市三重區重陽路四段77號","121.492531666667","25.07099","6500200","三重區"
"241030","480-VK","2018/01/25 20:29:01","新北市三重區成功路70號","121.48851","25.0509916666667","6500200","三重區"
"241014","543-UM","2018/01/25 20:29:10","新北市三重區長壽街120巷19弄3號","121.502285","25.069195","6500200","三重區"
"241023","545-UM","2018/01/25 20:29:08","新北市三重區自由街19號","121.479765","25.0666133333333","6500200","三重區"
"241001","547-UM","2018/01/25 20:29:12","新北市三重區福隆路12號","121.49033","25.077505","6500200","三重區"
"241035","743-BX","2018/01/25 20:29:14","新北市三重區正義北路98號","121.49702","25.0649533333333","6500200","三重區"
"241012","941-UM","2018/01/25 20:29:19","新北市三重區龍濱路269號","121.501313333333","25.0730416666667","6500200","三重區"
"241029","942-UM","2018/01/25 20:29:18","新北市三重區集美街225號","121.492088333333","25.055065","6500200","三重區"
"241033","AAC-255","2018/01/25 20:29:05","新北市三重區五谷王北街80巷50號","121.474991666667","25.0526583333333","6500200","三重區"
"235039","097-UM","2018/01/25 20:29:13","新北市中和區大勇街27巷6號","121.517165","24.9938116666667","6500300","中和區"
"235072","301-VK","2018/01/25 20:29:00","新北市八里區中山路三段409號","121.36876","25.13557","6500300","中和區"
"235061","378-QA","2018/01/25 20:29:09","新北市中和區興南路二段261巷6-5號","121.502513333333","24.9788083333333","6500300","中和區"
"235050","4979-A6","2018/01/25 20:29:21","新北市中和區景新街160巷1弄1號","121.505565","24.9969716666667","6500300","中和區"
"235069","4980-A6","2018/01/25 20:29:06","新北市中和區連城路347巷18弄15-4號","121.487215","24.9948633333333","6500300","中和區"
"235026","800-TS","2018/01/25 20:29:08","新北市中和區員山路36巷16-3號","121.484766666667","24.9917033333333","6500300","中和區"
"235059","AAC-215","2018/01/25 20:29:17","新北市中和區員山路37-8號","121.482116666667","24.9900683333333","6500300","中和區"
"220069","AAD-861","2018/01/25 20:29:18","新北市八里區商港路120號","121.392963333333","25.1499866666667","6500100","板橋區"
"247022","893-R6","2018/01/25 20:29:12","新北市蘆洲區中正路240號","121.4658","25.0892083333333","6501400","蘆洲區"
"247012","546-UM","2018/01/25 20:29:13","新北市蘆洲區民族路193號","121.47848","25.08903","6501400","蘆洲區"
"247020","500-BY","2018/01/25 20:29:15","新北市蘆洲區仁愛街134號","121.469108333333","25.0944233333333","6501400","蘆洲區"
"247008","341-TH","2018/01/25 20:29:15","新北市蘆洲區重陽街97-1號","121.482533333333","25.0854983333333","6501400","蘆洲區"
"247010","339-TH","2018/01/25 20:29:12","新北市蘆洲區信義路222巷23號","121.479756666667","25.0854283333333","6501400","蘆洲區"
"247002","337-TH","2018/01/25 20:29:14","新北市蘆洲區長安街347巷32號","121.455475","25.08703","6501400","蘆洲區"
"247004","336-TH","2018/01/25 20:29:14","新北市蘆洲區長安街297號","121.458105","25.0848466666667","6501400","蘆洲區"
"247016","057-VK","2018/01/25 20:29:17","新北市蘆洲區光華路80-1號","121.46775","25.08273","6501400","蘆洲區"
"247006","056-VK","2018/01/25 20:29:11","新北市蘆洲區和平路121巷14弄29號","121.466068333333","25.08014","6501400","蘆洲區"
"247014","007-UY","2018/01/25 20:29:21","新北市蘆洲區中山二路143號","121.471633333333","25.081475","6501400","蘆洲區"
"247024","002-UY","2018/01/25 20:29:18","新北市蘆洲區光復路70巷16號","121.464603333333","25.0851633333333","6501400","蘆洲區"
"247018","001-UY","2018/01/25 20:29:12","新北市蘆洲區民族路327巷46號","121.474581666667","25.0908383333333","6501400","蘆洲區"
"222001","KEA-2212","2018/01/25 20:29:12","新北市深坑區北深路三段286巷1號","121.596376666667","25.00505","6501800","深坑區"
"251013","179-VK","2018/01/25 20:29:10","新北市淡水區奎柔山路411號","121.463583333333","25.2049066666667","6501000","淡水區"
"251014","180-VK","2018/01/25 20:29:15","新北市淡水區石頭厝8-4號","121.460311666667","25.2377916666667","6501000","淡水區"
"251008","181-VK","2018/01/25 20:29:18","新北市淡水區淡海路206巷11號","121.420895","25.1856533333333","6501000","淡水區"
"251015","182-VK","2018/01/25 20:29:08","新北市淡水區興仁路162號","121.451603333333","25.2207516666667","6501000","淡水區"
"251010","413-VK","2018/01/25 20:29:22","新北市淡水區沙崙路181巷15號","121.423963333333","25.1843483333333","6501000","淡水區"
"251012","441-VK","2018/01/25 20:29:06","新北市淡水區頂田寮路39號","121.456013333333","25.2161266666667","6501000","淡水區"
"251016","442-VK","2018/01/25 20:29:14","新北市淡水區後洲子19號","121.450385","25.223835","6501000","淡水區"
"251001","559-UM","2018/01/25 20:29:02","新北市淡水區新市一路三段8號","121.445065","25.18283","6501000","淡水區"
"251006","561-UM","2018/01/25 20:29:20","新北市淡水區商工路329號","121.463993333333","25.185945","6501000","淡水區"
"251011","650-BX","2018/01/25 20:29:05","新北市淡水區崁頂74號","121.43443","25.2014733333333","6501000","淡水區"
"251002","672-BX","2018/01/25 20:29:12","新北市淡水區中正路15號","121.442873333333","25.169605","6501000","淡水區"
"251003","766-UM","2018/01/25 20:29:07","新北市淡水區新民街21號","121.439386666667","25.175245","6501000","淡水區"
"252002","178-VK","2018/01/25 20:29:07","新北市三芝區淡金路二段47-2號","121.503723333333","25.2605516666667","6502100","三芝區"
"252001","292-VK","2018/01/25 20:29:17","新北市三芝區中山路一段14號","121.500765","25.2579533333333","6502100","三芝區"
"236014","270-VK","2018/01/25 20:29:13","新北市土城區廣明街63巷31號","121.453743333333","24.9929833333333","6501300","土城區"
"242031","AAC-296","2018/01/25 20:29:18","新北市新莊區三和路20-6號","121.439528333333","25.0374216666667","6500500","新莊區"
"242029","986-R7","2018/01/25 20:29:12","新北市新莊區中華路二段183號","121.452528333333","25.0522533333333","6500500","新莊區"
"242061","705-TV","2018/01/25 20:29:02","新北市新莊區民全街2號","121.429065","25.0211066666667","6500500","新莊區"
"242025","615-BX","2018/01/25 20:29:04","新北市新莊區五工三路60號","121.459653333333","25.0645183333333","6500500","新莊區"
"242023","613-BX","2018/01/25 20:29:04","新北市新莊區新北大道二段167號","121.464736666667","25.060935","6500500","新莊區"
"242027","612-BX","2018/01/25 20:28:39","新北市新莊區幸福路26號","121.458768333333","25.0494816666667","6500500","新莊區"
"242039","566-BX","2018/01/25 20:29:04","新北市新莊區成功街13號","121.425765","25.0216983333333","6500500","新莊區"
"242044","442-UM","2018/01/25 20:29:09","新北市新莊區中正路891-46號","121.413653333333","25.0228733333333","6500500","新莊區"
"242053","440-UM","2018/01/25 20:29:17","新北市新莊區西盛街362巷20號","121.426968333333","25.0136966666667","6500500","新莊區"
"242034","415-TV","2018/01/25 20:29:21","新北市新莊區新泰路158號","121.447625","25.03747","6500500","新莊區"
"242004","413-TV","2018/01/25 20:29:19","新北市新莊區化成路371巷15號","121.463998333333","25.0570766666667","6500500","新莊區"
"242042","400-BY","2018/01/25 20:29:16","新北市新莊區中正路694巷3弄7號","121.418088333333","25.0280566666667","6500500","新莊區"
"242058","353-BY","2018/01/25 20:29:12","新北市新莊區四維路139號","121.42281","25.02237","6500500","新莊區"
"242007","132-UY","2018/01/25 20:29:16","新北市新莊區福壽街124巷27號","121.45882","25.05129","6500500","新莊區"
"242036","133-UY","2018/01/25 20:29:06","新北市新莊區後港一路76巷12弄1號","121.427313333333","25.025885","6500500","新莊區"
"242046","172-VK","2018/01/25 20:29:16","新北市新莊區中正路881-16號","121.417583333333","25.024645","6500500","新莊區"
"242009","173-VK","2018/01/25 20:29:08","新北市新莊區昌盛街81巷2弄1號","121.45557","25.050355","6500500","新莊區"
"242015","175-VK","2018/01/25 20:29:17","新北市新莊區中平路46巷22號","121.445658333333","25.0438333333333","6500500","新莊區"
"242002","176-VK","2018/01/25 20:29:18","新北市新莊區中正路83號","121.46094","25.039285","6500500","新莊區"
"242013","346-TH","2018/01/25 20:29:17","新北市新莊區中平路270巷7弄10號","121.445481666667","25.0506133333333","6500500","新莊區"
"242051","347-TH","2018/01/25 20:29:09","新北市新莊區民安西路263號","121.426188333333","25.0130383333333","6500500","新莊區"
"242019","348-TH","2018/01/25 20:29:03","新北市新莊區銘德街49巷4弄1號","121.45722","25.0431183333333","6500500","新莊區"
"242056","349-TH","2018/01/25 20:29:06","新北市新莊區新莊路713巷14號","121.443616666667","25.0321816666667","6500500","新莊區"
"242017","350-TH","2018/01/25 20:29:09","新北市新莊區中港二街43號","121.45064","25.045855","6500500","新莊區"
"242011","351-TH","2018/01/25 20:29:06","新北市新莊區中義街20號","121.45078","25.0512366666667","6500500","新莊區"
"221036","130-UY","2018/01/25 20:29:21","新北市汐止區仁愛路151巷46號","121.66349","25.06573","6501100","汐止區"
"221010","269-BY","2018/01/25 20:29:07","新北市汐止區八連路二段616號","121.625236666667","25.1100866666667","6501100","汐止區"
"221012","278-VK","2018/01/25 20:29:14","新北市汐止區保新街6號","121.683861666667","25.0733216666667","6501100","汐止區"
"221023","279-VK","2018/01/25 20:29:11","新北市汐止區湖東街54號","121.635558333333","25.072665","6501100","汐止區"
"221032","280-BY","2018/01/25 20:29:20","新北市汐止區弘道街53巷14弄1號","121.618838333333","25.0491233333333","6501100","汐止區"
"221027","281-BY","2018/01/25 20:29:12","新北市汐止區中正路239號","121.657681666667","25.0685733333333","6501100","汐止區"
"221029","298-VK","2018/01/25 20:29:20","新北市汐止區樟樹一路129巷34弄2號","121.64068","25.0653066666667","6501100","汐止區"
"221021","299-VK","2018/01/25 20:29:17","新北市汐止區水源路一段284號","121.654088333333","25.0582716666667","6501100","汐止區"
"221031","353-TW","2018/01/25 20:29:19","新北市汐止區中興路110巷36號","121.634328333333","25.0646716666667","6501100","汐止區"
"221008","358-BY","2018/01/25 20:29:01","新北市汐止區康寧街543號","121.634331666667","25.0690933333333","6501100","汐止區"
"221015","567-BX","2018/01/25 20:29:06","新北市汐止區建成路142巷19弄13號","121.66192","25.07379","6501100","汐止區"
"221035","622-UM","2018/01/25 20:29:18","新北市汐止區長江街101-5號","121.658593333333","25.073295","6501100","汐止區"
"221025","623-UM","2018/01/25 20:29:09","新北市汐止區水源路二段88巷1弄10號","121.656461666667","25.05554","6501100","汐止區"
"221038","646-BX","2018/01/25 20:29:17","新北市汐止區忠孝東路200-5號","121.661695","25.06617","6501100","汐止區"
"221033","647-BX","2018/01/25 20:29:13","新北市汐止區林森街73巷5號","121.623536666667","25.0409283333333","6501100","汐止區"
"221018","753-BX","2018/01/25 20:29:10","新北市汐止區茄苳路225巷11弄28號","121.670716666667","25.0699583333333","6501100","汐止區"
"220102","255-TC","2018/01/25 20:29:17","新北市板橋區文化路一段320號","121.467716666667","25.02212","6500100","板橋區"
"220103","257-TC","2018/01/25 20:29:23","新北市板橋區漢生東路23巷34號","121.465766666667","25.0178","6500100","板橋區"
"220083","286-VK","2018/01/25 20:29:20","新北市板橋區僑中二街102巷1-4號","121.445946666667","25.008225","6500100","板橋區"
"220081","287-VK","2018/01/25 20:29:19","新北市板橋區大觀路二段142號","121.442751666667","24.9990533333333","6500100","板橋區"
"220061","293-UM","2018/01/25 20:28:46","新北市板橋區文華街26號","121.457341666667","25.00075","6500100","板橋區"
"242048","281-VK","2018/01/25 20:29:17","新北市新莊區龍安路275號","121.420403333333","25.0199266666667","6500500","新莊區"
"220089","487-VK","2018/01/25 20:29:12","新北市板橋區陽明街293號","121.461878333333","25.026625","6500100","板橋區"
"242021","280-VK","2018/01/25 20:29:11","新北市新莊區公園路12號","121.447891666667","25.0388616666667","6500500","新莊區"
"220097","AAC-210","2018/01/25 20:29:22","新北市板橋區大觀路一段174巷1弄12號","121.45144","25.0085483333333","6500100","板橋區"
"220070","AAC-253","2018/01/25 20:29:05","新北市新莊區中環路一段22號","121.442506666667","25.0265733333333","6500100","板橋區"
