"lineid","car","time","location","longitude","latitude","cityid","cityname"
"249004","303-UY","2018/01/25 20:49:32","新北市八里區中山路一段63號","121.418333333333","25.1594583333333","6502300","八里區"
"234023","9380-KE","2018/01/25 20:49:36","新北市永和區竹林路14號","121.51649","25.0148216666667","6500400","永和區"
"234074","AAC-211","2018/01/25 20:49:39","新北市永和區環河東路二段10號","121.522168333333","25.0132783333333","6500400","永和區"
"222003","436-BY","2018/01/25 20:49:32","新北市深坑區阿柔洋40號","121.610306666667","24.9984816666667","6501800","深坑區"
"222002","659-BX","2018/01/25 20:49:37","新北市深坑區北深路三段93巷29號","121.605105","25.00023","6501800","深坑區"
"231041","002-UM","2018/01/25 20:49:24","新北市新店區中正路700巷3號","121.533705","24.9914033333333","6500600","新店區"
"231059","046-UY","2018/01/25 20:49:30","新北市新店區僑信路114巷42號","121.499093333333","24.9462566666667","6500600","新店區"
"231061","047-UY","2018/01/25 20:49:41","新北市新店區永安街83巷14號","121.520601666667","24.9867916666667","6500600","新店區"
"231060","106-UY","2018/01/25 20:49:24","新北市新店區安康路三段740號","121.473818333333","24.9419383333333","6500600","新店區"
"231051","107-UY","2018/01/25 20:49:29","新北市新店區中央五街6號","121.529986666667","24.9741416666667","6500600","新店區"
"231047","108-UY","2018/01/25 20:49:28","新北市新店區寶元路二段1巷1號","121.550758333333","24.9840183333333","6500600","新店區"
"231052","110-UY","2018/01/25 20:49:29","新北市新店區屈尺路11號","121.549288333333","24.9221816666667","6500600","新店區"
"231050","KEA-2219","2018/01/25 20:49:32","新北市新店區中正路247巷24弄1號","121.538171666667","24.9719916666667","6500600","新店區"
"231057","256-BX","2018/01/25 20:49:38","新北市新店區花園一路一段2號","121.55285","24.932475","6500600","新店區"
"231054","AAD-862","2018/01/25 20:49:39","新北市新店區中正路71號","121.543478333333","24.9695616666667","6500600","新店區"
"231058","3712-VJ","2018/01/25 20:49:44","新北市新店區溪園路395號","121.5235","24.977565","6500600","新店區"
"231056","3713-VJ","2018/01/25 20:49:26","新北市新店區中央七街61巷28號","121.529443333333","24.9758733333333","6500600","新店區"
"231065","512-UM","2018/01/25 20:49:39","新北市新店區安祥路69巷17號","121.481896666667","24.9613583333333","6500600","新店區"
"231064","515-UM","2018/01/25 20:49:37","新北市新店區安民街382號","121.51624","24.97663","6500600","新店區"
"231042","616-UM","2018/01/25 20:49:24","新北市新店區寶橋路98號","121.547126666667","24.9759233333333","6500600","新店區"
"231040","619-UM","2018/01/25 20:49:41","新北市新店區中正路168號","121.541285","24.9719716666667","6500600","新店區"
"231063","645-TV","2018/01/25 20:49:30","新北市新店區如意街8號","121.494758333333","24.9481983333333","6500600","新店區"
"231068","718-UY","2018/01/25 20:49:41","新北市新店區中興路三段228巷28號","121.54476","24.98349","6500600","新店區"
"231049","719-UM","2018/01/25 20:49:26","新北市新店區安康路二段60號","121.515","24.9637333333333","6500600","新店區"
"231062","720-UM","2018/01/25 20:49:26","新北市新店區和成街11號","121.488371666667","24.9478933333333","6500600","新店區"
"231044","897-TW","2018/01/25 20:49:33","新北市新店區建國路130號","121.53914","24.9788366666667","6500600","新店區"
"231043","899-TW","2018/01/25 20:49:43","新北市新店區建國路79號","121.54045","24.9761366666667","6500600","新店區"
"231066","AKT-0513","2018/01/25 20:49:41","新北市新店區安興路125-12號","121.514503333333","24.97768","6500600","新店區"
"241011","013-R5","2018/01/25 20:49:43","新北市三重區龍濱路199號","121.501871666667","25.07166","6500200","三重區"
"241028","022-UY","2018/01/25 20:49:34","新北市三重區中正南路50號","121.49391","25.05992","6500200","三重區"
"241008","059-VK","2018/01/25 20:49:37","新北市三重區永福街72巷11號","121.479411666667","25.07682","6500200","三重區"
"241009","060-VK","2018/01/25 20:49:31","新北市三重區三和路四段388-2號","121.482045","25.0791","6500200","三重區"
"241031","061-VK","2018/01/25 20:49:34","新北市三重區重陽路一段113巷2弄2號","121.487505","25.059875","6500200","三重區"
"241015","062-VK","2018/01/25 20:49:32","新北市三重區自強路一段8號","121.498926666667","25.0682366666667","6500200","三重區"
"241017","063-VK","2018/01/25 20:49:30","新北市三重區民生街22號","121.491993333333","25.0672033333333","6500200","三重區"
"241024","065-VK","2018/01/25 20:49:36","新北市三重區國道路一段58巷20號","121.481243333333","25.0720716666667","6500200","三重區"
"241002","090-VK","2018/01/25 20:49:32","新北市三重區仁義街157巷52號","121.498198333333","25.0816733333333","6500200","三重區"
"241003","091-VK","2018/01/25 20:49:26","新北市三重區五華街141巷58號","121.493546666667","25.0867633333333","6500200","三重區"
"241025","156-TC","2018/01/25 20:49:31","新北市三重區貴陽街14號","121.484213333333","25.0617933333333","6500200","三重區"
"241005","262-UM","2018/01/25 20:49:35","新北市三重區五華街141巷31號","121.492358333333","25.0856483333333","6500200","三重區"
"241026","265-UM","2018/01/25 20:49:35","新北市三重區重新路2段36巷20-1號","121.49981","25.06247","6500200","三重區"
"241016","266-UM","2018/01/25 20:49:26","新北市三重區自強路一段79號","121.496203333333","25.06641","6500200","三重區"
"241022","267-UM","2018/01/25 20:49:30","新北市三重區過圳街27-5號","121.488033333333","25.062395","6500200","三重區"
"241018","268-UM","2018/01/25 20:49:23","新北市三重區正義北路291號","121.494953333333","25.0705166666667","6500200","三重區"
"241032","269-UM","2018/01/25 20:49:42","新北市三重區重陽路一段120巷35號","121.485066666667","25.0601816666667","6500200","三重區"
"241013","270-UM","2018/01/25 20:49:41","新北市三重區仁賢街6號","121.495705","25.0747916666667","6500200","三重區"
"241007","398-BY","2018/01/25 20:49:37","新北市三重區慈愛街8號","121.48439","25.0784283333333","6500200","三重區"
"241020","413-TH","2018/01/25 20:49:25","新北市三重區忠孝路一段101號","121.489366666667","25.072125","6500200","三重區"
"241004","475-VK","2018/01/25 20:49:34","新北市三重區分子尾街36-1號","121.489476666667","25.0810266666667","6500200","三重區"
"241019","478-VK","2018/01/25 20:49:28","新北市三重區大智街192號","121.490331666667","25.0707916666667","6500200","三重區"
"241030","480-VK","2018/01/25 20:49:41","新北市三重區環河南路221巷10號","121.491893333333","25.0522883333333","6500200","三重區"
"241014","543-UM","2018/01/25 20:49:30","新北市三重區萬全街53號","121.501075","25.0701633333333","6500200","三重區"
"241023","545-UM","2018/01/25 20:49:28","新北市三重區忠孝路三段99巷4號","121.480041666667","25.0642783333333","6500200","三重區"
"241001","547-UM","2018/01/25 20:49:32","新北市三重區自強路三段78號","121.486988333333","25.074365","6500200","三重區"
"241006","AAD-863","2018/01/25 20:49:43","新北市三重區車路頭街139巷12號","121.484266666667","25.076235","6500200","三重區"
"241012","941-UM","2018/01/25 20:49:41","新北市三重區仁信街27號","121.501278333333","25.07556","6500200","三重區"
"241029","942-UM","2018/01/25 20:49:38","新北市三重區重安街14號","121.490331666667","25.05821","6500200","三重區"
"241033","AAC-255","2018/01/25 20:49:25","新北市三重區光復路二段1號","121.472375","25.05331","6500200","三重區"
"235039","097-UM","2018/01/25 20:49:33","新北市新店區安德街60巷9-3號","121.509145","24.9622133333333","6500300","中和區"
"235072","301-VK","2018/01/25 20:49:40","新北市板橋區民生路二段56-6號","121.47101","25.01864","6500300","中和區"
"235069","4980-A6","2018/01/25 20:49:26","新北市中和區連城路469巷13號","121.483681666667","24.9953666666667","6500300","中和區"
"235026","800-TS","2018/01/25 20:29:08","新北市中和區員山路36巷16-3號","121.484766666667","24.9917033333333","6500300","中和區"
"247022","893-R6","2018/01/25 20:49:32","新北市蘆洲區三民路155號","121.471578333333","25.0869083333333","6501400","蘆洲區"
"247012","546-UM","2018/01/25 20:49:33","新北市蘆洲區復興路340巷35-1號","121.48364","25.0888766666667","6501400","蘆洲區"
"247020","500-BY","2018/01/25 20:49:35","新北市蘆洲區仁愛街64號","121.471425","25.0939666666667","6501400","蘆洲區"
"247008","341-TH","2018/01/25 20:49:35","新北市蘆洲區集賢路269巷13號","121.481925","25.083435","6501400","蘆洲區"
"247010","339-TH","2018/01/25 20:47:52","新北市蘆洲區鷺江街76號","121.4769","25.0839316666667","6501400","蘆洲區"
"247002","337-TH","2018/01/25 20:49:34","新北市蘆洲區長安街230號","121.458151666667","25.085365","6501400","蘆洲區"
"247004","336-TH","2018/01/25 20:49:34","新北市蘆洲區長安街100號","121.461671666667","25.0810966666667","6501400","蘆洲區"
"247016","057-VK","2018/01/25 20:49:36","新北市蘆洲區中山二路265巷5號","121.470253333333","25.0796083333333","6501400","蘆洲區"
"247014","007-UY","2018/01/25 20:49:41","新北市蘆洲區三民路87號","121.474665","25.0843216666667","6501400","蘆洲區"
"247024","002-UY","2018/01/25 20:49:37","新北市蘆洲區長樂路136號","121.46221","25.0900716666667","6501400","蘆洲區"
"222001","KEA-2212","2018/01/25 20:49:32","新北市深坑區北深路三段153號","121.602638333333","25.0031416666667","6501800","深坑區"
"251005","010-UM","2018/01/25 20:49:33","新北市淡水區淡金路二段205號","121.447896666667","25.184","6501000","淡水區"
"251013","179-VK","2018/01/25 20:49:30","新北市淡水區埤島41號","121.451936666667","25.1976366666667","6501000","淡水區"
"251014","180-VK","2018/01/25 20:49:35","新北市淡水區公埔子32-8號","121.461786666667","25.2324133333333","6501000","淡水區"
"251015","182-VK","2018/01/25 20:49:28","新北市淡水區興仁路162號","121.451606666667","25.22072","6501000","淡水區"
"251010","413-VK","2018/01/25 20:49:42","新北市淡水區沙崙路126號","121.423428333333","25.18292","6501000","淡水區"
"251012","441-VK","2018/01/25 20:49:45","新北市淡水區興仁路162號","121.451586666667","25.2209683333333","6501000","淡水區"
"251016","442-VK","2018/01/25 20:49:34","新北市淡水區興仁路165號","121.451508333333","25.2202466666667","6501000","淡水區"
"251001","559-UM","2018/01/25 20:49:42","新北市淡水區淡金路218號","121.460543333333","25.1671366666667","6501000","淡水區"
"251006","561-UM","2018/01/25 20:49:31","新北市淡水區濱海路一段221號","121.437983333333","25.1897833333333","6501000","淡水區"
"251007","577-R6","2018/01/25 20:49:32","新北市淡水區鄧公路23巷2號","121.451181666667","25.1700816666667","6501000","淡水區"
"251011","650-BX","2018/01/25 20:49:45","新北市淡水區新民街一段13-1號","121.433023333333","25.1846316666667","6501000","淡水區"
"251002","672-BX","2018/01/25 20:49:32","新北市淡水區英專路30號","121.445621666667","25.1700533333333","6501000","淡水區"
"251003","766-UM","2018/01/25 20:49:27","新北市淡水區中山北路一段247巷48號","121.443376666667","25.1796616666667","6501000","淡水區"
"252002","178-VK","2018/01/25 20:49:27","新北市三芝區淡金路二段76-2號","121.504071666667","25.26108","6502100","三芝區"
"242031","AAC-296","2018/01/25 20:49:38","新北市新莊區中正路508巷7號","121.436993333333","25.03389","6500500","新莊區"
"242029","986-R7","2018/01/25 20:49:32","新北市新莊區昌隆街54號","121.45475","25.0508483333333","6500500","新莊區"
"242061","705-TV","2018/01/25 20:49:42","新北市新莊區環漢路三段532號","121.435411666667","25.0005116666667","6500500","新莊區"
"242025","615-BX","2018/01/25 20:47:04","新北市三重區重新路五段408巷30號","121.476248333333","25.0455566666667","6500500","新莊區"
"242027","612-BX","2018/01/25 20:49:39","新北市新莊區瓊林路46-5號","121.447306666667","25.0292816666667","6500500","新莊區"
"242039","566-BX","2018/01/25 20:49:44","新北市新莊區瓊林路59-38號","121.441218333333","25.02356","6500500","新莊區"
"242053","440-UM","2018/01/25 20:49:37","新北市新莊區民安西路189巷10弄24號","121.426486666667","25.015035","6500500","新莊區"
"242034","415-TV","2018/01/25 20:49:41","新北市新莊區中正路307號","121.448238333333","25.03513","6500500","新莊區"
"242007","132-UY","2018/01/25 20:49:36","新北市新莊區思源路59號","121.459901666667","25.0403233333333","6500500","新莊區"
"242036","133-UY","2018/01/25 20:49:26","新北市新莊區建國一路7號","121.43382","25.0318316666667","6500500","新莊區"
"242046","172-VK","2018/01/25 20:49:36","新北市新莊區龍安路254巷7號","121.42114","25.0190933333333","6500500","新莊區"
"242009","173-VK","2018/01/25 20:49:28","新北市新莊區幸福路560號","121.454631666667","25.0494","6500500","新莊區"
"242002","176-VK","2018/01/25 20:49:38","新北市新莊區中港路五守新村23巷2號","121.454978333333","25.0384583333333","6500500","新莊區"
"242051","347-TH","2018/01/25 20:49:29","新北市新莊區民安西路97-1號","121.426998333333","25.0189833333333","6500500","新莊區"
"242056","349-TH","2018/01/25 20:49:28","新北市新莊區瓊泰路60號","121.443441666667","25.0286366666667","6500500","新莊區"
"242011","351-TH","2018/01/25 20:49:26","新北市新莊區中正路384號","121.441998333333","25.0344583333333","6500500","新莊區"
"221036","130-UY","2018/01/25 20:49:41","新北市汐止區南昌街45號","121.663216666667","25.06858","6501100","汐止區"
"221027","281-BY","2018/01/25 20:49:34","新北市汐止區水源路一段3號","121.65721","25.06706","6501100","汐止區"
"221029","298-VK","2018/01/25 20:49:40","新北市汐止區樟樹二路130號","121.640023333333","25.0654483333333","6501100","汐止區"
"221021","299-VK","2018/01/25 20:49:37","新北市汐止區新台五路一段183號","121.655401666667","25.0631466666667","6501100","汐止區"
"221035","622-UM","2018/01/25 20:49:38","新北市汐止區康寧街901號","121.651475","25.0749816666667","6501100","汐止區"
"221038","646-BX","2018/01/25 20:49:37","新北市汐止區汐萬路一段256巷3號","121.652085","25.0747983333333","6501100","汐止區"
"221033","647-BX","2018/01/25 20:49:32","新北市汐止區合順街18巷8弄5號","121.620406666667","25.0419133333333","6501100","汐止區"
"221018","753-BX","2018/01/25 20:49:30","新北市汐止區水源路一段3號","121.65728","25.06722","6501100","汐止區"
"220083","286-VK","2018/01/25 20:49:40","新北市板橋區僑中二街116巷25號","121.444603333333","25.0065316666667","6500100","板橋區"
"242048","281-VK","2018/01/25 20:49:38","新北市新莊區裕民街85巷17號","121.41969","25.02339","6500500","新莊區"
"220097","AAC-210","2018/01/25 20:49:42","新北市樹林區中山路三段210-2號","121.38066","24.966775","6500100","板橋區"
"220070","AAC-253","2018/01/25 20:49:45","新北市八里區中山路三段382號","121.368596666667","25.135685","6500100","板橋區"
