"lineid","car","time","location","longitude","latitude","cityid","cityname"
"222002","659-BX","2018/01/25 20:59:37","新北市深坑區北深路三段93巷11號","121.605458333333","25.0011133333333","6501800","深坑區"
"231059","046-UY","2018/01/25 20:59:30","新北市新店區僑信路94號","121.499911666667","24.9476533333333","6500600","新店區"
"231061","047-UY","2018/01/25 20:59:41","新北市新店區永安街71號","121.51941","24.9869433333333","6500600","新店區"
"231060","106-UY","2018/01/25 20:59:44","新北市新店區安泰路60巷30號","121.482493333333","24.9468983333333","6500600","新店區"
"231051","107-UY","2018/01/25 20:59:29","新北市新店區溪園路75號","121.52934","24.9872716666667","6500600","新店區"
"231047","108-UY","2018/01/25 20:59:48","新北市新店區文化路71巷1號","121.54474","24.9821933333333","6500600","新店區"
"231052","110-UY","2018/01/25 20:59:29","新北市新店區新烏路一段73-1號","121.546471666667","24.9425333333333","6500600","新店區"
"231050","KEA-2219","2018/01/25 20:59:32","新北市新店區三民路75巷3弄2號","121.535656666667","24.9709466666667","6500600","新店區"
"231054","AAD-862","2018/01/25 20:59:39","新北市新店區北新路一段126巷32號","121.543303333333","24.9690066666667","6500600","新店區"
"231067","4772-VM","2018/01/25 20:59:45","新北市新店區安德街148巷8號","121.50801","24.9600366666667","6500600","新店區"
"231065","512-UM","2018/01/25 20:59:39","新北市新店區安祥路67巷50弄6號","121.484836666667","24.9592433333333","6500600","新店區"
"231064","515-UM","2018/01/25 20:59:36","新北市新店區安民街300號","121.517748333333","24.9737533333333","6500600","新店區"
"231042","616-UM","2018/01/25 20:59:44","新北市新店區寶興路60巷4號","121.549785","24.9718533333333","6500600","新店區"
"231040","619-UM","2018/01/25 20:59:40","新北市新店區北新路一段353號","121.541946666667","24.96952","6500600","新店區"
"231063","645-TV","2018/01/25 20:59:30","新北市新店區富貴街6巷1號","121.49449","24.9500616666667","6500600","新店區"
"231068","718-UY","2018/01/25 20:59:47","新北市新店區寶元路二段35巷1號","121.546843333333","24.9815566666667","6500600","新店區"
"231062","720-UM","2018/01/25 20:59:46","新北市新店區雙城路40巷1號","121.49238","24.949975","6500600","新店區"
"231043","899-TW","2018/01/25 20:59:43","新北市新店區中正路441號","121.533911666667","24.9787183333333","6500600","新店區"
"231066","AKT-0513","2018/01/25 20:59:40","新北市新店區安民街47號","121.516005","24.9657583333333","6500600","新店區"
"241011","013-R5","2018/01/25 20:59:43","新北市三重區秀江街119號","121.499701666667","25.0722","6500200","三重區"
"241028","022-UY","2018/01/25 20:59:34","新北市三重區新北大道一段7號","121.489631666667","25.06174","6500200","三重區"
"241008","059-VK","2018/01/25 20:59:37","新北市三重區力行路二段162巷3號","121.48273","25.0766216666667","6500200","三重區"
"241009","060-VK","2018/01/25 20:59:31","新北市三重區三和路四段328號","121.48359","25.0783483333333","6500200","三重區"
"241031","061-VK","2018/01/25 20:59:34","新北市三重區重陽路一段113巷2弄2號","121.487526666667","25.0598783333333","6500200","三重區"
"241015","062-VK","2018/01/25 20:59:32","新北市三重區福德北路50號","121.501931666667","25.06568","6500200","三重區"
"241017","063-VK","2018/01/25 20:59:30","新北市三重區大仁街23號","121.492068333333","25.0645783333333","6500200","三重區"
"241024","065-VK","2018/01/25 20:59:36","新北市三重區國道路一段58巷20號","121.48126","25.072105","6500200","三重區"
"241002","090-VK","2018/01/25 20:59:32","新北市三重區五華街7巷32號","121.4965","25.080735","6500200","三重區"
"241003","091-VK","2018/01/25 20:59:46","新北市三重區進安街196號","121.493858333333","25.0861066666667","6500200","三重區"
"241025","156-TC","2018/01/25 20:59:31","新北市三重區貴陽街14號","121.484226666667","25.0618283333333","6500200","三重區"
"241005","262-UM","2018/01/25 20:59:35","新北市三重區五華街213號","121.489535","25.08579","6500200","三重區"
"241026","265-UM","2018/01/25 20:59:35","新北市三重區文化南路36號","121.500276666667","25.0614066666667","6500200","三重區"
"241016","266-UM","2018/01/25 20:59:26","新北市三重區自強路一段79號","121.496183333333","25.0663016666667","6500200","三重區"
"241022","267-UM","2018/01/25 20:59:30","新北市三重區過圳街27-5號","121.488025","25.0624","6500200","三重區"
"241018","268-UM","2018/01/25 20:59:43","新北市三重區自強路一段157號","121.493333333333","25.067155","6500200","三重區"
"241032","269-UM","2018/01/25 20:59:42","新北市三重區興華街122號","121.483436666667","25.0597683333333","6500200","三重區"
"241013","270-UM","2018/01/25 20:59:41","新北市三重區仁賢街8號","121.495756666667","25.0747633333333","6500200","三重區"
"241007","398-BY","2018/01/25 20:59:37","新北市三重區慈愛街8號","121.48447","25.078425","6500200","三重區"
"241020","413-TH","2018/01/25 20:59:45","新北市三重區忠孝路二段35號","121.485888333333","25.0710733333333","6500200","三重區"
"241004","475-VK","2018/01/25 20:59:34","新北市三重區仁愛街423-1號","121.490366666667","25.08146","6500200","三重區"
"241019","478-VK","2018/01/25 20:59:28","新北市三重區三張街104號","121.487916666667","25.06989","6500200","三重區"
"241030","480-VK","2018/01/25 20:59:41","新北市三重區環河南路220-8號","121.493363333333","25.0527","6500200","三重區"
"241014","543-UM","2018/01/25 20:59:30","新北市三重區長榮路77號","121.502721666667","25.069045","6500200","三重區"
"241023","545-UM","2018/01/25 20:59:28","新北市三重區忠孝路三段50巷41弄64號","121.482391666667","25.0637683333333","6500200","三重區"
"241001","547-UM","2018/01/25 20:59:32","新北市三重區三和路四段136號","121.488455","25.0753516666667","6500200","三重區"
"241006","AAD-863","2018/01/25 20:59:43","新北市三重區永福街46-4號","121.481778333333","25.0780966666667","6500200","三重區"
"241012","941-UM","2018/01/25 20:59:41","新北市三重區仁信街27號","121.50132","25.075555","6500200","三重區"
"241029","942-UM","2018/01/25 20:59:38","新北市三重區正義南路107號","121.498225","25.058565","6500200","三重區"
"241033","AAC-255","2018/01/25 20:59:45","新北市三重區光復路二段49號","121.47205","25.0561416666667","6500200","三重區"
"235039","097-UM","2018/01/25 20:59:33","新北市新店區安康路二段380號","121.500478333333","24.957265","6500300","中和區"
"235072","301-VK","2018/01/25 20:59:40","新北市中和區中正路631號","121.485413333333","24.9950483333333","6500300","中和區"
"247022","893-R6","2018/01/25 20:59:41","新北市蘆洲區三民路263號","121.468268333333","25.0893783333333","6501400","蘆洲區"
"247012","546-UM","2018/01/25 20:59:33","新北市蘆洲區民權路6號","121.477061666667","25.08552","6501400","蘆洲區"
"247020","500-BY","2018/01/25 20:59:35","新北市蘆洲區民族路375號","121.4707","25.0910366666667","6501400","蘆洲區"
"247008","341-TH","2018/01/25 20:59:35","新北市蘆洲區中山一路293-1號","121.471503333333","25.0791066666667","6501400","蘆洲區"
"247010","339-TH","2018/01/25 20:59:32","新北市蘆洲區鷺江街72號","121.477188333333","25.08376","6501400","蘆洲區"
"247002","337-TH","2018/01/25 20:59:34","新北市蘆洲區永平街24號","121.458986666667","25.0906566666667","6501400","蘆洲區"
"247004","336-TH","2018/01/25 20:59:34","新北市蘆洲區永安南路二段268號","121.458615","25.08073","6501400","蘆洲區"
"247016","057-VK","2018/01/25 20:59:36","新北市蘆洲區正和街75-1號","121.468593333333","25.08039","6501400","蘆洲區"
"247006","056-VK","2018/01/25 20:59:31","新北市蘆洲區永安南路二段16巷16-1號","121.468081666667","25.0776116666667","6501400","蘆洲區"
"247014","007-UY","2018/01/25 20:59:41","新北市蘆洲區中山二路46巷18號","121.474946666667","25.0823916666667","6501400","蘆洲區"
"247024","002-UY","2018/01/25 20:59:39","新北市蘆洲區長興路255號","121.460521666667","25.0876216666667","6501400","蘆洲區"
"247018","001-UY","2018/01/25 20:59:32","新北市蘆洲區民權路146號","121.472756666667","25.08926","6501400","蘆洲區"
"222001","KEA-2212","2018/01/25 20:59:33","新北市深坑區北深路三段25巷15-1號","121.608731666667","25.000045","6501800","深坑區"
"251005","010-UM","2018/01/25 20:59:33","新北市淡水區學府路75號","121.44825","25.16997","6501000","淡水區"
"251013","179-VK","2018/01/25 20:59:30","新北市淡水區行忠路590號","121.468543333333","25.19969","6501000","淡水區"
"251014","180-VK","2018/01/25 20:59:35","新北市淡水區淡金路五段72號","121.454773333333","25.233805","6501000","淡水區"
"251015","182-VK","2018/01/25 20:59:28","新北市淡水區興仁路162號","121.45159","25.2207316666667","6501000","淡水區"
"251010","413-VK","2018/01/25 20:59:42","新北市淡水區中正路一段116-3號","121.423938333333","25.178775","6501000","淡水區"
"251012","441-VK","2018/01/25 20:59:45","新北市淡水區淡金路五段72號","121.454601666667","25.2335566666667","6501000","淡水區"
"251016","442-VK","2018/01/25 20:59:34","新北市淡水區牛埔子11-1號","121.450166666667","25.2184533333333","6501000","淡水區"
"251001","559-UM","2018/01/25 20:59:42","新北市淡水區淡金路二段147號","121.4496","25.1828566666667","6501000","淡水區"
"251006","561-UM","2018/01/25 20:59:31","新北市淡水區中正路二段31號","121.419268333333","25.181805","6501000","淡水區"
"251007","577-R6","2018/01/25 20:59:32","新北市淡水區仁愛街2巷24號","121.446671666667","25.171275","6501000","淡水區"
"251011","650-BX","2018/01/25 20:59:25","新北市淡水區新民街302-1號","121.43519","25.1830616666667","6501000","淡水區"
"251002","672-BX","2018/01/25 20:59:32","新北市淡水區英專路112號","121.445888333333","25.1720416666667","6501000","淡水區"
"251003","766-UM","2018/01/25 20:59:27","新北市淡水區新春街103-39號","121.44072","25.1828","6501000","淡水區"
"242046","172-VK","2018/01/25 20:59:36","新北市新莊區中正路773號","121.42186","25.0285966666667","6500500","新莊區"
"242056","349-TH","2018/01/25 20:59:26","新北市新莊區瓊泰路85號","121.443061666667","25.0294683333333","6500500","新莊區"
"242011","351-TH","2018/01/25 20:59:26","新北市板橋區大觀路三段131-1號","121.43507","24.9919766666667","6500500","新莊區"
"221036","130-UY","2018/01/25 20:59:41","新北市汐止區大同路二段269號","121.652278333333","25.0668483333333","6501100","汐止區"
"221029","298-VK","2018/01/25 20:57:20","新北市汐止區康寧街901號","121.651566666667","25.07493","6501100","汐止區"
"242048","281-VK","2018/01/25 20:59:38","新北市新莊區中正路384號","121.442453333333","25.0345583333333","6500500","新莊區"
"220070","AAC-253","2018/01/25 20:59:45","新北市八里區中山路三段409號","121.368773333333","25.1341833333333","6500100","板橋區"
