"lineid","car","time","location","longitude","latitude","cityid","cityname"
"231054","AAD-862","2018/01/25 21:49:39","新北市新店區薏仁坑路自強巷6號","121.496411666667","24.958315","6500600","新店區"
"241005","262-UM","2018/01/25 21:49:55","新北市三重區環河南路222號","121.492855","25.051365","6500200","三重區"
"241023","545-UM","2018/01/25 21:49:48","新北市林口區太平里180號","121.368331666667","25.134505","6500200","三重區"
"235010","733-UM","2018/01/25 21:47:21","新北市中和區員山路36巷13號","121.484168333333","24.990825","6500300","中和區"
"247008","341-TH","2018/01/25 21:49:35","新北市林口區太平里180號","121.366543333333","25.1343283333333","6501400","蘆洲區"
"251009","008-UM","2018/01/25 21:49:49","新北市淡水區民族路35巷16號","121.465036666667","25.137145","6501000","淡水區"
"251004","009-UM","2018/01/25 21:49:38","新北市淡水區民權路92巷35-1號","121.462105","25.1267566666667","6501000","淡水區"
"251005","010-UM","2018/01/25 21:49:53","新北市淡水區鄧公路30巷32弄17號","121.453873333333","25.1702066666667","6501000","淡水區"
"251008","181-VK","2018/01/25 21:49:37","新北市淡水區學府路104號","121.449863333333","25.171755","6501000","淡水區"
"251010","413-VK","2018/01/25 21:49:42","新北市淡水區中正路二段211號","121.426193333333","25.1891116666667","6501000","淡水區"
"251012","441-VK","2018/01/25 21:49:45","新北市淡水區淡金路三段284號","121.448935","25.2073183333333","6501000","淡水區"
"251001","559-UM","2018/01/25 21:49:42","新北市淡水區後洲路一段157號","121.427756666667","25.1986133333333","6501000","淡水區"
"251006","561-UM","2018/01/25 21:49:51","新北市淡水區中正路11巷3號","121.43788","25.17079","6501000","淡水區"
"251007","577-R6","2018/01/25 21:49:52","新北市淡水區水源街二段177巷66號","121.452606666667","25.1771016666667","6501000","淡水區"
"251011","650-BX","2018/01/25 21:49:45","新北市淡水區新民街322巷9號","121.436321666667","25.1828583333333","6501000","淡水區"
"251002","672-BX","2018/01/25 21:49:32","新北市淡水區大忠街139號","121.447651666667","25.17674","6501000","淡水區"
"251003","766-UM","2018/01/25 21:49:47","新北市淡水區新春街61號","121.438265","25.1821116666667","6501000","淡水區"
"220070","AAC-253","2018/01/25 21:49:45","新北市板橋區華東街1-9號","121.448275","24.9948733333333","6500100","板橋區"
