"lineid","car","time","location","longitude","latitude","cityid","cityname"
"241023","545-UM","2018/01/25 22:09:48","新北市五股區中興路二段182巷3號","121.456746666667","25.0781083333333","6500200","三重區"
"235010","733-UM","2018/01/25 21:47:21","新北市中和區員山路36巷13號","121.484168333333","24.990825","6500300","中和區"
"247008","341-TH","2018/01/25 22:09:35","新北市五股區成泰路三段544-1號","121.454475","25.10347","6501400","蘆洲區"
"251004","009-UM","2018/01/25 22:09:38","新北市淡水區民族路72號","121.46218","25.1357133333333","6501000","淡水區"
"251005","010-UM","2018/01/25 22:09:33","新北市淡水區中山路33-1號","121.44384","25.1703816666667","6501000","淡水區"
"251008","181-VK","2018/01/25 22:09:37","新北市淡水區學府路104號","121.44985","25.171765","6501000","淡水區"
"251010","413-VK","2018/01/25 22:09:42","新北市淡水區沙崙路200號","121.424721666667","25.18395","6501000","淡水區"
"251007","577-R6","2018/01/25 22:09:32","新北市淡水區北新路137號","121.449441666667","25.178865","6501000","淡水區"
"251011","650-BX","2018/01/25 22:09:45","新北市淡水區水碓街7號","121.443148333333","25.1771983333333","6501000","淡水區"
