"lineid","car","time","location","longitude","latitude","cityid","cityname"
"247003","336-TH","2018/01/25 22:13:39","新北市五股區中興路三段163號","121.449156666667","25.0808883333333","6501400","蘆洲區"
"251004","009-UM","2018/01/25 22:29:18","新北市淡水區民族路33號","121.46227","25.1358133333333","6501000","淡水區"
"251008","181-VK","2018/01/25 22:29:37","新北市淡水區學府路104號","121.449841666667","25.1717516666667","6501000","淡水區"
"251010","413-VK","2018/01/25 22:29:22","新北市淡水區沙崙路200號","121.424695","25.1839866666667","6501000","淡水區"
"251007","577-R6","2018/01/25 22:29:31","新北市淡水區北新路143號","121.449516666667","25.17891","6501000","淡水區"
"251011","650-BX","2018/01/25 22:29:25","新北市淡水區水碓街7號","121.443211666667","25.1771866666667","6501000","淡水區"
