"lineid","car","time","location","longitude","latitude","cityid","cityname"
"248005","653-BX","2018/08/30 09:19:00","新北市五股區水碓一路5號","121.432475","25.0728383333333","6501500","五股區"
"244006","080-UY","2018/08/30 09:19:10","新北市林口區後湖17-1號","121.386808333333","25.0968066666667","6501700","林口區"
"244003","248-BX","2018/08/30 09:19:02","新北市林口區粉寮路二段88巷100-8號","121.408906666667","25.0902566666667","6501700","林口區"
"244018","403-UM","2018/08/30 09:18:55","新北市林口區忠孝路566號","121.374601666667","25.068105","6501700","林口區"
"244012","KEA-2802","2018/08/30 09:18:58","新北市林口區麗園路6號","121.375365","25.06992","6501700","林口區"
"244022","483-VK","2018/08/30 09:19:13","新北市林口區仁愛路二段113號","121.383845","25.0750233333333","6501700","林口區"
"244016","485-VK","2018/08/30 09:18:56","新北市林口區八德路78號","121.365525","25.065605","6501700","林口區"
"244008","656-BX","2018/08/30 09:19:01","新北市林口區竹林路278巷2號","121.390208333333","25.081715","6501700","林口區"
"244010","657-BX","2018/08/30 09:19:02","新北市林口區仁愛路一段356號","121.390328333333","25.0765966666667","6501700","林口區"
"244024","837-TS","2018/08/30 09:18:56","新北市林口區仁愛二路101-1號","121.367901666667","25.075225","6501700","林口區"
"222005","289-BY","2018/08/30 09:19:10","新北市深坑區北深路一段177號","121.632321666667","25.010715","6501800","深坑區"
"231069","189-VK","2018/08/30 09:19:13","新北市新店區新潭路三段256號","121.508936666667","24.9041433333333","6500600","新店區"
"231008","192-VK","2018/08/30 09:19:03","新北市新店區廣興路118號","121.53601","24.9113883333333","6500600","新店區"
"235001","611-BX","2018/08/30 09:19:13","新北市中和區連城路567-1號","121.479363333333","24.9944683333333","6500300","中和區"
"226003","AGD-0702","2018/08/30 09:18:39","新北市平溪區嶺腳里嶺腳寮114號","121.74572","25.0333333333333","6502400","平溪區"
"223003","205-TH","2018/08/30 09:19:11","新北市石碇區北宜路五段坑內巷1號","121.63694","24.95324","6501900","石碇區"
"223008","406-TH","2018/08/30 09:18:44","新北市石碇區光明路耳空龜巷12號","121.691616666667","25.0360433333333","6501900","石碇區"
"223001","592-UM","2018/08/30 09:19:00","新北市石碇區北宜路五段7號","121.630253333333","24.955285","6501900","石碇區"
"223004","660-BX","2018/08/30 09:19:06","新北市石碇區磨石坑28-1號","121.690868333333","24.9686166666667","6501900","石碇區"
"223005","677-TV","2018/08/30 09:19:17","新北市石碇區磨石坑24號","121.690036666667","24.9731916666667","6501900","石碇區"
"252004","249-BX","2018/08/30 09:19:08","新北市三芝區興華里楓子林45-2號","121.501585","25.2045666666667","6502100","三芝區"
"252007","AAC-283","2018/08/30 09:18:55","新北市三芝區古庄里山豬堀14-2號","121.49228","25.2599716666667","6502100","三芝區"
"237001","159-UY","2018/08/30 09:18:59","新北市鶯歌區三鶯路29巷4號","121.356046666667","24.9407383333333","6500900","三峽區"
"236009","165-UM","2018/08/30 09:19:04","新北市土城區金城路一段16號","121.439421666667","24.96894","6501300","土城區"
"236003","339-SR","2018/08/30 09:19:02","新北市土城區中正路75號","121.44538","24.97594","6501300","土城區"
"236005","498-BY","2018/08/30 09:19:11","新北市土城區中央路三段126巷32號","121.434458333333","24.9678266666667","6501300","土城區"
"242033","AAC-296","2018/08/30 09:19:05","新北市新莊區建中街90巷5弄2號","121.446785","25.0374666666667","6500500","新莊區"
"242052","751-BX","2018/08/30 09:19:01","新北市新莊區西盛街390號","121.427603333333","25.012875","6500500","新莊區"
"242057","705-TV","2018/08/30 09:19:11","新北市新莊區四維路201號","121.421941666667","25.0205916666667","6500500","新莊區"
"242026","615-BX","2018/08/30 09:19:00","新北市新莊區思源路147號","121.459941666667","25.04414","6500500","新莊區"
"242024","613-BX","2018/08/30 09:18:59","新北市新莊區五工三路60號","121.459678333333","25.06451","6500500","新莊區"
"242040","566-BX","2018/08/30 09:19:12","新北市新莊區中正路694巷65號","121.417481666667","25.029405","6500500","新莊區"
"242045","497-BY","2018/08/30 09:19:01","新北市新莊區裕民街72巷14號","121.417943333333","25.024355","6500500","新莊區"
"242049","441-UM","2018/08/30 09:19:15","新北市新莊區新樹路295號","121.433866666667","25.0201633333333","6500500","新莊區"
"242055","440-UM","2018/08/30 09:19:13","新北市新莊區豐年街52號","121.446333333333","25.03178","6500500","新莊區"
"242035","415-TV","2018/08/30 09:19:07","新北市新莊區建安街40巷22號","121.42752","25.0252566666667","6500500","新莊區"
"242043","400-BY","2018/08/30 09:19:15","新北市新莊區中正路893巷1-8號","121.412788333333","25.0216666666667","6500500","新莊區"
"242022","362-BY","2018/08/30 09:19:12","新北市新莊區化成路127號","121.465611666667","25.047325","6500500","新莊區"
"242059","353-BY","2018/08/30 09:19:05","新北市新莊區瓊林路68號","121.44524","25.0286366666667","6500500","新莊區"
"242038","133-UY","2018/08/30 09:18:58","新北市新莊區八德街15巷21號","121.426041666667","25.0221433333333","6500500","新莊區"
"242030","135-UY","2018/08/30 09:19:12","新北市新莊區忠孝街29巷2號","121.443641666667","25.0356033333333","6500500","新莊區"
"242047","172-VK","2018/08/30 09:19:03","新北市新莊區四維路186巷1號","121.421856666667","25.0210483333333","6500500","新莊區"
"242003","176-VK","2018/08/30 09:19:12","新北市新莊區頭前路20號","121.467916666667","25.05248","6500500","新莊區"
"242014","347-TH","2018/08/30 09:19:08","新北市新莊區中和街2號","121.448485","25.04292","6500500","新莊區"
"242020","348-TH","2018/08/30 09:19:07","新北市新莊區公園路96號","121.450538333333","25.0398533333333","6500500","新莊區"
"242001","349-TH","2018/08/30 09:19:02","新北市新莊區中正路78-1號","121.458508333333","25.03782","6500500","新莊區"
"242018","350-TH","2018/08/30 09:19:07","新北市新莊區中港路38號","121.455173333333","25.0375716666667","6500500","新莊區"
"242012","281-VK","2018/08/30 09:19:09","新北市新莊區幸福路910號","121.442793333333","25.04896","6500500","新莊區"
"242010","280-VK","2018/08/30 09:19:05","新北市新莊區中義街24號","121.450623333333","25.0511866666667","6500500","新莊區"
