"lineid","car","time","location","longitude","latitude","cityid","cityname"
"248005","653-BX","2018/08/30 09:39:00","新北市五股區登林路貿商巷1弄6號","121.429541666667","25.069985","6501500","五股區"
"244006","080-UY","2018/08/30 09:39:10","新北市林口區中華路265號","121.38414","25.090635","6501700","林口區"
"244018","403-UM","2018/08/30 09:39:15","新北市林口區麗園二街23巷88號","121.380606666667","25.0702816666667","6501700","林口區"
"244012","KEA-2802","2018/08/30 09:39:18","新北市林口區文化一路一段126號","121.375586666667","25.0725183333333","6501700","林口區"
"244022","483-VK","2018/08/30 09:39:13","新北市林口區文化二路二段88巷7號","121.37942","25.0808633333333","6501700","林口區"
"244016","485-VK","2018/08/30 09:38:56","新北市林口區文化二路一段20巷25弄61號","121.366143333333","25.0676733333333","6501700","林口區"
"244008","656-BX","2018/08/30 09:39:01","新北市林口區台電新村3號","121.388086666667","25.08623","6501700","林口區"
"222005","289-BY","2018/08/30 09:39:10","新北市深坑區昇高坑路35號","121.628701666667","24.9983083333333","6501800","深坑區"
"231069","189-VK","2018/08/30 09:39:13","新北市新店區新潭路三段215巷25號","121.50811","24.9040933333333","6500600","新店區"
"231008","192-VK","2018/08/30 09:39:04","新北市新店區平廣路一段256號","121.507886666667","24.888305","6500600","新店區"
"223003","205-TH","2018/08/30 09:39:11","新北市石碇區北宜路四段26號","121.623226666667","24.9579366666667","6501900","石碇區"
"223008","406-TH","2018/08/30 09:37:44","新北市石碇區南勢坑2-3號","121.699155","24.9900883333333","6501900","石碇區"
"223001","592-UM","2018/08/30 09:39:00","新北市石碇區北宜路五段火燒樟巷6-1號","121.624976666667","24.9567366666667","6501900","石碇區"
"252004","249-BX","2018/08/30 09:38:44","新北市三芝區圓山里石曹子坑69號","121.522983333333","25.2136166666667","6502100","三芝區"
"252007","AAC-283","2018/08/30 09:39:15","新北市三芝區新庄里新庄子113-5號","121.517655","25.2666","6502100","三芝區"
"237001","159-UY","2018/08/30 09:39:00","新北市三峽區大義路380號","121.376466666667","24.94863","6500900","三峽區"
"236009","165-UM","2018/08/30 09:39:04","新北市土城區中央路四段285號","121.411651666667","24.95269","6501300","土城區"
"236003","339-SR","2018/08/30 09:39:02","新北市土城區明德路二段68-2號","121.447571666667","24.98331","6501300","土城區"
"236005","498-BY","2018/08/30 09:39:08","新北市土城區承天路103號","121.443251666667","24.9602783333333","6501300","土城區"
"242033","AAC-296","2018/08/30 09:39:18","新北市新莊區中正路411號","121.444888333333","25.034475","6500500","新莊區"
"242052","751-BX","2018/08/30 09:39:17","新北市新莊區民安西路228號","121.425945","25.0144583333333","6500500","新莊區"
"242057","705-TV","2018/08/30 09:39:11","新北市新莊區民安路144巷9號","121.42409","25.025285","6500500","新莊區"
"242024","613-BX","2018/08/30 09:39:19","新北市新莊區中原路327-1號","121.44592","25.0544333333333","6500500","新莊區"
"242055","440-UM","2018/08/30 09:39:08","新北市新莊區瓊泰路2巷4號","121.445033333333","25.0290183333333","6500500","新莊區"
"242035","415-TV","2018/08/30 09:39:14","新北市新莊區中正路471號","121.441801666667","25.03378","6500500","新莊區"
"242043","400-BY","2018/08/30 09:39:15","新北市新莊區龍安路73-1號","121.416338333333","25.0212283333333","6500500","新莊區"
"242059","353-BY","2018/08/30 09:39:05","新北市新莊區新樹路215號","121.435553333333","25.02338","6500500","新莊區"
"242038","133-UY","2018/08/30 09:39:18","新北市新莊區瓊林路59-90號","121.441188333333","25.0223666666667","6500500","新莊區"
"242030","135-UY","2018/08/30 09:39:12","新北市新莊區三和路58號","121.437245","25.03849","6500500","新莊區"
"242047","172-VK","2018/08/30 09:39:03","新北市新莊區中正路795號","121.421393333333","25.0284233333333","6500500","新莊區"
"242001","349-TH","2018/08/30 09:39:02","新北市新莊區中正路175號","121.454066666667","25.03649","6500500","新莊區"
