"lineid","car","time","location","longitude","latitude","cityid","cityname"
"244019","403-UM","2018/08/30 11:09:14","新北市林口區粉寮路二段88巷100-12號","121.409648333333","25.090245","6501700","林口區"
"244022","483-VK","2018/08/30 11:08:56","新北市林口區粉寮路一段78號","121.39719","25.0791183333333","6501700","林口區"
"231069","189-VK","2018/08/30 11:09:13","新北市新店區新潭路二段61號","121.521985","24.926255","6500600","新店區"
"231008","192-VK","2018/08/30 11:09:02","新北市新店區新烏路三段220巷24號","121.545066666667","24.9041066666667","6500600","新店區"
"237001","159-UY","2018/08/30 11:09:20","新北市三峽區中山路459巷163-1號","121.349318333333","24.933395","6500900","三峽區"
