"lineid","car","time","location","longitude","latitude","cityid","cityname"
"248014","025-BX","2018/08/30 11:59:23","新北市五股區中興路二段83巷26-6號","121.459961666667","25.0753216666667","6501500","五股區"
"244019","403-UM","2018/08/30 11:51:49","新北市林口區粉寮路二段88巷100-12號","121.409688333333","25.0902033333333","6501700","林口區"
"231008","192-VK","2018/08/30 12:02:43","新北市新店區屈尺路97號","121.545663333333","24.923375","6500600","新店區"
"228005","097-TW","2018/08/30 12:02:38","新北市貢寮區雙玉里學苑街21號","121.916435","25.0222833333333","6502600","貢寮區"
"228004","212-TW","2018/08/30 12:02:43","新北市貢寮區貢寮里朝陽街11-1號","121.909613333333","25.0208133333333","6502600","貢寮區"
"237001","159-UY","2018/08/30 12:02:40","新北市三峽區中山路459巷163-1號","121.349296666667","24.9333983333333","6500900","三峽區"
