"lineid","car","time","location","longitude","latitude","cityid","cityname"
"234044","148-BY","2018/08/30 13:49:09","新北市永和區成功路一段80號","121.526291666667","25.0031433333333","6500400","永和區"
"234078","298-R6","2018/08/30 13:49:20","新北市永和區國中路2號","121.52438","25.0042233333333","6500400","永和區"
"234036","336-UY","2018/08/30 13:49:11","新北市永和區民樂街59巷1-1號","121.527603333333","24.9982966666667","6500400","永和區"
"234062","337-UY","2018/08/30 13:49:09","新北市永和區中正路368巷33號","121.518865","25.000735","6500400","永和區"
"234084","338-UY","2018/08/30 13:49:11","新北市永和區永亨路122號","121.524308333333","25.0040316666667","6500400","永和區"
"234068","552-UM","2018/08/30 13:49:12","新北市永和區竹林路78號","121.519185","25.0127633333333","6500400","永和區"
"234005","695-BX","2018/08/30 13:49:16","新北市永和區永和路一段64號","121.513068333333","25.00596","6500400","永和區"
"234015","745-BX","2018/08/30 13:49:12","新北市永和區文化路19-1號","121.515025","25.0149666666667","6500400","永和區"
"234028","746-BX","2018/08/30 13:49:06","新北市永和區民生路69號","121.52273","24.9972283333333","6500400","永和區"
"234052","KEA-2590","2018/08/30 13:49:20","新北市永和區竹林路39巷28弄29號","121.519745","25.0144083333333","6500400","永和區"
"234060","AAD-866","2018/08/30 13:49:10","新北市永和區中正路199號","121.517335","24.99938","6500400","永和區"
"234012","847-RS","2018/08/30 13:49:13","新北市永和區永平路226巷26號","121.509096666667","25.0113483333333","6500400","永和區"
"234040","862-TW","2018/08/30 13:49:14","新北市永和區中和路305巷10弄1號","121.507013333333","25.0009533333333","6500400","永和區"
"234048","863-TW","2018/08/30 13:49:16","新北市永和區保安路75號","121.5087","25.0148866666667","6500400","永和區"
"234010","9373-KE","2018/08/30 13:49:02","新北市永和區保安路292號","121.50497","25.01176","6500400","永和區"
"248013","025-BX","2018/08/30 13:49:05","新北市五股區民義路一段107巷32號","121.432158333333","25.084465","6501500","五股區"
"248015","026-BX","2018/08/30 13:49:08","新北市五股區凌雲路一段149巷42號","121.448568333333","25.1009083333333","6501500","五股區"
"248005","077-UY","2018/08/30 13:49:07","新北市五股區四維路112號","121.467596666667","25.0738183333333","6501500","五股區"
"248007","095-VK","2018/08/30 13:49:05","新北市五股區中興路一段132號","121.465231666667","25.073585","6501500","五股區"
"248017","225-UY","2018/08/30 13:49:08","新北市五股區民義路二段48巷1-6號","121.414048333333","25.1025816666667","6501500","五股區"
"248011","247-BX","2018/08/30 13:49:07","新北市五股區成泰路二段195巷1號","121.440315","25.0873633333333","6501500","五股區"
"248010","272-BY","2018/08/30 13:49:06","新北市五股區水碓七路38號","121.42926","25.071685","6501500","五股區"
"248003","677-BX","2018/08/30 13:49:10","新北市五股區民義路二段42號","121.414895","25.1006333333333","6501500","五股區"
"248001","678-BX","2018/08/30 13:49:04","新北市五股區成泰路三段460號","121.451421666667","25.1004616666667","6501500","五股區"
"234022","9380-KE","2018/08/30 13:49:17","新北市永和區復興街16巷5號","121.51579","25.012625","6500400","永和區"
"234076","969-R7","2018/08/30 13:49:08","新北市永和區民權路58巷2弄11號","121.519656666667","24.99889","6500400","永和區"
"234072","AAC-211","2018/08/30 13:49:15","新北市永和區竹林路179巷35號","121.522185","25.0102633333333","6500400","永和區"
"234066","AAC-212","2018/08/30 13:49:07","新北市永和區中山路一段213號","121.508683333333","25.0080383333333","6500400","永和區"
"234001","AAC-295","2018/08/30 13:49:24","新北市永和區永和路一段45號","121.51284","25.0064233333333","6500400","永和區"
"244003","248-BX","2018/08/30 13:49:18","新北市林口區汕頭13號","121.362005","25.1330633333333","6501700","林口區"
"243005","AAD-798","2018/08/30 13:24:09","新北市泰山區明志路三段206巷3號","121.42328","25.0379466666667","6501600","泰山區"
"243001","297-R6","2018/08/30 13:49:16","新北市泰山區黎明路33號","121.421665","25.0603666666667","6501600","泰山區"
"243008","KEA-2801","2018/08/30 13:49:12","新北市泰山區明志路二段135號","121.427623333333","25.05075","6501600","泰山區"
"243003","KEA-2215","2018/08/30 13:49:01","新北市泰山區公園路97號","121.425453333333","25.0559533333333","6501600","泰山區"
"243002","KEA-2216","2018/08/30 13:49:19","新北市泰山區辭修路20號","121.429166666667","25.0581416666667","6501600","泰山區"
"243004","646-TV","2018/08/30 13:49:07","新北市泰山區福興三街13號","121.434475","25.057765","6501600","泰山區"
"231002","002-UM","2018/08/30 13:49:06","新北市新店區溪園路415號","121.524453333333","24.97861","6500600","新店區"
"231027","0291-UT","2018/08/30 13:49:19","新北市新店區北宜路一段94號","121.538891666667","24.95558","6500600","新店區"
"231028","046-UY","2018/08/30 13:49:19","新北市新店區安和路二段167號","121.518816666667","24.974405","6500600","新店區"
"231001","047-UY","2018/08/30 13:49:14","新北市新店區三民路118號","121.534408333333","24.9743666666667","6500600","新店區"
"231010","107-UY","2018/08/30 13:49:12","新北市新店區平等街66號","121.535596666667","24.9723266666667","6500600","新店區"
"231021","108-UY","2018/08/30 13:49:19","新北市新店區永興路95-3號","121.544621666667","24.93218","6500600","新店區"
"231035","110-UY","2018/08/30 13:49:05","新北市新店區安忠路57巷1-8號","121.513463333333","24.9592566666667","6500600","新店區"
"231011","187-VK","2018/08/30 13:49:19","新北市新店區德正街27巷29弄131號","121.545748333333","24.973115","6500600","新店區"
"231023","KEA-2219","2018/08/30 13:49:03","新北市新店區國校路65巷1號","121.538321666667","24.9540533333333","6500600","新店區"
"231026","256-BX","2018/08/30 13:49:01","新北市新店區福園街17巷2號","121.532816666667","24.9728383333333","6500600","新店區"
"231003","268-BY","2018/08/30 13:49:02","新北市新店區中興路一段203號","121.543645","24.9654866666667","6500600","新店區"
"231018","278-BY","2018/08/30 13:49:18","新北市新店區中正路398號","121.53477","24.97747","6500600","新店區"
"231017","AAD-862","2018/08/30 13:49:18","新北市新店區竹林路71-7號","121.55367","24.9514816666667","6500600","新店區"
"231005","355-BY","2018/08/30 13:49:15","新北市新店區寶中路100號","121.5497","24.9791666666667","6500600","新店區"
"231038","3712-VJ","2018/08/30 13:49:08","新北市新店區安華路3號","121.519043333333","24.9603533333333","6500600","新店區"
"231037","4716-K9","2018/08/30 13:49:09","新北市新店區安康路三段450號","121.484521666667","24.9512883333333","6500600","新店區"
"231025","4715-K9","2018/08/30 13:49:08","新北市新店區中正路347號","121.53544","24.9757916666667","6500600","新店區"
"231036","512-UM","2018/08/30 13:49:07","新北市新店區安祥路145巷27號","121.47537","24.9565166666667","6500600","新店區"
"231013","513-UM","2018/08/30 13:49:14","新北市新店區二十張路25巷18弄2號","121.539175","24.9818083333333","6500600","新店區"
"231030","619-UM","2018/08/30 13:49:13","新北市新店區安康路一段50號","121.530305","24.9611033333333","6500600","新店區"
"231034","641-BX","2018/08/30 13:49:05","新北市新店區達觀路14巷3號","121.503205","24.9418116666667","6500600","新店區"
"231031","720-UM","2018/08/30 13:49:19","新北市新店區莒光路44巷21弄11-6號","121.518565","24.952245","6500600","新店區"
"231029","897-TW","2018/08/30 13:49:10","新北市新店區安康路二段125-1號","121.512415","24.9609283333333","6500600","新店區"
"231006","898-TW","2018/08/30 13:49:12","新北市新店區北宜路一段190號","121.541253333333","24.9528266666667","6500600","新店區"
"231004","899-TW","2018/08/30 13:49:07","新北市新店區中興路三段1-20號","121.546735","24.9761166666667","6500600","新店區"
"231024","AKT-0513","2018/08/30 13:49:16","新北市新店區北新路一段271巷8號","121.540508333333","24.9668366666667","6500600","新店區"
"235030","003-UY","2018/08/30 13:49:10","新北市中和區水源路18巷7號","121.504013333333","25.0030133333333","6500300","中和區"
"235028","005-UY","2018/08/30 13:49:18","新北市中和區景平路517號","121.49928","24.9987833333333","6500300","中和區"
"235027","006-UY","2018/08/30 13:49:15","新北市中和區連城路319巷11弄1號","121.48934","24.9950083333333","6500300","中和區"
"235020","096-UM","2018/08/30 13:49:06","新北市中和區新民街94巷18號","121.481443333333","25.009185","6500300","中和區"
"235003","097-UM","2018/08/30 13:49:13","新北市中和區大勇街25巷1號","121.517145","24.9932016666667","6500300","中和區"
"235029","098-UM","2018/08/30 13:49:22","新北市中和區中山路二段2巷45弄1號","121.502455","25.00701","6500300","中和區"
"235040","150-BY","2018/08/30 13:49:17","新北市中和區保健路48巷26號","121.509541666667","24.9964133333333","6500300","中和區"
"235022","151-BY","2018/08/30 13:49:19","新北市中和區連城路518巷1號","121.476755","24.9919683333333","6500300","中和區"
"235019","183-VK","2018/08/30 13:49:12","新北市中和區國光街102巷27號","121.471306666667","25.0007183333333","6500300","中和區"
"235002","185-VK","2018/08/30 13:49:17","新北市中和區大勇街35號","121.517488333333","24.9943416666667","6500300","中和區"
"235013","186-VK","2018/08/30 13:49:11","新北市中和區景新街210巷15號","121.50701","24.9945633333333","6500300","中和區"
"235031","255-BX","2018/08/30 13:49:05","新北市中和區新生街220巷4號","121.482921666667","24.9986116666667","6500300","中和區"
"235008","293-VK","2018/08/30 13:49:03","新北市中和區中興街115巷6號","121.500321666667","24.9920233333333","6500300","中和區"
"235036","301-VK","2018/08/30 13:49:06","新北市中和區中山路二段101號","121.503291666667","25.0039933333333","6500300","中和區"
"235007","352-BY","2018/08/30 13:49:16","新北市中和區景平路2號","121.524758333333","24.99014","6500300","中和區"
"235006","KEA-2878","2018/08/30 13:49:03","新北市中和區秀朗路三段70巷45號","121.52511","24.9943266666667","6500300","中和區"
"235014","4979-A6","2018/08/30 13:49:15","新北市中和區忠孝街62巷7弄2號","121.512973333333","24.9837216666667","6500300","中和區"
"235033","4980-A6","2018/08/30 13:49:15","新北市中和區南山路13號","121.50216","24.9992816666667","6500300","中和區"
"235034","558-UM","2018/08/30 13:49:15","新北市中和區中和路143號","121.502103333333","24.9996633333333","6500300","中和區"
"235009","565-BX","2018/08/30 13:49:08","新北市中和區興南路一段86號","121.509986666667","24.9893516666667","6500300","中和區"
"235018","640-BX","2018/08/30 13:49:08","新北市中和區民享街71號","121.474183333333","25.002105","6500300","中和區"
"235024","647-TV","2018/08/30 13:49:17","新北市中和區中山路三段29號","121.479166666667","25.0059166666667","6500300","中和區"
"235011","732-UM","2018/08/30 13:48:56","新北市中和區興南路二段92號","121.505263333333","24.9845466666667","6500300","中和區"
"235010","733-UM","2018/08/30 13:49:03","新北市中和區仁愛街36巷42號","121.511336666667","24.9863566666667","6500300","中和區"
"235026","800-TS","2018/08/30 13:49:07","新北市中和區景平路703巷2弄2號","121.496173333333","25.0034933333333","6500300","中和區"
"235021","801-TS","2018/08/30 13:48:54","新北市中和區民安街22巷14號","121.47975","25.0013266666667","6500300","中和區"
"235005","802-TS","2018/08/30 13:49:17","新北市中和區永貞路249巷11號","121.51262","25.00364","6500300","中和區"
"235016","805-TS","2018/08/30 13:49:09","新北市中和區興南路三段21號","121.49698","24.9794033333333","6500300","中和區"
"235012","896-TW","2018/08/30 13:49:08","新北市中和區南山路176-20號","121.505455","24.9909633333333","6500300","中和區"
"235017","900-TW","2018/08/30 13:49:17","新北市中和區華福街24號","121.465955","24.9967","6500300","中和區"
"235035","911-UM","2018/08/30 13:49:22","新北市中和區中山路二段482巷10號","121.488478333333","25.00615","6500300","中和區"
"235015","157-BY","2018/08/30 13:49:11","新北市中和區華新街109巷24號","121.508558333333","24.9804533333333","6500300","中和區"
"235023","AAC-215","2018/08/30 13:49:14","新北市中和區圓通路391-7號","121.489671666667","24.9890983333333","6500300","中和區"
"220013","072-UY","2018/08/30 13:49:10","新北市板橋區漢生東路217號","121.47111","25.009375","6500100","板橋區"
"220034","073-UY","2018/08/30 13:49:05","新北市板橋區大智街10號","121.456061666667","25.0148133333333","6500100","板橋區"
"220105","075-UY","2018/08/30 13:49:13","新北市板橋區民生路二段161巷3號","121.470246666667","25.01978","6500100","板橋區"
"220017","AAD-861","2018/08/30 13:49:03","新北市板橋區館前西路53號","121.45772","25.006555","6500100","板橋區"
"247003","337-TH","2018/08/30 13:49:00","新北市蘆洲區中原路32號","121.459965","25.08278","6501400","蘆洲區"
"247005","336-TH","2018/08/30 13:49:07","新北市蘆洲區中山二路275號","121.469465","25.07919","6501400","蘆洲區"
"247007","056-VK","2018/08/30 13:49:18","新北市蘆洲區重陽一街3號","121.481753333333","25.0814966666667","6501400","蘆洲區"
"228005","097-TW","2018/08/30 13:49:18","新北市雙溪區三港里雙澳路100號","121.8894","25.0559933333333","6502600","貢寮區"
"228004","212-TW","2018/08/30 13:49:03","新北市貢寮區龍崗里嵩陽街46號","121.904595","25.0122883333333","6502600","貢寮區"
"253003","6232-TK","2018/08/30 13:49:08","新北市石門區尖子鹿10號","121.574851666667","25.28134","6502200","石門區"
"253001","6251-TK","2018/08/30 13:49:11","新北市石門區八甲60-5號","121.526068333333","25.2710433333333","6502200","石門區"
"253002","637-UY","2018/08/30 13:49:16","新北市石門區尖山湖1-1號","121.567428333333","25.2468716666667","6502200","石門區"
"253004","8270-PC","2018/08/30 13:49:16","新北市石門區草埔尾31-1號","121.60319","25.2650583333333","6502200","石門區"
"207002","749-BX","2018/08/30 13:49:03","新北市萬里區崁腳里崁腳路166號","121.645071666667","25.155815","6502800","萬里區"
"207001","662-BX","2018/08/30 13:49:01","新北市萬里區磺潭里公館崙36號","121.631418333333","25.2098383333333","6502800","萬里區"
"252005","AAC-283","2018/08/30 13:49:22","新北市三芝區圓山里內柑宅25-2號","121.536436666667","25.225895","6502100","三芝區"
"237001","159-UY","2018/08/30 13:49:20","新北市樹林區中山路三段210-2號","121.38157","24.9654583333333","6500900","三峽區"
"236068","105-UM","2018/08/30 13:49:01","新北市土城區城林路6巷80號","121.438661666667","24.9796366666667","6501300","土城區"
"236074","166-UM","2018/08/30 13:49:06","新北市土城區福仁街53號","121.439785","24.9751383333333","6501300","土城區"
"236029","253-BX","2018/08/30 13:49:19","新北市土城區城林路6巷80號","121.438483333333","24.9797583333333","6501300","土城區"
"236032","271-VK","2018/08/30 13:49:03","新北市土城區城林路6巷80號","121.438495","24.9797166666667","6501300","土城區"
"236017","401-BY","2018/08/30 13:49:15","新北市土城區城林路6巷80號","121.438528333333","24.9798166666667","6501300","土城區"
"236005","498-BY","2018/08/30 13:49:10","新北市土城區慶祥街1巷27號","121.437156666667","24.9738783333333","6501300","土城區"
"236057","912-UM","2018/08/30 13:49:10","新北市土城區中華路二段122號","121.437823333333","24.9737516666667","6501300","土城區"
"236045","913-UM","2018/08/30 13:49:17","新北市土城區城林路6巷80號","121.438483333333","24.97977","6501300","土城區"
"236054","AAC-216","2018/08/30 13:49:04","新北市土城區城林路6巷80號","121.438728333333","24.9796583333333","6501300","土城區"
"221010","269-BY","2018/08/30 13:49:15","新北市汐止區伯爵街14巷14號","121.643821666667","25.079405","6501100","汐止區"
"220027","145-BY","2018/08/30 13:49:11","新北市板橋區大智街71巷5弄1號","121.453303333333","25.0149516666667","6500100","板橋區"
"220028","200-UY","2018/08/30 13:49:16","新北市板橋區大觀路二段265巷60弄28-2號","121.441455","24.9978616666667","6500100","板橋區"
"220030","610-BX","2018/08/30 13:49:10","新北市板橋區篤行路三段玉平巷51號","121.428631666667","24.98663","6500100","板橋區"
"220004","276-BY","2018/08/30 13:49:21","新北市板橋區四川路二段58號","121.45303","24.9950383333333","6500100","板橋區"
"220020","277-BY","2018/08/30 13:49:14","新北市板橋區金門街21號","121.43357","24.9946833333333","6500100","板橋區"
"220011","280-UM","2018/08/30 13:49:21","新北市板橋區中山路二段50-1號","121.473125","25.01549","6500100","板橋區"
"220019","283-VK","2018/08/30 13:49:13","新北市板橋區重慶路245巷57號","121.465386666667","25.0009733333333","6500100","板橋區"
"220043","285-UM","2018/08/30 13:49:18","新北市板橋區民生路二段161巷1號","121.470045","25.0198183333333","6500100","板橋區"
"220001","285-VK","2018/08/30 13:49:19","新北市板橋區民生路二段89-6號","121.470571666667","25.0188866666667","6500100","板橋區"
"220031","286-VK","2018/08/30 13:49:20","新北市板橋區龍興街103巷2號","121.444585","25.0037083333333","6500100","板橋區"
"220029","287-VK","2018/08/30 13:49:21","新北市板橋區光華街13巷3號","121.453845","25.0114666666667","6500100","板橋區"
"220039","288-VK","2018/08/30 13:49:04","新北市板橋區民生路二段161巷9號","121.470273333333","25.0194216666667","6500100","板橋區"
"220009","295-UM","2018/08/30 13:49:13","新北市板橋區民生路二段89-4號","121.470918333333","25.01823","6500100","板橋區"
"220032","296-UM","2018/08/30 13:49:12","新北市板橋區大觀路二段150巷56號","121.441571666667","25.0003383333333","6500100","板橋區"
"220010","299-UM","2018/08/30 13:49:10","新北市板橋區中山路二段40巷17號","121.473321666667","25.0148566666667","6500100","板橋區"
"220023","303-R5","2018/08/30 13:49:07","新北市板橋區南雅西路一段174巷1弄3號","121.452975","25.0077283333333","6500100","板橋區"
"220047","317-R6","2018/08/30 13:49:05","新北市板橋區民生路二段188號","121.470166666667","25.0202816666667","6500100","板橋區"
"220012","486-VK","2018/08/30 13:49:22","新北市板橋區民生路二段36-1號","121.472115","25.0167366666667","6500100","板橋區"
"220037","491-VK","2018/08/30 13:49:07","新北市板橋區民生路二段179號","121.469731666667","25.0204383333333","6500100","板橋區"
"220104","560-BX","2018/08/30 13:49:10","新北市板橋區中正路275巷62弄4-3號","121.452986666667","25.01809","6500100","板橋區"
"220052","561-BX","2018/08/30 13:49:04","新北市板橋區民生路二段161巷1號","121.470078333333","25.0200766666667","6500100","板橋區"
"220040","637-BX","2018/08/30 13:49:18","新北市板橋區民生路二段161巷1號","121.469963333333","25.02004","6500100","板橋區"
"220005","686-BX","2018/08/30 13:49:15","新北市板橋區南雅西路一段7巷5號","121.454491666667","25.0038533333333","6500100","板橋區"
"220025","687-BX","2018/08/30 13:49:12","新北市板橋區金門街88-2號","121.433125","24.99262","6500100","板橋區"
"220042","689-BX","2018/08/30 13:49:23","新北市板橋區民生路二段188號","121.470181666667","25.020245","6500100","板橋區"
"220002","741-BX","2018/08/30 13:49:07","新北市板橋區館前西路46巷2號","121.459008333333","25.0070916666667","6500100","板橋區"
"220051","KEA-2699","2018/08/30 13:49:05","新北市板橋區民生路二段120號","121.470315","25.0197716666667","6500100","板橋區"
"220018","806-UM","2018/08/30 13:49:17","新北市板橋區南雅南路一段43號","121.455976666667","25.0062833333333","6500100","板橋區"
"220003","827-TW","2018/08/30 13:49:21","新北市板橋區縣民大道一段290號","121.46126","25.0105883333333","6500100","板橋區"
"220014","829-TW","2018/08/30 13:49:10","新北市板橋區中山路二段90巷47弄2號","121.476535","25.0145966666667","6500100","板橋區"
"220016","830-TW","2018/08/30 13:49:24","新北市板橋區三民路一段91巷87弄20號","121.479793333333","25.0215183333333","6500100","板橋區"
"220038","833-TW","2018/08/30 13:49:09","新北市板橋區民生路二段208號","121.469648333333","25.02122","6500100","板橋區"
"220022","895-R6","2018/08/30 13:49:14","新北市板橋區南門街44號","121.456941666667","25.0081383333333","6500100","板橋區"
"220021","985-R7","2018/08/30 13:49:17","新北市板橋區府中路32號","121.45824","25.0095766666667","6500100","板橋區"
"220018","AAC-253","2018/08/30 13:49:17","新北市板橋區館前西路46巷2號","121.459026666667","25.0071283333333","6500100","板橋區"
"235032","KEA-2873","2018/08/30 13:49:17","新北市中和區圓通路162巷3號","121.4971","24.99528","6500300","中和區"
"235025","KEA-2875","2018/08/30 13:49:13","新北市中和區民享街54巷16弄1號","121.473231666667","25.002635","6500300","中和區"
