"lineid","car","time","location","longitude","latitude","cityid","cityname"
"234044","148-BY","2018/08/30 14:18:49","新北市永和區得和路275號","121.522318333333","24.9995966666667","6500400","永和區"
"234078","298-R6","2018/08/30 14:18:40","新北市永和區福和路19巷14號","121.524353333333","25.0078266666667","6500400","永和區"
"234036","336-UY","2018/08/30 14:18:31","新北市永和區成功路一段108號","121.526856666667","25.0027","6500400","永和區"
"234062","337-UY","2018/08/30 14:18:49","新北市永和區中正路279號","121.51757","25.00105","6500400","永和區"
"234084","338-UY","2018/08/30 14:18:50","新北市永和區中正路581-3號","121.516693333333","25.0092683333333","6500400","永和區"
"234068","552-UM","2018/08/30 14:18:48","新北市永和區永利路25號","121.518195","25.0061216666667","6500400","永和區"
"234005","695-BX","2018/08/30 14:18:36","新北市中和區中和路232號","121.506663333333","24.9995","6500400","永和區"
"234015","745-BX","2018/08/30 14:18:32","新北市永和區仁愛路93號","121.512961666667","25.0131366666667","6500400","永和區"
"234028","746-BX","2018/08/30 14:18:46","新北市永和區民權路49巷24號","121.521376666667","24.99743","6500400","永和區"
"234052","KEA-2590","2018/08/30 14:18:40","新北市永和區博愛街21巷1號","121.517648333333","25.01584","6500400","永和區"
"234060","AAD-866","2018/08/30 14:18:50","新北市永和區安樂路166號","121.514636666667","25.000765","6500400","永和區"
"234012","847-RS","2018/08/30 14:18:41","新北市永和區永貞路421號","121.507218333333","25.0095666666667","6500400","永和區"
"234040","862-TW","2018/08/30 14:18:43","新北市中和區安平路161號","121.512361666667","24.998645","6500400","永和區"
"234048","863-TW","2018/08/30 14:18:36","新北市永和區文化路230號","121.509788333333","25.0169183333333","6500400","永和區"
"234025","9371-KE","2018/08/30 14:18:44","新北市永和區安樂路144巷6號","121.514618333333","25.0001083333333","6500400","永和區"
"248015","026-BX","2018/08/30 14:18:48","新北市五股區成洲五路12號","121.452301666667","25.1015683333333","6501500","五股區"
"248007","095-VK","2018/08/30 14:18:45","新北市五股區中興路二段37巷26號","121.460345","25.0750083333333","6501500","五股區"
"248017","225-UY","2018/08/30 14:18:48","新北市五股區民義路一段255-3號","121.427186666667","25.0912333333333","6501500","五股區"
"248011","247-BX","2018/08/30 14:18:50","新北市五股區工商路85巷6號","121.437863333333","25.0848533333333","6501500","五股區"
"248010","272-BY","2018/08/30 14:18:45","新北市五股區水碓一路23號","121.430673333333","25.0712766666667","6501500","五股區"
"248003","677-BX","2018/08/30 14:18:50","新北市五股區五福路69號","121.43265","25.09015","6501500","五股區"
"248001","678-BX","2018/08/30 14:18:44","新北市五股區成泰路四段2號","121.452756666667","25.1061266666667","6501500","五股區"
"234022","9380-KE","2018/08/30 14:18:36","新北市永和區竹林路30號","121.517131666667","25.0147516666667","6500400","永和區"
"234076","969-R7","2018/08/30 14:18:48","新北市永和區民權路110號","121.51972","24.9965266666667","6500400","永和區"
"234072","AAC-211","2018/08/30 14:18:35","新北市永和區環河東路二段88號","121.523686666667","25.0105633333333","6500400","永和區"
"234066","AAC-212","2018/08/30 14:18:51","新北市永和區中山路一段281巷2弄5號","121.507121666667","25.006445","6500400","永和區"
"234001","AAC-295","2018/08/30 14:18:43","新北市永和區中正路609巷28號","121.515941666667","25.0088416666667","6500400","永和區"
"243005","AAD-798","2018/08/30 14:18:36","新北市泰山區明志路三段145巷8弄2號","121.42576","25.0397","6501600","泰山區"
"243001","297-R6","2018/08/30 14:18:35","新北市泰山區和平街13巷68號","121.434513333333","25.0663133333333","6501600","泰山區"
"243008","KEA-2801","2018/08/30 14:18:49","新北市泰山區明志路三段137號","121.42493","25.04035","6501600","泰山區"
"243007","421-VK","2018/08/30 14:18:47","新北市泰山區公園路4號","121.429953333333","25.054035","6501600","泰山區"
"243003","KEA-2215","2018/08/30 14:18:41","新北市泰山區中央路36巷1號","121.426288333333","25.04273","6501600","泰山區"
"243002","KEA-2216","2018/08/30 14:18:44","新北市泰山區明志路二段9號","121.430108333333","25.0536083333333","6501600","泰山區"
"243004","646-TV","2018/08/30 14:18:50","新北市泰山區仁義路222號","121.432981666667","25.053655","6501600","泰山區"
"243006","680-BX","2018/08/30 14:18:52","新北市泰山區泰林路二段150號","121.4341","25.0599683333333","6501600","泰山區"
"231002","002-UM","2018/08/30 14:18:46","新北市新店區中正路500號","121.534005","24.98205","6500600","新店區"
"231027","0291-UT","2018/08/30 14:18:39","新北市新店區北新路一段62號","121.541206666667","24.9666133333333","6500600","新店區"
"231028","046-UY","2018/08/30 14:18:38","新北市新店區安和路二段233號","121.517078333333","24.9763233333333","6500600","新店區"
"231001","047-UY","2018/08/30 14:18:43","新北市新店區北新路一段60號","121.541086666667","24.9664533333333","6500600","新店區"
"231021","108-UY","2018/08/30 14:18:39","新北市新店區新烏路二段126號","121.549448333333","24.9204","6500600","新店區"
"231035","110-UY","2018/08/30 14:18:45","新北市新店區安和路二段97號","121.518643333333","24.969485","6500600","新店區"
"231011","187-VK","2018/08/30 14:18:50","新北市新店區五峰路63巷8弄72號","121.547948333333","24.9685116666667","6500600","新店區"
"231023","KEA-2219","2018/08/30 14:18:43","新北市新店區光明街80號","121.538706666667","24.95996","6500600","新店區"
"231003","268-BY","2018/08/30 14:18:42","新北市新店區中興路一段180號","121.543158333333","24.96474","6500600","新店區"
"231018","278-BY","2018/08/30 14:18:38","新北市新店區中央路212號","121.529913333333","24.9735833333333","6500600","新店區"
"231017","AAD-862","2018/08/30 14:18:38","新北市新店區北宜路三段28號","121.567758333333","24.9516033333333","6500600","新店區"
"231005","355-BY","2018/08/30 14:18:35","新北市新店區中興路三段221-2號","121.54341","24.9825583333333","6500600","新店區"
"231038","3712-VJ","2018/08/30 14:18:49","新北市新店區溪洲路121號","121.531228333333","24.9629983333333","6500600","新店區"
"231037","4716-K9","2018/08/30 14:18:49","新北市新店區安康路二段337-1號","121.498593333333","24.956145","6500600","新店區"
"231036","512-UM","2018/08/30 14:18:46","新北市新店區安祥路109巷51號","121.47687","24.959655","6500600","新店區"
"231013","513-UM","2018/08/30 14:18:31","新北市新店區大豐路60號","121.539621666667","24.9796516666667","6500600","新店區"
"231030","619-UM","2018/08/30 14:18:53","新北市新店區安光路46號","121.514491666667","24.9643333333333","6500600","新店區"
"231034","641-BX","2018/08/30 14:18:44","新北市新店區車子路11號","121.50304","24.9520066666667","6500600","新店區"
"231031","720-UM","2018/08/30 14:18:44","新北市新店區溪洲路101號","121.532608333333","24.9617833333333","6500600","新店區"
"231029","897-TW","2018/08/30 14:18:50","新北市新店區安康路二段226號","121.509586666667","24.95923","6500600","新店區"
"231006","898-TW","2018/08/30 14:18:52","新北市新店區北宜路二段599號","121.568121666667","24.9555583333333","6500600","新店區"
"231004","899-TW","2018/08/30 14:18:47","新北市新店區中正路135號","121.541783333333","24.971435","6500600","新店區"
"231024","AKT-0513","2018/08/30 14:18:41","新北市新店區安民街35巷9弄6號","121.514965","24.9657166666667","6500600","新店區"
"235030","003-UY","2018/08/30 14:18:49","新北市中和區中和路165巷1號","121.50283","25.0000733333333","6500300","中和區"
"235028","005-UY","2018/08/30 14:18:38","新北市中和區連城路2號","121.499271666667","25.0023766666667","6500300","中和區"
"235027","006-UY","2018/08/30 14:18:35","新北市中和區連勝街126號","121.494448333333","24.9965316666667","6500300","中和區"
"235020","096-UM","2018/08/30 14:18:45","新北市中和區中山路二段626號","121.481285","25.0055033333333","6500300","中和區"
"235003","097-UM","2018/08/30 14:18:33","新北市中和區秀峰街105號","121.520658333333","24.9903566666667","6500300","中和區"
"235029","098-UM","2018/08/30 14:18:41","新北市中和區中山路二段64巷16弄2號","121.503215","25.0059166666667","6500300","中和區"
"235040","150-BY","2018/08/30 14:18:37","新北市中和區安平路36巷7號","121.510298333333","24.9946533333333","6500300","中和區"
"235022","151-BY","2018/08/30 14:18:41","新北市中和區連城路477巷6弄4號","121.482986666667","24.99515","6500300","中和區"
"235019","183-VK","2018/08/30 14:18:32","新北市中和區中山路三段197號","121.47232","25.0063983333333","6500300","中和區"
"235002","185-VK","2018/08/30 14:18:37","新北市中和區大仁街10巷53號","121.520055","24.9925183333333","6500300","中和區"
"235013","186-VK","2018/08/30 14:18:51","新北市中和區景新街230巷3號","121.508151666667","24.9941066666667","6500300","中和區"
"235031","255-BX","2018/08/30 14:18:45","新北市中和區中正路711號","121.484643333333","24.9985183333333","6500300","中和區"
"235008","293-VK","2018/08/30 14:18:43","新北市中和區中興街250號","121.499535","24.9881183333333","6500300","中和區"
"235036","301-VK","2018/08/30 14:18:46","新北市中和區永和路39巷4號","121.49791","25.00507","6500300","中和區"
"235007","352-BY","2018/08/30 14:18:36","新北市中和區景平路300號","121.51263","24.9927383333333","6500300","中和區"
"235006","KEA-2878","2018/08/30 14:18:43","新北市永和區中正路129巷2號","121.515991666667","24.9980133333333","6500300","中和區"
"247009","KEA-2869","2018/08/30 14:18:48","新北市蘆洲區三民路26巷47號","121.477765","25.0831916666667","6501400","蘆洲區"
"235014","4979-A6","2018/08/30 14:18:35","新北市中和區景安路208巷21號","121.50252","24.991755","6500300","中和區"
"235033","4980-A6","2018/08/30 14:18:35","新北市中和區永和路56號","121.499358333333","25.004175","6500300","中和區"
"235034","558-UM","2018/08/30 14:18:35","新北市中和區中山路二段231號","121.498238333333","25.0024683333333","6500300","中和區"
"235009","565-BX","2018/08/30 14:18:50","新北市中和區景新街383巷59號","121.513728333333","24.9907983333333","6500300","中和區"
"235018","640-BX","2018/08/30 14:18:48","新北市中和區國光街107巷2弄5-4號","121.470023333333","24.9998716666667","6500300","中和區"
"235024","647-TV","2018/08/30 14:18:37","新北市中和區民治街28號","121.475183333333","25.0038433333333","6500300","中和區"
"235011","732-UM","2018/08/30 14:18:41","新北市中和區和平街54巷6弄1號","121.508808333333","24.9912116666667","6500300","中和區"
"235010","733-UM","2018/08/30 14:18:42","新北市中和區華新街156號","121.50761","24.9824166666667","6500300","中和區"
"235026","800-TS","2018/08/30 14:18:47","新北市中和區橋和路102號","121.490741666667","25.005495","6500300","中和區"
"235021","801-TS","2018/08/30 14:18:34","新北市中和區員山路423巷4號","121.480528333333","25.0032566666667","6500300","中和區"
"235005","802-TS","2018/08/30 14:18:37","新北市中和區中安街218號","121.51195","24.9990183333333","6500300","中和區"
"235016","805-TS","2018/08/30 14:18:49","新北市中和區興南路二段242巷15號","121.502595","24.9828216666667","6500300","中和區"
"235012","896-TW","2018/08/30 14:18:40","新北市中和區華新街109巷24號","121.508648333333","24.980445","6500300","中和區"
"235017","900-TW","2018/08/30 14:18:37","新北市中和區華安街21巷2號","121.46742","24.9974966666667","6500300","中和區"
"235035","911-UM","2018/08/30 14:18:42","新北市中和區橋和路77號","121.489158333333","25.0052616666667","6500300","中和區"
"235015","157-BY","2018/08/30 14:18:51","新北市中和區和平街22號","121.509836666667","24.990235","6500300","中和區"
"235001","AAC-213","2018/08/30 14:18:43","新北市中和區秀朗路三段50巷12弄6號","121.524023333333","24.99535","6500300","中和區"
"235023","AAC-215","2018/08/30 14:18:33","新北市中和區圓通路286巷7號","121.491478333333","24.9912766666667","6500300","中和區"
"220001","013-TV","2018/08/30 14:18:49","新北市板橋區懷仁街10巷6號","121.475695","25.0199783333333","6500100","板橋區"
"220013","072-UY","2018/08/30 14:18:49","新北市板橋區民族路172號","121.467501666667","25.0076883333333","6500100","板橋區"
"220034","073-UY","2018/08/30 14:18:45","新北市板橋區金華街10巷48弄26號","121.457935","25.0198633333333","6500100","板橋區"
"220105","075-UY","2018/08/30 14:18:52","新北市板橋區雙十路三段66巷1號","121.470615","25.0319516666667","6500100","板橋區"
"220017","AAD-861","2018/08/30 14:18:43","新北市板橋區四川路一段104號","121.459458333333","25.00462","6500100","板橋區"
"247023","893-R6","2018/08/30 14:18:46","新北市蘆洲區長榮路700號","121.460218333333","25.0914433333333","6501400","蘆洲區"
"247013","546-UM","2018/08/30 14:18:43","新北市蘆洲區中山一路211號","121.474026666667","25.0809666666667","6501400","蘆洲區"
"247021","500-BY","2018/08/30 14:18:40","新北市蘆洲區三民路128巷128號","121.468786666667","25.0917666666667","6501400","蘆洲區"
"247011","339-TH","2018/08/30 14:18:36","新北市蘆洲區信義路351巷18號","121.476776666667","25.0868533333333","6501400","蘆洲區"
"247003","337-TH","2018/08/30 14:18:40","新北市蘆洲區長安街172巷11號","121.459583333333","25.083625","6501400","蘆洲區"
"247005","336-TH","2018/08/30 14:18:47","新北市蘆洲區長安街22巷42號","121.465135","25.0804","6501400","蘆洲區"
"247017","057-VK","2018/08/30 14:18:50","新北市蘆洲區民權路88號","121.4744","25.0877466666667","6501400","蘆洲區"
"247015","007-UY","2018/08/30 14:18:34","新北市蘆洲區光華路100號","121.46732","25.08293","6501400","蘆洲區"
"247001","002-UY","2018/08/30 14:18:35","新北市蘆洲區永樂街48號","121.457676666667","25.0883766666667","6501400","蘆洲區"
"247019","001-UY","2018/08/30 14:18:50","新北市蘆洲區仁愛街35巷14弄1號","121.471391666667","25.0927366666667","6501400","蘆洲區"
"228005","097-TW","2018/08/30 14:18:38","新北市貢寮區美豐里土地公嶺54號","121.894538333333","25.06505","6502600","貢寮區"
"228004","212-TW","2018/08/30 14:18:43","新北市貢寮區雙玉里下雙溪街26號","121.924433333333","25.0108183333333","6502600","貢寮區"
"253003","6232-TK","2018/08/30 14:18:47","新北市石門區尖子鹿31-1號","121.579318333333","25.2669666666667","6502200","石門區"
"253001","6251-TK","2018/08/30 14:18:51","新北市石門區海灣新城1號","121.5243","25.28529","6502200","石門區"
"253002","637-UY","2018/08/30 14:18:36","新北市石門區大溪墘3-1號","121.55178","25.2808033333333","6502200","石門區"
"253004","8270-PC","2018/08/30 14:18:36","新北市石門區坪林40號","121.590106666667","25.2618","6502200","石門區"
"207002","749-BX","2018/08/30 14:18:22","新北市萬里區溪底里瑞泉路8-2號","121.607378333333","25.1444433333333","6502800","萬里區"
"207001","662-BX","2018/08/30 14:18:41","新北市萬里區磺潭里清水18號","121.637856666667","25.197705","6502800","萬里區"
"252005","AAC-283","2018/08/30 14:18:42","新北市三芝區橫山里橫山21號","121.540306666667","25.262725","6502100","三芝區"
"237001","159-UY","2018/08/30 14:18:40","新北市三峽區中山路459巷163-3號","121.348868333333","24.9331866666667","6500900","三峽區"
"236068","105-UM","2018/08/30 14:18:41","新北市土城區明德路一段128巷2號","121.46323","24.9790666666667","6501300","土城區"
"236040","107-UM","2018/08/30 14:18:37","新北市土城區裕生路21巷6弄4號","121.448746666667","24.9869266666667","6501300","土城區"
"236074","166-UM","2018/08/30 14:18:47","新北市土城區中央路三段235巷7號","121.429283333333","24.9639266666667","6501300","土城區"
"236029","253-BX","2018/08/30 14:18:39","新北市土城區順風路28號","121.440283333333","24.9769983333333","6501300","土城區"
"236024","269-VK","2018/08/30 14:18:45","新北市土城區承天路18號","121.439275","24.9635166666667","6501300","土城區"
"236012","270-VK","2018/08/30 14:18:37","新北市土城區青雲路39巷7號","121.460371666667","24.987505","6501300","土城區"
"236032","271-VK","2018/08/30 14:18:43","新北市土城區青雲路451巷8弄17號","121.459526666667","24.9741133333333","6501300","土城區"
"236017","401-BY","2018/08/30 14:18:35","新北市土城區明德路一段385-1號","121.452743333333","24.9801416666667","6501300","土城區"
"236005","498-BY","2018/08/30 14:18:50","新北市土城區中華路一段56巷22號","121.444618333333","24.9894716666667","6501300","土城區"
"236057","912-UM","2018/08/30 14:18:50","新北市土城區中央路四段424-1號","121.41093","24.9519333333333","6501300","土城區"
"236045","913-UM","2018/08/30 14:18:38","新北市土城區明德路一段375-1號","121.455106666667","24.978105","6501300","土城區"
"236060","915-UM","2018/08/30 14:18:41","新北市土城區金城路三段245號","121.471668333333","24.9898833333333","6501300","土城區"
"236054","AAC-216","2018/08/30 14:18:44","新北市土城區中華路二段102號","121.438076666667","24.9743383333333","6501300","土城區"
"221010","269-BY","2018/08/30 14:18:35","新北市汐止區長青路192巷32號","121.610631666667","25.113695","6501100","汐止區"
"221032","280-BY","2018/08/30 14:18:48","新北市汐止區新興路3號","121.656323333333","25.0653516666667","6501100","汐止區"
"220027","145-BY","2018/08/30 14:18:51","新北市板橋區民權路260巷34號","121.459043333333","25.015225","6500100","板橋區"
"220028","200-UY","2018/08/30 14:18:46","新北市板橋區大觀路二段19巷58號","121.448356666667","25.002935","6500100","板橋區"
"220030","610-BX","2018/08/30 14:18:50","新北市板橋區溪崑二街114號","121.426381666667","24.9883883333333","6500100","板橋區"
"220050","245-BX","2018/08/30 14:18:53","新北市板橋區莊敬路6-1號","121.473678333333","25.0279433333333","6500100","板橋區"
"220004","276-BY","2018/08/30 14:18:41","新北市板橋區信義路148號","121.4589","24.9919733333333","6500100","板橋區"
"220020","277-BY","2018/08/30 14:18:33","新北市板橋區金門街282號","121.429226666667","24.9861483333333","6500100","板橋區"
"220011","280-UM","2018/08/30 14:18:41","新北市板橋區三民路二段204號","121.478893333333","25.0122416666667","6500100","板橋區"
"220019","283-VK","2018/08/30 14:18:33","新北市板橋區忠孝路48巷9弄28號","121.462018333333","25.00014","6500100","板橋區"
"220043","285-UM","2018/08/30 14:18:38","新北市板橋區吳鳳路82號","121.466965","25.0312566666667","6500100","板橋區"
"220001","285-VK","2018/08/30 14:01:05","新北市板橋區民生路二段120號","121.47035","25.019915","6500100","板橋區"
"220031","286-VK","2018/08/30 14:18:40","新北市板橋區大觀路二段174巷186弄12號","121.442783333333","25.0034833333333","6500100","板橋區"
"220029","287-VK","2018/08/30 14:18:40","新北市板橋區南雅西路一段49號","121.453703333333","25.004805","6500100","板橋區"
"220039","288-VK","2018/08/30 14:18:45","新北市板橋區長江路一段106巷13弄19號","121.460831666667","25.0295066666667","6500100","板橋區"
"220009","295-UM","2018/08/30 14:18:33","新北市板橋區中山路二段265號","121.477603333333","25.0177333333333","6500100","板橋區"
"220032","296-UM","2018/08/30 14:18:32","新北市板橋區滿平街136巷6弄11號","121.427601666667","24.9878416666667","6500100","板橋區"
"220010","299-UM","2018/08/30 14:18:50","新北市板橋區三民路二段153巷30弄33號","121.481083333333","25.0147616666667","6500100","板橋區"
"220023","303-R5","2018/08/30 14:18:49","新北市板橋區南雅南路一段5巷8號","121.456","25.005505","6500100","板橋區"
"220041","307-R5","2018/08/30 14:18:51","新北市板橋區松江街57號","121.468578333333","25.02771","6500100","板橋區"
"220047","317-R6","2018/08/30 14:18:45","新北市板橋區四維路245號","121.463703333333","25.0276183333333","6500100","板橋區"
"220012","486-VK","2018/08/30 14:18:42","新北市板橋區縣民大道二段56號","121.462683333333","25.012165","6500100","板橋區"
"220037","491-VK","2018/08/30 14:18:47","新北市板橋區文化路二段182巷5弄27號","121.472266666667","25.0279816666667","6500100","板橋區"
"220104","560-BX","2018/08/30 14:18:50","新北市板橋區中正路360巷36號","121.45574","25.0230933333333","6500100","板橋區"
"220052","561-BX","2018/08/30 14:18:50","新北市板橋區介壽街29號","121.468366666667","25.0199283333333","6500100","板橋區"
"220040","637-BX","2018/08/30 14:18:38","新北市板橋區縣民大道三段223號","121.48052","25.0255","6500100","板橋區"
"220005","686-BX","2018/08/30 14:18:35","新北市板橋區國慶路182巷20號","121.463046666667","24.995865","6500100","板橋區"
"220025","687-BX","2018/08/30 14:18:32","新北市板橋區大觀路二段168號","121.441141666667","24.998645","6500100","板橋區"
"220042","689-BX","2018/08/30 14:18:43","新北市板橋區漢生西路50號","121.463066666667","25.0185633333333","6500100","板橋區"
"220002","741-BX","2018/08/30 14:18:47","新北市板橋區四川路一段203-1號","121.46059","25.0037166666667","6500100","板橋區"
"220051","KEA-2699","2018/08/30 14:18:45","新北市板橋區文聖街205巷4號","121.480083333333","25.02655","6500100","板橋區"
"220018","806-UM","2018/08/30 14:18:37","新北市板橋區林園街6-1號","121.454225","25.0095933333333","6500100","板橋區"
"220003","827-TW","2018/08/30 14:18:41","新北市板橋區民族路57號","121.464676666667","25.0088316666667","6500100","板橋區"
"220014","829-TW","2018/08/30 14:18:50","新北市板橋區長安街138巷1弄56號","121.47401","25.0101983333333","6500100","板橋區"
"220016","830-TW","2018/08/30 14:18:44","新北市板橋區翠華街12巷15號","121.482483333333","25.0243883333333","6500100","板橋區"
"220045","831-TW","2018/08/30 14:18:43","新北市板橋區大同街26巷13號","121.478248333333","25.0268583333333","6500100","板橋區"
"220038","833-TW","2018/08/30 14:18:50","新北市板橋區文化路二段126號","121.47012","25.026495","6500100","板橋區"
"220022","895-R6","2018/08/30 14:18:34","新北市板橋區倉後街3號","121.455445","25.0096066666667","6500100","板橋區"
"220021","985-R7","2018/08/30 14:18:53","新北市板橋區中正路203號","121.456271666667","25.017405","6500100","板橋區"
"220046","AAC-210","2018/08/30 14:18:46","新北市板橋區幸福路58號","121.461173333333","25.0201","6500100","板橋區"
"220018","AAC-253","2018/08/30 14:18:37","新北市板橋區忠孝路124號","121.463115","25.0022916666667","6500100","板橋區"
"235032","KEA-2873","2018/08/30 14:18:47","新北市中和區中和路143號","121.50214","24.9996566666667","6500300","中和區"
"235025","KEA-2875","2018/08/30 14:18:43","新北市中和區員山路314巷12號","121.482141666667","25.0027083333333","6500300","中和區"
