"lineid","car","time","location","longitude","latitude","cityid","cityname"
"248015","026-BX","2018/08/30 15:08:08","新北市五股區天乙路34號","121.44847","25.1034616666667","6501500","五股區"
"248007","095-VK","2018/08/30 15:08:05","新北市三重區中正北路598巷5號","121.469745","25.0716033333333","6501500","五股區"
"248017","225-UY","2018/08/30 15:08:08","新北市五股區登林路101號","121.411265","25.0780816666667","6501500","五股區"
"248003","677-BX","2018/08/30 15:08:09","新北市五股區成泰路一段138號","121.435101666667","25.0756333333333","6501500","五股區"
"244003","248-BX","2018/08/30 15:08:11","新北市林口區竹林路265號","121.389451666667","25.08082","6501700","林口區"
"243001","297-R6","2018/08/30 15:08:16","新北市泰山區泰林路二段542巷3弄1號","121.423306666667","25.0642416666667","6501600","泰山區"
"243008","KEA-2801","2018/08/30 15:08:12","新北市泰山區新生路11號","121.426788333333","25.0456383333333","6501600","泰山區"
"243007","421-VK","2018/08/30 15:08:07","新北市泰山區泰林路二段308號","121.430648333333","25.0628416666667","6501600","泰山區"
"243003","KEA-2215","2018/08/30 15:08:21","新北市泰山區德安街2號","121.41941","25.031905","6501600","泰山區"
"243004","646-TV","2018/08/30 15:08:07","新北市泰山區泰林路二段385巷1號","121.427505","25.06419","6501600","泰山區"
"243006","680-BX","2018/08/30 15:08:12","新北市泰山區泰林路三段745巷145號","121.406091666667","25.069525","6501600","泰山區"
"231002","002-UM","2018/08/30 15:08:06","新北市新店區中正路522號","121.53372","24.9837616666667","6500600","新店區"
"231028","046-UY","2018/08/30 15:08:18","新北市新店區僑信路48號","121.499266666667","24.9503366666667","6500600","新店區"
"231001","047-UY","2018/08/30 15:08:03","新北市新店區中正路268號","121.539078333333","24.9736933333333","6500600","新店區"
"231021","108-UY","2018/08/30 15:08:19","新北市新店區永福路54號","121.558015","24.9287116666667","6500600","新店區"
"231035","110-UY","2018/08/30 15:08:05","新北市新店區永安街56巷19號","121.518928333333","24.9857516666667","6500600","新店區"
"231011","187-VK","2018/08/30 15:08:10","新北市新店區中興路三段191號","121.54399","24.98127","6500600","新店區"
"231023","KEA-2219","2018/08/30 15:08:03","新北市新店區檳榔路111號","121.544591666667","24.9615633333333","6500600","新店區"
"231026","256-BX","2018/08/30 15:08:05","新北市新店區建興街9巷11號","121.539891666667","24.9762783333333","6500600","新店區"
"231003","268-BY","2018/08/30 15:08:22","新北市新店區中興路二段252號","121.547405","24.9758433333333","6500600","新店區"
"231018","278-BY","2018/08/30 14:50:39","新北市新店區中央路202號","121.530406666667","24.97422","6500600","新店區"
"231017","AAD-862","2018/08/30 15:03:38","新北市新店區明山路3號","121.562921666667","24.954785","6500600","新店區"
"231005","355-BY","2018/08/30 15:08:15","新北市新店區順安街86號","121.540913333333","24.986725","6500600","新店區"
"231038","3712-VJ","2018/08/30 15:08:09","新北市新店區安華路28-1號","121.519595","24.9609516666667","6500600","新店區"
"231025","4715-K9","2018/08/30 15:08:08","新北市新店區二十張路46巷37弄21號","121.535925","24.98169","6500600","新店區"
"231036","512-UM","2018/08/30 15:08:22","新北市新店區安祥路102巷117號","121.486418333333","24.9642716666667","6500600","新店區"
"231030","619-UM","2018/08/30 15:08:13","新北市新店區安民街339號","121.516988333333","24.9748383333333","6500600","新店區"
"231034","641-BX","2018/08/30 15:08:24","新北市新店區玫瑰路4-1號","121.493625","24.9513833333333","6500600","新店區"
"231039","718-UY","2018/08/30 15:08:17","新北市新店區寶興路65巷23號","121.552078333333","24.9713","6500600","新店區"
"231031","720-UM","2018/08/30 15:08:04","新北市新店區安泰路60巷55弄109號","121.484546666667","24.9462066666667","6500600","新店區"
"231029","897-TW","2018/08/30 15:08:10","新北市新店區安康路三段740號","121.473835","24.9419316666667","6500600","新店區"
"231006","898-TW","2018/08/30 15:08:12","新北市新店區新坡一街60-3號","121.550155","24.9627983333333","6500600","新店區"
"231004","899-TW","2018/08/30 15:08:07","新北市新店區建國路51號","121.540548333333","24.9757083333333","6500600","新店區"
"231024","AKT-0513","2018/08/30 15:08:21","新北市新店區北新路一段297巷37號","121.540305","24.9684766666667","6500600","新店區"
"241011","013-R5","2018/08/30 15:08:06","新北市三重區重新路四段121號","121.484651666667","25.052265","6500200","三重區"
"235030","003-UY","2018/08/30 15:08:10","新北市中和區水源路154巷2號","121.508083333333","25.0033483333333","6500300","中和區"
"235020","096-UM","2018/08/30 15:08:11","新北市中和區中山路三段136巷7號","121.473421666667","25.0071733333333","6500300","中和區"
"235003","097-UM","2018/08/30 15:08:12","新北市中和區安樂路217巷40弄1號","121.513306666667","24.9979133333333","6500300","中和區"
"235029","098-UM","2018/08/30 15:08:21","新北市中和區永和路128巷47號","121.497723333333","25.0068566666667","6500300","中和區"
"235040","150-BY","2018/08/30 15:08:17","新北市中和區保健路10巷23弄15號","121.50841","24.9972866666667","6500300","中和區"
"235007","352-BY","2018/08/30 15:08:16","新北市中和區興南路二段159巷12號","121.505131666667","24.98318","6500300","中和區"
"235014","4979-A6","2018/08/30 15:08:15","新北市中和區安樂路37號","121.511811666667","24.993","6500300","中和區"
"235033","4980-A6","2018/08/30 15:08:15","新北市中和區南山路37巷3弄1號","121.502671666667","24.998895","6500300","中和區"
"235034","558-UM","2018/08/30 15:08:15","新北市中和區中正路360號","121.493573333333","24.9942916666667","6500300","中和區"
"235018","640-BX","2018/08/30 15:08:07","新北市中和區民有街64號","121.476046666667","25.004385","6500300","中和區"
"235012","896-TW","2018/08/30 15:08:20","新北市中和區興南路二段6號","121.50785","24.9862016666667","6500300","中和區"
"235035","911-UM","2018/08/30 15:07:22","新北市中和區中正路707號","121.485198333333","24.9985666666667","6500300","中和區"
"235001","AAC-213","2018/08/30 15:08:03","新北市中和區立人街53號","121.520401666667","24.9941283333333","6500300","中和區"
"235023","AAC-215","2018/08/30 15:08:13","新北市中和區圓通路335巷7號","121.493","24.9897333333333","6500300","中和區"
"220001","013-TV","2018/08/30 15:08:12","新北市板橋區中山路二段60巷1弄3-2號","121.474438333333","25.015405","6500100","板橋區"
"220013","072-UY","2018/08/30 15:08:10","新北市板橋區貴興路113號","121.455766666667","25.0025716666667","6500100","板橋區"
"220034","073-UY","2018/08/30 15:08:05","新北市八里區商港路88-3號","121.394493333333","25.1476916666667","6500100","板橋區"
"220017","AAD-861","2018/08/30 15:08:23","新北市板橋區貴興路65號","121.457185","25.0028833333333","6500100","板橋區"
"247015","007-UY","2018/08/30 15:06:14","新北市五股區中直路13-7號","121.42436","25.1106683333333","6501400","蘆洲區"
"228004","212-TW","2018/08/30 15:08:03","新北市貢寮區雙玉里田寮洋街6號","121.92649","25.0222966666667","6502600","貢寮區"
"253003","6232-TK","2018/08/30 15:08:08","新北市石門區阿里磅1號","121.586666666667","25.29189","6502200","石門區"
"253001","6251-TK","2018/08/30 15:08:11","新北市石門區小坑9號","121.594428333333","25.28835","6502200","石門區"
"253002","637-UY","2018/08/30 15:08:15","新北市石門區中央路14-1號","121.567121666667","25.29166","6502200","石門區"
"253004","8270-PC","2018/08/30 15:08:16","新北市石門區小坑24-2號","121.594815","25.2772483333333","6502200","石門區"
"207002","749-BX","2018/08/30 15:08:03","新北市萬里區崁腳里內中福路66號","121.65533","25.1668316666667","6502800","萬里區"
"207001","662-BX","2018/08/30 15:08:01","新北市萬里區雙興里麗水路3-1號","121.653215","25.1798733333333","6502800","萬里區"
"236068","105-UM","2018/08/30 15:08:20","新北市土城區中央路一段56號","121.447243333333","24.989905","6501300","土城區"
"236040","107-UM","2018/08/30 15:08:17","新北市土城區裕民路252號","121.454455","24.9829783333333","6501300","土城區"
"236074","166-UM","2018/08/30 15:08:06","新北市土城區大暖坑11-3號","121.418891666667","24.9544183333333","6501300","土城區"
"236029","253-BX","2018/08/30 15:08:19","新北市土城區中央路二段66號","121.442538333333","24.9791783333333","6501300","土城區"
"236024","269-VK","2018/08/30 15:08:05","新北市土城區中正路67巷14號","121.444483333333","24.976215","6501300","土城區"
"236012","270-VK","2018/08/30 15:08:17","新北市土城區學府路一段77號","121.456861666667","24.98819","6501300","土城區"
"236032","271-VK","2018/08/30 15:08:22","新北市土城區青雲路295巷16弄34號","121.460038333333","24.9795966666667","6501300","土城區"
"236017","401-BY","2018/08/30 15:08:15","新北市土城區延峰街34巷1號","121.469565","24.984845","6501300","土城區"
"236057","912-UM","2018/08/30 15:08:09","新北市土城區金城路二段48號","121.451363333333","24.9791566666667","6501300","土城區"
"236045","913-UM","2018/08/30 15:08:17","新北市土城區清水路196號","121.460346666667","24.98186","6501300","土城區"
"236054","AAC-216","2018/08/30 15:08:04","新北市土城區學府路一段239號","121.450591666667","24.9836583333333","6501300","土城區"
"238010","601-UM","2018/08/30 15:08:21","新北市樹林區大安路523號","121.414081666667","24.98607","6500700","樹林區"
"238006","599-UM","2018/08/30 15:08:06","新北市樹林區八德街263-1號","121.419116666667","24.9739633333333","6500700","樹林區"
"238005","571-TV","2018/08/30 15:08:02","新北市樹林區八德街247巷24-1號","121.42066","24.97363","6500700","樹林區"
"238009","KEA-2213","2018/08/30 15:08:11","新北市樹林區八德街247巷24-3號","121.419808333333","24.9732066666667","6500700","樹林區"
"238008","KEA-2539","2018/08/30 15:08:05","新北市樹林區西圳街一段165巷20弄16號","121.395445","24.960395","6500700","樹林區"
"238012","303-VK","2018/08/30 15:08:01","新北市樹林區福德街3號","121.401786666667","24.9757883333333","6500700","樹林區"
"238001","283-BY","2018/08/30 15:08:21","新北市樹林區中山路三段107號","121.399738333333","24.9746083333333","6500700","樹林區"
"238001","282-BY","2018/08/30 15:08:14","新北市樹林區中山路三段107-1號","121.399876666667","24.9746566666667","6500700","樹林區"
"238007","268-VK","2018/08/30 15:08:20","新北市板橋區金門街215巷88號","121.43298","24.9843733333333","6500700","樹林區"
"238013","172-UY","2018/08/30 15:08:21","新北市樹林區東豐街115-1號","121.405641666667","24.9744066666667","6500700","樹林區"
"238003","169-UY","2018/08/30 15:08:16","新北市樹林區中山路三段109號","121.39966","24.9745433333333","6500700","樹林區"
"220030","610-BX","2018/08/30 15:08:10","新北市板橋區存德街87號","121.432106666667","24.9911116666667","6500100","板橋區"
"220050","245-BX","2018/08/30 15:08:13","新北市板橋區雙十路二段4號","121.477256666667","25.0253316666667","6500100","板橋區"
"220103","257-TC","2018/08/30 15:04:18","新北市板橋區溪城路90-2號","121.429141666667","24.9802816666667","6500100","板橋區"
"220011","280-UM","2018/08/30 15:08:21","新北市板橋區三民路一段107號","121.479488333333","25.0215016666667","6500100","板橋區"
"220031","286-VK","2018/08/30 15:08:20","新北市板橋區僑中二街88巷38號","121.444333333333","25.0097183333333","6500100","板橋區"
"220029","287-VK","2018/08/30 15:08:20","新北市板橋區僑中一街80巷7弄17號","121.447015","25.0128166666667","6500100","板橋區"
"220009","295-UM","2018/08/30 15:08:13","新北市板橋區中山路一段2號","121.459796666667","25.0076733333333","6500100","板橋區"
"220041","307-R5","2018/08/30 15:08:11","新北市板橋區中正路250巷126號","121.46022","25.0201216666667","6500100","板橋區"
"220012","486-VK","2018/08/30 15:08:22","新北市板橋區漢生東路195號","121.470058333333","25.0114266666667","6500100","板橋區"
"220037","491-VK","2018/08/30 15:08:07","新北市板橋區大同街67號","121.479403333333","25.02789","6500100","板橋區"
"220052","561-BX","2018/08/30 15:08:23","新北市板橋區英士路58巷24號","121.46062","25.0255533333333","6500100","板橋區"
"220005","686-BX","2018/08/30 15:08:15","新北市板橋區四川路二段130巷26號","121.449505","24.9943716666667","6500100","板橋區"
"220025","687-BX","2018/08/30 15:08:11","新北市板橋區僑中一街124巷19弄2號","121.446155","25.0140883333333","6500100","板橋區"
"220042","689-BX","2018/08/30 15:08:10","新北市板橋區長江路二段269號","121.469653333333","25.032945","6500100","板橋區"
"220051","KEA-2699","2018/08/30 15:08:21","新北市板橋區民治街126巷13號","121.477471666667","25.03142","6500100","板橋區"
"220003","827-TW","2018/08/30 15:08:21","新北市板橋區國慶路167巷31-4號","121.461668333333","24.9979483333333","6500100","板橋區"
"220014","829-TW","2018/08/30 15:08:10","新北市板橋區中山路一段216巷2號","121.471105","25.0129266666667","6500100","板橋區"
"220016","830-TW","2018/08/30 15:08:23","新北市板橋區中山路二段450號","121.484553333333","25.0217116666667","6500100","板橋區"
"220038","833-TW","2018/08/30 15:08:10","新北市板橋區龍泉街108巷33號","121.45667","25.0240216666667","6500100","板橋區"
"220022","895-R6","2018/08/30 15:08:14","新北市板橋區府中路22號","121.459798333333","25.0096616666667","6500100","板橋區"
"220046","AAC-210","2018/08/30 15:08:12","新北市板橋區光正街18巷2號","121.462766666667","25.0171566666667","6500100","板橋區"
"220018","AAC-253","2018/08/30 15:08:17","新北市板橋區成都街7號","121.460263333333","25.0048266666667","6500100","板橋區"
