"lineid","car","time","location","longitude","latitude","cityid","cityname"
"244003","248-BX","2018/08/30 15:29:44","新北市林口區粉寮69號","121.405055","25.0908166666667","6501700","林口區"
"231002","002-UM","2018/08/30 15:29:46","新北市新店區環河路114巷2號","121.536503333333","24.9644216666667","6500600","新店區"
"231028","046-UY","2018/08/30 15:29:38","新北市新店區僑信路82號","121.49963","24.948275","6500600","新店區"
"231001","047-UY","2018/08/30 15:29:43","新北市新店區光明街185號","121.539908333333","24.9631483333333","6500600","新店區"
"231021","108-UY","2018/08/30 15:29:39","新北市新店區湖興路109號","121.559758333333","24.93675","6500600","新店區"
"231035","110-UY","2018/08/30 15:29:45","新北市新店區安興路81號","121.515353333333","24.9753916666667","6500600","新店區"
"231011","187-VK","2018/08/30 15:29:50","新北市新店區寶元路一段78號","121.54427","24.983975","6500600","新店區"
"231023","KEA-2219","2018/08/30 15:29:43","新北市新店區北新路一段341號","121.541921666667","24.9688616666667","6500600","新店區"
"231026","256-BX","2018/08/30 15:29:45","新北市新店區三民路117巷8弄2號","121.53408","24.9711133333333","6500600","新店區"
"231003","268-BY","2018/08/30 15:29:42","新北市新店區寶高路116號","121.554558333333","24.9761216666667","6500600","新店區"
"231018","278-BY","2018/08/30 15:29:38","新北市新店區中央七街6號","121.53041","24.9746166666667","6500600","新店區"
"231017","AAD-862","2018/08/30 15:29:38","新北市新店區明山路45號","121.563638333333","24.9558416666667","6500600","新店區"
"231005","355-BY","2018/08/30 15:29:55","新北市新店區建國路293巷1號","121.536705","24.986185","6500600","新店區"
"231038","3712-VJ","2018/08/30 15:29:48","新北市新店區安華路28-1號","121.519626666667","24.9608583333333","6500600","新店區"
"231037","4716-K9","2018/08/30 15:29:49","新北市新店區安興路91巷10號","121.514291666667","24.9758183333333","6500600","新店區"
"231025","4715-K9","2018/08/30 15:29:48","新北市新店區環河路22-1號","121.536905","24.96198","6500600","新店區"
"231036","512-UM","2018/08/30 15:29:50","新北市新店區安祥路69巷54弄55號","121.4834","24.9585116666667","6500600","新店區"
"231030","619-UM","2018/08/30 15:29:52","新北市新店區新和街54號","121.519706666667","24.985255","6500600","新店區"
"231034","641-BX","2018/08/30 15:29:44","新北市新店區玫瑰路16號","121.495015","24.95038","6500600","新店區"
"231039","718-UY","2018/08/30 15:29:37","新北市新店區寶慶街35巷6號","121.543091666667","24.98633","6500600","新店區"
"231031","720-UM","2018/08/30 15:29:44","新北市新店區裕合街74號","121.490275","24.9485133333333","6500600","新店區"
"231029","897-TW","2018/08/30 15:29:50","新北市新店區安康路三段461號","121.482753333333","24.9493266666667","6500600","新店區"
"231004","899-TW","2018/08/30 15:29:47","新北市新店區民族路197號","121.537113333333","24.9762333333333","6500600","新店區"
"241011","013-R5","2018/08/30 15:29:46","新北市三重區河邊北街178號","121.503073333333","25.074005","6500200","三重區"
"241022","060-VK","2018/08/30 15:29:50","新北市三重區成功路187號","121.485415","25.0523983333333","6500200","三重區"
"241015","062-VK","2018/08/30 15:29:39","新北市三重區重新路四段121號","121.485108333333","25.0524783333333","6500200","三重區"
"241017","063-VK","2018/08/30 15:29:32","新北市三重區重新路四段132號","121.486791666667","25.0566466666667","6500200","三重區"
"241003","091-VK","2018/08/30 15:29:50","新北市三重區新北大道一段250號","121.479881666667","25.0613183333333","6500200","三重區"
"241007","398-BY","2018/08/30 15:29:41","新北市三重區重新路四段121號","121.485058333333","25.052425","6500200","三重區"
"241012","941-UM","2018/08/30 15:29:49","新北市三重區重新路四段121號","121.484721666667","25.0518866666667","6500200","三重區"
"241029","942-UM","2018/08/30 15:29:39","新北市三重區成功路6號","121.49025","25.0502283333333","6500200","三重區"
"241033","AAC-255","2018/08/30 15:29:54","新北市三重區重新路五段283號","121.480126666667","25.0496916666667","6500200","三重區"
"235014","4979-A6","2018/08/30 15:29:48","新北市中和區景安路82巷8弄3號","121.504821666667","24.9965416666667","6500300","中和區"
"235033","4980-A6","2018/08/30 15:29:35","新北市中和區中正路446號","121.491006666667","24.99434","6500300","中和區"
"235023","AAC-215","2018/08/30 15:29:53","新北市中和區員山路28-5號","121.482008333333","24.9867466666667","6500300","中和區"
"220013","072-UY","2018/08/30 15:29:49","新北市樹林區中山路三段214號","121.380075","24.9676466666667","6500100","板橋區"
"220034","073-UY","2018/08/30 15:29:44","新北市林口區太平里180號","121.366563333333","25.1346083333333","6500100","板橋區"
"227004","642-TC","2018/08/30 15:29:41","新北市雙溪區三貂里政光路3-1號","121.851151666667","25.0634216666667","6502500","雙溪區"
"253003","6232-TK","2018/08/30 15:29:47","新北市石門區小坑9號","121.594396666667","25.288405","6502200","石門區"
"253001","6251-TK","2018/08/30 15:28:11","新北市石門區小坑9號","121.594361666667","25.2883816666667","6502200","石門區"
"253002","637-UY","2018/08/30 15:28:55","新北市石門區小坑9號","121.594318333333","25.2886066666667","6502200","石門區"
"207001","662-BX","2018/08/30 15:29:41","新北市萬里區龜吼里翡翠路17號","121.683128333333","25.1880983333333","6502800","萬里區"
"236068","105-UM","2018/08/30 15:29:49","新北市土城區中央路二段192巷4號","121.441561666667","24.976005","6501300","土城區"
"236040","107-UM","2018/08/30 15:29:43","新北市土城區學成路22巷3號","121.453396666667","24.987355","6501300","土城區"
"236074","166-UM","2018/08/30 15:29:47","新北市土城區中央路四段284號","121.414385","24.9564","6501300","土城區"
"236029","253-BX","2018/08/30 15:29:39","新北市土城區中央路一段271號","121.444713333333","24.9849283333333","6501300","土城區"
"236024","269-VK","2018/08/30 15:29:45","新北市土城區明德路二段102巷17號","121.44562","24.984715","6501300","土城區"
"236012","270-VK","2018/08/30 15:29:37","新北市土城區廣興街15號","121.456048333333","24.9916433333333","6501300","土城區"
"236032","271-VK","2018/08/30 15:29:43","新北市土城區延吉街363巷8號","121.464265","24.9834833333333","6501300","土城區"
"236017","752-BX","2018/08/30 15:29:45","新北市土城區金城路三段200-5號","121.468848333333","24.987585","6501300","土城區"
"236057","912-UM","2018/08/30 15:29:50","新北市土城區中央路二段110號","121.442093333333","24.9780616666667","6501300","土城區"
"236045","913-UM","2018/08/30 15:29:41","新北市土城區金城路二段316號","121.45913","24.9844016666667","6501300","土城區"
"236060","915-UM","2018/08/30 15:29:40","新北市土城區金城路三段73巷9弄5號","121.466031666667","24.98754","6501300","土城區"
"236054","AAC-216","2018/08/30 15:29:44","新北市土城區金城路三段179號","121.46949","24.98877","6501300","土城區"
"238002","755-BX","2018/08/30 15:29:44","新北市樹林區復興路223號","121.420076666667","24.99096","6500700","樹林區"
"238010","601-UM","2018/08/30 15:26:41","新北市樹林區中正路811號","121.409528333333","25.0167966666667","6500700","樹林區"
"238006","599-UM","2018/08/30 15:29:48","新北市樹林區太平路94-2號","121.418911666667","24.9797633333333","6500700","樹林區"
"238005","571-TV","2018/08/30 15:29:42","新北市樹林區鎮前街12號","121.426086666667","24.9934266666667","6500700","樹林區"
"238011","5061-A6","2018/08/30 15:29:44","新北市樹林區八德街212巷20號","121.41536","24.9733383333333","6500700","樹林區"
"238009","KEA-2213","2018/08/30 15:29:51","新北市樹林區忠孝街12號","121.423353333333","24.982605","6500700","樹林區"
"238008","KEA-2539","2018/08/30 15:29:45","新北市樹林區柑園街一段21巷2號","121.404743333333","24.9605833333333","6500700","樹林區"
"238012","303-VK","2018/08/30 15:29:47","新北市樹林區中山路一段276號","121.420698333333","24.9870866666667","6500700","樹林區"
"238001","283-BY","2018/08/30 15:29:41","新北市樹林區保安街二段333巷2號","121.41243","25.007445","6500700","樹林區"
"238001","282-BY","2018/08/30 15:29:54","新北市樹林區中正路55巷11號","121.426195","24.9993616666667","6500700","樹林區"
"238007","268-VK","2018/08/30 15:29:40","新北市樹林區俊英街116巷41弄23號","121.42853","25.0069766666667","6500700","樹林區"
"238013","172-UY","2018/08/30 15:29:41","新北市樹林區中山路三段27巷3弄12-4號","121.40195","24.9736033333333","6500700","樹林區"
"238003","169-UY","2018/08/30 15:29:51","新北市樹林區樹德街28號","121.42251","24.991715","6500700","樹林區"
"220050","245-BX","2018/08/30 15:29:33","新北市板橋區漢生東路83巷2號","121.466748333333","25.0158966666667","6500100","板橋區"
"220103","257-TC","2018/08/30 15:04:18","新北市板橋區溪城路90-2號","121.429141666667","24.9802816666667","6500100","板橋區"
"220031","286-VK","2018/08/30 15:29:40","新北市板橋區僑中二街106巷3-1號","121.445723333333","25.0075833333333","6500100","板橋區"
"220052","561-BX","2018/08/30 15:29:44","新北市板橋區漢生東路73巷26號","121.467253333333","25.016915","6500100","板橋區"
"220042","689-BX","2018/08/30 15:29:43","新北市板橋區長江路二段8號","121.464793333333","25.0312283333333","6500100","板橋區"
"220038","833-TW","2018/08/30 15:29:50","新北市板橋區四維路253號","121.46339","25.02779","6500100","板橋區"
"220018","AAC-253","2018/08/30 15:29:37","新北市板橋區四川路二段130巷16號","121.449721666667","24.9940016666667","6500100","板橋區"
