"lineid","car","time","location","longitude","latitude","cityid","cityname"
"231011","187-VK","2018/08/30 15:43:10","新北市新店區文化路79號","121.54499","24.982625","6500600","新店區"
"231018","278-BY","2018/08/30 15:43:18","新北市新店區中正路663巷7弄13號","121.5328","24.9900383333333","6500600","新店區"
"241011","013-R5","2018/08/30 15:43:06","新北市三重區文化北路248號","121.49742","25.06992","6500200","三重區"
"241028","022-UY","2018/08/30 15:43:09","新北市三重區過圳街3-1號","121.48945","25.0585983333333","6500200","三重區"
"241008","059-VK","2018/08/30 15:43:13","新北市三重區重新路四段121號","121.485025","25.0524866666667","6500200","三重區"
"241022","060-VK","2018/08/30 15:43:10","新北市三重區重新路四段121號","121.485376666667","25.0523233333333","6500200","三重區"
"241031","061-VK","2018/08/30 15:43:12","新北市三重區重新路四段121號","121.484605","25.0520866666667","6500200","三重區"
"241015","062-VK","2018/08/30 15:43:19","新北市三重區重新路四段121號","121.485035","25.0524933333333","6500200","三重區"
"241017","063-VK","2018/08/30 15:43:12","新北市三重區大仁街1號","121.491673333333","25.0636016666667","6500200","三重區"
"241024","065-VK","2018/08/30 15:43:08","新北市三重區成功路112-5號","121.486681666667","25.0519083333333","6500200","三重區"
"241026","066-VK","2018/08/30 15:43:06","新北市三重區重新路四段121號","121.485073333333","25.0524416666667","6500200","三重區"
"241002","090-VK","2018/08/30 15:43:19","新北市三重區重新路四段121號","121.484806666667","25.0525316666667","6500200","三重區"
"241032","265-UM","2018/08/30 15:43:23","新北市三重區捷運路19巷1號","121.485386666667","25.0560566666667","6500200","三重區"
"241016","266-UM","2018/08/30 15:43:10","新北市三重區重新路四段121號","121.484796666667","25.0526583333333","6500200","三重區"
"241009","267-UM","2018/08/30 15:43:07","新北市三重區重新路四段121號","121.48514","25.0523933333333","6500200","三重區"
"241018","268-UM","2018/08/30 15:43:20","新北市三重區重新路四段121號","121.4848","25.0526666666667","6500200","三重區"
"241013","270-UM","2018/08/30 15:43:06","新北市三重區忠孝路一段38號","121.491258333333","25.071875","6500200","三重區"
"241025","271-UM","2018/08/30 15:43:10","新北市三重區重新路四段121號","121.484668333333","25.05262","6500200","三重區"
"241007","398-BY","2018/08/30 15:43:21","新北市三重區重新路四段121號","121.485063333333","25.0524416666667","6500200","三重區"
"241019","413-TH","2018/08/30 15:43:09","新北市三重區重新路四段121號","121.484778333333","25.05269","6500200","三重區"
"241004","475-VK","2018/08/30 15:43:04","新北市三重區重新路四段121號","121.485008333333","25.0524866666667","6500200","三重區"
"241020","478-VK","2018/08/30 15:43:07","新北市三重區忠孝路二段46號","121.48524","25.0704066666667","6500200","三重區"
"241014","543-UM","2018/08/30 15:43:09","新北市三重區重新路四段121號","121.484895","25.052395","6500200","三重區"
"241023","545-UM","2018/08/30 15:43:17","新北市三重區重新路四段121號","121.4848","25.0519966666667","6500200","三重區"
"241001","547-UM","2018/08/30 15:43:18","新北市三重區重新路四段121號","121.484661666667","25.0524266666667","6500200","三重區"
"241006","AAD-863","2018/08/30 15:43:06","新北市三重區忠孝路三段1號","121.48184","25.067595","6500200","三重區"
"241005","887-TS","2018/08/30 15:43:07","新北市三重區成功路97號","121.487981666667","25.05142","6500200","三重區"
"241012","941-UM","2018/08/30 15:43:09","新北市三重區正義北路137號","121.496976666667","25.06668","6500200","三重區"
"241029","942-UM","2018/08/30 15:43:19","新北市三重區同安東街30號","121.49751","25.0572","6500200","三重區"
"241033","AAC-255","2018/08/30 15:43:14","新北市三重區重新路五段456號","121.474468333333","25.0472416666667","6500200","三重區"
"235026","800-TS","2018/08/30 15:43:07","新北市土城區永平街50-1號","121.426518333333","24.9592366666667","6500300","中和區"
"227004","642-TC","2018/08/30 15:43:01","新北市雙溪區牡丹里頂坪5-1號","121.8625","25.0386433333333","6502500","雙溪區"
"227010","400-TW","2018/08/30 15:43:20","新北市雙溪區三貂里定福路1-6號","121.84979","25.0636966666667","6502500","雙溪區"
"236057","912-UM","2018/08/30 15:43:09","新北市土城區中央路一段264-2號","121.443811666667","24.983505","6501300","土城區"
"238002","755-BX","2018/08/30 15:43:04","新北市樹林區復興路29號","121.422291666667","24.99398","6500700","樹林區"
"238006","599-UM","2018/08/30 15:43:06","新北市樹林區中華路71號","121.423173333333","24.9829266666667","6500700","樹林區"
"238011","5061-A6","2018/08/30 15:43:11","新北市樹林區中山路三段92號","121.393173333333","24.9722516666667","6500700","樹林區"
"238009","KEA-2213","2018/08/30 15:43:15","新北市樹林區太元街11號","121.418091666667","24.98053","6500700","樹林區"
"238025","303-VK","2018/08/30 15:43:21","新北市樹林區中山路一段149號","121.422136666667","24.9893216666667","6500700","樹林區"
"238001","283-BY","2018/08/30 15:43:21","新北市樹林區光榮街65號","121.41206","25.0032983333333","6500700","樹林區"
"238001","282-BY","2018/08/30 15:43:14","新北市樹林區潭興街143巷11號","121.425385","25.0000533333333","6500700","樹林區"
"238007","268-VK","2018/08/30 15:43:20","新北市樹林區俊英街125號","121.424406666667","25.0110333333333","6500700","樹林區"
"221033","647-BX","2018/08/30 15:43:16","台北市內湖區民權東路六段180巷150-1號","121.591875","25.0644033333333","6501100","汐止區"
