"lineid","car","time","location","longitude","latitude","cityid","cityname"
"249005","172-UM","2018/08/30 17:29:42","新北市八里區荖阡坑路67號","121.405858333333","25.1280533333333","6502300","八里區"
"249001","173-UM","2018/08/30 17:29:50","新北市八里區大崁腳47-3號","121.424491666667","25.1589716666667","6502300","八里區"
"249004","303-UY","2018/08/30 17:29:53","新北市八里區賢三街189號","121.413748333333","25.1562966666667","6502300","八里區"
"249002","305-UY","2018/08/30 17:29:48","新北市八里區龍米路二段9號","121.44877","25.1393333333333","6502300","八里區"
"249003","593-UM","2018/08/30 17:29:48","新北市八里區中山路二段315號","121.400593333333","25.1477633333333","6502300","八里區"
"244007","080-UY","2018/08/30 17:29:48","新北市林口區湖子6號","121.390673333333","25.0924466666667","6501700","林口區"
"244019","403-UM","2018/08/30 17:29:42","新北市林口區公園路199號","121.37223","25.0725733333333","6501700","林口區"
"244013","KEA-2802","2018/08/30 17:29:36","新北市林口區粉寮路二段14號","121.401671666667","25.08543","6501700","林口區"
"244023","483-VK","2018/08/30 17:29:52","新北市林口區東明三街362號","121.391608333333","25.0705083333333","6501700","林口區"
"244017","485-VK","2018/08/30 17:29:44","新北市林口區麗園一街1號","121.375555","25.0729883333333","6501700","林口區"
"244009","656-BX","2018/08/30 17:29:36","新北市林口區中北一街14號","121.385796666667","25.0869216666667","6501700","林口區"
"244011","657-BX","2018/08/30 17:29:44","新北市林口區仁愛路一段384號","121.387668333333","25.07676","6501700","林口區"
"244025","837-TS","2018/08/30 17:29:51","新北市林口區忠孝路53號","121.365373333333","25.0751016666667","6501700","林口區"
"244021","838-TS","2018/08/30 17:29:53","新北市林口區粉寮路一段77-2號","121.397073333333","25.0793866666667","6501700","林口區"
"243014","680-BX","2018/08/30 17:29:34","新北市泰山區黎明路25號","121.422075","25.0606133333333","6501600","泰山區"
"231046","107-UY","2018/08/30 17:29:38","新北市新店區直潭路92號","121.530865","24.9376666666667","6500600","新店區"
"241011","013-R5","2018/08/30 17:29:49","新北市三重區河邊北街110巷10號","121.503415","25.070635","6500200","三重區"
"241008","059-VK","2018/08/30 17:29:53","新北市三重區力行路二段136巷11弄25號","121.481981666667","25.076565","6500200","三重區"
"241015","062-VK","2018/08/30 17:29:39","新北市三重區長元街65巷16弄15號","121.503593333333","25.0662033333333","6500200","三重區"
"241017","063-VK","2018/08/30 17:29:52","新北市三重區中正北路25巷11號","121.492765","25.0624766666667","6500200","三重區"
"241024","065-VK","2018/08/30 17:29:48","新北市三重區中正北路207號","121.476726666667","25.0701666666667","6500200","三重區"
"241002","090-VK","2018/08/30 17:29:39","新北市三重區集賢路80號","121.492653333333","25.0884616666667","6500200","三重區"
"241003","091-VK","2018/08/30 17:29:54","新北市三重區五華街141巷60號","121.493553333333","25.0867916666667","6500200","三重區"
"241032","265-UM","2018/08/30 17:29:42","新北市三重區名源街61巷3號","121.48189","25.059315","6500200","三重區"
"241016","266-UM","2018/08/30 17:29:49","新北市三重區信義西街41號","121.495291666667","25.0640233333333","6500200","三重區"
"241009","267-UM","2018/08/30 17:29:47","新北市三重區車路頭街148號","121.483931666667","25.0760283333333","6500200","三重區"
"241018","268-UM","2018/08/30 17:29:40","新北市三重區中正北路25巷1號","121.492486666667","25.0620716666667","6500200","三重區"
"241013","270-UM","2018/08/30 17:29:46","新北市三重區仁愛街112巷4號","121.494585","25.0742516666667","6500200","三重區"
"241025","271-UM","2018/08/30 17:29:49","新北市三重區中正北路380號","121.476323333333","25.06985","6500200","三重區"
"241007","398-BY","2018/08/30 17:29:41","新北市三重區三和路四段145巷84號","121.486368333333","25.0789766666667","6500200","三重區"
"241024","KEA-2210","2018/08/30 17:29:46","新北市三重區國道路一段58巷20號","121.481286666667","25.0720866666667","6500200","三重區"
"241019","413-TH","2018/08/30 17:29:49","新北市三重區自強路二段42號","121.48902","25.0693916666667","6500200","三重區"
"241020","478-VK","2018/08/30 17:29:47","新北市三重區自強路三段47號","121.486925","25.0729783333333","6500200","三重區"
"241030","480-VK","2018/08/30 17:29:37","新北市三重區集美街178號","121.490491666667","25.0533516666667","6500200","三重區"
"241014","543-UM","2018/08/30 17:29:49","新北市三重區安和路17號","121.501331666667","25.0684733333333","6500200","三重區"
"241023","545-UM","2018/08/30 17:29:37","新北市三重區三民街146巷3弄2號","121.4817","25.064645","6500200","三重區"
"241005","887-TS","2018/08/30 17:29:47","新北市三重區永安北路二段25巷30號","121.482788333333","25.0820533333333","6500200","三重區"
"241012","941-UM","2018/08/30 17:29:49","新北市三重區仁興街31巷39號","121.500203333333","25.07545","6500200","三重區"
"241033","AAC-255","2018/08/30 17:29:54","新北市三重區中興北街153-9號","121.469031666667","25.0537483333333","6500200","三重區"
"235064","005-UY","2018/08/30 17:29:46","新北市中和區員山路36巷16-3號","121.485115","24.9912366666667","6500300","中和區"
"247010","KEA-2869","2018/08/30 17:29:55","新北市蘆洲區集賢路406號","121.479935","25.08178","6501400","蘆洲區"
"247024","893-R6","2018/08/30 17:29:50","新北市蘆洲區長興路389號","121.461118333333","25.0917133333333","6501400","蘆洲區"
"247014","546-UM","2018/08/30 17:29:39","新北市蘆洲區三民路88號","121.473428333333","25.0853816666667","6501400","蘆洲區"
"247022","500-BY","2018/08/30 17:29:55","新北市蘆洲區三民路256號","121.467716666667","25.09007","6501400","蘆洲區"
"247012","339-TH","2018/08/30 17:29:47","新北市蘆洲區民族路42號","121.47663","25.0844766666667","6501400","蘆洲區"
"247004","337-TH","2018/08/30 17:29:39","新北市蘆洲區長安街233巷18號","121.458605","25.082775","6501400","蘆洲區"
"247006","336-TH","2018/08/30 17:29:45","新北市蘆洲區長安街68巷29號","121.463796666667","25.08097","6501400","蘆洲區"
"247018","057-VK","2018/08/30 17:29:54","新北市蘆洲區民義街22巷20號","121.471741666667","25.0880466666667","6501400","蘆洲區"
"247008","056-VK","2018/08/30 17:29:54","新北市蘆洲區信義路34巷35號","121.474981666667","25.0784016666667","6501400","蘆洲區"
"247016","007-UY","2018/08/30 17:29:46","新北市蘆洲區光華路22巷42號","121.468345","25.08486","6501400","蘆洲區"
"247002","002-UY","2018/08/30 17:29:55","新北市蘆洲區永樂街38巷65號","121.458508333333","25.0903416666667","6501400","蘆洲區"
"247020","001-UY","2018/08/30 17:29:38","新北市蘆洲區水湳街389號","121.469851666667","25.09376","6501400","蘆洲區"
"228003","097-TW","2018/08/30 17:29:41","新北市貢寮區仁理村研海街62-2號","121.925723333333","25.044155","6502600","貢寮區"
"228001","212-TW","2018/08/30 17:29:40","新北市貢寮區仁理村仁愛路43號","121.925378333333","25.0533883333333","6502600","貢寮區"
"228002","663-BX","2018/08/30 17:29:42","新北市貢寮區福隆里福隆街12號","121.94487","25.0162633333333","6502600","貢寮區"
"224010","AGQ-8101","2018/08/30 17:29:02","新北市瑞芳區明燈路二段2巷14號","121.814385","25.108905","6501200","瑞芳區"
"224006","676-BX","2018/08/30 17:29:39","新北市瑞芳區靜安路四段91號","121.79322","25.1093333333333","6501200","瑞芳區"
"224008","285-BY","2018/08/30 17:29:54","新北市瑞芳區九芎橋路8號","121.832996666667","25.0895483333333","6501200","瑞芳區"
"224009","273-VK","2018/08/30 17:29:53","新北市瑞芳區汽車路7-2號","121.847096666667","25.1108033333333","6501200","瑞芳區"
"224005","271-BY","2018/08/30 17:29:48","","121.898981666667","25.11927","6501200","瑞芳區"
"227004","642-TC","2018/08/30 17:29:41","新北市雙溪區平林里外平林62號","121.844431666667","25.0345483333333","6502500","雙溪區"
"251009","008-UM","2018/08/30 17:29:48","新北市淡水區新生街30巷64號","121.439696666667","25.1731633333333","6501000","淡水區"
"251005","010-UM","2018/08/30 17:29:44","新北市淡水區鄧公路31巷16號","121.451905","25.170625","6501000","淡水區"
"251002","012-UM","2018/08/30 17:29:44","新北市淡水區中正路259號","121.432575","25.17466","6501000","淡水區"
"251013","KEA-2871","2018/08/30 17:29:53","新北市淡水區水尾子5-2號","121.462915","25.195965","6501000","淡水區"
"251016","179-VK","2018/08/30 17:29:40","新北市淡水區埤島72號","121.456695","25.1928666666667","6501000","淡水區"
"251014","180-VK","2018/08/30 17:29:18","新北市淡水區公埔子10號","121.474141666667","25.2276516666667","6501000","淡水區"
"251015","181-VK","2018/08/30 17:29:51","新北市淡水區樹林口14-3號","121.476831666667","25.1670433333333","6501000","淡水區"
"251010","413-VK","2018/08/30 17:29:47","新北市淡水區中正路二段211號","121.426228333333","25.18915","6501000","淡水區"
"251012","441-VK","2018/08/30 17:29:52","新北市淡水區北新路111號","121.448016666667","25.1785083333333","6501000","淡水區"
"251008","442-VK","2018/08/30 17:29:34","新北市淡水區大同路124巷6號","121.463515","25.1404","6501000","淡水區"
"251004","443-VK","2018/08/30 17:15:01","新北市淡水區中正東路二段88巷15號","121.45904","25.1504983333333","6501000","淡水區"
"251006","561-UM","2018/08/30 17:29:55","新北市淡水區大仁街25號","121.4425","25.1753216666667","6501000","淡水區"
"251007","577-R6","2018/08/30 17:29:50","新北市淡水區民生路47-6號","121.462305","25.1382016666667","6501000","淡水區"
"251011","650-BX","2018/08/30 17:29:43","新北市淡水區坪頂路712號","121.482513333333","25.1584983333333","6501000","淡水區"
"251003","766-UM","2018/08/30 17:29:40","新北市淡水區真理街3-1號","121.437828333333","25.1730566666667","6501000","淡水區"
"207003","550-UM","2018/08/30 17:29:52","新北市萬里區龜吼里翡翠路17號","121.683375","25.187265","6502800","萬里區"
"207004","225-TW","2018/08/30 17:29:39","新北市萬里區萬里里景美路11-2號","121.685491666667","25.1728716666667","6502800","萬里區"
"252002","178-VK","2018/08/30 17:29:52","新北市三芝區忠孝街1-14號","121.505531666667","25.2539433333333","6502100","三芝區"
"252001","292-VK","2018/08/30 17:29:37","新北市三芝區長安街119號","121.498053333333","25.259695","6502100","三芝區"
"237016","649-BX","2018/08/30 17:29:48","新北市三峽區中山路459巷52-1號","121.356868333333","24.9363733333333","6500900","三峽區"
"242034","AAC-296","2018/08/30 17:29:41","新北市新莊區新莊路364號","121.449585","25.0334933333333","6500500","新莊區"
"242053","751-BX","2018/08/30 17:29:47","新北市新莊區瓊林南路317號","121.434533333333","25.005655","6500500","新莊區"
"242058","705-TV","2018/08/30 17:29:42","新北市新莊區中正路530號","121.430936666667","25.031635","6500500","新莊區"
"242027","615-BX","2018/08/30 17:29:49","新北市新莊區思源路103號","121.460188333333","25.04168","6500500","新莊區"
"242025","613-BX","2018/08/30 17:27:53","新北市新莊區中港路282號","121.453043333333","25.04417","6500500","新莊區"
"242042","566-BX","2018/08/30 17:29:40","新北市新莊區新樹路113巷21號","121.439328333333","25.0264083333333","6500500","新莊區"
"242046","497-BY","2018/08/30 17:29:34","新北市新莊區福營路10號","121.440241666667","25.0326916666667","6500500","新莊區"
"242051","441-UM","2018/08/30 17:29:43","新北市新莊區新樹路443號","121.432641666667","25.0135933333333","6500500","新莊區"
"242056","440-UM","2018/08/30 17:29:52","新北市新莊區新泰路20號","121.449576666667","25.0336116666667","6500500","新莊區"
"242036","415-TV","2018/08/30 17:29:38","新北市新莊區後港一路195號","121.434293333333","25.02836","6500500","新莊區"
"242007","413-TV","2018/08/30 17:29:50","新北市新莊區自強街82號","121.454736666667","25.0474683333333","6500500","新莊區"
"242044","400-BY","2018/08/30 17:29:56","新北市新莊區富國路75號","121.420033333333","25.0259716666667","6500500","新莊區"
"242023","362-BY","2018/08/30 17:29:42","新北市新莊區公園路150號","121.453161666667","25.04007","6500500","新莊區"
"242061","353-BY","2018/08/30 17:29:55","新北市新莊區瓊林南路12-2號","121.436225","25.0190116666667","6500500","新莊區"
"242009","132-UY","2018/08/30 17:29:44","新北市新莊區中原路228號","121.453235","25.054665","6500500","新莊區"
"242039","133-UY","2018/08/30 17:29:42","新北市新莊區民安路286號","121.427855","25.0216983333333","6500500","新莊區"
"242031","135-UY","2018/08/30 17:29:39","新北市新莊區新泰路381巷38號","121.44245","25.04368","6500500","新莊區"
"242048","172-VK","2018/08/30 17:29:56","新北市新莊區四維路210號","121.42133","25.0201366666667","6500500","新莊區"
"242017","175-VK","2018/08/30 17:29:54","新北市新莊區德豐街2號","121.451631666667","25.04392","6500500","新莊區"
"242004","176-VK","2018/08/30 17:29:46","新北市新莊區中港路288巷20號","121.453646666667","25.0446766666667","6500500","新莊區"
"242015","347-TH","2018/08/30 17:29:55","新北市新莊區新泰路179號","121.44755","25.037385","6500500","新莊區"
"242021","348-TH","2018/08/30 17:29:38","新北市新莊區中華路一段18號","121.452006666667","25.0371","6500500","新莊區"
"242002","349-TH","2018/08/30 17:29:41","新北市新莊區新莊路211號","121.45531","25.0354266666667","6500500","新莊區"
"242019","350-TH","2018/08/30 17:29:53","新北市新莊區中港路76號","121.45547","25.0389616666667","6500500","新莊區"
"238015","755-BX","2018/08/30 17:29:47","新北市樹林區大安路267號","121.419003333333","24.9937","6500700","樹林區"
"238023","601-UM","2018/08/30 17:28:41","新北市樹林區中正路698號","121.40944","25.0173516666667","6500700","樹林區"
"238019","599-UM","2018/08/30 17:29:46","新北市樹林區八德街82號","121.420021666667","24.9813816666667","6500700","樹林區"
"238018","571-TV","2018/08/30 17:29:45","新北市樹林區鎮前街151號","121.423938333333","24.9890433333333","6500700","樹林區"
"238024","5061-A6","2018/08/30 17:29:43","新北市樹林區鎮前街143號","121.424166666667","24.9887933333333","6500700","樹林區"
"238022","KEA-2213","2018/08/30 17:29:51","新北市樹林區仁愛街2號","121.421281666667","24.981475","6500700","樹林區"
"238021","KEA-2539","2018/08/30 17:29:51","新北市樹林區民權街1號","121.395221666667","24.9571783333333","6500700","樹林區"
"238025","303-VK","2018/08/30 17:29:49","新北市樹林區保安二街二段6號","121.41605","25.0008366666667","6500700","樹林區"
"238017","283-BY","2018/08/30 17:29:41","新北市樹林區中正路232號","121.418446666667","25.0072483333333","6500700","樹林區"
"238014","282-BY","2018/08/30 17:29:54","新北市樹林區長壽街88號","121.419891666667","24.9961016666667","6500700","樹林區"
"238020","268-VK","2018/08/30 17:29:40","新北市樹林區千歲街101-2號","121.428508333333","25.00091","6500700","樹林區"
"238026","172-UY","2018/08/30 17:29:40","新北市樹林區新興街17號","121.400085","24.9727716666667","6500700","樹林區"
"238016","169-UY","2018/08/30 17:29:37","新北市樹林區樹德街38巷10號","121.42243","24.992105","6500700","樹林區"
"239007","AAC-297","2018/08/30 17:29:54","新北市鶯歌區中山路48號","121.351958333333","24.9570883333333","6500800","鶯歌區"
"239006","891-R6","2018/08/30 17:29:42","新北市鶯歌區鶯桃路336號","121.333925","24.9621816666667","6500800","鶯歌區"
"239008","527-UM","2018/08/30 17:29:48","新北市鶯歌區大湖路590巷9號","121.336058333333","24.9742733333333","6500800","鶯歌區"
"239005","526-UM","2018/08/30 17:29:52","新北市鶯歌區福隆一街5號","121.325615","24.9717783333333","6500800","鶯歌區"
"239001","417-VK","2018/08/30 17:29:42","新北市鶯歌區中正三路86號","121.338261666667","24.9410666666667","6500800","鶯歌區"
"239003","360-BY","2018/08/30 17:29:41","新北市鶯歌區德昌街5-1號","121.333731666667","24.9605533333333","6500800","鶯歌區"
"239002","359-BY","2018/08/30 17:29:49","新北市鶯歌區南雅路428號","121.34717","24.954075","6500800","鶯歌區"
"239004","193-VK","2018/08/30 17:29:38","新北市鶯歌區三鶯路14號","121.356473333333","24.94133","6500800","鶯歌區"
"221010","269-BY","2018/08/30 17:29:47","新北市汐止區汐萬路一段256巷3號","121.652201666667","25.0744183333333","6501100","汐止區"
"221033","647-BX","2018/08/30 17:29:43","新北市汐止區汐萬路一段306號","121.650391666667","25.0745966666667","6501100","汐止區"
"220001","285-VK","2018/08/30 17:04:20","新北市板橋區民生路二段120號","121.470321666667","25.0201666666667","6500100","板橋區"
"242013","281-VK","2018/08/30 17:29:47","新北市新莊區中誠街16巷9號","121.451803333333","25.048705","6500500","新莊區"
"242011","280-VK","2018/08/30 17:29:39","新北市新莊區中港路451號","121.45255","25.0485566666667","6500500","新莊區"
