"lineid","car","time","location","longitude","latitude","cityid","cityname"
"234046","148-BY","2018/08/30 18:48:38","新北市永和區秀朗路二段126巷1號","121.524806666667","25.0012383333333","6500400","永和區"
"234007","207-UY","2018/08/30 18:48:47","新北市永和區文化路123號","121.512238333333","25.0153516666667","6500400","永和區"
"234081","298-R6","2018/08/30 18:48:50","新北市永和區永利路130號","121.521693333333","25.0030283333333","6500400","永和區"
"234038","336-UY","2018/08/30 18:48:52","新北市永和區成功路一段4號","121.5271","25.00549","6500400","永和區"
"234064","337-UY","2018/08/30 18:48:53","新北市永和區環河東路二段92號","121.52411","25.0105016666667","6500400","永和區"
"234086","338-UY","2018/08/30 18:48:53","新北市永和區中正路48號","121.513155","24.994435","6500400","永和區"
"234070","552-UM","2018/08/30 18:48:43","新北市永和區竹林路96巷4號","121.519141666667","25.0120866666667","6500400","永和區"
"234017","745-BX","2018/08/30 18:48:53","新北市永和區永和路二段405巷3號","121.515305","25.0172066666667","6500400","永和區"
"234030","746-BX","2018/08/30 18:48:50","新北市永和區得和路328號","121.523396666667","24.9995283333333","6500400","永和區"
"234054","KEA-2590","2018/08/30 18:48:45","新北市永和區豫溪街217巷21號","121.524833333333","25.0102583333333","6500400","永和區"
"234061","AAD-866","2018/08/30 18:48:41","新北市永和區福和路137號","121.521135","25.00775","6500400","永和區"
"234013","847-RS","2018/08/30 18:48:40","新北市永和區保福路二段133巷2號","121.50951","25.01382","6500400","永和區"
"234042","862-TW","2018/08/30 18:48:44","新北市永和區永貞路308號","121.511883333333","25.004875","6500400","永和區"
"234050","863-TW","2018/08/30 18:48:35","新北市永和區環河東路二段102號","121.524573333333","25.010545","6500400","永和區"
"234026","9371-KE","2018/08/30 18:48:45","新北市永和區自由街58號","121.513926666667","25.0061016666667","6500400","永和區"
"234011","9373-KE","2018/08/30 18:48:46","新北市永和區文化路126巷1號","121.512988333333","25.0154266666667","6500400","永和區"
"249005","172-UM","2018/08/30 18:48:41","新北市八里區長道坑17號","121.395816666667","25.1153933333333","6502300","八里區"
"249001","173-UM","2018/08/30 18:48:50","新北市八里區龍米路二段16號","121.449021666667","25.1390816666667","6502300","八里區"
"249002","305-UY","2018/08/30 18:48:48","新北市八里區龍形一街33巷6-1號","121.449333333333","25.12951","6502300","八里區"
"248014","025-BX","2018/08/30 18:48:42","新北市五股區民義路一段93號","121.434721666667","25.0858416666667","6501500","五股區"
"248016","026-BX","2018/08/30 18:48:40","新北市五股區凌雲路一段149巷42號","121.448653333333","25.1009516666667","6501500","五股區"
"248008","095-VK","2018/08/30 18:48:40","新北市五股區中興路一段151巷84號","121.465043333333","25.0715883333333","6501500","五股區"
"248020","225-UY","2018/08/30 18:43:45","新北市五股區孝義路108-1號","121.44264","25.1198133333333","6501500","五股區"
"248012","247-BX","2018/08/30 18:48:38","新北市五股區成泰路二段147巷5-12號","121.437331666667","25.0887066666667","6501500","五股區"
"248010","272-BY","2018/08/30 18:48:54","新北市五股區水碓七路81號","121.429638333333","25.0722333333333","6501500","五股區"
"248004","677-BX","2018/08/30 18:48:47","新北市五股區民義路二段23-3號","121.417301666667","25.098635","6501500","五股區"
"248002","678-BX","2018/08/30 18:48:37","新北市五股區西雲路267號","121.449396666667","25.0979816666667","6501500","五股區"
"234023","9380-KE","2018/08/30 18:48:47","新北市永和區竹林路119巷45號","121.521991666667","25.01181","6500400","永和區"
"234077","969-R7","2018/08/30 18:48:49","新北市永和區中正路2巷29弄2-2號","121.513806666667","24.9938583333333","6500400","永和區"
"234067","AAC-212","2018/08/30 18:48:51","新北市中和區永貞路243號","121.513043333333","25.0038916666667","6500400","永和區"
"234003","AAC-295","2018/08/30 18:48:52","新北市永和區福和路221號","121.51887","25.007585","6500400","永和區"
"232011","375-UM","2018/08/30 18:48:45","新北市坪林區坪碇路71號","121.711498333333","24.93766","6502000","坪林區"
"244007","080-UY","2018/08/30 18:48:48","新北市林口區後湖60-1號","121.384403333333","25.108395","6501700","林口區"
"244019","403-UM","2018/08/30 18:48:42","新北市林口區麗園二街42巷14號","121.381776666667","25.06712","6501700","林口區"
"244013","KEA-2802","2018/08/30 18:48:56","新北市林口區文化一路一段100巷10弄16號","121.374843333333","25.071285","6501700","林口區"
"244023","483-VK","2018/08/30 18:48:52","新北市林口區文化三路二段77巷39號","121.373066666667","25.0802733333333","6501700","林口區"
"244017","485-VK","2018/08/30 18:48:44","新北市林口區文化二路一段68巷2號","121.366125","25.0687533333333","6501700","林口區"
"244009","656-BX","2018/08/30 18:48:56","新北市林口區竹林路358巷17號","121.392736666667","25.0840333333333","6501700","林口區"
"244011","657-BX","2018/08/30 18:48:44","新北市林口區中正路57巷12弄17號","121.394881666667","25.07655","6501700","林口區"
"244025","837-TS","2018/08/30 18:48:51","新北市林口區南勢四街250號","121.356621666667","25.0746783333333","6501700","林口區"
"244021","838-TS","2018/08/30 18:48:53","新北市林口區自強一街77號","121.400048333333","25.07706","6501700","林口區"
"243013","AAD-798","2018/08/30 18:35:41","新北市泰山區明志路三段206巷3號","121.423276666667","25.0379566666667","6501600","泰山區"
"243015","421-VK","2018/08/30 18:48:51","新北市泰山區泰林路二段440號","121.42646","25.0641916666667","6501600","泰山區"
"243011","KEA-2215","2018/08/30 18:48:52","新北市泰山區公園路97號","121.425153333333","25.05616","6501600","泰山區"
"243010","KEA-2216","2018/08/30 18:48:51","新北市泰山區泰林路二段362號","121.428741666667","25.0636733333333","6501600","泰山區"
"243012","646-TV","2018/08/30 18:48:44","新北市泰山區福興三街11號","121.43452","25.05782","6501600","泰山區"
"243014","680-BX","2018/08/30 18:48:44","新北市泰山區黎明路25號","121.421981666667","25.0607433333333","6501600","泰山區"
"222003","436-BY","2018/08/30 18:48:55","新北市深坑區北深路二段2巷13弄2號","121.622308333333","25.006995","6501800","深坑區"
"222002","659-BX","2018/08/30 18:48:54","新北市深坑區文山路一段69號","121.626975","25.0018916666667","6501800","深坑區"
"231041","002-UM","2018/08/30 18:48:54","新北市新店區安華路28-1號","121.519808333333","24.9607616666667","6500600","新店區"
"231059","046-UY","2018/08/30 18:48:44","新北市新店區安華路28-1號","121.519726666667","24.9609816666667","6500600","新店區"
"231040","047-UY","2018/08/30 18:48:46","新北市新店區環河路108-1號","121.536996666667","24.9642716666667","6500600","新店區"
"231046","107-UY","2018/08/30 18:48:58","新北市新店區直潭路37號","121.533853333333","24.942655","6500600","新店區"
"231052","108-UY","2018/08/30 18:48:37","新北市新店區新烏路二段3號","121.543493333333","24.9298066666667","6500600","新店區"
"231064","110-UY","2018/08/30 18:48:38","新北市新店區安一路一段1-1號","121.51979","24.9612683333333","6500600","新店區"
"231047","187-VK","2018/08/30 18:48:51","新北市新店區北新路一段91號","121.538866666667","24.9617666666667","6500600","新店區"
"231054","KEA-2219","2018/08/30 18:48:49","新北市新店區光明街32號","121.538303333333","24.9589416666667","6500600","新店區"
"231042","268-BY","2018/08/30 18:48:40","新北市新店區安康路一段65號","121.530365","24.9610533333333","6500600","新店區"
"231051","278-BY","2018/08/30 18:48:56","新北市新店區中央路63號","121.532551666667","24.9771683333333","6500600","新店區"
"231050","AAD-862","2018/08/30 18:48:42","新北市新店區環河路2號","121.538425","24.9617016666667","6500600","新店區"
"231044","355-BY","2018/08/30 18:48:49","新北市新店區寶中路47-3號","121.545876666667","24.9795366666667","6500600","新店區"
"231058","3713-VJ","2018/08/30 18:48:52","新北市新店區北宜路一段105巷4弄1號","121.539888333333","24.9554616666667","6500600","新店區"
"231066","4716-K9","2018/08/30 18:48:45","新北市新店區安一路一段1-1號","121.519355","24.96128","6500600","新店區"
"231056","4715-K9","2018/08/30 18:48:56","新北市新店區建國路128巷3-1號","121.538968333333","24.9792716666667","6500600","新店區"
"231067","4772-VM","2018/08/30 18:48:44","新北市新店區安華路28-1號","121.519231666667","24.9607866666667","6500600","新店區"
"231065","512-UM","2018/08/30 18:48:55","新北市新店區安華路16號","121.516923333333","24.9580583333333","6500600","新店區"
"231049","513-UM","2018/08/30 18:48:45","新北市新店區環河路114巷4-1號","121.537031666667","24.96495","6500600","新店區"
"231045","617-UM","2018/08/30 18:48:55","新北市新店區安康路一段107-2號","121.528678333333","24.96168","6500600","新店區"
"231061","619-UM","2018/08/30 18:48:47","新北市新店區安華路28-1號","121.51983","24.96053","6500600","新店區"
"231063","641-BX","2018/08/30 18:48:47","新北市新店區安華路28-1號","121.519696666667","24.9606766666667","6500600","新店區"
"231062","720-UM","2018/08/30 18:48:51","新北市新店區安一路一段1-1號","121.519361666667","24.9613466666667","6500600","新店區"
"231060","897-TW","2018/08/30 18:48:37","新北市新店區安華路28-1號","121.519735","24.960555","6500600","新店區"
"231043","899-TW","2018/08/30 18:48:50","新北市新店區安康路一段206號","121.524143333333","24.9634333333333","6500600","新店區"
"231055","AKT-0513","2018/08/30 18:48:52","新北市新店區北新路一段271巷8號","121.540495","24.96678","6500600","新店區"
"241035","462-BY","2018/08/30 18:48:55","新北市三重區重新路四段121號","121.484645","25.0520516666667","6500200","三重區"
"235066","003-UY","2018/08/30 18:48:47","新北市中和區水源路29巷2號","121.5041","25.0037383333333","6500300","中和區"
"235064","005-UY","2018/08/30 18:48:50","新北市中和區連勝街2號","121.499076666667","24.9985933333333","6500300","中和區"
"235063","006-UY","2018/08/30 18:48:40","新北市中和區錦和路111-1號","121.49014","24.9951633333333","6500300","中和區"
"235056","096-UM","2018/08/30 18:48:50","新北市中和區員山路611巷5弄9號","121.478336666667","25.0111966666667","6500300","中和區"
"235039","097-UM","2018/08/30 18:48:50","新北市中和區安樂路143巷38弄1號","121.512913333333","24.996405","6500300","中和區"
"235065","098-UM","2018/08/30 18:48:41","新北市中和區中山路二段2巷35號","121.502863333333","25.00688","6500300","中和區"
"235040","150-BY","2018/08/30 18:48:37","新北市中和區保健路91號","121.511225","24.99667","6500300","中和區"
"235058","151-BY","2018/08/30 18:48:58","新北市中和區連城路567號","121.479468333333","24.9945433333333","6500300","中和區"
"235055","183-VK","2018/08/30 18:48:43","新北市中和區民生街38-4號","121.469745","25.005255","6500300","中和區"
"235038","185-VK","2018/08/30 18:48:54","新北市中和區大勇街50號","121.51756","24.9941366666667","6500300","中和區"
"235049","186-VK","2018/08/30 18:48:45","新北市中和區景安路132巷3號","121.504751666667","24.9942216666667","6500300","中和區"
"235067","255-BX","2018/08/30 18:48:44","新北市中和區中正路839巷3號","121.484498333333","25.0023883333333","6500300","中和區"
"235044","293-VK","2018/08/30 18:48:50","新北市中和區中興街152號","121.499855","24.9919466666667","6500300","中和區"
"235072","301-VK","2018/08/30 18:48:39","新北市中和區中山路二段75號","121.503855","25.004375","6500300","中和區"
"235043","352-BY","2018/08/30 18:48:56","新北市中和區景平路1號","121.525553333333","24.9901983333333","6500300","中和區"
"235042","KEA-2878","2018/08/30 18:48:49","新北市中和區秀朗路三段175巷9號","121.525235","24.9915466666667","6500300","中和區"
"235050","4979-A6","2018/08/30 18:48:37","新北市中和區忠孝街112巷2號","121.512256666667","24.9852516666667","6500300","中和區"
"235069","4980-A6","2018/08/30 18:48:46","新北市中和區中和路49號","121.500128333333","25.001365","6500300","中和區"
"235070","558-UM","2018/08/30 18:48:36","新北市中和區南山路47號","121.502076666667","24.9985116666667","6500300","中和區"
"235045","565-BX","2018/08/30 18:48:42","新北市中和區捷運路185號","121.505458333333","24.991465","6500300","中和區"
"235054","640-BX","2018/08/30 18:48:53","新北市中和區民享街71號","121.474175","25.0021066666667","6500300","中和區"
"235060","647-TV","2018/08/30 18:48:43","新北市中和區中山路三段172號","121.4728","25.0063616666667","6500300","中和區"
"235047","732-UM","2018/08/30 18:48:45","新北市中和區興南路二段123號","121.505473333333","24.9841566666667","6500300","中和區"
"235046","733-UM","2018/08/30 18:48:54","新北市中和區仁愛街36巷43號","121.511251666667","24.9867","6500300","中和區"
"235062","800-TS","2018/08/30 18:48:37","新北市中和區中山路二段312巷33弄14號","121.49488","25.0039733333333","6500300","中和區"
"235057","801-TS","2018/08/30 18:48:55","新北市中和區民安街42巷28號","121.479381666667","25.0010066666667","6500300","中和區"
"235041","802-TS","2018/08/30 18:48:49","新北市中和區中安街192號","121.51132","24.9992083333333","6500300","中和區"
"235052","805-TS","2018/08/30 18:48:46","新北市中和區興南路二段399巷16號","121.499061666667","24.97893","6500300","中和區"
"235048","896-TW","2018/08/30 18:48:55","新北市中和區華新街2-6號","121.507488333333","24.9851583333333","6500300","中和區"
"235053","900-TW","2018/08/30 18:48:39","新北市中和區華福街42巷1弄1號","121.466401666667","24.9963533333333","6500300","中和區"
"235051","157-BY","2018/08/30 18:48:45","新北市中和區忠孝街106巷2號","121.512146666667","24.9845333333333","6500300","中和區"
"235037","AAC-213","2018/08/30 18:48:51","新北市中和區秀朗路三段128巷16弄2號","121.524608333333","24.99301","6500300","中和區"
"235059","AAC-215","2018/08/30 18:48:56","新北市中和區圓通路393巷16號","121.489778333333","24.98856","6500300","中和區"
"220065","072-UY","2018/08/30 18:48:40","新北市板橋區民族路247巷5弄42號","121.47022","25.0084516666667","6500100","板橋區"
"220086","073-UY","2018/08/30 18:48:51","新北市板橋區大智街71巷5弄1號","121.453301666667","25.014995","6500100","板橋區"
"220106","075-UY","2018/08/30 18:48:45","新北市板橋區民生路二段120號","121.470331666667","25.019825","6500100","板橋區"
"220069","AAD-861","2018/08/30 18:48:54","新北市板橋區館前西路25號","121.458576666667","25.0068583333333","6500100","板橋區"
"226004","312-R5","2018/08/30 18:48:32","新北市平溪區平溪里三坑路49-1號","121.732808333333","25.0314083333333","6502400","平溪區"
"228003","097-TW","2018/08/30 18:48:41","新北市貢寮區和美里龍洞街53號","121.912366666667","25.1136833333333","6502600","貢寮區"
"228001","212-TW","2018/08/30 18:48:40","新北市貢寮區仁理村研海街12-1號","121.923755","25.0516966666667","6502600","貢寮區"
"228002","663-BX","2018/08/30 18:48:42","新北市貢寮區福隆里東興街6-11號","121.950775","25.021105","6502600","貢寮區"
"224010","AGQ-8101","2018/08/30 18:46:22","新北市瑞芳區烏勢巷145號","121.847423333333","25.1083116666667","6501200","瑞芳區"
"224006","676-BX","2018/08/30 18:48:39","新北市瑞芳區中正路91號","121.805181666667","25.1076683333333","6501200","瑞芳區"
"224002","639-TC","2018/08/30 18:48:45","新北市瑞芳區靜安路四段91號","121.793368333333","25.1091633333333","6501200","瑞芳區"
"224008","285-BY","2018/08/30 18:48:54","新北市瑞芳區逢甲路277號","121.801583333333","25.11203","6501200","瑞芳區"
"224007","275-VK","2018/08/30 18:48:53","新北市瑞芳區大埔路東泰新村1號","121.761371666667","25.1011333333333","6501200","瑞芳區"
"224009","273-VK","2018/08/30 18:48:52","新北市瑞芳區祈堂路2號","121.859548333333","25.1113716666667","6501200","瑞芳區"
"224005","271-BY","2018/08/30 18:48:56","新北市瑞芳區瑞濱路1-8號","121.828013333333","25.1215216666667","6501200","瑞芳區"
"227004","642-TC","2018/08/30 18:48:41","新北市雙溪區平林里梅竹蹊28號","121.86165","25.03601","6502500","雙溪區"
"227010","400-TW","2018/08/30 18:48:41","新北市雙溪區牡丹里聖南14號","121.858241666667","25.0526983333333","6502500","雙溪區"
"253005","032-BX","2018/08/30 18:48:37","新北市石門區中山路32-3號","121.565903333333","25.289835","6502200","石門區"
"253006","295-VK","2018/08/30 18:48:53","新北市石門區下員坑30號","121.520195","25.2828616666667","6502200","石門區"
"222001","KEA-2212","2018/08/30 18:48:41","新北市深坑區松柏街33號","121.638631666667","25.011415","6501800","深坑區"
"208002","KEA-2872","2018/08/30 18:48:52","新北市金山區仁愛路37-10號","121.636025","25.2191383333333","6502700","金山區"
"208003","665-BX","2018/08/30 18:48:41","新北市金山區中山路344號","121.63345","25.2252866666667","6502700","金山區"
"208001","761-BX","2018/08/30 18:48:56","新北市金山區文化三路39號","121.63443","25.225515","6502700","金山區"
"251002","012-UM","2018/08/30 18:48:44","新北市淡水區學府路39號","121.447955","25.1690216666667","6501000","淡水區"
"251013","KEA-2871","2018/08/30 18:48:33","新北市淡水區雲廣坑6號","121.471825","25.2158133333333","6501000","淡水區"
"251016","179-VK","2018/08/30 18:48:40","新北市淡水區下圭柔山71-3號","121.447021666667","25.206215","6501000","淡水區"
"251014","180-VK","2018/08/30 18:48:58","新北市淡水區崙頂2號","121.492066666667","25.2239883333333","6501000","淡水區"
"251015","181-VK","2018/08/30 18:48:51","新北市淡水區興福寮1-7號","121.48754","25.16461","6501000","淡水區"
"251010","413-VK","2018/08/30 18:48:54","新北市淡水區沙崙路15號","121.42122","25.18132","6501000","淡水區"
"251012","441-VK","2018/08/30 18:48:51","新北市淡水區新興街3號","121.443798333333","25.18037","6501000","淡水區"
"251004","443-VK","2018/08/30 18:48:42","新北市淡水區民權路3巷12弄36號","121.461953333333","25.141865","6501000","淡水區"
"251001","559-UM","2018/08/30 18:48:44","新北市淡水區自強路315號","121.462978333333","25.1321166666667","6501000","淡水區"
"251007","577-R6","2018/08/30 18:48:40","新北市淡水區淡金路21號","121.456793333333","25.160135","6501000","淡水區"
"251011","650-BX","2018/08/30 18:48:43","新北市淡水區學府路55號","121.448213333333","25.169385","6501000","淡水區"
"251003","766-UM","2018/08/30 18:48:40","新北市淡水區中山北路一段212巷38號","121.446153333333","25.1790666666667","6501000","淡水區"
"207003","550-UM","2018/08/30 18:48:52","新北市萬里區大鵬里頂社24-5號","121.658566666667","25.2085533333333","6502800","萬里區"
"207004","225-TW","2018/08/30 18:48:39","新北市萬里區萬里里獅頭路23號","121.69327","25.1782716666667","6502800","萬里區"
"252002","178-VK","2018/08/30 18:48:52","新北市三芝區中正路一段112號","121.50486","25.2563883333333","6502100","三芝區"
"252003","249-BX","2018/08/30 18:48:42","新北市三芝區後厝里大片頭105-2號","121.458108333333","25.2418066666667","6502100","三芝區"
"252001","292-VK","2018/08/30 18:48:57","新北市三芝區中正路三段9號","121.502963333333","25.2538633333333","6502100","三芝區"
"237007","153-BY","2018/08/30 18:48:50","新北市三峽區中正路二段407號","121.363481666667","24.906945","6500900","三峽區"
"237009","210-TH","2018/08/30 18:48:38","新北市三峽區民權街153號","121.368103333333","24.93072","6500900","三峽區"
"237013","252-BX","2018/08/30 18:48:49","新北市三峽區光明路69巷25號","121.37681","24.92918","6500900","三峽區"
"237012","275-BY","2018/08/30 18:48:55","新北市三峽區三樹路358號","121.383983333333","24.943355","6500900","三峽區"
"237008","302-VK","2018/08/30 18:48:43","新北市三峽區白雞47號","121.383093333333","24.91237","6500900","三峽區"
"237014","433-BY","2018/08/30 18:48:55","新北市三峽區復興路480巷28號","121.359281666667","24.9397333333333","6500900","三峽區"
"237006","5529-G3","2018/08/30 18:48:52","新北市三峽區溪東路211巷37號","121.405333333333","24.9346633333333","6500900","三峽區"
"237011","KEA-2596","2018/08/30 18:48:52","新北市三峽區介壽路三段118-1號","121.397946666667","24.9416566666667","6500900","三峽區"
"237016","649-BX","2018/08/30 18:48:48","新北市三峽區安坑12-2號","121.442846666667","24.9263866666667","6500900","三峽區"
"237010","706-TV","2018/08/30 18:48:53","新北市三峽區復興路487號","121.361285","24.938445","6500900","三峽區"
"237005","AKY-6261","2018/08/30 18:48:38","新北市三峽區文化路117號","121.370018333333","24.93603","6500900","三峽區"
"236070","105-UM","2018/08/30 18:48:51","新北市土城區延和路21巷37號","121.463601666667","24.9891633333333","6501300","土城區"
"236042","107-UM","2018/08/30 18:48:42","新北市土城區裕民路92巷25弄1號","121.449668333333","24.9860633333333","6501300","土城區"
"236078","166-UM","2018/08/30 18:48:56","新北市土城區中央路四段67巷30號","121.417765","24.957205","6501300","土城區"
"236030","253-BX","2018/08/30 18:48:48","新北市土城區中央路三段59號","121.439011666667","24.9694833333333","6501300","土城區"
"236026","269-VK","2018/08/30 18:48:49","新北市土城區慶安街29巷12號","121.441551666667","24.97284","6501300","土城區"
"236014","270-VK","2018/08/30 18:48:52","新北市土城區清水路235巷26號","121.46066","24.9840033333333","6501300","土城區"
"236038","271-VK","2018/08/30 18:48:56","新北市土城區明德路一段221巷12號","121.463543333333","24.9780083333333","6501300","土城區"
"236021","752-BX","2018/08/30 18:48:47","新北市土城區延吉街253巷5號","121.467786666667","24.984655","6501300","土城區"
"236059","912-UM","2018/08/30 18:48:52","新北市土城區金城路一段80號","121.444415","24.9730233333333","6501300","土城區"
"236049","913-UM","2018/08/30 18:48:54","新北市土城區青雲路1-1號","121.460423333333","24.9900083333333","6501300","土城區"
"236063","915-UM","2018/08/30 18:48:40","新北市土城區延壽路13巷2號","121.470981666667","24.9903883333333","6501300","土城區"
"236055","AAC-216","2018/08/30 18:48:44","新北市土城區裕民路179號","121.453325","24.98469","6501300","土城區"
"242058","705-TV","2018/08/30 18:48:42","新北市泰山區磚雅厝6號","121.442041666667","25.0428016666667","6500500","新莊區"
"242039","133-UY","2018/08/30 18:48:42","新北市新莊區後港一路160號","121.430833333333","25.027425","6500500","新莊區"
"242002","349-TH","2018/08/30 18:48:41","新北市新莊區三和路12-21號","121.441975","25.03809","6500500","新莊區"
"238023","601-UM","2018/08/30 18:48:41","新北市樹林區工興街14巷1號","121.398955","25.0136266666667","6500700","樹林區"
"238019","599-UM","2018/08/30 18:48:46","新北市樹林區中華路190-16號","121.411733333333","24.9806516666667","6500700","樹林區"
"238024","5061-A6","2018/08/30 18:48:43","新北市樹林區八德街426號","121.40261","24.970465","6500700","樹林區"
"238022","KEA-2213","2018/08/30 18:48:51","新北市樹林區中華路379巷42號","121.413335","24.9784233333333","6500700","樹林區"
"238021","KEA-2539","2018/08/30 18:48:51","新北市樹林區西圳街二段30號","121.388526666667","24.96176","6500700","樹林區"
"238025","303-VK","2018/08/30 18:48:49","新北市樹林區中山路三段22號","121.395618333333","24.9729383333333","6500700","樹林區"
"238017","283-BY","2018/08/30 18:48:41","新北市樹林區中山路三段210-2號","121.381395","24.9657633333333","6500700","樹林區"
"238020","268-VK","2018/08/30 18:48:44","新北市樹林區三俊街298號","121.422885","25.0140916666667","6500700","樹林區"
"238026","172-UY","2018/08/30 18:48:40","新北市樹林區中和街11號","121.39203","24.97298","6500700","樹林區"
"238016","169-UY","2018/08/30 18:48:56","新北市樹林區文化街27號","121.419203333333","24.987675","6500700","樹林區"
"239007","AAC-297","2018/08/30 18:48:54","新北市鶯歌區中正一路建德巷38號","121.364503333333","24.9578316666667","6500800","鶯歌區"
"239008","527-UM","2018/08/30 18:48:48","新北市鶯歌區晨曦街13號","121.337566666667","24.976485","6500800","鶯歌區"
"239005","526-UM","2018/08/30 18:48:52","新北市鶯歌區鳳吉三街31巷29號","121.328178333333","24.97454","6500800","鶯歌區"
"239001","417-VK","2018/08/30 18:48:42","新北市鶯歌區中正二路183號","121.341728333333","24.9481283333333","6500800","鶯歌區"
"239003","360-BY","2018/08/30 18:48:41","新北市鶯歌區鶯桃路658巷27號","121.329788333333","24.9696383333333","6500800","鶯歌區"
"239004","193-VK","2018/08/30 18:48:38","新北市鶯歌區中正三路156巷8-10號","121.332425","24.9410683333333","6500800","鶯歌區"
"221008","489-VK","2018/08/30 18:48:37","新北市汐止區康寧街901號","121.651451666667","25.0750516666667","6501100","汐止區"
"221036","130-UY","2018/08/30 18:48:38","新北市汐止區南昌街27號","121.663126666667","25.069315","6501100","汐止區"
"221015","131-UY","2018/08/30 18:48:51","新北市汐止區鄉長路一段55巷9號","121.665263333333","25.07601","6501100","汐止區"
"221010","269-BY","2018/08/30 18:48:47","新北市汐止區汐萬路一段329號","121.649883333333","25.0756066666667","6501100","汐止區"
"221012","278-VK","2018/08/30 18:48:58","新北市汐止區汐萬路一段256巷3號","121.653473333333","25.074765","6501100","汐止區"
"221023","279-VK","2018/08/30 18:48:39","新北市汐止區翠峰街21巷3弄22號","121.644585","25.075795","6501100","汐止區"
"221032","280-BY","2018/08/30 18:48:42","新北市汐止區民權街二段60號","121.619385","25.048685","6501100","汐止區"
"221027","281-BY","2018/08/30 18:48:51","新北市汐止區汐萬路一段256巷3號","121.653365","25.07451","6501100","汐止區"
"221029","298-VK","2018/08/30 18:48:44","新北市汐止區樟樹一路97號","121.642043333333","25.063555","6501100","汐止區"
"221031","353-TW","2018/08/30 18:48:54","新北市汐止區福德一路310巷3弄1號","121.631106666667","25.063515","6501100","汐止區"
"221002","129-UY","2018/08/30 18:48:49","新北市汐止區大同路一段169號","121.632741666667","25.0567033333333","6501100","汐止區"
"221035","622-UM","2018/08/30 18:48:57","新北市汐止區中正路297號","121.656365","25.0679566666667","6501100","汐止區"
"221025","623-UM","2018/08/30 18:48:48","新北市汐止區仁愛路113巷26號","121.661768333333","25.0643016666667","6501100","汐止區"
"221038","646-BX","2018/08/30 18:48:55","新北市汐止區康寧街901號","121.650733333333","25.0752916666667","6501100","汐止區"
"221033","647-BX","2018/08/30 18:48:43","新北市汐止區南勢街3號","121.627086666667","25.037355","6501100","汐止區"
"221018","753-BX","2018/08/30 18:48:46","新北市汐止區茄苳路70號","121.666688333333","25.0705916666667","6501100","汐止區"
"220079","145-BY","2018/08/30 18:48:43","新北市板橋區民權路202巷7弄12號","121.459681666667","25.01489","6500100","板橋區"
"220080","200-UY","2018/08/30 18:48:57","新北市板橋區大觀路二段265巷60弄31號","121.441873333333","24.9978433333333","6500100","板橋區"
"220082","610-BX","2018/08/30 18:48:44","新北市板橋區篤行路三段34號","121.427986666667","24.9864233333333","6500100","板橋區"
"220056","276-BY","2018/08/30 18:48:23","新北市土城區四川路4號","121.45574","24.99613","6500100","板橋區"
"220072","277-BY","2018/08/30 18:48:48","新北市板橋區金門街10號","121.433376666667","24.9947283333333","6500100","板橋區"
"220071","283-VK","2018/08/30 18:48:51","新北市板橋區忠孝路172號","121.464486666667","25.002475","6500100","板橋區"
"220094","285-UM","2018/08/30 18:48:54","新北市板橋區民生路二段161巷1號","121.470128333333","25.0198816666667","6500100","板橋區"
"220053","285-VK","2018/08/30 18:48:46","新北市板橋區介壽街115號","121.470378333333","25.0184533333333","6500100","板橋區"
"220083","286-VK","2018/08/30 18:48:54","新北市板橋區僑中二街10巷2號","121.446985","25.01096","6500100","板橋區"
"220081","287-VK","2018/08/30 18:48:53","新北市板橋區光華街15巷2號","121.453976666667","25.01186","6500100","板橋區"
"220090","288-VK","2018/08/30 18:48:54","新北市板橋區民生路二段148號","121.471221666667","25.0196883333333","6500100","板橋區"
"220061","295-UM","2018/08/30 18:48:46","新北市板橋區介壽街119號","121.470575","25.01877","6500100","板橋區"
"220084","296-UM","2018/08/30 18:48:54","新北市板橋區大觀路二段150巷77號","121.441431666667","25.0011133333333","6500100","板橋區"
"220062","299-UM","2018/08/30 18:48:40","新北市板橋區觀光街4巷2弄8號","121.472528333333","25.0154516666667","6500100","板橋區"
"220075","303-R5","2018/08/30 18:48:36","新北市板橋區館前西路263號","121.453966666667","25.0086633333333","6500100","板橋區"
"220098","317-R6","2018/08/30 18:48:46","新北市板橋區民生路二段180號","121.470713333333","25.0202533333333","6500100","板橋區"
"220064","486-VK","2018/08/30 18:48:55","新北市板橋區民生路二段36-1號","121.472085","25.016775","6500100","板橋區"
"242011","280-VK","2018/08/30 18:48:39","新北市板橋區溪城路89號","121.427013333333","24.9832366666667","6500500","新莊區"
"220035","560-BX","2018/08/30 18:48:57","新北市板橋區中正路275巷62弄3號","121.452928333333","25.01848","6500100","板橋區"
"220103","561-BX","2018/08/30 18:48:42","新北市板橋區介壽街117號","121.470515","25.0187866666667","6500100","板橋區"
"220063","609-BX","2018/08/30 18:48:55","新北市板橋區介壽街117號","121.470458333333","25.01875","6500100","板橋區"
"220091","637-BX","2018/08/30 18:48:46","新北市板橋區民生路二段180號","121.471146666667","25.0203016666667","6500100","板橋區"
"220057","686-BX","2018/08/30 18:48:47","新北市板橋區館前西路52號","121.45841","25.00698","6500100","板橋區"
"220077","687-BX","2018/08/30 18:48:49","新北市板橋區龍興街103巷1號","121.444528333333","25.00327","6500100","板橋區"
"220054","741-BX","2018/08/30 18:48:40","新北市板橋區館前西路44號","121.45867","25.0069766666667","6500100","板橋區"
"220102","KEA-2699","2018/08/30 18:48:49","新北市板橋區民生路二段182號","121.470986666667","25.0204033333333","6500100","板橋區"
"220055","827-TW","2018/08/30 18:48:50","新北市板橋區縣民大道一段269號","121.460525","25.0096366666667","6500100","板橋區"
"220067","829-TW","2018/08/30 18:48:37","新北市板橋區三民路二段正隆巷45號","121.47679","25.0134833333333","6500100","板橋區"
"220089","833-TW","2018/08/30 18:48:39","新北市板橋區民生路二段161巷1號","121.47014","25.0200833333333","6500100","板橋區"
"220074","895-R6","2018/08/30 18:48:43","新北市板橋區西門街55巷13號","121.454238333333","25.0097533333333","6500100","板橋區"
"220073","985-R7","2018/08/30 18:48:51","新北市板橋區光華街1號","121.454226666667","25.0111866666667","6500100","板橋區"
"220070","AAC-253","2018/08/30 18:48:59","新北市板橋區館前西路4-1號","121.459318333333","25.007115","6500100","板橋區"
"235068","KEA-2873","2018/08/30 18:48:32","新北市中和區中正路173號","121.497708333333","24.9935","6500300","中和區"
"235061","KEA-2875","2018/08/30 18:48:30","新北市中和區民享街28號","121.473993333333","25.0035566666667","6500300","中和區"
