"lineid","car","time","location","longitude","latitude","cityid","cityname"
"234046","148-BY","2018/08/30 19:49:20","新北市永和區永利路155號","121.524736666667","25.0035016666667","6500400","永和區"
"234007","207-UY","2018/08/30 19:49:07","新北市中和區中和路232號","121.506766666667","24.9994866666667","6500400","永和區"
"234081","298-R6","2018/08/30 19:49:10","新北市永和區永亨路127號","121.524506666667","25.004255","6500400","永和區"
"234038","336-UY","2018/08/30 19:49:12","新北市永和區成功路二段76號","121.526626666667","24.9991683333333","6500400","永和區"
"234064","337-UY","2018/08/30 19:49:24","新北市永和區中正路370號","121.517881666667","25.0009583333333","6500400","永和區"
"234086","338-UY","2018/08/30 19:49:13","新北市永和區永利路6號","121.517441666667","25.0058083333333","6500400","永和區"
"234070","552-UM","2018/08/30 19:49:23","新北市永和區竹林路88號","121.519423333333","25.0125633333333","6500400","永和區"
"234017","745-BX","2018/08/30 19:49:13","新北市永和區永和路二段299號","121.516035","25.0161816666667","6500400","永和區"
"234030","746-BX","2018/08/30 19:49:10","新北市永和區民生路67巷21號","121.523861666667","24.99728","6500400","永和區"
"234054","KEA-2590","2018/08/30 19:49:24","新北市永和區竹林路75巷17號","121.519826666667","25.013855","6500400","永和區"
"234061","AAD-866","2018/08/30 19:49:21","新北市永和區中正路188號","121.515446666667","24.9969566666667","6500400","永和區"
"234013","847-RS","2018/08/30 19:49:22","新北市永和區仁愛路236號","121.508495","25.0117333333333","6500400","永和區"
"234042","862-TW","2018/08/30 19:49:24","新北市永和區中和路305巷18弄2號","121.5075","25.0015333333333","6500400","永和區"
"234050","863-TW","2018/08/30 19:49:21","新北市永和區保安路138號","121.5087","25.0150633333333","6500400","永和區"
"234026","9371-KE","2018/08/30 19:49:25","新北市永和區雙和街25巷3號","121.509023333333","25.0019166666667","6500400","永和區"
"234011","9373-KE","2018/08/30 19:49:06","新北市永和區仁愛路352巷94號","121.501183333333","25.007985","6500400","永和區"
"249001","173-UM","2018/08/30 19:49:22","新北市八里區中華路二段252號","121.405401666667","25.1496666666667","6502300","八里區"
"249004","303-UY","2018/08/30 19:49:18","新北市八里區仁愛路21號","121.413328333333","25.160915","6502300","八里區"
"249002","305-UY","2018/08/30 19:49:08","新北市八里區頂寮三街18號","121.451453333333","25.12591","6502300","八里區"
"249003","593-UM","2018/08/30 19:49:28","新北市八里區華峰三街35號","121.398465","25.1454316666667","6502300","八里區"
"248014","025-BX","2018/08/30 19:49:17","新北市五股區五福路29號","121.43389","25.0892166666667","6501500","五股區"
"248016","026-BX","2018/08/30 19:49:20","新北市五股區成泰路三段601巷17-1號","121.451738333333","25.10331","6501500","五股區"
"248008","095-VK","2018/08/30 19:49:20","新北市五股區四維路169號","121.46764","25.0751383333333","6501500","五股區"
"248020","225-UY","2018/08/30 19:49:25","新北市五股區中直路39號","121.419708333333","25.1142716666667","6501500","五股區"
"248012","247-BX","2018/08/30 19:49:18","新北市五股區蓬萊路24號","121.43391","25.0799466666667","6501500","五股區"
"248010","272-BY","2018/08/30 19:49:21","新北市五股區登林路76-9號","121.429901666667","25.06924","6501500","五股區"
"248004","677-BX","2018/08/30 19:49:07","新北市五股區成泰路一段42號","121.435258333333","25.06879","6501500","五股區"
"248002","678-BX","2018/08/30 19:49:17","新北市五股區成泰路四段15-6號","121.453323333333","25.1069766666667","6501500","五股區"
"234077","969-R7","2018/08/30 19:49:29","新北市永和區中正路250號","121.516645","24.9983333333333","6500400","永和區"
"234074","AAC-211","2018/08/30 19:49:22","新北市永和區豫溪街136巷5號","121.521365","25.010025","6500400","永和區"
"234067","AAC-212","2018/08/30 19:49:18","新北市永和區永貞路355巷2號","121.508981666667","25.007515","6500400","永和區"
"234003","AAC-295","2018/08/30 19:49:12","新北市永和區福和路316-3號","121.515896666667","25.0073866666667","6500400","永和區"
"243013","AAD-798","2018/08/30 19:42:29","新北市泰山區應化街7號","121.423838333333","25.0437683333333","6501600","泰山區"
"243009","297-R6","2018/08/30 19:49:23","新北市泰山區美寧街69號","121.430995","25.06471","6501600","泰山區"
"243016","KEA-2801","2018/08/30 19:49:22","新北市泰山區中山路三段114號","121.417795","25.0320816666667","6501600","泰山區"
"243015","421-VK","2018/08/30 19:49:11","新北市泰山區明志路二段214巷15號","121.426708333333","25.0489833333333","6501600","泰山區"
"243011","KEA-2215","2018/08/30 19:49:12","新北市泰山區明志路三段204巷10弄11號","121.422948333333","25.0386016666667","6501600","泰山區"
"243010","KEA-2216","2018/08/30 19:49:11","新北市泰山區民生路33號","121.430665","25.052125","6501600","泰山區"
"243012","646-TV","2018/08/30 19:49:24","新北市泰山區全興路13號","121.432315","25.0589216666667","6501600","泰山區"
"243014","680-BX","2018/08/30 19:49:24","新北市泰山區泰林路二段33-9號","121.435181666667","25.05671","6501600","泰山區"
"222003","436-BY","2018/08/30 19:49:12","新北市深坑區深南路51-1號","121.62124","25.0098383333333","6501800","深坑區"
"222002","659-BX","2018/08/30 19:49:23","新北市深坑區北深路二段2巷1號","121.621238333333","25.0045733333333","6501800","深坑區"
"231041","002-UM","2018/08/30 19:49:14","新北市新店區中央路212號","121.529986666667","24.9734583333333","6500600","新店區"
"231059","046-UY","2018/08/30 19:49:23","新北市新店區安和路二段183號","121.518216666667","24.97474","6500600","新店區"
"231040","047-UY","2018/08/30 19:49:26","新北市新店區中正路75巷71號","121.543216666667","24.9688166666667","6500600","新店區"
"231046","107-UY","2018/08/30 19:49:18","新北市新店區福園街10巷3號","121.53259","24.97281","6500600","新店區"
"231052","108-UY","2018/08/30 19:49:17","新北市新店區新烏路三段164號","121.551681666667","24.9022983333333","6500600","新店區"
"231064","110-UY","2018/08/30 19:49:18","新北市新店區安和路二段117巷10號","121.518375","24.9702333333333","6500600","新店區"
"231047","187-VK","2018/08/30 19:49:19","新北市新店區中興路二段100巷2號","121.54745","24.97122","6500600","新店區"
"231054","KEA-2219","2018/08/30 19:49:09","新北市新店區光明街70號","121.5387","24.9597883333333","6500600","新店區"
"231057","256-BX","2018/08/30 19:49:27","新北市新店區梅崗一路10號","121.555983333333","24.9313933333333","6500600","新店區"
"231042","268-BY","2018/08/30 19:49:20","新北市新店區中興路一段267-4號","121.544978333333","24.9679166666667","6500600","新店區"
"231051","278-BY","2018/08/30 19:49:16","新北市新店區中央二街49號","121.527413333333","24.97439","6500600","新店區"
"231050","AAD-862","2018/08/30 19:49:21","新北市新店區郵政路101號","121.554231666667","24.9513633333333","6500600","新店區"
"231044","355-BY","2018/08/30 19:49:09","新北市新店區復興路31號","121.538705","24.9864483333333","6500600","新店區"
"231058","3713-VJ","2018/08/30 19:49:18","新北市新店區中央路238號","121.529028333333","24.9721583333333","6500600","新店區"
"231066","4716-K9","2018/08/30 19:49:25","新北市新店區安康路二段418號","121.496281666667","24.9551233333333","6500600","新店區"
"231056","4715-K9","2018/08/30 19:49:16","新北市新店區中央路63號","121.53256","24.9771","6500600","新店區"
"231067","4772-VM","2018/08/30 19:49:23","新北市新店區安康路一段227號","121.525593333333","24.9631","6500600","新店區"
"231065","512-UM","2018/08/30 19:49:15","新北市新店區安祥路109巷90弄70號","121.476111666667","24.9586533333333","6500600","新店區"
"231049","513-UM","2018/08/30 19:49:24","新北市新店區民權路88-5號","121.536228333333","24.9835416666667","6500600","新店區"
"231045","617-UM","2018/08/30 19:49:15","新北市新店區中生路83巷3號","121.564746666667","24.9518766666667","6500600","新店區"
"231061","619-UM","2018/08/30 19:49:27","新北市新店區安民街192號","121.517175","24.9715366666667","6500600","新店區"
"231063","641-BX","2018/08/30 19:49:06","新北市新店區車子路11號","121.50303","24.952","6500600","新店區"
"231068","718-UY","2018/08/30 19:49:19","新北市新店區安華路28-1號","121.519358333333","24.9608683333333","6500600","新店區"
"231062","720-UM","2018/08/30 19:49:11","新北市新店區永業路32號","121.532693333333","24.9555016666667","6500600","新店區"
"231060","897-TW","2018/08/30 19:49:18","新北市新店區安康路二段266號","121.508616666667","24.9588016666667","6500600","新店區"
"231043","899-TW","2018/08/30 19:49:10","新北市新店區中正路146號","121.541673333333","24.9715833333333","6500600","新店區"
"231055","AKT-0513","2018/08/30 19:49:12","新北市新店區力行路72號","121.538733333333","24.9662016666667","6500600","新店區"
"241011","013-R5","2018/08/30 19:49:24","新北市三重區三和路二段173巷21號","121.498513333333","25.0700116666667","6500200","三重區"
"241028","022-UY","2018/08/30 19:49:29","新北市三重區中正南路131號","121.494045","25.0571266666667","6500200","三重區"
"241008","059-VK","2018/08/30 19:49:07","新北市三重區永福街117號","121.479086666667","25.0771466666667","6500200","三重區"
"241022","060-VK","2018/08/30 19:49:12","新北市三重區新北大道一段11號","121.488628333333","25.0606433333333","6500200","三重區"
"241031","061-VK","2018/08/30 19:49:26","新北市三重區重新路四段256號","121.48591","25.053315","6500200","三重區"
"241015","062-VK","2018/08/30 19:49:09","新北市三重區三和路一段39巷7號","121.503906666667","25.0651216666667","6500200","三重區"
"241017","063-VK","2018/08/30 19:49:11","新北市三重區重陽路三段5巷8弄16號","121.489543333333","25.0665383333333","6500200","三重區"
"241024","065-VK","2018/08/30 19:49:08","新北市三重區大勇街49號","121.48138","25.07197","6500200","三重區"
"241026","066-VK","2018/08/30 19:49:24","新北市三重區文化南路42號","121.500403333333","25.060225","6500200","三重區"
"241003","091-VK","2018/08/30 19:49:28","新北市三重區五華街93巷1號","121.492063333333","25.083615","6500200","三重區"
"241032","265-UM","2018/08/30 19:49:09","新北市三重區三陽路3號","121.486315","25.05884","6500200","三重區"
"241016","266-UM","2018/08/30 19:49:09","新北市三重區正義北路16巷31-5號","121.49642","25.0627916666667","6500200","三重區"
"241009","267-UM","2018/08/30 19:49:27","新北市三重區三和路四段396巷2-1號","121.481468333333","25.07908","6500200","三重區"
"241018","268-UM","2018/08/30 19:49:10","新北市三重區雙園街57巷32號","121.494533333333","25.0683733333333","6500200","三重區"
"241013","270-UM","2018/08/30 19:49:26","新北市三重區仁愛街141巷11號","121.495928333333","25.0753566666667","6500200","三重區"
"241025","271-UM","2018/08/30 19:49:14","新北市三重區忠孝路三段52號","121.480703333333","25.0656666666667","6500200","三重區"
"241007","398-BY","2018/08/30 19:49:21","新北市三重區三和路四段298號","121.484751666667","25.0777466666667","6500200","三重區"
"241019","413-TH","2018/08/30 19:49:24","新北市三重區三張街95號","121.489336666667","25.07045","6500200","三重區"
"241035","462-BY","2018/08/30 19:49:16","新北市三重區文化北路22-1號","121.499285","25.0641983333333","6500200","三重區"
"241004","475-VK","2018/08/30 19:49:24","新北市三重區五華街70號","121.493525","25.0819383333333","6500200","三重區"
"241020","478-VK","2018/08/30 19:49:07","新北市三重區自強路三段101號","121.487743333333","25.0754933333333","6500200","三重區"
"241030","480-VK","2018/08/30 19:49:17","新北市三重區環河南路253號","121.49117","25.0506316666667","6500200","三重區"
"241014","543-UM","2018/08/30 19:49:09","新北市三重區長元街98巷18弄32號","121.501756666667","25.0673466666667","6500200","三重區"
"241023","545-UM","2018/08/30 19:49:17","新北市三重區大有街1-1號","121.477606666667","25.0656283333333","6500200","三重區"
"241001","547-UM","2018/08/30 19:49:22","新北市三重區仁愛街327巷62號","121.493573333333","25.080335","6500200","三重區"
"241006","AAD-863","2018/08/30 19:49:26","新北市三重區永福街277號","121.482376666667","25.0742566666667","6500200","三重區"
"241012","941-UM","2018/08/30 19:49:28","新北市三重區仁興街56巷36號","121.498253333333","25.0755066666667","6500200","三重區"
"241029","942-UM","2018/08/30 19:49:10","新北市三重區光明路25號","121.491195","25.0585133333333","6500200","三重區"
"241033","AAC-255","2018/08/30 19:49:17","新北市三重區中興南街29-1號","121.470505","25.0440483333333","6500200","三重區"
"235066","003-UY","2018/08/30 19:49:27","新北市中和區南工路26號","121.505653333333","25.00085","6500300","中和區"
"235063","006-UY","2018/08/30 19:49:20","新北市中和區連城路263巷6弄2號","121.492063333333","24.9956966666667","6500300","中和區"
"235056","096-UM","2018/08/30 19:49:14","新北市中和區中山路三段114巷46號","121.475801666667","25.007195","6500300","中和區"
"235039","097-UM","2018/08/30 19:49:10","新北市中和區大勇街25巷36號","121.516011666667","24.993845","6500300","中和區"
"235065","098-UM","2018/08/30 19:49:21","新北市中和區永和路8巷21號","121.500848333333","25.0034533333333","6500300","中和區"
"235040","150-BY","2018/08/30 19:49:17","新北市中和區安平路38號","121.509911666667","24.9949066666667","6500300","中和區"
"235058","151-BY","2018/08/30 19:49:18","新北市中和區員山路142巷12號","121.481913333333","24.99648","6500300","中和區"
"235055","183-VK","2018/08/30 19:49:23","新北市中和區德光路27巷1弄2號","121.470913333333","25.00391","6500300","中和區"
"235038","185-VK","2018/08/30 19:49:14","新北市中和區自立路6號","121.5224","24.9965466666667","6500300","中和區"
"235049","186-VK","2018/08/30 19:49:24","新北市中和區中興街55號","121.500628333333","24.9938333333333","6500300","中和區"
"235067","255-BX","2018/08/30 19:49:24","新北市中和區中正路751巷3弄12號","121.484355","24.99942","6500300","中和區"
"235044","293-VK","2018/08/30 19:49:19","新北市中和區南山路389號","121.50641","24.9903183333333","6500300","中和區"
"235043","352-BY","2018/08/30 19:49:16","新北市中和區華新街232巷2號","121.50599","24.98184","6500300","中和區"
"235042","KEA-2878","2018/08/30 19:49:29","新北市中和區保健路7巷11號","121.508186666667","24.998925","6500300","中和區"
"235050","4979-A6","2018/08/30 19:49:17","新北市中和區和平街164巷5號","121.505868333333","24.9924333333333","6500300","中和區"
"235070","558-UM","2018/08/30 19:49:16","新北市中和區景平路511號","121.499371666667","24.9986283333333","6500300","中和區"
"235054","640-BX","2018/08/30 19:49:27","新北市中和區莒光路147號","121.4727","25.001265","6500300","中和區"
"235060","647-TV","2018/08/30 19:49:23","新北市中和區員山路358號","121.48113","25.0037266666667","6500300","中和區"
"235047","732-UM","2018/08/30 19:49:25","新北市中和區捷運路6號","121.510113333333","24.9894816666667","6500300","中和區"
"235046","733-UM","2018/08/30 19:49:14","新北市中和區仁愛街98號","121.51157","24.9872016666667","6500300","中和區"
"235057","801-TS","2018/08/30 19:49:14","新北市中和區員山路146-4號","121.481218333333","24.997045","6500300","中和區"
"235041","802-TS","2018/08/30 19:49:29","新北市中和區永貞路239巷17號","121.512618333333","25.0030983333333","6500300","中和區"
"235052","805-TS","2018/08/30 19:49:26","新北市中和區興南路二段117巷29號","121.506026666667","24.9837383333333","6500300","中和區"
"235048","896-TW","2018/08/30 19:49:16","新北市中和區興南路一段162號","121.508138333333","24.9867166666667","6500300","中和區"
"235053","900-TW","2018/08/30 19:49:19","新北市中和區國光街191號","121.467341666667","25.0016333333333","6500300","中和區"
"235071","911-UM","2018/08/30 19:49:20","新北市中和區中山路二段546號","121.484833333333","25.00509","6500300","中和區"
"235051","157-BY","2018/08/30 19:49:23","新北市中和區中興街180巷52弄3號","121.498526666667","24.9883316666667","6500300","中和區"
"235037","AAC-213","2018/08/30 19:49:12","新北市中和區秀朗路三段134-1號","121.524421666667","24.9917683333333","6500300","中和區"
"235059","AAC-215","2018/08/30 19:49:16","新北市中和區圓通路305巷9號","121.493751666667","24.9898933333333","6500300","中和區"
"220065","072-UY","2018/08/30 19:49:00","新北市板橋區區運路21號","121.465771666667","25.0101183333333","6500100","板橋區"
"220106","075-UY","2018/08/30 19:49:25","新北市板橋區仁化街221號","121.47874","25.0347283333333","6500100","板橋區"
"220069","AAD-861","2018/08/30 19:49:14","新北市板橋區貴興路113號","121.455813333333","25.002495","6500100","板橋區"
"247014","546-UM","2018/08/30 19:49:15","新北市蘆洲區中央路103-1號","121.472053333333","25.0839783333333","6501400","蘆洲區"
"247004","337-TH","2018/08/30 19:49:18","新北市蘆洲區中原路35號","121.459971666667","25.08268","6501400","蘆洲區"
"247008","056-VK","2018/08/30 19:49:24","新北市蘆洲區信義路111號","121.478401666667","25.0801483333333","6501400","蘆洲區"
"247002","002-UY","2018/08/30 19:49:12","新北市蘆洲區永樂街38巷69號","121.45866","25.0905","6501400","蘆洲區"
"226004","312-R5","2018/08/30 19:49:12","新北市平溪區靜安路三段392巷3號","121.78442","25.0495633333333","6502400","平溪區"
"228003","097-TW","2018/08/30 19:49:21","新北市貢寮區真理里美艷山街5-1號","121.926673333333","25.0596916666667","6502600","貢寮區"
"228001","212-TW","2018/08/30 19:49:20","新北市貢寮區真理里新港街117號","121.927028333333","25.0562966666667","6502600","貢寮區"
"224010","AGQ-8101","2018/08/30 19:49:22","新北市瑞芳區輕便路338號","121.840091666667","25.1086033333333","6501200","瑞芳區"
"224002","639-TC","2018/08/30 19:49:25","新北市瑞芳區民享新村12號","121.816676666667","25.1057016666667","6501200","瑞芳區"
"227004","642-TC","2018/08/30 19:49:21","新北市雙溪區雙溪里內挖路47號","121.863291666667","25.0367283333333","6502500","雙溪區"
"227010","400-TW","2018/08/30 19:49:19","新北市雙溪區新基里中華路79號","121.865743333333","25.0384066666667","6502500","雙溪區"
"222001","KEA-2212","2018/08/30 19:49:26","新北市深坑區北深路三段71號","121.606728333333","25.0014516666667","6501800","深坑區"
"208002","KEA-2872","2018/08/30 19:49:12","新北市金山區八德街14號","121.634898333333","25.2236433333333","6502700","金山區"
"208003","665-BX","2018/08/30 19:49:21","新北市金山區清泉里清水路60巷1號","121.629518333333","25.2362183333333","6502700","金山區"
"208001","761-BX","2018/08/30 19:49:23","新北市金山區重和里六股林口23號","121.60346","25.219335","6502700","金山區"
"251009","008-UM","2018/08/30 19:49:08","新北市淡水區中正路38-1號","121.443741666667","25.16924","6501000","淡水區"
"251005","010-UM","2018/08/30 19:49:24","新北市淡水區中正東路63號","121.446721666667","25.16733","6501000","淡水區"
"251013","KEA-2871","2018/08/30 19:49:13","新北市淡水區頂田寮17號","121.461671666667","25.2141383333333","6501000","淡水區"
"251016","179-VK","2018/08/30 19:49:20","新北市淡水區三塊厝3-2號","121.456246666667","25.2093116666667","6501000","淡水區"
"251014","180-VK","2018/08/30 19:49:18","新北市淡水區番社前1-7號","121.468251666667","25.2360516666667","6501000","淡水區"
"251015","181-VK","2018/08/30 19:49:11","新北市淡水區北新路三段16-5號","121.4834","25.1857733333333","6501000","淡水區"
"251010","413-VK","2018/08/30 19:47:07","新北市淡水區崁頂里77號","121.430698333333","25.2032016666667","6501000","淡水區"
"251012","441-VK","2018/08/30 19:49:11","新北市淡水區淡金路三段2-2號","121.446986666667","25.1979216666667","6501000","淡水區"
"251008","442-VK","2018/08/30 19:49:13","新北市淡水區中正路一段24巷11號","121.42666","25.1771133333333","6501000","淡水區"
"251001","559-UM","2018/08/30 19:49:24","新北市淡水區中正東路二段37號","121.459215","25.1563216666667","6501000","淡水區"
"251006","561-UM","2018/08/30 19:49:14","新北市淡水區水碓街10號","121.443566666667","25.1769916666667","6501000","淡水區"
"251007","577-R6","2018/08/30 19:49:20","新北市淡水區中正東路一段77號","121.452771666667","25.1621666666667","6501000","淡水區"
"251011","650-BX","2018/08/30 19:49:17","新北市淡水區淡金路二段401號","121.446878333333","25.18705","6501000","淡水區"
"251003","766-UM","2018/08/30 19:49:20","新北市淡水區中山北路三段163號","121.445365","25.19664","6501000","淡水區"
"207003","550-UM","2018/08/30 19:49:11","新北市萬里區大鵬里萬里加投239號","121.642478333333","25.2166866666667","6502800","萬里區"
"207004","225-TW","2018/08/30 19:49:19","新北市萬里區萬里里瑪鋉路219號","121.690056666667","25.1795666666667","6502800","萬里區"
"252002","178-VK","2018/08/30 19:49:12","新北市三芝區三民街27巷5號","121.504711666667","25.2582783333333","6502100","三芝區"
"252001","292-VK","2018/08/30 19:49:17","新北市三芝區公正街9號","121.499626666667","25.25762","6502100","三芝區"
"237004","KEA-2597","2018/08/30 19:49:23","新北市三峽區添福54號","121.377145","24.889545","6500900","三峽區"
"237007","153-BY","2018/08/30 19:49:10","新北市三峽區二鬮路136巷24弄47號","121.356971666667","24.910505","6500900","三峽區"
"237009","210-TH","2018/08/30 19:49:18","新北市三峽區中園街117號","121.367726666667","24.92445","6500900","三峽區"
"237013","252-BX","2018/08/30 19:49:09","新北市三峽區橫溪路44號","121.396616666667","24.9355166666667","6500900","三峽區"
"237012","275-BY","2018/08/30 19:49:15","新北市三峽區光明路39號","121.37381","24.9306383333333","6500900","三峽區"
"237008","302-VK","2018/08/30 19:49:23","新北市三峽區永安街87號","121.37484","24.9290916666667","6500900","三峽區"
"237014","433-BY","2018/08/30 19:49:15","新北市三峽區添福109號","121.373925","24.9017","6500900","三峽區"
"237006","5529-G3","2018/08/30 19:49:12","新北市三峽區中正路一段336巷15弄2號","121.369973333333","24.9249516666667","6500900","三峽區"
"237011","KEA-2596","2018/08/30 19:49:16","新北市三峽區中正路一段100號","121.374325","24.9297316666667","6500900","三峽區"
"237016","649-BX","2018/08/30 19:49:28","新北市三峽區成福路27號","121.417465","24.9286116666667","6500900","三峽區"
"237010","706-TV","2018/08/30 19:49:13","新北市三峽區復興路49號","121.373363333333","24.9369633333333","6500900","三峽區"
"237005","AKY-6261","2018/08/30 19:49:18","新北市三峽區和平街55號","121.37023","24.935975","6500900","三峽區"
"236070","105-UM","2018/08/30 19:49:25","新北市土城區水源街32巷12號","121.441158333333","24.97591","6501300","土城區"
"236042","107-UM","2018/08/30 19:49:22","新北市土城區裕民路259巷12號","121.455001666667","24.9834716666667","6501300","土城區"
"236078","166-UM","2018/08/30 19:49:16","新北市土城區中央路四段410巷3號","121.41123","24.9533133333333","6501300","土城區"
"236030","253-BX","2018/08/30 19:49:23","新北市土城區中央路一段294號","121.443373333333","24.982325","6501300","土城區"
"236026","269-VK","2018/08/30 19:49:20","新北市土城區中央路二段61巷26號","121.44328","24.9787833333333","6501300","土城區"
"236038","271-VK","2018/08/30 19:49:25","新北市土城區國際路158巷54號","121.467943333333","24.9747966666667","6501300","土城區"
"236021","752-BX","2018/08/30 19:49:04","新北市土城區延吉街137巷14號","121.470905","24.9855483333333","6501300","土城區"
"236059","912-UM","2018/08/30 19:49:11","新北市土城區中央路一段193號","121.446041666667","24.9870633333333","6501300","土城區"
"236049","913-UM","2018/08/30 19:49:22","新北市土城區青雲路309號","121.45905","24.979205","6501300","土城區"
"236063","915-UM","2018/08/30 19:49:20","新北市土城區延和路105巷2弄3號","121.467736666667","24.9905766666667","6501300","土城區"
"236055","AAC-216","2018/08/30 19:49:24","新北市土城區延和路94號","121.466603333333","24.989515","6501300","土城區"
"242034","AAC-296","2018/08/30 19:49:17","新北市新莊區建中街116巷3弄2號","121.445381666667","25.037475","6500500","新莊區"
"242046","497-BY","2018/08/30 19:49:14","新北市新莊區裕民街19巷4號","121.419718333333","25.0252733333333","6500500","新莊區"
"242056","440-UM","2018/08/30 19:49:21","新北市新莊區新泰路53號","121.449493333333","25.0339283333333","6500500","新莊區"
"242036","415-TV","2018/08/30 19:49:21","新北市新莊區建安街70號","121.42684","25.0244","6500500","新莊區"
"242007","413-TV","2018/08/30 19:49:28","新北市新莊區思源路593巷6弄16號","121.458833333333","25.0599083333333","6500500","新莊區"
"242023","362-BY","2018/08/30 19:49:22","新北市新莊區化成路222號","121.46561","25.046695","6500500","新莊區"
"242061","353-BY","2018/08/30 19:49:15","新北市新莊區中環路一段10號","121.44279","25.0257633333333","6500500","新莊區"
"242039","133-UY","2018/08/30 19:49:22","新北市新莊區民安路299巷47弄2號","121.429511666667","25.02348","6500500","新莊區"
"242031","135-UY","2018/08/30 19:49:26","新北市新莊區忠孝街26號","121.443963333333","25.03553","6500500","新莊區"
"242048","172-VK","2018/08/30 19:49:21","新北市新莊區建安街76巷1弄6號","121.42628","25.0245233333333","6500500","新莊區"
"242017","175-VK","2018/08/30 19:49:14","新北市新莊區中華路一段101號","121.452718333333","25.0437683333333","6500500","新莊區"
"242004","176-VK","2018/08/30 19:49:13","新北市新莊區化成路63巷24弄45號","121.462026666667","25.0459216666667","6500500","新莊區"
"242021","348-TH","2018/08/30 19:49:22","新北市新莊區建中街34號","121.448956666667","25.037535","6500500","新莊區"
"242002","349-TH","2018/08/30 19:49:21","新北市新莊區碧江街94號","121.45071","25.0324816666667","6500500","新莊區"
"242019","350-TH","2018/08/30 19:49:22","新北市新莊區公園路58號","121.449346666667","25.0394233333333","6500500","新莊區"
"238015","755-BX","2018/08/30 19:49:10","新北市樹林區大安路593號","121.411865","24.9829983333333","6500700","樹林區"
"238023","601-UM","2018/08/30 19:49:21","新北市樹林區忠信街1號","121.409486666667","25.015025","6500700","樹林區"
"238019","599-UM","2018/08/30 19:49:26","新北市樹林區中山路二段145號","121.406373333333","24.9790083333333","6500700","樹林區"
"238022","KEA-2213","2018/08/30 19:49:11","新北市樹林區國凱街70號","121.420883333333","24.979055","6500700","樹林區"
"238021","KEA-2539","2018/08/30 19:49:11","新北市樹林區佳園路三段143號","121.386126666667","24.9493066666667","6500700","樹林區"
"238025","303-VK","2018/08/30 19:49:28","新北市樹林區鎮前街419-1號","121.413841666667","24.9830883333333","6500700","樹林區"
"238017","283-BY","2018/08/30 19:49:21","新北市樹林區保安街二段107巷1弄5號","121.415133333333","25.0009266666667","6500700","樹林區"
"238014","282-BY","2018/08/30 19:49:14","新北市樹林區千歲街68號","121.42623","24.99747","6500700","樹林區"
"239007","AAC-297","2018/08/30 19:49:14","新北市鶯歌區大湖路340號","121.34614","24.9714033333333","6500800","鶯歌區"
"239006","891-R6","2018/08/30 19:49:22","新北市鶯歌區永昌街92號","121.34139","24.9497966666667","6500800","鶯歌區"
"239004","193-VK","2018/08/30 19:49:18","新北市鶯歌區二甲路43-12號","121.33711","24.9345533333333","6500800","鶯歌區"
"221008","489-VK","2018/08/30 19:49:16","新北市汐止區康寧街143號","121.62144","25.0665916666667","6501100","汐止區"
"221036","130-UY","2018/08/30 19:49:18","新北市汐止區汐萬路一段160號","121.652593333333","25.07147","6501100","汐止區"
"221015","131-UY","2018/08/30 19:49:11","新北市汐止區大同路二段537號","121.661968333333","25.0692183333333","6501100","汐止區"
"221010","269-BY","2018/08/30 19:49:27","新北市汐止區康寧街885巷1號","121.650098333333","25.0760833333333","6501100","汐止區"
"221012","278-VK","2018/08/30 19:49:17","新北市汐止區大同路三段579號","121.682575","25.0733716666667","6501100","汐止區"
"221023","279-VK","2018/08/30 19:49:18","新北市汐止區民族三街42號","121.629613333333","25.0700966666667","6501100","汐止區"
"221032","280-BY","2018/08/30 19:49:22","新北市汐止區橫科路403巷18號","121.624918333333","25.0476433333333","6501100","汐止區"
"221027","281-BY","2018/08/30 19:49:11","新北市汐止區南昌街31號","121.663155","25.06916","6501100","汐止區"
"221029","298-VK","2018/08/30 19:49:24","新北市汐止區康寧街901號","121.65147","25.0750066666667","6501100","汐止區"
"221031","353-TW","2018/08/30 19:49:14","新北市汐止區福德三路127號","121.633721666667","25.0674766666667","6501100","汐止區"
"221035","622-UM","2018/08/30 19:49:17","新北市汐止區長江街13巷5弄1號","121.65468","25.0716283333333","6501100","汐止區"
"221025","623-UM","2018/08/30 19:49:28","新北市汐止區秀峰路81巷15弄23號","121.661233333333","25.0649416666667","6501100","汐止區"
"221038","646-BX","2018/08/30 19:49:24","新北市汐止區忠孝東路397號","121.665783333333","25.0708666666667","6501100","汐止區"
"221033","647-BX","2018/08/30 19:49:23","新北市汐止區東勢街76巷49號","121.633635","25.0389883333333","6501100","汐止區"
"221018","753-BX","2018/08/30 19:49:25","新北市汐止區大同路二段533號","121.66184","25.0691033333333","6501100","汐止區"
"220079","145-BY","2018/08/30 19:49:29","新北市板橋區建國街100號","121.459926666667","25.01726","6500100","板橋區"
"220080","200-UY","2018/08/30 19:49:16","新北市板橋區大觀路二段69巷29號","121.447473333333","25.0021683333333","6500100","板橋區"
"220082","610-BX","2018/08/30 19:49:24","新北市板橋區金門街182號","121.432581666667","24.9910066666667","6500100","板橋區"
"220101","245-BX","2018/08/30 19:49:30","新北市板橋區莒光路200-1號","121.474213333333","25.0221266666667","6500100","板橋區"
"220056","276-BY","2018/08/30 19:49:23","新北市板橋區四川路二段99巷1號","121.452698333333","24.9945533333333","6500100","板橋區"
"220072","277-BY","2018/08/30 19:49:12","新北市板橋區金門街159號","121.432876666667","24.99045","6500100","板橋區"
"220071","283-VK","2018/08/30 19:49:11","新北市板橋區五權街30巷24弄1號","121.463903333333","24.9932716666667","6500100","板橋區"
"220094","285-UM","2018/08/30 19:49:14","新北市板橋區長江路一段105巷1弄1號","121.459308333333","25.0300566666667","6500100","板橋區"
"220053","285-VK","2018/08/30 19:49:27","新北市板橋區民享街3號","121.474858333333","25.0144133333333","6500100","板橋區"
"220083","286-VK","2018/08/30 19:49:14","新北市板橋區僑中二街86號","121.446501666667","25.009545","6500100","板橋區"
"220081","287-VK","2018/08/30 19:49:13","新北市板橋區大觀路一段28巷71號","121.449798333333","25.0111166666667","6500100","板橋區"
"220090","288-VK","2018/08/30 19:49:14","新北市板橋區龍泉街82巷13號","121.455705","25.02555","6500100","板橋區"
"220061","295-UM","2018/08/30 19:49:25","新北市板橋區中山路一段265巷13號","121.46866","25.0147366666667","6500100","板橋區"
"220084","296-UM","2018/08/30 19:49:29","新北市板橋區滿平街2-1號","121.42613","24.99031","6500100","板橋區"
"220062","299-UM","2018/08/30 19:49:24","新北市板橋區中山路二段416巷38弄36號","121.481738333333","25.0195233333333","6500100","板橋區"
"220075","303-R5","2018/08/30 19:49:15","新北市板橋區金華街12號","121.455933333333","25.0201583333333","6500100","板橋區"
"220092","307-R5","2018/08/30 19:49:24","新北市板橋區四維路259巷34號","121.461693333333","25.02747","6500100","板橋區"
"220098","317-R6","2018/08/30 19:49:26","新北市板橋區四維路269巷88號","121.459798333333","25.0267266666667","6500100","板橋區"
"220064","486-VK","2018/08/30 19:49:14","新北市板橋區實踐路92號","121.464006666667","25.0050166666667","6500100","板橋區"
"242011","280-VK","2018/08/30 19:49:19","新北市新莊區中信街120號","121.447845","25.0541316666667","6500500","新莊區"
"220088","491-VK","2018/08/30 19:49:14","新北市板橋區大同街71號","121.479468333333","25.0280016666667","6500100","板橋區"
"220035","560-BX","2018/08/30 19:49:27","新北市板橋區金華街112號","121.458871666667","25.0208466666667","6500100","板橋區"
"220103","561-BX","2018/08/30 19:49:23","新北市板橋區陽明街29巷2號","121.465261666667","25.0218333333333","6500100","板橋區"
"220063","609-BX","2018/08/30 19:49:15","新北市板橋區中山路二段318巷2弄2號","121.480368333333","25.019115","6500100","板橋區"
"220091","637-BX","2018/08/30 19:49:26","新北市板橋區懷德街191巷28號","121.480575","25.02978","6500100","板橋區"
"220057","686-BX","2018/08/30 19:49:27","新北市板橋區信義路201號","121.459236666667","24.99166","6500100","板橋區"
"220077","687-BX","2018/08/30 19:49:17","新北市板橋區僑中一街125巷6弄16號","121.444928333333","25.0117416666667","6500100","板橋區"
"220093","689-BX","2018/08/30 19:49:21","新北市板橋區長江路二段165號","121.466525","25.0319183333333","6500100","板橋區"
"220054","741-BX","2018/08/30 19:49:20","新北市板橋區忠孝路忠義巷15弄15號","121.46557","25.004055","6500100","板橋區"
"220102","KEA-2699","2018/08/30 19:49:27","新北市板橋區雙十路二段70巷35號","121.476205","25.0288216666667","6500100","板橋區"
"220055","827-TW","2018/08/30 19:49:10","新北市板橋區國慶路49巷11號","121.459613333333","24.9960666666667","6500100","板橋區"
"220067","829-TW","2018/08/30 19:49:17","新北市板橋區長安街251巷34號","121.471981666667","25.0112083333333","6500100","板橋區"
"220068","830-TW","2018/08/30 19:49:17","新北市板橋區中山路二段416巷3弄1號","121.483396666667","25.0205083333333","6500100","板橋區"
"220096","831-TW","2018/08/30 19:49:13","新北市板橋區莒光路40巷7弄12-1號","121.470906666667","25.0238033333333","6500100","板橋區"
"220089","833-TW","2018/08/30 19:49:19","新北市板橋區龍泉街82巷11-4號","121.455825","25.025555","6500100","板橋區"
"220074","895-R6","2018/08/30 19:49:23","新北市板橋區民權路65號","121.461723333333","25.0113566666667","6500100","板橋區"
"220073","985-R7","2018/08/30 19:49:11","新北市板橋區大仁街57號","121.454495","25.0163783333333","6500100","板橋區"
"220097","AAC-210","2018/08/30 19:49:24","新北市板橋區文化路一段285巷35號","121.463518333333","25.0195083333333","6500100","板橋區"
"220070","AAC-253","2018/08/30 19:49:19","新北市板橋區館前東路122號","121.463805","25.0078416666667","6500100","板橋區"
"235068","KEA-2873","2018/08/30 19:49:02","新北市中和區永和路8巷23弄5號","121.500738333333","25.00385","6500300","中和區"
"235061","KEA-2875","2018/08/30 19:49:00","新北市中和區民利街31巷2弄2號","121.480016666667","24.99873","6500300","中和區"
