"lineid","car","time","location","longitude","latitude","cityid","cityname"
"234081","298-R6","2018/08/30 20:32:55","新北市永和區永貞路25號","121.520991666667","25.0068666666667","6500400","永和區"
"234030","746-BX","2018/08/30 20:32:50","新北市永和區民族街81巷62號","121.520318333333","24.996495","6500400","永和區"
"234061","AAD-866","2018/08/30 20:32:41","新北市永和區安樂路194巷19號","121.51592","25.0010833333333","6500400","永和區"
"234042","862-TW","2018/08/30 20:32:44","新北市永和區安樂路461號","121.514373333333","25.0052633333333","6500400","永和區"
"234050","863-TW","2018/08/30 20:32:55","新北市永和區新生路95巷2弄24號","121.50784","25.0151016666667","6500400","永和區"
"249001","173-UM","2018/08/30 20:32:42","新北市八里區中山路三段228號","121.381006666667","25.141445","6502300","八里區"
"249004","303-UY","2018/08/30 20:32:38","新北市八里區中山路一段129巷29號","121.413993333333","25.15855","6502300","八里區"
"249003","593-UM","2018/08/30 20:32:48","新北市八里區華峰一街26號","121.399071666667","25.1466083333333","6502300","八里區"
"234023","9380-KE","2018/08/30 20:32:47","新北市永和區竹林路25巷7號","121.517598333333","25.0148583333333","6500400","永和區"
"234074","AAC-211","2018/08/30 20:32:42","新北市永和區豫溪街191巷7弄34號","121.522933333333","25.0114983333333","6500400","永和區"
"243016","KEA-2801","2018/08/30 20:32:43","新北市泰山區明志路二段220號","121.427293333333","25.0485683333333","6501600","泰山區"
"243011","KEA-2215","2018/08/30 20:32:52","新北市泰山區明志路三段87號","121.42498","25.0415716666667","6501600","泰山區"
"243010","KEA-2216","2018/08/30 20:33:00","新北市泰山區明志路二段255巷3弄1號","121.42795","25.047535","6501600","泰山區"
"243012","646-TV","2018/08/30 20:32:44","新北市泰山區美寧街58號","121.43084","25.0646983333333","6501600","泰山區"
"222003","436-BY","2018/08/30 20:32:52","新北市深坑區深坑街84號","121.614175","25.0014916666667","6501800","深坑區"
"222002","659-BX","2018/08/30 20:32:54","新北市深坑區萬福路63巷10號","121.599596666667","25.00785","6501800","深坑區"
"231041","002-UM","2018/08/30 20:32:54","新北市新店區中正路501-4號","121.533575","24.9837933333333","6500600","新店區"
"231059","046-UY","2018/08/30 20:32:43","新北市新店區安豐路24號","121.500676666667","24.9566133333333","6500600","新店區"
"231040","047-UY","2018/08/30 20:32:46","新北市新店區中正路263-5號","121.538215","24.9738583333333","6500600","新店區"
"231052","108-UY","2018/08/30 20:32:57","新北市新店區松林路43巷1號","121.544421666667","24.9115733333333","6500600","新店區"
"231064","110-UY","2018/08/30 20:32:38","新北市新店區新和街59巷17號","121.519241666667","24.9859666666667","6500600","新店區"
"231047","187-VK","2018/08/30 20:32:51","新北市新店區寶慶街58巷21-1號","121.542","24.98733","6500600","新店區"
"231054","KEA-2219","2018/08/30 20:32:28","新北市新店區檳榔路43巷1號","121.54295","24.963095","6500600","新店區"
"231057","256-BX","2018/08/30 20:32:46","新北市新店區花園十路二段4號","121.5559","24.9332466666667","6500600","新店區"
"231042","268-BY","2018/08/30 20:32:59","新北市新店區寶橋路186號","121.549523333333","24.9775583333333","6500600","新店區"
"231051","278-BY","2018/08/30 20:32:56","新北市新店區中央八街72號","121.52762","24.976785","6500600","新店區"
"231050","AAD-862","2018/08/30 20:32:41","新北市新店區建興街7號","121.539905","24.976395","6500600","新店區"
"231044","355-BY","2018/08/30 20:32:49","新北市新店區建國路172-2號","121.538196666667","24.97969","6500600","新店區"
"231058","3713-VJ","2018/08/30 20:32:58","新北市新店區平等街48巷12號","121.535665","24.9733333333333","6500600","新店區"
"231066","4716-K9","2018/08/30 20:32:45","新北市新店區安興路112號","121.514655","24.9776466666667","6500600","新店區"
"231056","4715-K9","2018/08/30 20:32:56","新北市新店區中央路2號","121.533946666667","24.9789316666667","6500600","新店區"
"231067","4772-VM","2018/08/30 20:32:44","新北市新店區安華路28-1號","121.519648333333","24.9608766666667","6500600","新店區"
"231065","512-UM","2018/08/30 20:32:55","新北市新店區安祥路102巷46弄89號","121.487301666667","24.9632366666667","6500600","新店區"
"231049","513-UM","2018/08/30 20:32:45","新北市新店區永業路81巷10號","121.531075","24.9485083333333","6500600","新店區"
"231045","617-UM","2018/08/30 20:32:55","新北市新店區長春路38號","121.550318333333","24.9575966666667","6500600","新店區"
"231061","619-UM","2018/08/30 20:32:46","新北市新店區安興路141號","121.516848333333","24.9796183333333","6500600","新店區"
"231063","641-BX","2018/08/30 20:32:46","新北市新店區玫瑰路4-1號","121.493595","24.9513816666667","6500600","新店區"
"231068","718-UY","2018/08/30 20:32:58","新北市新店區中興路三段312號","121.542265","24.9856116666667","6500600","新店區"
"231062","720-UM","2018/08/30 20:32:51","新北市新店區安泰路60巷37號","121.483708333333","24.9461616666667","6500600","新店區"
"231060","897-TW","2018/08/30 20:32:37","新北市新店區錦秀路13號","121.479391666667","24.9447566666667","6500600","新店區"
"231043","899-TW","2018/08/30 20:32:50","新北市新店區建國路76號","121.540591666667","24.9763816666667","6500600","新店區"
"241011","013-R5","2018/08/30 20:32:44","新北市三重區仁愛街63號","121.496196666667","25.0724866666667","6500200","三重區"
"241028","022-UY","2018/08/30 20:32:49","新北市三重區光興街91號","121.497381666667","25.0598916666667","6500200","三重區"
"241008","059-VK","2018/08/30 20:32:47","新北市三重區永福街281-3號","121.482925","25.074445","6500200","三重區"
"241022","060-VK","2018/08/30 20:32:51","新北市三重區民生街61巷31弄1號","121.487821666667","25.0630683333333","6500200","三重區"
"241031","061-VK","2018/08/30 20:32:46","新北市三重區重陽路一段113巷1弄51號","121.488176666667","25.058545","6500200","三重區"
"241015","062-VK","2018/08/30 20:32:49","新北市三重區文化北路118巷1號","121.498453333333","25.0665233333333","6500200","三重區"
"241017","063-VK","2018/08/30 20:32:51","新北市三重區自強路一段298號","121.49145","25.0683433333333","6500200","三重區"
"241024","065-VK","2018/08/30 20:32:53","新北市三重區三民街283巷2號","121.479073333333","25.068505","6500200","三重區"
"241026","066-VK","2018/08/30 20:32:45","新北市三重區福德南路37-1號","121.502868333333","25.0622666666667","6500200","三重區"
"241002","090-VK","2018/08/30 20:32:59","新北市三重區仁義街211巷23號","121.497666666667","25.08227","6500200","三重區"
"241003","091-VK","2018/08/30 20:32:48","新北市三重區富華街163號","121.493296666667","25.0850383333333","6500200","三重區"
"241032","265-UM","2018/08/30 20:32:49","新北市三重區重陽路一段120巷35號","121.485106666667","25.06016","6500200","三重區"
"241016","266-UM","2018/08/30 20:32:49","新北市三重區正義北路190巷24號","121.495765","25.0666766666667","6500200","三重區"
"241009","267-UM","2018/08/30 20:32:47","新北市三重區仁愛街670號","121.482313333333","25.080515","6500200","三重區"
"241018","268-UM","2018/08/30 20:32:50","新北市三重區正義北路216巷9號","121.495781666667","25.0675233333333","6500200","三重區"
"241013","270-UM","2018/08/30 20:32:46","新北市三重區溪尾街5巷7號","121.492131666667","25.0744133333333","6500200","三重區"
"241025","271-UM","2018/08/30 20:32:54","新北市三重區頂崁街210巷23弄1號","121.475865","25.068145","6500200","三重區"
"241007","398-BY","2018/08/30 20:32:41","新北市三重區自強路四段22號","121.488665","25.07651","6500200","三重區"
"241019","413-TH","2018/08/30 20:32:44","新北市三重區重陽路四段126巷27號","121.49186","25.0709966666667","6500200","三重區"
"241035","462-BY","2018/08/30 20:32:55","新北市三重區正義北路198號","121.496318333333","25.0671583333333","6500200","三重區"
"241004","475-VK","2018/08/30 20:32:44","新北市三重區溪尾街216號","121.487943333333","25.0814183333333","6500200","三重區"
"241020","478-VK","2018/08/30 20:32:47","新北市三重區忠孝路一段21號","121.491991666667","25.07193","6500200","三重區"
"241030","480-VK","2018/08/30 20:32:57","新北市三重區成功路62號","121.488631666667","25.0509216666667","6500200","三重區"
"241014","543-UM","2018/08/30 20:32:49","新北市三重區長興街59號","121.501098333333","25.068885","6500200","三重區"
"241023","545-UM","2018/08/30 20:32:57","新北市三重區三民街206巷2號","121.480676666667","25.0667716666667","6500200","三重區"
"241001","547-UM","2018/08/30 20:32:42","新北市三重區福隆路2號","121.489436666667","25.0773133333333","6500200","三重區"
"241006","AAD-863","2018/08/30 20:32:46","新北市三重區車路頭街139巷14號","121.48434","25.0762083333333","6500200","三重區"
"241005","887-TS","2018/08/30 20:32:47","新北市三重區碧華街307號","121.490785","25.0840466666667","6500200","三重區"
"241012","941-UM","2018/08/30 20:32:48","新北市三重區龍門路276號","121.501796666667","25.0740283333333","6500200","三重區"
"241029","942-UM","2018/08/30 20:32:50","新北市三重區集美街126巷25號","121.490016666667","25.05378","6500200","三重區"
"241033","AAC-255","2018/08/30 20:32:57","新北市三重區五谷王北街80巷26號","121.475651666667","25.052745","6500200","三重區"
"247010","KEA-2869","2018/08/30 20:32:47","新北市蘆洲區信義路222巷51號","121.480685","25.0856766666667","6501400","蘆洲區"
"235069","4980-A6","2018/08/30 20:32:51","新北市中和區中正路460號","121.490245","24.9942883333333","6500300","中和區"
"235059","AAC-215","2018/08/30 20:32:56","新北市中和區員山路32-3號","121.481016666667","24.98746","6500300","中和區"
"247024","893-R6","2018/08/30 20:32:50","新北市蘆洲區光華路186巷85號","121.465415","25.08445","6501400","蘆洲區"
"247014","546-UM","2018/08/30 20:32:58","新北市蘆洲區中山二路61號","121.473558333333","25.0820016666667","6501400","蘆洲區"
"247022","500-BY","2018/08/30 20:32:44","新北市蘆洲區中正路223號","121.468186666667","25.0864066666667","6501400","蘆洲區"
"247012","339-TH","2018/08/30 20:32:49","新北市蘆洲區復興路283號","121.481485","25.0902683333333","6501400","蘆洲區"
"247004","337-TH","2018/08/30 20:32:38","新北市蘆洲區長安街297號","121.45803","25.084825","6501400","蘆洲區"
"247006","336-TH","2018/08/30 20:32:51","新北市蘆洲區光華路185號","121.464761666667","25.0817283333333","6501400","蘆洲區"
"247008","056-VK","2018/08/30 20:32:44","新北市蘆洲區永安北路二段46-1號","121.482716666667","25.0832066666667","6501400","蘆洲區"
"247016","007-UY","2018/08/30 20:32:49","新北市蘆洲區得勝街183號","121.470961666667","25.0826066666667","6501400","蘆洲區"
"247002","002-UY","2018/08/30 20:32:52","新北市蘆洲區長安街361巷14號","121.456435","25.087505","6501400","蘆洲區"
"247020","001-UY","2018/08/30 20:32:42","新北市蘆洲區仁愛街161巷33-1號","121.468766666667","25.094325","6501400","蘆洲區"
"222001","KEA-2212","2018/08/30 20:32:41","新北市深坑區北深路三段333號","121.59712","25.0041783333333","6501800","深坑區"
"251002","012-UM","2018/08/30 20:32:44","新北市淡水區中正路27號","121.442451666667","25.1696133333333","6501000","淡水區"
"251013","KEA-2871","2018/08/30 20:32:53","新北市淡水區後坑子6號","121.463943333333","25.2064383333333","6501000","淡水區"
"251016","179-VK","2018/08/30 20:32:42","新北市淡水區淡金路四段507號","121.451161666667","25.2283433333333","6501000","淡水區"
"251014","180-VK","2018/08/30 20:32:58","新北市淡水區桂竹圍3-12號","121.471263333333","25.2353583333333","6501000","淡水區"
"251015","181-VK","2018/08/30 20:32:51","新北市淡水區淡金路四段542巷17號","121.452736666667","25.227095","6501000","淡水區"
"251010","413-VK","2018/08/30 20:32:47","新北市淡水區沙崙路181巷1號","121.424016666667","25.18433","6501000","淡水區"
"251012","441-VK","2018/08/30 20:32:51","新北市淡水區興仁路108號","121.451673333333","25.2181533333333","6501000","淡水區"
"251001","559-UM","2018/08/30 20:32:44","新北市淡水區水源街二段189-2號","121.456493333333","25.1760733333333","6501000","淡水區"
"251006","561-UM","2018/08/30 20:32:54","新北市淡水區北投子23-6號","121.460388333333","25.1853666666667","6501000","淡水區"
"251007","577-R6","2018/08/30 20:32:40","新北市淡水區淡金路一段69號","121.458126666667","25.173515","6501000","淡水區"
"251003","766-UM","2018/08/30 20:32:40","新北市淡水區新民街64號","121.438783333333","25.1760833333333","6501000","淡水區"
"252002","178-VK","2018/08/30 20:32:52","新北市三芝區淡金路二段47-2號","121.503696666667","25.2605183333333","6502100","三芝區"
"252001","292-VK","2018/08/30 20:32:57","新北市三芝區中山路一段58號","121.501848333333","25.2566666666667","6502100","三芝區"
"242034","AAC-296","2018/08/30 20:32:52","新北市新莊區中正路260號","121.447738333333","25.0352766666667","6500500","新莊區"
"242053","751-BX","2018/08/30 20:32:53","新北市新莊區民安西路229巷3號","121.426438333333","25.0142766666667","6500500","新莊區"
"242058","705-TV","2018/08/30 20:32:45","新北市新莊區四維路135號","121.422793333333","25.022495","6500500","新莊區"
"242027","615-BX","2018/08/30 20:32:47","新北市新莊區思源路307號","121.459998333333","25.04892","6500500","新莊區"
"242025","613-BX","2018/08/30 20:32:50","新北市新莊區五工二路51號","121.460848333333","25.06524","6500500","新莊區"
"242042","566-BX","2018/08/30 20:32:49","新北市新莊區中正路694巷63號","121.417518333333","25.02937","6500500","新莊區"
"242046","497-BY","2018/08/30 20:32:54","新北市新莊區富國路22巷19號","121.418366666667","25.0257983333333","6500500","新莊區"
"242051","441-UM","2018/08/30 20:32:43","新北市新莊區民安西路189巷20號","121.426965","25.015325","6500500","新莊區"
"242056","440-UM","2018/08/30 20:32:46","新北市新莊區瓊泰路141號","121.44325","25.0307616666667","6500500","新莊區"
"242036","415-TV","2018/08/30 20:32:56","新北市新莊區後港一路56巷8號","121.426416666667","25.025825","6500500","新莊區"
"242007","413-TV","2018/08/30 20:32:48","新北市新莊區思源路287巷1弄78號","121.459331666667","25.0472183333333","6500500","新莊區"
"242044","400-BY","2018/08/30 20:32:55","新北市新莊區龍安路30號","121.414803333333","25.0220566666667","6500500","新莊區"
"242023","362-BY","2018/08/30 20:32:41","新北市新莊區化成路540-4號","121.46626","25.05346","6500500","新莊區"
"242061","353-BY","2018/08/30 20:32:55","新北市新莊區民全街12號","121.42905","25.0217583333333","6500500","新莊區"
"242009","132-UY","2018/08/30 20:32:51","新北市新莊區昌盛街81巷4弄2號","121.45552","25.05055","6500500","新莊區"
"242039","133-UY","2018/08/30 20:32:42","新北市新莊區民安西路26號","121.426823333333","25.0213466666667","6500500","新莊區"
"242031","135-UY","2018/08/30 20:33:00","新北市新莊區義豐街15巷10號","121.440528333333","25.0349483333333","6500500","新莊區"
"242048","172-VK","2018/08/30 20:32:40","新北市新莊區中正路871巷1號","121.4181","25.02707","6500500","新莊區"
"242017","175-VK","2018/08/30 20:32:53","新北市新莊區中港三街11號","121.451061666667","25.0464983333333","6500500","新莊區"
"242004","176-VK","2018/08/30 20:32:53","新北市新莊區化成路389巷20號","121.464413333333","25.058375","6500500","新莊區"
"242015","347-TH","2018/08/30 20:32:54","新北市新莊區中平路82巷16號","121.445513333333","25.044865","6500500","新莊區"
"242021","348-TH","2018/08/30 20:32:42","新北市新莊區公園路84號","121.450228333333","25.039885","6500500","新莊區"
"242002","349-TH","2018/08/30 20:33:01","新北市新莊區中正路育農巷1號","121.456933333333","25.0379166666667","6500500","新莊區"
"242019","350-TH","2018/08/30 20:32:41","新北市新莊區銘德街49巷4弄2號","121.457281666667","25.0431933333333","6500500","新莊區"
"221008","489-VK","2018/08/30 20:32:57","新北市汐止區康寧街397號","121.629401666667","25.067875","6501100","汐止區"
"221036","130-UY","2018/08/30 20:32:38","新北市汐止區新昌路9號","121.662025","25.067305","6501100","汐止區"
"221015","131-UY","2018/08/30 20:32:51","新北市汐止區建成路142巷19弄10號","121.662076666667","25.0739433333333","6501100","汐止區"
"221023","279-VK","2018/08/30 20:32:58","新北市汐止區湖東街21號","121.635481666667","25.0726266666667","6501100","汐止區"
"221032","280-BY","2018/08/30 20:32:42","新北市汐止區弘道街53巷22號","121.61878","25.04948","6501100","汐止區"
"221027","281-BY","2018/08/30 20:32:51","新北市汐止區中正路131號","121.660108333333","25.0693433333333","6501100","汐止區"
"221029","298-VK","2018/08/30 20:32:50","新北市汐止區大同路一段515巷6-1號","121.642643333333","25.0631033333333","6501100","汐止區"
"221031","353-TW","2018/08/30 20:32:54","新北市汐止區福德一路256號","121.633483333333","25.0647333333333","6501100","汐止區"
"221002","129-UY","2018/08/30 20:32:49","新北市汐止區福德二路69號","121.633763333333","25.066835","6501100","汐止區"
"221035","622-UM","2018/08/30 20:32:56","新北市汐止區長江街101-5號","121.658691666667","25.0730733333333","6501100","汐止區"
"221025","623-UM","2018/08/30 20:32:48","新北市汐止區水源路2段108-1號","121.65669","25.0554416666667","6501100","汐止區"
"221038","646-BX","2018/08/30 20:32:55","新北市汐止區復興路21號","121.655918333333","25.0649933333333","6501100","汐止區"
"221033","647-BX","2018/08/30 20:32:52","新北市汐止區林森街69巷1-1號","121.62302","25.0405983333333","6501100","汐止區"
"221018","753-BX","2018/08/30 20:32:45","新北市汐止區茄苳路225巷11弄30號","121.670703333333","25.0700066666667","6501100","汐止區"
"220083","286-VK","2018/08/30 20:32:54","新北市板橋區大觀路一段38巷156弄110-7號","121.44453","25.0075416666667","6500100","板橋區"
"242013","281-VK","2018/08/30 20:32:47","新北市新莊區中和街191巷71號","121.446646666667","25.0511883333333","6500500","新莊區"
"242011","280-VK","2018/08/30 20:32:39","新北市新莊區中信街72號","121.448113333333","25.05224","6500500","新莊區"
"220103","561-BX","2018/08/30 20:32:43","新北市板橋區漢生東路31號","121.465393333333","25.016975","6500100","板橋區"
"220070","AAC-253","2018/08/30 20:32:39","新北市五股區新五路三段6號","121.443831666667","25.0869683333333","6500100","板橋區"
