"lineid","car","time","location","longitude","latitude","cityid","cityname"
"241028","022-UY","2018/08/30 22:28:49","新北市五股區四維路2號","121.46786","25.06955","6500200","三重區"
"251010","413-VK","2018/08/30 22:28:47","新北市淡水區沙崙路200號","121.424686666667","25.183905","6501000","淡水區"
"251008","442-VK","2018/08/30 22:28:53","新北市淡水區學府路104號","121.449851666667","25.17185","6501000","淡水區"
"251004","443-VK","2018/08/30 22:28:53","新北市淡水區民族路33號","121.462231666667","25.1357716666667","6501000","淡水區"
"251007","577-R6","2018/08/30 22:28:40","新北市淡水區北新路186-3號","121.449548333333","25.1788016666667","6501000","淡水區"
"251011","650-BX","2018/08/30 22:28:57","新北市淡水區中山北路一段151號","121.443153333333","25.1772866666667","6501000","淡水區"
