"lineid","car","time","location","longitude","latitude","cityid","cityname"
"248005","653-BX","2018/08/31 06:58:55","新北市五股區中興路二段37巷26號","121.460398333333","25.0749116666667","6501500","五股區"
"232003","290-BY","2018/08/31 06:59:02","新北市坪林區大粗坑27-5號","121.708578333333","24.9618983333333","6502000","坪林區"
"232015","291-BY","2018/08/31 06:58:55","新北市坪林區灣潭5-1號","121.675261666667","24.9320166666667","6502000","坪林區"
"232019","705-BZ","2018/08/31 06:59:03","新北市坪林區坪雙路一段126號","121.737405","24.9534283333333","6502000","坪林區"
"232008","758-BX","2018/08/31 06:59:01","新北市坪林區鶯子瀨2-10號","121.707845","24.9131666666667","6502000","坪林區"
"244004","248-BX","2018/08/31 06:59:05","新北市林口區文化一路二段202號","121.383225","25.08081","6501700","林口區"
"235001","611-BX","2018/08/31 06:59:04","新北市中和區圓通路367巷6號","121.49152","24.98925","6500300","中和區"
"226006","AGD-0702","2018/08/31 06:59:12","新北市平溪區石底里公園街18-3號","121.73363","25.0255666666667","6502400","平溪區"
"223006","022-BY","2018/08/31 06:59:00","新北市石碇區靜安路一段108號","121.649245","25.009095","6501900","石碇區"
"223002","KEA-2673","2018/08/31 06:59:02","新北市石碇區半路店5號","121.645198333333","24.964105","6501900","石碇區"
"223003","205-TH","2018/08/31 06:58:55","新北市石碇區石碇東街46號","121.659691666667","24.9909716666667","6501900","石碇區"
"223008","406-TH","2018/08/31 06:59:02","新北市石碇區雙溪43號","121.651591666667","25.0076183333333","6501900","石碇區"
"223001","592-UM","2018/08/31 06:59:07","新北市石碇區石碇東街46號","121.659561666667","24.99097","6501900","石碇區"
"223004","660-BX","2018/08/31 06:59:07","新北市石碇區碇坪路一段52號","121.656891666667","24.9913783333333","6501900","石碇區"
"223007","661-BX","2018/08/31 06:59:03","新北市石碇區雙溪84-1號","121.661356666667","25.0088566666667","6501900","石碇區"
"223005","677-TV","2018/08/31 06:59:06","新北市石碇區碇坪路一段60號","121.657148333333","24.99153","6501900","石碇區"
"227005","282-VK","2018/08/31 06:59:01","新北市雙溪區新基里自強路5號","121.866313333333","25.0390516666667","6502500","雙溪區"
"252003","249-BX","2018/08/31 06:59:06","新北市三芝區中山路二段50號","121.503128333333","25.2542716666667","6502100","三芝區"
