"lineid","car","time","location","longitude","latitude","cityid","cityname"
"248005","653-BX","2018/04/30 07:19:29","新北市五股區明德路12巷3號","121.433276666667","25.07182","6501500","五股區"
"248003","655-BX","2018/04/30 07:19:32","新北市五股區中興路二段11號","121.462843333333","25.0741266666667","6501500","五股區"
"232001","290-BY","2018/04/30 07:19:40","新北市坪林區桶盤嶼10-1號","121.706596666667","24.958395","6502000","坪林區"
"232012","291-BY","2018/04/30 07:19:31","新北市坪林區仁里13號","121.686653333333","24.9288833333333","6502000","坪林區"
"232010","375-UM","2018/04/30 07:19:28","新北市坪林區水聳淒坑7-1號","121.724833333333","24.9268033333333","6502000","坪林區"
"232017","705-BZ","2018/04/30 07:19:35","新北市坪林區九芎坑3-5號","121.725963333333","24.96444","6502000","坪林區"
"232005","758-BX","2018/04/30 07:19:26","新北市坪林區魚堀51號","121.704595","24.9319916666667","6502000","坪林區"
"244001","248-BX","2018/04/30 07:19:40","新北市林口區頂福里73-2號","121.34127","25.0933116666667","6501700","林口區"
"235001","611-BX","2018/04/30 07:19:46","新北市中和區圓通路367巷4號","121.491378333333","24.9892533333333","6500300","中和區"
"226005","5620-A6","2018/04/30 07:17:54","新北市平溪區菁桐里二坑路1號","121.721186666667","25.0242783333333","6502400","平溪區"
"226001","7418-A5","2018/04/30 07:18:27","新北市平溪區望古里灰4-2號","121.763073333333","25.0296066666667","6502400","平溪區"
"226003","AGD-0702","2018/04/30 07:19:39","新北市平溪區嶺腳里嶺腳寮66號","121.747833333333","25.0314833333333","6502400","平溪區"
"223006","022-BY","2018/04/30 07:19:36","新北市石碇區碇坪路一段10號","121.651628333333","25.0060316666667","6501900","石碇區"
"223002","KEA-2673","2018/04/30 07:19:38","新北市石碇區北宜路五段58號","121.633911666667","24.95318","6501900","石碇區"
"223001","205-TH","2018/04/30 07:15:31","新北市石碇區烏塗窟8-3號","121.655781666667","24.97524","6501900","石碇區"
"223008","406-TH","2018/04/30 07:19:43","新北市石碇區番子坑36號","121.6781","25.0100766666667","6501900","石碇區"
"223001","592-UM","2018/04/30 07:19:41","新北市石碇區蓬菜寮7-2號","121.652853333333","24.9744083333333","6501900","石碇區"
"223004","660-BX","2018/04/30 07:19:37","新北市石碇區新興坑4號","121.653565","25.01682","6501900","石碇區"
"223007","661-BX","2018/04/30 07:19:28","新北市石碇區蚯蚓坑11-10號","121.689986666667","25.0061333333333","6501900","石碇區"
"223005","677-TV","2018/04/30 07:19:28","新北市石碇區靜安路一段108號","121.649488333333","25.0090266666667","6501900","石碇區"
"227005","282-VK","2018/04/30 07:19:37","新北市雙溪區新基里自強路7號","121.866255","25.03906","6502500","雙溪區"
"252006","073-UM","2018/04/30 07:19:20","新北市三芝區錫板里海尾29-1號","121.487543333333","25.2539933333333","6502100","三芝區"
"252002","178-VK","2018/04/30 07:19:40","新北市三芝區中正路二段48-1號","121.503223333333","25.25442","6502100","三芝區"
"252004","249-BX","2018/04/30 07:19:37","新北市三芝區福德里大湖8-5號","121.500956666667","25.22763","6502100","三芝區"
"237001","159-UY","2018/04/30 07:19:32","新北市三峽區中山路459巷66號","121.355551666667","24.93638","6500900","三峽區"
"236007","165-UM","2018/04/30 07:19:28","新北市板橋區信義路152號","121.459095","24.991715","6501300","土城區"
"236001","339-SR","2018/04/30 07:19:42","新北市土城區和平路38-17號","121.447545","24.9692733333333","6501300","土城區"
"242052","751-BX","2018/04/30 07:19:27","新北市新莊區新泰路357巷3弄57號","121.442255","25.0392266666667","6500500","新莊區"
"220070","282-UM","2018/04/30 07:19:28","新北市板橋區國光路51號","121.458096666667","25.0179816666667","6500100","板橋區"
