"lineid","car","time","location","longitude","latitude","cityid","cityname"
"248005","653-BX","2018/04/02 09:39:24","新北市五股區成泰路一段87號","121.434641666667","25.06879","6501500","五股區"
"244012","069-UM","2018/04/02 09:39:39","新北市林口區麗園一街11巷7號","121.378221666667","25.07053","6501700","林口區"
"244008","410-SL","2018/04/02 09:39:28","新北市林口區竹林路446巷2弄2號","121.387831666667","25.0854933333333","6501700","林口區"
"244022","483-VK","2018/04/02 09:39:37","新北市林口區文化三路二段211巷79號","121.374873333333","25.08387","6501700","林口區"
"244018","657-BX","2018/04/02 09:39:27","新北市林口區忠孝路648號","121.3791","25.0685166666667","6501700","林口區"
"222005","289-BY","2018/04/02 09:39:28","新北市深坑區昇高坑路30號","121.627101666667","25.0001833333333","6501800","深坑區"
"231007","189-VK","2018/04/02 09:39:32","新北市新店區新潭路三段215巷25號","121.508165","24.9040683333333","6500600","新店區"
"231008","192-VK","2018/04/02 09:39:34","新北市新店區平廣路一段83號","121.531056666667","24.8989633333333","6500600","新店區"
"223001","205-TH","2018/04/02 09:39:36","新北市石碇區北宜路四段26號","121.623155","24.9578966666667","6501900","石碇區"
"223008","406-TH","2018/04/02 09:39:28","新北市石碇區小粗坑(潭邊里)15-8號","121.686621666667","24.9845283333333","6501900","石碇區"
"223001","592-UM","2018/04/02 09:39:24","新北市石碇區北宜路四段18-1號","121.619451666667","24.9592","6501900","石碇區"
"223007","661-BX","2018/04/02 09:36:38","新北市石碇區小粗坑(潭邊里)15-8號","121.688376666667","24.98662","6501900","石碇區"
"223005","677-TV","2018/04/02 09:39:36","新北市石碇區小粗坑(潭邊里)3-6號","121.6744","24.98325","6501900","石碇區"
"227005","282-VK","2018/04/02 09:32:21","新北市雙溪區泰平里溪尾寮1號","121.820966666667","24.96022","6502500","雙溪區"
"252004","249-BX","2018/04/02 09:39:21","新北市三芝區店子里店子112-4號","121.510498333333","25.2096333333333","6502100","三芝區"
"252006","AAC-283","2018/04/02 09:39:26","新北市三芝區新庄里新庄子95-29號","121.512365","25.2730033333333","6502100","三芝區"
"237001","159-UY","2018/04/02 09:39:22","新北市三峽區學勤路97號","121.37465","24.9461783333333","6500900","三峽區"
"236005","498-BY","2018/04/02 09:39:31","新北市土城區千歲路13號","121.44102","24.9696066666667","6501300","土城區"
"242033","AAC-296","2018/04/02 09:39:35","新北市新莊區中正路293號","121.44861","25.0351666666667","6500500","新莊區"
"242052","751-BX","2018/04/02 09:39:25","新北市新莊區新樹路334號","121.432896666667","25.0038116666667","6500500","新莊區"
"242057","705-TV","2018/04/02 09:39:35","新北市新莊區四維路139號","121.422778333333","25.02233","6500500","新莊區"
"242024","613-BX","2018/04/02 09:35:58","新北市泰山區泰林路一段4號","121.44223","25.0483233333333","6500500","新莊區"
"242055","440-UM","2018/04/02 09:39:36","新北市新莊區瓊泰路80巷45號","121.445008333333","25.0291916666667","6500500","新莊區"
"242043","400-BY","2018/04/02 09:39:41","新北市新莊區中正路新建巷28弄73號","121.413683333333","25.021165","6500500","新莊區"
"242059","353-BY","2018/04/02 09:39:29","新北市新莊區新樹路258巷3號","121.43212","25.0155816666667","6500500","新莊區"
"242030","135-UY","2018/04/02 09:39:25","新北市新莊區三和路13-20號","121.440713333333","25.0366716666667","6500500","新莊區"
"242047","172-VK","2018/04/02 09:39:22","新北市新莊區新樹路613號","121.435778333333","25.0036066666667","6500500","新莊區"
"242003","176-VK","2018/04/02 09:39:24","新北市新莊區化成路766號","121.465233333333","25.0587816666667","6500500","新莊區"
"242001","349-TH","2018/04/02 09:39:29","新北市新莊區瓊泰路85號","121.442991666667","25.0294983333333","6500500","新莊區"
