"lineid","car","time","location","longitude","latitude","cityid","cityname"
"248005","653-BX","2018/04/02 09:49:24","新北市五股區成泰路一段7巷2號","121.433466666667","25.0666566666667","6501500","五股區"
"244012","069-UM","2018/04/02 09:49:40","新北市林口區麗園一街3號","121.375928333333","25.072155","6501700","林口區"
"244022","483-VK","2018/04/02 09:49:17","新北市林口區民權路10-3號","121.371593333333","25.0798583333333","6501700","林口區"
"244018","657-BX","2018/04/02 09:49:27","新北市林口區麗園二街47巷37號","121.382175","25.0696216666667","6501700","林口區"
"222005","289-BY","2018/04/02 09:49:28","新北市深坑區平埔街22巷17弄1號","121.614771666667","25.00086","6501800","深坑區"
"231007","189-VK","2018/04/02 09:49:32","新北市新店區新潭路三段215巷25號","121.508178333333","24.9040366666667","6500600","新店區"
"231008","192-VK","2018/04/02 09:48:14","新北市新店區平廣路一段185號","121.517275","24.8888966666667","6500600","新店區"
"223001","205-TH","2018/04/02 09:49:36","新北市石碇區二格路10號","121.625006666667","24.96294","6501900","石碇區"
"227005","282-VK","2018/04/02 09:32:21","新北市雙溪區泰平里溪尾寮1號","121.820966666667","24.96022","6502500","雙溪區"
"252004","249-BX","2018/04/02 09:49:41","新北市三芝區福德里大水堀21號","121.512313333333","25.2200116666667","6502100","三芝區"
"252006","AAC-283","2018/04/02 09:49:26","新北市三芝區新庄里新庄子51-13號","121.507375","25.2771333333333","6502100","三芝區"
"237001","159-UY","2018/04/02 09:49:22","新北市三峽區大觀路80號","121.37415","24.9460833333333","6500900","三峽區"
"236005","498-BY","2018/04/02 09:49:31","新北市土城區中華路二段243號","121.437585","24.9723983333333","6501300","土城區"
"242033","AAC-296","2018/04/02 09:49:35","新北市新莊區環漢路三段1號","121.442641666667","25.0245433333333","6500500","新莊區"
"242052","751-BX","2018/04/02 09:48:56","新北市樹林區八德街395號","121.415361666667","24.97138","6500500","新莊區"
"242057","705-TV","2018/04/02 09:49:27","新北市新莊區民安路138號","121.4242","25.0253383333333","6500500","新莊區"
"242043","400-BY","2018/04/02 09:49:28","新北市新莊區中正路891-45號","121.413763333333","25.0229","6500500","新莊區"
"242030","135-UY","2018/04/02 09:49:25","新北市新莊區中正路508巷2號","121.436021666667","25.0331983333333","6500500","新莊區"
