"lineid","car","time","location","longitude","latitude","cityid","cityname"
"248005","653-BX","2018/04/02 10:09:24","新北市五股區蓬萊路6巷10號","121.435788333333","25.0799133333333","6501500","五股區"
"244022","483-VK","2018/04/02 10:09:37","新北市林口區文化三路一段555巷91號","121.369246666667","25.0772216666667","6501700","林口區"
"244018","657-BX","2018/04/02 10:09:27","新北市林口區忠孝路603號","121.378341666667","25.0685916666667","6501700","林口區"
"231007","189-VK","2018/04/02 10:09:32","新北市新店區新潭路三段215巷25號","121.508206666667","24.904045","6500600","新店區"
"231008","192-VK","2018/04/02 10:09:34","新北市新店區平廣路一段111號","121.528366666667","24.8959933333333","6500600","新店區"
"223001","205-TH","2018/04/02 10:09:36","新北市石碇區碇格路二段17號","121.639353333333","24.95547","6501900","石碇區"
"227005","282-VK","2018/04/02 10:02:41","新北市雙溪區泰平里灣潭路36號","121.813543333333","24.928905","6502500","雙溪區"
"252004","249-BX","2018/04/02 10:09:21","新北市三芝區福德里埔尾17號","121.50461","25.244105","6502100","三芝區"
"252006","AAC-283","2018/04/02 10:09:26","新北市三芝區古庄里茂興店77號","121.492993333333","25.2669516666667","6502100","三芝區"
"237001","159-UY","2018/04/02 10:09:22","新北市三峽區國際二街61號","121.37122","24.9425783333333","6500900","三峽區"
"236005","498-BY","2018/04/02 10:09:31","新北市土城區自強街33號","121.432425","24.9729816666667","6501300","土城區"
