"lineid","car","time","location","longitude","latitude","cityid","cityname"
"248005","653-BX","2018/04/02 10:29:24","新北市五股區中興路二段57-6號","121.460421666667","25.0755616666667","6501500","五股區"
"244022","483-VK","2018/04/02 10:29:37","新北市林口區文林四街33巷7號","121.374045","25.085365","6501700","林口區"
"231007","189-VK","2018/04/02 10:29:32","新北市新店區新潭路三段131號","121.511268333333","24.9107116666667","6500600","新店區"
"231008","192-VK","2018/04/02 10:27:34","新北市新店區小坑一路73巷6號","121.530448333333","24.9083483333333","6500600","新店區"
"227005","282-VK","2018/04/02 10:02:41","新北市雙溪區泰平里灣潭路36號","121.813543333333","24.928905","6502500","雙溪區"
"237001","159-UY","2018/04/02 10:29:42","新北市三峽區大義路261號","121.377371666667","24.9466783333333","6500900","三峽區"
"236005","498-BY","2018/04/02 10:29:11","新北市土城區中央路三段260號","121.427218333333","24.963805","6501300","土城區"
