"lineid","car","time","location","longitude","latitude","cityid","cityname"
"244023","483-VK","2018/04/02 12:01:59","新北市林口區粉寮69號","121.405088333333","25.0908416666667","6501700","林口區"
"243004","AAD-798","2018/04/02 12:06:38","新北市泰山區黎明路25號","121.422048333333","25.0608516666667","6501600","泰山區"
"231008","192-VK","2018/04/02 12:09:34","新北市新店區新烏路161號","121.545588333333","24.932595","6500600","新店區"
"231013","513-UM","2018/04/02 11:41:43","新北市新店區安華路28-1號","121.519706666667","24.961025","6500600","新店區"
"227005","282-VK","2018/04/02 12:09:20","新北市雙溪區三貂里定福路1-2號","121.850761666667","25.0634283333333","6502500","雙溪區"
