"lineid","car","time","location","longitude","latitude","cityid","cityname"
"234044","148-BY","2018/04/02 13:09:23","新北市永和區永元路18巷31號","121.523721666667","25.0002733333333","6500400","永和區"
"234068","149-BY","2018/04/02 13:09:37","新北市永和區豫溪街95巷8號","121.518153333333","25.0107883333333","6500400","永和區"
"234005","207-UY","2018/04/02 13:09:38","新北市永和區中山路一段175-1號","121.50954","25.0090766666667","6500400","永和區"
"234078","298-R6","2018/04/02 13:09:39","新北市永和區永貞路39巷9弄1號","121.521936666667","25.0066033333333","6500400","永和區"
"234036","336-UY","2018/04/02 13:09:38","新北市永和區民樂街71巷2號","121.527415","24.997375","6500400","永和區"
"234062","337-UY","2018/04/02 13:09:44","新北市永和區秀朗路二段43號","121.521481666667","25.002425","6500400","永和區"
"234084","338-UY","2018/04/02 13:09:29","新北市永和區永貞路90號","121.519433333333","25.0045483333333","6500400","永和區"
"234015","745-BX","2018/04/02 13:09:30","新北市永和區文化路90巷15弄1號","121.51378","25.0158933333333","6500400","永和區"
"234028","746-BX","2018/04/02 13:09:27","新北市永和區民生路27號","121.52301","24.9985066666667","6500400","永和區"
"234052","KEA-2590","2018/04/02 13:09:37","新北市永和區中興街133巷8號","121.518733333333","25.0126783333333","6500400","永和區"
"234012","KEA-2591","2018/04/02 13:09:29","新北市永和區保福路二段48號","121.510996666667","25.0121233333333","6500400","永和區"
"234060","AAD-866","2018/04/02 13:09:37","新北市永和區安樂路330號","121.51447","25.0058433333333","6500400","永和區"
"234040","862-TW","2018/04/02 13:09:35","新北市永和區保平路113號","121.510953333333","25.0066183333333","6500400","永和區"
"234048","863-TW","2018/04/02 13:09:34","新北市永和區仁愛路104巷7弄62號","121.510886666667","25.0141566666667","6500400","永和區"
"234025","9371-KE","2018/04/02 13:09:28","新北市永和區秀朗路一段10巷21號","121.513385","25.0062483333333","6500400","永和區"
"234010","9373-KE","2018/04/02 13:09:39","新北市永和區永和路二段231巷19號","121.514706666667","25.0140016666667","6500400","永和區"
"248015","026-BX","2018/04/02 13:09:31","新北市五股區新五路三段2號","121.444486666667","25.088305","6501500","五股區"
"248005","077-UY","2018/04/02 13:09:24","新北市五股區中興路二段82號","121.460851666667","25.07736","6501500","五股區"
"248007","095-VK","2018/04/02 13:09:38","新北市蘆洲區永安南路二段292號","121.45733","25.081745","6501500","五股區"
"248019","225-UY","2018/04/02 13:09:41","新北市五股區成泰路三段544-1號","121.455163333333","25.10092","6501500","五股區"
"248011","247-BX","2018/04/02 13:09:37","新北市五股區新五路二段258號","121.440778333333","25.0823216666667","6501500","五股區"
"248013","261-SL","2018/04/02 13:09:31","新北市五股區成泰路一段191號","121.434835","25.07655","6501500","五股區"
"248003","677-BX","2018/04/02 13:09:24","新北市五股區中興路四段38巷11-2號","121.439176666667","25.0838183333333","6501500","五股區"
"248009","682-TV","2018/04/02 13:09:35","新北市五股區成泰路一段189巷28-1號","121.433131666667","25.0769833333333","6501500","五股區"
"234022","9380-KE","2018/04/02 13:09:27","新北市永和區竹林路72巷2號","121.518983333333","25.0130033333333","6500400","永和區"
"234076","969-R7","2018/04/02 13:09:26","新北市永和區民光街9號","121.51545","24.9962383333333","6500400","永和區"
"234072","AAC-211","2018/04/02 13:09:37","新北市永和區竹林路198號","121.520526666667","25.0096183333333","6500400","永和區"
"234066","AAC-212","2018/04/02 13:09:41","新北市永和區保平路30巷2號","121.511983333333","25.007275","6500400","永和區"
"234001","AAC-295","2018/04/02 13:09:34","新北市永和區中山路一段138-1號","121.51015","25.009805","6500400","永和區"
"244001","248-BX","2018/04/02 13:09:38","新北市林口區頂福里6鄰32號","121.36282","25.0958716666667","6501700","林口區"
"243005","646-TV","2018/04/02 13:09:26","新北市泰山區南林路99巷1-1號","121.415345","25.0511716666667","6501600","泰山區"
"231002","002-UM","2018/04/02 13:09:29","新北市新店區安華路28-1號","121.519575","24.9608683333333","6500600","新店區"
"231038","0291-UT","2018/04/02 13:09:39","新北市新店區安華路28-1號","121.519418333333","24.9605716666667","6500600","新店區"
"231027","0293-UT","2018/04/02 13:09:33","新北市新店區安華路30巷1號","121.519486666667","24.9597033333333","6500600","新店區"
"231028","046-UY","2018/04/02 13:09:44","新北市新店區安華路28-1號","121.519628333333","24.9607283333333","6500600","新店區"
"231001","047-UY","2018/04/02 13:09:36","新北市新店區安華路28-1號","121.519156666667","24.9609233333333","6500600","新店區"
"231005","106-UY","2018/04/02 13:09:36","新北市新店區安華路28-1號","121.519578333333","24.960875","6500600","新店區"
"231019","108-UY","2018/04/02 13:09:37","新北市新店區安華路28-1號","121.5195","24.9612616666667","6500600","新店區"
"231011","187-VK","2018/04/02 13:09:31","新北市新店區安華路28-1號","121.519575","24.9611433333333","6500600","新店區"
"231010","188-VK","2018/04/02 13:09:37","新北市新店區安華路30巷1號","121.519476666667","24.9595966666667","6500600","新店區"
"231023","KEA-2219","2018/04/02 13:09:38","新北市新店區安華路28-1號","121.519701666667","24.9613433333333","6500600","新店區"
"231026","256-BX","2018/04/02 13:09:41","新北市新店區安華路28-1號","121.519641666667","24.96111","6500600","新店區"
"231014","260-TV","2018/04/02 13:09:41","新北市新店區安華路28-1號","121.519633333333","24.9612583333333","6500600","新店區"
"231003","268-BY","2018/04/02 13:09:27","新北市新店區安華路28-1號","121.519316666667","24.96064","6500600","新店區"
"231018","278-BY","2018/04/02 13:09:40","新北市新店區安華路28-1號","121.519556666667","24.96115","6500600","新店區"
"231025","4715-K9","2018/04/02 13:09:33","新北市新店區安康路一段214號","121.524036666667","24.96352","6500600","新店區"
"231036","512-UM","2018/04/02 13:09:39","新北市新店區車子路115-11號","121.507493333333","24.954715","6500600","新店區"
"231013","513-UM","2018/04/02 13:09:31","新北市新店區安華路28-1號","121.519646666667","24.96129","6500600","新店區"
"231030","619-UM","2018/04/02 13:09:27","新北市新店區安華路28-1號","121.519516666667","24.96088","6500600","新店區"
"231034","641-BX","2018/04/02 13:09:28","新北市新店區安華路28-1號","121.519575","24.96058","6500600","新店區"
"231035","719-UY","2018/04/02 13:09:28","新北市新店區安華路28-1號","121.519588333333","24.9611816666667","6500600","新店區"
"231031","720-UM","2018/04/02 13:09:39","新北市新店區安華路28-1號","121.519341666667","24.9613866666667","6500600","新店區"
"231029","897-TW","2018/04/02 13:09:32","新北市新店區安華路28-1號","121.519521666667","24.960825","6500600","新店區"
"231006","898-TW","2018/04/02 13:09:33","新北市新店區安華路28-1號","121.51941","24.9608533333333","6500600","新店區"
"231004","899-TW","2018/04/02 13:09:21","新北市新店區安華路28-1號","121.51928","24.9609383333333","6500600","新店區"
"231024","AKT-0513","2018/04/02 13:09:29","新北市新店區安華路28-1號","121.519455","24.9606116666667","6500600","新店區"
"235030","003-UY","2018/04/02 13:09:32","新北市中和區中和路119號","121.501655","25.0002283333333","6500300","中和區"
"235028","005-UY","2018/04/02 13:09:28","新北市中和區中正路277號","121.49531","24.9937916666667","6500300","中和區"
"235027","006-UY","2018/04/02 13:09:36","新北市中和區員山路36巷16-3號","121.485038333333","24.9913033333333","6500300","中和區"
"235020","096-UM","2018/04/02 13:09:37","新北市中和區員山路36巷13號","121.484275","24.9916316666667","6500300","中和區"
"235029","098-UM","2018/04/02 13:09:33","新北市中和區莊敬路49巷20弄22號","121.502723333333","25.0058833333333","6500300","中和區"
"235004","150-BY","2018/04/02 13:09:22","新北市中和區和城路一段271巷1號","121.48581","24.992145","6500300","中和區"
"235022","151-BY","2018/04/02 13:09:44","新北市中和區圓通路367巷61弄2號","121.49177","24.9832266666667","6500300","中和區"
"235002","185-VK","2018/04/02 13:09:39","新北市中和區大智街15號","121.519866666667","24.9919133333333","6500300","中和區"
"235031","255-BX","2018/04/02 13:09:41","新北市中和區中正路831號","121.48474","25.0020366666667","6500300","中和區"
"235036","301-VK","2018/04/02 13:09:23","新北市中和區員山路36巷13號","121.484006666667","24.9910833333333","6500300","中和區"
"235032","377-QA","2018/04/02 13:09:34","新北市中和區員山路36巷16-3號","121.484928333333","24.99129","6500300","中和區"
"235006","551-UM","2018/04/02 13:09:23","新北市中和區圓通路208號","121.4959","24.9939033333333","6500300","中和區"
"235034","558-UM","2018/04/02 13:09:38","新北市中和區錦和路350-1號","121.490478333333","24.99362","6500300","中和區"
"235009","565-BX","2018/04/02 13:09:16","新北市中和區員山路36巷13號","121.484206666667","24.9910433333333","6500300","中和區"
"235001","611-BX","2018/04/02 13:09:36","新北市板橋區長安街138巷7弄66號","121.474421666667","25.0092733333333","6500300","中和區"
"235018","640-BX","2018/04/02 13:09:39","新北市中和區民享街468-1號","121.469401666667","24.9924816666667","6500300","中和區"
"235011","732-UM","2018/04/02 13:09:26","新北市中和區中正路637巷60弄61號","121.485471666667","24.9931216666667","6500300","中和區"
"235035","783-BX","2018/04/02 13:09:44","新北市中和區板南路448-1號","121.489626666667","25.0053116666667","6500300","中和區"
"235026","800-TS","2018/04/02 13:09:35","新北市中和區建康路101號","121.488108333333","25.0003966666667","6500300","中和區"
"235021","801-TS","2018/04/02 13:09:35","新北市中和區員山路36巷16-3號","121.484895","24.9917","6500300","中和區"
"235005","802-TS","2018/04/02 13:09:25","新北市中和區中正路501號","121.488811666667","24.9936033333333","6500300","中和區"
"235017","900-TW","2018/04/02 13:09:35","新北市中和區員山路36巷16-2號","121.485008333333","24.99189","6500300","中和區"
"235024","911-UM","2018/04/02 13:09:38","新北市中和區員山路36巷16-3號","121.484763333333","24.9916833333333","6500300","中和區"
"235015","157-BY","2018/04/02 13:09:27","新北市中和區板南路100號","121.50386","24.9924733333333","6500300","中和區"
"235001","AAC-213","2018/04/02 13:09:37","新北市中和區景平路149號","121.51397","24.9921366666667","6500300","中和區"
"220004","015-TV","2018/04/02 13:09:23","新北市板橋區華東街1-10號","121.448713333333","24.9950616666667","6500100","板橋區"
"235003","251-BX","2018/04/02 13:09:38","新北市中和區中正路637巷52弄1號","121.485478333333","24.9934183333333","6500300","中和區"
"253003","6232-TK","2018/04/02 13:09:26","新北市石門區石崩山27-2號","121.564835","25.279955","6502200","石門區"
"253001","6251-TK","2018/04/02 13:09:37","新北市石門區公地49號","121.545385","25.2897083333333","6502200","石門區"
"253002","637-UY","2018/04/02 13:09:28","新北市石門區老崩山36號","121.55708","25.27374","6502200","石門區"
"253004","8270-PC","2018/04/02 13:09:26","新北市石門區阿里荖33-1號","121.606716666667","25.28105","6502200","石門區"
"207002","749-BX","2018/04/02 13:09:31","新北市萬里區崁腳里內崁路9號","121.644501666667","25.1591683333333","6502800","萬里區"
"252005","073-UM","2018/04/02 13:09:34","新北市三芝區埔坪里埔頭坑164-1號","121.50802","25.2480233333333","6502100","三芝區"
"207001","662-BX","2018/04/02 13:09:37","新北市萬里區萬里里瑪鋉路145-1號","121.689586666667","25.1778883333333","6502800","萬里區"
"236005","498-BY","2018/04/02 13:09:23","新北市土城區亞洲路58巷3弄2號","121.434718333333","24.9736883333333","6501300","土城區"
"221032","280-BY","2018/04/02 13:09:25","新北市汐止區大同路二段559號","121.662661666667","25.0697566666667","6501100","汐止區"
