"lineid","car","time","location","longitude","latitude","cityid","cityname"
"234044","148-BY","2018/04/02 13:49:43","新北市永和區永利路135號","121.52406","25.0032983333333","6500400","永和區"
"234068","149-BY","2018/04/02 13:49:37","新北市永和區竹林路88號","121.519468333333","25.01256","6500400","永和區"
"234005","207-UY","2018/04/02 13:49:38","新北市永和區永和路一段6號","121.512881666667","25.0045466666667","6500400","永和區"
"234078","298-R6","2018/04/02 13:49:33","新北市永和區國中路2-1號","121.5241","25.0042916666667","6500400","永和區"
"234036","336-UY","2018/04/02 13:49:38","新北市永和區民樂街57巷8號","121.528113333333","24.9984883333333","6500400","永和區"
"234062","337-UY","2018/04/02 13:49:38","新北市永和區中正路368巷31號","121.518723333333","25.0008016666667","6500400","永和區"
"234084","338-UY","2018/04/02 13:49:29","新北市永和區永利路6-1號","121.517566666667","25.0059516666667","6500400","永和區"
"234015","745-BX","2018/04/02 13:49:30","新北市永和區文化路7號","121.515468333333","25.0149833333333","6500400","永和區"
"234028","746-BX","2018/04/02 13:49:47","新北市永和區民生路47巷11號","121.523398333333","24.9977883333333","6500400","永和區"
"234052","KEA-2590","2018/04/02 13:49:28","新北市永和區竹林路75巷25弄8號","121.520135","25.01445","6500400","永和區"
"234012","KEA-2591","2018/04/02 13:49:49","新北市永和區永平路286-1號","121.507626666667","25.0120183333333","6500400","永和區"
"234060","AAD-866","2018/04/02 13:49:43","新北市永和區中正路382號","121.517606666667","25.0013116666667","6500400","永和區"
"234040","862-TW","2018/04/02 13:49:35","新北市永和區中和路389巷8號","121.508093333333","25.0009566666667","6500400","永和區"
"234048","863-TW","2018/04/02 13:49:34","新北市永和區保安路77號","121.508606666667","25.0149","6500400","永和區"
"234010","9373-KE","2018/04/02 13:49:39","新北市永和區保安路292號","121.505046666667","25.0117433333333","6500400","永和區"
"248015","026-BX","2018/04/02 13:49:31","新北市五股區凌雲路一段83巷21號","121.448886666667","25.1010816666667","6501500","五股區"
"248007","095-VK","2018/04/02 13:49:38","新北市五股區中興路一段153號","121.465016666667","25.07345","6501500","五股區"
"248019","225-UY","2018/04/02 13:49:41","新北市五股區凌雲路三段35-1號","121.430441666667","25.1167116666667","6501500","五股區"
"248011","247-BX","2018/04/02 13:49:38","新北市五股區成泰路二段195巷1號","121.44045","25.087395","6501500","五股區"
"248003","677-BX","2018/04/02 13:49:44","新北市五股區民義路二段22巷2號","121.420143333333","25.0969133333333","6501500","五股區"
"248001","678-BX","2018/04/02 13:49:35","新北市五股區成泰路三段454號","121.451415","25.1004133333333","6501500","五股區"
"248009","682-TV","2018/04/02 13:49:35","新北市五股區水碓七路22號","121.428743333333","25.0715583333333","6501500","五股區"
"234076","969-R7","2018/04/02 13:49:45","新北市永和區民權路34號","121.520013333333","24.99896","6500400","永和區"
"234072","AAC-211","2018/04/02 13:49:37","新北市永和區豫溪街189巷1號","121.522588333333","25.0102616666667","6500400","永和區"
"234066","AAC-212","2018/04/02 13:49:42","新北市永和區永貞路355巷24號","121.50866","25.0072766666667","6500400","永和區"
"234001","AAC-295","2018/04/02 13:49:34","新北市永和區自由街71號","121.513388333333","25.0052116666667","6500400","永和區"
"244001","248-BX","2018/04/02 13:49:38","新北市林口區太平里181號","121.365351666667","25.1351","6501700","林口區"
"243004","AAD-798","2018/04/02 13:49:47","新北市泰山區泰林路二段73巷29號","121.434416666667","25.0578333333333","6501600","泰山區"
"243007","380-SR","2018/04/02 13:49:46","新北市泰山區美寧街50號","121.430643333333","25.064435","6501600","泰山區"
"243006","421-VK","2018/04/02 13:49:37","新北市泰山區犁頭窠3-1號","121.422186666667","25.0605983333333","6501600","泰山區"
"243008","539-UM","2018/04/02 13:49:27","新北市泰山區明志路一段452號","121.430663333333","25.0558033333333","6501600","泰山區"
"243002","KEA-2215","2018/04/02 13:49:29","新北市泰山區辭修路30號","121.428955","25.0581366666667","6501600","泰山區"
"243005","646-TV","2018/04/02 13:49:46","新北市泰山區明志路三段206巷3號","121.423256666667","25.0379433333333","6501600","泰山區"
"231002","002-UM","2018/04/02 13:49:29","新北市新店區溪園路393號","121.524225","24.9790966666667","6500600","新店區"
"231038","0291-UT","2018/04/02 13:49:39","新北市新店區安康路一段321巷5號","121.521741666667","24.9627083333333","6500600","新店區"
"231027","0293-UT","2018/04/02 13:49:50","新北市新店區北宜路一段105巷4弄1號","121.539808333333","24.955655","6500600","新店區"
"231028","046-UY","2018/04/02 13:49:43","新北市新店區安業街1號","121.51673","24.97898","6500600","新店區"
"231001","047-UY","2018/04/02 13:49:16","新北市新店區三民路64號","121.535066666667","24.972235","6500600","新店區"
"231005","106-UY","2018/04/02 13:49:36","新北市新店區寶中路94號","121.548908333333","24.98015","6500600","新店區"
"231019","108-UY","2018/04/02 13:49:37","新北市新店區湖子內路1號","121.542365","24.9307283333333","6500600","新店區"
"231011","187-VK","2018/04/02 13:49:31","新北市新店區德正街25巷2號","121.544405","24.9716533333333","6500600","新店區"
"231010","188-VK","2018/04/02 13:49:37","新北市新店區平等街48巷1號","121.535688333333","24.9729183333333","6500600","新店區"
"231023","KEA-2219","2018/04/02 13:49:38","新北市新店區國校路55號","121.538236666667","24.9544233333333","6500600","新店區"
"231026","256-BX","2018/04/02 13:49:41","新北市新店區福園街10巷9號","121.532413333333","24.9730166666667","6500600","新店區"
"231014","260-TV","2018/04/02 13:49:41","新北市新店區竹林路71-7號","121.553646666667","24.9512983333333","6500600","新店區"
"231003","268-BY","2018/04/02 13:49:47","新北市新店區中興路一段162號","121.542593333333","24.9641433333333","6500600","新店區"
"231018","278-BY","2018/04/02 13:49:40","新北市新店區中正路400巷9號","121.534985","24.9779933333333","6500600","新店區"
"231037","4716-K9","2018/04/02 13:49:44","新北市新店區安康路三段359巷12弄2號","121.484498333333","24.9502283333333","6500600","新店區"
"231025","4715-K9","2018/04/02 13:49:33","新北市新店區中央五街41號","121.528341666667","24.9751316666667","6500600","新店區"
"231036","512-UM","2018/04/02 13:49:30","新北市新店區安祥路110巷30弄1號","121.473785","24.9562866666667","6500600","新店區"
"231013","513-UM","2018/04/02 13:49:31","新北市新店區二十張路25巷18弄9號","121.53926","24.9817016666667","6500600","新店區"
"231030","619-UM","2018/04/02 13:49:32","新北市新店區安康路一段122號","121.527026666667","24.9626916666667","6500600","新店區"
"231034","641-BX","2018/04/02 13:49:28","新北市新店區達觀路14巷8號","121.50334","24.9432","6500600","新店區"
"231035","719-UY","2018/04/02 13:49:48","新北市新店區安忠路38號","121.513135","24.959685","6500600","新店區"
"231031","720-UM","2018/04/02 13:49:39","新北市新店區莒光路44巷21弄11-3號","121.518446666667","24.9522183333333","6500600","新店區"
"231029","897-TW","2018/04/02 13:49:33","新北市新店區安康路二段125-1號","121.512371666667","24.96092","6500600","新店區"
"231006","898-TW","2018/04/02 13:49:33","新北市新店區北宜路一段248號","121.54519","24.9529533333333","6500600","新店區"
"231004","899-TW","2018/04/02 13:49:41","新北市新店區寶橋路69-1號","121.545523333333","24.9750183333333","6500600","新店區"
"231024","AKT-0513","2018/04/02 13:49:29","新北市新店區新生街57號","121.538828333333","24.967135","6500600","新店區"
"235030","003-UY","2018/04/02 13:49:34","新北市中和區水源路7巷4號","121.50404","25.0036616666667","6500300","中和區"
"235028","005-UY","2018/04/02 13:49:28","新北市中和區連城路75巷2-14號","121.497851666667","24.9992483333333","6500300","中和區"
"235027","006-UY","2018/04/02 13:49:36","新北市中和區連城路319巷3弄3號","121.489291666667","24.995715","6500300","中和區"
"235020","096-UM","2018/04/02 13:49:36","新北市中和區中正路1184號","121.481116666667","25.010235","6500300","中和區"
"235029","098-UM","2018/04/02 13:49:33","新北市中和區勝利路35巷11弄1號","121.499623333333","25.0068383333333","6500300","中和區"
"235004","150-BY","2018/04/02 13:22:42","新北市中和區和城路一段271巷1號","121.48581","24.992145","6500300","中和區"
"235022","151-BY","2018/04/02 13:49:44","新北市中和區連城路532巷12號","121.474935","24.992495","6500300","中和區"
"235019","183-VK","2018/04/02 13:49:30","新北市中和區德光路77巷19號","121.469943333333","25.0034116666667","6500300","中和區"
"235002","185-VK","2018/04/02 13:49:39","新北市中和區立人街18號","121.519121666667","24.9941983333333","6500300","中和區"
"235013","186-VK","2018/04/02 13:49:26","新北市中和區景安路177巷3號","121.505563333333","24.9941916666667","6500300","中和區"
"235031","255-BX","2018/04/02 13:49:41","新北市中和區新生街220巷13號","121.48296","24.9984733333333","6500300","中和區"
"235008","293-VK","2018/04/02 13:49:43","新北市中和區中興街169號","121.499891666667","24.99049","6500300","中和區"
"235036","301-VK","2018/04/02 13:49:43","新北市中和區中山路二段68號","121.503891666667","25.0045316666667","6500300","中和區"
"235007","352-BY","2018/04/02 13:49:33","新北市中和區成功路47號","121.52615","24.9930216666667","6500300","中和區"
"235032","377-QA","2018/04/02 13:49:34","新北市中和區圓通路265巷32號","121.495801666667","24.992525","6500300","中和區"
"235025","378-QA","2018/04/02 13:49:36","新北市中和區民治街128巷3號","121.474998333333","25.00289","6500300","中和區"
"235014","4979-A6","2018/04/02 13:49:32","新北市中和區忠孝街62巷7弄2號","121.512958333333","24.9836983333333","6500300","中和區"
"235033","4980-A6","2018/04/02 13:49:26","新北市中和區圓通路45號","121.50093","24.99749","6500300","中和區"
"235006","551-UM","2018/04/02 13:49:43","新北市中和區秀朗路三段100巷2弄16號","121.524886666667","24.9937816666667","6500300","中和區"
"235034","558-UM","2018/04/02 13:49:38","新北市中和區南山路6號","121.501991666667","24.99867","6500300","中和區"
"235009","565-BX","2018/04/02 13:49:27","新北市中和區景安路211號","121.504483333333","24.99168","6500300","中和區"
"235018","640-BX","2018/04/02 13:49:39","新北市中和區民享街41號","121.474078333333","25.0031366666667","6500300","中和區"
"235011","732-UM","2018/04/02 13:49:46","新北市中和區興南路二段34巷55弄1號","121.504895","24.986265","6500300","中和區"
"235010","733-UM","2018/04/02 13:49:37","新北市中和區仁愛街36巷43號","121.51125","24.9867483333333","6500300","中和區"
"235035","783-BX","2018/04/02 13:49:29","新北市中和區建一路2號","121.487985","25.00424","6500300","中和區"
"235026","800-TS","2018/04/02 13:35:15","新北市中和區景平路677巷2弄15號","121.496051666667","25.003255","6500300","中和區"
"235021","801-TS","2018/04/02 13:49:35","新北市中和區民安街23號","121.480351666667","25.0005633333333","6500300","中和區"
"235005","802-TS","2018/04/02 13:49:44","新北市中和區永貞路280號","121.513178333333","25.0040283333333","6500300","中和區"
"235016","805-TS","2018/04/02 13:49:42","新北市中和區興南路二段399巷38號","121.49927","24.9788566666667","6500300","中和區"
"235012","896-TW","2018/04/02 13:49:34","新北市中和區南山路359號","121.506011666667","24.9907183333333","6500300","中和區"
"235017","900-TW","2018/04/02 13:49:35","新北市中和區華福街29-1號","121.466013333333","24.9967566666667","6500300","中和區"
"235024","911-UM","2018/04/02 13:49:38","新北市中和區中山路三段227號","121.471015","25.0065616666667","6500300","中和區"
"235015","157-BY","2018/04/02 13:49:47","新北市中和區忠孝街37巷5號","121.51094","24.98348","6500300","中和區"
"235001","AAC-213","2018/04/02 13:49:37","新北市中和區秀朗路三段128巷9弄1號","121.524596666667","24.9931566666667","6500300","中和區"
"235023","AAC-215","2018/04/02 13:49:34","新北市中和區圓通路391-6號","121.489745","24.9892083333333","6500300","中和區"
"220004","015-TV","2018/04/02 13:49:44","新北市板橋區四川路二段34巷1弄5號","121.453493333333","24.9957266666667","6500100","板橋區"
"220013","072-UY","2018/04/02 13:49:32","新北市板橋區漢生東路280號","121.471043333333","25.0093483333333","6500100","板橋區"
"220034","073-UY","2018/04/02 13:49:31","新北市板橋區大智街71巷17號","121.4529","25.0142233333333","6500100","板橋區"
"220017","AAD-861","2018/04/02 13:49:45","新北市板橋區大華街20號","121.458916666667","25.006125","6500100","板橋區"
"247009","341-TH","2018/04/02 13:49:46","新北市蘆洲區集賢路224巷13號","121.481971666667","25.0867616666667","6501400","蘆洲區"
"247003","337-TH","2018/04/02 13:49:30","新北市蘆洲區中原路22號","121.460321666667","25.08301","6501400","蘆洲區"
"247005","336-TH","2018/04/02 13:49:41","新北市蘆洲區和平路77號","121.469318333333","25.0790533333333","6501400","蘆洲區"
"247007","056-VK","2018/04/02 13:49:41","新北市蘆洲區重陽街86號","121.481916666667","25.084465","6501400","蘆洲區"
"247015","007-UY","2018/04/02 13:49:42","新北市蘆洲區光華路38號","121.469153333333","25.08324","6501400","蘆洲區"
"247019","001-UY","2018/04/02 13:49:37","新北市蘆洲區民族路422巷48弄26號","121.474773333333","25.09313","6501400","蘆洲區"
"235003","251-BX","2018/04/02 13:49:38","新北市中和區大勇街25巷9弄2號","121.516598333333","24.993385","6500300","中和區"
"253003","6232-TK","2018/04/02 13:49:46","新北市石門區尖子鹿8號","121.57523","25.2799916666667","6502200","石門區"
"253001","6251-TK","2018/04/02 13:49:37","新北市三芝區新庄里新庄子48-12號","121.506556666667","25.278745","6502200","石門區"
"253002","637-UY","2018/04/02 13:49:28","新北市石門區尖山湖1-1號","121.566703333333","25.245205","6502200","石門區"
"253004","8270-PC","2018/04/02 13:49:45","新北市石門區草埔尾31-1號","121.603201666667","25.265085","6502200","石門區"
"207002","749-BX","2018/04/02 13:49:31","新北市萬里區崁腳里崁腳路166號","121.645065","25.155805","6502800","萬里區"
"252005","073-UM","2018/04/02 13:49:14","新北市三芝區圓山里內柑宅27-2號","121.537826666667","25.2209533333333","6502100","三芝區"
"207001","662-BX","2018/04/02 13:49:37","新北市萬里區磺潭里公館崙42號","121.630135","25.2077666666667","6502800","萬里區"
"236064","105-UM","2018/04/02 13:49:46","新北市土城區城林路6巷80號","121.438625","24.9796783333333","6501300","土城區"
"236040","107-UM","2018/04/02 13:49:45","新北市土城區城林路6巷80號","121.438573333333","24.9797166666667","6501300","土城區"
"236074","166-UM","2018/04/02 13:49:39","新北市土城區中華路二段80號","121.438703333333","24.9756566666667","6501300","土城區"
"236024","269-VK","2018/04/02 13:49:48","新北市土城區城林路6巷80號","121.438585","24.9798066666667","6501300","土城區"
"236012","270-VK","2018/04/02 13:49:35","新北市土城區城林路6巷80號","121.438588333333","24.9797133333333","6501300","土城區"
"236032","271-VK","2018/04/02 13:49:47","新北市土城區城林路6巷80號","121.438311666667","24.9795833333333","6501300","土城區"
"236005","498-BY","2018/04/02 13:49:43","新北市土城區中央路二段77號","121.442343333333","24.9784633333333","6501300","土城區"
"236057","912-UM","2018/04/02 13:49:36","新北市土城區中華路二段165號","121.438708333333","24.9755416666667","6501300","土城區"
"236045","913-UM","2018/04/02 13:49:32","新北市土城區城林路6巷80號","121.438666666667","24.9795516666667","6501300","土城區"
"236060","915-UM","2018/04/02 13:49:45","新北市土城區城林路6巷80號","121.438518333333","24.979735","6501300","土城區"
"236054","AAC-216","2018/04/02 13:49:31","新北市土城區城林路6巷80號","121.43869","24.9796583333333","6501300","土城區"
"220027","145-BY","2018/04/02 13:49:46","新北市板橋區民權路204號","121.45921","25.01401","6500100","板橋區"
"220028","200-UY","2018/04/02 13:49:42","新北市板橋區大觀路二段265巷60弄22號","121.441741666667","24.9979283333333","6500100","板橋區"
"220105","KEA-2550","2018/04/02 13:49:35","新北市板橋區民生路二段161巷1號","121.470125","25.0199133333333","6500100","板橋區"
"220030","610-BX","2018/04/02 13:49:39","新北市板橋區篤行路三段玉平巷68弄2號","121.428058333333","24.9861733333333","6500100","板橋區"
"220101","280-UM","2018/04/02 13:49:34","新北市板橋區民生路二段161巷5號","121.470188333333","25.0197183333333","6500100","板橋區"
"220019","283-VK","2018/04/02 13:49:28","新北市板橋區重慶路245巷67弄2號","121.465603333333","25.001215","6500100","板橋區"
"220043","285-UM","2018/04/02 13:49:50","新北市板橋區民生路二段161巷1號","121.470148333333","25.0199583333333","6500100","板橋區"
"220001","285-VK","2018/04/02 13:49:47","新北市板橋區永豐街55巷12弄18號","121.472671666667","25.01835","6500100","板橋區"
"220031","286-VK","2018/04/02 13:49:47","新北市板橋區僑中二街112巷1號","121.445771666667","25.0070316666667","6500100","板橋區"
"220039","288-VK","2018/04/02 13:49:32","新北市板橋區民生路二段120號","121.47048","25.01962","6500100","板橋區"
"220009","293-UM","2018/04/02 13:49:32","新北市板橋區太和街4巷5號","121.474066666667","25.019945","6500100","板橋區"
"220032","296-UM","2018/04/02 13:49:44","新北市板橋區大觀路二段150巷3號","121.441663333333","24.9989983333333","6500100","板橋區"
"220023","303-R5","2018/04/02 13:49:44","新北市板橋區南雅東路79-1號","121.453291666667","25.0079366666667","6500100","板橋區"
"220010","305-R5","2018/04/02 13:49:50","新北市板橋區中山路二段40巷6弄2號","121.473205","25.0149183333333","6500100","板橋區"
"220047","317-R6","2018/04/02 13:49:46","新北市板橋區民生路二段120號","121.470418333333","25.0198933333333","6500100","板橋區"
"220012","486-VK","2018/04/02 13:49:48","新北市板橋區中山路二段37號","121.473098333333","25.0155866666667","6500100","板橋區"
"220052","561-BX","2018/04/02 13:49:36","新北市板橋區民生路二段161巷9號","121.470235","25.0195166666667","6500100","板橋區"
"220055","568-UM","2018/04/02 13:49:49","新北市板橋區中正路275巷77號","121.452378333333","25.018105","6500100","板橋區"
"220011","609-BX","2018/04/02 13:49:43","新北市板橋區中山路二段50-1號","121.47323","25.015545","6500100","板橋區"
"220003","630-UY","2018/04/02 13:49:40","新北市板橋區縣民大道二段68-1號","121.463285","25.0126783333333","6500100","板橋區"
"220040","637-BX","2018/04/02 13:49:36","新北市板橋區民生路二段161巷1號","121.470191666667","25.0200966666667","6500100","板橋區"
"220005","686-BX","2018/04/02 13:49:43","新北市板橋區南雅南路二段120-24號","121.451746666667","24.9988683333333","6500100","板橋區"
"220025","687-BX","2018/04/02 13:49:32","新北市板橋區金門街81號","121.433216666667","24.9926266666667","6500100","板橋區"
"220042","689-BX","2018/04/02 13:49:46","新北市板橋區民生路二段120號","121.47053","25.020205","6500100","板橋區"
"220002","741-BX","2018/04/02 13:49:33","新北市板橋區館前東路26-4號","121.460416666667","25.0072033333333","6500100","板橋區"
"220051","KEA-2699","2018/04/02 13:49:30","新北市板橋區民生路二段120號","121.470421666667","25.0195466666667","6500100","板橋區"
"220014","829-TW","2018/04/02 13:49:28","新北市板橋區三民路二段正隆巷50號","121.476895","25.0140283333333","6500100","板橋區"
"220016","830-TW","2018/04/02 13:49:43","新北市板橋區縣民大道三段134號","121.474683333333","25.0208583333333","6500100","板橋區"
"220038","833-TW","2018/04/02 13:49:45","新北市板橋區民生路二段188號","121.470383333333","25.0205133333333","6500100","板橋區"
"220022","895-R6","2018/04/02 13:49:42","新北市板橋區府中路69號","121.458001666667","25.0095116666667","6500100","板橋區"
"220021","985-R7","2018/04/02 13:49:38","新北市板橋區南門街40號","121.456928333333","25.0083116666667","6500100","板橋區"
"220018","AAC-253","2018/04/02 13:49:45","新北市板橋區四川路一段133號","121.459846666667","25.004515","6500100","板橋區"
