"lineid","car","time","location","longitude","latitude","cityid","cityname"
"234044","148-BY","2018/04/02 13:59:42","新北市永和區成功路一段62號","121.526946666667","25.0037466666667","6500400","永和區"
"234068","149-BY","2018/04/02 13:59:37","新北市永和區國光路16號","121.51899","25.0083233333333","6500400","永和區"
"234005","207-UY","2018/04/02 13:59:38","新北市中和區中和路330號","121.510031666667","25.00116","6500400","永和區"
"234078","298-R6","2018/04/02 13:59:36","新北市永和區國中路8號","121.524245","25.0047583333333","6500400","永和區"
"234036","336-UY","2018/04/02 13:59:38","新北市永和區成功路二段179-1號","121.52665","24.99666","6500400","永和區"
"234062","337-UY","2018/04/02 13:59:38","新北市永和區中正路412巷20弄10號","121.518713333333","25.0016466666667","6500400","永和區"
"234084","338-UY","2018/04/02 13:59:42","新北市永和區福和路160號","121.521405","25.00788","6500400","永和區"
"234015","745-BX","2018/04/02 13:59:30","新北市永和區文化路123號","121.512298333333","25.015335","6500400","永和區"
"234028","746-BX","2018/04/02 13:59:47","新北市永和區民生路67巷44號","121.524976666667","24.9974283333333","6500400","永和區"
"234052","KEA-2590","2018/04/02 13:59:40","新北市永和區竹林路39巷46號","121.520261666667","25.01523","6500400","永和區"
"234012","KEA-2591","2018/04/02 13:59:28","新北市永和區保生路55號","121.504716666667","25.0106566666667","6500400","永和區"
"234060","AAD-866","2018/04/02 13:59:37","新北市永和區中正路151巷14號","121.515543333333","24.9988233333333","6500400","永和區"
"234040","862-TW","2018/04/02 13:59:40","新北市永和區中和路335巷18弄15號","121.507835","25.000405","6500400","永和區"
"234048","863-TW","2018/04/02 13:59:34","新北市永和區保安路246號","121.506515","25.0126383333333","6500400","永和區"
"248015","026-BX","2018/04/02 13:59:31","新北市五股區成泰路三段543巷12弄9號","121.451258333333","25.102315","6501500","五股區"
"248007","095-VK","2018/04/02 13:59:38","新北市五股區中興路一段130號","121.46555","25.0736583333333","6501500","五股區"
"248019","225-UY","2018/04/02 13:59:09","新北市五股區凌雲路三段57號","121.425341666667","25.1250383333333","6501500","五股區"
"248011","247-BX","2018/04/02 13:59:37","新北市五股區成泰路二段195巷1號","121.44047","25.0873783333333","6501500","五股區"
"248003","677-BX","2018/04/02 13:59:44","新北市五股區民義路二段70號","121.405541666667","25.1082766666667","6501500","五股區"
"248001","678-BX","2018/04/02 13:59:35","新北市五股區天乙路3號","121.448828333333","25.102665","6501500","五股區"
"248009","682-TV","2018/04/02 13:59:35","新北市五股區水碓一路23號","121.430643333333","25.071325","6501500","五股區"
"234022","9380-KE","2018/04/02 13:59:47","新北市永和區豫溪街57巷8弄5號","121.517635","25.0104583333333","6500400","永和區"
"234076","969-R7","2018/04/02 13:59:45","新北市永和區民權路58巷2弄1號","121.519565","24.9983416666667","6500400","永和區"
"234072","AAC-211","2018/04/02 13:59:37","新北市永和區豫溪街185號","121.522498333333","25.0103983333333","6500400","永和區"
"234066","AAC-212","2018/04/02 13:59:39","新北市永和區永貞路313號","121.510091666667","25.0065766666667","6500400","永和區"
"234001","AAC-295","2018/04/02 13:59:34","新北市永和區福和路318號","121.515743333333","25.0072966666667","6500400","永和區"
"243004","AAD-798","2018/04/02 13:59:47","新北市泰山區仁德路114號","121.432838333333","25.05699","6501600","泰山區"
"243007","380-SR","2018/04/02 13:59:46","新北市泰山區泰林路二段328號","121.430155","25.0631516666667","6501600","泰山區"
"243006","421-VK","2018/04/02 13:59:37","新北市泰山區黎明路23號","121.4209","25.0626433333333","6501600","泰山區"
"243008","539-UM","2018/04/02 13:59:47","新北市泰山區明志路二段152-1號","121.42759","25.0506316666667","6501600","泰山區"
"243002","KEA-2215","2018/04/02 13:59:29","新北市泰山區辭修路30號","121.42895","25.058135","6501600","泰山區"
"243001","KEA-2216","2018/04/02 13:59:41","新北市泰山區泰林路二段280巷2號","121.431648333333","25.0624433333333","6501600","泰山區"
"243005","646-TV","2018/04/02 13:59:37","新北市泰山區明志路三段351巷22號","121.422698333333","25.0348366666667","6501600","泰山區"
"231002","002-UM","2018/04/02 13:59:29","新北市新店區中正路695巷6-1號","121.533951666667","24.99075","6500600","新店區"
"231038","0291-UT","2018/04/02 13:59:39","新北市新店區溪洲路101-1號","121.531815","24.9624916666667","6500600","新店區"
"231027","0293-UT","2018/04/02 13:59:30","新北市新店區北宜路一段39巷20號","121.538835","24.9585283333333","6500600","新店區"
"231028","046-UY","2018/04/02 13:59:43","新北市新店區安和路三段97號","121.517801666667","24.9843033333333","6500600","新店區"
"231001","047-UY","2018/04/02 13:59:36","新北市新店區三民路39號","121.537285","24.9708383333333","6500600","新店區"
"231005","106-UY","2018/04/02 13:59:36","新北市新店區中興路三段188號","121.543995","24.9816033333333","6500600","新店區"
"231019","108-UY","2018/04/02 13:59:37","新北市新店區自強路61號","121.54633","24.9247366666667","6500600","新店區"
"231011","187-VK","2018/04/02 13:59:44","新北市新店區中興路一段282-3號","121.546041666667","24.9682866666667","6500600","新店區"
"231010","188-VK","2018/04/02 13:59:37","新北市新店區安康路一段35-1號","121.532183333333","24.9606066666667","6500600","新店區"
"231023","KEA-2219","2018/04/02 13:59:38","新北市新店區文中路40號","121.539745","24.9565883333333","6500600","新店區"
"231026","256-BX","2018/04/02 13:59:41","新北市新店區安康路一段35-1號","121.532058333333","24.9606166666667","6500600","新店區"
"231014","260-TV","2018/04/02 13:59:41","新北市新店區北宜路二段233號","121.553698333333","24.95342","6500600","新店區"
"231003","268-BY","2018/04/02 13:59:27","新北市新店區中興路一段110-1號","121.541153333333","24.9623216666667","6500600","新店區"
"231018","278-BY","2018/04/02 13:59:40","新北市新店區中央路99號","121.531101666667","24.97507","6500600","新店區"
"231037","4716-K9","2018/04/02 13:59:35","新北市新店區安康路三段355巷33號","121.485008333333","24.9497366666667","6500600","新店區"
"231025","4715-K9","2018/04/02 13:59:33","新北市新店區中正路275巷17號","121.537226666667","24.9736266666667","6500600","新店區"
"231036","512-UM","2018/04/02 13:59:30","新北市新店區安祥路110巷2號","121.474851666667","24.957","6500600","新店區"
"231013","513-UM","2018/04/02 13:59:31","新北市新店區明德路62號","121.541676666667","24.97939","6500600","新店區"
"231030","619-UM","2018/04/02 13:59:26","新北市新店區吉安街37-1號","121.51576","24.966115","6500600","新店區"
"231034","641-BX","2018/04/02 13:59:28","新北市新店區達觀路32號","121.5021","24.940115","6500600","新店區"
"231035","719-UY","2018/04/02 13:59:28","新北市新店區安和路一段52巷2-1號","121.517653333333","24.96629","6500600","新店區"
"231031","720-UM","2018/04/02 13:59:39","新北市新店區太平路28巷2號","121.533451666667","24.9586516666667","6500600","新店區"
"231029","897-TW","2018/04/02 13:59:33","新北市新店區安康路二段76號","121.514298333333","24.9635216666667","6500600","新店區"
"231006","898-TW","2018/04/02 13:59:33","新北市新店區北宜路二段213號","121.553266666667","24.95334","6500600","新店區"
"231004","899-TW","2018/04/02 13:59:41","新北市新店區北新路二段137號","121.542918333333","24.9755416666667","6500600","新店區"
"231024","AKT-0513","2018/04/02 13:59:49","新北市新店區新生街13巷42號","121.53899","24.9665566666667","6500600","新店區"
"235030","003-UY","2018/04/02 13:59:32","新北市中和區中山路二段131巷2弄1號","121.502721666667","25.0026683333333","6500300","中和區"
"235028","005-UY","2018/04/02 13:59:48","新北市中和區泰和街44巷42號","121.498133333333","25.0012466666667","6500300","中和區"
"235027","006-UY","2018/04/02 13:59:36","新北市中和區中正路636號","121.485666666667","24.9960616666667","6500300","中和區"
"235020","096-UM","2018/04/02 13:59:36","新北市板橋區三民路二段204號","121.478898333333","25.012205","6500300","中和區"
"235029","098-UM","2018/04/02 13:59:46","新北市中和區莊敬路47號","121.50115","25.0050966666667","6500300","中和區"
"235022","151-BY","2018/04/02 13:59:44","新北市中和區連城路426號","121.480163333333","24.9949166666667","6500300","中和區"
"235019","183-VK","2018/04/02 13:59:29","新北市板橋區民族路276巷3弄2號","121.469888333333","25.0060783333333","6500300","中和區"
"235002","185-VK","2018/04/02 13:59:39","新北市中和區大仁街21號","121.517635","24.9931783333333","6500300","中和區"
"235013","186-VK","2018/04/02 13:59:46","新北市中和區景安路167巷27號","121.506763333333","24.9949383333333","6500300","中和區"
"235031","255-BX","2018/04/02 13:59:41","新北市中和區新生街266號","121.4835","24.9973183333333","6500300","中和區"
"235008","293-VK","2018/04/02 13:59:42","新北市中和區中興街178號","121.499741666667","24.9910816666667","6500300","中和區"
"235036","301-VK","2018/04/02 13:59:43","新北市中和區中山路二段109號","121.503186666667","25.0039066666667","6500300","中和區"
"235007","352-BY","2018/04/02 13:59:35","新北市中和區成功路48號","121.526063333333","24.9928933333333","6500300","中和區"
"235032","377-QA","2018/04/02 13:59:34","新北市中和區板南路246號","121.496731666667","24.9950666666667","6500300","中和區"
"235025","378-QA","2018/04/02 13:59:36","新北市中和區中山路三段61號","121.476681666667","25.0056933333333","6500300","中和區"
"235014","4979-A6","2018/04/02 13:59:32","新北市中和區華新街50巷8號","121.50766","24.9839666666667","6500300","中和區"
"235033","4980-A6","2018/04/02 13:59:27","新北市中和區中和路217巷18弄1號","121.504741666667","25.0003216666667","6500300","中和區"
"235006","551-UM","2018/04/02 13:59:43","新北市永和區成功路二段203號","121.526565","24.9960066666667","6500300","中和區"
"235034","558-UM","2018/04/02 13:58:56","新北市中和區安和路217號","121.50596","24.99944","6500300","中和區"
"235009","565-BX","2018/04/02 13:59:27","新北市中和區景新街467巷20弄20號","121.514351666667","24.9878783333333","6500300","中和區"
"235018","640-BX","2018/04/02 13:59:39","新北市中和區民享街2號","121.473901666667","25.0056133333333","6500300","中和區"
"235011","732-UM","2018/04/02 13:59:46","新北市中和區興南路二段74巷3號","121.505293333333","24.985175","6500300","中和區"
"235010","733-UM","2018/04/02 13:59:37","新北市中和區興南路一段135巷22弄16號","121.508911666667","24.9866066666667","6500300","中和區"
"235026","800-TS","2018/04/02 13:35:15","新北市中和區景平路677巷2弄15號","121.496051666667","25.003255","6500300","中和區"
"235021","801-TS","2018/04/02 13:59:35","新北市中和區民利街60號","121.479068333333","24.99866","6500300","中和區"
"235005","802-TS","2018/04/02 13:59:44","新北市中和區永貞路239巷13號","121.51263","25.0031933333333","6500300","中和區"
"235016","805-TS","2018/04/02 13:59:42","新北市中和區興南路二段131-15號","121.504221666667","24.9802266666667","6500300","中和區"
"235012","896-TW","2018/04/02 13:59:34","新北市中和區華新街24號","121.507608333333","24.9848616666667","6500300","中和區"
"235017","900-TW","2018/04/02 13:59:35","新北市中和區壽德街16號","121.465685","24.9952233333333","6500300","中和區"
"235024","911-UM","2018/04/02 13:59:38","新北市中和區民治街17巷2號","121.475283333333","25.002855","6500300","中和區"
"235015","157-BY","2018/04/02 13:59:27","新北市中和區忠孝街19巷14號","121.510118333333","24.983275","6500300","中和區"
"235001","AAC-213","2018/04/02 13:59:37","新北市中和區秀朗路三段10巷14弄94號","121.523518333333","24.9966083333333","6500300","中和區"
"235023","AAC-215","2018/04/02 13:59:34","新北市中和區圓通路369巷33弄7號","121.491246666667","24.988095","6500300","中和區"
"220004","015-TV","2018/04/02 13:57:44","新北市板橋區信義路91-2號","121.457396666667","24.9937533333333","6500100","板橋區"
"220013","072-UY","2018/04/02 13:59:32","新北市板橋區漢生東路324號","121.471725","25.00799","6500100","板橋區"
"220034","073-UY","2018/04/02 13:59:31","新北市板橋區大智街20號","121.455721666667","25.0148566666667","6500100","板橋區"
"220017","AAD-861","2018/04/02 13:59:45","新北市板橋區華興街74號","121.457185","25.0050283333333","6500100","板橋區"
"247013","546-UM","2018/04/02 13:59:49","新北市蘆洲區中正路155號","121.469173333333","25.0849466666667","6501400","蘆洲區"
"247021","500-BY","2018/04/02 13:59:40","新北市蘆洲區中正路261號","121.467468333333","25.0873916666667","6501400","蘆洲區"
"247009","341-TH","2018/04/02 13:59:26","新北市蘆洲區集賢路400號","121.48026","25.0820283333333","6501400","蘆洲區"
"247011","339-TH","2018/04/02 13:59:37","新北市蘆洲區民族路87號","121.47945","25.0861033333333","6501400","蘆洲區"
"247003","337-TH","2018/04/02 13:59:30","新北市蘆洲區長榮路1號","121.463828333333","25.0820033333333","6501400","蘆洲區"
"247005","336-TH","2018/04/02 13:59:41","新北市蘆洲區永安南路二段50號","121.4661","25.07769","6501400","蘆洲區"
"247017","057-VK","2018/04/02 13:59:33","新北市蘆洲區民族路327巷79號","121.475563333333","25.0897416666667","6501400","蘆洲區"
"247007","056-VK","2018/04/02 13:59:41","新北市蘆洲區重陽一街3號","121.481798333333","25.081475","6501400","蘆洲區"
"247015","007-UY","2018/04/02 13:59:42","新北市蘆洲區光華路40號","121.468933333333","25.08322","6501400","蘆洲區"
"247019","001-UY","2018/04/02 13:59:37","新北市蘆洲區民族路422巷50號","121.473708333333","25.09308","6501400","蘆洲區"
"235003","251-BX","2018/04/02 13:59:38","新北市中和區景平路64巷18號","121.522356666667","24.9913316666667","6500300","中和區"
"253003","6232-TK","2018/04/02 13:59:46","新北市石門區尖子鹿8號","121.575188333333","25.279985","6502200","石門區"
"253001","6251-TK","2018/04/02 13:59:37","新北市石門區八甲60-5號","121.526053333333","25.2710583333333","6502200","石門區"
"253002","637-UY","2018/04/02 13:58:48","新北市石門區七股59號","121.553411666667","25.2528783333333","6502200","石門區"
"253004","8270-PC","2018/04/02 13:59:43","新北市石門區小坑37-1號","121.597101666667","25.2669","6502200","石門區"
"207002","749-BX","2018/04/02 13:58:11","新北市萬里區溪底里烏塗炭3-1號","121.636053333333","25.1511666666667","6502800","萬里區"
"252005","073-UM","2018/04/02 13:59:34","新北市三芝區圓山里二坪頂71號","121.537713333333","25.2411583333333","6502100","三芝區"
"207001","662-BX","2018/04/02 13:59:37","新北市萬里區磺潭里清水2-2號","121.642703333333","25.202035","6502800","萬里區"
"236064","105-UM","2018/04/02 13:59:46","新北市土城區中華路一段279號","121.440091666667","24.9799766666667","6501300","土城區"
"236040","107-UM","2018/04/02 13:59:45","新北市土城區城林路6巷80號","121.438525","24.9797","6501300","土城區"
"236074","166-UM","2018/04/02 13:59:39","新北市土城區永寧路32巷10弄23號","121.4289","24.9610783333333","6501300","土城區"
"236029","253-BX","2018/04/02 13:59:40","新北市土城區城林路6巷80號","121.438418333333","24.9798733333333","6501300","土城區"
"236024","269-VK","2018/04/02 13:59:28","新北市土城區承天路31號","121.436778333333","24.9653566666667","6501300","土城區"
"236012","270-VK","2018/04/02 13:59:35","新北市土城區城林路6巷80號","121.438638333333","24.9796916666667","6501300","土城區"
"236032","271-VK","2018/04/02 13:59:47","新北市土城區中正路82-1號","121.445566666667","24.9758033333333","6501300","土城區"
"236016","401-BY","2018/04/02 13:59:44","新北市土城區城林路6巷80號","121.438498333333","24.979785","6501300","土城區"
"236005","498-BY","2018/04/02 13:59:43","新北市土城區中央路一段289-1號","121.444201666667","24.9841266666667","6501300","土城區"
"236057","912-UM","2018/04/02 13:59:36","新北市土城區中央路三段202號","121.43021","24.9647816666667","6501300","土城區"
"236045","913-UM","2018/04/02 13:59:32","新北市土城區中央路二段280號","121.440725","24.9740266666667","6501300","土城區"
"236060","915-UM","2018/04/02 13:59:45","新北市土城區員福街12號","121.441673333333","24.9785766666667","6501300","土城區"
"236054","AAC-216","2018/04/02 13:59:31","新北市土城區城林路6巷80號","121.43856","24.979775","6501300","土城區"
"220027","145-BY","2018/04/02 13:59:42","新北市板橋區民權路202巷9弄90號","121.458933333333","25.0157483333333","6500100","板橋區"
"220028","200-UY","2018/04/02 13:59:34","新北市板橋區大觀路二段力行3巷5號","121.445595","24.9956166666667","6500100","板橋區"
"220105","KEA-2550","2018/04/02 13:59:35","新北市板橋區文化路二段124巷28-2號","121.471318333333","25.02567","6500100","板橋區"
"220030","610-BX","2018/04/02 13:59:46","新北市板橋區溪崑一街126號","121.42913","24.9883","6500100","板橋區"
"220050","280-UM","2018/04/02 13:59:34","新北市板橋區文化路二段26號","121.468905","25.0244716666667","6500100","板橋區"
"220019","283-VK","2018/04/02 13:59:48","新北市板橋區重慶路245巷52弄2號","121.465486666667","25.000605","6500100","板橋區"
"220043","285-UM","2018/04/02 13:59:29","新北市板橋區莒光路16巷21號","121.46939","25.0237566666667","6500100","板橋區"
"220001","285-VK","2018/04/02 13:59:47","新北市板橋區中山路二段89巷68號","121.473576666667","25.0176966666667","6500100","板橋區"
"220031","286-VK","2018/04/02 13:59:30","新北市板橋區大觀路一段38巷174號","121.441685","25.0046183333333","6500100","板橋區"
"220039","288-VK","2018/04/02 13:59:32","新北市板橋區四維路177巷2弄1號","121.464033333333","25.0262633333333","6500100","板橋區"
"220009","293-UM","2018/04/02 13:59:39","新北市板橋區懷仁街11號","121.476171666667","25.02009","6500100","板橋區"
"220032","296-UM","2018/04/02 13:59:44","新北市板橋區大觀路二段154號","121.441515","24.9986666666667","6500100","板橋區"
"220023","303-R5","2018/04/02 13:59:44","新北市板橋區南雅西路二段6號","121.453561666667","25.00921","6500100","板橋區"
"220010","305-R5","2018/04/02 13:59:29","新北市板橋區三民路二段245巷36號","121.480595","25.0124883333333","6500100","板橋區"
"220041","307-R5","2018/04/02 13:59:40","新北市板橋區文化路一段110號","121.46498","25.0182016666667","6500100","板橋區"
"220047","317-R6","2018/04/02 13:59:46","新北市板橋區民有街32號","121.465968333333","25.0254483333333","6500100","板橋區"
"220012","486-VK","2018/04/02 13:59:35","新北市板橋區縣民大道二段122號","121.46753","25.0157416666667","6500100","板橋區"
"220037","491-VK","2018/04/02 13:59:45","新北市板橋區民生路二段208號","121.469525","25.02112","6500100","板橋區"
"220052","561-BX","2018/04/02 13:59:36","新北市板橋區縣民大道二段279號","121.469945","25.01777","6500100","板橋區"
"220055","568-UM","2018/04/02 13:59:49","新北市板橋區中正路325巷23號","121.454166666667","25.0196933333333","6500100","板橋區"
"220011","609-BX","2018/04/02 13:59:43","新北市板橋區中山路二段199號","121.476471666667","25.0170766666667","6500100","板橋區"
"220003","630-UY","2018/04/02 13:59:40","新北市板橋區新站路3號","121.466948333333","25.0114583333333","6500100","板橋區"
"220040","637-BX","2018/04/02 13:59:36","新北市板橋區大同街55號","121.478668333333","25.0275383333333","6500100","板橋區"
"220005","686-BX","2018/04/02 13:59:44","新北市板橋區館前東路66號","121.461226666667","25.0072883333333","6500100","板橋區"
"220025","687-BX","2018/04/02 13:59:48","新北市板橋區龍興街71巷53號","121.441515","25.0026833333333","6500100","板橋區"
"220042","689-BX","2018/04/02 13:59:46","新北市板橋區民生路三段136號","121.466336666667","25.026975","6500100","板橋區"
"220002","741-BX","2018/04/02 13:59:33","新北市板橋區後埔街43號","121.460523333333","25.006035","6500100","板橋區"
"220051","KEA-2699","2018/04/02 13:59:49","新北市板橋區懷德街235巷2-1號","121.481325","25.0284066666667","6500100","板橋區"
"220014","829-TW","2018/04/02 13:59:28","新北市板橋區三民路二段186巷24號","121.477865","25.0143","6500100","板橋區"
"220016","830-TW","2018/04/02 13:59:49","新北市板橋區中山路二段465巷5號","121.481638333333","25.0207983333333","6500100","板橋區"
"220045","831-TW","2018/04/02 13:59:40","新北市板橋區莒光路74號","121.471428333333","25.0241716666667","6500100","板橋區"
"220038","833-TW","2018/04/02 13:59:45","新北市板橋區文化路二段16-2號","121.46878","25.0243333333333","6500100","板橋區"
"220022","895-R6","2018/04/02 13:59:42","新北市板橋區南雅西路二段2-6號","121.453466666667","25.0090133333333","6500100","板橋區"
"220021","985-R7","2018/04/02 13:59:38","新北市板橋區館前西路152-2號","121.455263333333","25.0084216666667","6500100","板橋區"
"220046","AAC-210","2018/04/02 13:59:40","新北市板橋區陽明街162號","121.46337","25.02448","6500100","板橋區"
"220018","AAC-253","2018/04/02 13:59:45","新北市板橋區四川路一段475號","121.457115","24.9974433333333","6500100","板橋區"
