"lineid","car","time","location","longitude","latitude","cityid","cityname"
"234068","149-BY","2018/04/02 14:19:36","新北市永和區永利路23號","121.51799","25.0061216666667","6500400","永和區"
"234005","207-UY","2018/04/02 14:19:38","新北市永和區永貞路372號","121.509968333333","25.006855","6500400","永和區"
"234078","298-R6","2018/04/02 14:19:50","新北市永和區國中路132巷4號","121.523701666667","25.0070933333333","6500400","永和區"
"234036","336-UY","2018/04/02 14:19:58","新北市永和區成功路一段72號","121.52675","25.0035483333333","6500400","永和區"
"234062","337-UY","2018/04/02 14:19:57","新北市永和區中正路342號","121.518013333333","25.00018","6500400","永和區"
"234084","338-UY","2018/04/02 14:19:49","新北市永和區永和路二段50號","121.514735","25.0108966666667","6500400","永和區"
"234015","745-BX","2018/04/02 14:19:50","新北市永和區仁愛路68號","121.513128333333","25.0133133333333","6500400","永和區"
"234028","746-BX","2018/04/02 14:19:47","新北市永和區民權路49巷35號","121.521936666667","24.9976466666667","6500400","永和區"
"234052","KEA-2590","2018/04/02 14:19:48","新北市永和區光復街2巷16弄7號","121.517468333333","25.016385","6500400","永和區"
"234012","KEA-2591","2018/04/02 14:19:50","新北市永和區保生路62號","121.505356666667","25.0089483333333","6500400","永和區"
"234060","AAD-866","2018/04/02 14:19:57","新北市永和區得和路14號","121.515183333333","25.0004233333333","6500400","永和區"
"234040","862-TW","2018/04/02 14:19:55","新北市永和區安樂路166號","121.514485","25.0007633333333","6500400","永和區"
"234048","863-TW","2018/04/02 14:19:41","新北市永和區新生路25巷2弄24號","121.50905","25.0163183333333","6500400","永和區"
"234025","9371-KE","2018/04/02 14:19:48","新北市永和區安樂路144巷17號","121.51465","25.0001066666667","6500400","永和區"
"248015","026-BX","2018/04/02 14:19:50","新北市五股區成洲五路12號","121.452353333333","25.1015833333333","6501500","五股區"
"248019","225-UY","2018/04/02 13:59:09","新北市五股區凌雲路三段57號","121.425341666667","25.1250383333333","6501500","五股區"
"248011","247-BX","2018/04/02 14:19:37","新北市五股區成泰路二段65號","121.438058333333","25.0836783333333","6501500","五股區"
"248003","677-BX","2018/04/02 14:19:44","新北市五股區五福路45號","121.433201666667","25.0896066666667","6501500","五股區"
"248001","678-BX","2018/04/02 14:19:55","新北市五股區成泰路三段625-2號","121.452663333333","25.1043383333333","6501500","五股區"
"248009","682-TV","2018/04/02 14:19:55","新北市五股區水碓一路23號","121.430725","25.0713483333333","6501500","五股區"
"234022","9380-KE","2018/04/02 14:19:47","新北市永和區復興街41巷3號","121.516515","25.01337","6500400","永和區"
"234076","969-R7","2018/04/02 14:19:45","新北市永和區民權路110號","121.519805","24.9965533333333","6500400","永和區"
"234072","AAC-211","2018/04/02 14:19:44","新北市永和區豫溪街191巷7弄28號","121.523125","25.01127","6500400","永和區"
"234066","AAC-212","2018/04/02 14:19:39","新北市永和區保平路268巷14號","121.507968333333","25.0060483333333","6500400","永和區"
"234001","AAC-295","2018/04/02 14:19:54","新北市永和區中正路541號","121.516853333333","25.00794","6500400","永和區"
"244001","248-BX","2018/04/02 14:19:38","新北市林口區文化二路二段369號","121.381303333333","25.0865416666667","6501700","林口區"
"243004","AAD-798","2018/04/02 14:19:47","新北市泰山區仁義路203號","121.433135","25.053835","6501600","泰山區"
"243003","297-R6","2018/04/02 14:19:44","新北市泰山區貴子路15巷1弄1號","121.426343333333","25.04195","6501600","泰山區"
"243007","380-SR","2018/04/02 14:19:46","新北市泰山區公園路71號","121.426326666667","25.0554333333333","6501600","泰山區"
"243006","421-VK","2018/04/02 14:19:57","新北市泰山區泰林路二段202號","121.433435","25.0613016666667","6501600","泰山區"
"243008","539-UM","2018/04/02 14:19:47","新北市泰山區工專路38號","121.423263333333","25.0400966666667","6501600","泰山區"
"243002","KEA-2215","2018/04/02 14:19:49","新北市泰山區明志路二段7巷4號","121.4305","25.0534216666667","6501600","泰山區"
"243001","KEA-2216","2018/04/02 14:19:40","新北市泰山區和平街13巷23號","121.434446666667","25.0656833333333","6501600","泰山區"
"243005","646-TV","2018/04/02 14:19:42","新北市泰山區明志路三段145巷5弄1號","121.425388333333","25.040005","6501600","泰山區"
"231002","002-UM","2018/04/02 14:19:55","新北市新店區中央路24號","121.533093333333","24.9782633333333","6500600","新店區"
"231038","0291-UT","2018/04/02 14:19:39","新北市新店區溪洲路6巷27號","121.53403","24.9621733333333","6500600","新店區"
"231027","0293-UT","2018/04/02 14:19:50","新北市新店區中正路111號","121.542515","24.970535","6500600","新店區"
"231028","046-UY","2018/04/02 14:19:44","新北市新店區安和路二段89號","121.518483333333","24.9691566666667","6500600","新店區"
"231001","047-UY","2018/04/02 14:19:36","新北市新店區中正路75巷71號","121.5431","24.9688583333333","6500600","新店區"
"231005","106-UY","2018/04/02 14:19:36","新北市新店區中興路三段210號","121.543668333333","24.9823","6500600","新店區"
"231019","108-UY","2018/04/02 14:19:57","新北市新店區桂山路34號","121.55768","24.9032833333333","6500600","新店區"
"231011","187-VK","2018/04/02 14:19:51","新北市新店區五峰路59-10號","121.547783333333","24.96985","6500600","新店區"
"231023","KEA-2219","2018/04/02 14:19:51","新北市新店區光明街71號","121.538796666667","24.960565","6500600","新店區"
"231014","260-TV","2018/04/02 14:19:41","新北市新店區北宜路二段408號","121.568068333333","24.9541166666667","6500600","新店區"
"231003","268-BY","2018/04/02 14:19:47","新北市新店區中興路一段168號","121.542803333333","24.96439","6500600","新店區"
"231018","278-BY","2018/04/02 14:19:40","新北市新店區中央四街67號","121.52694","24.97549","6500600","新店區"
"231037","4716-K9","2018/04/02 14:19:55","新北市新店區安康路二段341巷37號","121.497255","24.9543766666667","6500600","新店區"
"231025","4715-K9","2018/04/02 14:19:52","新北市新店區自立街23號","121.537568333333","24.979515","6500600","新店區"
"231036","512-UM","2018/04/02 14:19:49","新北市新店區安祥路109巷90弄72號","121.47601","24.9586133333333","6500600","新店區"
"231013","513-UM","2018/04/02 14:19:50","新北市新店區大豐路73號","121.53907","24.979425","6500600","新店區"
"231030","619-UM","2018/04/02 14:19:47","新北市新店區安民街40號","121.515883333333","24.9652933333333","6500600","新店區"
"231034","641-BX","2018/04/02 14:19:48","新北市新店區黎明路3號","121.503198333333","24.9521716666667","6500600","新店區"
"231035","719-UY","2018/04/02 14:19:48","新北市新店區光華街12號","121.517685","24.96908","6500600","新店區"
"231031","720-UM","2018/04/02 14:19:39","新北市新店區安樂街21號","121.526425","24.968875","6500600","新店區"
"231029","897-TW","2018/04/02 14:19:53","新北市新店區安康路二段159巷2號","121.510286666667","24.959325","6500600","新店區"
"231006","898-TW","2018/04/02 14:19:52","新北市新店區北宜路二段599號","121.568205","24.9557116666667","6500600","新店區"
"231004","899-TW","2018/04/02 14:19:42","新北市新店區中正路148號","121.541661666667","24.9716366666667","6500600","新店區"
"235030","003-UY","2018/04/02 14:19:52","新北市中和區中和路102號","121.502693333333","24.9997116666667","6500300","中和區"
"235028","005-UY","2018/04/02 14:19:48","新北市中和區連城路2號","121.499215","25.0024683333333","6500300","中和區"
"235027","006-UY","2018/04/02 14:19:36","新北市中和區圓通路198巷9號","121.495633333333","24.99443","6500300","中和區"
"235020","096-UM","2018/04/02 14:19:36","新北市中和區民富街34號","121.476855","25.0065883333333","6500300","中和區"
"235029","098-UM","2018/04/02 14:19:53","新北市中和區莊敬路10號","121.499658333333","25.0042916666667","6500300","中和區"
"235004","150-BY","2018/04/02 14:19:48","新北市中和區宜安路29號","121.512583333333","24.9959616666667","6500300","中和區"
"235022","151-BY","2018/04/02 14:19:44","新北市中和區員山路36巷16-2號","121.485131666667","24.991655","6500300","中和區"
"235019","183-VK","2018/04/02 14:19:49","新北市中和區莒光路3巷1號","121.471935","25.0061383333333","6500300","中和區"
"235002","185-VK","2018/04/02 14:19:39","新北市中和區大仁街20巷57號","121.519755","24.9933833333333","6500300","中和區"
"235013","186-VK","2018/04/02 14:19:46","新北市中和區景新街230巷3號","121.508186666667","24.9940766666667","6500300","中和區"
"235031","255-BX","2018/04/02 14:19:41","新北市中和區新生街164號","121.483695","25.0002916666667","6500300","中和區"
"235008","293-VK","2018/04/02 14:19:42","新北市中和區復興路314號","121.500993333333","24.9903366666667","6500300","中和區"
"235036","301-VK","2018/04/02 14:19:43","新北市中和區莊敬路30號","121.501245","25.00509","6500300","中和區"
"235007","352-BY","2018/04/02 14:19:53","新北市中和區景平路296號","121.512863333333","24.99284","6500300","中和區"
"235032","377-QA","2018/04/02 14:19:55","新北市中和區景平路493巷2弄8號","121.49931","24.99726","6500300","中和區"
"235025","378-QA","2018/04/02 14:19:36","新北市中和區員山路259號","121.481355","24.9989633333333","6500300","中和區"
"235014","4979-A6","2018/04/02 14:19:52","新北市中和區景安路206號","121.503966666667","24.9908866666667","6500300","中和區"
"235033","4980-A6","2018/04/02 14:19:47","新北市中和區連城路2號","121.499246666667","25.0024583333333","6500300","中和區"
"235006","551-UM","2018/04/02 14:19:43","新北市永和區中正路198號","121.515668333333","24.997355","6500300","中和區"
"235034","558-UM","2018/04/02 14:19:38","新北市中和區連城路71號","121.497465","25.001185","6500300","中和區"
"235009","565-BX","2018/04/02 14:19:47","新北市中和區景新街423巷35弄34號","121.513928333333","24.9903966666667","6500300","中和區"
"235018","640-BX","2018/04/02 14:19:39","新北市中和區國光街109巷4號","121.469865","25.00037","6500300","中和區"
"235011","732-UM","2018/04/02 14:19:46","新北市中和區和平街54巷7號","121.508958333333","24.991475","6500300","中和區"
"235010","733-UM","2018/04/02 14:19:37","新北市中和區華新街98號","121.508576666667","24.98292","6500300","中和區"
"235035","783-BX","2018/04/02 14:19:47","新北市中和區立德街98巷85號","121.488471666667","25.00867","6500300","中和區"
"235026","800-TS","2018/04/02 14:19:35","新北市中和區中山路二段488-1號","121.487431666667","25.00495","6500300","中和區"
"235021","801-TS","2018/04/02 14:19:55","新北市中和區員山路423巷4號","121.48048","25.0032416666667","6500300","中和區"
"235005","802-TS","2018/04/02 14:19:44","新北市中和區中安街218號","121.511935","24.99895","6500300","中和區"
"235016","805-TS","2018/04/02 14:19:42","新北市中和區興南路二段116號","121.504731666667","24.9839016666667","6500300","中和區"
"235012","896-TW","2018/04/02 14:19:54","新北市中和區華新街111號","121.508403333333","24.9815616666667","6500300","中和區"
"235017","900-TW","2018/04/02 14:19:35","新北市中和區華安街21巷2號","121.467446666667","24.9974783333333","6500300","中和區"
"235024","911-UM","2018/04/02 14:19:38","新北市中和區員山路314巷12號","121.482141666667","25.0025966666667","6500300","中和區"
"235015","157-BY","2018/04/02 14:19:47","新北市中和區和平街54巷8弄15號","121.509575","24.9915283333333","6500300","中和區"
"235001","AAC-213","2018/04/02 14:19:56","新北市中和區秀朗路三段10巷37弄14號","121.523585","24.99594","6500300","中和區"
"235023","AAC-215","2018/04/02 14:19:34","新北市中和區圓通路286巷7號","121.491441666667","24.9914733333333","6500300","中和區"
"220004","015-TV","2018/04/02 14:15:24","新北市板橋區信義路231號","121.459875","24.99125","6500100","板橋區"
"220013","072-UY","2018/04/02 14:19:51","新北市板橋區國泰街76巷21號","121.467091666667","25.0071083333333","6500100","板橋區"
"220034","073-UY","2018/04/02 14:19:51","新北市板橋區中正路216巷71號","121.457825","25.019135","6500100","板橋區"
"220017","AAD-861","2018/04/02 14:19:50","新北市板橋區華興街31巷17號","121.458403333333","25.0038666666667","6500100","板橋區"
"247023","893-R6","2018/04/02 14:19:51","新北市蘆洲區三民路589號","121.461475","25.0932116666667","6501400","蘆洲區"
"247013","546-UM","2018/04/02 14:19:49","新北市蘆洲區中山一路227號","121.473841666667","25.0805416666667","6501400","蘆洲區"
"247021","500-BY","2018/04/02 14:19:40","新北市蘆洲區三民路128巷116號","121.469128333333","25.0910616666667","6501400","蘆洲區"
"247009","341-TH","2018/04/02 14:19:46","新北市蘆洲區三民路26巷40弄2-1號","121.478188333333","25.0831516666667","6501400","蘆洲區"
"247011","339-TH","2018/04/02 14:19:37","新北市蘆洲區民權路3巷14弄15號","121.475168333333","25.0856366666667","6501400","蘆洲區"
"247003","337-TH","2018/04/02 14:19:50","新北市蘆洲區長安街172巷16號","121.459976666667","25.083585","6501400","蘆洲區"
"247005","336-TH","2018/04/02 14:19:41","新北市蘆洲區長安街22巷34號","121.464953333333","25.0800866666667","6501400","蘆洲區"
"247017","057-VK","2018/04/02 14:19:53","新北市蘆洲區民權路82巷1弄8號","121.474576666667","25.088075","6501400","蘆洲區"
"247001","053-VK","2018/04/02 14:19:53","新北市蘆洲區永樂街52-2號","121.457396666667","25.0885183333333","6501400","蘆洲區"
"247015","007-UY","2018/04/02 14:19:42","新北市蘆洲區中正路185巷31弄45號","121.46729","25.0832233333333","6501400","蘆洲區"
"247019","001-UY","2018/04/02 14:19:37","新北市蘆洲區仁愛街37號","121.472113333333","25.0928566666667","6501400","蘆洲區"
"235003","251-BX","2018/04/02 14:19:38","新北市中和區秀峰街103巷8弄12號","121.519728333333","24.9896566666667","6500300","中和區"
"253003","6232-TK","2018/04/02 14:19:46","新北市石門區尖子鹿33-1號","121.58239","25.2644716666667","6502200","石門區"
"253001","6251-TK","2018/04/02 14:19:37","新北市石門區八甲71-3號","121.530198333333","25.2693916666667","6502200","石門區"
"253002","637-UY","2018/04/02 14:19:48","新北市石門區七股20-1號","121.551401666667","25.2673733333333","6502200","石門區"
"253004","8270-PC","2018/04/02 14:19:43","新北市石門區內阿里磅14號","121.593283333333","25.2487533333333","6502200","石門區"
"207002","749-BX","2018/04/02 14:19:51","新北市萬里區溪底里瑞泉路4-1號","121.609085","25.1473666666667","6502800","萬里區"
"252005","073-UM","2018/04/02 14:19:54","新北市三芝區橫山里橫山21號","121.54019","25.2627466666667","6502100","三芝區"
"207001","662-BX","2018/04/02 14:19:37","新北市萬里區磺潭里清水18號","121.637848333333","25.1977216666667","6502800","萬里區"
"236064","105-UM","2018/04/02 14:19:53","新北市土城區明德路一段128巷17號","121.463011666667","24.9788133333333","6501300","土城區"
"236040","107-UM","2018/04/02 14:19:45","新北市土城區裕民路3巷32號","121.448595","24.9865","6501300","土城區"
"236074","166-UM","2018/04/02 14:19:39","新北市土城區中央路三段281巷23弄19號","121.426286666667","24.9615483333333","6501300","土城區"
"236029","253-BX","2018/04/02 14:19:46","新北市土城區順風路63號","121.440206666667","24.977295","6501300","土城區"
"236024","269-VK","2018/04/02 14:19:48","新北市土城區承天路65號","121.439443333333","24.9637116666667","6501300","土城區"
"236012","270-VK","2018/04/02 14:19:55","新北市土城區青雲路39巷7號","121.46032","24.9875616666667","6501300","土城區"
"236032","271-VK","2018/04/02 14:19:47","新北市土城區青雲路483巷10弄35號","121.459478333333","24.972455","6501300","土城區"
"236016","401-BY","2018/04/02 14:19:44","新北市土城區延吉街282號","121.465083333333","24.984235","6501300","土城區"
"236005","498-BY","2018/04/02 14:19:43","新北市土城區中華路一段70巷6號","121.444788333333","24.988555","6501300","土城區"
"236057","912-UM","2018/04/02 14:19:57","新北市土城區中央路四段322號","121.413675","24.9556966666667","6501300","土城區"
"236045","913-UM","2018/04/02 14:19:52","新北市土城區明德路一段280-1號","121.457271666667","24.97751","6501300","土城區"
"236060","915-UM","2018/04/02 14:19:45","新北市土城區延壽路44巷11號","121.471398333333","24.992905","6501300","土城區"
"236054","AAC-216","2018/04/02 14:19:51","新北市土城區中華路二段102號","121.43806","24.9743516666667","6501300","土城區"
"220027","145-BY","2018/04/02 14:19:54","新北市板橋區民權路202巷17-1號","121.460663333333","25.0165616666667","6500100","板橋區"
"220028","200-UY","2018/04/02 14:19:54","新北市板橋區大觀路二段19巷15號","121.44746","25.003225","6500100","板橋區"
"220105","KEA-2550","2018/04/02 14:19:55","新北市板橋區長江路二段291號","121.470446666667","25.0332233333333","6500100","板橋區"
"220030","610-BX","2018/04/02 14:19:39","新北市板橋區篤行路三段93號","121.426548333333","24.98476","6500100","板橋區"
"220050","280-UM","2018/04/02 14:19:54","新北市板橋區莊敬路261號","121.473993333333","25.0217066666667","6500100","板橋區"
"220019","283-VK","2018/04/02 14:19:48","新北市板橋區忠孝路48巷9弄7號","121.461463333333","25.0002216666667","6500100","板橋區"
"220043","285-UM","2018/04/02 14:19:50","新北市板橋區吳鳳路19巷18號","121.466828333333","25.0308","6500100","板橋區"
"220001","285-VK","2018/04/02 14:19:47","新北市板橋區富山街5號","121.478613333333","25.0215666666667","6500100","板橋區"
"220031","286-VK","2018/04/02 14:19:47","新北市板橋區龍興街95巷12號","121.44357","25.0026333333333","6500100","板橋區"
"220039","288-VK","2018/04/02 14:19:52","新北市板橋區長江路一段106巷13弄35號","121.46134","25.0298216666667","6500100","板橋區"
"220009","293-UM","2018/04/02 14:19:52","新北市板橋區中山路二段255巷7號","121.477026666667","25.017945","6500100","板橋區"
"220032","296-UM","2018/04/02 14:19:44","新北市板橋區溪北路91號","121.42858","24.98934","6500100","板橋區"
"220023","303-R5","2018/04/02 14:19:44","新北市板橋區南雅南路一段75號","121.455875","25.0055616666667","6500100","板橋區"
"220010","305-R5","2018/04/02 14:19:49","新北市板橋區三民路二段153巷11號","121.480761666667","25.01516","6500100","板橋區"
"220041","307-R5","2018/04/02 14:19:40","新北市板橋區松江街39號","121.468473333333","25.0271383333333","6500100","板橋區"
"220047","317-R6","2018/04/02 14:19:52","新北市板橋區民有街91號","121.464615","25.0275633333333","6500100","板橋區"
"220012","486-VK","2018/04/02 14:19:48","新北市板橋區民權路31號","121.46232","25.0109116666667","6500100","板橋區"
"220037","491-VK","2018/04/02 14:19:48","新北市板橋區文化路二段182巷3弄53號","121.472583333333","25.0288366666667","6500100","板橋區"
"220052","561-BX","2018/04/02 14:19:36","新北市板橋區文化路一段188巷7弄16號","121.467636666667","25.019685","6500100","板橋區"
"220055","568-UM","2018/04/02 14:19:49","新北市板橋區中正路362號","121.454365","25.0239633333333","6500100","板橋區"
"220011","609-BX","2018/04/02 14:19:43","新北市板橋區三民路二段202-15號","121.478991666667","25.0137033333333","6500100","板橋區"
"220003","630-UY","2018/04/02 14:19:40","新北市板橋區民族路57號","121.464636666667","25.0088666666667","6500100","板橋區"
"220040","637-BX","2018/04/02 14:19:36","新北市板橋區文聖街198號","121.480098333333","25.02591","6500100","板橋區"
"220005","686-BX","2018/04/02 14:19:43","新北市板橋區重慶路344號","121.464138333333","24.9972933333333","6500100","板橋區"
"220025","687-BX","2018/04/02 14:19:48","新北市板橋區大觀路二段293號","121.442286666667","24.998835","6500100","板橋區"
"220042","689-BX","2018/04/02 14:19:46","新北市板橋區漢生西路29號","121.463278333333","25.0183216666667","6500100","板橋區"
"220002","741-BX","2018/04/02 14:19:53","新北市板橋區成都街23號","121.460738333333","25.0049483333333","6500100","板橋區"
"220051","KEA-2699","2018/04/02 14:19:49","新北市板橋區文聖街207號","121.479613333333","25.0265033333333","6500100","板橋區"
"220014","829-TW","2018/04/02 14:19:48","新北市板橋區長安街138巷7弄52號","121.47409","25.0091516666667","6500100","板橋區"
"220016","830-TW","2018/04/02 14:19:43","新北市板橋區翠華街6巷109號","121.48177","25.025165","6500100","板橋區"
"220045","831-TW","2018/04/02 14:19:37","新北市板橋區大同街14-4號","121.47747","25.02698","6500100","板橋區"
"220038","833-TW","2018/04/02 14:19:52","新北市板橋區文化路二段19號","121.468835","25.0245933333333","6500100","板橋區"
"220022","895-R6","2018/04/02 14:19:42","新北市板橋區文化路一段27-1號","121.459873333333","25.0128166666667","6500100","板橋區"
"220021","985-R7","2018/04/02 14:19:38","新北市板橋區中正路249號","121.455791666667","25.018285","6500100","板橋區"
"220046","AAC-210","2018/04/02 14:19:40","新北市板橋區漢生西路89巷3弄3號","121.461446666667","25.0192966666667","6500100","板橋區"
"220018","AAC-253","2018/04/02 14:19:45","新北市板橋區忠孝路147號","121.46347","25.0024266666667","6500100","板橋區"
