"lineid","car","time","location","longitude","latitude","cityid","cityname"
"234013","KEA-2591","2018/04/02 15:59:28","新北市永和區福和路1號","121.526173333333","25.0095183333333","6500400","永和區"
"234072","AAC-211","2018/04/02 15:59:37","新北市永和區環河東路二段20號","121.522426666667","25.0129533333333","6500400","永和區"
"243016","539-UM","2018/04/02 15:56:29","新北市泰山區黎明路25號","121.42218","25.0606816666667","6501600","泰山區"
"231011","187-VK","2018/04/02 15:59:31","新北市新店區民生路262號","121.526183333333","24.9808666666667","6500600","新店區"
"231046","188-VK","2018/04/02 15:59:35","新北市新店區安康路一段162號","121.526105","24.9630066666667","6500600","新店區"
"231023","KEA-2219","2018/04/02 15:59:31","新北市新店區安康路二段58巷9號","121.513256666667","24.9644766666667","6500600","新店區"
"231014","260-TV","2018/04/02 15:59:48","新北市新店區三民路17號","121.53965","24.9721933333333","6500600","新店區"
"231003","268-BY","2018/04/02 15:59:47","新北市新店區寶興路60巷4號","121.549846666667","24.9718816666667","6500600","新店區"
"231018","278-BY","2018/04/02 15:59:40","新北市新店區中正路663巷7弄15號","121.532918333333","24.9900683333333","6500600","新店區"
"231013","513-UM","2018/04/02 15:59:44","新北市新店區安和路一段5號","121.516791666667","24.963925","6500600","新店區"
"231030","619-UM","2018/04/02 15:59:26","新北市新店區永平街6號","121.517396666667","24.9835816666667","6500600","新店區"
"231034","641-BX","2018/04/02 15:59:28","新北市新店區如意街61號","121.493746666667","24.9472383333333","6500600","新店區"
"231035","719-UY","2018/04/02 15:59:28","新北市新店區安民街251巷10弄2號","121.5167","24.9726833333333","6500600","新店區"
"231024","AKT-0513","2018/04/02 15:52:18","新北市新店區安華路28-1號","121.51936","24.960725","6500600","新店區"
"241011","013-R5","2018/04/02 15:59:32","新北市三重區雙園街1巷1號","121.497021666667","25.0680866666667","6500200","三重區"
"241028","022-UY","2018/04/02 15:59:39","新北市三重區電信街41號","121.496833333333","25.0584216666667","6500200","三重區"
"241008","059-VK","2018/04/02 15:59:30","新北市三重區成功路110-1號","121.487146666667","25.0516","6500200","三重區"
"241015","062-VK","2018/04/02 15:59:36","新北市三重區重新路四段121號","121.485143333333","25.0520133333333","6500200","三重區"
"241017","063-VK","2018/04/02 15:59:28","新北市三重區大仁街48巷67號","121.490343333333","25.0643666666667","6500200","三重區"
"241024","065-VK","2018/04/02 15:59:41","新北市三重區力行路一段38巷2號","121.48545","25.06678","6500200","三重區"
"241026","066-VK","2018/04/02 15:59:44","新北市三重區重新路三段198號","121.489995","25.0587666666667","6500200","三重區"
"241005","262-UM","2018/04/02 15:59:42","新北市三重區溪尾街305號","121.4875","25.0837266666667","6500200","三重區"
"241016","265-UM","2018/04/02 15:59:44","新北市三重區重新路四段121號","121.485128333333","25.0520333333333","6500200","三重區"
"241022","267-UM","2018/04/02 15:59:48","新北市三重區忠孝路三段40巷44號","121.482876666667","25.0657766666667","6500200","三重區"
"241018","268-UM","2018/04/02 15:59:36","新北市三重區大仁街22號","121.491423333333","25.0635766666667","6500200","三重區"
"241013","270-UM","2018/04/02 15:59:27","新北市三重區安慶街23號","121.496716666667","25.0694383333333","6500200","三重區"
"241025","271-UM","2018/04/02 15:59:39","新北市三重區三民街211號","121.481366666667","25.066125","6500200","三重區"
"241007","398-BY","2018/04/02 15:59:34","新北市三重區力行路二段29號","121.481871666667","25.0729566666667","6500200","三重區"
"241020","478-VK","2018/04/02 15:59:32","新北市三重區力行路一段191號","121.483451666667","25.0698966666667","6500200","三重區"
"241014","543-UM","2018/04/02 15:59:38","新北市三重區重新路四段121號","121.484968333333","25.0520583333333","6500200","三重區"
"241023","545-UM","2018/04/02 15:59:40","新北市三重區中正北路174號","121.483883333333","25.0665566666667","6500200","三重區"
"241006","AAD-863","2018/04/02 15:59:41","新北市三重區車路頭街135號","121.484135","25.0758533333333","6500200","三重區"
"241012","941-UM","2018/04/02 15:59:34","新北市三重區文化北路118巷52號","121.497343333333","25.0661516666667","6500200","三重區"
"241029","942-UM","2018/04/02 15:59:35","新北市三重區大同南路212巷24號","121.497498333333","25.05664","6500200","三重區"
"241033","AAC-255","2018/04/02 15:59:46","新北市三重區五谷王南街10號","121.474693333333","25.04674","6500200","三重區"
"235026","800-TS","2018/04/02 15:59:35","新北市中和區橋和路120-1號","121.492606666667","25.0057683333333","6500300","中和區"
"224007","275-VK","2018/04/02 15:59:43","新北市瑞芳區大寮路91號","121.780745","25.0976716666667","6501200","瑞芳區"
"227001","642-TC","2018/04/02 15:59:42","新北市雙溪區平林里外平林70號","121.842678333333","25.0350266666667","6502500","雙溪區"
"227008","400-TW","2018/04/02 15:59:42","新北市雙溪區三港里雙澳路40號","121.87333","25.0516533333333","6502500","雙溪區"
"236074","166-UM","2018/04/02 15:59:39","新北市土城區德安街20號","121.421366666667","24.96441","6501300","土城區"
"236057","912-UM","2018/04/02 15:59:36","新北市土城區中央路二段263號","121.439786666667","24.97107","6501300","土城區"
"238002","755-BX","2018/04/02 15:59:35","新北市樹林區啟智街80巷24號","121.4186","24.9925266666667","6500700","樹林區"
"238010","601-UM","2018/04/02 15:59:41","新北市樹林區龍興街46巷14號","121.402491666667","25.015395","6500700","樹林區"
"238006","599-UM","2018/04/02 15:59:39","新北市樹林區國凱街140巷4號","121.423823333333","24.9805616666667","6500700","樹林區"
"238005","571-TV","2018/04/02 15:59:38","新北市樹林區博愛街69號","121.427176666667","24.992225","6500700","樹林區"
"238011","5061-A6","2018/04/02 15:59:45","新北市樹林區中山路三段54號","121.394048333333","24.9724283333333","6500700","樹林區"
"238009","KEA-2213","2018/04/02 15:59:40","新北市樹林區太平路207號","121.41869","24.978115","6500700","樹林區"
"238012","303-VK","2018/04/02 15:59:43","新北市樹林區保安街一段122號","121.423395","24.994985","6500700","樹林區"
"238001","283-BY","2018/04/02 15:59:43","新北市樹林區中正路433-2號","121.414923333333","25.0082033333333","6500700","樹林區"
"238001","282-BY","2018/04/02 15:59:25","新北市樹林區千歲街4號","121.425116666667","24.9956783333333","6500700","樹林區"
"238007","268-VK","2018/04/02 15:59:40","新北市新莊區龍安路254巷18-1號","121.420603333333","25.0183933333333","6500700","樹林區"
"238013","172-UY","2018/04/02 15:59:28","新北市樹林區佳園路一段82-1號","121.393376666667","24.969545","6500700","樹林區"
"238003","169-UY","2018/04/02 15:59:32","新北市樹林區文化街22號","121.4195","24.987595","6500700","樹林區"
