"lineid","car","time","location","longitude","latitude","cityid","cityname"
"234013","KEA-2591","2018/04/02 16:29:28","新北市永和區福和路1號","121.525953333333","25.0095066666667","6500400","永和區"
"243011","297-R6","2018/04/02 16:05:37","新北市泰山區黎明路25號","121.421913333333","25.0609583333333","6501600","泰山區"
"231001","047-UY","2018/04/02 16:06:30","新北市新店區安華路28-1號","121.519311666667","24.9609066666667","6500600","新店區"
"231046","188-VK","2018/04/02 16:29:35","新北市新店區灣潭路3-7號","121.537898333333","24.950285","6500600","新店區"
"231054","KEA-2219","2018/04/02 16:26:49","新北市新店區安華路28-1號","121.519715","24.961175","6500600","新店區"
"231055","AKT-0513","2018/04/02 16:25:50","新北市新店區安華路28-1號","121.519455","24.9607033333333","6500600","新店區"
"241011","013-R5","2018/04/02 16:29:32","新北市三重區秀江街113號","121.499765","25.0724483333333","6500200","三重區"
"241028","022-UY","2018/04/02 16:29:39","新北市三重區中正南路188號","121.49392","25.0561233333333","6500200","三重區"
"241008","059-VK","2018/04/02 16:29:31","新北市三重區力行路二段136巷45弄12號","121.479195","25.07538","6500200","三重區"
"241009","060-VK","2018/04/02 16:29:37","新北市三重區三和路四段203巷129號","121.484931666667","25.08001","6500200","三重區"
"241031","061-VK","2018/04/02 16:29:38","新北市三重區重陽路一段53號","121.486771666667","25.0583716666667","6500200","三重區"
"241015","062-VK","2018/04/02 16:29:36","新北市三重區福德北路40號","121.501831666667","25.0652266666667","6500200","三重區"
"241017","063-VK","2018/04/02 16:29:48","新北市三重區大同北路38-1號","121.49528","25.0628","6500200","三重區"
"241024","065-VK","2018/04/02 16:29:41","新北市三重區中正北路315巷16弄8號","121.475305","25.07166","6500200","三重區"
"241026","066-VK","2018/04/02 16:29:44","新北市三重區文化南路42號","121.500368333333","25.06038","6500200","三重區"
"241002","090-VK","2018/04/02 16:29:41","新北市三重區五華街6號","121.495103333333","25.08002","6500200","三重區"
"241003","091-VK","2018/04/02 16:29:43","新北市三重區仁義街228巷10號","121.494388333333","25.0844966666667","6500200","三重區"
"241005","262-UM","2018/04/02 16:29:42","新北市三重區溪尾街248號","121.48748","25.0826066666667","6500200","三重區"
"241016","265-UM","2018/04/02 16:29:44","新北市三重區大智街23號","121.494241666667","25.065855","6500200","三重區"
"241022","267-UM","2018/04/02 16:29:48","新北市三重區新北大道一段86巷10號","121.486105","25.0618716666667","6500200","三重區"
"241018","268-UM","2018/04/02 16:29:36","新北市三重區重陽路四段51號","121.491753333333","25.0701116666667","6500200","三重區"
"241032","269-UM","2018/04/02 16:29:47","新北市三重區三陽路100巷3弄13號","121.482958333333","25.05808","6500200","三重區"
"241013","270-UM","2018/04/02 16:29:27","新北市三重區三和路三段101巷1號","121.494601666667","25.0725966666667","6500200","三重區"
"241025","271-UM","2018/04/02 16:29:39","新北市三重區中正北路560巷100弄2號","121.47256","25.0682383333333","6500200","三重區"
"241007","398-BY","2018/04/02 16:29:34","新北市三重區三和路四段167巷178號","121.487948333333","25.08034","6500200","三重區"
"241004","475-VK","2018/04/02 16:29:37","新北市三重區仁愛街377巷14號","121.491875","25.080585","6500200","三重區"
"241020","478-VK","2018/04/02 16:29:32","新北市三重區後竹圍街197號","121.485028333333","25.0714883333333","6500200","三重區"
"241030","480-VK","2018/04/02 16:29:32","新北市三重區成功路96號","121.48768","25.0515433333333","6500200","三重區"
"241014","543-UM","2018/04/02 16:29:38","新北市三重區河邊北街70-1號","121.504346666667","25.0683266666667","6500200","三重區"
"241023","545-UM","2018/04/02 16:29:40","新北市三重區忠孝路三段50巷47號","121.483028333333","25.0644333333333","6500200","三重區"
"241019","KEA-2593","2018/04/02 16:29:34","新北市三重區重陽路三段95號","121.490181666667","25.06793","6500200","三重區"
"241006","AAD-863","2018/04/02 16:29:43","新北市三重區力行路二段170號","121.483211666667","25.07695","6500200","三重區"
"241001","887-TS","2018/04/02 16:29:20","新北市三重區福隆路87號","121.492065","25.078205","6500200","三重區"
"241012","941-UM","2018/04/02 16:29:29","新北市三重區河邊北街272號","121.501596666667","25.0765783333333","6500200","三重區"
"241029","942-UM","2018/04/02 16:29:35","新北市三重區集美街126巷8號","121.489201666667","25.053635","6500200","三重區"
"241033","AAC-255","2018/04/02 16:29:46","新北市三重區重新路五段416號","121.475405","25.0476416666667","6500200","三重區"
"235046","733-UM","2018/04/02 16:29:27","新北市中和區員山路36巷13號","121.484176666667","24.9908266666667","6500300","中和區"
"235026","800-TS","2018/04/02 16:29:35","新北市中和區建八路130號","121.488791666667","24.99855","6500300","中和區"
"224007","275-VK","2018/04/02 16:29:45","新北市瑞芳區瑞竹路69-3號","121.764011666667","25.1030216666667","6501200","瑞芳區"
"224005","271-BY","2018/04/02 16:29:43","新北市瑞芳區阿美家園50號","121.821163333333","25.117225","6501200","瑞芳區"
"227001","642-TC","2018/04/02 16:29:42","新北市雙溪區上林里內平林120-2號","121.824481666667","25.02627","6502500","雙溪區"
"227008","400-TW","2018/04/02 16:29:41","新北市雙溪區三港里雙澳路37-5號","121.872746666667","25.0502033333333","6502500","雙溪區"
"251013","179-VK","2018/04/02 16:29:41","新北市淡水區大溪6-2號","121.494045","25.1917016666667","6501000","淡水區"
"251008","181-VK","2018/04/02 16:29:42","新北市淡水區樹梅坑17號","121.471343333333","25.1441916666667","6501000","淡水區"
"251015","182-VK","2018/04/02 16:29:45","新北市淡水區中正路二段16號","121.42032","25.18085","6501000","淡水區"
"251016","442-VK","2018/04/02 16:29:29","新北市淡水區新民街一段5號","121.433245","25.183515","6501000","淡水區"
"238011","5061-A6","2018/04/02 16:29:45","新北市樹林區中山路一段247號","121.420583333333","24.98664","6500700","樹林區"
"238012","303-VK","2018/04/02 16:29:43","新北市樹林區中正路22-1號","121.427856666667","24.999525","6500700","樹林區"
"238001","283-BY","2018/04/02 16:29:43","新北市樹林區中正路433-2號","121.414911666667","25.008215","6500700","樹林區"
"238001","282-BY","2018/04/02 16:29:45","新北市樹林區中正路22-1號","121.427725","24.99962","6500700","樹林區"
"238007","268-VK","2018/04/02 16:29:41","新北市樹林區俊英街284號","121.423651666667","25.0137133333333","6500700","樹林區"
"238003","169-UY","2018/04/02 16:29:32","新北市樹林區中山路三段210-2號","121.381375","24.9655583333333","6500700","樹林區"
