"lineid","car","time","location","longitude","latitude","cityid","cityname"
"234046","148-BY","2018/04/02 18:39:23","新北市永和區永元路68號","121.522538333333","25.0015933333333","6500400","永和區"
"234007","207-UY","2018/04/02 18:39:26","新北市永和區環河西路二段179號","121.504476666667","25.0129416666667","6500400","永和區"
"234081","298-R6","2018/04/02 18:39:14","新北市永和區林森路81號","121.52388","25.0039516666667","6500400","永和區"
"234038","336-UY","2018/04/02 18:39:25","新北市永和區福和路1號","121.526673333333","25.01006","6500400","永和區"
"234086","338-UY","2018/04/02 18:39:21","新北市中和區安和路21號","121.51094","24.9940466666667","6500400","永和區"
"234017","745-BX","2018/04/02 18:39:28","新北市永和區福和路1號","121.526346666667","25.0095783333333","6500400","永和區"
"234030","746-BX","2018/04/02 18:39:30","新北市永和區得和路326號","121.523236666667","24.9995366666667","6500400","永和區"
"234013","KEA-2591","2018/04/02 18:39:23","新北市永和區仁愛路99號","121.512741666667","25.0130666666667","6500400","永和區"
"234061","AAD-866","2018/04/02 18:39:13","新北市永和區福和路8巷3號","121.52487","25.0091116666667","6500400","永和區"
"234042","862-TW","2018/04/02 18:39:23","新北市永和區永貞路304號","121.51199","25.0047816666667","6500400","永和區"
"234050","863-TW","2018/04/02 18:39:26","新北市永和區福和路1號","121.526523333333","25.0096966666667","6500400","永和區"
"234026","9371-KE","2018/04/02 18:39:31","新北市永和區仁愛路285號","121.505561666667","25.0095833333333","6500400","永和區"
"234011","9373-KE","2018/04/02 18:39:25","新北市永和區文化路9巷22弄46號","121.51408","25.0145233333333","6500400","永和區"
"249005","172-UM","2018/04/02 18:39:23","新北市八里區中華路三段34-2號","121.388663333333","25.1254933333333","6502300","八里區"
"249001","173-UM","2018/04/02 18:39:26","新北市八里區龍米路一段360號","121.451526666667","25.13134","6502300","八里區"
"249004","303-UY","2018/04/02 18:39:21","新北市八里區忠四街9號","121.424948333333","25.160675","6502300","八里區"
"249002","305-UY","2018/04/02 18:39:29","新北市八里區龍形一街33巷6-1號","121.449208333333","25.12959","6502300","八里區"
"248016","026-BX","2018/04/02 18:39:14","新北市五股區凌雲路一段149巷7號","121.448898333333","25.1016616666667","6501500","五股區"
"248008","095-VK","2018/04/02 18:39:25","新北市五股區中興路一段150巷8號","121.464633333333","25.074215","6501500","五股區"
"248018","225-UY","2018/04/02 18:39:23","新北市五股區民義路三段1號","121.402611666667","25.11442","6501500","五股區"
"248012","247-BX","2018/04/02 18:39:28","新北市五股區御史路1巷1-5號","121.442468333333","25.089835","6501500","五股區"
"248014","261-SL","2018/04/02 18:39:15","新北市五股區蓬萊路24號","121.434148333333","25.0798116666667","6501500","五股區"
"248004","677-BX","2018/04/02 18:39:29","新北市五股區民義路一段206號","121.430386666667","25.0890333333333","6501500","五股區"
"248002","678-BX","2018/04/02 18:39:28","新北市五股區西雲路205號","121.448518333333","25.096495","6501500","五股區"
"248010","682-TV","2018/04/02 18:39:18","新北市五股區水碓一路63號","121.431818333333","25.0725366666667","6501500","五股區"
"234023","9380-KE","2018/04/02 18:39:17","新北市永和區福和路1號","121.525391666667","25.0095583333333","6500400","永和區"
"234077","969-R7","2018/04/02 18:39:30","新北市永和區中正路404號","121.517563333333","25.0019016666667","6500400","永和區"
"234074","AAC-211","2018/04/02 18:39:29","新北市永和區福和路1號","121.526455","25.00986","6500400","永和區"
"234067","AAC-212","2018/04/02 18:39:12","新北市永和區中正路513號","121.516946666667","25.0073283333333","6500400","永和區"
"234003","AAC-295","2018/04/02 18:39:15","新北市永和區福和路1號","121.525875","25.009395","6500400","永和區"
"244013","069-UM","2018/04/02 18:39:20","新北市林口區中山路267號","121.385221666667","25.07954","6501700","林口區"
"244007","080-UY","2018/04/02 18:39:23","新北市林口區太平里8-1號","121.380435","25.1140016666667","6501700","林口區"
"244025","742-UY","2018/04/02 18:39:23","新北市林口區南勢六街252號","121.356183333333","25.0751466666667","6501700","林口區"
"244009","410-SL","2018/04/02 18:39:31","新北市林口區竹林路278巷2號","121.390336666667","25.08176","6501700","林口區"
"244023","483-VK","2018/04/02 18:39:23","新北市林口區文化二路二段110巷12號","121.380125","25.0813216666667","6501700","林口區"
"244017","485-VK","2018/04/02 18:39:32","新北市林口區文化二路一段269號","121.367461666667","25.0707233333333","6501700","林口區"
"244019","657-BX","2018/04/02 18:39:16","新北市林口區忠孝路646巷14號","121.379055","25.0677266666667","6501700","林口區"
"244011","701-TV","2018/04/02 18:39:25","新北市林口區仁愛路一段338號","121.390855","25.07645","6501700","林口區"
"244021","838-TS","2018/04/02 18:39:20","新北市林口區自強二街20號","121.397868333333","25.0780833333333","6501700","林口區"
"243012","AAD-798","2018/04/02 18:39:25","新北市泰山區福興三街13號","121.434436666667","25.0577933333333","6501600","泰山區"
"243016","539-UM","2018/04/02 18:39:29","新北市泰山區泰林路二段585號","121.421973333333","25.063525","6501600","泰山區"
"243010","KEA-2215","2018/04/02 18:39:11","新北市泰山區黎明路25號","121.421955","25.0607633333333","6501600","泰山區"
"243013","646-TV","2018/04/02 18:39:29","新北市泰山區明志路三段206巷1號","121.423311666667","25.0378616666667","6501600","泰山區"
"222003","436-BY","2018/04/02 18:39:21","新北市深坑區翠谷街27號","121.62673","25.008955","6501800","深坑區"
"222002","659-BX","2018/04/02 18:39:30","新北市深坑區雲鄉路13號","121.6217","24.9997566666667","6501800","深坑區"
"231041","002-UM","2018/04/02 18:39:15","新北市新店區安華路28-1號","121.519776666667","24.9608216666667","6500600","新店區"
"231059","046-UY","2018/04/02 18:39:20","新北市新店區安華路28-1號","121.51964","24.960725","6500600","新店區"
"231040","047-UY","2018/04/02 18:39:26","新北市新店區安華路28-1號","121.519348333333","24.9608416666667","6500600","新店區"
"231044","106-UY","2018/04/02 18:39:17","新北市新店區安康路一段355號","121.519811666667","24.9627933333333","6500600","新店區"
"231052","108-UY","2018/04/02 18:39:18","新北市新店區永興路30號","121.54372","24.9389116666667","6500600","新店區"
"231047","187-VK","2018/04/02 18:39:24","新北市新店區安康路一段92-1號","121.527826666667","24.9620116666667","6500600","新店區"
"231046","188-VK","2018/04/02 18:39:15","新北市新店區直潭二街1號","121.53554","24.9431833333333","6500600","新店區"
"231054","KEA-2219","2018/04/02 18:39:20","新北市新店區安華路28-1號","121.51982","24.9612916666667","6500600","新店區"
"231057","256-BX","2018/04/02 18:39:17","新北市新店區新烏路一段215號","121.549213333333","24.9314166666667","6500600","新店區"
"231050","260-TV","2018/04/02 18:39:26","新北市新店區安華路28-1號","121.519051666667","24.9606516666667","6500600","新店區"
"231042","268-BY","2018/04/02 18:39:27","新北市新店區安華路1-1號","121.519385","24.9604666666667","6500600","新店區"
"231051","278-BY","2018/04/02 18:13:30","新北市新店區安華路16號","121.517443333333","24.9588566666667","6500600","新店區"
"231058","3713-VJ","2018/04/02 18:39:12","新北市新店區北宜路一段170號","121.540548333333","24.9529266666667","6500600","新店區"
"231066","4716-K9","2018/04/02 18:39:31","新北市新店區車子路10-4號","121.504995","24.9545683333333","6500600","新店區"
"231056","4715-K9","2018/04/02 18:39:31","新北市新店區自立街33號","121.537425","24.97963","6500600","新店區"
"231067","4772-VM","2018/04/02 18:39:16","新北市新店區安康路一段287號","121.523176666667","24.9636183333333","6500600","新店區"
"231065","512-UM","2018/04/02 18:39:15","新北市新店區安華路28-1號","121.519113333333","24.960845","6500600","新店區"
"231049","513-UM","2018/04/02 18:39:17","新北市新店區安康路一段203號","121.52605","24.96297","6500600","新店區"
"231061","619-UM","2018/04/02 18:39:29","新北市新店區安華路28-1號","121.519626666667","24.9607216666667","6500600","新店區"
"231063","641-BX","2018/04/02 18:39:23","新北市新店區安華路28-1號","121.519596666667","24.960515","6500600","新店區"
"231064","719-UY","2018/04/02 18:39:21","新北市新店區安華路28-1號","121.51984","24.9610966666667","6500600","新店區"
"231062","720-UM","2018/04/02 18:39:19","新北市新店區安華路28-1號","121.51924","24.9610716666667","6500600","新店區"
"231060","897-TW","2018/04/02 18:39:13","新北市新店區安華路28-1號","121.519633333333","24.960755","6500600","新店區"
"231045","898-TW","2018/04/02 18:39:21","新北市新店區安華路28-1號","121.519361666667","24.960865","6500600","新店區"
"231043","899-TW","2018/04/02 18:39:19","新北市新店區安康路一段359-27號","121.51872","24.960945","6500600","新店區"
"231055","AKT-0513","2018/04/02 18:39:14","新北市新店區華興街23號","121.537575","24.9691583333333","6500600","新店區"
"235066","003-UY","2018/04/02 18:39:30","新北市中和區水源路28號","121.504496666667","25.00352","6500300","中和區"
"235064","005-UY","2018/04/02 18:39:21","新北市中和區連城路75巷1-2號","121.497598333333","24.9999316666667","6500300","中和區"
"235063","006-UY","2018/04/02 18:39:16","新北市中和區中正路632號","121.485565","24.995995","6500300","中和區"
"235056","096-UM","2018/04/02 18:39:18","新北市中和區員山路611巷5弄1號","121.47793","25.0112183333333","6500300","中和區"
"235065","098-UM","2018/04/02 18:39:23","新北市中和區莊敬路49巷27號","121.501515","25.006155","6500300","中和區"
"235040","150-BY","2018/04/02 18:39:24","新北市中和區保健路106巷12弄13號","121.511016666667","24.9955433333333","6500300","中和區"
"235058","151-BY","2018/04/02 18:39:19","新北市中和區員山路66-3號","121.482225","24.99141","6500300","中和區"
"235055","183-VK","2018/04/02 18:39:27","新北市中和區中山路三段229巷51號","121.469185","25.0054633333333","6500300","中和區"
"235038","185-VK","2018/04/02 18:39:29","新北市中和區自強路60號","121.519835","24.9944666666667","6500300","中和區"
"235049","186-VK","2018/04/02 18:39:34","新北市中和區景平路490號","121.504833333333","24.993625","6500300","中和區"
"235067","255-BX","2018/04/02 18:39:11","新北市中和區新生街1號","121.483251666667","25.00482","6500300","中和區"
"235067","293-VK","2018/04/02 18:39:32","新北市中和區復興路280巷6號","121.502283333333","24.9911533333333","6500300","中和區"
"235072","301-VK","2018/04/02 18:39:16","新北市中和區中山路二段134號","121.502305","25.0032816666667","6500300","中和區"
"235043","352-BY","2018/04/02 18:39:22","新北市中和區景德街88號","121.51614","24.99189","6500300","中和區"
"235068","377-QA","2018/04/02 18:39:31","新北市中和區中正路152號","121.498876666667","24.9939","6500300","中和區"
"235061","378-QA","2018/04/02 18:39:18","新北市中和區民享街116巷27弄1號","121.473688333333","24.9990233333333","6500300","中和區"
"235050","4979-A6","2018/04/02 18:39:28","新北市中和區四維街36號","121.512531666667","24.98707","6500300","中和區"
"235069","4980-A6","2018/04/02 18:39:34","新北市中和區泰和街38巷20號","121.498765","25.0008766666667","6500300","中和區"
"235042","551-UM","2018/04/02 18:39:27","新北市中和區成功路97巷18弄7號","121.526926666667","24.991495","6500300","中和區"
"235070","558-UM","2018/04/02 18:39:17","新北市中和區景新街133號","121.505875","24.9972516666667","6500300","中和區"
"235045","565-BX","2018/04/02 18:39:30","新北市中和區南山路236巷57號","121.504565","24.988125","6500300","中和區"
"235054","640-BX","2018/04/02 18:39:26","新北市中和區民享街32巷19號","121.472655","25.0031416666667","6500300","中和區"
"235047","732-UM","2018/04/02 18:38:02","新北市中和區南山路320巷10弄21號","121.506765","24.986695","6500300","中和區"
"235046","733-UM","2018/04/02 18:39:22","新北市中和區忠孝街128號","121.512035","24.986495","6500300","中和區"
"235062","800-TS","2018/04/02 18:39:19","新北市中和區中山路二段312巷12號","121.495478333333","25.0037016666667","6500300","中和區"
"235057","801-TS","2018/04/02 18:39:25","新北市中和區員山路327巷48號","121.480295","25.0017383333333","6500300","中和區"
"235041","802-TS","2018/04/02 18:39:22","新北市中和區宜安路150號","121.509426666667","24.9986266666667","6500300","中和區"
"235052","805-TS","2018/04/02 18:39:22","新北市中和區興南路三段83號","121.491081666667","24.973855","6500300","中和區"
"235048","896-TW","2018/04/02 18:39:30","新北市中和區南山路313號","121.504971666667","24.9914","6500300","中和區"
"235053","900-TW","2018/04/02 18:39:29","新北市中和區民享街482號","121.46937","24.992465","6500300","中和區"
"235060","911-UM","2018/04/02 18:39:11","新北市中和區中山路二段543號","121.481175","25.005435","6500300","中和區"
"235051","157-BY","2018/04/02 18:39:18","新北市中和區興南路二段110號","121.504535","24.9840666666667","6500300","中和區"
"235059","AAC-215","2018/04/02 18:39:03","新北市中和區錦和路350-1號","121.490536666667","24.9935216666667","6500300","中和區"
"220065","072-UY","2018/04/02 18:39:22","新北市板橋區南雅南路二段1-1號","121.4549","25.0040016666667","6500100","板橋區"
"220086","073-UY","2018/04/02 18:39:31","新北市板橋區南雅西路二段192巷3號","121.45206","25.0144","6500100","板橋區"
"220069","AAD-861","2018/04/02 18:39:20","新北市板橋區華東街1-10號","121.448305","24.99512","6500100","板橋區"
"226004","312-R5","2018/04/02 18:38:37","新北市平溪區平溪里三坑路38號","121.733668333333","25.0314683333333","6502400","平溪區"
"235039","251-BX","2018/04/02 18:39:19","新北市中和區安樂路189號","121.514813333333","24.99819","6500300","中和區"
"228003","097-TW","2018/04/02 18:39:23","新北市貢寮區和美里龍洞街41號","121.912606666667","25.11322","6502600","貢寮區"
"228002","585-TW","2018/04/02 18:39:30","新北市貢寮區福連里香蘭街3-3號","121.971898333333","25.0246716666667","6502600","貢寮區"
"228001","670-TC","2018/04/02 18:39:32","新北市貢寮區仁理村保健街73號","121.923715","25.05169","6502600","貢寮區"
"224010","AGQ-8101","2018/04/02 18:35:18","新北市瑞芳區金光路334號","121.848461666667","25.1097483333333","6501200","瑞芳區"
"224006","676-BX","2018/04/02 18:39:21","新北市瑞芳區明燈路三段97號","121.804183333333","25.1085716666667","6501200","瑞芳區"
"224002","639-TC","2018/04/02 18:39:21","新北市瑞芳區三爪子坑路25號","121.81347","25.1075266666667","6501200","瑞芳區"
"224008","285-BY","2018/04/02 18:39:27","新北市瑞芳區瑞芳街43號","121.806473333333","25.1094766666667","6501200","瑞芳區"
"224007","275-VK","2018/04/02 18:39:22","新北市瑞芳區大埔路117號","121.763518333333","25.1010333333333","6501200","瑞芳區"
"224009","273-VK","2018/04/02 18:39:15","新北市瑞芳區祈堂路8號","121.858835","25.1140766666667","6501200","瑞芳區"
"224005","271-BY","2018/04/02 18:39:23","新北市瑞芳區瑞濱路87號","121.820708333333","25.1209933333333","6501200","瑞芳區"
"227001","642-TC","2018/04/02 18:39:31","新北市雙溪區魚行里坤溪3-5號","121.875745","25.0211733333333","6502500","雙溪區"
"227008","400-TW","2018/04/02 18:39:22","新北市雙溪區牡丹里下坑11號","121.850998333333","25.056165","6502500","雙溪區"
"253005","032-BX","2018/04/02 18:39:20","新北市石門區中山路33號","121.567183333333","25.2909416666667","6502200","石門區"
"253006","295-VK","2018/04/02 18:39:31","新北市石門區楓林28-5號","121.542338333333","25.2894916666667","6502200","石門區"
"222001","KEA-2212","2018/04/02 18:39:25","新北市深坑區北深路一段82號","121.636351666667","25.010645","6501800","深坑區"
"208002","KEA-2872","2018/04/02 18:39:13","新北市金山區忠孝一路15巷11號","121.638448333333","25.2183483333333","6502700","金山區"
"208003","665-BX","2018/04/02 18:39:29","新北市金山區中山路344號","121.63346","25.2253316666667","6502700","金山區"
"208001","761-BX","2018/04/02 18:39:19","新北市金山區文化三路7號","121.63518","25.224895","6502700","金山區"
"251009","008-UM","2018/04/02 18:39:14","新北市淡水區中山北路三段116號","121.443823333333","25.1938466666667","6501000","淡水區"
"251004","009-UM","2018/04/02 18:39:22","新北市淡水區民權路41號","121.460551666667","25.1403283333333","6501000","淡水區"
"251001","011-UM","2018/04/02 18:39:31","新北市淡水區自強路415巷2號","121.4655","25.1341866666667","6501000","淡水區"
"251002","012-UM","2018/04/02 18:39:28","新北市淡水區中正東路一段3巷14弄1號","121.450975","25.1641766666667","6501000","淡水區"
"251013","179-VK","2018/04/02 18:39:23","新北市淡水區雲廣坑5-1號","121.47425","25.2129766666667","6501000","淡水區"
"251014","180-VK","2018/04/02 18:39:31","新北市淡水區崙頂12-8號","121.495581666667","25.2172233333333","6501000","淡水區"
"251008","181-VK","2018/04/02 18:39:21","新北市淡水區北投子18號","121.453928333333","25.1839933333333","6501000","淡水區"
"251015","182-VK","2018/04/02 18:39:25","新北市淡水區興福寮66巷579號","121.484376666667","25.16331","6501000","淡水區"
"251010","413-VK","2018/04/02 18:39:23","新北市淡水區沙崙路122號","121.423376666667","25.1827083333333","6501000","淡水區"
"251012","441-VK","2018/04/02 18:39:16","新北市淡水區北新路117號","121.448906666667","25.1786216666667","6501000","淡水區"
"251016","442-VK","2018/04/02 18:39:29","新北市淡水區下圭柔山72-1號","121.445748333333","25.20614","6501000","淡水區"
"251006","561-UM","2018/04/02 18:39:21","新北市淡水區崁頂37-11號","121.438611666667","25.1941583333333","6501000","淡水區"
"251011","650-BX","2018/04/02 18:39:31","新北市淡水區鄧公路36巷9號","121.456333333333","25.169125","6501000","淡水區"
"251003","766-UM","2018/04/02 18:39:30","新北市淡水區北新路69巷32號","121.446915","25.179975","6501000","淡水區"
"207003","550-UM","2018/04/02 18:39:12","新北市萬里區野柳里港西路80-1號","121.684001666667","25.2060933333333","6502800","萬里區"
"207004","225-TW","2018/04/02 18:39:13","新北市萬里區萬里里獅頭路7號","121.69201","25.17831","6502800","萬里區"
"252002","178-VK","2018/04/02 18:39:18","新北市三芝區民生街64巷13號","121.503691666667","25.2550366666667","6502100","三芝區"
"252003","249-BX","2018/04/02 18:39:28","新北市三芝區後厝里土地公坑54-5號","121.466611666667","25.2497733333333","6502100","三芝區"
"252001","292-VK","2018/04/02 18:39:25","新北市三芝區中興街二段260號","121.501886666667","25.2528983333333","6502100","三芝區"
"237004","KEA-2597","2018/04/02 18:39:30","新北市三峽區五寮2號","121.379363333333","24.8752266666667","6500900","三峽區"
"237007","153-BY","2018/04/02 18:39:16","新北市三峽區中正路三段128號","121.354063333333","24.9035633333333","6500900","三峽區"
"237009","210-TH","2018/04/02 18:39:13","新北市三峽區大同路286巷12號","121.363868333333","24.9251666666667","6500900","三峽區"
"237013","252-BX","2018/04/02 18:39:19","新北市三峽區光明路69巷25號","121.376726666667","24.929185","6500900","三峽區"
"237012","275-BY","2018/04/02 18:39:27","新北市三峽區三樹路214巷13號","121.380048333333","24.9415216666667","6500900","三峽區"
"237008","302-VK","2018/04/02 18:39:19","新北市三峽區白雞39號","121.377688333333","24.911765","6500900","三峽區"
"237014","433-BY","2018/04/02 18:39:20","新北市三峽區和平街67號","121.370058333333","24.936975","6500900","三峽區"
"237006","5529-G3","2018/04/02 18:39:29","新北市三峽區溪東路315巷48弄1號","121.411796666667","24.9308583333333","6500900","三峽區"
"237010","706-TV","2018/04/02 18:39:24","新北市三峽區復興路447號","121.362673333333","24.93853","6500900","三峽區"
"237005","AKY-6261","2018/04/02 18:39:21","新北市三峽區文化路1-1號","121.373623333333","24.9349283333333","6500900","三峽區"
"236069","105-UM","2018/04/02 18:39:20","新北市土城區永豐路157巷29弄6-1號","121.468343333333","24.9814916666667","6501300","土城區"
"236042","107-UM","2018/04/02 18:39:22","新北市土城區學成路108巷6號","121.450148333333","24.9895166666667","6501300","土城區"
"236078","166-UM","2018/04/02 18:39:30","新北市土城區中央路四段52巷10號","121.42001","24.9608466666667","6501300","土城區"
"236030","253-BX","2018/04/02 18:39:24","新北市土城區慶利街35號","121.438858333333","24.974435","6501300","土城區"
"236026","269-VK","2018/04/02 18:39:19","新北市土城區忠義路49-1號","121.440456666667","24.9690683333333","6501300","土城區"
"236014","270-VK","2018/04/02 18:39:21","新北市土城區清水路207巷25號","121.45968","24.9826216666667","6501300","土城區"
"236039","271-VK","2018/04/02 18:39:26","新北市土城區明德路一段232號","121.460475","24.9774066666667","6501300","土城區"
"236020","401-BY","2018/04/02 18:39:17","新北市土城區明德路一段22號","121.465131666667","24.9849433333333","6501300","土城區"
"236059","912-UM","2018/04/02 18:39:28","新北市土城區中央路三段282號","121.426496666667","24.96334","6501300","土城區"
"236048","913-UM","2018/04/02 18:39:32","新北市土城區金城路三段8號","121.464578333333","24.98607","6501300","土城區"
"236063","915-UM","2018/04/02 18:39:24","新北市土城區延壽路13巷17號","121.470026666667","24.9912883333333","6501300","土城區"
"236055","AAC-216","2018/04/02 18:39:18","新北市土城區裕民路6號","121.446775","24.9891583333333","6501300","土城區"
"242053","751-BX","2018/04/02 18:39:14","新北市板橋區大觀路三段50巷67-4號","121.431613333333","24.99621","6500500","新莊區"
"242025","613-BX","2018/04/02 18:35:33","新北市新莊區中平路377巷17弄56號","121.442203333333","25.0522183333333","6500500","新莊區"
"242044","400-BY","2018/04/02 18:39:16","新北市新莊區新莊路666號","121.441731666667","25.032865","6500500","新莊區"
"238023","601-UM","2018/04/02 18:39:21","新北市樹林區三福街114號","121.40647","25.0163433333333","6500700","樹林區"
"238019","599-UM","2018/04/02 18:39:20","新北市樹林區中華路190-16號","121.41177","24.980505","6500700","樹林區"
"238018","571-TV","2018/04/02 18:39:22","新北市樹林區樹新路55號","121.427263333333","24.9948883333333","6500700","樹林區"
"238024","5061-A6","2018/04/02 18:39:25","新北市樹林區太順街79巷15弄7號","121.417458333333","24.9781683333333","6500700","樹林區"
"238021","KEA-2217","2018/04/02 18:39:03","新北市樹林區西圳街二段29號","121.388573333333","24.9617183333333","6500700","樹林區"
"238020","268-VK","2018/04/02 18:39:24","新北市樹林區俊安街66巷8號","121.418615","25.013605","6500700","樹林區"
"238026","172-UY","2018/04/02 18:39:25","新北市樹林區中和街21巷15號","121.39112","24.9723466666667","6500700","樹林區"
"238016","169-UY","2018/04/02 18:39:32","新北市樹林區文化街26號","121.419403333333","24.9876583333333","6500700","樹林區"
"239007","AAC-297","2018/04/02 18:39:31","新北市鶯歌區中山路112號","121.350648333333","24.9570316666667","6500800","鶯歌區"
"239008","527-UM","2018/04/02 18:39:12","新北市鶯歌區國際一路179號","121.336225","24.976495","6500800","鶯歌區"
"239005","526-UM","2018/04/02 18:39:19","新北市鶯歌區鳳吉三街31巷7號","121.327618333333","24.9742533333333","6500800","鶯歌區"
"239001","417-VK","2018/04/02 18:39:20","新北市鶯歌區中正三路115號","121.337941666667","24.9407316666667","6500800","鶯歌區"
"239003","360-BY","2018/04/02 18:39:26","新北市鶯歌區永和街200號","121.336708333333","24.9711533333333","6500800","鶯歌區"
"239004","193-VK","2018/04/02 18:39:25","新北市鶯歌區尖山路302巷15號","121.341471666667","24.943285","6500800","鶯歌區"
"221008","489-VK","2018/04/02 18:39:21","新北市汐止區康寧街901號","121.651326666667","25.0751333333333","6501100","汐止區"
"221036","130-UY","2018/04/02 18:39:24","新北市汐止區忠孝東路338號","121.665148333333","25.0694583333333","6501100","汐止區"
"221015","131-UY","2018/04/02 18:39:19","新北市汐止區鄉友街12號","121.66829","25.08079","6501100","汐止區"
"221010","269-BY","2018/04/02 18:39:28","新北市汐止區瑞松街15號","121.645365","25.1052166666667","6501100","汐止區"
"221012","278-VK","2018/04/02 18:39:13","新北市汐止區保長路147巷2號","121.676671666667","25.0766616666667","6501100","汐止區"
"221023","279-VK","2018/04/02 18:39:22","新北市汐止區明峰街4號","121.635513333333","25.0712066666667","6501100","汐止區"
"221032","280-BY","2018/04/02 18:39:30","新北市汐止區福山街62巷11號","121.618373333333","25.0465316666667","6501100","汐止區"
"221027","281-BY","2018/04/02 18:39:17","新北市汐止區和平街84號","121.661355","25.0707433333333","6501100","汐止區"
"221029","298-VK","2018/04/02 18:39:28","新北市汐止區樟樹一路133巷1號","121.64213","25.06509","6501100","汐止區"
"221021","299-VK","2018/04/02 18:39:27","新北市汐止區復興路53巷2號","121.656858333333","25.062595","6501100","汐止區"
"221031","353-TW","2018/04/02 18:39:27","新北市汐止區中興路130-1號","121.633008333333","25.064015","6501100","汐止區"
"221035","622-UM","2018/04/02 18:39:34","新北市汐止區大同路二段113號","121.65008","25.0632816666667","6501100","汐止區"
"221025","623-UM","2018/04/02 18:39:20","新北市汐止區仁愛路121巷3號","121.66281","25.0639933333333","6501100","汐止區"
"221038","646-BX","2018/04/02 18:39:26","新北市汐止區大同路二段430號","121.659193333333","25.06705","6501100","汐止區"
"221033","647-BX","2018/04/02 18:39:30","新北市汐止區南勢街3號","121.62707","25.0373916666667","6501100","汐止區"
"221002","707-TV","2018/04/02 18:39:30","新北市汐止區中興路23號","121.63688","25.0595516666667","6501100","汐止區"
"221018","753-BX","2018/04/02 18:39:22","新北市汐止區茄苳路255號","121.671956666667","25.06821","6501100","汐止區"
"220079","145-BY","2018/04/02 18:39:21","新北市板橋區館前西路162號","121.452695","25.0086016666667","6500100","板橋區"
"220080","200-UY","2018/04/02 18:39:32","新北市板橋區大觀路二段265巷76弄33-1號","121.441255","24.9967133333333","6500100","板橋區"
"220106","KEA-2550","2018/04/02 18:39:19","新北市板橋區民生路二段161巷1號","121.470221666667","25.019925","6500100","板橋區"
"220082","610-BX","2018/04/02 18:39:34","新北市板橋區大觀路三段52號","121.432471666667","24.9959616666667","6500100","板橋區"
"220072","277-BY","2018/04/02 18:39:15","新北市板橋區大觀路二段443-2號","121.439281666667","24.9951583333333","6500100","板橋區"
"220077","282-UM","2018/04/02 18:39:12","新北市板橋區大觀路二段156巷69號","121.44104","25.0003916666667","6500100","板橋區"
"220071","283-VK","2018/04/02 18:39:23","新北市板橋區四川路二段橋頭6號","121.448251666667","24.9939433333333","6500100","板橋區"
"220083","286-VK","2018/04/02 18:39:22","新北市板橋區大觀路二段107號","121.446296666667","25.0015916666667","6500100","板橋區"
"220081","287-VK","2018/04/02 18:39:13","新北市板橋區板城路421號","121.447986666667","24.9961766666667","6500100","板橋區"
"220084","296-UM","2018/04/02 18:39:24","新北市板橋區大觀路二段153巷44弄53號","121.446011666667","24.9990133333333","6500100","板橋區"
"220075","303-R5","2018/04/02 18:39:27","新北市板橋區華東街310號","121.452765","25.0030116666667","6500100","板橋區"
"220064","486-VK","2018/04/02 18:39:19","新北市板橋區南雅南路一段1巷42號","121.457533333333","25.00633","6500100","板橋區"
"220056","568-UM","2018/04/02 18:39:23","新北市板橋區華東街1-10號","121.448811666667","24.994665","6500100","板橋區"
"220055","630-UY","2018/04/02 18:39:27","新北市板橋區華東街1-9號","121.44814","24.9949016666667","6500100","板橋區"
"220057","686-BX","2018/04/02 18:39:30","新北市板橋區華東街1-9號","121.448255","24.9948733333333","6500100","板橋區"
"220054","741-BX","2018/04/02 18:39:23","新北市板橋區華東街1-9號","121.448105","24.994865","6500100","板橋區"
"220067","829-TW","2018/04/02 18:39:14","新北市板橋區民生路二段161巷3號","121.470255","25.01983","6500100","板橋區"
"220074","895-R6","2018/04/02 18:39:29","新北市板橋區南雅南路二段138號","121.452001666667","24.9964816666667","6500100","板橋區"
"220073","985-R7","2018/04/02 18:39:14","新北市板橋區貴興路84號","121.456115","25.0028016666667","6500100","板橋區"
"220097","AAC-210","2018/04/02 18:39:17","新北市板橋區民生路二段56-6號","121.471063333333","25.0192","6500100","板橋區"
"220070","AAC-253","2018/04/02 18:39:27","新北市板橋區板城路421號","121.448135","24.9956733333333","6500100","板橋區"
