"lineid","car","time","location","longitude","latitude","cityid","cityname"
"234046","148-BY","2018/04/02 19:19:43","新北市永和區得和路373巷6弄1號","121.524835","24.999865","6500400","永和區"
"234070","149-BY","2018/04/02 19:19:36","新北市永和區豫溪街43號","121.516898333333","25.009915","6500400","永和區"
"234007","207-UY","2018/04/02 19:19:46","新北市永和區中山路一段228號","121.50805","25.00815","6500400","永和區"
"234081","298-R6","2018/04/02 19:19:34","新北市永和區福和路7巷5弄1號","121.52519","25.0079733333333","6500400","永和區"
"234038","336-UY","2018/04/02 19:19:45","新北市永和區民樂街59巷1號","121.5278","24.9983283333333","6500400","永和區"
"234064","337-UY","2018/04/02 19:19:32","新北市永和區永元路17巷9號","121.521305","25.0006733333333","6500400","永和區"
"234086","338-UY","2018/04/02 19:19:45","新北市永和區永利路52號","121.519045","25.00518","6500400","永和區"
"234017","745-BX","2018/04/02 19:19:28","新北市永和區文化路144巷31弄6號","121.512476666667","25.0167683333333","6500400","永和區"
"234030","746-BX","2018/04/02 19:19:31","新北市永和區厚德街79號","121.524428333333","24.99877","6500400","永和區"
"234054","KEA-2590","2018/04/02 19:19:37","新北市永和區中興街27號","121.516108333333","25.01199","6500400","永和區"
"234013","KEA-2591","2018/04/02 19:19:44","新北市永和區信義路47號","121.513041666667","25.01245","6500400","永和區"
"234061","AAD-866","2018/04/02 19:19:33","新北市永和區秀朗路一段120號","121.51711","25.00359","6500400","永和區"
"234042","862-TW","2018/04/02 19:19:43","新北市永和區保平路151巷2弄7-1號","121.509721666667","25.0053183333333","6500400","永和區"
"234050","863-TW","2018/04/02 19:19:26","新北市永和區仁愛路104巷10號","121.512115","25.01366","6500400","永和區"
"234026","9371-KE","2018/04/02 19:19:31","新北市永和區安樂路144巷24號","121.515126666667","24.99966","6500400","永和區"
"234011","9373-KE","2018/04/02 19:19:24","新北市永和區保福路二段23巷19號","121.51013","25.0111616666667","6500400","永和區"
"249001","173-UM","2018/04/02 19:19:46","新北市八里區中山路一段372號","121.412246666667","25.1586833333333","6502300","八里區"
"249003","593-UM","2018/04/02 19:19:46","新北市八里區中山路二段466巷3號","121.398806666667","25.1474433333333","6502300","八里區"
"248018","225-UY","2018/04/02 19:19:43","新北市五股區民義路一段251號","121.42788","25.09086","6501500","五股區"
"248012","247-BX","2018/04/02 19:19:28","新北市五股區中興路四段48巷16號","121.438638333333","25.0834366666667","6501500","五股區"
"248004","677-BX","2018/04/02 19:19:29","新北市五股區五福路69號","121.432648333333","25.090115","6501500","五股區"
"248002","678-BX","2018/04/02 19:19:48","新北市五股區凌雲路一段158巷14號","121.447806666667","25.10343","6501500","五股區"
"248010","682-TV","2018/04/02 19:19:38","新北市五股區水碓一路23號","121.430533333333","25.0712366666667","6501500","五股區"
"234023","9380-KE","2018/04/02 19:19:37","新北市永和區竹林路124巷31號","121.518301666667","25.0112283333333","6500400","永和區"
"234077","969-R7","2018/04/02 19:19:30","新北市永和區民族街44號","121.518443333333","24.9987633333333","6500400","永和區"
"234074","AAC-211","2018/04/02 19:19:29","新北市永和區竹林路112-4號","121.519836666667","25.0115083333333","6500400","永和區"
"234067","AAC-212","2018/04/02 19:19:32","新北市永和區保平路50巷1號","121.51126","25.007245","6500400","永和區"
"234003","AAC-295","2018/04/02 19:19:35","新北市永和區中山路一段130號","121.5105","25.01005","6500400","永和區"
"244013","069-UM","2018/04/02 19:19:40","新北市林口區麗園一街2巷1號","121.375555","25.07185","6501700","林口區"
"244023","483-VK","2018/04/02 19:19:43","新北市林口區民有街66號","121.372786666667","25.077165","6501700","林口區"
"244019","657-BX","2018/04/02 19:19:36","新北市林口區文化二路一段567號","121.375073333333","25.0775466666667","6501700","林口區"
"244011","701-TV","2018/04/02 19:19:45","新北市林口區中山路299號","121.38416","25.0802483333333","6501700","林口區"
"243012","AAD-798","2018/04/02 19:19:45","新北市泰山區仁愛路94號","121.43329","25.0553133333333","6501600","泰山區"
"243011","297-R6","2018/04/02 19:19:40","新北市泰山區中央路11巷2號","121.426321666667","25.042735","6501600","泰山區"
"243015","380-SR","2018/04/02 19:02:27","新北市泰山區泰林路二段142巷3號","121.434543333333","25.06001","6501600","泰山區"
"243014","421-VK","2018/04/02 19:19:41","新北市泰山區泰林路二段81號","121.43498","25.0585866666667","6501600","泰山區"
"243016","539-UM","2018/04/02 19:19:29","新北市泰山區工專路60號","121.42288","25.0402883333333","6501600","泰山區"
"243010","KEA-2215","2018/04/02 19:19:31","新北市泰山區明志路一段492巷4弄1號","121.429945","25.0548583333333","6501600","泰山區"
"243009","KEA-2216","2018/04/02 19:19:35","新北市泰山區和平街13巷17號","121.434421666667","25.065325","6501600","泰山區"
"243013","646-TV","2018/04/02 19:19:26","新北市泰山區明志路三段145巷11弄2號","121.425816666667","25.0397216666667","6501600","泰山區"
"222003","436-BY","2018/04/02 19:19:41","新北市深坑區深南路204號","121.626653333333","25.016035","6501800","深坑區"
"222002","659-BX","2018/04/02 19:19:34","新北市深坑區北深路一段177號","121.632583333333","25.010865","6501800","深坑區"
"231041","002-UM","2018/04/02 19:19:35","新北市新店區溪園路245-2號","121.52589","24.9837383333333","6500600","新店區"
"231059","046-UY","2018/04/02 19:19:40","新北市新店區安和路二段240號","121.516666666667","24.9784283333333","6500600","新店區"
"231040","047-UY","2018/04/02 19:19:46","新北市新店區三民路31-3號","121.537893333333","24.9704033333333","6500600","新店區"
"231044","106-UY","2018/04/02 19:19:37","新北市新店區中興路三段330號","121.542021666667","24.986535","6500600","新店區"
"231052","108-UY","2018/04/02 19:19:38","新北市新店區自強路211號","121.54675","24.9198316666667","6500600","新店區"
"231047","187-VK","2018/04/02 19:19:44","新北市新店區中興路二段79巷9號","121.546353333333","24.97119","6500600","新店區"
"231046","188-VK","2018/04/02 19:19:35","新北市新店區光明街143號","121.539368333333","24.9621883333333","6500600","新店區"
"231054","KEA-2219","2018/04/02 19:19:40","新北市新店區國校路41號","121.537928333333","24.9553483333333","6500600","新店區"
"231050","260-TV","2018/04/02 19:19:45","新北市新店區竹林路26巷50號","121.551593333333","24.9505716666667","6500600","新店區"
"231042","268-BY","2018/04/02 19:19:47","新北市新店區中興路一段57-1號","121.539855","24.9604966666667","6500600","新店區"
"231051","278-BY","2018/04/02 19:19:30","新北市新店區百忍街52號","121.53328","24.9761733333333","6500600","新店區"
"231058","3713-VJ","2018/04/02 19:19:32","新北市新店區北新路一段72號","121.541305","24.9669233333333","6500600","新店區"
"231066","4716-K9","2018/04/02 19:19:31","新北市新店區安康路三段356號","121.486023333333","24.9516616666667","6500600","新店區"
"231056","4715-K9","2018/04/02 19:19:31","新北市新店區中正路504號","121.533796666667","24.9826116666667","6500600","新店區"
"231067","4772-VM","2018/04/02 19:19:36","新北市新店區柴埕路59號","121.513583333333","24.9649583333333","6500600","新店區"
"231065","512-UM","2018/04/02 19:19:35","新北市新店區安祥路142號","121.474005","24.955805","6500600","新店區"
"231049","513-UM","2018/04/02 19:19:36","新北市新店區明德路107號","121.541525","24.979355","6500600","新店區"
"231061","619-UM","2018/04/02 19:19:29","新北市新店區安康路一段104號","121.52727","24.9624733333333","6500600","新店區"
"231063","641-BX","2018/04/02 19:19:43","新北市新店區達觀路16號","121.503463333333","24.940215","6500600","新店區"
"231064","719-UY","2018/04/02 19:19:41","新北市新店區安忠路57巷26弄40號","121.512123333333","24.957895","6500600","新店區"
"231062","720-UM","2018/04/02 19:19:39","新北市新店區莒光路38巷3號","121.522175","24.9588233333333","6500600","新店區"
"231060","897-TW","2018/04/02 19:19:33","新北市新店區安康路二段103號","121.512963333333","24.9624633333333","6500600","新店區"
"231045","898-TW","2018/04/02 19:19:41","新北市新店區北宜路一段286號","121.546603333333","24.952605","6500600","新店區"
"231043","899-TW","2018/04/02 19:19:39","新北市新店區北新路二段133號","121.542913333333","24.9754933333333","6500600","新店區"
"231055","AKT-0513","2018/04/02 19:19:34","新北市新店區薏仁坑路自強巷1號","121.496675","24.958015","6500600","新店區"
"241009","060-VK","2018/04/02 19:19:36","新北市三重區溪尾街230巷42-2號","121.486135","25.0811283333333","6500200","三重區"
"241031","061-VK","2018/04/02 19:19:30","新北市三重區重新路四段218號","121.485941666667","25.0542433333333","6500200","三重區"
"241017","063-VK","2018/04/02 19:19:47","新北市三重區大同北路215號","121.491885","25.066035","6500200","三重區"
"241026","066-VK","2018/04/02 19:19:29","新北市三重區中正南路216號","121.493893333333","25.0550833333333","6500200","三重區"
"241032","269-UM","2018/04/02 19:19:36","新北市三重區新生街94號","121.483558333333","25.0593366666667","6500200","三重區"
"241007","398-BY","2018/04/02 19:19:34","新北市三重區慈愛街45號","121.485848333333","25.0790466666667","6500200","三重區"
"241035","462-BY","2018/04/02 19:19:37","新北市三重區信義西街138號","121.495496666667","25.0643466666667","6500200","三重區"
"241020","478-VK","2018/04/02 19:19:34","新北市三重區大智街183號","121.489513333333","25.0729766666667","6500200","三重區"
"241030","480-VK","2018/04/02 19:19:32","新北市三重區成功路41巷72號","121.491376666667","25.0532616666667","6500200","三重區"
"241006","AAD-863","2018/04/02 19:19:48","新北市三重區車路頭街153號","121.483706666667","25.07702","6500200","三重區"
"241029","942-UM","2018/04/02 19:19:45","新北市三重區集美街257號","121.492451666667","25.0556933333333","6500200","三重區"
"235066","003-UY","2018/04/02 19:19:30","新北市中和區中和路102號","121.50265","24.9996683333333","6500300","中和區"
"235064","005-UY","2018/04/02 19:19:41","新北市中和區南山路81巷19號","121.502466666667","24.9981116666667","6500300","中和區"
"235063","006-UY","2018/04/02 19:19:36","新北市中和區中正路464號","121.49014","24.994275","6500300","中和區"
"235056","096-UM","2018/04/02 19:19:38","新北市中和區中正路1171號","121.481343333333","25.0093416666667","6500300","中和區"
"235065","098-UM","2018/04/02 19:19:42","新北市中和區中山路二段2巷3弄14號","121.504358333333","25.0058183333333","6500300","中和區"
"235040","150-BY","2018/04/02 19:19:44","新北市中和區保健路50巷5號","121.510291666667","24.9967233333333","6500300","中和區"
"235058","151-BY","2018/04/02 19:19:39","新北市中和區員山路92巷15號","121.481696666667","24.9944966666667","6500300","中和區"
"235055","183-VK","2018/04/02 19:19:47","新北市中和區德光路83號","121.469213333333","25.0036566666667","6500300","中和區"
"235038","185-VK","2018/04/02 19:19:29","新北市中和區景平路126巷2弄11號","121.51961","24.9923516666667","6500300","中和區"
"235049","186-VK","2018/04/02 19:19:34","新北市中和區景新街239號","121.508178333333","24.99444","6500300","中和區"
"235067","255-BX","2018/04/02 19:19:31","新北市中和區中正路803號","121.484996666667","25.001145","6500300","中和區"
"235044","293-VK","2018/04/02 19:19:32","新北市中和區復興路306號","121.501268333333","24.9902983333333","6500300","中和區"
"235072","301-VK","2018/04/02 19:19:37","新北市中和區連城路263巷8弄7號","121.491768333333","24.9951983333333","6500300","中和區"
"235043","352-BY","2018/04/02 19:19:43","新北市中和區景平路404號","121.509041666667","24.99319","6500300","中和區"
"235068","377-QA","2018/04/02 19:19:31","新北市中和區連城路89巷66號","121.497726666667","24.99816","6500300","中和區"
"235061","378-QA","2018/04/02 19:19:38","新北市中和區中山路三段136號","121.473988333333","25.006185","6500300","中和區"
"235050","4979-A6","2018/04/02 19:19:28","新北市中和區景安路208巷11號","121.503358333333","24.9912533333333","6500300","中和區"
"235069","4980-A6","2018/04/02 19:19:34","新北市中和區福美路240號","121.498801666667","25.0052083333333","6500300","中和區"
"235042","551-UM","2018/04/02 19:19:47","新北市永和區民有街14號","121.516416666667","24.996755","6500300","中和區"
"235070","558-UM","2018/04/02 19:19:36","新北市中和區連城路55號","121.497813333333","25.0015683333333","6500300","中和區"
"235045","565-BX","2018/04/02 19:19:30","新北市中和區景新街423巷35弄16號","121.51405","24.9900183333333","6500300","中和區"
"235054","640-BX","2018/04/02 19:19:46","新北市中和區國光街109巷25號","121.469486666667","24.9995616666667","6500300","中和區"
"235047","732-UM","2018/04/02 19:19:42","新北市中和區和平街54巷1弄2號","121.508676666667","24.9910166666667","6500300","中和區"
"235046","733-UM","2018/04/02 19:19:42","新北市中和區忠孝街2巷12號","121.510465","24.98181","6500300","中和區"
"235071","783-BX","2018/04/02 19:19:45","新北市中和區中正路637巷52弄3號","121.485218333333","24.99367","6500300","中和區"
"235057","801-TS","2018/04/02 19:19:45","新北市中和區員山路220號","121.48125","25.0009466666667","6500300","中和區"
"235041","802-TS","2018/04/02 19:19:42","新北市中和區景安路5號","121.508093333333","24.9991516666667","6500300","中和區"
"235052","805-TS","2018/04/02 19:19:42","新北市中和區華新街143巷47號","121.506348333333","24.9802983333333","6500300","中和區"
"235048","896-TW","2018/04/02 19:19:30","新北市中和區忠孝街68號","121.511933333333","24.9840266666667","6500300","中和區"
"235053","900-TW","2018/04/02 19:19:29","新北市中和區華安街21巷2號","121.467408333333","24.99749","6500300","中和區"
"235060","911-UM","2018/04/02 19:19:31","新北市中和區民有街48號","121.475803333333","25.0049166666667","6500300","中和區"
"235051","157-BY","2018/04/02 19:19:38","新北市中和區和平街2巷4弄4號","121.510073333333","24.9906183333333","6500300","中和區"
"235059","AAC-215","2018/04/02 19:19:43","新北市中和區圓通路286巷1號","121.491393333333","24.991005","6500300","中和區"
"220035","015-TV","2018/04/02 19:19:48","新北市板橋區中正路360巷20號","121.45523","25.0234416666667","6500100","板橋區"
"220065","072-UY","2018/04/02 19:19:42","新北市板橋區民族路170巷3號","121.467345","25.0075166666667","6500100","板橋區"
"220086","073-UY","2018/04/02 19:19:31","新北市板橋區中正路216巷74號","121.457913333333","25.0189466666667","6500100","板橋區"
"220069","AAD-861","2018/04/02 19:19:39","新北市板橋區貴興路41號","121.457515","25.0036416666667","6500100","板橋區"
"226004","312-R5","2018/04/02 19:19:36","新北市平溪區十分里十分街193號","121.778426666667","25.0438133333333","6502400","平溪區"
"235039","251-BX","2018/04/02 19:19:39","新北市中和區自立路58巷5號","121.523505","24.9915016666667","6500300","中和區"
"228003","097-TW","2018/04/02 19:19:43","新北市貢寮區和美里和美街19-2號","121.912751666667","25.0826216666667","6502600","貢寮區"
"228002","585-TW","2018/04/02 19:19:30","新北市貢寮區雙玉里田寮洋街21號","121.926696666667","25.02425","6502600","貢寮區"
"228001","670-TC","2018/04/02 19:19:32","新北市貢寮區真理里新港街10號","121.925495","25.05435","6502600","貢寮區"
"224010","AGQ-8101","2018/04/02 19:15:40","新北市瑞芳區街頂巷74號","121.844445","25.1083466666667","6501200","瑞芳區"
"224006","676-BX","2018/04/02 19:19:41","新北市瑞芳區中山路216號","121.800646666667","25.106865","6501200","瑞芳區"
"224008","285-BY","2018/04/02 19:19:45","新北市瑞芳區明燈路三段101號","121.803925","25.1083666666667","6501200","瑞芳區"
"224005","271-BY","2018/04/02 19:19:43","新北市瑞芳區員山子路23號","121.821661666667","25.10294","6501200","瑞芳區"
"227001","642-TC","2018/04/02 19:19:31","新北市雙溪區平林里梅竹蹊66-1號","121.860173333333","25.0358083333333","6502500","雙溪區"
"227008","400-TW","2018/04/02 19:19:41","新北市雙溪區新基里新基北街40號","121.8685","25.03802","6502500","雙溪區"
"253005","032-BX","2018/04/02 19:19:40","新北市石門區阿里荖7-2號","121.609533333333","25.279975","6502200","石門區"
"253006","295-VK","2018/04/02 19:19:31","新北市石門區楓林18號","121.536523333333","25.2910433333333","6502200","石門區"
"222001","KEA-2212","2018/04/02 19:19:45","新北市深坑區北深路二段82號","121.61755","25.0035783333333","6501800","深坑區"
"208002","KEA-2872","2018/04/02 19:19:33","新北市金山區環金路376巷2號","121.632166666667","25.22205","6502700","金山區"
"208003","665-BX","2018/04/02 19:19:41","新北市金山區中山路130號","121.63909","25.22014","6502700","金山區"
"208001","761-BX","2018/04/02 19:19:39","新北市金山區慈護街10號","121.639718333333","25.2203566666667","6502700","金山區"
"251009","008-UM","2018/04/02 19:19:34","新北市淡水區中山路104號","121.442271666667","25.170625","6501000","淡水區"
"251001","011-UM","2018/04/02 19:19:31","新北市淡水區自強路201巷59號","121.461953333333","25.1271583333333","6501000","淡水區"
"251013","179-VK","2018/04/02 19:19:40","新北市淡水區安子內12號","121.481558333333","25.2190466666667","6501000","淡水區"
"251014","180-VK","2018/04/02 19:19:31","新北市淡水區小中寮19-7號","121.484745","25.229645","6501000","淡水區"
"251015","182-VK","2018/04/02 19:19:45","新北市淡水區南勢埔47號","121.484583333333","25.1809533333333","6501000","淡水區"
"251010","413-VK","2018/04/02 19:19:43","新北市淡水區沙崙路25巷16號","121.421058333333","25.181965","6501000","淡水區"
"251012","441-VK","2018/04/02 19:19:36","新北市淡水區崁頂108號","121.433235","25.2041833333333","6501000","淡水區"
"251016","442-VK","2018/04/02 19:19:29","新北市淡水區淡金路三段350巷18號","121.450801666667","25.208365","6501000","淡水區"
"251005","443-VK","2018/04/02 19:19:43","新北市淡水區水源街一段34巷2號","121.443245","25.1722083333333","6501000","淡水區"
"251006","561-UM","2018/04/02 19:19:41","新北市淡水區大信街33號","121.44202","25.17732","6501000","淡水區"
"251007","577-R6","2018/04/02 19:19:37","新北市淡水區民生路117巷34號","121.464916666667","25.1395733333333","6501000","淡水區"
"251004","757-BX","2018/04/02 19:13:22","新北市淡水區中正東路二段143巷2弄1號","121.460611666667","25.1473233333333","6501000","淡水區"
"251003","766-UM","2018/04/02 19:19:30","新北市淡水區中山北路一段33號","121.44156","25.17517","6501000","淡水區"
"207003","550-UM","2018/04/02 19:19:32","新北市萬里區大鵬里萬里加投79-3號","121.647366666667","25.2123666666667","6502800","萬里區"
"207004","225-TW","2018/04/02 19:19:43","新北市萬里區萬里里成功新村51號","121.688046666667","25.1745433333333","6502800","萬里區"
"252001","292-VK","2018/04/02 19:19:45","新北市三芝區長勤街37巷25號","121.501676666667","25.2547033333333","6502100","三芝區"
"237004","KEA-2597","2018/04/02 19:19:30","新北市三峽區有木205-1號","121.439058333333","24.851485","6500900","三峽區"
"237007","153-BY","2018/04/02 19:19:36","新北市三峽區二鬮路57-1號","121.360856666667","24.9091216666667","6500900","三峽區"
"237009","210-TH","2018/04/02 19:19:33","新北市三峽區民生街186號","121.370926666667","24.935005","6500900","三峽區"
"237013","252-BX","2018/04/02 19:19:39","新北市三峽區光明路75巷6號","121.37729","24.9279433333333","6500900","三峽區"
"237012","275-BY","2018/04/02 19:19:47","新北市三峽區三樹路222巷236弄8-3號","121.391386666667","24.9430116666667","6500900","三峽區"
"237008","302-VK","2018/04/02 19:19:39","新北市三峽區大同路119巷8號","121.374346666667","24.926425","6500900","三峽區"
"237014","433-BY","2018/04/02 19:19:40","新北市三峽區中山路257巷39號","121.36212","24.9364816666667","6500900","三峽區"
"237006","5529-G3","2018/04/02 19:19:29","新北市三峽區中正路一段336巷15弄4號","121.369941666667","24.9248433333333","6500900","三峽區"
"237010","706-TV","2018/04/02 19:19:44","新北市三峽區復興路45號","121.373518333333","24.9368733333333","6500900","三峽區"
"237005","AKY-6261","2018/04/02 19:19:41","新北市三峽區隆恩街250號","121.357241666667","24.94089","6500900","三峽區"
"236069","105-UM","2018/04/02 19:19:40","新北市土城區學成路130號","121.449151666667","24.98957","6501300","土城區"
"236078","166-UM","2018/04/02 19:19:30","新北市土城區龍泉路8號","121.409431666667","24.949845","6501300","土城區"
"236026","269-VK","2018/04/02 19:19:39","新北市土城區中央路二段162號","121.441975","24.9765483333333","6501300","土城區"
"236014","270-VK","2018/04/02 19:19:35","新北市土城區廣福街1號","121.457328333333","24.98873","6501300","土城區"
"236039","271-VK","2018/04/02 19:19:46","新北市土城區清水路98巷3弄1號","121.457545","24.9813233333333","6501300","土城區"
"236020","401-BY","2018/04/02 19:19:36","新北市土城區峰廷街3號","121.46907","24.9873533333333","6501300","土城區"
"236059","912-UM","2018/04/02 19:19:43","新北市土城區中央路三段59號","121.43891","24.9695083333333","6501300","土城區"
"236048","913-UM","2018/04/02 19:19:32","新北市土城區明德路一段398-1號","121.453641666667","24.9790733333333","6501300","土城區"
"238015","755-BX","2018/04/02 19:19:27","新北市樹林區備內街3號","121.413066666667","24.9868316666667","6500700","樹林區"
"238023","601-UM","2018/04/02 19:19:41","新北市樹林區三興路87巷5號","121.394588333333","25.0125483333333","6500700","樹林區"
"238019","599-UM","2018/04/02 19:19:45","新北市樹林區東榮街91巷1弄9號","121.416366666667","24.9827183333333","6500700","樹林區"
"238018","571-TV","2018/04/02 19:19:37","新北市樹林區中華路219-1號","121.419468333333","24.9812516666667","6500700","樹林區"
"238024","5061-A6","2018/04/02 19:19:45","新北市樹林區福德街11號","121.4007","24.9754833333333","6500700","樹林區"
"238021","KEA-2217","2018/04/02 19:19:26","新北市樹林區柑園街二段458號","121.362831666667","24.94592","6500700","樹林區"
"238022","KEA-2213","2018/04/02 19:19:40","新北市樹林區中華路190-3號","121.410928333333","24.9805316666667","6500700","樹林區"
"238025","303-VK","2018/04/02 19:19:42","新北市樹林區中山路三段38號","121.39489","24.9726083333333","6500700","樹林區"
"238017","283-BY","2018/04/02 19:19:43","新北市樹林區保安街二段179-5號","121.415238333333","25.0032783333333","6500700","樹林區"
"238014","282-BY","2018/04/02 19:19:45","新北市樹林區千歲街47號","121.425423333333","24.9963433333333","6500700","樹林區"
"238020","268-VK","2018/04/02 19:19:40","新北市樹林區俊英街121巷24號","121.423326666667","25.0100166666667","6500700","樹林區"
"238026","172-UY","2018/04/02 19:19:45","新北市樹林區柑園街一段367號","121.388623333333","24.9559533333333","6500700","樹林區"
"238016","169-UY","2018/04/02 19:19:32","新北市樹林區中山路二段76巷3號","121.41506","24.984265","6500700","樹林區"
"239007","AAC-297","2018/04/02 19:19:31","新北市鶯歌區中山路138巷17-5號","121.351311666667","24.95965","6500800","鶯歌區"
"239006","891-R6","2018/04/02 19:19:31","新北市鶯歌區鶯桃路296巷84弄28號","121.33735","24.9613783333333","6500800","鶯歌區"
"239008","527-UM","2018/04/02 19:19:40","新北市鶯歌區大湖路530巷2號","121.337743333333","24.9731316666667","6500800","鶯歌區"
"239005","526-UM","2018/04/02 19:19:39","新北市鶯歌區三界公坑4號","121.352651666667","24.97021","6500800","鶯歌區"
"239001","417-VK","2018/04/02 19:19:40","新北市鶯歌區鶯桃路69-1號","121.340693333333","24.953115","6500800","鶯歌區"
"239003","360-BY","2018/04/02 19:19:45","新北市鶯歌區尖山路156巷69號","121.345088333333","24.94965","6500800","鶯歌區"
"239004","193-VK","2018/04/02 19:19:45","新北市鶯歌區中正三路291巷20弄2號","121.329796666667","24.93549","6500800","鶯歌區"
"221008","489-VK","2018/04/02 19:19:41","新北市汐止區康寧街334號","121.62764","25.06737","6501100","汐止區"
"221036","130-UY","2018/04/02 19:19:44","新北市汐止區汐萬路一段256巷1號","121.651753333333","25.074895","6501100","汐止區"
"221015","131-UY","2018/04/02 19:19:38","新北市汐止區汐萬路一段256巷3號","121.653426666667","25.0746866666667","6501100","汐止區"
"221010","269-BY","2018/04/02 19:19:42","新北市汐止區康寧街901號","121.6515","25.0749566666667","6501100","汐止區"
"221012","278-VK","2018/04/02 19:19:32","新北市汐止區汐萬路一段312號","121.650333333333","25.0749","6501100","汐止區"
"221023","279-VK","2018/04/02 19:19:42","新北市汐止區康寧街901號","121.651001666667","25.075205","6501100","汐止區"
"221027","281-BY","2018/04/02 19:19:37","新北市汐止區康寧街901號","121.651096666667","25.07514","6501100","汐止區"
"221029","298-VK","2018/04/02 19:19:48","新北市汐止區康寧街901號","121.651616666667","25.074855","6501100","汐止區"
"221031","353-TW","2018/04/02 19:19:27","新北市汐止區汐萬路一段333巷19號","121.649051666667","25.0759716666667","6501100","汐止區"
"221025","623-UM","2018/04/02 19:19:40","新北市汐止區康寧街901號","121.65147","25.0750133333333","6501100","汐止區"
"221038","646-BX","2018/04/02 19:19:46","新北市汐止區汐萬路一段312號","121.6507","25.0752566666667","6501100","汐止區"
"221033","647-BX","2018/04/02 19:19:30","新北市汐止區南勢街3號","121.627073333333","25.037375","6501100","汐止區"
"221002","707-TV","2018/04/02 19:19:30","新北市汐止區大同路一段398-1號","121.640015","25.0600816666667","6501100","汐止區"
"220079","145-BY","2018/04/02 19:19:42","新北市板橋區民權路202巷17弄19號","121.45993","25.016565","6500100","板橋區"
"220080","200-UY","2018/04/02 19:19:32","新北市板橋區大觀路二段19巷97號","121.449751666667","25.00276","6500100","板橋區"
"220106","KEA-2550","2018/04/02 19:19:39","新北市板橋區雙十路三段66巷1號","121.470501666667","25.0319133333333","6500100","板橋區"
"220082","610-BX","2018/04/02 19:19:34","新北市樹林區中華路1-8號","121.426198333333","24.984275","6500100","板橋區"
"220072","277-BY","2018/04/02 19:19:49","新北市板橋區金門街337巷6弄2號","121.429405","24.98551","6500100","板橋區"
"220101","280-UM","2018/04/02 19:19:07","新北市板橋區莊敬路36-2號","121.473173333333","25.0272383333333","6500100","板橋區"
"220077","282-UM","2018/04/02 19:19:32","新北市板橋區僑中一街80巷6弄26號","121.448505","25.0113366666667","6500100","板橋區"
"220071","283-VK","2018/04/02 19:19:43","新北市板橋區大豐街111號","121.461223333333","25.0010983333333","6500100","板橋區"
"220094","285-UM","2018/04/02 19:19:33","新北市板橋區吳鳳路21巷2號","121.466955","25.0312166666667","6500100","板橋區"
"220053","285-VK","2018/04/02 19:19:49","新北市板橋區永豐街146號","121.478115","25.0212216666667","6500100","板橋區"
"220083","286-VK","2018/04/02 19:19:44","新北市板橋區龍興街73巷36號","121.442571666667","25.0028483333333","6500100","板橋區"
"220081","287-VK","2018/04/02 19:19:42","新北市板橋區南雅西路一段110號","121.453025","25.006145","6500100","板橋區"
"220090","288-VK","2018/04/02 19:19:32","新北市板橋區長江路一段106巷13弄34號","121.461385","25.0297166666667","6500100","板橋區"
"220061","293-UM","2018/04/02 19:19:45","新北市板橋區中山路二段309巷8號","121.478593333333","25.01894","6500100","板橋區"
"220084","296-UM","2018/04/02 19:19:44","新北市板橋區溪北路112號","121.428895","24.989025","6500100","板橋區"
"220075","303-R5","2018/04/02 19:19:27","新北市板橋區僑中一街124巷70-5號","121.44946","25.0173616666667","6500100","板橋區"
"220062","305-R5","2018/04/02 19:19:46","新北市板橋區三民路二段153巷36弄2號","121.481123333333","25.01411","6500100","板橋區"
"220092","307-R5","2018/04/02 19:19:39","新北市板橋區光武街4巷27號","121.46819","25.02603","6500100","板橋區"
"220098","317-R6","2018/04/02 19:19:38","新北市板橋區民有街83號","121.464908333333","25.02737","6500100","板橋區"
"220064","486-VK","2018/04/02 19:19:38","新北市板橋區縣民大道二段3號","121.46252","25.0121316666667","6500100","板橋區"
"220088","491-VK","2018/04/02 19:19:45","新北市板橋區雙十路二段10-3號","121.476435","25.0269","6500100","板橋區"
"220103","561-BX","2018/04/02 19:19:45","新北市板橋區文化路一段188巷7弄13號","121.46751","25.0198266666667","6500100","板橋區"
"220056","568-UM","2018/04/02 19:19:43","新北市板橋區信義路98號","121.458063333333","24.9928583333333","6500100","板橋區"
"220063","609-BX","2018/04/02 19:19:37","新北市板橋區三民路二段76號","121.47925","25.0168616666667","6500100","板橋區"
"220055","630-UY","2018/04/02 19:19:47","新北市板橋區實踐路181-2號","121.46429","25.0035466666667","6500100","板橋區"
"220091","637-BX","2018/04/02 19:19:30","新北市板橋區萬板路476號","121.479953333333","25.0259283333333","6500100","板橋區"
"220057","686-BX","2018/04/02 19:19:30","新北市板橋區國慶路186號","121.46301","24.9964016666667","6500100","板橋區"
"220093","689-BX","2018/04/02 19:19:33","新北市板橋區文化路一段186號","121.466041666667","25.0196016666667","6500100","板橋區"
"220054","741-BX","2018/04/02 19:19:43","新北市板橋區校前街38號","121.460963333333","25.0031666666667","6500100","板橋區"
"220102","KEA-2699","2018/04/02 19:19:46","新北市板橋區文聖街207號","121.479706666667","25.02636","6500100","板橋區"
"220067","829-TW","2018/04/02 19:19:37","新北市板橋區長安街138巷1弄56號","121.474013333333","25.010205","6500100","板橋區"
"220068","830-TW","2018/04/02 19:19:38","新北市板橋區翠華街6巷1弄1號","121.481033333333","25.023955","6500100","板橋區"
"220096","831-TW","2018/04/02 19:19:29","新北市板橋區大同街26巷33號","121.478556666667","25.0263333333333","6500100","板橋區"
"220089","833-TW","2018/04/02 19:19:48","新北市板橋區文化路一段383號","121.467301666667","25.0219133333333","6500100","板橋區"
"220074","895-R6","2018/04/02 19:19:30","新北市板橋區中正路1巷16弄2號","121.455121666667","25.0119083333333","6500100","板橋區"
"220073","985-R7","2018/04/02 19:19:34","新北市板橋區瑞安街48號","121.45537","25.0219566666667","6500100","板橋區"
"220097","AAC-210","2018/04/02 19:19:37","新北市板橋區幸福路62號","121.46109","25.0200866666667","6500100","板橋區"
"220070","AAC-253","2018/04/02 19:19:47","新北市板橋區四川路一段279號","121.459555","25.00199","6500100","板橋區"
