"lineid","car","time","location","longitude","latitude","cityid","cityname"
"234046","148-BY","2018/04/02 19:59:23","新北市永和區林森路99號","121.523378333333","25.00368","6500400","永和區"
"234070","149-BY","2018/04/02 19:59:36","新北市永和區國光路12巷11弄2號","121.519106666667","25.0086566666667","6500400","永和區"
"234007","207-UY","2018/04/02 19:59:26","新北市永和區保生路22巷8號","121.507293333333","25.00804","6500400","永和區"
"234081","298-R6","2018/04/02 19:59:34","新北市永和區林森路62號","121.523916666667","25.0042466666667","6500400","永和區"
"234038","336-UY","2018/04/02 19:59:25","新北市永和區成功路二段152-2號","121.526518333333","24.9965583333333","6500400","永和區"
"234064","337-UY","2018/04/02 19:59:32","新北市永和區中正路428巷30弄5號","121.518856666667","25.0021866666667","6500400","永和區"
"234086","338-UY","2018/04/02 19:59:21","新北市永和區福和路258號","121.518348333333","25.00755","6500400","永和區"
"234017","745-BX","2018/04/02 19:59:28","新北市永和區文化路69號","121.51396","25.0151133333333","6500400","永和區"
"234030","746-BX","2018/04/02 19:59:30","新北市永和區民生路22巷17號","121.521596666667","24.99706","6500400","永和區"
"234054","KEA-2590","2018/04/02 19:59:37","新北市永和區環河東路一段122號","121.520673333333","25.0156583333333","6500400","永和區"
"234013","KEA-2591","2018/04/02 19:59:23","新北市永和區保生路55號","121.504676666667","25.0106383333333","6500400","永和區"
"234061","AAD-866","2018/04/02 19:59:33","新北市永和區中正路283巷17號","121.516793333333","25.0003083333333","6500400","永和區"
"234042","862-TW","2018/04/02 19:59:23","新北市永和區中和路335巷18弄28號","121.507975","25.0003816666667","6500400","永和區"
"234050","863-TW","2018/04/02 19:59:26","新北市永和區保安路246號","121.506451666667","25.0127666666667","6500400","永和區"
"234026","9371-KE","2018/04/02 19:59:31","新北市永和區水源街27巷11號","121.511328333333","25.0039183333333","6500400","永和區"
"249005","172-UM","2018/04/02 19:59:23","新北市八里區楓林路3-3號","121.382656666667","25.1299216666667","6502300","八里區"
"249001","173-UM","2018/04/02 19:59:33","新北市八里區中華路二段310號","121.403813333333","25.1483483333333","6502300","八里區"
"249004","303-UY","2018/04/02 19:59:23","新北市八里區中華路一段333-1號","121.413308333333","25.1538183333333","6502300","八里區"
"249002","305-UY","2018/04/02 19:59:28","新北市八里區頂寮二街1號","121.450961666667","25.1238533333333","6502300","八里區"
"249003","593-UM","2018/04/02 19:59:36","新北市八里區中華路二段560巷19號","121.398371666667","25.1453066666667","6502300","八里區"
"248016","026-BX","2018/04/02 19:59:34","新北市五股區成泰路三段577巷80弄50號","121.449681666667","25.1048683333333","6501500","五股區"
"248008","095-VK","2018/04/02 19:59:38","新北市五股區四維路30巷34弄2號","121.46829","25.0715116666667","6501500","五股區"
"248018","225-UY","2018/04/02 19:59:23","新北市五股區登林路101號","121.41148","25.0779533333333","6501500","五股區"
"248012","247-BX","2018/04/02 19:59:28","新北市五股區民義路一段93號","121.43462","25.0859033333333","6501500","五股區"
"248014","261-SL","2018/04/02 19:59:24","新北市五股區五福路14巷10號","121.434863333333","25.0887416666667","6501500","五股區"
"248004","677-BX","2018/04/02 19:59:29","新北市五股區成泰路一段8巷2-3號","121.434845","25.0669183333333","6501500","五股區"
"248002","678-BX","2018/04/02 19:59:27","新北市五股區成泰路三段487號","121.450758333333","25.0992516666667","6501500","五股區"
"248010","682-TV","2018/04/02 19:59:38","新北市五股區登林路100-4號","121.427921666667","25.070375","6501500","五股區"
"234077","969-R7","2018/04/02 19:59:30","新北市永和區智光街55號","121.51721","24.997885","6500400","永和區"
"234074","AAC-211","2018/04/02 19:59:38","新北市永和區竹林路201巷26弄7號","121.522595","25.010225","6500400","永和區"
"234067","AAC-212","2018/04/02 19:59:32","新北市永和區中山路一段236號","121.5073","25.00751","6500400","永和區"
"234003","AAC-295","2018/04/02 19:59:35","新北市永和區中正路688號","121.51659","25.009535","6500400","永和區"
"243012","AAD-798","2018/04/02 19:59:24","新北市泰山區全興路184號","121.433276666667","25.0574166666667","6501600","泰山區"
"243011","297-R6","2018/04/02 19:59:40","新北市泰山區明志路三段196巷52號","121.42177","25.0398816666667","6501600","泰山區"
"243015","380-SR","2018/04/02 19:53:27","新北市泰山區明志路二段214巷18弄28號","121.425528333333","25.0499083333333","6501600","泰山區"
"243014","421-VK","2018/04/02 19:59:41","新北市泰山區泰林路二段129號","121.434206666667","25.0598233333333","6501600","泰山區"
"243016","539-UM","2018/04/02 19:59:29","新北市泰山區明志路三段515號","121.421325","25.0321516666667","6501600","泰山區"
"243010","KEA-2215","2018/04/02 19:59:31","新北市泰山區中華街10巷1號","121.427913333333","25.0525033333333","6501600","泰山區"
"243009","KEA-2216","2018/04/02 19:59:35","新北市泰山區泰林路二段164巷13號","121.434558333333","25.0607883333333","6501600","泰山區"
"243013","646-TV","2018/04/02 19:59:35","新北市泰山區應化街13號","121.423871666667","25.04363","6501600","泰山區"
"222003","436-BY","2018/04/02 19:59:34","新北市深坑區埔新街14號","121.620745","25.0039466666667","6501800","深坑區"
"222002","659-BX","2018/04/02 19:59:34","新北市深坑區北深路二段81巷8弄1號","121.618346666667","25.00302","6501800","深坑區"
"231041","002-UM","2018/04/02 19:59:36","新北市新店區中正路352號","121.535896666667","24.9754583333333","6500600","新店區"
"231059","046-UY","2018/04/02 19:59:20","新北市新店區安康路二段145號","121.511481666667","24.95991","6500600","新店區"
"231040","047-UY","2018/04/02 19:59:25","新北市新店區中正路75巷63號","121.543226666667","24.9692516666667","6500600","新店區"
"231044","106-UY","2018/04/02 19:59:37","新北市新店區復興路44-1號","121.538586666667","24.9867066666667","6500600","新店區"
"231052","108-UY","2018/04/02 19:59:38","新北市新店區新烏路三段290巷1號","121.549551666667","24.89812","6500600","新店區"
"231047","187-VK","2018/04/02 19:59:38","新北市新店區寶宏路3-3號","121.54917","24.9766566666667","6500600","新店區"
"231046","188-VK","2018/04/02 19:59:35","新北市新店區安德街148巷31號","121.506546666667","24.9608866666667","6500600","新店區"
"231054","KEA-2219","2018/04/02 19:59:40","新北市新店區光明街147號","121.539548333333","24.9621883333333","6500600","新店區"
"231057","256-BX","2018/04/02 19:59:26","新北市新店區花園二路一段11號","121.555531666667","24.9324516666667","6500600","新店區"
"231050","260-TV","2018/04/02 19:59:26","新北市新店區北宜路二段82-6號","121.553965","24.9533966666667","6500600","新店區"
"231042","268-BY","2018/04/02 19:59:27","新北市新店區中興路一段292號","121.54596","24.9692166666667","6500600","新店區"
"231051","278-BY","2018/04/02 19:59:30","新北市新店區中央三街13號","121.529251666667","24.9736483333333","6500600","新店區"
"231066","4716-K9","2018/04/02 19:59:31","新北市新店區柴埕路29號","121.513958333333","24.9657716666667","6500600","新店區"
"231056","4715-K9","2018/04/02 19:59:31","新北市新店區中央一街2號","121.528948333333","24.972215","6500600","新店區"
"231067","4772-VM","2018/04/02 19:59:35","新北市新店區秀山路11巷8號","121.531841666667","24.959405","6500600","新店區"
"231065","512-UM","2018/04/02 19:59:35","新北市新店區安祥路106-19號","121.476201666667","24.9604616666667","6500600","新店區"
"231049","513-UM","2018/04/02 19:59:36","新北市新店區明德路30號","121.541455","24.977815","6500600","新店區"
"231061","619-UM","2018/04/02 19:59:29","新北市新店區安民街341號","121.517116666667","24.9751016666667","6500600","新店區"
"231063","641-BX","2018/04/02 19:59:23","新北市新店區黎明路63巷2號","121.502476666667","24.94647","6500600","新店區"
"231068","718-UY","2018/04/02 19:59:36","新北市新店區安平路23-14號","121.520768333333","24.9662983333333","6500600","新店區"
"231064","719-UY","2018/04/02 19:59:21","新北市新店區安和路二段75號","121.518235","24.9688066666667","6500600","新店區"
"231062","720-UM","2018/04/02 19:59:39","新北市新店區華城路18號","121.529216666667","24.95748","6500600","新店區"
"231060","897-TW","2018/04/02 19:59:32","新北市新店區安康路二段406號","121.496813333333","24.9553233333333","6500600","新店區"
"231045","898-TW","2018/04/02 19:59:21","新北市新店區北宜路二段82-13號","121.55473","24.95355","6500600","新店區"
"231043","899-TW","2018/04/02 19:59:39","新北市新店區中正路263-5號","121.538198333333","24.9738516666667","6500600","新店區"
"231055","AKT-0513","2018/04/02 19:59:34","新北市新店區中華路83巷67號","121.538338333333","24.96725","6500600","新店區"
"241011","013-R5","2018/04/02 19:59:29","新北市三重區介壽路14巷1號","121.498733333333","25.0697066666667","6500200","三重區"
"241028","022-UY","2018/04/02 19:59:36","新北市三重區中正南路41巷1號","121.493856666667","25.0598933333333","6500200","三重區"
"241008","059-VK","2018/04/02 19:59:38","新北市三重區永福街181號","121.478995","25.0750066666667","6500200","三重區"
"241009","060-VK","2018/04/02 19:59:36","新北市三重區三和路四段390巷16號","121.48135","25.0788316666667","6500200","三重區"
"241031","061-VK","2018/04/02 19:59:31","新北市三重區重新路四段144巷25號","121.487063333333","25.0551933333333","6500200","三重區"
"241015","062-VK","2018/04/02 19:59:32","新北市三重區三和路二段35-1號","121.500908333333","25.0671866666667","6500200","三重區"
"241017","063-VK","2018/04/02 19:59:27","新北市三重區自強路一段306號","121.491298333333","25.0684216666667","6500200","三重區"
"241024","065-VK","2018/04/02 19:59:37","新北市三重區力行路二段1號","121.482018333333","25.0718883333333","6500200","三重區"
"241026","066-VK","2018/04/02 19:59:29","新北市三重區中央南路9號","121.501245","25.0627633333333","6500200","三重區"
"241003","091-VK","2018/04/02 19:59:34","新北市三重區仁愛街445巷31號","121.490828333333","25.0828916666667","6500200","三重區"
"241005","262-UM","2018/04/02 19:59:41","新北市三重區五華街166號","121.48923","25.08592","6500200","三重區"
"241016","265-UM","2018/04/02 19:59:38","新北市三重區正義北路36巷2號","121.497135","25.0633933333333","6500200","三重區"
"241018","268-UM","2018/04/02 19:59:22","新北市三重區雙園街57巷16號","121.494598333333","25.0678483333333","6500200","三重區"
"241032","269-UM","2018/04/02 19:59:36","新北市三重區朝陽街46號","121.483313333333","25.0570466666667","6500200","三重區"
"241013","270-UM","2018/04/02 19:59:38","新北市三重區三和路三段125巷40號","121.493961666667","25.0737233333333","6500200","三重區"
"241025","271-UM","2018/04/02 19:59:22","新北市三重區頂崁街210巷16號","121.476493333333","25.06775","6500200","三重區"
"241007","398-BY","2018/04/02 19:59:14","新北市三重區三和路四段155巷33號","121.48502","25.0787083333333","6500200","三重區"
"241035","462-BY","2018/04/02 19:59:37","新北市三重區大榮街7號","121.498188333333","25.063095","6500200","三重區"
"241004","475-VK","2018/04/02 19:59:35","新北市三重區五華街74號","121.493416666667","25.081985","6500200","三重區"
"241020","478-VK","2018/04/02 19:59:34","新北市三重區忠孝路一段87號","121.489923333333","25.0720366666667","6500200","三重區"
"241030","480-VK","2018/04/02 19:59:32","新北市三重區重新路四段244巷9號","121.486321666667","25.0533633333333","6500200","三重區"
"241014","543-UM","2018/04/02 19:59:38","新北市三重區三和路二段172號","121.499013333333","25.0687633333333","6500200","三重區"
"241023","545-UM","2018/04/02 19:59:39","新北市三重區頂崁街166號","121.477653333333","25.0658533333333","6500200","三重區"
"241019","KEA-2593","2018/04/02 19:59:24","新北市三重區自強路二段12號","121.490173333333","25.06889","6500200","三重區"
"241006","AAD-863","2018/04/02 19:59:28","新北市三重區力行路二段91巷2號","121.483005","25.07587","6500200","三重區"
"241001","887-TS","2018/04/02 19:59:34","新北市三重區五華街14號","121.494881666667","25.08021","6500200","三重區"
"241012","941-UM","2018/04/02 19:59:29","新北市三重區仁厚街66號","121.500538333333","25.0766383333333","6500200","三重區"
"241029","942-UM","2018/04/02 19:59:25","新北市三重區重安街12號","121.490201666667","25.0582366666667","6500200","三重區"
"241033","AAC-255","2018/04/02 19:59:37","新北市三重區中興北街73號","121.469465","25.04766","6500200","三重區"
"235066","003-UY","2018/04/02 19:59:41","新北市中和區光華街19號","121.504843333333","25.004085","6500300","中和區"
"235063","006-UY","2018/04/02 19:59:36","新北市中和區連勝街93號","121.495418333333","24.9962333333333","6500300","中和區"
"235056","096-UM","2018/04/02 19:59:38","新北市中和區中山路三段170巷4弄1號","121.472773333333","25.0070083333333","6500300","中和區"
"235065","098-UM","2018/04/02 19:59:23","新北市中和區莊敬路1-6號","121.499416666667","25.0044216666667","6500300","中和區"
"235040","150-BY","2018/04/02 19:59:24","新北市中和區保健路19巷2弄1號","121.508405","24.9984516666667","6500300","中和區"
"235058","151-BY","2018/04/02 19:59:39","新北市中和區員山路189號","121.4812","24.997255","6500300","中和區"
"235055","183-VK","2018/04/02 19:59:27","新北市中和區民生街35巷2弄2號","121.470301666667","25.0050916666667","6500300","中和區"
"235049","186-VK","2018/04/02 19:59:34","新北市中和區南華路15號","121.502385","24.99568","6500300","中和區"
"235067","255-BX","2018/04/02 19:59:30","新北市中和區新生街220巷7號","121.483196666667","24.9984766666667","6500300","中和區"
"235044","293-VK","2018/04/02 19:59:32","新北市中和區復興路56號","121.503848333333","24.9903566666667","6500300","中和區"
"235043","352-BY","2018/04/02 19:59:22","新北市中和區興南路二段159巷7號","121.505401666667","24.9831633333333","6500300","中和區"
"235068","377-QA","2018/04/02 19:59:11","新北市中和區福美路301巷17號","121.497583333333","25.0041333333333","6500300","中和區"
"235061","378-QA","2018/04/02 19:59:38","新北市中和區員山路174巷4號","121.481853333333","24.9997666666667","6500300","中和區"
"235050","4979-A6","2018/04/02 19:59:28","新北市中和區景平路259巷16號","121.507865","24.9926433333333","6500300","中和區"
"235069","4980-A6","2018/04/02 19:59:39","新北市中和區景新街34巷3-1號","121.50345","24.99888","6500300","中和區"
"235070","558-UM","2018/04/02 19:59:36","新北市中和區圓通路169號","121.4976","24.995365","6500300","中和區"
"235054","640-BX","2018/04/02 19:59:26","新北市中和區莒光路11號","121.471898333333","25.005785","6500300","中和區"
"235047","732-UM","2018/04/02 19:59:22","新北市中和區和平街116號","121.506981666667","24.9914616666667","6500300","中和區"
"235046","733-UM","2018/04/02 19:59:22","新北市中和區興南路一段93巷58弄3號","121.51062","24.9858766666667","6500300","中和區"
"235041","802-TS","2018/04/02 19:59:22","新北市中和區安和路43號","121.50963","24.9948216666667","6500300","中和區"
"235052","805-TS","2018/04/02 19:59:25","新北市中和區華新街30巷15號","121.507178333333","24.9842533333333","6500300","中和區"
"235048","896-TW","2018/04/02 19:59:30","新北市中和區景新街433號","121.513031666667","24.9889616666667","6500300","中和區"
"235053","900-TW","2018/04/02 19:59:29","新北市中和區民德路276號","121.468106666667","24.996335","6500300","中和區"
"235051","157-BY","2018/04/02 19:59:38","新北市中和區中興街233巷10號","121.501478333333","24.9894266666667","6500300","中和區"
"235059","AAC-215","2018/04/02 19:59:23","新北市中和區圓通路335巷5弄12號","121.49353","24.98984","6500300","中和區"
"220035","015-TV","2018/04/02 19:59:28","新北市板橋區新生街53巷1弄10號","121.456971666667","25.02152","6500100","板橋區"
"220065","072-UY","2018/04/02 19:59:02","新北市板橋區長安街18號","121.467015","25.0087133333333","6500100","板橋區"
"220069","AAD-861","2018/04/02 19:59:40","新北市板橋區大明街46號","121.457873333333","25.0028733333333","6500100","板橋區"
"247024","893-R6","2018/04/02 19:59:32","新北市蘆洲區光榮路120巷8弄41號","121.46451","25.0878166666667","6501400","蘆洲區"
"247014","546-UM","2018/04/02 19:59:23","新北市蘆洲區成功路132號","121.472075","25.08281","6501400","蘆洲區"
"247010","341-TH","2018/04/02 19:59:38","新北市三重區集賢路188號","121.483913333333","25.08806","6501400","蘆洲區"
"247012","339-TH","2018/04/02 19:59:32","新北市蘆洲區民族路155號","121.4795","25.088025","6501400","蘆洲區"
"247004","337-TH","2018/04/02 19:59:31","新北市蘆洲區永康街49號","121.456833333333","25.0851983333333","6501400","蘆洲區"
"247006","336-TH","2018/04/02 19:59:34","新北市蘆洲區九芎街107號","121.465716666667","25.0797033333333","6501400","蘆洲區"
"247018","057-VK","2018/04/02 19:59:29","新北市蘆洲區民族路292號","121.478018333333","25.08965","6501400","蘆洲區"
"247008","056-VK","2018/04/02 19:59:29","新北市蘆洲區中山一路95巷18號","121.477255","25.0807116666667","6501400","蘆洲區"
"247002","053-VK","2018/04/02 19:59:33","新北市蘆洲區長安街274巷3號","121.457715","25.0871266666667","6501400","蘆洲區"
"247016","007-UY","2018/04/02 19:59:31","新北市蘆洲區中正路102號","121.469731666667","25.08441","6501400","蘆洲區"
"247020","001-UY","2018/04/02 19:59:37","新北市蘆洲區民義街70號","121.47305","25.0899183333333","6501400","蘆洲區"
"226004","312-R5","2018/04/02 19:59:36","新北市平溪區石底里公園街18-3號","121.735046666667","25.0248983333333","6502400","平溪區"
"235039","251-BX","2018/04/02 19:59:39","新北市中和區大勇街25巷29弄2號","121.515273333333","24.99397","6500300","中和區"
"228003","097-TW","2018/04/02 19:59:43","新北市貢寮區仁理村仁和路220號","121.923931666667","25.0534866666667","6502600","貢寮區"
"224010","AGQ-8101","2018/04/02 19:59:38","新北市瑞芳區石碑巷70號","121.842383333333","25.107495","6501200","瑞芳區"
"227001","642-TC","2018/04/02 19:59:31","新北市雙溪區雙溪里長安街16號","121.865005","25.0346816666667","6502500","雙溪區"
"227008","400-TW","2018/04/02 19:59:21","新北市雙溪區新基里新基南街25號","121.866273333333","25.038135","6502500","雙溪區"
"222001","KEA-2212","2018/04/02 19:59:25","新北市深坑區北深路三段164號","121.602375","25.0033483333333","6501800","深坑區"
"208002","KEA-2872","2018/04/02 19:59:33","新北市金山區環金路91號","121.636751666667","25.217205","6502700","金山區"
"208003","665-BX","2018/04/02 19:59:37","新北市金山區香園15號","121.634191666667","25.253195","6502700","金山區"
"208001","761-BX","2018/04/02 19:59:39","新北市金山區南勢湖39號","121.61229","25.2178516666667","6502700","金山區"
"251009","008-UM","2018/04/02 19:59:34","新北市淡水區英專路28巷18號","121.445948333333","25.169935","6501000","淡水區"
"251001","011-UM","2018/04/02 19:59:31","新北市淡水區淡金路二段38號","121.45168","25.181595","6501000","淡水區"
"251002","012-UM","2018/04/02 19:59:28","新北市淡水區沙崙路129號","121.422468333333","25.1823016666667","6501000","淡水區"
"251013","179-VK","2018/04/02 19:59:40","新北市淡水區奎柔山路63號","121.451713333333","25.206175","6501000","淡水區"
"251014","180-VK","2018/04/02 19:59:30","新北市淡水區石頭厝3號","121.458691666667","25.2355483333333","6501000","淡水區"
"251008","181-VK","2018/04/02 19:59:41","新北市淡水區淡海路72巷6號","121.423416666667","25.180985","6501000","淡水區"
"251015","182-VK","2018/04/02 19:59:25","新北市淡水區商工路30號","121.447263333333","25.1882283333333","6501000","淡水區"
"251010","413-VK","2018/04/02 19:59:23","新北市淡水區崁頂76號","121.431151666667","25.2038166666667","6501000","淡水區"
"251012","441-VK","2018/04/02 19:59:16","新北市淡水區下圭柔山109-5號","121.442083333333","25.2112833333333","6501000","淡水區"
"251016","442-VK","2018/04/02 19:59:29","新北市淡水區淡金路四段514號","121.45203","25.2257","6501000","淡水區"
"251005","443-VK","2018/04/02 19:59:23","新北市淡水區學府路136巷32號","121.451755","25.172625","6501000","淡水區"
"251006","561-UM","2018/04/02 19:59:31","新北市淡水區水碓街32號","121.4442","25.177295","6501000","淡水區"
"251011","650-BX","2018/04/02 19:59:23","新北市淡水區崁頂57-7號","121.442605","25.1973516666667","6501000","淡水區"
"251004","757-BX","2018/04/02 19:59:29","新北市淡水區民權路177巷9號","121.460651666667","25.1353716666667","6501000","淡水區"
"207003","550-UM","2018/04/02 19:59:32","新北市萬里區大鵬里萬里加投41-2號","121.637758333333","25.2072383333333","6502800","萬里區"
"207004","225-TW","2018/04/02 19:59:33","新北市萬里區北基里忠二街35號","121.685728333333","25.1756716666667","6502800","萬里區"
"252002","178-VK","2018/04/02 19:59:38","新北市三芝區忠孝街116-3號","121.505555","25.2574683333333","6502100","三芝區"
"252001","292-VK","2018/04/02 19:59:25","新北市三芝區公正街66號","121.499803333333","25.2574533333333","6502100","三芝區"
"237004","KEA-2597","2018/04/02 19:59:30","新北市三峽區添福107-18號","121.373696666667","24.9021916666667","6500900","三峽區"
"237007","153-BY","2018/04/02 19:59:36","新北市三峽區麻園43號","121.363745","24.9212033333333","6500900","三峽區"
"237009","210-TH","2018/04/02 19:59:33","新北市三峽區民族街78巷20號","121.3681","24.9295716666667","6500900","三峽區"
"237012","275-BY","2018/04/02 19:59:27","新北市三峽區中華路3巷2-11號","121.374828333333","24.9321616666667","6500900","三峽區"
"237008","302-VK","2018/04/02 19:59:19","新北市三峽區中華路39號","121.372651666667","24.9310183333333","6500900","三峽區"
"237014","433-BY","2018/04/02 19:59:19","新北市三峽區添福9-37號","121.371775","24.9067283333333","6500900","三峽區"
"237006","5529-G3","2018/04/02 19:59:29","新北市三峽區中正路二段176巷88號","121.364286666667","24.9120666666667","6500900","三峽區"
"237005","AKY-6261","2018/04/02 19:59:21","新北市三峽區民生街1巷5-96號","121.379665","24.9354933333333","6500900","三峽區"
"236069","105-UM","2018/04/02 19:59:40","新北市土城區忠義路77號","121.442968333333","24.965115","6501300","土城區"
"236078","166-UM","2018/04/02 19:59:30","新北市土城區中州路30巷33號","121.413086666667","24.9592433333333","6501300","土城區"
"236030","253-BX","2018/04/02 19:59:24","新北市土城區中央路一段252-1號","121.444313333333","24.984555","6501300","土城區"
"236026","269-VK","2018/04/02 19:59:39","新北市土城區中央路二段83號","121.442271666667","24.9782966666667","6501300","土城區"
"236014","270-VK","2018/04/02 19:59:23","新北市土城區廣福街123號","121.456238333333","24.9928466666667","6501300","土城區"
"236039","271-VK","2018/04/02 19:59:26","新北市土城區國際路70號","121.466576666667","24.9782483333333","6501300","土城區"
"236020","401-BY","2018/04/02 19:59:36","新北市土城區延吉街97巷11號","121.472148333333","24.9865933333333","6501300","土城區"
"236059","912-UM","2018/04/02 19:59:28","新北市土城區中央路一段245號","121.445413333333","24.9860683333333","6501300","土城區"
"236048","913-UM","2018/04/02 19:59:32","新北市中和區連城路631-2號","121.475536666667","24.9913583333333","6501300","土城區"
"236063","915-UM","2018/04/02 19:59:39","新北市土城區延和路64號","121.465823333333","24.988945","6501300","土城區"
"236055","AAC-216","2018/04/02 19:59:38","新北市土城區青雲路35號","121.46021","24.9883433333333","6501300","土城區"
"242034","AAC-296","2018/04/02 19:59:35","新北市新莊區建中街107號","121.446408333333","25.036485","6500500","新莊區"
"242029","986-R7","2018/04/02 19:59:39","新北市新莊區中榮街152巷47號","121.445521666667","25.0536666666667","6500500","新莊區"
"242053","751-BX","2018/04/02 19:59:34","新北市新莊區西盛街416巷2號","121.427236666667","25.0122233333333","6500500","新莊區"
"242058","705-TV","2018/04/02 19:59:42","新北市新莊區八德街137號","121.423753333333","25.0201783333333","6500500","新莊區"
"242027","615-BX","2018/04/02 19:59:40","新北市新莊區立信三街7巷11號","121.444233333333","25.0499366666667","6500500","新莊區"
"242025","613-BX","2018/04/02 19:59:34","新北市新莊區五工一路91號","121.460971666667","25.0676833333333","6500500","新莊區"
"242046","497-BY","2018/04/02 19:59:36","新北市新莊區裕民街19巷4號","121.419691666667","25.0251883333333","6500500","新莊區"
"242050","441-UM","2018/04/02 19:59:32","新北市新莊區西盛街172號","121.428198333333","25.0190316666667","6500500","新莊區"
"242056","440-UM","2018/04/02 19:59:36","新北市新莊區中正路347巷17弄8號","121.447478333333","25.0342283333333","6500500","新莊區"
"242036","415-TV","2018/04/02 19:59:21","新北市新莊區建安街39號","121.428953333333","25.02552","6500500","新莊區"
"242007","413-TV","2018/04/02 19:59:40","新北市新莊區福壽街336號","121.457686666667","25.0585033333333","6500500","新莊區"
"242044","400-BY","2018/04/02 19:59:32","新北市新莊區新北大道七段722號","121.412318333333","25.0259083333333","6500500","新莊區"
"242023","362-BY","2018/04/02 19:59:27","新北市新莊區化成路436號","121.466001666667","25.05133","6500500","新莊區"
"242060","353-BY","2018/04/02 19:59:36","新北市新莊區瓊林路70號","121.445191666667","25.0286016666667","6500500","新莊區"
"242039","133-UY","2018/04/02 19:59:35","新北市新莊區民安路276號","121.427725","25.0214283333333","6500500","新莊區"
"242031","135-UY","2018/04/02 19:59:31","新北市新莊區公園一路63號","121.443108333333","25.0365466666667","6500500","新莊區"
"242048","172-VK","2018/04/02 19:59:16","新北市新莊區四維路10號","121.423831666667","25.0251566666667","6500500","新莊區"
"242011","173-VK","2018/04/02 19:58:47","新北市新莊區中港路531巷50號","121.45072","25.0517466666667","6500500","新莊區"
"242017","175-VK","2018/04/02 19:59:25","新北市新莊區中華路二段3巷17號","121.45325","25.04598","6500500","新莊區"
"242004","176-VK","2018/04/02 19:59:34","新北市新莊區頭前路96號","121.463846666667","25.0525383333333","6500500","新莊區"
"242015","346-TH","2018/04/02 19:59:40","新北市新莊區復興路一段33巷5號","121.44619","25.0422883333333","6500500","新莊區"
"242021","348-TH","2018/04/02 19:59:34","新北市新莊區建中街32巷4號","121.448911666667","25.0377983333333","6500500","新莊區"
"242002","349-TH","2018/04/02 19:59:25","新北市新莊區中正路170號","121.451051666667","25.035905","6500500","新莊區"
"242013","351-TH","2018/04/02 19:59:27","新北市新莊區幸福路670巷2弄1號","121.451086666667","25.049485","6500500","新莊區"
"238015","755-BX","2018/04/02 19:59:27","新北市樹林區中山路三段210-2號","121.380706666667","24.9666316666667","6500700","樹林區"
"238021","KEA-2217","2018/04/02 19:59:27","新北市樹林區田尾街153-33號","121.403776666667","24.9523816666667","6500700","樹林區"
"238017","283-BY","2018/04/02 19:59:24","新北市樹林區保安街二段45巷21弄7號","121.41478","24.9998666666667","6500700","樹林區"
"239006","891-R6","2018/04/02 19:59:31","新北市鶯歌區尖山埔路125號","121.346983333333","24.9511333333333","6500800","鶯歌區"
"221008","489-VK","2018/04/02 19:59:21","台北市內湖區康樂街134號","121.619238333333","25.0717666666667","6501100","汐止區"
"221036","130-UY","2018/04/02 19:59:28","新北市汐止區忠孝東路258巷11弄12號","121.663816666667","25.067295","6501100","汐止區"
"221015","131-UY","2018/04/02 19:59:38","新北市汐止區橋東街46號","121.665588333333","25.07505","6501100","汐止區"
"221010","269-BY","2018/04/02 19:59:25","新北市汐止區連峰街227號","121.645098333333","25.0810833333333","6501100","汐止區"
"221012","278-VK","2018/04/02 19:59:32","新北市汐止區大同路三段188號","121.674641666667","25.073735","6501100","汐止區"
"221023","279-VK","2018/04/02 19:59:22","新北市汐止區明峰街190號","121.628168333333","25.06966","6501100","汐止區"
"221032","280-BY","2018/04/02 19:59:30","新北市汐止區橫科路18巷9弄2號","121.617863333333","25.0506083333333","6501100","汐止區"
"221027","281-BY","2018/04/02 19:59:37","新北市汐止區中正路75號","121.661596666667","25.069515","6501100","汐止區"
"221029","298-VK","2018/04/02 19:59:28","新北市汐止區樟樹一路137巷26號","121.64076","25.065905","6501100","汐止區"
"221021","299-VK","2018/04/02 19:59:27","新北市汐止區新台五路一段208-23號","121.655765","25.0627916666667","6501100","汐止區"
"221031","353-TW","2018/04/02 19:59:27","新北市汐止區福德一路176巷1弄1號","121.635645","25.06627","6501100","汐止區"
"221035","622-UM","2018/04/02 19:59:25","新北市汐止區長江街49號","121.65603","25.071385","6501100","汐止區"
"221025","623-UM","2018/04/02 19:59:20","新北市汐止區秀峰路107號","121.66028","25.063365","6501100","汐止區"
"221038","646-BX","2018/04/02 19:59:26","新北市汐止區忠孝東路486號","121.666338333333","25.073925","6501100","汐止區"
"221033","647-BX","2018/04/02 19:59:30","新北市汐止區東勢街201巷104號","121.633415","25.0430383333333","6501100","汐止區"
"221002","707-TV","2018/04/02 19:59:30","新北市汐止區工建路504號","121.633198333333","25.05839","6501100","汐止區"
"221018","753-BX","2018/04/02 19:59:23","新北市汐止區茄苳路256號","121.67171","25.0682883333333","6501100","汐止區"
"220079","145-BY","2018/04/02 19:59:40","新北市板橋區南雅西路二段145巷1號","121.451978333333","25.011705","6500100","板橋區"
"220080","200-UY","2018/04/02 19:59:32","新北市板橋區大觀路二段153巷20號","121.446508333333","25.0002766666667","6500100","板橋區"
"220106","KEA-2550","2018/04/02 19:59:39","新北市板橋區民治街96巷21-1號","121.478481666667","25.0321533333333","6500100","板橋區"
"220072","277-BY","2018/04/02 19:59:35","新北市板橋區篤行路二段31巷8號","121.432335","24.9925633333333","6500100","板橋區"
"220101","280-UM","2018/04/02 19:59:27","新北市板橋區莊敬路263巷15號","121.473146666667","25.0217683333333","6500100","板橋區"
"220071","283-VK","2018/04/02 19:59:23","新北市板橋區和平路174巷30號","121.464701666667","24.9943966666667","6500100","板橋區"
"220094","285-UM","2018/04/02 19:59:33","新北市板橋區陽明街239號","121.463146666667","25.0245883333333","6500100","板橋區"
"220053","285-VK","2018/04/02 19:59:29","新北市板橋區中山路二段90巷12號","121.475371666667","25.0158366666667","6500100","板橋區"
"220083","286-VK","2018/04/02 19:59:42","新北市板橋區僑中二街48巷5號","121.446385","25.0105716666667","6500100","板橋區"
"220081","287-VK","2018/04/02 19:59:36","新北市板橋區僑中一街80巷5弄1-1號","121.447773333333","25.0123033333333","6500100","板橋區"
"220090","288-VK","2018/04/02 19:59:32","新北市板橋區幸福路32巷2弄35號","121.460835","25.02197","6500100","板橋區"
"220061","293-UM","2018/04/02 19:59:25","新北市板橋區民生路二段107號","121.471261666667","25.0179266666667","6500100","板橋區"
"220084","296-UM","2018/04/02 19:59:24","新北市樹林區水源街213號","121.424051666667","24.9871366666667","6500100","板橋區"
"220075","303-R5","2018/04/02 19:59:27","新北市板橋區金華街10巷128號","121.45966","25.02055","6500100","板橋區"
"220062","305-R5","2018/04/02 19:59:26","新北市板橋區萬安街85巷1弄11號","121.484413333333","25.025035","6500100","板橋區"
"220092","307-R5","2018/04/02 19:59:39","新北市板橋區四維路259巷75號","121.460435","25.0266366666667","6500100","板橋區"
"220098","317-R6","2018/04/02 19:59:41","新北市板橋區漢生西路165巷7號","121.462568333333","25.0232033333333","6500100","板橋區"
"220064","486-VK","2018/04/02 19:59:40","新北市板橋區區運路3號","121.465178333333","25.009515","6500100","板橋區"
"242019","280-VK","2018/04/02 19:59:40","新北市新莊區民生街28號","121.456355","25.04221","6500500","新莊區"
"220088","491-VK","2018/04/02 19:59:25","新北市板橋區文聖街149巷16號","121.479226666667","25.02834","6500100","板橋區"
"220103","561-BX","2018/04/02 19:59:24","新北市板橋區陽明街29巷2號","121.46532","25.02173","6500100","板橋區"
"220063","609-BX","2018/04/02 19:59:37","新北市板橋區中山路二段95號","121.474358333333","25.0160983333333","6500100","板橋區"
"220055","630-UY","2018/04/02 19:59:27","新北市板橋區仁愛路64號","121.459885","24.99944","6500100","板橋區"
"220091","637-BX","2018/04/02 19:59:30","新北市板橋區文聖街89巷28號","121.47827","25.030315","6500100","板橋區"
"220057","686-BX","2018/04/02 19:59:30","新北市板橋區四川路二段94號","121.451838333333","24.9946083333333","6500100","板橋區"
"220093","689-BX","2018/04/02 19:59:33","新北市板橋區長江路三段120號","121.475141666667","25.0344216666667","6500100","板橋區"
"220054","741-BX","2018/04/02 19:59:23","新北市板橋區實踐路93巷14號","121.464581666667","25.005395","6500100","板橋區"
"220102","KEA-2699","2018/04/02 19:59:26","新北市板橋區仁化街56號","121.475733333333","25.0315716666667","6500100","板橋區"
"220067","829-TW","2018/04/02 19:59:33","新北市板橋區漢生東路193巷69弄1號","121.472326666667","25.0121583333333","6500100","板橋區"
"220068","830-TW","2018/04/02 19:59:38","新北市板橋區光復街141號","121.48528","25.0198016666667","6500100","板橋區"
"220096","831-TW","2018/04/02 19:59:39","新北市板橋區莒光路15巷13號","121.470071666667","25.0254333333333","6500100","板橋區"
"220089","833-TW","2018/04/02 19:59:28","新北市板橋區龍泉街55巷16號","121.457425","25.025425","6500100","板橋區"
"220074","895-R6","2018/04/02 19:59:29","新北市板橋區縣民大道一段285號","121.460605","25.0100733333333","6500100","板橋區"
"220073","985-R7","2018/04/02 19:59:34","新北市板橋區南雅西路二段82號","121.452548333333","25.0108966666667","6500100","板橋區"
"220097","AAC-210","2018/04/02 19:59:37","新北市板橋區光正街37號","121.46206","25.0170666666667","6500100","板橋區"
"220070","AAC-253","2018/04/02 19:59:26","新北市土城區四川路22號","121.455176666667","24.995905","6500100","板橋區"
