"lineid","car","time","location","longitude","latitude","cityid","cityname"
"231059","046-UY","2018/04/02 20:59:40","新北市新店區僑信路94號","121.499941666667","24.9477","6500600","新店區"
"231040","047-UY","2018/04/02 20:59:46","新北市新店區中正路114號","121.5424","24.9710233333333","6500600","新店區"
"231047","187-VK","2018/04/02 20:59:44","新北市新店區文化路73巷1號","121.544865","24.9825533333333","6500600","新店區"
"231054","KEA-2219","2018/04/02 20:59:40","新北市新店區中正路75巷67號","121.543216666667","24.9691416666667","6500600","新店區"
"231050","260-TV","2018/04/02 20:59:45","新北市新店區三民路117巷7弄1號","121.534151666667","24.9710083333333","6500600","新店區"
"231042","268-BY","2018/04/02 20:59:47","新北市新店區寶興路60巷4號","121.549833333333","24.9718566666667","6500600","新店區"
"231051","278-BY","2018/04/02 20:59:30","新北市新店區溪園路43巷3-1號","121.529778333333","24.9877866666667","6500600","新店區"
"231066","4716-K9","2018/04/02 20:59:51","新北市新店區安民街42號","121.515861666667","24.9654016666667","6500600","新店區"
"231056","4715-K9","2018/04/02 20:59:51","新北市新店區中央七街61巷5號","121.528338333333","24.9765916666667","6500600","新店區"
"231067","4772-VM","2018/04/02 20:59:35","新北市新店區安德街148巷32號","121.507351666667","24.9605983333333","6500600","新店區"
"231065","512-UM","2018/04/02 20:59:35","新北市新店區安祥路67巷26號","121.484403333333","24.959805","6500600","新店區"
"231061","619-UM","2018/04/02 20:59:49","新北市新店區永安街64號","121.519431666667","24.986835","6500600","新店區"
"231063","641-BX","2018/04/02 20:59:43","新北市新店區玫瑰路58巷3號","121.495311666667","24.946535","6500600","新店區"
"231068","718-UY","2018/04/02 20:59:36","新北市新店區寶元路二段51號","121.54731","24.9811816666667","6500600","新店區"
"231064","719-UY","2018/04/02 20:59:41","新北市新店區安民街243-1號","121.51662","24.972645","6500600","新店區"
"231062","720-UM","2018/04/02 20:59:39","新北市新店區裕合街82號","121.490335","24.9486133333333","6500600","新店區"
"231060","897-TW","2018/04/02 20:59:32","新北市新店區安康路三段578-2號","121.480281666667","24.948085","6500600","新店區"
"231043","899-TW","2018/04/02 20:59:39","新北市新店區中正路429號","121.534101666667","24.978145","6500600","新店區"
"241011","013-R5","2018/04/02 20:59:29","新北市三重區龍濱路251號","121.501405","25.0726483333333","6500200","三重區"
"241028","022-UY","2018/04/02 20:59:36","新北市三重區重新路三段90號","121.493051666667","25.0608683333333","6500200","三重區"
"241008","059-VK","2018/04/02 20:59:38","新北市三重區力行路二段160號","121.482733333333","25.0765533333333","6500200","三重區"
"241009","060-VK","2018/04/02 20:59:36","新北市三重區三和路四段165-2號","121.483283333333","25.078545","6500200","三重區"
"241031","061-VK","2018/04/02 20:59:50","新北市三重區重陽路一段113巷2弄2號","121.487553333333","25.0599716666667","6500200","三重區"
"241015","062-VK","2018/04/02 20:59:32","新北市三重區福德北路69號","121.502018333333","25.0656216666667","6500200","三重區"
"241017","063-VK","2018/04/02 20:59:47","新北市三重區大仁街23號","121.492053333333","25.06458","6500200","三重區"
"241024","065-VK","2018/04/02 20:59:37","新北市三重區大勇街82巷15弄30號","121.48126","25.07198","6500200","三重區"
"241026","066-VK","2018/04/02 20:59:48","新北市三重區文化南路45號","121.500145","25.06141","6500200","三重區"
"241002","090-VK","2018/04/02 20:59:47","新北市三重區五華街7巷5號","121.495436666667","25.0801416666667","6500200","三重區"
"241003","091-VK","2018/04/02 20:59:34","新北市三重區進安街198號","121.493853333333","25.086025","6500200","三重區"
"241005","262-UM","2018/04/02 20:59:41","新北市三重區三信路5號","121.48863","25.08652","6500200","三重區"
"241016","265-UM","2018/04/02 20:59:42","新北市三重區自強路一段125號","121.495268333333","25.06638","6500200","三重區"
"241022","267-UM","2018/04/02 20:59:48","新北市三重區中正北路20巷12號","121.487983333333","25.0626533333333","6500200","三重區"
"241018","268-UM","2018/04/02 20:59:42","新北市三重區雙園街103號","121.49367","25.0673166666667","6500200","三重區"
"241032","269-UM","2018/04/02 20:59:36","新北市三重區興華街125號","121.48334","25.0598583333333","6500200","三重區"
"241013","270-UM","2018/04/02 20:59:38","新北市三重區仁賢街12-1號","121.495676666667","25.0748783333333","6500200","三重區"
"241025","271-UM","2018/04/02 20:59:42","新北市三重區貴陽街18-1號","121.484176666667","25.0619483333333","6500200","三重區"
"241007","398-BY","2018/04/02 20:59:34","新北市三重區三和路四段155巷27號","121.48467","25.078565","6500200","三重區"
"241004","475-VK","2018/04/02 20:59:35","新北市三重區仁愛街423-1號","121.49038","25.0814583333333","6500200","三重區"
"241020","478-VK","2018/04/02 20:59:34","新北市三重區忠孝路二段35號","121.485923333333","25.0710666666667","6500200","三重區"
"241030","480-VK","2018/04/02 20:59:51","新北市三重區中正南路252巷5號","121.493445","25.0528","6500200","三重區"
"241014","543-UM","2018/04/02 20:59:38","新北市三重區長壽街120巷11號","121.502485","25.0690716666667","6500200","三重區"
"241023","545-UM","2018/04/02 20:59:39","新北市三重區忠孝路三段50巷41弄64號","121.482355","25.0637716666667","6500200","三重區"
"241019","KEA-2593","2018/04/02 20:59:44","新北市三重區自強路二段74巷21號","121.488038333333","25.0698566666667","6500200","三重區"
"241006","AAD-863","2018/04/02 20:59:48","新北市三重區永福街50號","121.481756666667","25.07804","6500200","三重區"
"241001","887-TS","2018/04/02 20:59:34","新北市三重區三和路四段118巷23號","121.487671666667","25.0744483333333","6500200","三重區"
"241012","941-UM","2018/04/02 20:59:49","新北市三重區仁信街6號","121.501363333333","25.0755783333333","6500200","三重區"
"241029","942-UM","2018/04/02 20:59:45","新北市三重區正義南路107號","121.498223333333","25.0585633333333","6500200","三重區"
"241033","AAC-255","2018/04/02 20:59:37","新北市三重區光復路二段146-2號","121.472068333333","25.05975","6500200","三重區"
"235026","800-TS","2018/04/02 20:36:56","新北市中和區員山路36巷16-3號","121.48479","24.9913366666667","6500300","中和區"
"247024","893-R6","2018/04/02 20:59:52","新北市蘆洲區長興路213號","121.461131666667","25.0863133333333","6501400","蘆洲區"
"247014","546-UM","2018/04/02 20:59:42","新北市蘆洲區中山二路36巷27號","121.474231666667","25.083125","6501400","蘆洲區"
"247022","500-BY","2018/04/02 20:59:48","新北市蘆洲區中正路263巷2號","121.467268333333","25.0875816666667","6501400","蘆洲區"
"247010","341-TH","2018/04/02 20:59:38","新北市蘆洲區鷺江街93號","121.4768","25.0838416666667","6501400","蘆洲區"
"247012","339-TH","2018/04/02 20:59:52","新北市蘆洲區民權路5號","121.476608333333","25.0855633333333","6501400","蘆洲區"
"247004","337-TH","2018/04/02 20:59:51","新北市蘆洲區永安南路二段268號","121.458651666667","25.08073","6501400","蘆洲區"
"247006","336-TH","2018/04/02 20:59:34","新北市蘆洲區永安南路二段18號","121.46771","25.0771083333333","6501400","蘆洲區"
"247018","057-VK","2018/04/02 20:53:09","新北市土城區日新街33巷14號","121.440168333333","24.9878416666667","6501400","蘆洲區"
"247008","056-VK","2018/04/02 20:59:49","新北市蘆洲區民生街72號","121.473035","25.0791116666667","6501400","蘆洲區"
"247016","007-UY","2018/04/02 20:59:51","新北市蘆洲區正和街84號","121.468351666667","25.08096","6501400","蘆洲區"
"247020","001-UY","2018/04/02 20:59:37","新北市蘆洲區民族路375號","121.470706666667","25.09109","6501400","蘆洲區"
"251001","011-UM","2018/04/02 20:59:51","新北市淡水區淡金路二段147號","121.449528333333","25.1829866666667","6501000","淡水區"
"251002","012-UM","2018/04/02 20:59:48","新北市淡水區水源街一段145號","121.447403333333","25.1718933333333","6501000","淡水區"
"251013","179-VK","2018/04/02 20:59:40","新北市淡水區水汴頭12號","121.469795","25.20349","6501000","淡水區"
"251014","180-VK","2018/04/02 20:59:51","新北市淡水區溪口4-2號","121.4547","25.2369333333333","6501000","淡水區"
"251010","413-VK","2018/04/02 20:59:43","新北市淡水區中正路一段118-3號","121.42386","25.17875","6501000","淡水區"
"251012","441-VK","2018/04/02 20:59:36","新北市淡水區淡金路五段52號","121.454258333333","25.2332383333333","6501000","淡水區"
"251016","442-VK","2018/04/02 20:59:49","新北市淡水區牛埔子10-1號","121.449806666667","25.2184666666667","6501000","淡水區"
"251005","443-VK","2018/04/02 20:59:43","新北市淡水區學府路51巷2弄16號","121.447951666667","25.1700033333333","6501000","淡水區"
"251007","577-R6","2018/04/02 20:59:37","新北市淡水區仁愛街2巷20號","121.446571666667","25.171195","6501000","淡水區"
"251011","650-BX","2018/04/02 20:59:43","新北市淡水區新民街226巷1號","121.436125","25.1806216666667","6501000","淡水區"
"251003","766-UM","2018/04/02 20:59:39","新北市淡水區中山北路一段257號","121.444226666667","25.1808933333333","6501000","淡水區"
"252002","178-VK","2018/04/02 20:59:38","新北市三芝區埔坪里埔頭坑41號","121.504213333333","25.2646183333333","6502100","三芝區"
"242053","751-BX","2018/04/02 20:59:33","新北市新莊區西盛街282號","121.427895","25.0152816666667","6500500","新莊區"
"242050","441-UM","2018/04/02 20:59:32","新北市新莊區民安西路212巷5弄26號","121.42491","25.013975","6500500","新莊區"
"242044","400-BY","2018/04/02 20:59:49","新北市板橋區大觀路三段50巷49號","121.432363333333","24.9956833333333","6500500","新莊區"
"242002","349-TH","2018/04/02 20:58:05","新北市新莊區瓊林路59-66號","121.441925","25.0225833333333","6500500","新莊區"
"242013","351-TH","2018/04/02 20:59:47","新北市樹林區八德街395號","121.415545","24.971405","6500500","新莊區"
"221027","281-BY","2018/04/02 20:59:37","新北市汐止區汐萬路一段256巷3號","121.65214","25.0746816666667","6501100","汐止區"
"221029","298-VK","2018/04/02 20:59:48","新北市汐止區汐萬路一段256巷1號","121.651601666667","25.0748083333333","6501100","汐止區"
"221018","753-BX","2018/04/02 20:59:42","新北市汐止區汐萬路一段256巷3號","121.653296666667","25.0746633333333","6501100","汐止區"
"242009","281-VK","2018/04/02 20:59:45","新北市新莊區思源路65號","121.460006666667","25.0404833333333","6500500","新莊區"
"220070","AAC-253","2018/04/02 20:59:46","新北市八里區中山路三段409號","121.368661666667","25.1348533333333","6500100","板橋區"
