"lineid","car","time","location","longitude","latitude","cityid","cityname"
"247010","341-TH","2018/04/02 22:19:18","新北市五股區孝義路9-12號","121.44981","25.106785","6501400","蘆洲區"
"251008","181-VK","2018/04/02 22:19:21","新北市淡水區學府路104號","121.449866666667","25.1717866666667","6501000","淡水區"
"251010","413-VK","2018/04/02 22:19:23","新北市淡水區沙崙路200號","121.42469","25.1839233333333","6501000","淡水區"
"251012","441-VK","2018/04/02 22:19:14","新北市淡水區下圭柔山90-8號","121.431328333333","25.2100483333333","6501000","淡水區"
"251007","577-R6","2018/04/02 22:19:11","新北市淡水區北新路143號","121.44952","25.1789483333333","6501000","淡水區"
"251011","650-BX","2018/04/02 22:19:23","新北市淡水區水碓街7號","121.44316","25.1771333333333","6501000","淡水區"
"251004","757-BX","2018/04/02 22:19:09","新北市淡水區民族路33號","121.462288333333","25.1358216666667","6501000","淡水區"
