"lineid","car","time","location","longitude","latitude","cityid","cityname"
"248005","653-BX","2018/01/11 08:09:45","新北市五股區明德路12巷6號","121.433341666667","25.0718283333333","6501500","五股區"
"232001","290-BY","2018/01/11 08:09:36","新北市坪林區坪雙路一段115號","121.72821","24.9481466666667","6502000","坪林區"
"232014","291-BY","2018/01/11 08:09:39","新北市坪林區金瓜寮24號","121.678685","24.9095216666667","6502000","坪林區"
"232018","705-BZ","2018/01/11 08:09:49","新北市坪林區坪雙路一段25號","121.711536666667","24.9423766666667","6502000","坪林區"
"232007","758-BX","2018/01/11 08:09:53","新北市坪林區九芎林39號","121.704206666667","24.921","6502000","坪林區"
"244003","248-BX","2018/01/11 08:09:39","新北市林口區嘉溪雅坑8號","121.341898333333","25.1046966666667","6501700","林口區"
"244024","742-UY","2018/01/11 08:09:51","新北市林口區中山路130號","121.39252","25.0785966666667","6501700","林口區"
"244022","483-VK","2018/01/11 08:09:41","新北市林口區仁愛路一段310號","121.392016666667","25.07637","6501700","林口區"
"244016","485-VK","2018/01/11 08:09:34","新北市林口區中山路247號","121.385751666667","25.0794333333333","6501700","林口區"
"244008","837-TS","2018/01/11 08:09:40","新北市林口區林口路296號","121.38602","25.085445","6501700","林口區"
"244020","838-TS","2018/01/11 08:09:35","新北市林口區粉寮路二段272-1號","121.40489","25.094695","6501700","林口區"
"222006","289-BY","2018/01/11 08:09:38","新北市深坑區北深路三段70號","121.607763333333","25.0014033333333","6501800","深坑區"
"231069","189-VK","2018/01/11 08:09:33","新北市新店區華潭街52號","121.528918333333","24.9550483333333","6500600","新店區"
"231008","192-VK","2018/01/11 08:09:33","新北市新店區安康路一段3-1號","121.53515","24.9609066666667","6500600","新店區"
"235001","611-BX","2018/01/11 08:09:32","新北市中和區圓通路367巷33弄96號","121.494788333333","24.9837166666667","6500300","中和區"
"226005","5620-A6","2018/01/11 08:09:21","新北市平溪區嶺腳里嶺腳寮83-2號","121.7507","25.0351633333333","6502400","平溪區"
"226002","7418-A5","2018/01/11 08:09:37","新北市平溪區東勢里芊蓁林52號","121.755263333333","25.0092316666667","6502400","平溪區"
"226003","AGD-0702","2018/01/11 08:09:48","新北市平溪區嶺腳里嶺腳寮74-1號","121.747625","25.032515","6502400","平溪區"
"223006","022-BY","2018/01/11 08:09:45","新北市石碇區楓子林1-2號","121.641783333333","25.0084966666667","6501900","石碇區"
"223002","198-BX","2018/01/11 08:09:47","新北市石碇區碇格路二段17號","121.639195","24.95533","6501900","石碇區"
"223008","406-TH","2018/01/11 08:09:47","新北市石碇區靜安路一段151號","121.671835","25.0056633333333","6501900","石碇區"
"223001","437-BY","2018/01/11 08:09:42","新北市石碇區北宜路六段塗潭巷7號","121.646193333333","24.933995","6501900","石碇區"
"223004","660-BX","2018/01/11 08:09:46","新北市石碇區碇坪路一段10號","121.651581666667","25.0060866666667","6501900","石碇區"
"223007","661-BX","2018/01/11 08:09:49","新北市石碇區石碇子埔93號","121.671535","25.00552","6501900","石碇區"
"223005","677-TV","2018/01/11 08:09:51","新北市石碇區碇坪路一段18號","121.651706666667","25.005635","6501900","石碇區"
"252004","249-BX","2018/01/11 08:09:30","新北市三芝區興華里車埕24號","121.50207","25.1957333333333","6502100","三芝區"
"252007","AAC-283","2018/01/11 08:09:38","新北市三芝區後厝里大片頭81-1號","121.458885","25.2447916666667","6502100","三芝區"
"237001","159-UY","2018/01/11 08:09:37","新北市三峽區學成路285號","121.376213333333","24.9432283333333","6500900","三峽區"
"236009","165-UM","2018/01/11 08:09:35","新北市土城區青雲路318-1號","121.45887","24.9775783333333","6501300","土城區"
"236003","339-SR","2018/01/11 08:09:48","新北市土城區龍泉路75-1號","121.43375","24.9426883333333","6501300","土城區"
"236005","498-BY","2018/01/11 08:09:31","新北市土城區永平街51號","121.427526666667","24.95914","6501300","土城區"
"242030","AAC-296","2018/01/11 08:09:50","新北市新莊區新泰路321巷1弄2號","121.444746666667","25.0413483333333","6500500","新莊區"
"242028","986-R7","2018/01/11 08:09:42","新北市新莊區復興路一段109號","121.449261666667","25.042925","6500500","新莊區"
"242049","751-BX","2018/01/11 08:09:37","新北市新莊區西盛街311巷4號","121.428346666667","25.0152033333333","6500500","新莊區"
"242024","615-BX","2018/01/11 08:09:44","新北市新莊區思源路273號","121.460115","25.0479166666667","6500500","新莊區"
"242022","613-BX","2018/01/11 08:09:32","新北市新莊區民樂街79號","121.457926666667","25.042895","6500500","新莊區"
"242026","612-BX","2018/01/11 08:09:51","新北市新莊區福壽街108號","121.458076666667","25.05056","6500500","新莊區"
"242038","566-BX","2018/01/11 08:09:43","新北市新莊區民全街2號","121.428966666667","25.0210516666667","6500500","新莊區"
"242043","442-UM","2018/01/11 08:09:44","新北市新莊區富國路21號","121.418591666667","25.0264033333333","6500500","新莊區"
"242047","441-UM","2018/01/11 08:09:32","新北市新莊區萬安街80號","121.42083","25.0229733333333","6500500","新莊區"
"242052","440-UM","2018/01/11 08:09:36","新北市新莊區樹新路120巷51號","121.430076666667","24.9958816666667","6500500","新莊區"
"242033","415-TV","2018/01/11 08:09:38","新北市新莊區新莊路580號","121.444411666667","25.0329133333333","6500500","新莊區"
"242003","413-TV","2018/01/11 08:09:38","新北市新莊區自立街218號","121.457263333333","25.0453916666667","6500500","新莊區"
"242040","400-BY","2018/01/11 08:09:38","新北市泰山區中山路二段760號","121.424666666667","25.0346483333333","6500500","新莊區"
"242059","362-BY","2018/01/11 08:09:36","新北市新莊區瓊林南路221號","121.434698333333","25.0088566666667","6500500","新莊區"
"242057","353-BY","2018/01/11 08:09:47","新北市新莊區中正路730號","121.414885","25.0236466666667","6500500","新莊區"
"242006","132-UY","2018/01/11 08:09:34","新北市新莊區福樂街132巷8號","121.456786666667","25.04828","6500500","新莊區"
"242035","133-UY","2018/01/11 08:09:48","新北市新莊區建福路59巷44號","121.428635","25.0277433333333","6500500","新莊區"
"242020","135-UY","2018/01/11 08:09:45","新北市新莊區中華路一段180號","121.452673333333","25.0420566666667","6500500","新莊區"
"242045","172-VK","2018/01/11 08:09:39","新北市新莊區建國一路27號","121.434086666667","25.03131","6500500","新莊區"
"242008","173-VK","2018/01/11 08:09:44","新北市新莊區中原路79號","121.457028333333","25.0540533333333","6500500","新莊區"
"242014","175-VK","2018/01/11 08:09:35","新北市新莊區新泰路464號","121.443213333333","25.0448966666667","6500500","新莊區"
"242001","176-VK","2018/01/11 08:09:47","新北市新莊區新莊路362號","121.449696666667","25.03346","6500500","新莊區"
"242012","346-TH","2018/01/11 08:09:39","新北市新莊區中誠街123號","121.449338333333","25.047485","6500500","新莊區"
"242018","348-TH","2018/01/11 08:09:35","新北市新莊區中港路212號","121.454623333333","25.0426416666667","6500500","新莊區"
"242055","349-TH","2018/01/11 08:09:39","新北市新莊區瓊林路13-7號","121.448323333333","25.030365","6500500","新莊區"
"242016","350-TH","2018/01/11 08:09:40","新北市新莊區復興路一段147號","121.450395","25.0432283333333","6500500","新莊區"
"242010","351-TH","2018/01/11 08:09:41","新北市新莊區中港路646號","121.450908333333","25.0557066666667","6500500","新莊區"
"220064","282-UM","2018/01/11 08:09:47","新北市新莊區中正路459號","121.442266666667","25.03348","6500100","板橋區"
