"lineid","car","time","location","longitude","latitude","cityid","cityname"
"248005","653-BX","2018/01/11 08:37:26","新北市五股區明德路12巷6號","121.433408333333","25.0718466666667","6501500","五股區"
"232001","290-BY","2018/01/11 08:37:55","新北市坪林區虎寮潭1號","121.740926666667","24.95043","6502000","坪林區"
"232014","291-BY","2018/01/11 08:37:39","新北市坪林區北宜路八段6號","121.701151666667","24.93578","6502000","坪林區"
"244012","069-UM","2018/01/11 08:37:39","新北市林口區中山路93號","121.38974","25.0787483333333","6501700","林口區"
"244006","080-UY","2018/01/11 08:37:43","新北市林口區湖子15-5號","121.386291666667","25.0906033333333","6501700","林口區"
"244003","248-BX","2018/01/11 08:37:39","新北市林口區下福里15鄰74號","121.3094","25.1149133333333","6501700","林口區"
"244018","402-UM","2018/01/11 08:37:37","新北市林口區公園路173號","121.371411666667","25.0718266666667","6501700","林口區"
"244024","742-UY","2018/01/11 08:37:51","新北市林口區文化北路一段192-100號","121.357528333333","25.0706366666667","6501700","林口區"
"244022","483-VK","2018/01/11 08:37:41","新北市林口區興林路318巷7號","121.388698333333","25.0709966666667","6501700","林口區"
"244016","485-VK","2018/01/11 08:37:34","新北市林口區忠孝路504巷21號","121.369701666667","25.0696366666667","6501700","林口區"
"244010","656-BX","2018/01/11 08:37:50","新北市林口區中山路11號","121.396201666667","25.0782016666667","6501700","林口區"
"244008","837-TS","2018/01/11 08:37:40","新北市林口區竹林路584號","121.386463333333","25.0831233333333","6501700","林口區"
"244020","838-TS","2018/01/11 08:37:54","新北市林口區自強一街2號","121.397581666667","25.0787533333333","6501700","林口區"
"222006","289-BY","2018/01/11 08:37:38","新北市深坑區風格街31巷3號","121.627938333333","25.0171383333333","6501800","深坑區"
"231069","189-VK","2018/01/11 08:37:53","新北市新店區新潭路二段38號","121.524891666667","24.9260566666667","6500600","新店區"
"231008","192-VK","2018/01/11 08:37:53","新北市新店區新烏路三段1號","121.552013333333","24.9065216666667","6500600","新店區"
"235001","611-BX","2018/01/11 08:37:51","新北市中和區中山路二段523巷32弄13號","121.481413333333","25.00362","6500300","中和區"
"226005","5620-A6","2018/01/11 08:37:41","新北市平溪區南山里六分1號","121.792548333333","25.0488833333333","6502400","平溪區"
"226002","7418-A5","2018/01/11 08:37:37","新北市平溪區東勢里芊蓁坑30號","121.727493333333","24.97911","6502400","平溪區"
"226003","AGD-0702","2018/01/11 08:37:48","新北市平溪區十分里十分街60號","121.775513333333","25.0418233333333","6502400","平溪區"
"223006","022-BY","2018/01/11 08:37:44","新北市深坑區文山路一段2號","121.647475","25.0085183333333","6501900","石碇區"
"223008","406-TH","2018/01/11 08:37:47","新北市石碇區光明路10-3號","121.681215","25.029455","6501900","石碇區"
"223001","437-BY","2018/01/11 08:37:42","新北市石碇區北宜路六段十三股巷1號","121.651448333333","24.9470216666667","6501900","石碇區"
"223004","660-BX","2018/01/11 08:37:46","新北市石碇區崩山24-2號","121.678605","24.9678516666667","6501900","石碇區"
"223007","661-BX","2018/01/11 08:37:48","新北市石碇區碇南路二段5-1號","121.670403333333","25.02489","6501900","石碇區"
"223005","677-TV","2018/01/11 08:37:51","新北市石碇區小粗坑(潭邊里)9-2號","121.679005","24.9860833333333","6501900","石碇區"
"252004","249-BX","2018/01/11 08:37:50","新北市三芝區興華里田心子12-2號","121.492521666667","25.20612","6502100","三芝區"
"252007","AAC-283","2018/01/11 08:37:38","新北市三芝區後厝里番子崙16-1號","121.485986666667","25.2355866666667","6502100","三芝區"
"237001","159-UY","2018/01/11 08:37:37","新北市三峽區大觀路24號","121.375041666667","24.9448066666667","6500900","三峽區"
"236009","165-UM","2018/01/11 08:37:35","新北市土城區石門路57號","121.459766666667","24.9626616666667","6501300","土城區"
"236003","339-SR","2018/01/11 08:37:48","新北市土城區中州路30巷31號","121.413013333333","24.9593233333333","6501300","土城區"
"236005","498-BY","2018/01/11 08:37:50","新北市土城區中央路三段279號","121.426891666667","24.9635933333333","6501300","土城區"
"242030","AAC-296","2018/01/11 08:37:44","新北市新莊區新泰路255巷3號","121.445858333333","25.0396833333333","6500500","新莊區"
"242028","986-R7","2018/01/11 08:37:38","新北市新莊區幸福路862號","121.44367","25.0490116666667","6500500","新莊區"
"242049","751-BX","2018/01/11 08:37:37","新北市新莊區西盛街131號","121.428378333333","25.018635","6500500","新莊區"
"242024","615-BX","2018/01/11 08:37:50","新北市新莊區五工一路97巷5號","121.460296666667","25.067665","6500500","新莊區"
"242022","613-BX","2018/01/11 08:37:52","新北市新莊區化成路256號","121.465656666667","25.0472183333333","6500500","新莊區"
"242026","612-BX","2018/01/11 08:37:51","新北市新莊區中港路390號","121.452393333333","25.0493233333333","6500500","新莊區"
"242038","566-BX","2018/01/11 08:37:43","新北市新莊區民安西路38巷2號","121.427233333333","25.0210866666667","6500500","新莊區"
"242043","442-UM","2018/01/11 08:37:44","新北市新莊區雙鳳路134巷8號","121.412826666667","25.0282416666667","6500500","新莊區"
"242047","441-UM","2018/01/11 08:37:52","新北市新莊區後港一路19號","121.424165","25.026185","6500500","新莊區"
"242052","440-UM","2018/01/11 08:37:56","新北市新莊區光華街50號","121.428601666667","25.0117716666667","6500500","新莊區"
"242033","415-TV","2018/01/11 08:37:50","新北市新莊區中正路405號","121.445056666667","25.034565","6500500","新莊區"
"242003","413-TV","2018/01/11 08:37:38","新北市新莊區復興路二段141號","121.457573333333","25.0444583333333","6500500","新莊區"
"242040","400-BY","2018/01/11 08:37:43","新北市新莊區天祥街71巷19號","121.415616666667","25.0286416666667","6500500","新莊區"
"242059","362-BY","2018/01/11 08:37:52","新北市新莊區新樹路69號","121.438778333333","25.0298933333333","6500500","新莊區"
"242057","353-BY","2018/01/11 08:37:47","桃園市龜山區萬壽路一段26號","121.409525","25.020135","6500500","新莊區"
"242006","132-UY","2018/01/11 08:37:54","新北市新莊區思源路593巷5弄21號","121.458298333333","25.0593683333333","6500500","新莊區"
"242035","133-UY","2018/01/11 08:37:48","新北市新莊區後港一路31巷1弄1號","121.425151666667","25.0263716666667","6500500","新莊區"
"242020","135-UY","2018/01/11 08:37:40","新北市新莊區新興街27巷2號","121.450706666667","25.03749","6500500","新莊區"
"242045","172-VK","2018/01/11 08:37:37","新北市新莊區福營路301號","121.42678","25.0290733333333","6500500","新莊區"
"242008","173-VK","2018/01/11 08:37:45","新北市新莊區中華路二段214號","121.452718333333","25.052535","6500500","新莊區"
"242014","175-VK","2018/01/11 08:37:54","新北市新莊區中平路184巷10弄16號","121.445521666667","25.04826","6500500","新莊區"
"242001","176-VK","2018/01/11 08:37:47","新北市新莊區碧江街45號","121.451391666667","25.0327866666667","6500500","新莊區"
"242012","346-TH","2018/01/11 08:37:48","新北市新莊區中泰街31號","121.450848333333","25.0469183333333","6500500","新莊區"
"242018","348-TH","2018/01/11 08:37:35","新北市新莊區長青街37巷22弄2號","121.45607","25.0412766666667","6500500","新莊區"
"242055","349-TH","2018/01/11 08:37:39","新北市新莊區豐年街53-1號","121.446466666667","25.031445","6500500","新莊區"
"242016","350-TH","2018/01/11 08:37:45","新北市新莊區中港路370號","121.452293333333","25.0472533333333","6500500","新莊區"
"242010","351-TH","2018/01/11 08:37:41","新北市新莊區中港路591巷33號","121.449658333333","25.0521883333333","6500500","新莊區"
"220064","282-UM","2018/01/11 08:37:47","新北市八里區中山路三段409號","121.368503333333","25.134575","6500100","板橋區"
