"lineid","car","time","location","longitude","latitude","cityid","cityname"
"248005","653-BX","2018/01/11 10:09:30","新北市五股區中興路二段37巷26號","121.460573333333","25.0750283333333","6501500","五股區"
"244018","402-UM","2018/01/11 10:09:37","新北市林口區麗園二街47巷37號","121.382195","25.069655","6501700","林口區"
"244025","742-UY","2018/01/11 09:43:17","新北市林口區粉寮路二段160巷28號","121.405211666667","25.090745","6501700","林口區"
"244022","483-VK","2018/01/11 10:09:41","新北市林口區仁愛路二段626號","121.37136","25.0792383333333","6501700","林口區"
"222006","289-BY","2018/01/11 10:09:38","新北市深坑區大崙尾1號","121.614313333333","24.97515","6501800","深坑區"
"231069","189-VK","2018/01/11 10:09:33","新北市新店區新潭路三段215巷25號","121.508161666667","24.90408","6500600","新店區"
"231008","192-VK","2018/01/11 10:09:13","新北市新店區平廣路一段11-1號","121.537806666667","24.9062183333333","6500600","新店區"
"223005","677-TV","2018/01/11 10:09:31","新北市石碇區小粗坑(潭邊里)9-2號","121.678418333333","24.9855916666667","6501900","石碇區"
"252004","249-BX","2018/01/11 10:09:30","新北市三芝區福德里埔尾2號","121.50198","25.2469433333333","6502100","三芝區"
"252007","AAC-283","2018/01/11 10:09:38","新北市三芝區新庄里新庄子56號","121.505306666667","25.2758233333333","6502100","三芝區"
"237001","159-UY","2018/01/11 10:09:49","新北市三峽區國學街2號","121.37372","24.9412783333333","6500900","三峽區"
"236005","498-BY","2018/01/11 10:09:31","新北市土城區城林路6巷80號","121.438736666667","24.9797083333333","6501300","土城區"
"242047","441-UM","2018/01/11 10:09:31","新北市樹林區八德街395號","121.415383333333","24.9713816666667","6500500","新莊區"
"242055","349-TH","2018/01/11 10:09:39","新北市樹林區中山路二段207號","121.403826666667","24.9772016666667","6500500","新莊區"
"242010","351-TH","2018/01/11 10:09:41","新北市樹林區八德街119號","121.421481666667","24.9799683333333","6500500","新莊區"
"220037","201-UY","2018/01/11 09:28:06","新北市樹林區育德街78號","121.387876666667","24.96831","6500100","板橋區"
