"lineid","car","time","location","longitude","latitude","cityid","cityname"
"234044","148-BY","2018/01/11 13:59:50","新北市永和區成功路一段45號","121.527051666667","25.0040983333333","6500400","永和區"
"234012","149-BY","2018/01/11 13:59:46","新北市永和區保安路292號","121.505063333333","25.0118383333333","6500400","永和區"
"234005","207-UY","2018/01/11 13:59:36","新北市中和區中和路322號","121.509683333333","25.0008783333333","6500400","永和區"
"234078","298-R6","2018/01/11 13:59:49","新北市永和區國中路23號","121.524448333333","25.0051866666667","6500400","永和區"
"234036","336-UY","2018/01/11 13:59:50","新北市永和區成功路二段187號","121.526595","24.996515","6500400","永和區"
"234062","337-UY","2018/01/11 13:59:49","新北市永和區中正路412巷20弄17號","121.518843333333","25.001595","6500400","永和區"
"234084","338-UY","2018/01/11 13:59:51","新北市永和區福和路266號","121.518101666667","25.0076766666667","6500400","永和區"
"234052","553-UM","2018/01/11 13:59:35","新北市永和區復興街91號","121.517818333333","25.0141416666667","6500400","永和區"
"234015","745-BX","2018/01/11 13:59:48","新北市永和區文化路124號","121.513065","25.0153316666667","6500400","永和區"
"234028","746-BX","2018/01/11 13:59:48","新北市永和區四維街44號","121.525176666667","24.9980716666667","6500400","永和區"
"234040","838-RS","2018/01/11 13:59:44","新北市永和區中和路335巷14號","121.507518333333","25.0002683333333","6500400","永和區"
"234060","AAD-866","2018/01/11 13:59:41","新北市永和區中正路151巷14號","121.515563333333","24.9987866666667","6500400","永和區"
"234068","847-RS","2018/01/11 13:59:36","新北市永和區國光路39-1號","121.519056666667","25.0081816666667","6500400","永和區"
"234048","863-TW","2018/01/11 13:59:49","新北市永和區保安路151號","121.50685","25.0131116666667","6500400","永和區"
"234010","9373-KE","2018/01/11 13:59:47","新北市永和區仁愛路352巷94號","121.501215","25.0080516666667","6500400","永和區"
"248015","026-BX","2018/01/11 13:59:54","新北市五股區凌雲路一段118號","121.450133333333","25.1019666666667","6501500","五股區"
"248007","095-VK","2018/01/11 13:59:41","新北市五股區中興路一段118巷6弄3號","121.466236666667","25.0741966666667","6501500","五股區"
"248017","225-UY","2018/01/11 13:59:50","新北市五股區民義路二段22巷6號","121.420451666667","25.0970666666667","6501500","五股區"
"248011","247-BX","2018/01/11 13:59:46","新北市五股區成泰路二段195巷1號","121.440396666667","25.087395","6501500","五股區"
"248009","272-BY","2018/01/11 13:59:50","新北市五股區水碓一路23號","121.43063","25.07129","6501500","五股區"
"248003","677-BX","2018/01/11 13:59:32","新北市五股區民義路二段23號","121.416606666667","25.0992883333333","6501500","五股區"
"248001","678-BX","2018/01/11 13:59:43","新北市五股區天乙路1號","121.448518333333","25.1028433333333","6501500","五股區"
"234022","9380-KE","2018/01/11 13:59:54","新北市永和區永和路二段278號","121.515961666667","25.01532","6500400","永和區"
"234076","969-R7","2018/01/11 13:59:37","新北市永和區民權路21號","121.520006666667","24.99798","6500400","永和區"
"234072","AAC-211","2018/01/11 13:59:35","新北市永和區豫溪街185號","121.522473333333","25.0103516666667","6500400","永和區"
"234066","AAC-212","2018/01/11 13:59:51","新北市永和區永貞路376號","121.509743333333","25.0070683333333","6500400","永和區"
"234001","AAC-295","2018/01/11 13:59:36","新北市永和區福和路330號","121.515435","25.00725","6500400","永和區"
"243004","AAD-798","2018/01/11 13:59:35","新北市泰山區仁德路112號","121.432746666667","25.0570316666667","6501600","泰山區"
"243003","297-R6","2018/01/11 13:59:41","新北市泰山區明志路二段298巷12號","121.426023333333","25.046685","6501600","泰山區"
"243007","380-SR","2018/01/11 13:58:08","新北市泰山區泰林路二段321號","121.429336666667","25.0627066666667","6501600","泰山區"
"243006","421-VK","2018/01/11 13:59:48","新北市泰山區黎明路2-5號","121.420875","25.0626066666667","6501600","泰山區"
"243002","KEA-2215","2018/01/11 13:59:49","新北市泰山區辭修路24號","121.429021666667","25.0581766666667","6501600","泰山區"
"243001","KEA-2216","2018/01/11 13:59:38","新北市泰山區泰林路二段263巷8號","121.430226666667","25.06238","6501600","泰山區"
"243005","646-TV","2018/01/11 13:59:45","新北市泰山區明志路三段341巷5弄5號","121.423141666667","25.03522","6501600","泰山區"
"243008","680-BX","2018/01/11 13:59:45","新北市泰山區明志路二段177號","121.427556666667","25.0500416666667","6501600","泰山區"
"231037","0293-UT","2018/01/11 13:59:55","新北市新店區安康路三段207巷28號","121.488343333333","24.9506966666667","6500600","新店區"
"231028","046-UY","2018/01/11 13:59:35","新北市新店區安和路三段124號","121.51671","24.9856333333333","6500600","新店區"
"231030","047-UY","2018/01/11 13:59:46","新北市新店區安興路7-1號","121.515031666667","24.9686133333333","6500600","新店區"
"231029","106-UY","2018/01/11 13:59:38","新北市新店區安康路二段3-1號","121.516005","24.9637016666667","6500600","新店區"
"231018","107-UY","2018/01/11 13:59:48","新北市新店區中央路99號","121.531083333333","24.9750733333333","6500600","新店區"
"231011","108-UY","2018/01/11 13:59:43","新北市新店區五峰路71號","121.546358333333","24.9681083333333","6500600","新店區"
"231021","187-VK","2018/01/11 13:59:47","新北市新店區屈尺路83-2號","121.544666666667","24.9220133333333","6500600","新店區"
"231017","KEA-2219","2018/01/11 13:59:34","新北市新店區竹林路97巷1號","121.554508333333","24.9502866666667","6500600","新店區"
"231026","256-BX","2018/01/11 13:59:33","新北市新店區安康路一段35-1號","121.532145","24.960525","6500600","新店區"
"231023","AAD-862","2018/01/11 13:59:44","新北市新店區文中路38號","121.539405","24.9566283333333","6500600","新店區"
"231002","355-BY","2018/01/11 13:59:33","新北市新店區復興路108-1號","121.531871666667","24.9895666666667","6500600","新店區"
"231027","3712-VJ","2018/01/11 13:59:18","新北市新店區北宜路一段39巷20號","121.538846666667","24.9584416666667","6500600","新店區"
"231025","3713-VJ","2018/01/11 13:59:50","新北市新店區中正路273號","121.537641666667","24.9741233333333","6500600","新店區"
"231024","4716-K9","2018/01/11 13:59:48","新北市新店區北新路一段271巷26號","121.540136666667","24.9672916666667","6500600","新店區"
"231038","4715-K9","2018/01/11 13:59:35","新北市新店區溪洲路121號","121.531088333333","24.962855","6500600","新店區"
"231036","512-UM","2018/01/11 13:59:40","新北市新店區安祥路110巷31號","121.473328333333","24.9565666666667","6500600","新店區"
"231035","515-UM","2018/01/11 13:59:51","新北市新店區安康路二段85巷17號","121.513998333333","24.9618016666667","6500600","新店區"
"231001","619-UM","2018/01/11 13:59:40","新北市新店區三民路45號","121.537096666667","24.9708833333333","6500600","新店區"
"231003","641-BX","2018/01/11 13:59:39","新北市新店區中興路一段24-2號","121.538538333333","24.95838","6500600","新店區"
"231034","645-TV","2018/01/11 13:59:41","新北市新店區達觀路40號","121.503116666667","24.9386766666667","6500600","新店區"
"231013","719-UM","2018/01/11 13:59:52","新北市新店區明德路74號","121.541271666667","24.98","6500600","新店區"
"231031","720-UM","2018/01/11 13:59:38","新北市新店區華城路34-1號","121.529","24.9567433333333","6500600","新店區"
"231005","897-TW","2018/01/11 13:59:43","新北市新店區中興路三段160號","121.544385","24.9807633333333","6500600","新店區"
"231006","898-TW","2018/01/11 13:59:35","新北市新店區北宜路二段209號","121.553155","24.9532783333333","6500600","新店區"
"231004","899-TW","2018/01/11 13:59:43","新北市新店區北新路二段152巷2號","121.542995","24.97524","6500600","新店區"
"235030","003-UY","2018/01/11 13:59:51","新北市中和區中山路二段131巷5弄9號","121.502998333333","25.0030516666667","6500300","中和區"
"235028","005-UY","2018/01/11 13:59:45","新北市中和區泰和街27號","121.499301666667","24.9999616666667","6500300","中和區"
"235027","006-UY","2018/01/11 13:59:39","新北市中和區連城路403號","121.486078333333","24.9962283333333","6500300","中和區"
"235010","031-BX","2018/01/11 13:59:39","新北市中和區興南路一段135巷17號","121.509388333333","24.987","6500300","中和區"
"235020","096-UM","2018/01/11 13:59:39","新北市中和區中正路1222號","121.479628333333","25.0107766666667","6500300","中和區"
"235003","097-UM","2018/01/11 13:59:47","新北市中和區景平路92巷6號","121.521583333333","24.9914283333333","6500300","中和區"
"235029","098-UM","2018/01/11 13:59:36","新北市中和區福祥路158號","121.498588333333","25.0077616666667","6500300","中和區"
"235004","150-BY","2018/01/11 13:59:48","新北市中和區保健路46巷18號","121.509125","24.9963166666667","6500300","中和區"
"235022","151-BY","2018/01/11 13:59:50","新北市中和區連城路539號","121.480361666667","24.994925","6500300","中和區"
"235019","183-VK","2018/01/11 13:59:44","新北市中和區中山路三段229巷15號","121.470521666667","25.006325","6500300","中和區"
"235002","185-VK","2018/01/11 13:59:43","新北市中和區立人街24-5號","121.518861666667","24.9941966666667","6500300","中和區"
"235013","186-VK","2018/01/11 13:59:33","新北市中和區景安路167巷23號","121.506606666667","24.9948783333333","6500300","中和區"
"235031","255-BX","2018/01/11 13:59:35","新北市中和區新生街220巷13號","121.482916666667","24.9984916666667","6500300","中和區"
"235008","293-VK","2018/01/11 13:59:54","新北市中和區復興路280巷33弄15號","121.501418333333","24.9909616666667","6500300","中和區"
"235036","301-VK","2018/01/11 13:59:39","新北市中和區中山路二段5號","121.50531","25.00575","6500300","中和區"
"235007","352-BY","2018/01/11 13:59:47","新北市中和區秀朗路三段107號","121.526416666667","24.99456","6500300","中和區"
"235032","377-QA","2018/01/11 13:59:47","新北市中和區圓通路234號","121.495026666667","24.9927333333333","6500300","中和區"
"235025","378-QA","2018/01/11 13:59:38","新北市中和區民有街8號","121.475511666667","25.0056583333333","6500300","中和區"
"235014","4979-A6","2018/01/11 13:59:38","新北市中和區華新街50巷7號","121.507648333333","24.9839283333333","6500300","中和區"
"235033","4980-A6","2018/01/11 13:59:52","新北市中和區中和路217巷16號","121.504675","25.000335","6500300","中和區"
"235006","551-UM","2018/01/11 13:59:38","新北市中和區秀朗路三段36巷8號","121.526093333333","24.9959816666667","6500300","中和區"
"235034","558-UM","2018/01/11 13:59:51","新北市中和區中和路265號","121.505406666667","24.99984","6500300","中和區"
"235009","565-BX","2018/01/11 13:59:43","新北市中和區景新街467巷20弄7-5號","121.514365","24.9878416666667","6500300","中和區"
"235018","640-BX","2018/01/11 13:59:48","新北市中和區民享街5號","121.473933333333","25.0056333333333","6500300","中和區"
"235024","647-TV","2018/01/11 13:59:35","新北市中和區中山路三段200號","121.471728333333","25.0064716666667","6500300","中和區"
"235011","732-UM","2018/01/11 13:59:41","新北市中和區興南路二段74巷10號","121.505218333333","24.9848883333333","6500300","中和區"
"235026","800-TS","2018/01/11 13:59:34","新北市中和區中山路二段340巷28號","121.493438333333","25.0035016666667","6500300","中和區"
"235021","801-TS","2018/01/11 13:59:35","新北市中和區民安街65巷2號","121.478676666667","24.9995416666667","6500300","中和區"
"235005","802-TS","2018/01/11 13:59:50","新北市中和區中安街40巷2號","121.512778333333","25.002955","6500300","中和區"
"235016","805-TS","2018/01/11 13:59:37","新北市中和區興南路二段131-15號","121.504176666667","24.9802116666667","6500300","中和區"
"235012","896-TW","2018/01/11 13:59:44","新北市中和區華新街57號","121.507953333333","24.98427","6500300","中和區"
"235017","911-UM","2018/01/11 13:59:39","新北市中和區壽德街2號","121.46507","24.9954333333333","6500300","中和區"
"235015","157-BY","2018/01/11 13:59:46","新北市中和區忠孝街31巷33弄3號","121.509728333333","24.9845283333333","6500300","中和區"
"235001","AAC-213","2018/01/11 13:59:43","新北市中和區自立路99巷1號","121.522086666667","24.9949716666667","6500300","中和區"
"235023","AAC-215","2018/01/11 13:59:36","新北市中和區圓通路369巷33弄7號","121.491225","24.9879966666667","6500300","中和區"
"220013","072-UY","2018/01/11 13:59:32","新北市板橋區漢生東路340巷11號","121.471435","25.00732","6500100","板橋區"
"220034","073-UY","2018/01/11 13:59:42","新北市板橋區中正路170號","121.456471666667","25.0170666666667","6500100","板橋區"
"220105","075-UY","2018/01/11 13:59:45","新北市板橋區莒光路59號","121.470918333333","25.0243216666667","6500100","板橋區"
"220017","AAD-861","2018/01/11 13:59:36","新北市板橋區華興街70號","121.457393333333","25.0049316666667","6500100","板橋區"
"220045","120-SR","2018/01/11 13:59:50","新北市板橋區莒光路99號","121.472516666667","25.0241266666667","6500100","板橋區"
"247019","500-BY","2018/01/11 13:59:44","新北市蘆洲區民族路422巷29號","121.473443333333","25.0934183333333","6501400","蘆洲區"
"247007","341-TH","2018/01/11 13:59:35","新北市三重區仁愛街743號","121.481373333333","25.0806916666667","6501400","蘆洲區"
"247009","339-TH","2018/01/11 13:59:44","新北市蘆洲區集賢路224巷1號","121.482275","25.0866583333333","6501400","蘆洲區"
"247003","336-TH","2018/01/11 13:59:53","新北市蘆洲區長榮路15號","121.463668333333","25.0820966666667","6501400","蘆洲區"
"247015","057-VK","2018/01/11 13:59:42","新北市蘆洲區光華路42號","121.468938333333","25.0831183333333","6501400","蘆洲區"
"247005","056-VK","2018/01/11 13:59:42","新北市蘆洲區永安南路二段76號","121.464695","25.0781883333333","6501400","蘆洲區"
"247001","053-VK","2018/01/11 13:59:39","新北市蘆洲區三民路605號","121.460586666667","25.0936933333333","6501400","蘆洲區"
"247013","007-UY","2018/01/11 13:59:44","新北市蘆洲區中正路100號","121.469765","25.08435","6501400","蘆洲區"
"247017","001-UY","2018/01/11 13:59:45","新北市蘆洲區仁愛街35巷26號","121.475665","25.088935","6501400","蘆洲區"
"228005","097-TW","2018/01/11 13:59:47","新北市貢寮區美豐里雞母嶺街52-1號","121.888566666667","25.0685666666667","6502600","貢寮區"
"228004","212-TW","2018/01/11 13:59:41","新北市貢寮區龍崗里嵩陽街35-5號","121.906953333333","25.017545","6502600","貢寮區"
"253003","6232-TK","2018/01/11 13:59:49","新北市石門區尖子鹿15號","121.57617","25.2793416666667","6502200","石門區"
"253001","6251-TK","2018/01/11 13:59:40","新北市石門區下員坑49號","121.51778","25.2733983333333","6502200","石門區"
"253002","637-UY","2018/01/11 13:59:48","新北市石門區尖山湖18號","121.55886","25.247","6502200","石門區"
"253004","8270-PC","2018/01/11 13:59:42","新北市石門區阿里荖60號","121.603191666667","25.2713183333333","6502200","石門區"
"208001","761-BX","2018/01/11 13:59:47","新北市新店區薏仁坑路自強巷1號","121.497756666667","24.9576816666667","6502700","金山區"
"207002","749-BX","2018/01/11 13:59:35","新北市萬里區溪底里富士坪路1號","121.63206","25.15062","6502800","萬里區"
"252005","073-UM","2018/01/11 13:59:33","新北市三芝區圓山里內柑宅25-2號","121.538056666667","25.2268016666667","6502100","三芝區"
"207001","662-BX","2018/01/11 13:59:41","新北市萬里區磺潭里清水18號","121.637908333333","25.1977083333333","6502800","萬里區"
"236066","105-UM","2018/01/11 13:59:37","新北市土城區員福街16號","121.441555","24.9785866666667","6501300","土城區"
"236040","107-UM","2018/01/11 13:59:37","新北市土城區中央路二段280號","121.440658333333","24.974065","6501300","土城區"
"236076","166-UM","2018/01/11 13:59:50","新北市土城區永寧路32巷10弄3號","121.428868333333","24.9610183333333","6501300","土城區"
"236028","253-BX","2018/01/11 13:59:39","新北市土城區城林路6巷80號","121.438391666667","24.9797266666667","6501300","土城區"
"236024","269-VK","2018/01/11 13:59:46","新北市土城區中央路三段46號","121.43734","24.9677216666667","6501300","土城區"
"236012","270-VK","2018/01/11 13:59:48","新北市土城區城林路6巷80號","121.438535","24.979715","6501300","土城區"
"236033","271-VK","2018/01/11 13:59:40","新北市土城區城林路6巷80號","121.438416666667","24.9798283333333","6501300","土城區"
"236018","401-BY","2018/01/11 13:59:41","新北市土城區城林路6巷80號","121.438575","24.9797533333333","6501300","土城區"
"236005","498-BY","2018/01/11 13:59:42","新北市土城區中央路一段365巷9號","121.444361666667","24.9805766666667","6501300","土城區"
"236056","912-UM","2018/01/11 13:59:35","新北市土城區大安路2號","121.432893333333","24.965515","6501300","土城區"
"236047","913-UM","2018/01/11 13:59:52","新北市土城區城林路6巷80號","121.438353333333","24.9795416666667","6501300","土城區"
"236060","915-UM","2018/01/11 13:59:34","新北市土城區城林路6巷80號","121.438455","24.9797766666667","6501300","土城區"
"236052","AAC-216","2018/01/11 13:59:44","新北市土城區城林路6巷80號","121.438361666667","24.9797783333333","6501300","土城區"
"221012","276-VK","2018/01/11 13:29:05","新北市汐止區汐萬路一段256巷3號","121.653443333333","25.0746183333333","6501100","汐止區"
"220027","145-BY","2018/01/11 13:59:50","新北市板橋區民權路202巷7弄2號","121.460066666667","25.01476","6500100","板橋區"
"220028","200-UY","2018/01/11 13:59:41","新北市板橋區大觀路二段文和巷78號","121.444148333333","24.9983716666667","6500100","板橋區"
"220030","610-BX","2018/01/11 13:59:51","新北市板橋區溪崑一街109號","121.42923","24.988505","6500100","板橋區"
"220020","277-BY","2018/01/11 13:59:45","新北市板橋區溪北路111號","121.430093333333","24.9887133333333","6500100","板橋區"
"220050","280-UM","2018/01/11 13:59:38","新北市板橋區文化路二段182巷5弄1號","121.471536666667","25.0270416666667","6500100","板橋區"
"220043","285-UM","2018/01/11 13:59:51","新北市板橋區文化路二段19號","121.468735","25.0246183333333","6500100","板橋區"
"220001","285-VK","2018/01/11 13:59:37","新北市板橋區中山路二段145號","121.475413333333","25.0165333333333","6500100","板橋區"
"220031","286-VK","2018/01/11 13:59:37","新北市板橋區大觀路一段38巷170弄1號","121.441935","25.0045866666667","6500100","板橋區"
"220029","287-VK","2018/01/11 13:59:35","新北市板橋區光華街19巷70號","121.452901666667","25.01193","6500100","板橋區"
"220039","288-VK","2018/01/11 13:59:45","新北市板橋區民有街18號","121.466261666667","25.024935","6500100","板橋區"
"220009","293-UM","2018/01/11 13:59:50","新北市板橋區永豐街120巷2弄9-2號","121.476385","25.02031","6500100","板橋區"
"220032","296-UM","2018/01/11 13:59:45","新北市板橋區龍興街59號","121.443253333333","25.00124","6500100","板橋區"
"220023","303-R5","2018/01/11 13:59:48","新北市板橋區南雅東路88號","121.453938333333","25.0076","6500100","板橋區"
"220010","305-R5","2018/01/11 13:59:51","新北市板橋區三民路二段245巷44號","121.481001666667","25.0124566666667","6500100","板橋區"
"220041","307-R5","2018/01/11 13:59:49","新北市板橋區文化路一段104巷1號","121.464968333333","25.01798","6500100","板橋區"
"220047","317-R6","2018/01/11 13:59:48","新北市板橋區民有街28號","121.466095","25.025275","6500100","板橋區"
"220012","486-VK","2018/01/11 13:59:39","新北市板橋區漢生東路178號","121.467201666667","25.0142983333333","6500100","板橋區"
"220038","487-VK","2018/01/11 13:59:33","新北市板橋區文化路二段318號","121.472386666667","25.0296833333333","6500100","板橋區"
"220037","491-VK","2018/01/11 13:59:52","新北市板橋區民生路二段210-1號","121.469441666667","25.0214083333333","6500100","板橋區"
"220104","560-BX","2018/01/11 13:59:43","新北市板橋區中正路341巷37號","121.453978333333","25.01972","6500100","板橋區"
"220052","561-BX","2018/01/11 13:59:48","新北市板橋區縣民大道二段279號","121.46994","25.0178633333333","6500100","板橋區"
"220019","568-UM","2018/01/11 13:59:43","新北市板橋區忠孝路136號","121.463596666667","25.0024016666667","6500100","板橋區"
"220011","609-BX","2018/01/11 13:59:33","新北市板橋區中山路二段86號","121.475043333333","25.0162433333333","6500100","板橋區"
"220004","630-UY","2018/01/11 13:59:54","新北市板橋區信義路165號","121.458675","24.992305","6500100","板橋區"
"220040","637-BX","2018/01/11 13:59:47","新北市板橋區大同街55號","121.478756666667","25.0275866666667","6500100","板橋區"
"220005","686-BX","2018/01/11 13:59:43","新北市板橋區館前東路37號","121.460895","25.007435","6500100","板橋區"
"220025","687-BX","2018/01/11 13:59:44","新北市板橋區大觀路二段174巷138-2號","121.441498333333","25.0026283333333","6500100","板橋區"
"220042","689-BX","2018/01/11 13:59:33","新北市板橋區民生路三段30-5號","121.467493333333","25.0246233333333","6500100","板橋區"
"220002","741-BX","2018/01/11 13:59:50","新北市板橋區重慶路139巷2號","121.462538333333","25.0044533333333","6500100","板橋區"
"220003","827-TW","2018/01/11 13:59:45","新北市板橋區民安街22-1號","121.466895","25.0114583333333","6500100","板橋區"
"220014","829-TW","2018/01/11 13:59:41","新北市板橋區三民路二段正隆巷12弄15-1號","121.477653333333","25.0134583333333","6500100","板橋區"
"220051","830-TW","2018/01/11 13:59:33","新北市板橋區雙十路一段44巷36號","121.477121666667","25.0248216666667","6500100","板橋區"
"220022","895-R6","2018/01/11 13:59:53","新北市板橋區南雅南路一段60-1號","121.455423333333","25.005265","6500100","板橋區"
"220021","985-R7","2018/01/11 13:59:41","新北市板橋區館前西路269號","121.453658333333","25.0087116666667","6500100","板橋區"
"220046","AAC-210","2018/01/11 13:59:48","新北市板橋區陽明街162號","121.463331666667","25.0243466666667","6500100","板橋區"
"220018","AAC-253","2018/01/11 13:59:46","新北市板橋區四川路一段285號","121.459183333333","25.0013766666667","6500100","板橋區"
