"lineid","car","time","location","longitude","latitude","cityid","cityname"
"234010","9373-KE","2018/01/11 15:49:41","新北市永和區環河西路二段157-1號","121.505416666667","25.0138466666667","6500400","永和區"
"243009","KEA-2216","2018/01/11 15:49:30","新北市泰山區犁頭窠3-1號","121.422018333333","25.0605483333333","6501600","泰山區"
"231037","0293-UT","2018/01/11 15:49:54","新北市新店區安興路112號","121.514611666667","24.97764","6500600","新店區"
"231030","047-UY","2018/01/11 15:49:46","新北市新店區永安街30號","121.517671666667","24.9866466666667","6500600","新店區"
"231029","106-UY","2018/01/11 15:49:41","新北市新店區安康路二段335號","121.498895","24.9562333333333","6500600","新店區"
"231018","107-UY","2018/01/11 15:49:48","新北市新店區中正路663巷1弄2號","121.532896666667","24.9899983333333","6500600","新店區"
"231011","108-UY","2018/01/11 15:49:43","新北市新店區寶強路47號","121.543565","24.9796366666667","6500600","新店區"
"231021","187-VK","2018/01/11 15:49:48","新北市新店區新烏路一段58-5號","121.546148333333","24.9488583333333","6500600","新店區"
"231017","KEA-2219","2018/01/11 15:49:54","新北市新店區中華路117巷6弄1號","121.5378","24.9686616666667","6500600","新店區"
"231026","256-BX","2018/01/11 15:49:42","新北市新店區中正路460號","121.533955","24.979325","6500600","新店區"
"231046","278-BY","2018/01/11 14:03:31","新北市新店區安華路28-1號","121.51962","24.961155","6500600","新店區"
"231038","4715-K9","2018/01/11 15:49:40","新北市新店區安康路二段244號","121.50903","24.9592783333333","6500600","新店區"
"231035","515-UM","2018/01/11 15:49:51","新北市新店區安民街381號","121.516263333333","24.9764666666667","6500600","新店區"
"231003","641-BX","2018/01/11 15:49:39","新北市新店區寶興路60巷4號","121.549835","24.9718366666667","6500600","新店區"
"231034","645-TV","2018/01/11 15:49:41","新北市新店區玫瑰路57巷1號","121.49586","24.946225","6500600","新店區"
"231007","719-UM","2018/01/11 15:49:36","新北市新店區永業路81巷9弄7號","121.531116666667","24.9506516666667","6500600","新店區"
"241011","013-R5","2018/01/11 15:49:52","新北市三重區文化北路141號","121.497678333333","25.0692033333333","6500200","三重區"
"241028","022-UY","2018/01/11 15:49:40","新北市三重區中正南路50號","121.493925","25.0599316666667","6500200","三重區"
"241008","059-VK","2018/01/11 15:49:41","新北市三重區忠孝路二段124號","121.483096666667","25.068925","6500200","三重區"
"241015","062-VK","2018/01/11 15:49:43","新北市三重區重新路四段121號","121.48516","25.0520066666667","6500200","三重區"
"241024","065-VK","2018/01/11 15:49:42","新北市三重區三陽路132號","121.482285","25.05878","6500200","三重區"
"241026","066-VK","2018/01/11 15:49:39","新北市三重區泉州街84巷18號","121.495866666667","25.0543233333333","6500200","三重區"
"241003","091-VK","2018/01/11 15:49:53","新北市三重區河邊北街383號","121.502125","25.0768283333333","6500200","三重區"
"241020","156-TC","2018/01/11 15:49:46","新北市三重區忠孝路二段50號","121.48519","25.07029","6500200","三重區"
"241005","262-UM","2018/01/11 15:49:36","新北市三重區河邊北街383號","121.50218","25.0767383333333","6500200","三重區"
"241004","265-UM","2018/01/11 15:49:39","新北市三重區成功路106-2號","121.48732","25.0516916666667","6500200","三重區"
"241022","267-UM","2018/01/11 15:49:36","新北市三重區成功路108巷6-3號","121.486395","25.0503483333333","6500200","三重區"
"241013","270-UM","2018/01/11 15:49:55","新北市三重區六張街25號","121.495205","25.0706066666667","6500200","三重區"
"241007","398-BY","2018/01/11 15:49:47","新北市三重區重新路四段121號","121.485105","25.0507883333333","6500200","三重區"
"241014","543-UM","2018/01/11 15:49:37","新北市三重區重新路四段121號","121.4851","25.052045","6500200","三重區"
"241023","545-UM","2018/01/11 15:49:44","新北市三重區重新路四段121號","121.484428333333","25.0519766666667","6500200","三重區"
"241012","941-UM","2018/01/11 15:49:38","新北市三重區長壽街1號","121.4981","25.0675233333333","6500200","三重區"
"241029","942-UM","2018/01/11 15:49:47","新北市三重區大同南路246號","121.496936666667","25.0558066666667","6500200","三重區"
"241033","AAC-255","2018/01/11 15:49:42","新北市三重區光復路一段55號","121.472066666667","25.04908","6500200","三重區"
"235036","301-VK","2018/01/11 15:49:39","新北市八里區中華路三段7巷5號","121.397228333333","25.1440366666667","6500300","中和區"
"235033","4980-A6","2018/01/11 15:49:52","新北市中和區連城路469巷21弄2號","121.483853333333","24.9950583333333","6500300","中和區"
"235026","800-TS","2018/01/11 15:49:54","新北市中和區橋和路120-1號","121.492453333333","25.00575","6500300","中和區"
"235023","AAC-215","2018/01/11 15:49:36","新北市中和區員山路49-8號","121.48058","24.9914133333333","6500300","中和區"
"224007","272-VK","2018/01/11 15:49:46","新北市瑞芳區大寮路356-1號","121.784826666667","25.1032566666667","6501200","瑞芳區"
"227010","642-TC","2018/01/11 15:49:48","新北市雙溪區牡丹里自強路10號","121.865583333333","25.0391966666667","6502500","雙溪區"
"227004","400-TW","2018/01/11 15:49:36","新北市雙溪區平林里外平林44號","121.852916666667","25.0363266666667","6502500","雙溪區"
"208004","AAC-292","2018/01/11 15:49:44","新北市金山區半嶺1號","121.618995","25.2334883333333","6502700","金山區"
"208001","761-BX","2018/01/11 15:49:52","新北市金山區磺清路135號","121.639371666667","25.2277133333333","6502700","金山區"
"236066","105-UM","2018/01/11 15:49:57","新北市土城區中山路34號","121.424698333333","24.96375","6501300","土城區"
"236076","166-UM","2018/01/11 15:49:50","新北市土城區三民路23巷8弄4號","121.419773333333","24.9634533333333","6501300","土城區"
"236024","269-VK","2018/01/11 15:49:46","新北市土城區裕生路82巷8號","121.447066666667","24.9858133333333","6501300","土城區"
"236012","270-VK","2018/01/11 15:49:48","新北市土城區廣明街73號","121.45491","24.9939366666667","6501300","土城區"
"236018","401-BY","2018/01/11 15:49:41","新北市土城區延吉街137巷25弄5號","121.471481666667","24.9851333333333","6501300","土城區"
"236056","912-UM","2018/01/11 15:49:55","新北市土城區中央路一段269-5號","121.44482","24.9850083333333","6501300","土城區"
"236047","913-UM","2018/01/11 15:49:52","新北市土城區清水路253號","121.46272","24.9841733333333","6501300","土城區"
"236052","AAC-216","2018/01/11 15:49:48","新北市土城區中華路一段22號","121.447495","24.9903266666667","6501300","土城區"
"238002","755-BX","2018/01/11 15:49:51","新北市樹林區啟智街44巷1號","121.420358333333","24.9926883333333","6500700","樹林區"
"238010","601-UM","2018/01/11 15:49:45","新北市樹林區龍興街13巷1號","121.403086666667","25.016455","6500700","樹林區"
"238006","599-UM","2018/01/11 15:49:48","新北市樹林區中華路47號","121.423651666667","24.9834933333333","6500700","樹林區"
"238005","571-TV","2018/01/11 15:49:56","新北市樹林區中華路81號","121.422838333333","24.9829883333333","6500700","樹林區"
"238011","5061-A6","2018/01/11 15:49:53","新北市樹林區山佳街57-1號","121.392916666667","24.9724316666667","6500700","樹林區"
"238008","KEA-2217","2018/01/11 15:49:44","新北市樹林區佳園路二段175號","121.389945","24.95624","6500700","樹林區"
"238009","KEA-2213","2018/01/11 15:49:51","新北市樹林區太順街62巷3弄12號","121.417148333333","24.9795866666667","6500700","樹林區"
"238012","303-VK","2018/01/11 15:49:47","新北市樹林區中山路一段139號","121.4224","24.9896666666667","6500700","樹林區"
"238004","283-BY","2018/01/11 15:49:43","新北市樹林區光興街8-8號","121.41344","25.0030583333333","6500700","樹林區"
"238001","282-BY","2018/01/11 15:49:42","新北市樹林區保安二街40巷25號","121.4257","24.9945283333333","6500700","樹林區"
"238007","268-VK","2018/01/11 15:49:36","新北市樹林區俊英街200號","121.42554","25.008715","6500700","樹林區"
"238013","172-UY","2018/01/11 15:49:41","新北市樹林區中山路三段22號","121.395573333333","24.9728683333333","6500700","樹林區"
"238003","169-UY","2018/01/11 15:49:54","新北市樹林區復興路375號","121.416911666667","24.9869466666667","6500700","樹林區"
"221012","276-VK","2018/01/11 13:29:05","新北市汐止區汐萬路一段256巷3號","121.653443333333","25.0746183333333","6501100","汐止區"
"220009","293-UM","2018/01/11 15:49:30","新北市樹林區八德街372號","121.407453333333","24.969495","6500100","板橋區"
"220012","486-VK","2018/01/11 15:44:06","新北市板橋區華東街1-10號","121.44839","24.9949616666667","6500100","板橋區"
