"lineid","car","time","location","longitude","latitude","cityid","cityname"
"243009","KEA-2216","2018/01/11 15:49:30","新北市泰山區犁頭窠3-1號","121.422018333333","25.0605483333333","6501600","泰山區"
"243016","680-BX","2018/01/11 16:11:49","新北市泰山區泰林路二段208號","121.433265","25.0614183333333","6501600","泰山區"
"231018","107-UY","2018/01/11 16:11:48","新北市新店區中正路694巷15號","121.535358333333","24.9908766666667","6500600","新店區"
"231046","278-BY","2018/01/11 16:11:38","新北市新店區永業路81巷12號","121.532195","24.947805","6500600","新店區"
"231035","515-UM","2018/01/11 16:11:51","新北市新店區薏仁坑路自強巷1號","121.497778333333","24.957625","6500600","新店區"
"241011","013-R5","2018/01/11 16:11:52","新北市三重區三和路三段116號","121.493836666667","25.072305","6500200","三重區"
"241028","022-UY","2018/01/11 16:11:40","新北市三重區正義南路111號","121.498611666667","25.05862","6500200","三重區"
"241008","059-VK","2018/01/11 16:11:41","新北市三重區力行路二段136巷45弄12號","121.479091666667","25.0753633333333","6500200","三重區"
"241031","061-VK","2018/01/11 16:11:49","新北市三重區重新路四段121號","121.484606666667","25.0521216666667","6500200","三重區"
"241015","062-VK","2018/01/11 16:11:43","新北市三重區三和路一段3號","121.50423","25.0643016666667","6500200","三重區"
"241017","063-VK","2018/01/11 16:11:55","新北市三重區重陽路三段5巷38號","121.491741666667","25.065115","6500200","三重區"
"241024","065-VK","2018/01/11 16:11:42","新北市三重區中正北路145巷34號","121.4852","25.0680983333333","6500200","三重區"
"241026","066-VK","2018/01/11 16:11:39","新北市三重區正義南路29-1號","121.498005","25.0613533333333","6500200","三重區"
"241002","090-VK","2018/01/11 16:11:36","新北市三重區仁義街91號","121.49969","25.0797483333333","6500200","三重區"
"241003","091-VK","2018/01/11 16:11:53","新北市三重區仁義街241巷2號","121.496315","25.0829083333333","6500200","三重區"
"241020","156-TC","2018/01/11 16:11:46","新北市三重區車路頭街2號","121.483768333333","25.0701","6500200","三重區"
"241005","262-UM","2018/01/11 16:11:37","新北市三重區溪尾街300-2號","121.487431666667","25.08371","6500200","三重區"
"241004","265-UM","2018/01/11 16:11:39","新北市三重區仁愛街377巷132號","121.493665","25.0817616666667","6500200","三重區"
"241016","266-UM","2018/01/11 16:11:52","新北市三重區大仁街35號","121.492883333333","25.0653966666667","6500200","三重區"
"241022","267-UM","2018/01/11 16:11:36","新北市三重區中正北路122號","121.485473333333","25.0652583333333","6500200","三重區"
"241018","268-UM","2018/01/11 16:11:44","新北市三重區大仁街12號","121.49157","25.0632233333333","6500200","三重區"
"241013","270-UM","2018/01/11 16:11:55","新北市三重區三和路三段8號","121.497275","25.070215","6500200","三重區"
"241025","271-UM","2018/01/11 16:11:50","新北市三重區忠孝路三段40巷1-1號","121.48164","25.0665816666667","6500200","三重區"
"241007","398-BY","2018/01/11 16:11:47","新北市三重區慈愛街1號","121.484573333333","25.0783883333333","6500200","三重區"
"241006","KEA-2210","2018/01/11 16:11:43","新北市三重區力行路二段145號","121.483401666667","25.0773366666667","6500200","三重區"
"241019","478-VK","2018/01/11 16:11:50","新北市三重區自強路二段74巷25號","121.487753333333","25.06969","6500200","三重區"
"241014","543-UM","2018/01/11 16:11:57","新北市三重區長元街105號","121.504673333333","25.0669283333333","6500200","三重區"
"241023","545-UM","2018/01/11 16:11:44","新北市三重區力行路一段58巷14號","121.484028333333","25.0687883333333","6500200","三重區"
"241001","547-UM","2018/01/11 16:11:55","新北市三重區自強路四段77號","121.4907","25.0788766666667","6500200","三重區"
"241012","941-UM","2018/01/11 16:11:38","新北市三重區文化北路132巷8號","121.498025","25.0665266666667","6500200","三重區"
"241029","942-UM","2018/01/11 16:11:47","新北市三重區同安街50號","121.495765","25.0566466666667","6500200","三重區"
"241033","AAC-255","2018/01/11 16:11:42","新北市三重區五谷王南街50-1號","121.473763333333","25.044535","6500200","三重區"
"235036","301-VK","2018/01/11 16:11:39","新北市中和區連城路270號","121.485171666667","24.9965","6500300","中和區"
"235026","800-TS","2018/01/11 16:11:34","新北市中和區永和路171巷3弄14號","121.493073333333","25.0067116666667","6500300","中和區"
"224007","272-VK","2018/01/11 16:11:50","新北市瑞芳區大埔路132-7號","121.761631666667","25.1001516666667","6501200","瑞芳區"
"224005","271-BY","2018/01/11 16:11:37","新北市瑞芳區明燈路二段66號","121.809343333333","25.1076133333333","6501200","瑞芳區"
"227010","642-TC","2018/01/11 16:11:48","新北市雙溪區三港里雙澳路97號","121.88585","25.0570566666667","6502500","雙溪區"
"227004","400-TW","2018/01/11 16:11:36","新北市雙溪區上林里內平林47號","121.833313333333","25.0304233333333","6502500","雙溪區"
"208004","AAC-292","2018/01/11 16:11:44","新北市金山區月眉30號","121.630133333333","25.2158916666667","6502700","金山區"
"208001","761-BX","2018/01/11 16:11:52","新北市金山區磺清路135號","121.639335","25.227825","6502700","金山區"
"236056","912-UM","2018/01/11 16:11:55","新北市土城區大安路2號","121.432841666667","24.9654816666667","6501300","土城區"
"236052","AAC-216","2018/01/11 16:11:44","新北市樹林區八德街828-1號","121.394223333333","24.9687516666667","6501300","土城區"
"238002","755-BX","2018/01/11 16:11:51","新北市樹林區大安路323巷10弄20號","121.417043333333","24.9908883333333","6500700","樹林區"
"238010","601-UM","2018/01/11 16:11:45","新北市樹林區三福街72號","121.404501666667","25.0162416666667","6500700","樹林區"
"238006","599-UM","2018/01/11 16:11:48","新北市樹林區中華路190-16號","121.41178","24.9806133333333","6500700","樹林區"
"238005","571-TV","2018/01/11 16:11:37","新北市樹林區博愛街157號","121.425523333333","24.9902133333333","6500700","樹林區"
"238011","5061-A6","2018/01/11 16:11:53","新北市樹林區育德街76巷6號","121.389086666667","24.9687016666667","6500700","樹林區"
"238008","KEA-2217","2018/01/11 16:11:44","新北市樹林區佳園路二段15巷12號","121.3937","24.962475","6500700","樹林區"
"238009","KEA-2213","2018/01/11 16:11:51","新北市樹林區太平路247巷28號","121.420666666667","24.97556","6500700","樹林區"
"238012","303-VK","2018/01/11 16:11:55","新北市樹林區中正路22-1號","121.427895","24.9993333333333","6500700","樹林區"
"238004","283-BY","2018/01/11 16:11:43","新北市樹林區中正路433-1號","121.414903333333","25.0081316666667","6500700","樹林區"
"238001","282-BY","2018/01/11 16:11:42","新北市樹林區千歲街92巷7弄9號","121.42727","24.99781","6500700","樹林區"
"238007","268-VK","2018/01/11 16:11:56","新北市樹林區三俊街199巷31號","121.420408333333","25.017515","6500700","樹林區"
"238013","172-UY","2018/01/11 16:11:50","新北市樹林區八德街608號","121.397288333333","24.9700783333333","6500700","樹林區"
"238003","169-UY","2018/01/11 16:11:54","新北市樹林區復興路335巷1號","121.41794","24.9879133333333","6500700","樹林區"
"221012","276-VK","2018/01/11 13:29:05","新北市汐止區汐萬路一段256巷3號","121.653443333333","25.0746183333333","6501100","汐止區"
"220012","486-VK","2018/01/11 15:44:06","新北市板橋區華東街1-10號","121.44839","24.9949616666667","6500100","板橋區"
