"lineid","car","time","location","longitude","latitude","cityid","cityname"
"243009","KEA-2216","2018/01/11 15:49:30","新北市泰山區犁頭窠3-1號","121.422018333333","25.0605483333333","6501600","泰山區"
"243016","680-BX","2018/01/11 16:28:54","新北市泰山區犁頭窠3-1號","121.422143333333","25.0606","6501600","泰山區"
"231046","278-BY","2018/01/11 16:29:38","新北市新店區灣潭路3-3號","121.538213333333","24.95078","6500600","新店區"
"241011","013-R5","2018/01/11 16:29:52","新北市三重區龍濱路168-1號","121.50119","25.0726216666667","6500200","三重區"
"241028","022-UY","2018/01/11 16:29:40","新北市三重區中正南路157號","121.493863333333","25.056065","6500200","三重區"
"241008","059-VK","2018/01/11 16:29:41","新北市三重區力行路二段136巷45弄14號","121.479088333333","25.0754433333333","6500200","三重區"
"241009","060-VK","2018/01/11 16:29:55","新北市三重區三和路四段181巷94號","121.484626666667","25.0798233333333","6500200","三重區"
"241031","061-VK","2018/01/11 16:29:49","新北市三重區重陽路一段68號","121.486636666667","25.05861","6500200","三重區"
"241015","062-VK","2018/01/11 16:29:43","新北市三重區福德北路36-1號","121.501826666667","25.0652066666667","6500200","三重區"
"241017","063-VK","2018/01/11 16:29:55","新北市三重區大同北路65號","121.495018333333","25.063585","6500200","三重區"
"241024","065-VK","2018/01/11 16:29:42","新北市三重區中正北路287號","121.474861666667","25.0713883333333","6500200","三重區"
"241026","066-VK","2018/01/11 16:29:39","新北市三重區正義南路86巷2號","121.498873333333","25.0577866666667","6500200","三重區"
"241002","090-VK","2018/01/11 16:29:55","新北市三重區五華街11號","121.495016666667","25.080175","6500200","三重區"
"241003","091-VK","2018/01/11 16:29:53","新北市三重區仁義街230巷5號","121.49434","25.0848783333333","6500200","三重區"
"241020","156-TC","2018/01/11 16:29:45","新北市三重區車路頭街37巷17號","121.48426","25.0716383333333","6500200","三重區"
"241005","262-UM","2018/01/11 16:29:56","新北市三重區溪尾街254號","121.487401666667","25.0827216666667","6500200","三重區"
"241004","265-UM","2018/01/11 16:29:39","新北市三重區自強路五段1號","121.492063333333","25.0802","6500200","三重區"
"241016","266-UM","2018/01/11 16:29:52","新北市三重區大智街29號","121.49408","25.0660183333333","6500200","三重區"
"241022","267-UM","2018/01/11 16:29:36","新北市三重區新北大道一段86巷7號","121.486006666667","25.0619083333333","6500200","三重區"
"241018","268-UM","2018/01/11 16:29:44","新北市三重區重陽路四段57號","121.491973333333","25.07027","6500200","三重區"
"241032","269-UM","2018/01/11 16:29:47","新北市三重區三陽路100巷3弄13號","121.482958333333","25.058005","6500200","三重區"
"241013","270-UM","2018/01/11 16:29:55","新北市三重區仁愛街50號","121.496023333333","25.0727916666667","6500200","三重區"
"241025","271-UM","2018/01/11 16:29:50","新北市三重區新北大道一段250號","121.479738333333","25.0611633333333","6500200","三重區"
"241007","398-BY","2018/01/11 16:29:47","新北市三重區三和路四段167巷182號","121.488035","25.0803633333333","6500200","三重區"
"241006","KEA-2210","2018/01/11 16:29:43","新北市三重區永福街10巷7-1號","121.483221666667","25.0777133333333","6500200","三重區"
"241019","478-VK","2018/01/11 16:29:50","新北市三重區重陽路三段154號","121.489791666667","25.0675933333333","6500200","三重區"
"241030","480-VK","2018/01/11 16:29:57","新北市三重區成功路92號","121.48791","25.0512866666667","6500200","三重區"
"241014","543-UM","2018/01/11 16:29:37","新北市三重區河邊北街72-6號","121.504223333333","25.0684766666667","6500200","三重區"
"241023","545-UM","2018/01/11 16:29:44","新北市三重區忠孝路三段50巷43號","121.482918333333","25.0644783333333","6500200","三重區"
"241001","547-UM","2018/01/11 16:29:55","新北市三重區仁愛街274號","121.492668333333","25.07874","6500200","三重區"
"241012","941-UM","2018/01/11 16:29:58","新北市三重區河邊北街385號","121.501641666667","25.0766633333333","6500200","三重區"
"241029","942-UM","2018/01/11 16:29:47","新北市三重區集美街128號","121.489111666667","25.0535866666667","6500200","三重區"
"241033","AAC-255","2018/01/11 16:29:42","新北市三重區重新路五段317巷1弄1號","121.477521666667","25.0490783333333","6500200","三重區"
"235026","800-TS","2018/01/11 16:29:55","新北市中和區連城路222巷8弄1號","121.490751666667","24.9983016666667","6500300","中和區"
"224006","676-BX","2018/01/11 16:23:17","新北市瑞芳區明燈路二段66號","121.809291666667","25.10755","6501200","瑞芳區"
"224008","275-VK","2018/01/11 16:29:52","新北市瑞芳區逢甲路17號","121.809418333333","25.1084033333333","6501200","瑞芳區"
"224007","272-VK","2018/01/11 16:29:46","新北市瑞芳區瑞竹路36巷25號","121.764175","25.10432","6501200","瑞芳區"
"224005","271-BY","2018/01/11 16:29:37","新北市瑞芳區阿美家園54號","121.820945","25.1175216666667","6501200","瑞芳區"
"227010","642-TC","2018/01/11 16:29:48","新北市雙溪區三港里雙澳路22號","121.869738333333","25.049845","6502500","雙溪區"
"227004","400-TW","2018/01/11 16:29:56","新北市雙溪區上林里內平林120-2號","121.824488333333","25.0262483333333","6502500","雙溪區"
"208001","761-BX","2018/01/11 16:29:52","新北市金山區磺清路135號","121.639353333333","25.2278566666667","6502700","金山區"
"251013","179-VK","2018/01/11 16:29:48","新北市淡水區演戲埔腳2-7號","121.474823333333","25.1944583333333","6501000","淡水區"
"251014","180-VK","2018/01/11 16:29:53","新北市淡水區中正路二段31號","121.419413333333","25.1816033333333","6501000","淡水區"
"251008","181-VK","2018/01/11 16:29:54","新北市淡水區中山路30號","121.44428","25.1697883333333","6501000","淡水區"
"251015","182-VK","2018/01/11 16:29:53","新北市淡水區中正路二段31號","121.41905","25.1820733333333","6501000","淡水區"
"238011","5061-A6","2018/01/11 16:29:53","新北市樹林區中山路二段219號","121.402576666667","24.9762466666667","6500700","樹林區"
"238009","KEA-2213","2018/01/11 16:29:51","新北市樹林區八德街263-1號","121.419356666667","24.973775","6500700","樹林區"
"238012","303-VK","2018/01/11 16:29:55","新北市樹林區中正路17號","121.427841666667","24.9992466666667","6500700","樹林區"
"238004","283-BY","2018/01/11 16:29:43","新北市樹林區中正路433-1號","121.414871666667","25.0081416666667","6500700","樹林區"
"238001","282-BY","2018/01/11 16:29:42","新北市樹林區中正路22-1號","121.427805","24.9995333333333","6500700","樹林區"
"238007","268-VK","2018/01/11 16:29:56","新北市樹林區三龍街94巷36號","121.414371666667","25.0171533333333","6500700","樹林區"
"221012","276-VK","2018/01/11 13:29:05","新北市汐止區汐萬路一段256巷3號","121.653443333333","25.0746183333333","6501100","汐止區"
"220012","486-VK","2018/01/11 15:44:06","新北市板橋區華東街1-10號","121.44839","24.9949616666667","6500100","板橋區"
