"lineid","car","time","location","longitude","latitude","cityid","cityname"
"249005","172-UM","2018/01/11 17:09:54","新北市八里區華富山5-5號","121.417675","25.144615","6502300","八里區"
"249001","173-UM","2018/01/11 17:09:47","新北市八里區中華路二段173-1號","121.407026666667","25.1508033333333","6502300","八里區"
"249004","303-UY","2018/01/11 17:09:50","新北市八里區忠孝路199號","121.422238333333","25.160845","6502300","八里區"
"249002","305-UY","2018/01/11 17:09:56","新北市八里區米倉13-3號","121.438731666667","25.149635","6502300","八里區"
"249003","593-UM","2018/01/11 17:09:37","新北市八里區中山路二段502號","121.398198333333","25.14687","6502300","八里區"
"244013","069-UM","2018/01/11 17:09:49","新北市林口區粉寮69號","121.405048333333","25.0908333333333","6501700","林口區"
"244007","080-UY","2018/01/11 17:09:48","新北市林口區菁埔10-2號","121.37868","25.0967666666667","6501700","林口區"
"244019","402-UM","2018/01/11 17:09:36","新北市林口區粉寮路二段128號","121.404701666667","25.0907033333333","6501700","林口區"
"244025","742-UY","2018/01/11 17:09:34","新北市林口區粉寮路二段1-1號","121.400416666667","25.08356","6501700","林口區"
"244023","483-VK","2018/01/11 17:09:44","新北市林口區粉寮路一段43號","121.396616666667","25.0774583333333","6501700","林口區"
"244011","656-BX","2018/01/11 17:09:39","新北市林口區粉寮路二段160巷28號","121.405163333333","25.09077","6501700","林口區"
"244009","837-TS","2018/01/11 17:09:52","新北市林口區東林街43號","121.394865","25.07955","6501700","林口區"
"244021","838-TS","2018/01/11 17:09:51","新北市林口區粉寮一街134號","121.40465","25.0860966666667","6501700","林口區"
"243009","KEA-2216","2018/01/11 15:49:30","新北市泰山區犁頭窠3-1號","121.422018333333","25.0605483333333","6501600","泰山區"
"243016","680-BX","2018/01/11 16:28:54","新北市泰山區犁頭窠3-1號","121.422143333333","25.0606","6501600","泰山區"
"231046","278-BY","2018/01/11 17:09:38","新北市新店區直潭七街60號","121.532226666667","24.94","6500600","新店區"
"241011","013-R5","2018/01/11 17:09:52","新北市三重區龍門路230號","121.500405","25.07357","6500200","三重區"
"241028","022-UY","2018/01/11 17:09:40","新北市三重區重新路三段110號","121.492275","25.0602516666667","6500200","三重區"
"241008","059-VK","2018/01/11 17:09:41","新北市三重區力行路二段136巷19號","121.481575","25.0756","6500200","三重區"
"241009","060-VK","2018/01/11 17:09:35","新北市三重區三和路四段211-23號","121.48251","25.0799666666667","6500200","三重區"
"241031","061-VK","2018/01/11 17:09:49","新北市三重區重陽路一段113巷1弄27號","121.487763333333","25.0591","6500200","三重區"
"241015","062-VK","2018/01/11 17:09:43","新北市三重區長生街23號","121.499488333333","25.0663916666667","6500200","三重區"
"241017","063-VK","2018/01/11 17:09:55","新北市三重區中正北路25巷14號","121.493471666667","25.06291","6500200","三重區"
"241024","065-VK","2018/01/11 17:09:42","新北市三重區大勇街82巷26弄4號","121.479285","25.0721483333333","6500200","三重區"
"241026","066-VK","2018/01/11 17:09:39","新北市三重區正義南路6號","121.498051666667","25.0616833333333","6500200","三重區"
"241002","090-VK","2018/01/11 17:09:36","新北市三重區五華街35巷43號","121.495545","25.08149","6500200","三重區"
"241003","091-VK","2018/01/11 17:09:53","新北市三重區進安街198號","121.493861666667","25.0859783333333","6500200","三重區"
"241020","156-TC","2018/01/11 17:09:46","新北市三重區自強路三段33號","121.486935","25.0725416666667","6500200","三重區"
"241005","262-UM","2018/01/11 17:09:36","新北市三重區碧華街1號","121.483428333333","25.0812016666667","6500200","三重區"
"241004","265-UM","2018/01/11 17:09:39","新北市三重區五華街92巷8號","121.492445","25.0820916666667","6500200","三重區"
"241016","266-UM","2018/01/11 17:09:52","新北市三重區大同北路133巷1號","121.49306","25.0643483333333","6500200","三重區"
"241022","267-UM","2018/01/11 17:09:56","新北市三重區重陽路二段22號","121.486541666667","25.0626916666667","6500200","三重區"
"241018","268-UM","2018/01/11 17:09:44","新北市三重區大智街85-1號","121.491938333333","25.0690166666667","6500200","三重區"
"241032","269-UM","2018/01/11 17:09:47","新北市三重區三陽路1號","121.486625","25.0588066666667","6500200","三重區"
"241013","270-UM","2018/01/11 17:09:55","新北市三重區仁愛街88號","121.495483333333","25.0738116666667","6500200","三重區"
"241025","271-UM","2018/01/11 17:09:50","新北市三重區中正北路560巷79號","121.470948333333","25.0688933333333","6500200","三重區"
"241007","398-BY","2018/01/11 17:09:47","新北市三重區慈愛街53號","121.486246666667","25.079145","6500200","三重區"
"241006","KEA-2210","2018/01/11 17:09:43","新北市三重區車路頭街131巷13號","121.484816666667","25.07591","6500200","三重區"
"241019","478-VK","2018/01/11 17:09:50","新北市三重區力行路一段125號","121.486118333333","25.0684783333333","6500200","三重區"
"241030","480-VK","2018/01/11 17:09:36","新北市三重區環河南路253號","121.491205","25.05046","6500200","三重區"
"241014","543-UM","2018/01/11 17:09:37","新北市三重區龍濱路191號","121.502056666667","25.0712033333333","6500200","三重區"
"241023","545-UM","2018/01/11 17:09:44","新北市三重區忠孝路三段99巷4號","121.480191666667","25.06432","6500200","三重區"
"241001","547-UM","2018/01/11 17:09:55","新北市三重區仁愛街245巷19號","121.49417","25.0783166666667","6500200","三重區"
"241012","941-UM","2018/01/11 17:09:38","新北市三重區仁興街10號","121.49969","25.0743866666667","6500200","三重區"
"241029","942-UM","2018/01/11 17:09:47","新北市三重區中正南路246號","121.493416666667","25.0540733333333","6500200","三重區"
"241033","AAC-255","2018/01/11 17:09:42","新北市三重區中興北街271號","121.469093333333","25.0606483333333","6500200","三重區"
"235046","031-BX","2018/01/11 16:46:10","新北市中和區員山路36巷16-2號","121.485296666667","24.9916083333333","6500300","中和區"
"235062","800-TS","2018/01/11 16:45:37","新北市中和區員山路36巷16-3號","121.48499","24.9914683333333","6500300","中和區"
"247022","893-R6","2018/01/11 17:09:33","新北市蘆洲區三民路192號","121.46943","25.0887316666667","6501400","蘆洲區"
"247012","546-UM","2018/01/11 17:09:49","新北市蘆洲區信義路292巷6號","121.478015","25.087665","6501400","蘆洲區"
"247020","500-BY","2018/01/11 17:09:50","新北市蘆洲區仁愛街62巷22號","121.472181666667","25.0942483333333","6501400","蘆洲區"
"247008","341-TH","2018/01/11 17:09:43","新北市蘆洲區信義路30巷15號","121.474545","25.078745","6501400","蘆洲區"
"247010","339-TH","2018/01/11 17:09:53","新北市蘆洲區民族路20號","121.476068333333","25.0841133333333","6501400","蘆洲區"
"247004","336-TH","2018/01/11 17:09:48","新北市蘆洲區長安街136-1號","121.460273333333","25.08196","6501400","蘆洲區"
"247016","057-VK","2018/01/11 17:09:36","新北市蘆洲區光華路73巷15號","121.468338333333","25.0822916666667","6501400","蘆洲區"
"247006","056-VK","2018/01/11 17:09:53","新北市蘆洲區長安街108巷37號","121.462186666667","25.0825616666667","6501400","蘆洲區"
"247002","053-VK","2018/01/11 17:09:36","新北市蘆洲區永樂街108號","121.455866666667","25.0888166666667","6501400","蘆洲區"
"247014","007-UY","2018/01/11 17:09:48","新北市蘆洲區中央路30號","121.473491666667","25.0828666666667","6501400","蘆洲區"
"247024","002-UY","2018/01/11 17:09:50","新北市蘆洲區長興路21號","121.463975","25.083115","6501400","蘆洲區"
"247018","001-UY","2018/01/11 17:09:39","新北市蘆洲區復興路160號","121.477416666667","25.0881416666667","6501400","蘆洲區"
"228003","097-TW","2018/01/11 17:09:46","新北市貢寮區福隆里東興街11號","121.950366666667","25.01839","6502600","貢寮區"
"228001","212-TW","2018/01/11 17:09:49","新北市貢寮區仁理村研海街42號","121.926338333333","25.04099","6502600","貢寮區"
"228002","585-TW","2018/01/11 17:09:41","新北市貢寮區龍崗里嵩陽街55號","121.907663333333","25.0165783333333","6502600","貢寮區"
"224010","AGQ-8101","2018/01/11 09:33:11","新北市瑞芳區明燈路二段44-1號","121.809525","25.10822","6501200","瑞芳區"
"224006","676-BX","2018/01/11 17:09:53","新北市瑞芳區大寮路108號","121.781486666667","25.0978416666667","6501200","瑞芳區"
"224009","285-BY","2018/01/11 17:09:37","新北市瑞芳區輕便路128號","121.844498333333","25.11203","6501200","瑞芳區"
"224008","275-VK","2018/01/11 17:09:51","新北市瑞芳區侯硐路83號","121.830316666667","25.08918","6501200","瑞芳區"
"224007","272-VK","2018/01/11 17:09:54","新北市瑞芳區粗坑口路15號","121.761086666667","25.0989483333333","6501200","瑞芳區"
"224005","271-BY","2018/01/11 17:09:53","新北市瑞芳區鼻頭路193號","121.915433333333","25.1234316666667","6501200","瑞芳區"
"227010","642-TC","2018/01/11 17:09:47","新北市雙溪區三貂里子崙坑1-6號","121.849921666667","25.0574566666667","6502500","雙溪區"
"227004","400-TW","2018/01/11 17:09:36","新北市雙溪區外柑里外柑腳51號","121.808285","25.0179183333333","6502500","雙溪區"
"208001","761-BX","2018/01/11 16:40:07","新北市金山區磺清路135號","121.63942","25.2278583333333","6502700","金山區"
"251009","008-UM","2018/01/11 17:09:41","新北市淡水區三民街20號","121.439056666667","25.1717316666667","6501000","淡水區"
"251004","009-UM","2018/01/11 17:09:52","新北市淡水區清水街250號","121.440413333333","25.1721683333333","6501000","淡水區"
"251005","010-UM","2018/01/11 17:09:37","新北市淡水區文化路61號","121.438336666667","25.172805","6501000","淡水區"
"251013","179-VK","2018/01/11 17:09:54","新北市淡水區大埤頭6號","121.482675","25.19743","6501000","淡水區"
"251014","180-VK","2018/01/11 17:09:53","新北市淡水區八里堆7-6號","121.46125","25.2245016666667","6501000","淡水區"
"251008","181-VK","2018/01/11 17:09:42","新北市淡水區樹梅坑17號","121.471148333333","25.1441816666667","6501000","淡水區"
"251015","182-VK","2018/01/11 17:09:33","新北市淡水區樹林口42-6號","121.46881","25.1687133333333","6501000","淡水區"
"251010","413-VK","2018/01/11 17:09:55","新北市淡水區新市五路二段75號","121.431281666667","25.1982966666667","6501000","淡水區"
"251012","441-VK","2018/01/11 17:09:42","新北市淡水區中山北路一段158號","121.444213333333","25.1778733333333","6501000","淡水區"
"251016","442-VK","2018/01/11 17:09:49","新北市淡水區社厝坑3-6號","121.474778333333","25.1880666666667","6501000","淡水區"
"251006","561-UM","2018/01/11 17:09:25","新北市淡水區新民街21號","121.439323333333","25.1752666666667","6501000","淡水區"
"251007","577-R6","2018/01/11 17:09:44","新北市淡水區中正東路二段141號","121.45957","25.1480133333333","6501000","淡水區"
"251011","650-BX","2018/01/11 17:09:43","新北市淡水區坪頂路40號","121.457553333333","25.1623183333333","6501000","淡水區"
"251003","766-UM","2018/01/11 17:09:50","新北市淡水區中正路二段31號","121.419408333333","25.1815366666667","6501000","淡水區"
"252002","178-VK","2018/01/11 17:09:36","新北市三芝區忠孝街9號","121.505903333333","25.254955","6502100","三芝區"
"252001","292-VK","2018/01/11 17:09:38","新北市三芝區埔頭里埔頭39-3號","121.499206666667","25.2608683333333","6502100","三芝區"
"242029","986-R7","2018/01/11 17:09:50","新北市新莊區新泰路357巷3弄57號","121.442316666667","25.0395366666667","6500500","新莊區"
"242051","751-BX","2018/01/11 17:09:38","新北市新莊區中環路一段281號","121.442038333333","25.0316366666667","6500500","新莊區"
"242025","615-BX","2018/01/11 17:09:46","新北市新莊區新泰路255巷83號","121.44223","25.0388033333333","6500500","新莊區"
"242023","613-BX","2018/01/11 17:09:52","新北市新莊區新泰路357巷3弄57號","121.442083333333","25.03919","6500500","新莊區"
"242027","612-BX","2018/01/11 17:09:43","新北市新莊區新泰路357巷3弄57號","121.442158333333","25.0393066666667","6500500","新莊區"
"242039","566-BX","2018/01/11 17:09:45","新北市新莊區新泰路357巷3弄31號","121.442025","25.0405366666667","6500500","新莊區"
"242044","442-UM","2018/01/11 17:09:38","新北市新莊區中正路480號","121.438625","25.033325","6500500","新莊區"
"242048","441-UM","2018/01/11 17:09:44","新北市新莊區中正路717號","121.424283333333","25.029355","6500500","新莊區"
"242053","440-UM","2018/01/11 17:09:43","新北市新莊區中正路384-1號","121.44203","25.0352083333333","6500500","新莊區"
"242034","415-TV","2018/01/11 17:09:37","新北市新莊區新泰路357巷3弄57號","121.441916666667","25.0390866666667","6500500","新莊區"
"242004","413-TV","2018/01/11 17:09:44","新北市新莊區三和路18-25號","121.441746666667","25.0391583333333","6500500","新莊區"
"242042","400-BY","2018/01/11 17:09:53","新北市新莊區三和路12-21號","121.4422","25.0381916666667","6500500","新莊區"
"242061","362-BY","2018/01/11 17:09:43","新北市新莊區新泰路255巷83號","121.442188333333","25.038765","6500500","新莊區"
"242058","353-BY","2018/01/11 17:09:46","新北市新莊區新泰路357巷3弄57號","121.442133333333","25.039155","6500500","新莊區"
"242007","132-UY","2018/01/11 17:09:37","新北市新莊區三和路18-21號","121.441595","25.0388016666667","6500500","新莊區"
"242036","133-UY","2018/01/11 17:09:54","新北市新莊區中正路481號","121.4413","25.033805","6500500","新莊區"
"242021","135-UY","2018/01/11 17:09:45","新北市新莊區新泰路255巷83號","121.442011666667","25.0389566666667","6500500","新莊區"
"242046","172-VK","2018/01/11 16:55:57","新北市新莊區三和路18-9號","121.440946666667","25.0380166666667","6500500","新莊區"
"242009","173-VK","2018/01/11 16:52:26","新北市新莊區三和路12-21號","121.44193","25.03872","6500500","新莊區"
"242015","175-VK","2018/01/11 17:09:42","新北市新莊區三和路12-21號","121.441998333333","25.03861","6500500","新莊區"
"242013","346-TH","2018/01/11 09:24:36","新北市新莊區三和路12-15號","121.441791666667","25.0373766666667","6500500","新莊區"
"242019","348-TH","2018/01/11 17:09:53","新北市新莊區新泰路357巷3弄57號","121.442456666667","25.0396","6500500","新莊區"
"242056","349-TH","2018/01/11 17:09:37","新北市新莊區三和路12-16號","121.441716666667","25.0374566666667","6500500","新莊區"
"242017","350-TH","2018/01/11 17:09:40","新北市新莊區三和路12-21號","121.442361666667","25.037965","6500500","新莊區"
"242011","351-TH","2018/01/11 17:09:50","新北市新莊區新泰路357巷3弄57號","121.442038333333","25.039425","6500500","新莊區"
"238023","601-UM","2018/01/11 17:09:45","新北市樹林區大安路325號","121.417348333333","24.9917466666667","6500700","樹林區"
"238019","599-UM","2018/01/11 17:09:48","新北市樹林區八德街418號","121.403271666667","24.970455","6500700","樹林區"
"238018","571-TV","2018/01/11 17:09:36","新北市樹林區水源街75號","121.425601666667","24.9816066666667","6500700","樹林區"
"238024","5061-A6","2018/01/11 17:09:33","新北市樹林區鎮前街77-21號","121.424785","24.99019","6500700","樹林區"
"238022","KEA-2213","2018/01/11 17:09:51","新北市樹林區八德街263-1號","121.419263333333","24.97386","6500700","樹林區"
"238012","303-VK","2018/01/11 17:09:35","新北市樹林區中正路22-1號","121.427848333333","24.9993116666667","6500700","樹林區"
"238017","283-BY","2018/01/11 17:09:43","新北市樹林區中正路433-1號","121.41477","25.00819","6500700","樹林區"
"238001","282-BY","2018/01/11 17:09:42","新北市樹林區中正路22-1號","121.427813333333","24.9996716666667","6500700","樹林區"
"238026","172-UY","2018/01/11 17:09:44","新北市樹林區新興街39號","121.399891666667","24.9717033333333","6500700","樹林區"
"239007","AAC-297","2018/01/11 17:09:51","新北市鶯歌區中正一路60-3號","121.352595","24.954045","6500800","鶯歌區"
"239006","891-R6","2018/01/11 17:09:40","新北市鶯歌區八德路2巷18弄2號","121.336791666667","24.9471166666667","6500800","鶯歌區"
"239008","527-UM","2018/01/11 17:09:36","新北市鶯歌區尖山路68號","121.349061666667","24.9494933333333","6500800","鶯歌區"
"239005","526-UM","2018/01/11 17:09:44","新北市鶯歌區鶯桃路300號","121.334065","24.9615616666667","6500800","鶯歌區"
"239001","417-VK","2018/01/11 17:09:49","新北市鶯歌區尖山路140巷23號","121.346358333333","24.9491083333333","6500800","鶯歌區"
"239003","360-BY","2018/01/11 17:09:33","新北市鶯歌區八德路16號","121.3307","24.95542","6500800","鶯歌區"
"239002","359-BY","2018/01/11 17:09:41","新北市鶯歌區建國路255號","121.348016666667","24.953455","6500800","鶯歌區"
"239004","193-VK","2018/01/11 17:09:46","新北市鶯歌區文化路324巷4弄2號","121.349721666667","24.9451783333333","6500800","鶯歌區"
"221012","276-VK","2018/01/11 13:29:05","新北市汐止區汐萬路一段256巷3號","121.653443333333","25.0746183333333","6501100","汐止區"
"220012","486-VK","2018/01/11 15:44:06","新北市板橋區華東街1-10號","121.44839","24.9949616666667","6500100","板橋區"
