"lineid","car","time","location","longitude","latitude","cityid","cityname"
"234026","9371-KE","2018/01/11 17:37:51","新北市永和區中正路700號","121.516376666667","25.0099266666667","6500400","永和區"
"249005","172-UM","2018/01/11 17:37:54","新北市八里區荖阡坑路34號","121.402728333333","25.1297383333333","6502300","八里區"
"249001","173-UM","2018/01/11 17:37:47","新北市八里區龍米路二段150號","121.435628333333","25.1569133333333","6502300","八里區"
"249004","303-UY","2018/01/11 17:37:50","新北市八里區賢三街145號","121.415036666667","25.15696","6502300","八里區"
"249002","305-UY","2018/01/11 17:37:56","新北市八里區石壁腳19號","121.4417","25.1353416666667","6502300","八里區"
"249003","593-UM","2018/01/11 17:37:57","新北市八里區中華路二段308巷6弄13號","121.403905","25.149385","6502300","八里區"
"248006","077-UY","2018/01/11 17:37:51","新北市五股區中興路二段83巷26-6號","121.460111666667","25.0750533333333","6501500","五股區"
"232011","375-UM","2018/01/11 17:37:42","新北市坪林區北宜路八段453號","121.705601666667","24.9236516666667","6502000","坪林區"
"244013","069-UM","2018/01/11 17:37:49","新北市林口區中山路305號","121.383743333333","25.0804716666667","6501700","林口區"
"244007","080-UY","2018/01/11 17:37:48","新北市林口區文化一路二段309號","121.385821666667","25.085945","6501700","林口區"
"244019","402-UM","2018/01/11 17:37:56","新北市林口區公園路223巷8號","121.373868333333","25.0748783333333","6501700","林口區"
"244025","742-UY","2018/01/11 17:37:54","新北市林口區文化二路一段289-5號","121.367521666667","25.0718633333333","6501700","林口區"
"244023","483-VK","2018/01/11 17:37:45","新北市林口區東明一街142巷16號","121.389873333333","25.0713283333333","6501700","林口區"
"244011","656-BX","2018/01/11 17:37:51","新北市林口區佳林路154號","121.384176666667","25.0770666666667","6501700","林口區"
"244009","837-TS","2018/01/11 17:37:52","新北市林口區竹林一路113號","121.385056666667","25.0860433333333","6501700","林口區"
"244021","838-TS","2018/01/11 17:37:51","新北市林口區醒吾新村13號","121.396258333333","25.0791766666667","6501700","林口區"
"243009","KEA-2216","2018/01/11 15:49:30","新北市泰山區犁頭窠3-1號","121.422018333333","25.0605483333333","6501600","泰山區"
"231046","278-BY","2018/01/11 17:37:58","新北市新店區直潭路92號","121.530916666667","24.9376266666667","6500600","新店區"
"241011","013-R5","2018/01/11 17:37:52","新北市三重區河邊北街124巷11號","121.503311666667","25.071405","6500200","三重區"
"241017","063-VK","2018/01/11 17:37:55","新北市三重區大同北路3號","121.495506666667","25.0621533333333","6500200","三重區"
"241005","262-UM","2018/01/11 17:37:56","新北市三重區永安北路二段5巷42號","121.48311","25.08139","6500200","三重區"
"241016","266-UM","2018/01/11 17:37:52","新北市三重區正義北路37號","121.497483333333","25.0637316666667","6500200","三重區"
"241018","268-UM","2018/01/11 17:37:44","新北市三重區國隆路30-1號","121.492146666667","25.0645466666667","6500200","三重區"
"241007","398-BY","2018/01/11 17:37:47","新北市三重區車路頭街135-1號","121.484258333333","25.07605","6500200","三重區"
"241024","462-BY","2018/01/11 17:37:51","新北市三重區國道路一段58巷20號","121.481281666667","25.0721233333333","6500200","三重區"
"241019","478-VK","2018/01/11 17:37:50","新北市三重區六張街160號","121.489351666667","25.0687783333333","6500200","三重區"
"241030","480-VK","2018/01/11 17:37:36","新北市三重區中正南路269號","121.492951666667","25.052395","6500200","三重區"
"241014","543-UM","2018/01/11 17:37:57","新北市三重區長壽街186號","121.50361","25.0689316666667","6500200","三重區"
"241023","545-UM","2018/01/11 17:37:44","新北市三重區忠孝路三段84巷32號","121.481548333333","25.064135","6500200","三重區"
"241012","941-UM","2018/01/11 17:37:38","新北市三重區仁興街39巷14-5號","121.49981","25.0761","6500200","三重區"
"241033","AAC-255","2018/01/11 17:37:42","新北市三重區光復路一段132號","121.472071666667","25.0521383333333","6500200","三重區"
"235064","005-UY","2018/01/11 17:37:44","新北市中和區員山路36巷16-3號","121.48515","24.9912583333333","6500300","中和區"
"235046","031-BX","2018/01/11 16:46:10","新北市中和區員山路36巷16-2號","121.485296666667","24.9916083333333","6500300","中和區"
"235061","378-QA","2018/01/11 17:35:18","新北市中和區員山路36巷16-2號","121.485205","24.9917533333333","6500300","中和區"
"235062","800-TS","2018/01/11 16:45:37","新北市中和區員山路36巷16-3號","121.48499","24.9914683333333","6500300","中和區"
"247022","893-R6","2018/01/11 17:37:37","新北市蘆洲區民族路546號","121.467793333333","25.0891416666667","6501400","蘆洲區"
"247012","546-UM","2018/01/11 17:37:50","新北市蘆洲區復興路88號","121.475301666667","25.0868433333333","6501400","蘆洲區"
"247020","500-BY","2018/01/11 17:37:50","新北市蘆洲區民族路468號","121.47175","25.0917116666667","6501400","蘆洲區"
"247008","341-TH","2018/01/11 17:37:56","新北市蘆洲區民生街64號","121.47333","25.078865","6501400","蘆洲區"
"247010","339-TH","2018/01/11 17:37:53","新北市蘆洲區集賢路422號","121.479865","25.0811116666667","6501400","蘆洲區"
"247004","336-TH","2018/01/11 17:37:48","新北市蘆洲區永安南路二段298號","121.457205","25.0821683333333","6501400","蘆洲區"
"247016","057-VK","2018/01/11 17:37:41","新北市蘆洲區光華路46巷17號","121.468245","25.0834516666667","6501400","蘆洲區"
"247006","056-VK","2018/01/11 17:37:53","新北市蘆洲區長安街68巷29號","121.463745","25.0809533333333","6501400","蘆洲區"
"247002","053-VK","2018/01/11 17:37:56","新北市蘆洲區永平街34號","121.458451666667","25.091015","6501400","蘆洲區"
"247014","007-UY","2018/01/11 17:37:48","新北市蘆洲區中山二路40號","121.474311666667","25.08209","6501400","蘆洲區"
"247024","002-UY","2018/01/11 17:37:50","新北市蘆洲區長樂路125-1號","121.46211","25.088045","6501400","蘆洲區"
"247018","001-UY","2018/01/11 17:37:39","新北市蘆洲區水湳街13號","121.472593333333","25.0884816666667","6501400","蘆洲區"
"228003","097-TW","2018/01/11 17:37:46","新北市貢寮區仁理村仁和路166號","121.923368333333","25.0522366666667","6502600","貢寮區"
"228001","212-TW","2018/01/11 17:37:49","新北市貢寮區真理里新港街26巷28-6號","121.927685","25.0554083333333","6502600","貢寮區"
"228002","585-TW","2018/01/11 17:37:41","新北市貢寮區福隆里龜壽谷街11-1號","121.953865","25.0070583333333","6502600","貢寮區"
"224010","AGQ-8101","2018/01/11 17:32:57","新北市瑞芳區岳王路9號","121.806958333333","25.1104383333333","6501200","瑞芳區"
"224006","676-BX","2018/01/11 17:37:54","新北市瑞芳區傑魚坑路12號","121.794696666667","25.1104683333333","6501200","瑞芳區"
"224002","639-TC","2018/01/11 17:37:44","新北市瑞芳區明燈路二段46號","121.80954","25.108095","6501200","瑞芳區"
"224009","285-BY","2018/01/11 17:37:37","新北市瑞芳區山尖路209號","121.849236666667","25.1115766666667","6501200","瑞芳區"
"224008","275-VK","2018/01/11 17:37:52","新北市瑞芳區明燈路一段200號","121.83051","25.1039516666667","6501200","瑞芳區"
"224005","271-BY","2018/01/11 17:37:56","新北市瑞芳區海濱路64號","121.831143333333","25.12467","6501200","瑞芳區"
"227004","400-TW","2018/01/11 17:37:36","新北市雙溪區牡丹里下坑31號","121.850086666667","25.05709","6502500","雙溪區"
"208001","761-BX","2018/01/11 16:40:07","新北市金山區磺清路135號","121.63942","25.2278583333333","6502700","金山區"
"251009","008-UM","2018/01/11 17:37:41","新北市淡水區建設街9號","121.439008333333","25.1722333333333","6501000","淡水區"
"251004","009-UM","2018/01/11 17:37:51","新北市淡水區中正東路二段88巷21號","121.459173333333","25.1493516666667","6501000","淡水區"
"251005","010-UM","2018/01/11 17:37:57","新北市淡水區鄧公路33巷14號","121.451893333333","25.1708983333333","6501000","淡水區"
"251001","011-UM","2018/01/11 17:37:47","新北市淡水區民權路92巷35-1號","121.462236666667","25.1266483333333","6501000","淡水區"
"251013","179-VK","2018/01/11 17:37:54","新北市淡水區演戲埔腳7號","121.47148","25.194045","6501000","淡水區"
"251014","180-VK","2018/01/11 17:37:53","新北市淡水區公埔子16-6號","121.480371666667","25.2250666666667","6501000","淡水區"
"251008","181-VK","2018/01/11 17:37:42","新北市淡水區中正東路二段143巷12弄2號","121.461963333333","25.1480733333333","6501000","淡水區"
"251015","182-VK","2018/01/11 17:37:53","新北市淡水區樹林口12號","121.478928333333","25.1677783333333","6501000","淡水區"
"251010","413-VK","2018/01/11 17:37:55","新北市淡水區淡海路280巷16號","121.41977","25.1897","6501000","淡水區"
"251012","441-VK","2018/01/11 17:37:42","新北市淡水區北新路200巷10號","121.451781666667","25.1796483333333","6501000","淡水區"
"251016","442-VK","2018/01/11 17:37:49","新北市淡水區埤島39-15號","121.452741666667","25.195895","6501000","淡水區"
"251006","561-UM","2018/01/11 17:37:45","新北市淡水區中山北路一段119巷4號","121.442438333333","25.1769716666667","6501000","淡水區"
"251007","577-R6","2018/01/11 17:37:44","新北市淡水區民族路33巷2號","121.464293333333","25.137405","6501000","淡水區"
"251011","650-BX","2018/01/11 17:37:43","新北市淡水區小坪頂23-1號","121.48493","25.156305","6501000","淡水區"
"251002","672-BX","2018/01/11 17:37:50","新北市淡水區重建街82號","121.440121666667","25.1723833333333","6501000","淡水區"
"251003","766-UM","2018/01/11 17:37:50","新北市淡水區中山北路一段109號","121.442478333333","25.17658","6501000","淡水區"
"207003","550-UM","2018/01/11 17:37:41","新北市萬里區龜吼里漁澳路64-3號","121.687713333333","25.1960933333333","6502800","萬里區"
"207004","225-TW","2018/01/11 17:37:52","新北市萬里區中幅里中福路30-1號","121.680288333333","25.166655","6502800","萬里區"
"252002","178-VK","2018/01/11 17:37:56","新北市三芝區智成街95號","121.50537","25.2554783333333","6502100","三芝區"
"252001","292-VK","2018/01/11 17:37:38","新北市三芝區淡金路一段26號","121.500076666667","25.259235","6502100","三芝區"
"237008","302-VK","2018/01/11 17:37:36","新北市三峽區中山路459巷137號","121.349888333333","24.933585","6500900","三峽區"
"237011","572-TV","2018/01/11 13:00:20","新北市三峽區中山路459巷163-3號","121.348653333333","24.9330233333333","6500900","三峽區"
"237015","649-BX","2018/01/11 17:29:41","新北市三峽區中山路459巷104號","121.353086666667","24.9356","6500900","三峽區"
"237010","706-TV","2018/01/11 17:37:51","新北市三峽區中山路175號","121.363683333333","24.9368416666667","6500900","三峽區"
"236042","107-UM","2018/01/11 17:37:40","新北市土城區城林路6巷80號","121.438606666667","24.9797216666667","6501300","土城區"
"236078","166-UM","2018/01/11 17:28:12","新北市土城區城林路6巷80號","121.438436666667","24.9796033333333","6501300","土城區"
"236053","AAC-216","2018/01/11 17:37:43","新北市土城區城林路6巷80號","121.43847","24.979565","6501300","土城區"
"242031","AAC-296","2018/01/11 17:37:55","新北市新莊區新泰路369巷27號","121.442386666667","25.0431066666667","6500500","新莊區"
"242029","986-R7","2018/01/11 17:37:50","新北市新莊區復興路二段120號","121.456618333333","25.0442783333333","6500500","新莊區"
"242051","751-BX","2018/01/11 17:37:58","新北市新莊區西盛街197號","121.42808","25.0171483333333","6500500","新莊區"
"242025","615-BX","2018/01/11 17:37:46","新北市新莊區復興路二段143號","121.457598333333","25.04445","6500500","新莊區"
"242023","613-BX","2018/01/11 17:37:52","新北市新莊區中港路132巷22號","121.45627","25.04061","6500500","新莊區"
"242027","612-BX","2018/01/11 17:37:51","新北市新莊區福壽街95號","121.458063333333","25.0504483333333","6500500","新莊區"
"242039","566-BX","2018/01/11 17:37:45","新北市新莊區民安路322號","121.429038333333","25.0219483333333","6500500","新莊區"
"242044","442-UM","2018/01/11 17:37:58","新北市新莊區中正路871巷9弄28號","121.419425","25.0268966666667","6500500","新莊區"
"242048","441-UM","2018/01/11 17:37:47","新北市新莊區萬安街131號","121.420595","25.0222083333333","6500500","新莊區"
"242053","440-UM","2018/01/11 17:37:43","新北市新莊區新樹路697號","121.4322","25.0023883333333","6500500","新莊區"
"242034","415-TV","2018/01/11 17:37:46","新北市新莊區新莊路500號","121.446215","25.0332683333333","6500500","新莊區"
"242004","413-TV","2018/01/11 17:37:45","新北市新莊區自立街176號","121.455921666667","25.0455016666667","6500500","新莊區"
"242042","400-BY","2018/01/11 17:37:53","新北市新莊區中正路514號","121.429691666667","25.0352466666667","6500500","新莊區"
"242061","362-BY","2018/01/11 17:37:43","新北市新莊區瓊林南路77-9號","121.434608333333","25.0135266666667","6500500","新莊區"
"242058","353-BY","2018/01/11 17:37:46","新北市新莊區中正路695號","121.425835","25.0299816666667","6500500","新莊區"
"242007","132-UY","2018/01/11 17:37:50","新北市新莊區自信街53號","121.454951666667","25.0482333333333","6500500","新莊區"
"242036","133-UY","2018/01/11 17:37:54","新北市新莊區建福路69巷43號","121.428763333333","25.027515","6500500","新莊區"
"242021","135-UY","2018/01/11 17:37:52","新北市新莊區中華路一段74號","121.452093333333","25.039","6500500","新莊區"
"242046","172-VK","2018/01/11 17:37:57","新北市新莊區福營路130號","121.43578","25.0325116666667","6500500","新莊區"
"242009","173-VK","2018/01/11 17:37:49","新北市新莊區昌明街14巷2弄8號","121.457603333333","25.0526466666667","6500500","新莊區"
"242015","175-VK","2018/01/11 17:37:42","新北市新莊區新泰路330號","121.444953333333","25.04187","6500500","新莊區"
"242002","176-VK","2018/01/11 17:37:49","新北市新莊區新莊路337號","121.452353333333","25.034055","6500500","新莊區"
"242013","346-TH","2018/01/11 17:37:45","新北市新莊區中誠街74號","121.450538333333","25.0478733333333","6500500","新莊區"
"242019","348-TH","2018/01/11 17:37:53","新北市新莊區中港路151號","121.455023333333","25.0408966666667","6500500","新莊區"
"242056","349-TH","2018/01/11 17:37:37","新北市新莊區泰豐街8號","121.448573333333","25.03119","6500500","新莊區"
"242017","350-TH","2018/01/11 17:37:40","新北市新莊區中和街30巷13號","121.448906666667","25.0438883333333","6500500","新莊區"
"242011","351-TH","2018/01/11 17:37:50","新北市新莊區中港路603號","121.451403333333","25.0531833333333","6500500","新莊區"
"238015","755-BX","2018/01/11 17:37:58","新北市樹林區啟智街18號","121.421025","24.9938","6500700","樹林區"
"238023","601-UM","2018/01/11 17:37:45","新北市樹林區三福街114號","121.406433333333","25.016335","6500700","樹林區"
"238019","599-UM","2018/01/11 17:37:47","新北市樹林區太順街33號","121.419026666667","24.9797583333333","6500700","樹林區"
"238018","571-TV","2018/01/11 17:37:36","新北市樹林區博愛街194號","121.42484","24.9895866666667","6500700","樹林區"
"238024","5061-A6","2018/01/11 17:37:53","新北市樹林區環河路10-1號","121.424626666667","24.97626","6500700","樹林區"
"238021","KEA-2217","2018/01/11 17:37:51","新北市樹林區西圳街一段203巷7號","121.393105","24.9599983333333","6500700","樹林區"
"238022","KEA-2213","2018/01/11 17:37:51","新北市樹林區和平街2巷2號","121.420815","24.9814483333333","6500700","樹林區"
"238025","303-VK","2018/01/11 17:37:55","新北市樹林區保安街二段162號","121.413185","25.0046016666667","6500700","樹林區"
"238017","283-BY","2018/01/11 17:37:43","新北市樹林區三德街30巷16弄27號","121.41361","25.0122616666667","6500700","樹林區"
"238014","282-BY","2018/01/11 17:37:42","新北市樹林區保安街一段294巷29號","121.419873333333","24.9980983333333","6500700","樹林區"
"238020","268-VK","2018/01/11 17:37:36","新北市樹林區中正路22-1號","121.427935","24.9992333333333","6500700","樹林區"
"238026","172-UY","2018/01/11 17:37:43","新北市樹林區新興街19巷36弄31號","121.402728333333","24.9729816666667","6500700","樹林區"
"238016","169-UY","2018/01/11 17:37:52","新北市樹林區育英街15號","121.421745","24.98919","6500700","樹林區"
"239007","AAC-297","2018/01/11 17:37:51","新北市鶯歌區鶯桃路182巷96弄13號","121.340603333333","24.957915","6500800","鶯歌區"
"239006","891-R6","2018/01/11 17:37:52","新北市鶯歌區莒光街28號","121.332663333333","24.9664066666667","6500800","鶯歌區"
"239008","527-UM","2018/01/11 17:37:56","新北市鶯歌區大湖路732巷1弄4號","121.332655","24.977325","6500800","鶯歌區"
"239005","526-UM","2018/01/11 17:37:44","新北市鶯歌區福隆二街58號","121.324503333333","24.9714866666667","6500800","鶯歌區"
"239001","417-VK","2018/01/11 17:37:49","新北市鶯歌區中正三路154號","121.33539","24.9394283333333","6500800","鶯歌區"
"239003","360-BY","2018/01/11 17:37:53","新北市鶯歌區鶯桃路206巷28號","121.337766666667","24.959705","6500800","鶯歌區"
"239002","359-BY","2018/01/11 17:37:44","新北市鶯歌區育英街15號","121.346888333333","24.9551833333333","6500800","鶯歌區"
"239004","193-VK","2018/01/11 17:37:46","新北市鶯歌區三鶯路54號","121.356865","24.9421166666667","6500800","鶯歌區"
"221010","269-BY","2018/01/11 17:37:36","新北市汐止區康寧街901號","121.650775","25.075335","6501100","汐止區"
"221023","279-VK","2018/01/11 17:37:56","新北市汐止區康寧街901號","121.651648333333","25.0748633333333","6501100","汐止區"
"221032","280-BY","2018/01/11 17:37:44","新北市汐止區汐萬路一段329號","121.650021666667","25.0756883333333","6501100","汐止區"
"221031","353-TW","2018/01/11 17:37:43","新北市汐止區康寧街901號","121.651726666667","25.0749183333333","6501100","汐止區"
"221008","358-BY","2018/01/11 17:37:42","新北市汐止區康寧街901號","121.651346666667","25.07505","6501100","汐止區"
"221033","647-BX","2018/01/11 17:37:57","新北市汐止區新台五路一段73-1號","121.644286666667","25.05991","6501100","汐止區"
"220012","486-VK","2018/01/11 15:44:06","新北市板橋區華東街1-10號","121.44839","24.9949616666667","6500100","板橋區"
