"lineid","car","time","location","longitude","latitude","cityid","cityname"
"234046","148-BY","2018/01/11 19:19:56","新北市永和區得和路321號","121.523428333333","24.9995366666667","6500400","永和區"
"234013","149-BY","2018/01/11 19:19:40","新北市永和區仁愛路135號","121.511591666667","25.013035","6500400","永和區"
"234007","207-UY","2018/01/11 19:19:58","新北市永和區中山路一段226號","121.50814","25.0081133333333","6500400","永和區"
"234081","298-R6","2018/01/11 19:19:42","新北市永和區福和路7巷14弄2號","121.525443333333","25.0072016666667","6500400","永和區"
"234038","336-UY","2018/01/11 19:19:44","新北市永和區民樂街55巷2號","121.527465","24.9983716666667","6500400","永和區"
"234064","337-UY","2018/01/11 19:19:50","新北市永和區永元路17巷6弄2號","121.521356666667","25.0007033333333","6500400","永和區"
"234086","338-UY","2018/01/11 19:19:50","新北市永和區中正路562號","121.517391666667","25.0060283333333","6500400","永和區"
"234054","553-UM","2018/01/11 19:19:47","新北市永和區中興街37號","121.516281666667","25.011805","6500400","永和區"
"234017","745-BX","2018/01/11 19:19:55","新北市永和區文化路144巷27號","121.512473333333","25.0167","6500400","永和區"
"234030","746-BX","2018/01/11 19:19:49","新北市永和區厚德街75號","121.524641666667","24.9987383333333","6500400","永和區"
"234042","838-RS","2018/01/11 19:19:56","新北市永和區保平路177巷5弄1號","121.509866666667","25.0048666666667","6500400","永和區"
"234061","AAD-866","2018/01/11 19:19:48","新北市永和區秀朗路一段175號","121.517076666667","25.0036633333333","6500400","永和區"
"234070","847-RS","2018/01/11 19:19:37","新北市永和區豫溪街45號","121.51693","25.0098833333333","6500400","永和區"
"234050","863-TW","2018/01/11 19:19:55","新北市永和區仁愛路104巷10號","121.512018333333","25.0136883333333","6500400","永和區"
"234026","9371-KE","2018/01/11 19:19:51","新北市永和區安樂路144巷19號","121.51467","25.0000933333333","6500400","永和區"
"234011","9373-KE","2018/01/11 19:19:47","新北市永和區中山路一段60巷9弄4號","121.512981666667","25.0112566666667","6500400","永和區"
"249005","172-UM","2018/01/11 19:19:54","新北市八里區中華路三段170-1號","121.392165","25.1303","6502300","八里區"
"249001","173-UM","2018/01/11 19:19:46","新北市八里區中華路二段103-1號","121.409265","25.15227","6502300","八里區"
"249003","593-UM","2018/01/11 19:19:53","新北市八里區中山路二段466巷19號","121.39812","25.1475683333333","6502300","八里區"
"248016","026-BX","2018/01/11 19:19:46","新北市五股區成洲五路12號","121.452366666667","25.1015366666667","6501500","五股區"
"248020","225-UY","2018/01/11 19:19:56","新北市五股區凌雲路三段57號","121.425285","25.1249983333333","6501500","五股區"
"248012","247-BX","2018/01/11 19:19:50","新北市五股區中興路四段48巷16號","121.438675","25.08344","6501500","五股區"
"248010","272-BY","2018/01/11 19:19:53","新北市五股區自強路90巷72號","121.430716666667","25.0712133333333","6501500","五股區"
"248004","677-BX","2018/01/11 19:19:54","新北市五股區五福路149號","121.431986666667","25.0913583333333","6501500","五股區"
"248002","678-BX","2018/01/11 19:19:54","新北市五股區凌雲路一段158巷14-1號","121.447846666667","25.1034716666667","6501500","五股區"
"234023","9380-KE","2018/01/11 19:19:59","新北市永和區竹林路124巷7號","121.519426666667","25.0112666666667","6500400","永和區"
"234077","969-R7","2018/01/11 19:19:40","新北市永和區民族街42號","121.518441666667","24.9987733333333","6500400","永和區"
"234074","AAC-211","2018/01/11 19:19:51","新北市永和區竹林路104號","121.519713333333","25.0119433333333","6500400","永和區"
"234067","AAC-212","2018/01/11 19:19:48","新北市永和區保平路59號","121.511625","25.0070016666667","6500400","永和區"
"234003","AAC-295","2018/01/11 19:19:50","新北市永和區中山路一段120號","121.510678333333","25.0102133333333","6500400","永和區"
"244013","069-UM","2018/01/11 19:19:49","新北市林口區麗園二街1巷3-1號","121.376963333333","25.070275","6501700","林口區"
"244019","402-UM","2018/01/11 19:19:56","新北市林口區麗園二街60巷96號","121.381656666667","25.067705","6501700","林口區"
"244025","742-UY","2018/01/11 19:19:54","新北市林口區嘉溪雅坑5-4號","121.3469","25.0997833333333","6501700","林口區"
"244023","483-VK","2018/01/11 19:19:45","新北市林口區民有街62號","121.372835","25.07683","6501700","林口區"
"244011","656-BX","2018/01/11 19:19:51","新北市林口區中山路97巷3號","121.389481666667","25.078475","6501700","林口區"
"243012","AAD-798","2018/01/11 19:19:41","新北市泰山區仁武街139巷8號","121.432225","25.053715","6501600","泰山區"
"243011","297-R6","2018/01/11 19:19:55","新北市泰山區中央路9巷2號","121.42633","25.0430366666667","6501600","泰山區"
"243015","380-SR","2018/01/11 19:19:47","新北市泰山區公園路27巷2號","121.428826666667","25.0543183333333","6501600","泰山區"
"243014","421-VK","2018/01/11 19:19:47","新北市泰山區泰林路二段92號","121.434895","25.058795","6501600","泰山區"
"243010","KEA-2215","2018/01/11 19:19:52","新北市泰山區明志路一段492巷5號","121.430156666667","25.0547166666667","6501600","泰山區"
"243009","KEA-2216","2018/01/11 19:19:54","新北市泰山區半山雅4號","121.431675","25.067325","6501600","泰山區"
"243013","646-TV","2018/01/11 19:19:47","新北市泰山區明志路三段145巷2弄3號","121.425375","25.0397766666667","6501600","泰山區"
"243016","680-BX","2018/01/11 19:19:41","新北市泰山區工專路35號","121.423273333333","25.039925","6501600","泰山區"
"222003","436-BY","2018/01/11 19:19:54","新北市深坑區深南路93號","121.62636","25.0159616666667","6501800","深坑區"
"222002","659-BX","2018/01/11 19:19:41","新北市深坑區北深路一段177號","121.63256","25.01088","6501800","深坑區"
"231066","0293-UT","2018/01/11 19:19:51","新北市新店區安康路三段165巷2弄29號","121.488008333333","24.951495","6500600","新店區"
"231059","046-UY","2018/01/11 19:19:49","新北市新店區安和路三段29-2號","121.517465","24.9812316666667","6500600","新店區"
"231061","047-UY","2018/01/11 19:19:49","新北市新店區安康路一段228號","121.523241666667","24.9636366666667","6500600","新店區"
"231060","106-UY","2018/01/11 19:19:54","新北市新店區安康路二段96號","121.513641666667","24.9630266666667","6500600","新店區"
"231051","107-UY","2018/01/11 19:19:50","新北市新店區中央路85號","121.532143333333","24.97654","6500600","新店區"
"231047","108-UY","2018/01/11 19:19:42","新北市新店區中興路二段81號","121.546875","24.9710916666667","6500600","新店區"
"231052","187-VK","2018/01/11 19:19:52","新北市新店區櫻花街190號","121.548","24.9200166666667","6500600","新店區"
"231050","KEA-2219","2018/01/11 19:19:49","新北市新店區竹林路157-1號","121.556646666667","24.94771","6500600","新店區"
"231046","278-BY","2018/01/11 19:19:58","新北市新店區華城路36巷1-1號","121.528505","24.955325","6500600","新店區"
"231054","AAD-862","2018/01/11 19:19:54","新北市新店區國校路20-1號","121.537876666667","24.9550916666667","6500600","新店區"
"231041","355-BY","2018/01/11 19:19:49","新北市新店區溪園路245-2號","121.526051666667","24.9838466666667","6500600","新店區"
"231058","3712-VJ","2018/01/11 19:19:45","新北市新店區北新路二段2號","121.542616666667","24.9706583333333","6500600","新店區"
"231067","4772-VM","2018/01/11 19:19:55","新北市新店區安康路二段414巷2號","121.495866666667","24.9577416666667","6500600","新店區"
"231065","512-UM","2018/01/11 19:19:39","新北市新店區安祥路110巷2號","121.474803333333","24.956995","6500600","新店區"
"231064","515-UM","2018/01/11 19:19:39","新北市新店區安忠路57巷26弄3號","121.513041666667","24.9587316666667","6500600","新店區"
"231040","619-UM","2018/01/11 19:19:54","新北市新店區三民路20巷2號","121.53761","24.97063","6500600","新店區"
"231042","641-BX","2018/01/11 19:19:56","新北市新店區北宜路一段3號","121.538518333333","24.958415","6500600","新店區"
"231063","645-TV","2018/01/11 19:19:27","新北市新店區達觀路14巷2號","121.503866666667","24.9423766666667","6500600","新店區"
"231049","719-UM","2018/01/11 19:19:37","新北市新店區明德路64號","121.541658333333","24.9794333333333","6500600","新店區"
"231062","720-UM","2018/01/11 19:19:39","新北市新店區莒光路87巷10號","121.523953333333","24.955625","6500600","新店區"
"231044","897-TW","2018/01/11 19:19:54","新北市新店區中興路三段293號","121.542375","24.984935","6500600","新店區"
"231045","898-TW","2018/01/11 19:19:46","新北市新店區北宜路一段286號","121.54645","24.9526333333333","6500600","新店區"
"231043","899-TW","2018/01/11 19:19:44","新北市新店區寶橋路15號","121.543831666667","24.9738316666667","6500600","新店區"
"241009","060-VK","2018/01/11 19:19:55","新北市三重區溪尾街230巷42-1號","121.48617","25.0811733333333","6500200","三重區"
"241031","061-VK","2018/01/11 19:19:49","新北市三重區重新路四段166號","121.486323333333","25.0556066666667","6500200","三重區"
"241017","063-VK","2018/01/11 19:19:35","新北市三重區大同北路213號","121.491883333333","25.0656433333333","6500200","三重區"
"241026","066-VK","2018/01/11 19:19:41","新北市三重區中正南路216號","121.493885","25.0550833333333","6500200","三重區"
"241020","156-TC","2018/01/11 19:19:43","新北市三重區大智街181號","121.4896","25.0727516666667","6500200","三重區"
"241022","267-UM","2018/01/11 19:19:54","新北市三重區中正北路50號","121.48707","25.064195","6500200","三重區"
"241032","269-UM","2018/01/11 19:19:43","新北市三重區名源街54號","121.482545","25.0592666666667","6500200","三重區"
"241025","271-UM","2018/01/11 19:19:35","新北市三重區中正北路408巷2號","121.475335","25.070335","6500200","三重區"
"241007","398-BY","2018/01/11 19:19:47","新北市三重區慈愛街45號","121.485908333333","25.0790466666667","6500200","三重區"
"241006","KEA-2210","2018/01/11 19:19:36","新北市三重區車路頭街157號","121.483761666667","25.077125","6500200","三重區"
"241030","480-VK","2018/01/11 19:19:56","新北市三重區新興路42號","121.491406666667","25.0534366666667","6500200","三重區"
"241035","743-BX","2018/01/11 19:19:50","新北市三重區中正北路2-3號","121.489695","25.06245","6500200","三重區"
"241029","942-UM","2018/01/11 19:19:52","新北市三重區重安街27號","121.491088333333","25.05701","6500200","三重區"
"235066","003-UY","2018/01/11 19:19:51","新北市中和區景新街2號","121.502633333333","24.999725","6500300","中和區"
"235064","005-UY","2018/01/11 19:19:49","新北市中和區連城路2號","121.499318333333","25.0023716666667","6500300","中和區"
"235063","006-UY","2018/01/11 19:19:50","新北市中和區連城路249巷7號","121.493761666667","24.9965783333333","6500300","中和區"
"235046","031-BX","2018/01/11 19:19:54","新北市中和區忠孝街2巷14弄10號","121.510743333333","24.981445","6500300","中和區"
"235056","096-UM","2018/01/11 19:19:43","新北市中和區員山路529號","121.479673333333","25.0069633333333","6500300","中和區"
"235039","097-UM","2018/01/11 19:19:38","新北市中和區自立路58巷9號","121.523386666667","24.9914333333333","6500300","中和區"
"235065","098-UM","2018/01/11 19:19:38","新北市中和區中山路二段116巷5弄5號","121.502165","25.0041783333333","6500300","中和區"
"235040","150-BY","2018/01/11 19:19:40","新北市中和區保健路50巷1-2號","121.510433333333","24.9968433333333","6500300","中和區"
"235058","151-BY","2018/01/11 19:19:57","新北市中和區連城路477巷6弄17號","121.482345","24.99488","6500300","中和區"
"235055","183-VK","2018/01/11 19:19:48","新北市中和區德光路11號","121.471255","25.0044316666667","6500300","中和區"
"235038","185-VK","2018/01/11 19:19:52","新北市中和區大仁街20巷48號","121.519978333333","24.99335","6500300","中和區"
"235049","186-VK","2018/01/11 19:19:50","新北市中和區景新街239號","121.508201666667","24.9944816666667","6500300","中和區"
"235067","255-BX","2018/01/11 19:19:51","新北市中和區新生街176巷13號","121.482951666667","24.9998966666667","6500300","中和區"
"235044","293-VK","2018/01/11 19:19:47","新北市中和區復興路277-1號","121.502393333333","24.9902866666667","6500300","中和區"
"235072","301-VK","2018/01/11 19:19:57","新北市中和區連城路263號","121.491648333333","24.9963683333333","6500300","中和區"
"235043","352-BY","2018/01/11 19:19:51","新北市中和區景平路372號","121.510868333333","24.99289","6500300","中和區"
"235068","377-QA","2018/01/11 19:19:39","新北市中和區圓通路158巷1弄9號","121.497313333333","24.9960766666667","6500300","中和區"
"235061","378-QA","2018/01/11 19:19:48","新北市中和區民樂路5號","121.481611666667","25.0012933333333","6500300","中和區"
"235050","4979-A6","2018/01/11 19:19:54","新北市中和區景安路220巷18號","121.502921666667","24.9915116666667","6500300","中和區"
"235069","4980-A6","2018/01/11 19:19:35","新北市中和區福祥路85巷15號","121.498355","25.0055483333333","6500300","中和區"
"235042","551-UM","2018/01/11 19:19:49","新北市永和區民有街69號","121.517931666667","24.9956933333333","6500300","中和區"
"235070","558-UM","2018/01/11 19:19:39","新北市中和區連城路47巷10號","121.497913333333","25.0013933333333","6500300","中和區"
"235045","565-BX","2018/01/11 19:19:40","新北市中和區景新街423巷28號","121.514441666667","24.9897266666667","6500300","中和區"
"235054","640-BX","2018/01/11 19:19:37","新北市中和區國光街107巷2弄2-1號","121.470136666667","25.0001033333333","6500300","中和區"
"235060","647-TV","2018/01/11 19:19:56","新北市中和區員山路294巷2號","121.481586666667","25.0023683333333","6500300","中和區"
"235047","732-UM","2018/01/11 19:19:54","新北市中和區景平路239巷73號","121.508111666667","24.9920466666667","6500300","中和區"
"235057","801-TS","2018/01/11 19:19:54","新北市中和區員山路216號","121.48126","25.000895","6500300","中和區"
"235041","802-TS","2018/01/11 19:19:53","新北市中和區中和路324巷3弄2號","121.510111666667","25.000785","6500300","中和區"
"235052","805-TS","2018/01/11 19:19:45","新北市中和區華新街133號","121.506751666667","24.9817566666667","6500300","中和區"
"235048","896-TW","2018/01/11 19:19:51","新北市中和區忠孝街95號","121.512106666667","24.9857166666667","6500300","中和區"
"235053","911-UM","2018/01/11 19:19:41","新北市中和區華安街21巷7號","121.467383333333","24.9977916666667","6500300","中和區"
"235051","157-BY","2018/01/11 19:19:44","新北市中和區興南路一段56巷5號","121.510463333333","24.9912116666667","6500300","中和區"
"235037","AAC-213","2018/01/11 19:19:46","新北市中和區自立路15巷12號","121.523811666667","24.9957383333333","6500300","中和區"
"235059","AAC-215","2018/01/11 19:19:40","新北市中和區錦和路195巷14號","121.491395","24.9909916666667","6500300","中和區"
"220065","072-UY","2018/01/11 19:19:51","新北市板橋區民族路170巷7號","121.467306666667","25.0073933333333","6500100","板橋區"
"220086","073-UY","2018/01/11 19:19:55","新北市板橋區中正路216巷133號","121.460645","25.0195633333333","6500100","板橋區"
"220106","075-UY","2018/01/11 19:19:55","新北市板橋區雙十路三段66巷1號","121.470551666667","25.0319583333333","6500100","板橋區"
"220069","AAD-861","2018/01/11 19:19:48","新北市板橋區華興街29號","121.458403333333","25.0045366666667","6500100","板橋區"
"220096","120-SR","2018/01/11 19:19:50","新北市板橋區大同街26巷16號","121.478145","25.026825","6500100","板橋區"
"247004","336-TH","2018/01/11 19:19:48","新北市五股區成泰路三段544-1號","121.455343333333","25.10057","6501400","蘆洲區"
"226004","312-R5","2018/01/11 19:19:43","新北市平溪區十分里十分街96-2號","121.776631666667","25.0425566666667","6502400","平溪區"
"228003","097-TW","2018/01/11 19:19:45","新北市貢寮區和美里和美街22-1號","121.912821666667","25.0826166666667","6502600","貢寮區"
"228001","212-TW","2018/01/11 19:19:48","新北市貢寮區真理里新港街10號","121.92552","25.0543733333333","6502600","貢寮區"
"228002","585-TW","2018/01/11 19:19:41","新北市貢寮區雙玉里田寮洋街21號","121.926343333333","25.0248283333333","6502600","貢寮區"
"224010","AGQ-8101","2018/01/11 19:18:36","新北市瑞芳區烏勢巷145號","121.847863333333","25.1089633333333","6501200","瑞芳區"
"224006","676-BX","2018/01/11 19:19:53","新北市瑞芳區中山路218號","121.8006","25.1068983333333","6501200","瑞芳區"
"224008","275-VK","2018/01/11 19:19:32","新北市瑞芳區一坑路70-5號","121.80357","25.108105","6501200","瑞芳區"
"224005","271-BY","2018/01/11 19:19:56","新北市瑞芳區員山子路23號","121.821621666667","25.1029016666667","6501200","瑞芳區"
"227010","642-TC","2018/01/11 19:19:57","新北市雙溪區新基里新基北街40號","121.86854","25.038025","6502500","雙溪區"
"227004","400-TW","2018/01/11 19:19:36","新北市雙溪區平林里梅竹蹊66-1號","121.860145","25.035815","6502500","雙溪區"
"253005","032-BX","2018/01/11 19:19:48","新北市石門區阿里荖6-2號","121.610038333333","25.2798916666667","6502200","石門區"
"253006","295-VK","2018/01/11 19:19:48","新北市石門區楓林17-6號","121.536426666667","25.292015","6502200","石門區"
"222001","KEA-2212","2018/01/11 19:19:39","新北市深坑區北深路二段103號","121.617535","25.0034166666667","6501800","深坑區"
"208002","742-BX","2018/01/11 19:19:42","新北市金山區中正路136號","121.631676666667","25.2217516666667","6502700","金山區"
"208003","665-BX","2018/01/11 19:19:52","新北市金山區中山路165號","121.63874","25.2205516666667","6502700","金山區"
"208001","761-BX","2018/01/11 19:19:53","新北市金山區慈護街9號","121.639848333333","25.22039","6502700","金山區"
"251009","008-UM","2018/01/11 19:19:41","新北市淡水區中山路141號","121.440976666667","25.1716716666667","6501000","淡水區"
"251005","010-UM","2018/01/11 19:19:37","新北市淡水區水源街一段29號","121.443206666667","25.17244","6501000","淡水區"
"251001","011-UM","2018/01/11 19:19:47","新北市淡水區自強路201巷59號","121.461968333333","25.1272033333333","6501000","淡水區"
"251013","179-VK","2018/01/11 19:19:54","新北市淡水區安子內12號","121.481565","25.21908","6501000","淡水區"
"251014","180-VK","2018/01/11 19:19:53","新北市淡水區小中寮19-7號","121.484758333333","25.2296483333333","6501000","淡水區"
"251015","182-VK","2018/01/11 19:19:53","新北市淡水區山子邊3號","121.483985","25.1842116666667","6501000","淡水區"
"251010","413-VK","2018/01/11 19:19:54","新北市淡水區沙崙路25巷16號","121.421098333333","25.1819116666667","6501000","淡水區"
"251012","441-VK","2018/01/11 19:19:42","新北市淡水區崁頂57-7號","121.4423","25.19727","6501000","淡水區"
"251016","442-VK","2018/01/11 19:19:49","新北市淡水區淡金路三段350巷18號","121.450801666667","25.208365","6501000","淡水區"
"251006","561-UM","2018/01/11 19:19:45","新北市淡水區大信街33號","121.442055","25.177275","6501000","淡水區"
"251007","577-R6","2018/01/11 19:19:44","新北市淡水區民生路117巷28號","121.464945","25.13947","6501000","淡水區"
"251003","766-UM","2018/01/11 19:19:50","新北市淡水區中山北路一段52號","121.441888333333","25.1756433333333","6501000","淡水區"
"207003","550-UM","2018/01/11 19:19:41","新北市萬里區大鵬里萬里加投79-3號","121.64732","25.2123366666667","6502800","萬里區"
"207004","225-TW","2018/01/11 19:19:41","新北市萬里區萬里里成功新村44號","121.68773","25.17461","6502800","萬里區"
"252002","178-VK","2018/01/11 19:19:56","新北市三芝區淡金路二段26號","121.502773333333","25.2596616666667","6502100","三芝區"
"252001","292-VK","2018/01/11 19:19:58","新北市三芝區長勤街9巷11弄1號","121.501791666667","25.254695","6502100","三芝區"
"237004","078-UY","2018/01/11 19:19:55","新北市三峽區有木206號","121.439111666667","24.8515583333333","6500900","三峽區"
"237007","153-BY","2018/01/11 19:19:57","新北市三峽區麻園12-2號","121.362283333333","24.9163366666667","6500900","三峽區"
"237009","210-TH","2018/01/11 19:19:57","新北市三峽區和平街9號","121.370418333333","24.93506","6500900","三峽區"
"237013","252-BX","2018/01/11 19:19:48","新北市三峽區大同路39巷33號","121.378176666667","24.9275883333333","6500900","三峽區"
"237012","275-BY","2018/01/11 19:19:42","新北市三峽區三樹路222巷254弄68-12號","121.395335","24.9441983333333","6500900","三峽區"
"237008","302-VK","2018/01/11 19:19:56","新北市三峽區光明路106巷21號","121.375946666667","24.9271483333333","6500900","三峽區"
"237014","433-BY","2018/01/11 19:19:53","新北市三峽區中山路287號","121.36174","24.9376166666667","6500900","三峽區"
"237006","5529-G3","2018/01/11 19:19:42","新北市三峽區大同路39號","121.376545","24.9280816666667","6500900","三峽區"
"237011","572-TV","2018/01/11 13:00:20","新北市三峽區中山路459巷163-3號","121.348653333333","24.9330233333333","6500900","三峽區"
"237015","649-BX","2018/01/11 17:44:01","新北市三峽區白雞28-1號","121.370563333333","24.91207","6500900","三峽區"
"237010","706-TV","2018/01/11 19:19:51","新北市三峽區復興路89號","121.372471666667","24.9376183333333","6500900","三峽區"
"237005","AKY-6261","2018/01/11 19:19:55","新北市三峽區中山路459巷50-1號","121.356268333333","24.93738","6500900","三峽區"
"236071","105-UM","2018/01/11 19:19:46","新北市土城區學成路142號","121.448948333333","24.9895566666667","6501300","土城區"
"236078","166-UM","2018/01/11 18:47:32","新北市土城區中央路四段165巷17-2號","121.416421666667","24.95615","6501300","土城區"
"236030","253-BX","2018/01/11 19:19:41","新北市土城區城林路6巷80號","121.438566666667","24.9796216666667","6501300","土城區"
"236026","269-VK","2018/01/11 19:19:29","新北市土城區中央路二段149巷18號","121.442933333333","24.9765633333333","6501300","土城區"
"236014","270-VK","2018/01/11 19:19:39","新北市土城區學府路一段23巷25弄16號","121.457251666667","24.9862566666667","6501300","土城區"
"236021","401-BY","2018/01/11 19:19:49","新北市土城區峰廷街3號","121.469111666667","24.9873383333333","6501300","土城區"
"236058","912-UM","2018/01/11 19:19:48","新北市土城區金城路一段131號","121.44481","24.9737","6501300","土城區"
"236051","913-UM","2018/01/11 19:19:51","新北市土城區明德路一段398-1號","121.453676666667","24.9791033333333","6501300","土城區"
"236053","AAC-216","2018/01/11 19:19:43","新北市土城區學府路一段276號","121.449888333333","24.9830083333333","6501300","土城區"
"242051","751-BX","2018/01/11 19:19:37","新北市新莊區民安路298號","121.428203333333","25.0218583333333","6500500","新莊區"
"238015","755-BX","2018/01/11 19:19:40","新北市樹林區備內街9-1號","121.412776666667","24.9870416666667","6500700","樹林區"
"238023","601-UM","2018/01/11 19:19:45","桃園市龜山區萬壽路一段791-2號","121.392131666667","25.0140616666667","6500700","樹林區"
"238019","599-UM","2018/01/11 19:19:55","新北市樹林區鎮前街345號","121.416566666667","24.98402","6500700","樹林區"
"238018","571-TV","2018/01/11 19:19:56","新北市樹林區中華路134號","121.417178333333","24.9802883333333","6500700","樹林區"
"238024","5061-A6","2018/01/11 19:19:53","新北市樹林區福德街26號","121.400928333333","24.9756016666667","6500700","樹林區"
"238021","KEA-2217","2018/01/11 19:19:51","新北市樹林區柑園街二段476號","121.362368333333","24.9456966666667","6500700","樹林區"
"238022","KEA-2213","2018/01/11 19:19:50","新北市樹林區東興街2號","121.40882","24.98015","6500700","樹林區"
"238025","303-VK","2018/01/11 19:19:54","新北市樹林區中山路三段87號","121.400171666667","24.9747583333333","6500700","樹林區"
"238017","283-BY","2018/01/11 19:19:23","新北市樹林區光興街261號","121.407258333333","25.0054166666667","6500700","樹林區"
"238014","282-BY","2018/01/11 19:19:42","新北市樹林區保安二街55號","121.424661666667","24.9945816666667","6500700","樹林區"
"238020","268-VK","2018/01/11 19:19:56","新北市樹林區俊英街133巷25號","121.423133333333","25.0107216666667","6500700","樹林區"
"238026","172-UY","2018/01/11 19:19:43","新北市樹林區佳園路二段77號","121.390776666667","24.9600133333333","6500700","樹林區"
"238016","169-UY","2018/01/11 19:19:39","新北市樹林區中山路二段34-2號","121.417143333333","24.9852633333333","6500700","樹林區"
"239007","AAC-297","2018/01/11 19:19:51","新北市鶯歌區中山路138巷13號","121.351115","24.9590983333333","6500800","鶯歌區"
"239006","891-R6","2018/01/11 19:19:40","新北市鶯歌區鶯桃路91巷20弄1號","121.338535","24.9529766666667","6500800","鶯歌區"
"239008","527-UM","2018/01/11 19:19:56","新北市鶯歌區國際二路4巷16號","121.339151666667","24.973455","6500800","鶯歌區"
"239005","526-UM","2018/01/11 19:19:50","新北市鶯歌區東湖路19-1號","121.357905","24.9735633333333","6500800","鶯歌區"
"239001","417-VK","2018/01/11 19:19:49","新北市鶯歌區鶯桃路95巷81號","121.336958333333","24.9527516666667","6500800","鶯歌區"
"239003","360-BY","2018/01/11 19:19:53","新北市鶯歌區中正二路91巷6號","121.348625","24.9500833333333","6500800","鶯歌區"
"239004","193-VK","2018/01/11 19:19:46","新北市鶯歌區二甲路106巷2號","121.333943333333","24.9313216666667","6500800","鶯歌區"
"221036","130-UY","2018/01/11 19:19:48","新北市汐止區汐萬路一段256巷3號","121.652555","25.07452","6501100","汐止區"
"221010","269-BY","2018/01/11 19:19:56","新北市汐止區康寧街901號","121.651365","25.0749833333333","6501100","汐止區"
"221012","278-VK","2018/01/11 19:19:41","新北市汐止區汐萬路一段273號","121.650386666667","25.07455","6501100","汐止區"
"221023","279-VK","2018/01/11 19:19:56","新北市汐止區康寧街901號","121.650996666667","25.0752016666667","6501100","汐止區"
"221032","280-BY","2018/01/11 19:19:44","新北市汐止區新台五路一段115號","121.651491666667","25.0614566666667","6501100","汐止區"
"221027","281-BY","2018/01/11 19:19:13","新北市汐止區汐萬路一段39號","121.655003333333","25.0690083333333","6501100","汐止區"
"221029","298-VK","2018/01/11 19:19:39","新北市汐止區康寧街901號","121.651625","25.0749266666667","6501100","汐止區"
"221021","299-VK","2018/01/11 19:19:52","新北市汐止區康寧街901號","121.651575","25.0750166666667","6501100","汐止區"
"221031","353-TW","2018/01/11 19:19:43","新北市汐止區汐萬路一段256巷1號","121.651718333333","25.0748866666667","6501100","汐止區"
"221008","358-BY","2018/01/11 19:19:49","新北市汐止區康寧街309號","121.627141666667","25.0673733333333","6501100","汐止區"
"221015","567-BX","2018/01/11 19:19:39","新北市汐止區汐萬路一段256巷1號","121.651736666667","25.0748816666667","6501100","汐止區"
"221025","623-UM","2018/01/11 19:19:47","新北市汐止區汐萬路一段265巷2號","121.650691666667","25.0742366666667","6501100","汐止區"
"221038","646-BX","2018/01/11 19:19:52","新北市汐止區康寧街901號","121.650711666667","25.07525","6501100","汐止區"
"221033","647-BX","2018/01/11 19:19:37","新北市汐止區南勢街1巷1號","121.627016666667","25.0374166666667","6501100","汐止區"
"221002","707-TV","2018/01/11 19:19:49","新北市汐止區大同路一段398-1號","121.639848333333","25.0598933333333","6501100","汐止區"
"221018","753-BX","2018/01/11 19:19:45","新北市汐止區康寧街901號","121.651635","25.074885","6501100","汐止區"
"220079","145-BY","2018/01/11 19:19:44","新北市板橋區民權路202巷19弄1號","121.460681666667","25.0169416666667","6500100","板橋區"
"220080","200-UY","2018/01/11 19:19:38","新北市板橋區大觀路二段3巷21號","121.448105","25.0037166666667","6500100","板橋區"
"220082","610-BX","2018/01/11 19:19:46","新北市板橋區溪城路79號","121.426638333333","24.9836283333333","6500100","板橋區"
"220072","277-BY","2018/01/11 19:19:50","新北市板橋區金門街323號","121.429603333333","24.9859866666667","6500100","板橋區"
"220101","280-UM","2018/01/11 19:19:43","新北市板橋區莒光路165巷46號","121.474671666667","25.025195","6500100","板橋區"
"220094","285-UM","2018/01/11 19:19:50","新北市板橋區吳鳳路82號","121.466978333333","25.03127","6500100","板橋區"
"220053","285-VK","2018/01/11 19:19:47","新北市板橋區富山街16號","121.478396666667","25.0217983333333","6500100","板橋區"
"220083","286-VK","2018/01/11 19:19:44","新北市板橋區龍興街95巷25-3號","121.44306","25.002855","6500100","板橋區"
"220081","287-VK","2018/01/11 19:19:40","新北市板橋區南雅西路二段2-1號","121.453173333333","25.0088183333333","6500100","板橋區"
"220090","288-VK","2018/01/11 19:19:54","新北市板橋區長江路一段106巷13弄34號","121.461366666667","25.029735","6500100","板橋區"
"220061","293-UM","2018/01/11 19:19:40","新北市板橋區中山路二段318巷19號","121.48044","25.0186866666667","6500100","板橋區"
"220084","296-UM","2018/01/11 19:19:48","新北市板橋區溪崑二街66巷22號","121.42735","24.9907833333333","6500100","板橋區"
"220075","303-R5","2018/01/11 19:19:54","新北市板橋區南雅西路一段10巷7弄2號","121.454551666667","25.004785","6500100","板橋區"
"220062","305-R5","2018/01/11 19:19:58","新北市板橋區三民路二段153巷30弄37號","121.481446666667","25.0143483333333","6500100","板橋區"
"220092","307-R5","2018/01/11 19:19:39","新北市板橋區光武街4巷27號","121.468123333333","25.0259983333333","6500100","板橋區"
"220098","317-R6","2018/01/11 19:19:49","新北市板橋區民有街86號","121.465006666667","25.0273766666667","6500100","板橋區"
"220064","486-VK","2018/01/11 19:19:38","新北市板橋區縣民大道二段58號","121.462723333333","25.012305","6500100","板橋區"
"220089","487-VK","2018/01/11 19:19:58","新北市板橋區文化路一段280-3號","121.467136666667","25.0214866666667","6500100","板橋區"
"220088","491-VK","2018/01/11 19:19:53","新北市板橋區雙十路二段95號","121.475331666667","25.0277233333333","6500100","板橋區"
"220035","560-BX","2018/01/11 19:19:56","新北市板橋區中正路360巷24號","121.455343333333","25.0233966666667","6500100","板橋區"
"220103","561-BX","2018/01/11 19:19:52","新北市板橋區介壽街22-1號","121.467673333333","25.0200383333333","6500100","板橋區"
"220071","568-UM","2018/01/11 19:19:47","新北市板橋區大豐街103號","121.461321666667","25.0011816666667","6500100","板橋區"
"220063","609-BX","2018/01/11 19:19:51","新北市板橋區三民路二段1號","121.479293333333","25.0185333333333","6500100","板橋區"
"220056","630-UY","2018/01/11 19:19:36","新北市板橋區信義路208號","121.45997","24.9908433333333","6500100","板橋區"
"220091","637-BX","2018/01/11 19:19:53","新北市板橋區文聖街153號","121.478675","25.0278566666667","6500100","板橋區"
"220057","686-BX","2018/01/11 19:19:55","新北市板橋區重慶路308巷4號","121.463433333333","24.9979833333333","6500100","板橋區"
"220077","687-BX","2018/01/11 19:19:56","新北市板橋區僑中二街52號","121.446711666667","25.0103483333333","6500100","板橋區"
"220093","689-BX","2018/01/11 19:19:56","新北市板橋區漢生西路13號","121.463703333333","25.0180216666667","6500100","板橋區"
"220054","741-BX","2018/01/11 19:19:36","新北市板橋區重慶路67巷2號","121.462095","25.0070633333333","6500100","板橋區"
"220055","827-TW","2018/01/11 19:19:49","新北市板橋區實踐路65巷6-7號","121.464461666667","25.0065416666667","6500100","板橋區"
"220067","829-TW","2018/01/11 19:19:44","新北市板橋區長安街178巷10號","121.474173333333","25.0110333333333","6500100","板橋區"
"220102","830-TW","2018/01/11 19:19:48","新北市板橋區文聖街207號","121.479641666667","25.0264816666667","6500100","板橋區"
"220074","895-R6","2018/01/11 19:19:49","新北市板橋區中正路自強新村56號","121.454785","25.01353","6500100","板橋區"
"220073","985-R7","2018/01/11 19:19:51","新北市板橋區新生街68號","121.457805","25.02107","6500100","板橋區"
"220097","AAC-210","2018/01/11 19:19:37","新北市板橋區幸福路60巷29號","121.460633333333","25.0209716666667","6500100","板橋區"
"220070","AAC-253","2018/01/11 19:19:53","新北市板橋區忠孝路156號","121.464056666667","25.0023566666667","6500100","板橋區"
