"lineid","car","time","location","longitude","latitude","cityid","cityname"
"234030","746-BX","2018/01/11 20:45:49","新北市三重區光復路二段129巷6號","121.474885","25.0595216666667","6500400","永和區"
"234023","9380-KE","2018/01/11 20:45:52","新北市永和區仁愛路287號","121.505523333333","25.0095066666667","6500400","永和區"
"234077","969-R7","2018/01/11 20:45:40","新北市八里區中山路三段363號","121.374561666667","25.1387","6500400","永和區"
"234074","AAC-211","2018/01/11 20:45:51","新北市永和區環河東路一段140號","121.52098","25.015085","6500400","永和區"
"244019","402-UM","2018/01/11 20:45:55","新北市林口區粉寮路二段160巷28號","121.405433333333","25.090975","6501700","林口區"
"243012","AAD-798","2018/01/11 20:45:40","新北市泰山區泰林路三段745巷145號","121.405675","25.0676733333333","6501600","泰山區"
"222003","436-BY","2018/01/11 20:45:45","新北市深坑區阿柔洋45號","121.612188333333","24.9987983333333","6501800","深坑區"
"222002","659-BX","2018/01/11 20:45:41","新北市深坑區北深路三段107巷15號","121.604646666667","25.001095","6501800","深坑區"
"231066","0293-UT","2018/01/11 20:45:51","新北市新店區安興路112號","121.514608333333","24.977675","6500600","新店區"
"231059","046-UY","2018/01/11 20:45:42","新北市新店區僑愛三路39號","121.498838333333","24.94457","6500600","新店區"
"231061","047-UY","2018/01/11 20:45:49","新北市新店區新和街99號","121.521271666667","24.9866333333333","6500600","新店區"
"231060","106-UY","2018/01/11 20:45:54","新北市新店區安康路三段738號","121.473915","24.9418933333333","6500600","新店區"
"231051","107-UY","2018/01/11 20:45:50","新北市新店區中央五街83號","121.526566666667","24.9762816666667","6500600","新店區"
"231047","108-UY","2018/01/11 20:45:42","新北市新店區寶元路二段1巷1號","121.550803333333","24.98396","6500600","新店區"
"231052","187-VK","2018/01/11 20:45:52","新北市新店區新烏路二段198巷2弄6號","121.54807","24.917845","6500600","新店區"
"231050","KEA-2219","2018/01/11 20:45:49","新北市新店區建國路12-1號","121.540086666667","24.973755","6500600","新店區"
"231057","256-BX","2018/01/11 20:45:51","新北市新店區花園六路二段20號","121.555453333333","24.9330666666667","6500600","新店區"
"231054","AAD-862","2018/01/11 20:45:54","新北市新店區北新路一段126巷21號","121.543041666667","24.9696283333333","6500600","新店區"
"231041","355-BY","2018/01/11 20:45:49","新北市新店區中正路700巷1號","121.533908333333","24.9911883333333","6500600","新店區"
"231058","3712-VJ","2018/01/11 20:45:45","新北市新店區三民路157-1號","121.533843333333","24.9736716666667","6500600","新店區"
"231056","3713-VJ","2018/01/11 20:45:43","新北市新店區中央七街61巷28號","121.529443333333","24.9758216666667","6500600","新店區"
"231065","512-UM","2018/01/11 20:45:39","新北市新店區安祥路104巷11弄13號","121.480845","24.9633183333333","6500600","新店區"
"231064","515-UM","2018/01/11 20:45:39","新北市新店區安和路三段111巷4弄3號","121.516975","24.98485","6500600","新店區"
"231040","619-UM","2018/01/11 20:45:54","新北市新店區中正路274號","121.5389","24.9736616666667","6500600","新店區"
"231042","641-BX","2018/01/11 20:45:50","新北市新店區寶高路118號","121.554543333333","24.976","6500600","新店區"
"231063","645-TV","2018/01/11 20:45:47","新北市新店區如意街3巷2號","121.495623333333","24.9492166666667","6500600","新店區"
"231068","718-UY","2018/01/11 20:45:34","新北市新店區寶元路一段95號","121.54356","24.9849583333333","6500600","新店區"
"231049","719-UM","2018/01/11 20:45:37","新北市新店區華潭街26巷1弄1號","121.529476666667","24.9536883333333","6500600","新店區"
"231062","720-UM","2018/01/11 20:45:39","新北市新店區和成街19巷17號","121.487621666667","24.94611","6500600","新店區"
"231044","897-TW","2018/01/11 20:45:54","新北市新店區建國路156號","121.538576666667","24.9793283333333","6500600","新店區"
"231045","898-TW","2018/01/11 20:45:45","新北市新店區新坡一街101號","121.547751666667","24.962595","6500600","新店區"
"231043","899-TW","2018/01/11 20:45:44","新北市新店區博愛街13巷24號","121.540278333333","24.9740683333333","6500600","新店區"
"241011","013-R5","2018/01/11 20:45:50","新北市三重區龍濱路219巷12號","121.502291666667","25.0722283333333","6500200","三重區"
"241028","022-UY","2018/01/11 20:45:47","新北市三重區中正南路48號","121.493951666667","25.059995","6500200","三重區"
"241008","059-VK","2018/01/11 20:45:41","新北市三重區下竹圍街22號","121.480956666667","25.0756633333333","6500200","三重區"
"241009","060-VK","2018/01/11 20:45:55","新北市三重區仁愛街751號","121.48148","25.0803266666667","6500200","三重區"
"241031","061-VK","2018/01/11 20:45:49","新北市三重區重陽路一段113巷1弄38號","121.488073333333","25.0588516666667","6500200","三重區"
"241015","062-VK","2018/01/11 20:45:46","新北市三重區三和路二段210號","121.498136666667","25.0693816666667","6500200","三重區"
"241017","063-VK","2018/01/11 20:45:55","新北市三重區民生街60號","121.491318333333","25.0665166666667","6500200","三重區"
"241024","065-VK","2018/01/11 20:45:53","新北市三重區中正北路253號","121.475511666667","25.070885","6500200","三重區"
"241026","066-VK","2018/01/11 20:45:41","新北市三重區文化南路7號","121.500056666667","25.0623583333333","6500200","三重區"
"241002","090-VK","2018/01/11 20:45:38","新北市三重區仁義街170號","121.496953333333","25.0811866666667","6500200","三重區"
"241020","156-TC","2018/01/11 20:45:43","新北市三重區忠孝路一段101號","121.489396666667","25.0722566666667","6500200","三重區"
"241005","262-UM","2018/01/11 20:45:36","新北市三重區五華街141巷58號","121.493538333333","25.08671","6500200","三重區"
"241004","265-UM","2018/01/11 20:45:56","新北市三重區仁愛街416號","121.490598333333","25.0812833333333","6500200","三重區"
"241016","266-UM","2018/01/11 20:45:12","新北市三重區正義北路206號","121.496186666667","25.06735","6500200","三重區"
"241022","267-UM","2018/01/11 20:45:48","新北市三重區重陽路二段19巷17號","121.48814","25.0623866666667","6500200","三重區"
"241018","268-UM","2018/01/11 20:45:43","新北市三重區重陽路四段124號","121.492408333333","25.071005","6500200","三重區"
"241032","269-UM","2018/01/11 20:45:43","新北市三重區重陽路一段120巷48號","121.484986666667","25.0601216666667","6500200","三重區"
"241013","270-UM","2018/01/11 20:45:58","新北市三重區三和路四段44巷4號","121.490236666667","25.0742316666667","6500200","三重區"
"241025","271-UM","2018/01/11 20:45:35","新北市三重區貴陽街20號","121.484091666667","25.06206","6500200","三重區"
"241007","398-BY","2018/01/11 20:45:47","新北市三重區三和路四段115號","121.485315","25.0775033333333","6500200","三重區"
"241006","KEA-2210","2018/01/11 20:45:56","新北市三重區車路頭街139巷14號","121.484351666667","25.07615","6500200","三重區"
"241019","478-VK","2018/01/11 20:45:43","新北市三重區三張街17號","121.492028333333","25.0713916666667","6500200","三重區"
"241030","480-VK","2018/01/11 20:45:47","新北市三重區成功路73巷26號","121.48947","25.05211","6500200","三重區"
"241014","543-UM","2018/01/11 20:45:36","新北市三重區安和路56號","121.500761666667","25.0698983333333","6500200","三重區"
"241023","545-UM","2018/01/11 20:45:44","新北市三重區忠孝路三段75巷15號","121.479851666667","25.0661533333333","6500200","三重區"
"241001","547-UM","2018/01/11 20:45:52","新北市三重區自強路三段76巷13號","121.486198333333","25.0741316666667","6500200","三重區"
"241035","743-BX","2018/01/11 20:45:50","新北市三重區正義北路388號","121.493091666667","25.071695","6500200","三重區"
"241012","941-UM","2018/01/11 20:45:38","新北市三重區仁信街29號","121.50125","25.0755716666667","6500200","三重區"
"241029","942-UM","2018/01/11 20:45:52","新北市三重區環河南路220-8號","121.493391666667","25.0526783333333","6500200","三重區"
"241033","AAC-255","2018/01/11 20:45:51","新北市三重區光復路二段1號","121.472215","25.053325","6500200","三重區"
"235069","4980-A6","2018/01/11 20:45:55","新北市中和區員山路284號","121.481278333333","25.0022416666667","6500300","中和區"
"235026","800-TS","2018/01/11 20:34:20","新北市中和區員山路36巷16-3號","121.484926666667","24.9916733333333","6500300","中和區"
"220106","075-UY","2018/01/11 20:45:55","新北市八里區商港路48號","121.394671666667","25.1445266666667","6500100","板橋區"
"220069","AAD-861","2018/01/11 20:45:36","新北市林口區汕頭32號","121.366325","25.1349216666667","6500100","板橋區"
"247022","893-R6","2018/01/11 20:45:41","新北市蘆洲區中正路243巷7弄5號","121.467358333333","25.0861916666667","6501400","蘆洲區"
"247012","546-UM","2018/01/11 20:45:54","新北市蘆洲區中興街81號","121.482171666667","25.0880966666667","6501400","蘆洲區"
"247020","500-BY","2018/01/11 20:45:50","新北市蘆洲區仁愛街39號","121.472171666667","25.0929033333333","6501400","蘆洲區"
"247008","341-TH","2018/01/11 20:45:36","新北市蘆洲區重陽一街14號","121.481535","25.0816633333333","6501400","蘆洲區"
"247010","339-TH","2018/01/11 20:45:37","新北市蘆洲區鷺江街101號","121.476833333333","25.084","6501400","蘆洲區"
"247004","336-TH","2018/01/11 20:45:48","新北市蘆洲區長安街100號","121.461723333333","25.0808066666667","6501400","蘆洲區"
"247016","057-VK","2018/01/11 20:45:49","新北市蘆洲區中山二路288號","121.468883333333","25.07765","6501400","蘆洲區"
"247006","056-VK","2018/01/11 20:45:46","新北市蘆洲區和平路121巷8弄22號","121.466301666667","25.0806216666667","6501400","蘆洲區"
"247002","053-VK","2018/01/11 20:45:53","新北市蘆洲區長榮路345號","121.459515","25.0876466666667","6501400","蘆洲區"
"247014","007-UY","2018/01/11 20:45:35","新北市蘆洲區復興路56號","121.472845","25.0855183333333","6501400","蘆洲區"
"247024","002-UY","2018/01/11 20:45:40","新北市蘆洲區長樂路152號","121.462575","25.0909933333333","6501400","蘆洲區"
"222001","KEA-2212","2018/01/11 20:45:39","新北市深坑區北深路三段206巷3號","121.601226666667","25.0039966666667","6501800","深坑區"
"251001","011-UM","2018/01/11 20:45:47","新北市淡水區淡金路218號","121.460516666667","25.16715","6501000","淡水區"
"251013","179-VK","2018/01/11 20:45:54","新北市淡水區行忠路167號","121.45684","25.20134","6501000","淡水區"
"251014","180-VK","2018/01/11 20:45:52","新北市淡水區公埔子32-8號","121.461816666667","25.2324033333333","6501000","淡水區"
"251015","182-VK","2018/01/11 20:45:53","新北市淡水區興仁路162號","121.451565","25.2207983333333","6501000","淡水區"
"251010","413-VK","2018/01/11 20:45:54","新北市淡水區沙崙路141-1號","121.423338333333","25.1830266666667","6501000","淡水區"
"251012","441-VK","2018/01/11 20:45:42","新北市淡水區興仁路103巷80號","121.451083333333","25.2166166666667","6501000","淡水區"
"251016","442-VK","2018/01/11 20:45:55","新北市淡水區後洲子19號","121.450051666667","25.2239266666667","6501000","淡水區"
"251007","577-R6","2018/01/11 20:45:40","新北市淡水區學府路102巷104-1號","121.454308333333","25.1713433333333","6501000","淡水區"
"251011","650-BX","2018/01/11 20:45:45","新北市淡水區新市一路一段282巷19弄7號","121.436161666667","25.185545","6501000","淡水區"
"251002","672-BX","2018/01/11 20:45:50","新北市淡水區英專路8-3號","121.445498333333","25.16923","6501000","淡水區"
"251003","766-UM","2018/01/11 20:45:50","新北市淡水區新興街121巷35號","121.440725","25.179655","6501000","淡水區"
"252002","178-VK","2018/01/11 20:45:56","新北市三芝區淡金路二段76-2號","121.504016666667","25.2609616666667","6502100","三芝區"
"237009","210-TH","2018/01/11 20:45:57","新北市樹林區柑園街二段403號","121.36618","24.94797","6500900","三峽區"
"242031","AAC-296","2018/01/11 20:45:54","新北市新莊區三泰路56-6號","121.434245","25.03746","6500500","新莊區"
"242029","986-R7","2018/01/11 20:45:41","新北市新莊區昌隆街56號","121.454815","25.0508816666667","6500500","新莊區"
"242051","751-BX","2018/01/11 20:45:53","新北市新莊區民安西路149號","121.42634","25.0166783333333","6500500","新莊區"
"242025","615-BX","2018/01/11 20:45:55","新北市三重區重新路5段221巷6弄11-1號","121.478616666667","25.0516466666667","6500500","新莊區"
"242023","613-BX","2018/01/11 20:45:52","新北市新莊區思源路41號","121.459955","25.0397983333333","6500500","新莊區"
"242027","612-BX","2018/01/11 20:45:51","新北市新莊區瓊林路33-1號","121.445593333333","25.0281683333333","6500500","新莊區"
"242039","566-BX","2018/01/11 20:45:53","新北市新莊區瓊林北路27號","121.439116666667","25.0218333333333","6500500","新莊區"
"242044","442-UM","2018/01/11 20:45:37","新北市樹林區中正路218-4號","121.41926","25.0062683333333","6500500","新莊區"
"242048","441-UM","2018/01/11 20:45:56","新北市新莊區中正路675號","121.426335","25.0299783333333","6500500","新莊區"
"242053","440-UM","2018/01/11 20:45:55","新北市新莊區民安西路223號","121.426005","25.0143816666667","6500500","新莊區"
"242034","415-TV","2018/01/11 20:45:53","新北市新莊區中正路417號","121.444771666667","25.0343266666667","6500500","新莊區"
"242042","400-BY","2018/01/11 20:45:53","新北市新莊區天祥街8號","121.417286666667","25.0270316666667","6500500","新莊區"
"242061","362-BY","2018/01/11 20:45:40","新北市新莊區新樹路533號","121.432748333333","25.0092266666667","6500500","新莊區"
"242007","132-UY","2018/01/11 20:45:57","新北市新莊區思源路103號","121.459853333333","25.0415916666667","6500500","新莊區"
"242036","133-UY","2018/01/11 20:45:53","新北市新莊區後港一路76巷1弄5號","121.42734","25.0264333333333","6500500","新莊區"
"242009","173-VK","2018/01/11 20:45:48","新北市新莊區幸福路64巷4弄1號","121.45723","25.0500366666667","6500500","新莊區"
"242015","175-VK","2018/01/11 20:45:48","新北市新莊區新泰路324號","121.445013333333","25.04175","6500500","新莊區"
"242002","176-VK","2018/01/11 20:45:39","新北市新莊區中港路五守新村37巷2號","121.45464","25.0389216666667","6500500","新莊區"
"242019","348-TH","2018/01/11 20:45:47","新北市新莊區中港路46號","121.455521666667","25.037895","6500500","新莊區"
"242056","349-TH","2018/01/11 20:45:52","新北市新莊區瓊泰路98號","121.4431","25.0294883333333","6500500","新莊區"
"242011","351-TH","2018/01/11 20:45:50","新北市新莊區新莊路751巷126號","121.442166666667","25.0295066666667","6500500","新莊區"
"221036","130-UY","2018/01/11 20:45:48","新北市汐止區新昌路62號","121.663338333333","25.0687216666667","6501100","汐止區"
"221027","281-BY","2018/01/11 20:45:38","新北市汐止區大同路二段435號","121.659108333333","25.06738","6501100","汐止區"
"221029","298-VK","2018/01/11 20:44:59","新北市汐止區工建路202號","121.636751666667","25.062515","6501100","汐止區"
"221021","299-VK","2018/01/11 20:45:52","新北市汐止區莊敬街115號","121.655228333333","25.06091","6501100","汐止區"
"221008","358-BY","2018/01/11 20:45:49","新北市汐止區康寧街777-1號","121.645193333333","25.075985","6501100","汐止區"
"221015","567-BX","2018/01/11 20:45:39","新北市汐止區大同路二段647號","121.664726666667","25.0713983333333","6501100","汐止區"
"221035","622-UM","2018/01/11 20:45:54","新北市汐止區長江街97號","121.65834","25.07287","6501100","汐止區"
"221038","646-BX","2018/01/11 20:45:52","新北市汐止區汐萬路一段256巷1號","121.652026666667","25.0747716666667","6501100","汐止區"
"221033","647-BX","2018/01/11 20:45:37","新北市汐止區合順街18巷8弄5號","121.620315","25.04191","6501100","汐止區"
"221002","707-TV","2018/01/11 20:45:49","新北市汐止區福德二路138號","121.63079","25.0652333333333","6501100","汐止區"
"221018","753-BX","2018/01/11 20:45:45","新北市汐止區茄苳路59號","121.666636666667","25.0706883333333","6501100","汐止區"
"220055","827-TW","2018/01/11 20:45:48","新北市八里區中山路三段363-1號","121.373951666667","25.1384583333333","6500100","板橋區"
"220070","AAC-253","2018/01/11 20:45:52","新北市八里區商港路88-1號","121.393316666667","25.1494033333333","6500100","板橋區"
