"lineid","car","time","location","longitude","latitude","cityid","cityname"
"232015","291-BY","2018/01/12 06:39:56","新北市坪林區北宜路八段558號","121.718095","24.909405","6502000","坪林區"
"232019","705-BZ","2018/01/12 02:35:07","新北市坪林區北宜路八段558號","121.718071666667","24.9093666666667","6502000","坪林區"
"232008","758-BX","2018/01/12 06:39:42","新北市坪林區北宜路八段558號","121.71795","24.909275","6502000","坪林區"
"235001","611-BX","2018/01/12 06:37:19","新北市中和區圓通路369巷39-27號","121.489888333333","24.9854316666667","6500300","中和區"
"223006","022-BY","2018/01/12 06:39:53","新北市石碇區靜安路一段108號","121.648721666667","25.0093383333333","6501900","石碇區"
"223002","198-BX","2018/01/12 06:39:47","新北市石碇區碇坪路一段49號","121.659268333333","24.9914116666667","6501900","石碇區"
"223008","406-TH","2018/01/12 06:39:49","新北市石碇區碇坪路一段151號","121.676651666667","24.9781733333333","6501900","石碇區"
"223007","661-BX","2018/01/12 06:39:38","新北市石碇區碇坪路一段46號","121.655303333333","24.9934783333333","6501900","石碇區"
"227005","282-VK","2018/01/12 06:39:37","新北市雙溪區牡丹里中正路78號","121.862555","25.0459733333333","6502500","雙溪區"
"252005","073-UM","2018/01/12 06:39:50","新北市三芝區中正路三段3號","121.503075","25.2542983333333","6502100","三芝區"
"236010","165-UM","2018/01/12 06:39:48","新北市土城區永平街51號","121.427956666667","24.95912","6501300","土城區"
"220080","461-BY","2018/01/12 06:39:40","新北市板橋區南雅西路二段175巷2號","121.451563333333","25.0125583333333","6500100","板橋區"
