"lineid","car","time","location","longitude","latitude","cityid","cityname"
"248005","653-BX","2018/01/12 07:16:43","新北市五股區明德路12巷3號","121.433321666667","25.071795","6501500","五股區"
"232003","290-BY","2018/01/12 07:19:47","新北市坪林區大粗坑28號","121.706898333333","24.9641483333333","6502000","坪林區"
"232015","291-BY","2018/01/12 07:19:55","新北市坪林區嶺腳坑7號","121.691316666667","24.9431433333333","6502000","坪林區"
"232019","705-BZ","2018/01/12 07:19:47","新北市坪林區九芎坑3-5號","121.72599","24.96441","6502000","坪林區"
"232008","758-BX","2018/01/12 07:19:42","新北市坪林區石8號","121.709218333333","24.908435","6502000","坪林區"
"244004","248-BX","2018/01/12 07:19:56","新北市林口區頂福里71-31號","121.356708333333","25.0779133333333","6501700","林口區"
"222005","289-BY","2018/01/12 07:19:44","新北市深坑區文化街39巷13號","121.619026666667","25.00108","6501800","深坑區"
"235001","611-BX","2018/01/12 07:19:40","新北市中和區圓通路367巷4號","121.491451666667","24.9893383333333","6500300","中和區"
"226005","5620-A6","2018/01/12 07:19:07","新北市平溪區薯榔里雙菁路1號","121.72044","25.0255683333333","6502400","平溪區"
"226001","8452-VL","2018/01/12 07:19:39","新北市平溪區南山里南山坪2號","121.763021666667","25.0318183333333","6502400","平溪區"
"226003","AGD-0702","2018/01/12 07:19:42","新北市平溪區菁桐里二坑路5號","121.72078","25.0244966666667","6502400","平溪區"
"223006","022-BY","2018/01/12 07:19:57","新北市石碇區崩山18-4號","121.677195","24.96778","6501900","石碇區"
"223002","198-BX","2018/01/12 07:19:46","新北市石碇區北宜路六段獅子頭坑巷1號","121.6443","24.9385683333333","6501900","石碇區"
"223008","406-TH","2018/01/12 07:19:49","新北市石碇區靜安路一段337號","121.698825","25.014655","6501900","石碇區"
"223001","437-BY","2018/01/12 07:19:35","新北市石碇區內楒仔腳4-1號","121.643125","24.9707033333333","6501900","石碇區"
"223004","660-BX","2018/01/12 07:19:49","新北市石碇區新興坑12-1號","121.653783333333","25.0187633333333","6501900","石碇區"
"223007","661-BX","2018/01/12 07:19:46","新北市石碇區蚯蚓坑18-4號","121.690663333333","25.00436","6501900","石碇區"
"223005","677-TV","2018/01/12 07:19:54","新北市石碇區新興坑1-1號","121.654313333333","25.014615","6501900","石碇區"
"227005","282-VK","2018/01/12 07:19:57","新北市雙溪區新基里自強路7號","121.866266666667","25.0390566666667","6502500","雙溪區"
"252005","073-UM","2018/01/12 07:19:50","新北市三芝區中正路三段3號","121.503085","25.2543316666667","6502100","三芝區"
"237001","159-UY","2018/01/12 07:19:45","新北市三峽區中山路459巷30號","121.357455","24.9382333333333","6500900","三峽區"
"236010","165-UM","2018/01/12 07:19:48","新北市土城區立德路18號","121.462686666667","24.9878483333333","6501300","土城區"
"236004","339-SR","2018/01/12 07:19:54","新北市土城區南天母路135巷22號","121.448753333333","24.9547233333333","6501300","土城區"
"220080","461-BY","2018/01/12 07:12:15","新北市板橋區國光路51號","121.458085","25.0179816666667","6500100","板橋區"
