"lineid","car","time","location","longitude","latitude","cityid","cityname"
"248005","653-BX","2018/10/27 08:17:39","新北市五股區水碓路5巷1號","121.433381666667","25.0720083333333","6501500","五股區"
"244005","248-BX","2018/10/27 08:17:24","新北市林口區下福里143-7號","121.298955","25.1172216666667","6501700","林口區"
"222004","289-BY","2018/10/27 07:57:45","新北市深坑區昇高坑路51-1號","121.629441666667","24.99465","6501800","深坑區"
"231007","189-VK","2018/10/27 08:17:24","新北市新店區新潭路一段158-1號","121.529381666667","24.9336333333333","6500600","新店區"
"231008","192-VK","2018/10/27 08:17:29","新北市新店區新烏路二段42-1號","121.546271666667","24.9292033333333","6500600","新店區"
"235001","611-BX","2018/10/27 08:17:37","新北市中和區圓通路335巷33弄17號","121.493028333333","24.9889466666667","6500300","中和區"
"226005","5620-A6","2018/10/27 08:17:36","新北市平溪區南山里南山坪105號","121.780435","25.0422166666667","6502400","平溪區"
"226007","7418-A5","2018/10/27 08:17:33","新北市平溪區南山里南山坪11-2號","121.76515","25.0322066666667","6502400","平溪區"
"226003","8452-VL","2018/10/27 08:17:46","新北市平溪區十分里十分街22號","121.774151666667","25.040395","6502400","平溪區"
"223006","022-BY","2018/10/27 08:17:07","新北市石碇區半路店3號","121.648175","24.9652116666667","6501900","石碇區"
"223002","KEA-2673","2018/10/27 08:16:52","新北市深坑區文山路一段8號","121.644301666667","25.0088616666667","6501900","石碇區"
"223003","205-TH","2018/10/27 08:17:39","新北市石碇區北宜路六段塗潭巷18號","121.650061666667","24.9330216666667","6501900","石碇區"
"223008","406-TH","2018/10/27 08:17:32","新北市石碇區串空湖8-2號","121.669116666667","25.0012233333333","6501900","石碇區"
"223004","437-BY","2018/10/27 08:17:47","新北市石碇區石崁10號","121.654958333333","24.9959483333333","6501900","石碇區"
"223001","592-UM","2018/10/27 08:17:31","新北市石碇區北宜路六段塗潭巷18號","121.650018333333","24.9330433333333","6501900","石碇區"
"223005","677-TV","2018/10/27 08:17:26","新北市石碇區碇坪路一段15號","121.653275","24.9975533333333","6501900","石碇區"
"227006","282-VK","2018/10/27 08:17:42","新北市雙溪區牡丹里下坑3號","121.849851666667","25.05192","6502500","雙溪區"
"252004","249-BX","2018/10/27 08:17:45","新北市三芝區興華里車埕62號","121.498688333333","25.1969116666667","6502100","三芝區"
"252007","AAC-283","2018/10/27 08:17:31","新北市三芝區後厝里番社后38號","121.472576666667","25.2419366666667","6502100","三芝區"
"237001","159-UY","2018/10/27 08:17:42","新北市三峽區學成路398號","121.37853","24.9444466666667","6500900","三峽區"
"238015","755-BX","2018/10/27 08:17:28","新北市樹林區三福街56巷9號","121.40518","25.016875","6500700","樹林區"
