"lineid","car","time","location","longitude","latitude","cityid","cityname"
"248005","653-BX","2018/10/27 09:07:39","新北市五股區明德路12巷26弄6號","121.433188333333","25.0724683333333","6501500","五股區"
"222004","289-BY","2018/10/27 09:06:45","新北市深坑區大崙尾1-1號","121.615211666667","24.9754383333333","6501800","深坑區"
"231007","189-VK","2018/10/27 09:07:44","新北市新店區新潭路三段215巷25號","121.508135","24.9040233333333","6500600","新店區"
"231008","192-VK","2018/10/27 09:07:29","新北市新店區廣興路80號","121.539088333333","24.912845","6500600","新店區"
"235001","611-BX","2018/10/27 09:07:37","新北市中和區莒光路207號","121.469986666667","24.9957783333333","6500300","中和區"
"226007","7418-A5","2018/10/27 09:07:33","新北市平溪區東勢里芊蓁坑20號","121.736406666667","24.9871866666667","6502400","平溪區"
"226003","8452-VL","2018/10/27 09:07:46","新北市平溪區靜安路三段86號","121.769928333333","25.03462","6502400","平溪區"
"223006","022-BY","2018/10/27 09:07:40","新北市石碇區八分寮45-2號","121.641485","25.01259","6501900","石碇區"
"223003","205-TH","2018/10/27 09:07:39","新北市石碇區二格路10號","121.62499","24.9629066666667","6501900","石碇區"
"223008","406-TH","2018/10/27 09:07:42","新北市石碇區靜安路一段239號","121.684473333333","25.009215","6501900","石碇區"
"223004","437-BY","2018/10/27 09:07:27","新北市石碇區碇坪路二段22號","121.686986666667","24.9740883333333","6501900","石碇區"
"223005","677-TV","2018/10/27 09:07:36","新北市石碇區大崙17號","121.685535","24.9779533333333","6501900","石碇區"
"227006","282-VK","2018/10/27 09:07:42","新北市雙溪區上林里內平林124-3號","121.823843333333","25.0275833333333","6502500","雙溪區"
"252004","249-BX","2018/10/27 09:07:45","新北市三芝區興華里車埕69-2號","121.493423333333","25.193635","6502100","三芝區"
"252007","AAC-283","2018/10/27 09:07:31","新北市三芝區樂全街10號","121.48711","25.2587483333333","6502100","三芝區"
"237001","159-UY","2018/10/27 09:07:42","新北市三峽區國際一街92號","121.370296666667","24.941505","6500900","三峽區"
"238015","755-BX","2018/10/27 09:07:28","新北市樹林區三福街56巷9號","121.405345","25.0169816666667","6500700","樹林區"
"220054","568-UM","2018/10/27 09:07:38","新北市板橋區長安街331巷83-1號","121.47224","25.01277","6500100","板橋區"
