"lineid","car","time","location","longitude","latitude","cityid","cityname"
"248005","653-BX","2018/10/27 10:17:39","新北市五股區中興路二段57-6號","121.460393333333","25.07546","6501500","五股區"
"231007","189-VK","2018/10/27 10:17:44","新北市新店區新潭路三段215巷25號","121.508123333333","24.9040716666667","6500600","新店區"
"231008","192-VK","2018/10/27 10:17:29","新北市新店區小坑一路8號","121.535498333333","24.911965","6500600","新店區"
"227006","282-VK","2018/10/27 10:17:42","新北市雙溪區長源里柑腳18號","121.804701666667","25.0141366666667","6502500","雙溪區"
"252007","AAC-283","2018/10/27 10:17:31","新北市三芝區新庄里番社后18號","121.496816666667","25.2744066666667","6502100","三芝區"
"238015","755-BX","2018/10/27 09:59:58","新北市樹林區育德街78-1號","121.387936666667","24.967975","6500700","樹林區"
