"lineid","car","time","location","longitude","latitude","cityid","cityname"
"234044","148-BY","2018/10/27 12:47:52","新北市永和區秀朗路二段126巷30號","121.524606666667","25.0008733333333","6500400","永和區"
"234078","298-R6","2018/10/27 12:47:45","新北市永和區林森路114號","121.522698333333","25.003295","6500400","永和區"
"234036","336-UY","2018/10/27 12:47:52","新北市永和區福和路1號","121.52505","25.0090833333333","6500400","永和區"
"234062","337-UY","2018/10/27 12:47:43","新北市永和區福和路1號","121.526261666667","25.0095933333333","6500400","永和區"
"234084","338-UY","2018/10/27 12:47:46","新北市永和區中正路1號","121.513578333333","24.99536","6500400","永和區"
"234068","552-UM","2018/10/27 12:45:17","新北市永和區福和路1號","121.52572","25.00911","6500400","永和區"
"234015","745-BX","2018/10/27 12:47:35","新北市永和區忠孝街26巷8號","121.51533","25.0168333333333","6500400","永和區"
"234028","746-BX","2018/10/27 12:47:33","新北市永和區得和路321號","121.523325","24.9996083333333","6500400","永和區"
"234052","KEA-2590","2018/10/27 12:47:44","新北市永和區福和路1號","121.52621","25.009415","6500400","永和區"
"234012","KEA-2591","2018/10/27 12:47:42","新北市永和區保福路二段133巷32號","121.50891","25.0134033333333","6500400","永和區"
"234060","AAD-866","2018/10/27 12:47:36","新北市永和區福和路313號","121.516166666667","25.00716","6500400","永和區"
"234025","9371-KE","2018/10/27 12:47:34","新北市永和區竹林路159號","121.52055","25.0103216666667","6500400","永和區"
"234022","9380-KE","2018/10/27 12:46:49","新北市永和區竹林路119巷26號","121.521156666667","25.0117866666667","6500400","永和區"
"234076","969-R7","2018/10/27 12:47:35","新北市中和區安樂路101-3號","121.513493333333","24.995055","6500400","永和區"
"234066","AAC-212","2018/10/27 12:47:48","新北市永和區中和路605號","121.51255","25.0044966666667","6500400","永和區"
"234001","AAC-295","2018/10/27 12:47:51","新北市永和區福和路229-1號","121.518628333333","25.00749","6500400","永和區"
"231028","046-UY","2018/10/27 12:47:51","新北市新店區安華路28-1號","121.519451666667","24.9609933333333","6500600","新店區"
"231001","047-UY","2018/10/27 12:47:43","新北市新店區安華路28-1號","121.519285","24.9608383333333","6500600","新店區"
"231010","107-UY","2018/10/27 12:47:47","新北市新店區安一路一段1-1號","121.519286666667","24.9612","6500600","新店區"
"231003","268-BY","2018/10/27 12:47:46","新北市新店區安一路一段1-1號","121.519325","24.9610983333333","6500600","新店區"
"231017","AAD-862","2018/10/27 12:47:38","新北市新店區安一路一段1-1號","121.519908333333","24.96125","6500600","新店區"
"231036","512-UM","2018/10/27 12:47:48","新北市新店區安一路一段1-1號","121.51932","24.9612566666667","6500600","新店區"
"231013","513-UM","2018/10/27 12:47:47","新北市新店區安一路一段1-1號","121.519648333333","24.961215","6500600","新店區"
"231030","619-UM","2018/10/27 12:47:48","新北市新店區安華路28-1號","121.519475","24.9609033333333","6500600","新店區"
"231035","719-UM","2018/10/27 12:47:46","新北市新店區安一路一段1-1號","121.519328333333","24.96147","6500600","新店區"
"231024","AKT-0513","2018/10/27 12:47:42","新北市新店區安華路28-1號","121.519523333333","24.96074","6500600","新店區"
"235028","005-UY","2018/10/27 12:47:42","新北市中和區員山路36巷16-3號","121.485011666667","24.9911716666667","6500300","中和區"
"235029","098-UM","2018/10/27 12:47:32","新北市中和區中正路585號","121.486095","24.994525","6500300","中和區"
"235002","185-VK","2018/10/27 12:33:52","新北市中和區和城路一段271巷1號","121.485613333333","24.9918416666667","6500300","中和區"
"235031","255-BX","2018/10/27 12:47:49","新北市中和區中山路二段568巷22號","121.482656666667","25.006255","6500300","中和區"
"235021","801-TS","2018/10/27 12:47:44","新北市中和區員山路36巷16-3號","121.484876666667","24.9918016666667","6500300","中和區"
"228005","097-TW","2018/10/27 12:47:39","新北市貢寮區福連里福興街34號","121.991571666667","25.011115","6502600","貢寮區"
"228004","212-TW","2018/10/27 12:47:42","新北市貢寮區吉林里內寮街20-3號","121.889905","24.99522","6502600","貢寮區"
"207002","749-BX","2018/10/27 12:47:37","新北市萬里區雙興里二坪路31-2號","121.649216666667","25.169105","6502800","萬里區"
"207001","662-BX","2018/10/27 12:47:49","新北市萬里區萬里里瑪鋉頂街32-1號","121.689773333333","25.179205","6502800","萬里區"
"221012","246-BX","2018/10/27 12:47:43","新北市汐止區汐萬路一段256巷3號","121.652105","25.0747733333333","6501100","汐止區"
"221010","269-BY","2018/10/27 12:47:40","新北市汐止區康寧街582號","121.63522","25.0700533333333","6501100","汐止區"
"235032","KEA-2873","2018/10/27 12:47:27","新北市中和區員山路36巷16-3號","121.485006666667","24.99142","6500300","中和區"
