"lineid","car","time","location","longitude","latitude","cityid","cityname"
"234044","148-BY","2018/10/27 13:37:40","新北市永和區秀朗路二段80號","121.523006666667","25.0016","6500400","永和區"
"234005","207-UY","2018/10/27 13:37:39","新北市永和區永和路一段156-1號","121.514178333333","25.0085616666667","6500400","永和區"
"234078","298-R6","2018/10/27 13:37:48","新北市永和區國中路104巷8弄22號","121.525316666667","25.0063566666667","6500400","永和區"
"234036","336-UY","2018/10/27 13:37:52","新北市永和區民樂街31巷4號","121.52774","25.0014733333333","6500400","永和區"
"234062","337-UY","2018/10/27 13:37:50","新北市永和區秀朗路一段192巷6弄1號","121.51923","25.00227","6500400","永和區"
"234084","338-UY","2018/10/27 13:37:46","新北市永和區永亨路160號","121.525705","25.003785","6500400","永和區"
"234068","552-UM","2018/10/27 13:37:36","新北市永和區永和路二段234號","121.51586","25.0145016666667","6500400","永和區"
"234015","745-BX","2018/10/27 13:37:35","新北市永和區永和路二段425巷33-1號","121.514453333333","25.0177016666667","6500400","永和區"
"234028","746-BX","2018/10/27 13:37:53","新北市永和區民權路29巷17號","121.5209","24.998085","6500400","永和區"
"234052","KEA-2590","2018/10/27 13:37:44","新北市永和區竹林路39巷1號","121.518075","25.0143233333333","6500400","永和區"
"234012","KEA-2591","2018/10/27 13:37:42","新北市永和區永平路238巷1弄1號","121.50894","25.0112466666667","6500400","永和區"
"234060","AAD-866","2018/10/27 13:37:36","新北市永和區中正路416號","121.517493333333","25.0022066666667","6500400","永和區"
"234040","862-TW","2018/10/27 13:37:42","新北市永和區永貞路300號","121.512143333333","25.0046433333333","6500400","永和區"
"234048","863-TW","2018/10/27 13:37:31","新北市永和區保安路82號","121.509766666667","25.0162716666667","6500400","永和區"
"234025","9371-KE","2018/10/27 13:37:33","新北市永和區和平街95巷15號","121.5112","25.0092683333333","6500400","永和區"
"234010","9373-KE","2018/10/27 13:37:41","新北市永和區保福路二段23巷19號","121.510131666667","25.0111033333333","6500400","永和區"
"248017","225-UY","2018/10/27 13:37:34","新北市五股區民義路二段52巷11-2號","121.41105","25.1103883333333","6501500","五股區"
"234022","9380-KE","2018/10/27 13:37:49","新北市永和區中正路702巷12號","121.516446666667","25.010435","6500400","永和區"
"234076","969-R7","2018/10/27 13:37:35","新北市永和區得和路217號","121.519425","25.0002216666667","6500400","永和區"
"234072","AAC-211","2018/10/27 13:37:34","新北市永和區豫溪街160巷17號","121.523325","25.0091016666667","6500400","永和區"
"234066","AAC-212","2018/10/27 13:37:48","新北市永和區中山路一段199號","121.508978333333","25.0087466666667","6500400","永和區"
"234001","AAC-295","2018/10/27 13:37:51","新北市永和區秀朗路一段7號","121.513936666667","25.00756","6500400","永和區"
"231002","002-UM","2018/10/27 13:37:39","新北市新店區溪園路403號","121.524001666667","24.9781683333333","6500600","新店區"
"231027","0293-UT","2018/10/27 13:37:49","新北市新店區新店後街20-1號","121.538391666667","24.95326","6500600","新店區"
"231028","046-UY","2018/10/27 13:37:51","新北市新店區安康路一段351-1號","121.51949","24.96411","6500600","新店區"
"231001","047-UY","2018/10/27 13:37:43","新北市新店區中央路39號","121.53286","24.9777866666667","6500600","新店區"
"231010","107-UY","2018/10/27 13:37:47","新北市新店區中正路307巷17號","121.535828333333","24.97355","6500600","新店區"
"231020","108-UY","2018/10/27 13:37:45","新北市新店區新烏路一段130號","121.54423","24.9336633333333","6500600","新店區"
"231023","110-UY","2018/10/27 13:37:34","新北市新店區新店路118號","121.537106666667","24.954835","6500600","新店區"
"231012","187-VK","2018/10/27 13:37:49","新北市新店區寶橋路6巷6號","121.543451666667","24.97328","6500600","新店區"
"231026","256-BX","2018/10/27 13:37:38","新北市新店區北新路一段85號","121.53851","24.9612183333333","6500600","新店區"
"231003","268-BY","2018/10/27 13:37:46","新北市新店區中正路75巷71號","121.543093333333","24.968755","6500600","新店區"
"231018","278-BY","2018/10/27 13:37:46","新北市新店區百忍街17巷1號","121.534506666667","24.975635","6500600","新店區"
"231017","AAD-862","2018/10/27 13:37:38","新北市新店區竹林路28號","121.552038333333","24.9513683333333","6500600","新店區"
"231004","355-BY","2018/10/27 13:37:45","新北市新店區光明街211號","121.540145","24.96382","6500600","新店區"
"231038","3712-VJ","2018/10/27 13:37:49","新北市新店區安華路1-1號","121.519113333333","24.9605833333333","6500600","新店區"
"231024","3713-VJ","2018/10/27 13:37:45","新北市新店區中正路224號","121.540161666667","24.9726966666667","6500600","新店區"
"231037","4716-K9","2018/10/27 13:37:47","新北市新店區薏仁坑路33號","121.493741666667","24.9626133333333","6500600","新店區"
"231025","4715-K9","2018/10/27 13:37:38","新北市新店區中央六街56號","121.527926666667","24.975775","6500600","新店區"
"231036","512-UM","2018/10/27 13:37:48","新北市新店區安祥路145巷2號","121.474685","24.9554416666667","6500600","新店區"
"231013","513-UM","2018/10/27 13:37:47","新北市新店區中正路454-5號","121.53444","24.9790766666667","6500600","新店區"
"231005","618-UM","2018/10/27 13:37:52","新北市新店區寶中路63號","121.54714","24.98033","6500600","新店區"
"231030","619-UM","2018/10/27 13:37:48","新北市新店區安康路一段355-10號","121.520166666667","24.9638716666667","6500600","新店區"
"231034","641-BX","2018/10/27 13:37:40","新北市新店區車子路109號","121.505205","24.9521016666667","6500600","新店區"
"231035","719-UM","2018/10/27 13:37:47","新北市新店區安忠路57巷1-2號","121.513436666667","24.960025","6500600","新店區"
"231033","720-UM","2018/10/27 13:37:45","新北市新店區安康路一段323-3號","121.521425","24.9638333333333","6500600","新店區"
"231029","897-TW","2018/10/27 13:37:49","新北市新店區安德街173號","121.508723333333","24.9588916666667","6500600","新店區"
"231006","898-TW","2018/10/27 13:37:36","新北市新店區北新路一段35號","121.537951666667","24.9591383333333","6500600","新店區"
"235030","003-UY","2018/10/27 13:37:47","新北市中和區水源路43號","121.5047","25.003565","6500300","中和區"
"235028","005-UY","2018/10/27 13:37:42","新北市中和區連城路109巷31號","121.496891666667","24.99857","6500300","中和區"
"235027","006-UY","2018/10/27 13:37:38","新北市中和區連城路389巷10弄7號","121.486245","24.9956266666667","6500300","中和區"
"235020","096-UM","2018/10/27 13:37:43","新北市中和區員山路466巷21弄1號","121.480603333333","25.0069883333333","6500300","中和區"
"235003","097-UM","2018/10/27 13:37:48","新北市中和區景平路278巷14弄14號","121.514711666667","24.9929883333333","6500300","中和區"
"235029","098-UM","2018/10/27 13:37:52","新北市中和區莊敬路33巷36弄2號","121.500121666667","25.0063516666667","6500300","中和區"
"235004","150-BY","2018/10/27 13:37:45","新北市中和區安平路59號","121.509428333333","24.995175","6500300","中和區"
"235022","151-BY","2018/10/27 13:37:40","新北市中和區圓通路369巷55弄10號","121.49092","24.9834683333333","6500300","中和區"
"235019","183-VK","2018/10/27 13:37:50","新北市中和區莒光路120巷19弄1號","121.471785","25.0008566666667","6500300","中和區"
"235002","185-VK","2018/10/27 13:37:44","新北市中和區大勇街45巷1號","121.51792","24.9949133333333","6500300","中和區"
"235013","186-VK","2018/10/27 13:37:51","新北市中和區景平路510號","121.503801666667","24.9938283333333","6500300","中和區"
"235031","255-BX","2018/10/27 13:37:49","新北市中和區新生街220巷4號","121.482941666667","24.9986016666667","6500300","中和區"
"235008","293-VK","2018/10/27 13:37:39","新北市中和區復興路280巷1弄1號","121.502203333333","24.9905983333333","6500300","中和區"
"235036","301-VK","2018/10/27 13:37:33","新北市中和區連城路133-1號","121.495983333333","24.999115","6500300","中和區"
"235007","352-BY","2018/10/27 13:37:50","新北市中和區景平路183號","121.511715","24.992525","6500300","中和區"
"235014","4979-A6","2018/10/27 13:37:45","新北市中和區忠孝街109號","121.512281666667","24.98708","6500300","中和區"
"235033","4980-A6","2018/10/27 13:37:42","新北市中和區連城路99巷71號","121.497363333333","24.99833","6500300","中和區"
"235006","551-UM","2018/10/27 13:37:43","新北市中和區秀朗路三段121巷4號","121.525823333333","24.9932216666667","6500300","中和區"
"235034","558-UM","2018/10/27 13:37:47","新北市中和區南華路1巷1號","121.501805","24.99558","6500300","中和區"
"235045","565-BX","2018/10/27 13:37:51","新北市中和區南山路236巷63弄1號","121.503825","24.98758","6500300","中和區"
"235018","640-BX","2018/10/27 13:37:44","新北市中和區民享街32巷24號","121.4726","25.00319","6500300","中和區"
"235024","647-TV","2018/10/27 13:37:35","新北市中和區中山路二段479號","121.48309","25.0050333333333","6500300","中和區"
"235011","732-UM","2018/10/27 13:37:36","新北市中和區南山路320巷10弄11號","121.506828333333","24.9866416666667","6500300","中和區"
"235035","783-BX","2018/10/27 13:37:51","新北市中和區永和路193號","121.491031666667","25.0073383333333","6500300","中和區"
"235026","800-TS","2018/10/27 13:37:49","新北市中和區中山路二段312巷6號","121.495651666667","25.00274","6500300","中和區"
"235021","801-TS","2018/10/27 13:37:43","新北市中和區民安街42巷36號","121.47901","25.00109","6500300","中和區"
"235005","802-TS","2018/10/27 13:37:41","新北市中和區中安街86號","121.511911666667","25.0019933333333","6500300","中和區"
"235016","805-TS","2018/10/27 13:37:44","新北市中和區興南路三段46號","121.495693333333","24.9766783333333","6500300","中和區"
"235012","896-TW","2018/10/27 13:37:47","新北市中和區圓通路141巷48弄15號","121.4981","24.9937483333333","6500300","中和區"
"235017","900-TW","2018/10/27 13:37:50","新北市中和區民享街462號","121.469813333333","24.992495","6500300","中和區"
"235015","157-BY","2018/10/27 13:37:44","新北市中和區華新街143巷106弄34號","121.506381666667","24.9785033333333","6500300","中和區"
"235001","AAC-213","2018/10/27 13:37:47","新北市中和區景平路111巷28號","121.515723333333","24.9905466666667","6500300","中和區"
"235023","AAC-215","2018/10/27 13:37:53","新北市中和區和城路一段271巷1號","121.485466666667","24.9920283333333","6500300","中和區"
"220013","072-UY","2018/10/27 13:37:42","新北市板橋區忠孝路118號","121.462946666667","25.0023233333333","6500100","板橋區"
"220034","073-UY","2018/10/27 13:37:36","新北市板橋區南雅西路二段183號","121.45194","25.0127766666667","6500100","板橋區"
"220017","AAD-861","2018/10/27 13:37:35","新北市板橋區華東街1-10號","121.448376666667","24.99505","6500100","板橋區"
"247009","056-VK","2018/10/27 13:37:38","新北市五股區中興路三段163號","121.449215","25.0807566666667","6501400","蘆洲區"
"247003","002-UY","2018/10/27 13:37:40","新北市五股區中興路三段165號","121.44616","25.0805716666667","6501400","蘆洲區"
"247021","001-UY","2018/10/27 13:37:48","新北市五股區中興路三段2巷10號","121.449083333333","25.0809266666667","6501400","蘆洲區"
"228005","097-TW","2018/10/27 13:37:39","新北市貢寮區美豐里文秀坑8號","121.902571666667","25.0504483333333","6502600","貢寮區"
"228004","212-TW","2018/10/27 13:37:42","新北市貢寮區龍崗里石壁坑街30-3號","121.907718333333","25.00539","6502600","貢寮區"
"253003","6232-TK","2018/10/27 13:37:43","新北市石門區內石門20號","121.572391666667","25.274345","6502200","石門區"
"253004","6251-TK","2018/10/27 13:37:34","新北市石門區阿里荖59號","121.606718333333","25.272835","6502200","石門區"
"253002","637-UY","2018/10/27 13:37:52","新北市石門區九芎林32號","121.56543","25.258465","6502200","石門區"
"253001","KEC-0718","2018/10/27 13:37:53","新北市石門區下員坑46-4號","121.518256666667","25.27569","6502200","石門區"
"207002","749-BX","2018/10/27 13:37:37","新北市萬里區崁腳里崁腳路166號","121.645081666667","25.155855","6502800","萬里區"
"252005","073-UM","2018/10/27 13:37:40","新北市三芝區圓山里木屐寮38-2號","121.532178333333","25.227915","6502100","三芝區"
"207001","662-BX","2018/10/27 13:37:49","新北市萬里區大鵬里萬里加投6號","121.653881666667","25.2089233333333","6502800","萬里區"
"236068","105-UM","2018/10/27 13:37:48","新北市土城區城林路6巷80號","121.43869","24.9796166666667","6501300","土城區"
"236074","166-UM","2018/10/27 13:37:46","新北市土城區城林路6巷80號","121.438741666667","24.97971","6501300","土城區"
"236060","915-UM","2018/10/27 13:37:48","新北市土城區城林路6巷80號","121.438446666667","24.9796783333333","6501300","土城區"
"221012","246-BX","2018/10/27 13:37:43","新北市汐止區民族二街32巷34號","121.633311666667","25.07092","6501100","汐止區"
"221010","269-BY","2018/10/27 13:37:40","新北市汐止區長青路131巷2弄12號","121.605205","25.1103716666667","6501100","汐止區"
"220027","145-BY","2018/10/27 13:37:47","新北市板橋區大觀路一段31號","121.449855","25.008505","6500100","板橋區"
"220028","200-UY","2018/10/27 13:36:52","新北市板橋區大觀路二段265巷76弄33-1號","121.441325","24.9967233333333","6500100","板橋區"
"220030","610-BX","2018/10/27 13:37:34","新北市板橋區大觀路三段52號","121.432226666667","24.9959316666667","6500100","板橋區"
"220004","276-BY","2018/10/27 13:37:52","新北市板橋區四川路二段245巷50號","121.451975","24.992425","6500100","板橋區"
"220020","277-BY","2018/10/27 13:37:47","新北市板橋區大觀路三段59巷17弄6-1號","121.437285","24.9954033333333","6500100","板橋區"
"220005","282-UM","2018/10/27 13:37:39","新北市板橋區華東街1-9號","121.44816","24.9948483333333","6500100","板橋區"
"220043","283-UM","2018/10/27 13:37:41","新北市板橋區民生路二段161巷1號","121.470108333333","25.0198516666667","6500100","板橋區"
"220019","283-VK","2018/10/27 13:37:39","新北市板橋區四川路二段121號","121.451161666667","24.9942166666667","6500100","板橋區"
"220031","286-VK","2018/10/27 13:37:53","新北市板橋區大觀路二段153巷46弄11-7號","121.449153333333","24.9975183333333","6500100","板橋區"
"220029","287-VK","2018/10/27 13:37:42","新北市板橋區大觀路二段31號","121.446723333333","25.0030983333333","6500100","板橋區"
"220009","293-UM","2018/10/27 13:37:38","新北市板橋區民生路二段120號","121.470488333333","25.0196816666667","6500100","板橋區"
"220010","295-UM","2018/10/27 13:37:48","新北市板橋區民生路二段120號","121.470371666667","25.0197866666667","6500100","板橋區"
"220032","296-UM","2018/10/27 13:37:37","新北市板橋區華東街1-8號","121.447548333333","24.9949916666667","6500100","板橋區"
"220023","303-R5","2018/10/27 13:37:43","新北市板橋區南雅南路二段118號","121.452421666667","25.0002516666667","6500100","板橋區"
"220012","486-VK","2018/10/27 13:37:37","新北市板橋區縣民大道二段62號","121.463006666667","25.0123983333333","6500100","板橋區"
"220038","487-VK","2018/10/27 13:37:45","新北市中和區員山路611巷2弄2號","121.477781666667","25.0113983333333","6500100","板橋區"
"220104","560-BX","2018/10/27 13:37:49","新北市板橋區南雅西路二段7巷27號","121.451938333333","25.009435","6500100","板橋區"
"220011","609-BX","2018/10/27 13:37:39","新北市板橋區民生路二段171號","121.46981","25.02008","6500100","板橋區"
"220025","687-BX","2018/10/27 13:37:37","新北市板橋區存德街16號","121.429716666667","24.9918416666667","6500100","板橋區"
"220002","741-BX","2018/10/27 13:37:44","新北市板橋區南雅南路二段120-24號","121.451715","24.9987916666667","6500100","板橋區"
"220003","827-TW","2018/10/27 13:37:36","新北市板橋區華東街1-8號","121.44797","24.9948716666667","6500100","板橋區"
"220022","895-R6","2018/10/27 13:37:33","新北市板橋區南雅南路二段1-1號","121.454723333333","25.0037066666667","6500100","板橋區"
"220021","985-R7","2018/10/27 13:37:47","新北市板橋區南雅南路二段116號","121.452433333333","25.0005666666667","6500100","板橋區"
"220018","AAC-253","2018/10/27 13:37:31","新北市板橋區華東街1-9號","121.448233333333","24.9948533333333","6500100","板橋區"
"235032","KEA-2873","2018/10/27 13:37:27","新北市中和區中正路213號","121.496868333333","24.9936933333333","6500300","中和區"
"235025","KEA-2875","2018/10/27 13:37:36","新北市中和區民享街28號","121.473791666667","25.0035383333333","6500300","中和區"
