"lineid","car","time","location","longitude","latitude","cityid","cityname"
"234044","148-BY","2018/10/27 13:47:52","新北市永和區永利路181號","121.525845","25.003455","6500400","永和區"
"234005","207-UY","2018/10/27 13:47:39","新北市中和區中和路464號","121.512223333333","25.0039966666667","6500400","永和區"
"234078","298-R6","2018/10/27 13:47:45","新北市永和區永亨路98號","121.52304","25.0048383333333","6500400","永和區"
"234036","336-UY","2018/10/27 13:47:52","新北市永和區民樂街59巷12號","121.52783","24.99817","6500400","永和區"
"234062","337-UY","2018/10/27 13:47:43","新北市永和區中正路416號","121.517633333333","25.0020733333333","6500400","永和區"
"234084","338-UY","2018/10/27 13:47:46","新北市永和區中正路562號","121.517421666667","25.005995","6500400","永和區"
"234068","552-UM","2018/10/27 13:47:36","新北市永和區竹林路49號","121.5181","25.0139616666667","6500400","永和區"
"234015","745-BX","2018/10/27 13:47:50","新北市永和區文化路47號","121.514423333333","25.015035","6500400","永和區"
"234028","746-BX","2018/10/27 13:47:39","新北市永和區四維街103巷5號","121.523938333333","24.9978983333333","6500400","永和區"
"234052","KEA-2590","2018/10/27 13:47:44","新北市永和區竹林路39巷28弄1號","121.519346666667","25.014875","6500400","永和區"
"234012","KEA-2591","2018/10/27 13:47:42","新北市永和區永平路286-1號","121.507658333333","25.01202","6500400","永和區"
"234060","AAD-866","2018/10/27 13:47:36","新北市永和區中正路164號","121.514916666667","24.99664","6500400","永和區"
"234040","862-TW","2018/10/27 13:47:43","新北市永和區中和路389巷22號","121.508141666667","25.0012716666667","6500400","永和區"
"234048","863-TW","2018/10/27 13:47:51","新北市永和區保安路75號","121.508711666667","25.014905","6500400","永和區"
"234010","9373-KE","2018/10/27 13:47:41","新北市永和區保安路292號","121.505011666667","25.011775","6500400","永和區"
"248017","225-UY","2018/10/27 13:47:54","新北市五股區民義路二段48巷2號","121.414276666667","25.103535","6501500","五股區"
"234022","9380-KE","2018/10/27 13:47:49","新北市永和區永和路二段85號","121.514845","25.0113733333333","6500400","永和區"
"234076","969-R7","2018/10/27 13:47:35","新北市永和區民權路30號","121.520221666667","24.9990983333333","6500400","永和區"
"234072","AAC-211","2018/10/27 13:47:34","新北市永和區竹林路179巷46號","121.522536666667","25.01028","6500400","永和區"
"234066","AAC-212","2018/10/27 13:47:48","新北市永和區中山路一段255巷20號","121.508348333333","25.0071066666667","6500400","永和區"
"234001","AAC-295","2018/10/27 13:47:44","新北市永和區永和路一段15號","121.512963333333","25.0055533333333","6500400","永和區"
"231002","002-UM","2018/10/27 13:47:39","新北市新店區溪園路393號","121.52421","24.9792016666667","6500600","新店區"
"231027","0293-UT","2018/10/27 13:47:35","新北市新店區北宜路一段105巷4弄7號","121.54027","24.9554816666667","6500600","新店區"
"231028","046-UY","2018/10/27 13:47:51","新北市新店區安和路二段155號","121.518961666667","24.9742716666667","6500600","新店區"
"231001","047-UY","2018/10/27 13:47:43","新北市新店區三民路147號","121.534066666667","24.9729666666667","6500600","新店區"
"231010","107-UY","2018/10/27 13:47:47","新北市新店區平等街67號","121.535905","24.972485","6500600","新店區"
"231020","108-UY","2018/10/27 13:47:45","新北市新店區永興路132號","121.54401","24.931725","6500600","新店區"
"231023","110-UY","2018/10/27 13:47:34","新北市新店區國校路55號","121.538166666667","24.95446","6500600","新店區"
"231012","187-VK","2018/10/27 13:47:37","新北市新店區德正街27巷27號","121.545635","24.971675","6500600","新店區"
"231026","256-BX","2018/10/27 13:47:41","新北市新店區中正路331號","121.535911666667","24.9749916666667","6500600","新店區"
"231003","268-BY","2018/10/27 13:47:46","新北市新店區中興路一段201號","121.54351","24.9654183333333","6500600","新店區"
"231018","278-BY","2018/10/27 13:47:46","新北市新店區中正路400巷4號","121.534818333333","24.9775916666667","6500600","新店區"
"231017","AAD-862","2018/10/27 13:47:49","新北市新店區郵政路4巷7號","121.55703","24.951375","6500600","新店區"
"231004","355-BY","2018/10/27 13:47:45","新北市新店區寶橋路88號","121.546695","24.9757633333333","6500600","新店區"
"231038","3712-VJ","2018/10/27 13:47:49","新北市新店區安華路28-1號","121.51911","24.9606316666667","6500600","新店區"
"231024","3713-VJ","2018/10/27 13:47:45","新北市新店區北新路一段271巷31-1號","121.539815","24.9671016666667","6500600","新店區"
"231037","4716-K9","2018/10/27 13:47:48","新北市新店區安康路三段359巷12弄5號","121.484276666667","24.9496483333333","6500600","新店區"
"231025","4715-K9","2018/10/27 13:47:52","新北市新店區中正路316號","121.537166666667","24.9746883333333","6500600","新店區"
"231036","512-UM","2018/10/27 13:47:48","新北市新店區安祥路145巷25號","121.475275","24.9563733333333","6500600","新店區"
"231013","513-UM","2018/10/27 13:47:47","新北市新店區二十張路25巷16號","121.539166666667","24.981985","6500600","新店區"
"231005","618-UM","2018/10/27 13:47:35","新北市新店區寶中路94-3號","121.54915","24.9799033333333","6500600","新店區"
"231030","619-UM","2018/10/27 13:47:48","新北市新店區安康路一段72號","121.528391666667","24.9619283333333","6500600","新店區"
"231034","641-BX","2018/10/27 13:47:40","新北市新店區達觀路14巷3號","121.503295","24.9418983333333","6500600","新店區"
"231035","719-UM","2018/10/27 13:47:25","新北市新店區安忠路102-1號","121.510271666667","24.9559466666667","6500600","新店區"
"231033","720-UM","2018/10/27 13:47:45","新北市新店區莒光路44巷21弄11-3號","121.518493333333","24.9521883333333","6500600","新店區"
"231029","897-TW","2018/10/27 13:47:40","新北市新店區安康路二段97號","121.513045","24.9626633333333","6500600","新店區"
"231006","898-TW","2018/10/27 13:47:36","新北市新店區北宜路一段222號","121.54422","24.9531283333333","6500600","新店區"
"235030","003-UY","2018/10/27 13:47:47","新北市中和區中山路二段131巷33號","121.503815","25.00282","6500300","中和區"
"235028","005-UY","2018/10/27 13:47:42","新北市中和區景平路517號","121.499166666667","24.998775","6500300","中和區"
"235027","006-UY","2018/10/27 13:47:38","新北市中和區連城路319巷5弄1號","121.489201666667","24.99543","6500300","中和區"
"235020","096-UM","2018/10/27 13:47:43","新北市中和區中正路1210號","121.480008333333","25.01059","6500300","中和區"
"235003","097-UM","2018/10/27 13:47:48","新北市中和區大勇街34號","121.517321666667","24.9934783333333","6500300","中和區"
"235029","098-UM","2018/10/27 13:47:52","新北市中和區中山路二段2巷45弄26-7號","121.50125","25.0069866666667","6500300","中和區"
"235004","150-BY","2018/10/27 13:47:45","新北市中和區保健路69號","121.509978333333","24.9971133333333","6500300","中和區"
"235022","151-BY","2018/10/27 13:47:40","新北市中和區連城路561-1號","121.47961","24.9946666666667","6500300","中和區"
"235019","183-VK","2018/10/27 13:47:50","新北市中和區民生街85巷6弄1號","121.469255","25.003965","6500300","中和區"
"235002","185-VK","2018/10/27 13:47:44","新北市中和區大勇街43巷16號","121.517141666667","24.994775","6500300","中和區"
"235013","186-VK","2018/10/27 13:47:51","新北市中和區景安路179號","121.505261666667","24.9940166666667","6500300","中和區"
"235031","255-BX","2018/10/27 13:47:49","新北市中和區新生街242巷3號","121.483325","24.997705","6500300","中和區"
"235008","293-VK","2018/10/27 13:47:39","新北市中和區中興街127號","121.499926666667","24.9917083333333","6500300","中和區"
"235036","301-VK","2018/10/27 13:47:33","新北市中和區中山路二段86號","121.503408333333","25.0043933333333","6500300","中和區"
"235007","352-BY","2018/10/27 13:47:50","新北市中和區景平路19-1號","121.522955","24.9905033333333","6500300","中和區"
"235014","4979-A6","2018/10/27 13:47:45","新北市中和區忠孝街62巷9弄10號","121.513145","24.9840016666667","6500300","中和區"
"235033","4980-A6","2018/10/27 13:47:42","新北市中和區泰和街38號","121.49931","25.0000466666667","6500300","中和區"
"235006","551-UM","2018/10/27 13:47:43","新北市中和區秀朗路三段70巷32號","121.525736666667","24.9945116666667","6500300","中和區"
"235034","558-UM","2018/10/27 13:47:47","新北市中和區中和路102號","121.502718333333","24.99977","6500300","中和區"
"235045","565-BX","2018/10/27 13:47:50","新北市中和區捷運路8號","121.509856666667","24.989505","6500300","中和區"
"235018","640-BX","2018/10/27 13:47:44","新北市中和區自治街8號","121.474326666667","25.0031616666667","6500300","中和區"
"235024","647-TV","2018/10/27 13:47:35","新北市中和區中山路三段156號","121.47324","25.0063316666667","6500300","中和區"
"235011","732-UM","2018/10/27 13:47:36","新北市中和區興南路二段34巷69號","121.504973333333","24.9853516666667","6500300","中和區"
"235010","733-UM","2018/10/27 13:47:49","新北市中和區仁愛街36巷46號","121.511406666667","24.9861916666667","6500300","中和區"
"235035","783-BX","2018/10/27 13:47:51","新北市中和區立言街56號","121.488321666667","25.007115","6500300","中和區"
"235026","800-TS","2018/10/27 13:47:49","新北市中和區中山路二段296號","121.496061666667","25.00234","6500300","中和區"
"235021","801-TS","2018/10/27 13:47:43","新北市中和區民安街25巷2弄1號","121.480558333333","25.000205","6500300","中和區"
"235005","802-TS","2018/10/27 13:47:41","新北市永和區安樂路250-2號","121.514475","25.003765","6500300","中和區"
"235016","805-TS","2018/10/27 13:47:44","新北市中和區興南路二段399巷35號","121.500355","24.9778666666667","6500300","中和區"
"235012","896-TW","2018/10/27 13:47:47","新北市中和區景安路211號","121.504653333333","24.9916266666667","6500300","中和區"
"235017","900-TW","2018/10/27 13:47:37","新北市中和區華福街6號","121.465453333333","24.99683","6500300","中和區"
"235015","157-BY","2018/10/27 13:47:44","新北市中和區忠孝街106巷27號","121.513163333333","24.9843983333333","6500300","中和區"
"235001","AAC-213","2018/10/27 13:47:47","新北市中和區秀朗路三段179號","121.524508333333","24.9905166666667","6500300","中和區"
"235023","AAC-215","2018/10/27 13:47:53","新北市中和區圓通路373-1號","121.490668333333","24.9893466666667","6500300","中和區"
"220013","072-UY","2018/10/27 13:47:42","新北市板橋區漢生東路280號","121.470458333333","25.0098766666667","6500100","板橋區"
"220034","073-UY","2018/10/27 13:47:36","新北市板橋區大智街78-3號","121.453748333333","25.0156216666667","6500100","板橋區"
"220105","075-UY","2018/10/27 13:47:52","新北市板橋區民生路二段161巷9號","121.470253333333","25.0195183333333","6500100","板橋區"
"220017","AAD-861","2018/10/27 13:47:35","新北市板橋區縣民大道一段64巷2號","121.45498","25.004035","6500100","板橋區"
"247005","337-TH","2018/10/27 13:47:35","新北市蘆洲區中山二路281號","121.469343333333","25.078995","6501400","蘆洲區"
"247007","336-TH","2018/10/27 13:47:36","新北市三重區永安北路二段5巷1號","121.481521666667","25.0809283333333","6501400","蘆洲區"
"247009","056-VK","2018/10/27 13:47:38","新北市蘆洲區中正路516巷12號","121.46176","25.0989283333333","6501400","蘆洲區"
"247003","002-UY","2018/10/27 13:47:40","新北市蘆洲區中原路45號","121.459323333333","25.0822716666667","6501400","蘆洲區"
"247021","001-UY","2018/10/27 13:47:48","新北市蘆洲區中正路512-1號","121.461036666667","25.09772","6501400","蘆洲區"
"228005","097-TW","2018/10/27 13:47:48","新北市貢寮區美豐里土地公嶺8號","121.894288333333","25.0580233333333","6502600","貢寮區"
"228004","212-TW","2018/10/27 13:43:42","新北市貢寮區龍崗里嵩陽街10號","121.901683333333","25.0101566666667","6502600","貢寮區"
"253003","6232-TK","2018/10/27 13:47:43","新北市石門區中山路64-1號","121.567635","25.2902666666667","6502200","石門區"
"253004","6251-TK","2018/10/27 13:47:54","新北市石門區草埔尾20-1號","121.60347","25.2626466666667","6502200","石門區"
"253002","637-UY","2018/10/27 13:47:52","新北市石門區尖山湖3-1號","121.56459","25.2412","6502200","石門區"
"253001","KEC-0718","2018/10/27 13:47:34","新北市石門區下員坑50-1號","121.51853","25.2723466666667","6502200","石門區"
"207002","749-BX","2018/10/27 13:47:37","新北市萬里區崁腳里崁腳路166號","121.645038333333","25.15596","6502800","萬里區"
"252005","073-UM","2018/10/27 13:47:40","新北市三芝區圓山里二坪頂77-1號","121.53781","25.237835","6502100","三芝區"
"207001","662-BX","2018/10/27 13:47:49","新北市萬里區磺潭里公館崙19號","121.637568333333","25.213995","6502800","萬里區"
"236068","105-UM","2018/10/27 13:47:48","新北市土城區城林路6巷80號","121.438425","24.9796433333333","6501300","土城區"
"236074","166-UM","2018/10/27 13:47:46","新北市土城區城林路6巷80號","121.438148333333","24.9796783333333","6501300","土城區"
"236024","269-VK","2018/10/27 13:47:46","新北市土城區城林路6巷80號","121.438528333333","24.9796816666667","6501300","土城區"
"236013","270-VK","2018/10/27 13:47:37","新北市土城區城林路6巷80號","121.438651666667","24.979705","6501300","土城區"
"236017","401-BY","2018/10/27 13:47:44","新北市土城區城林路6巷80號","121.43847","24.9798533333333","6501300","土城區"
"236040","752-BX","2018/10/27 13:47:37","新北市土城區城林路6巷80號","121.43852","24.9797383333333","6501300","土城區"
"236057","912-UM","2018/10/27 13:47:32","新北市土城區中華路二段62號","121.439005","24.9768566666667","6501300","土城區"
"236060","915-UM","2018/10/27 13:47:48","新北市土城區城林路6巷80號","121.438488333333","24.9796266666667","6501300","土城區"
"236054","AAC-216","2018/10/27 13:47:49","新北市土城區城林路6巷80號","121.438825","24.979655","6501300","土城區"
"221012","246-BX","2018/10/27 13:47:43","新北市汐止區明峰街2巷7號","121.635876666667","25.0717633333333","6501100","汐止區"
"221010","269-BY","2018/10/27 13:47:40","新北市汐止區長青路210巷52號","121.614856666667","25.117095","6501100","汐止區"
"220027","145-BY","2018/10/27 13:47:48","新北市板橋區民權路202巷6弄1號","121.459916666667","25.0144016666667","6500100","板橋區"
"220028","200-UY","2018/10/27 13:42:50","新北市板橋區大觀路二段265巷64-3號","121.442523333333","24.9973166666667","6500100","板橋區"
"220030","610-BX","2018/10/27 13:47:37","新北市板橋區篤行路三段49號","121.42811","24.9861916666667","6500100","板橋區"
"220004","276-BY","2018/10/27 13:47:44","新北市板橋區四川路二段52號","121.453398333333","24.9953016666667","6500100","板橋區"
"220020","277-BY","2018/10/27 13:47:47","新北市板橋區大觀路三段63-2號","121.433445","24.9951866666667","6500100","板橋區"
"220005","282-UM","2018/10/27 13:47:39","新北市板橋區南雅南路二段4巷18號","121.453576666667","25.0037283333333","6500100","板橋區"
"220043","283-UM","2018/10/27 13:47:41","新北市板橋區民生路二段161巷1號","121.470036666667","25.0200616666667","6500100","板橋區"
"220019","283-VK","2018/10/27 13:47:42","新北市板橋區忠孝路176巷7號","121.464821666667","25.001865","6500100","板橋區"
"220031","286-VK","2018/10/27 13:47:33","新北市板橋區大觀路二段22巷38-2號","121.444588333333","25.0038566666667","6500100","板橋區"
"220029","287-VK","2018/10/27 13:47:42","新北市板橋區光華街13巷2-3號","121.454145","25.01158","6500100","板橋區"
"220039","288-VK","2018/10/27 13:47:45","新北市板橋區民生路二段120號","121.470345","25.0195683333333","6500100","板橋區"
"220009","293-UM","2018/10/27 13:47:38","新北市板橋區民生路二段89-4號","121.471116666667","25.0183583333333","6500100","板橋區"
"220010","295-UM","2018/10/27 13:47:48","新北市板橋區觀光街4巷2弄1號","121.472351666667","25.01595","6500100","板橋區"
"220032","296-UM","2018/10/27 13:47:43","新北市板橋區大觀路二段148巷39-1號","121.441803333333","25.0006266666667","6500100","板橋區"
"220023","303-R5","2018/10/27 13:47:48","新北市板橋區南雅西路一段188號","121.453028333333","25.0082783333333","6500100","板橋區"
"220012","486-VK","2018/10/27 13:47:36","新北市板橋區民生路二段36-1號","121.472093333333","25.01677","6500100","板橋區"
"220038","487-VK","2018/10/27 13:47:45","新北市板橋區三民路二段204-4號","121.478966666667","25.0124066666667","6500100","板橋區"
"220104","560-BX","2018/10/27 13:47:49","新北市板橋區中正路325巷3弄5號","121.453758333333","25.0189966666667","6500100","板橋區"
"220011","609-BX","2018/10/27 13:47:39","新北市板橋區民生路二段17號","121.47241","25.0164133333333","6500100","板橋區"
"220040","637-BX","2018/10/27 13:47:44","新北市板橋區民生路二段161巷1號","121.470088333333","25.020115","6500100","板橋區"
"220025","687-BX","2018/10/27 13:47:37","新北市板橋區金門街55號","121.433236666667","24.9930716666667","6500100","板橋區"
"220002","741-BX","2018/10/27 13:47:44","新北市板橋區館前東路21號","121.460223333333","25.0073666666667","6500100","板橋區"
"220051","KEA-2699","2018/10/27 13:47:39","新北市板橋區民生路二段161巷1號","121.47007","25.0201516666667","6500100","板橋區"
"220003","827-TW","2018/10/27 13:47:36","新北市板橋區縣民大道一段290號","121.461266666667","25.0105266666667","6500100","板橋區"
"220014","829-TW","2018/10/27 13:47:33","新北市板橋區民生路二段56-4號","121.471843333333","25.0171033333333","6500100","板橋區"
"220022","895-R6","2018/10/27 13:47:36","新北市板橋區南門街7號","121.457705","25.0092633333333","6500100","板橋區"
"220021","985-R7","2018/10/27 13:47:47","新北市板橋區府中路23號","121.459136666667","25.0092866666667","6500100","板橋區"
"220018","AAC-253","2018/10/27 13:47:51","新北市板橋區館前西路49號","121.457828333333","25.0066466666667","6500100","板橋區"
"235032","KEA-2873","2018/10/27 13:47:50","新北市中和區圓通路265巷60號","121.496206666667","24.9923866666667","6500300","中和區"
"235025","KEA-2875","2018/10/27 13:47:34","新北市中和區民治街134巷10號","121.474905","25.002055","6500300","中和區"
