"lineid","car","time","location","longitude","latitude","cityid","cityname"
"234005","207-UY","2018/10/27 14:17:39","新北市永和區中正路732巷1號","121.515396666667","25.0103166666667","6500400","永和區"
"234078","298-R6","2018/10/27 14:17:45","新北市永和區福和路19巷14號","121.524313333333","25.0077933333333","6500400","永和區"
"234036","336-UY","2018/10/27 14:17:48","新北市永和區成功路一段17巷6弄2號","121.527555","25.0050916666667","6500400","永和區"
"234062","337-UY","2018/10/27 14:17:43","新北市永和區得和路129號","121.51902","25.000225","6500400","永和區"
"234084","338-UY","2018/10/27 14:17:46","新北市永和區中正路742-1號","121.515121666667","25.0103133333333","6500400","永和區"
"234068","552-UM","2018/10/27 14:17:36","新北市永和區永安街2號","121.518865","25.0061283333333","6500400","永和區"
"234028","746-BX","2018/10/27 14:17:53","新北市永和區民權路49巷5弄22號","121.521526666667","24.997775","6500400","永和區"
"234052","KEA-2590","2018/10/27 14:17:44","新北市永和區光復街2巷24號","121.517603333333","25.0165483333333","6500400","永和區"
"234060","AAD-866","2018/10/27 14:17:36","新北市永和區安樂路164號","121.514696666667","25.0007816666667","6500400","永和區"
"234040","862-TW","2018/10/27 14:17:42","新北市永和區安樂路218號","121.515025","25.002255","6500400","永和區"
"234048","863-TW","2018/10/27 14:17:51","新北市永和區新生路24巷1號","121.50886","25.0163816666667","6500400","永和區"
"234025","9371-KE","2018/10/27 14:17:54","新北市永和區安樂路144巷11號","121.514618333333","25.0002616666667","6500400","永和區"
"248017","225-UY","2018/10/27 14:17:34","新北市五股區民義路一段222號","121.429393333333","25.0906166666667","6501500","五股區"
"234076","969-R7","2018/10/27 14:17:55","新北市永和區民權路110號","121.519725","24.9965116666667","6500400","永和區"
"234072","AAC-211","2018/10/27 14:17:55","新北市永和區豫溪街191巷7弄15號","121.523361666667","25.01085","6500400","永和區"
"234066","AAC-212","2018/10/27 14:17:48","新北市永和區保平路268巷39號","121.507605","25.006215","6500400","永和區"
"234001","AAC-295","2018/10/27 14:17:51","新北市永和區中正路618號","121.517145","25.007705","6500400","永和區"
"231002","002-UM","2018/10/27 14:17:39","新北市新店區中央路226號","121.529625","24.9727333333333","6500600","新店區"
"231027","0293-UT","2018/10/27 14:17:35","新北市新店區光明街224巷20弄7號","121.540626666667","24.9621816666667","6500600","新店區"
"231028","046-UY","2018/10/27 14:17:51","新北市新店區安和路二段216號","121.517733333333","24.975555","6500600","新店區"
"231001","047-UY","2018/10/27 14:17:43","新北市新店區中正路75巷71號","121.543058333333","24.9688816666667","6500600","新店區"
"231020","108-UY","2018/10/27 14:17:45","新北市新店區桂山路29巷1號","121.557503333333","24.9034333333333","6500600","新店區"
"231023","110-UY","2018/10/27 14:17:54","新北市新店區光明街138巷14號","121.539936666667","24.9610866666667","6500600","新店區"
"231012","187-VK","2018/10/27 14:17:37","新北市新店區五峰路71號","121.546361666667","24.9680916666667","6500600","新店區"
"231003","268-BY","2018/10/27 14:17:46","新北市新店區中興路一段171號","121.54277","24.9644833333333","6500600","新店區"
"231018","278-BY","2018/10/27 14:17:25","新北市新店區中央四街37號","121.528305","24.9746433333333","6500600","新店區"
"231017","AAD-862","2018/10/27 14:17:44","新北市新店區北宜路三段62號","121.574961666667","24.951285","6500600","新店區"
"231004","355-BY","2018/10/27 14:17:45","新北市新店區北新路二段1號","121.542621666667","24.97127","6500600","新店區"
"231038","3712-VJ","2018/10/27 14:17:49","新北市新店區溪洲路93號","121.532986666667","24.9611066666667","6500600","新店區"
"231037","4716-K9","2018/10/27 14:17:47","新北市新店區安康路二段341巷5號","121.496961666667","24.9548266666667","6500600","新店區"
"231025","4715-K9","2018/10/27 14:17:37","新北市新店區民族路161號","121.537725","24.9767366666667","6500600","新店區"
"231036","512-UM","2018/10/27 14:17:48","新北市新店區安祥路109巷77號","121.477663333333","24.9601816666667","6500600","新店區"
"231013","513-UM","2018/10/27 14:17:47","新北市新店區大豐路60號","121.539645","24.9796416666667","6500600","新店區"
"231005","618-UM","2018/10/27 14:17:36","新北市新店區中興路三段163號","121.544263333333","24.9804933333333","6500600","新店區"
"231030","619-UM","2018/10/27 14:17:48","新北市新店區安民街3巷1號","121.514588333333","24.9641883333333","6500600","新店區"
"231034","641-BX","2018/10/27 14:17:40","新北市新店區車子路11號","121.503016666667","24.95199","6500600","新店區"
"231035","719-UM","2018/10/27 14:17:45","新北市新店區安和路二段117巷10號","121.518378333333","24.970235","6500600","新店區"
"231033","720-UM","2018/10/27 14:17:45","新北市新店區溪洲路196-3號","121.530521666667","24.9657983333333","6500600","新店區"
"231029","897-TW","2018/10/27 14:17:40","新北市新店區安康路二段161號","121.510153333333","24.9593516666667","6500600","新店區"
"231006","898-TW","2018/10/27 14:17:37","新北市新店區北宜路二段581巷5號","121.566388333333","24.954065","6500600","新店區"
"235030","003-UY","2018/10/27 14:17:47","新北市中和區中和路102號","121.502673333333","24.9997166666667","6500300","中和區"
"235028","005-UY","2018/10/27 14:17:42","新北市中和區連城路2號","121.499268333333","25.0023416666667","6500300","中和區"
"235027","006-UY","2018/10/27 14:17:38","新北市中和區連勝街135號","121.4948","24.9956966666667","6500300","中和區"
"235020","096-UM","2018/10/27 14:17:43","新北市中和區民富街40號","121.476683333333","25.0068016666667","6500300","中和區"
"235003","097-UM","2018/10/27 14:17:48","新北市中和區秀峰街105號","121.520673333333","24.9902666666667","6500300","中和區"
"235029","098-UM","2018/10/27 14:17:32","新北市中和區中山路二段2巷13弄1號","121.503925","25.0068183333333","6500300","中和區"
"235004","150-BY","2018/10/27 14:17:45","新北市中和區保健路106巷85號","121.511138333333","24.9944333333333","6500300","中和區"
"235022","151-BY","2018/10/27 14:17:40","新北市中和區連城路477巷6弄17-3號","121.482375","24.99504","6500300","中和區"
"235019","183-VK","2018/10/27 14:17:50","新北市中和區中山路三段179巷2號","121.47317","25.0058466666667","6500300","中和區"
"235002","185-VK","2018/10/27 14:17:44","新北市中和區立人街33-3號","121.520868333333","24.99417","6500300","中和區"
"235013","186-VK","2018/10/27 14:17:51","新北市中和區景新街228-6號","121.508146666667","24.9941816666667","6500300","中和區"
"235031","255-BX","2018/10/27 14:17:49","新北市中和區連城路270號","121.484595","24.9962766666667","6500300","中和區"
"235008","293-VK","2018/10/27 14:17:39","新北市中和區中興街266巷1號","121.498428333333","24.987615","6500300","中和區"
"235036","301-VK","2018/10/27 14:17:53","新北市中和區莊敬路33巷6號","121.500556666667","25.0051683333333","6500300","中和區"
"235007","352-BY","2018/10/27 14:17:50","新北市中和區景平路157號","121.51322","24.9924483333333","6500300","中和區"
"247011","KEA-2869","2018/10/27 14:17:46","新北市蘆洲區信義路361巷17號","121.476636666667","25.086915","6501400","蘆洲區"
"235014","4979-A6","2018/10/27 14:17:45","新北市中和區景安路208巷14號","121.503346666667","24.9913233333333","6500300","中和區"
"235033","4980-A6","2018/10/27 14:17:48","新北市中和區景平路736巷1弄12號","121.497455","25.00401","6500300","中和區"
"235006","551-UM","2018/10/27 14:17:43","新北市永和區中正路121號","121.515808333333","24.997735","6500300","中和區"
"235034","558-UM","2018/10/27 14:17:47","新北市中和區景平路690號","121.496741666667","25.0016516666667","6500300","中和區"
"235045","565-BX","2018/10/27 14:17:50","新北市中和區景新街383巷34號","121.513653333333","24.9906566666667","6500300","中和區"
"235018","640-BX","2018/10/27 14:17:44","新北市中和區國光街109巷5號","121.46985","25.000155","6500300","中和區"
"235024","647-TV","2018/10/27 14:17:35","新北市中和區中山路三段90號","121.477671666667","25.0056666666667","6500300","中和區"
"235011","732-UM","2018/10/27 14:17:36","新北市中和區和平街38巷10號","121.509415","24.9909016666667","6500300","中和區"
"235010","733-UM","2018/10/27 14:17:49","新北市中和區華新街168號","121.507393333333","24.9822233333333","6500300","中和區"
"235035","783-BX","2018/10/27 14:17:50","新北市中和區建康路2-2號","121.485926666667","25.000165","6500300","中和區"
"235026","800-TS","2018/10/27 14:17:49","新北市中和區中山路二段488-1號","121.487453333333","25.0049266666667","6500300","中和區"
"235021","801-TS","2018/10/27 14:17:43","新北市中和區員山路423巷15號","121.480428333333","25.00283","6500300","中和區"
"235005","802-TS","2018/10/27 14:17:41","新北市中和區中安街226號","121.512281666667","24.9987016666667","6500300","中和區"
"235016","805-TS","2018/10/27 14:17:44","新北市中和區華新街143巷19號","121.50658","24.9809316666667","6500300","中和區"
"235012","896-TW","2018/10/27 14:17:47","新北市中和區華新街109巷24號","121.508778333333","24.980545","6500300","中和區"
"235017","900-TW","2018/10/27 14:17:37","新北市中和區華安街21巷2號","121.4674","24.997545","6500300","中和區"
"235015","157-BY","2018/10/27 14:17:44","新北市中和區景平路239巷53弄7號","121.508936666667","24.991805","6500300","中和區"
"235001","AAC-213","2018/10/27 14:17:47","新北市中和區秀朗路三段50巷12弄8號","121.524026666667","24.9954683333333","6500300","中和區"
"235023","AAC-215","2018/10/27 14:17:33","新北市中和區錦和路195巷14號","121.491355","24.99099","6500300","中和區"
"220013","072-UY","2018/10/27 14:17:42","新北市板橋區國泰街76巷21號","121.467065","25.007105","6500100","板橋區"
"220034","073-UY","2018/10/27 14:17:36","新北市板橋區中正路216巷8號","121.456356666667","25.0183883333333","6500100","板橋區"
"220105","075-UY","2018/10/27 14:17:52","新北市板橋區雙十路三段66巷1號","121.470545","25.0319233333333","6500100","板橋區"
"220017","AAD-861","2018/10/27 14:17:44","新北市板橋區華興街21巷23號","121.45889","25.003635","6500100","板橋區"
"247001","893-R6","2018/10/27 14:17:37","新北市蘆洲區永樂街92號","121.45654","25.0886766666667","6501400","蘆洲區"
"247015","546-UM","2018/10/27 14:17:39","新北市蘆洲區中正路185巷31弄2號","121.46634","25.0841583333333","6501400","蘆洲區"
"247023","500-BY","2018/10/27 14:17:44","新北市蘆洲區長榮路748號","121.460638333333","25.0924883333333","6501400","蘆洲區"
"247013","339-TH","2018/10/27 14:17:34","新北市蘆洲區中山一路247號","121.473166666667","25.0804166666667","6501400","蘆洲區"
"247005","337-TH","2018/10/27 14:17:35","新北市蘆洲區長安街23巷1號","121.463885","25.0789133333333","6501400","蘆洲區"
"247007","336-TH","2018/10/27 14:17:36","新北市蘆洲區信義路35號","121.474386666667","25.0794483333333","6501400","蘆洲區"
"247019","057-VK","2018/10/27 14:17:49","新北市蘆洲區民族路440號","121.47322","25.09205","6501400","蘆洲區"
"247009","056-VK","2018/10/27 14:17:37","新北市蘆洲區三民路26巷32號","121.477955","25.0830616666667","6501400","蘆洲區"
"247017","007-UY","2018/10/27 14:17:37","新北市蘆洲區民權路66號","121.475193333333","25.0871283333333","6501400","蘆洲區"
"247003","002-UY","2018/10/27 14:17:40","新北市蘆洲區長安街239號","121.459195","25.08307","6501400","蘆洲區"
"247021","001-UY","2018/10/27 14:17:48","新北市蘆洲區仁愛街212巷28-1號","121.464106666667","25.0947233333333","6501400","蘆洲區"
"228005","097-TW","2018/10/27 14:17:18","新北市貢寮區美豐里土地公嶺4號","121.896518333333","25.060755","6502600","貢寮區"
"228004","212-TW","2018/10/27 14:17:42","新北市貢寮區雙玉里下雙溪街26號","121.924413333333","25.0107283333333","6502600","貢寮區"
"253003","6232-TK","2018/10/27 14:17:43","新北市石門區內石門67-5號","121.575525","25.25516","6502200","石門區"
"253004","6251-TK","2018/10/27 14:17:54","新北市石門區內阿里磅31-4號","121.588881666667","25.24169","6502200","石門區"
"253002","637-UY","2018/10/27 14:17:52","新北市石門區大溪墘2-4號","121.550203333333","25.2860866666667","6502200","石門區"
"253001","KEC-0718","2018/10/27 14:17:34","新北市石門區崁子腳65-1號","121.532473333333","25.285515","6502200","石門區"
"207002","749-BX","2018/10/27 14:17:37","新北市萬里區溪底里瑞泉路10號","121.603958333333","25.1451216666667","6502800","萬里區"
"252005","073-UM","2018/10/27 14:17:40","新北市三芝區橫山里橫山2號","121.532433333333","25.26123","6502100","三芝區"
"207001","662-BX","2018/10/27 14:17:49","新北市萬里區磺潭里清水18號","121.637725","25.1977983333333","6502800","萬里區"
"236068","105-UM","2018/10/27 14:17:48","新北市土城區明德路一段130號","121.46359","24.9791216666667","6501300","土城區"
"236074","166-UM","2018/10/27 14:17:46","新北市土城區永平街2巷3號","121.427351666667","24.9634733333333","6501300","土城區"
"236029","253-BX","2018/10/27 14:17:45","新北市土城區中央路二段180巷1-1號","121.441505","24.97627","6501300","土城區"
"236024","269-VK","2018/10/27 14:17:46","新北市土城區承天路67號","121.439493333333","24.9636216666667","6501300","土城區"
"236013","270-VK","2018/10/27 14:17:37","新北市土城區青雲路39巷7號","121.460348333333","24.9875483333333","6501300","土城區"
"236032","271-VK","2018/10/27 14:17:45","新北市土城區青雲路451巷10號","121.459758333333","24.9746016666667","6501300","土城區"
"236017","401-BY","2018/10/27 14:17:44","新北市土城區金城路二段20號","121.449931666667","24.9778283333333","6501300","土城區"
"236040","752-BX","2018/10/27 14:17:37","新北市土城區裕生路21巷1弄2號","121.448633333333","24.9872733333333","6501300","土城區"
"236057","912-UM","2018/10/27 14:17:52","新北市土城區中央路四段450號","121.41048","24.9511733333333","6501300","土城區"
"236045","913-UM","2018/10/27 14:17:44","新北市土城區明德路一段365-1號","121.453551666667","24.97898","6501300","土城區"
"236060","915-UM","2018/10/27 14:17:48","新北市土城區延壽路44巷15號","121.471613333333","24.9929983333333","6501300","土城區"
"236054","AAC-216","2018/10/27 14:17:49","新北市土城區中華路二段92號","121.438261666667","24.9747816666667","6501300","土城區"
"221012","246-BX","2018/10/27 14:17:43","新北市汐止區伯爵街57巷1號","121.638676666667","25.08138","6501100","汐止區"
"221010","269-BY","2018/10/27 14:17:40","新北市汐止區長青路210巷190號","121.616181666667","25.1129016666667","6501100","汐止區"
"220027","145-BY","2018/10/27 14:17:49","新北市板橋區民權路202巷18弄1號","121.460866666667","25.0166833333333","6500100","板橋區"
"220028","200-UY","2018/10/27 14:02:46","新北市板橋區大觀路二段3巷93號","121.450283333333","25.0032716666667","6500100","板橋區"
"220030","610-BX","2018/10/27 14:17:37","新北市板橋區金門街378號","121.427003333333","24.9837466666667","6500100","板橋區"
"220052","257-TC","2018/10/27 14:17:37","新北市板橋區介壽街22-1號","121.467698333333","25.02009","6500100","板橋區"
"220004","276-BY","2018/10/27 14:17:52","新北市板橋區國慶路8號","121.458185","24.9943766666667","6500100","板橋區"
"220020","277-BY","2018/10/27 14:17:47","新北市板橋區金門街337巷8弄2號","121.4297","24.9852766666667","6500100","板橋區"
"220050","280-UM","2018/10/27 14:17:48","新北市板橋區莊敬路2號","121.474073333333","25.0286266666667","6500100","板橋區"
"220005","282-UM","2018/10/27 14:16:27","新北市板橋區國慶路180號","121.462855","24.99628","6500100","板橋區"
"220043","283-UM","2018/10/27 14:17:41","新北市板橋區光武街110巷47號","121.46716","25.03029","6500100","板橋區"
"220019","283-VK","2018/10/27 14:17:39","新北市板橋區忠孝路48巷9弄19號","121.462111666667","25.000265","6500100","板橋區"
"220001","285-VK","2018/10/27 14:17:41","新北市板橋區富山街53巷23號","121.477595","25.021195","6500100","板橋區"
"220031","286-VK","2018/10/27 14:17:53","新北市板橋區龍興街95巷8號","121.443701666667","25.0026016666667","6500100","板橋區"
"220029","287-VK","2018/10/27 14:17:48","新北市板橋區南雅西路一段7巷1號","121.454295","25.0042666666667","6500100","板橋區"
"220039","288-VK","2018/10/27 14:17:45","新北市板橋區長江路一段106巷13弄31號","121.46128","25.02972","6500100","板橋區"
"220009","293-UM","2018/10/27 14:17:38","新北市板橋區中山路二段385號","121.480191666667","25.0193283333333","6500100","板橋區"
"220010","295-UM","2018/10/27 14:17:48","新北市板橋區三民路二段153巷36弄2號","121.481155","25.0141","6500100","板橋區"
"220032","296-UM","2018/10/27 14:17:37","新北市板橋區溪崑一街109號","121.429283333333","24.9885533333333","6500100","板橋區"
"220023","303-R5","2018/10/27 14:17:43","新北市板橋區南雅南路一段3巷25號","121.456853333333","25.0061566666667","6500100","板橋區"
"220041","307-R5","2018/10/27 14:17:47","新北市板橋區光武街48巷16號","121.467736666667","25.0268033333333","6500100","板橋區"
"220047","317-R6","2018/10/27 14:17:49","新北市板橋區四維路234號","121.463525","25.02808","6500100","板橋區"
"220012","486-VK","2018/10/27 14:17:36","新北市板橋區漢生東路83巷2號","121.466773333333","25.0158516666667","6500100","板橋區"
"220038","487-VK","2018/10/27 14:17:45","新北市板橋區文化路一段339號","121.466621666667","25.020685","6500100","板橋區"
"220037","491-VK","2018/10/27 14:17:53","新北市板橋區莊敬路2號","121.473986666667","25.0286933333333","6500100","板橋區"
"220104","560-BX","2018/10/27 14:17:49","新北市板橋區中正路332-10號","121.454386666667","25.0230333333333","6500100","板橋區"
"220011","609-BX","2018/10/27 14:17:39","新北市板橋區三民路二段251號","121.478996666667","25.0122033333333","6500100","板橋區"
"220040","637-BX","2018/10/27 14:17:44","新北市板橋區文聖街206號","121.480235","25.0257233333333","6500100","板橋區"
"220025","687-BX","2018/10/27 14:17:37","新北市板橋區大觀路二段295號","121.442256666667","24.99863","6500100","板橋區"
"220042","689-BX","2018/10/27 14:17:48","新北市板橋區漢生西路88號","121.462696666667","25.0194133333333","6500100","板橋區"
"220002","741-BX","2018/10/27 14:17:44","新北市板橋區校前街40巷9號","121.461181666667","25.0029183333333","6500100","板橋區"
"220051","KEA-2699","2018/10/27 14:17:38","新北市板橋區文聖街205巷4號","121.4801","25.0264916666667","6500100","板橋區"
"220003","827-TW","2018/10/27 14:17:36","新北市板橋區新民街13號","121.464023333333","25.0098333333333","6500100","板橋區"
"220014","829-TW","2018/10/27 14:17:33","新北市板橋區長安街263號","121.47375","25.01138","6500100","板橋區"
"220045","831-TW","2018/10/27 14:17:43","新北市板橋區文聖街156-1號","121.478688333333","25.0274133333333","6500100","板橋區"
"220022","895-R6","2018/10/27 14:17:53","新北市板橋區府中路127號","121.45611","25.009525","6500100","板橋區"
"220021","985-R7","2018/10/27 14:17:47","新北市板橋區瑞安街2號","121.454315","25.0233316666667","6500100","板橋區"
"220046","AAC-210","2018/10/27 14:17:47","新北市板橋區漢生西路89巷3弄2號","121.461561666667","25.01922","6500100","板橋區"
"220018","AAC-253","2018/10/27 14:17:51","新北市板橋區忠孝路92號","121.461681666667","25.0021116666667","6500100","板橋區"
"235032","KEA-2873","2018/10/27 14:17:27","新北市中和區景平路493巷10號","121.499316666667","24.9970833333333","6500300","中和區"
"235025","KEA-2875","2018/10/27 14:17:34","新北市中和區民利街61巷15號","121.47877","24.9981783333333","6500300","中和區"
