"lineid","car","time","location","longitude","latitude","cityid","cityname"
"231028","046-UY","2018/10/27 15:39:51","新北市新店區僑義路4號","121.500351666667","24.9510933333333","6500600","新店區"
"231020","108-UY","2018/10/27 15:39:45","新北市新店區金興路12號","121.550166666667","24.929765","6500600","新店區"
"231023","110-UY","2018/10/27 15:39:54","新北市新店區中興路一段266-6號","121.545005","24.9676733333333","6500600","新店區"
"231012","187-VK","2018/10/27 15:39:57","新北市新店區寶元路一段109號","121.545706666667","24.983105","6500600","新店區"
"231026","256-BX","2018/10/27 15:39:36","新北市新店區三民路75巷3弄1號","121.535731666667","24.971095","6500600","新店區"
"231003","268-BY","2018/10/27 15:39:46","新北市新店區寶高路102巷20號","121.552433333333","24.9740183333333","6500600","新店區"
"231018","278-BY","2018/10/27 15:39:45","新北市新店區中正路663巷1弄2號","121.53298","24.9899983333333","6500600","新店區"
"231017","AAD-862","2018/10/27 15:39:38","新北市新店區北宜路一段286號","121.546525","24.9526666666667","6500600","新店區"
"231004","355-BY","2018/10/27 15:39:45","新北市新店區光華街29號","121.515516666667","24.9696966666667","6500600","新店區"
"231038","3712-VJ","2018/10/27 15:39:51","新北市新店區安康路二段242巷12號","121.508738333333","24.9597633333333","6500600","新店區"
"231037","4716-K9","2018/10/27 15:39:47","新北市新店區安興路105-1號","121.514638333333","24.9777616666667","6500600","新店區"
"231025","4715-K9","2018/10/27 15:39:58","新北市新店區薏仁坑路自強巷6號","121.496655","24.9584766666667","6500600","新店區"
"231036","512-UM","2018/10/27 15:39:48","新北市新店區安祥路69巷50號","121.482028333333","24.959985","6500600","新店區"
"231013","513-UM","2018/10/27 15:39:51","新北市新店區永業路81巷3弄1號","121.529903333333","24.94922","6500600","新店區"
"231005","618-UM","2018/10/27 15:39:56","新北市新店區中正路448-1號","121.533965","24.9787433333333","6500600","新店區"
"231030","619-UM","2018/10/27 15:39:48","新北市新店區新和街99號","121.521278333333","24.9866366666667","6500600","新店區"
"231034","641-BX","2018/10/27 15:39:47","新北市新店區玫瑰路64巷1號","121.495821666667","24.9456116666667","6500600","新店區"
"231039","718-UY","2018/10/27 15:39:49","新北市新店區寶元路二段31巷2號","121.546721666667","24.98165","6500600","新店區"
"231035","719-UM","2018/10/27 15:39:45","新北市新店區安民街365巷10弄3號","121.515523333333","24.9755883333333","6500600","新店區"
"231033","720-UM","2018/10/27 15:39:45","新北市新店區雙城路133號","121.498005","24.9386483333333","6500600","新店區"
"231029","897-TW","2018/10/27 15:39:45","新北市新店區安康路二段317-1號","121.499323333333","24.9565266666667","6500600","新店區"
"241011","013-R5","2018/10/27 15:39:09","新北市三重區文化北路244號","121.497445","25.0697633333333","6500200","三重區"
"241022","060-VK","2018/10/27 15:39:49","新北市三重區重新路四段121號","121.484921666667","25.052465","6500200","三重區"
"241015","062-VK","2018/10/27 15:39:38","新北市三重區重新路四段121號","121.485046666667","25.0524483333333","6500200","三重區"
"241017","063-VK","2018/10/27 15:39:52","新北市三重區大仁街1號","121.49168","25.0635433333333","6500200","三重區"
"241024","065-VK","2018/10/27 15:39:39","新北市三重區重新路四段121號","121.484706666667","25.05252","6500200","三重區"
"241002","090-VK","2018/10/27 15:39:44","新北市三重區新北大道一段250號","121.47987","25.06124","6500200","三重區"
"241003","091-VK","2018/10/27 15:39:41","新北市三重區成功路72號","121.488395","25.0510716666667","6500200","三重區"
"241005","262-UM","2018/10/27 15:39:37","新北市三重區重新路四段121號","121.484588333333","25.0521116666667","6500200","三重區"
"241016","266-UM","2018/10/27 15:39:45","新北市三重區重新路四段121號","121.484823333333","25.0525816666667","6500200","三重區"
"241018","268-UM","2018/10/27 15:39:55","新北市三重區重新路四段121號","121.484785","25.0528133333333","6500200","三重區"
"241013","270-UM","2018/10/27 15:39:38","新北市三重區正義北路328號","121.494645","25.07048","6500200","三重區"
"241025","271-UM","2018/10/27 15:39:42","新北市三重區重新路四段121號","121.48476","25.0526133333333","6500200","三重區"
"241007","398-BY","2018/10/27 15:39:46","新北市三重區重新路四段121號","121.48499","25.0523783333333","6500200","三重區"
"241020","478-VK","2018/10/27 15:39:51","新北市三重區新北大道一段252號","121.479833333333","25.0614266666667","6500200","三重區"
"241014","543-UM","2018/10/27 15:39:56","新北市三重區重新路四段121號","121.484781666667","25.0527383333333","6500200","三重區"
"241023","545-UM","2018/10/27 15:39:41","新北市三重區重新路四段121號","121.484835","25.0525366666667","6500200","三重區"
"241001","547-UM","2018/10/27 15:39:39","新北市三重區重新路四段121號","121.484275","25.0522916666667","6500200","三重區"
"241006","AAD-863","2018/10/27 15:39:56","新北市三重區重新路四段121號","121.484481666667","25.0523116666667","6500200","三重區"
"241004","743-BX","2018/10/27 15:39:55","新北市三重區重新路四段121號","121.484693333333","25.0525166666667","6500200","三重區"
"241028","887-TS","2018/10/27 15:39:56","新北市三重區環河南路253號","121.491371666667","25.0505266666667","6500200","三重區"
"241012","941-UM","2018/10/27 15:39:55","新北市三重區自強路一段66號","121.497146666667","25.0665583333333","6500200","三重區"
"241029","942-UM","2018/10/27 15:39:56","新北市三重區中正南路248-6號","121.493381666667","25.0537916666667","6500200","三重區"
"241033","AAC-255","2018/10/27 15:39:47","新北市三重區中興南街76號","121.470933333333","25.0432866666667","6500200","三重區"
"235033","4980-A6","2018/10/27 15:39:42","新北市中和區新生街184號","121.483728333333","24.99977","6500300","中和區"
"235023","AAC-215","2018/10/27 15:39:53","新北市中和區員山路36巷8-1號","121.483286666667","24.991015","6500300","中和區"
"227002","642-TC","2018/10/27 15:39:54","新北市雙溪區牡丹里中正路60號","121.86616","25.042325","6502500","雙溪區"
"236068","105-UM","2018/10/27 15:39:48","新北市土城區大安路14號","121.432763333333","24.9660533333333","6501300","土城區"
"236074","166-UM","2018/10/27 15:39:46","新北市土城區中央路四段321巷38號","121.411805","24.9513","6501300","土城區"
"236029","253-BX","2018/10/27 15:39:45","新北市土城區中央路一段45巷2弄17號","121.448366666667","24.9898383333333","6501300","土城區"
"236024","269-VK","2018/10/27 15:39:46","新北市土城區裕生路67巷6弄2號","121.447678333333","24.9844516666667","6501300","土城區"
"236013","270-VK","2018/10/27 15:39:37","新北市土城區廣明街90巷21號","121.455336666667","24.9945533333333","6501300","土城區"
"236017","401-BY","2018/10/27 15:39:48","新北市土城區延吉街27號","121.472405","24.98824","6501300","土城區"
"236057","912-UM","2018/10/27 15:39:52","新北市土城區中央路一段300號","121.443336666667","24.9820266666667","6501300","土城區"
"236045","913-UM","2018/10/27 15:39:44","新北市土城區金城路三段259-1號","121.472056666667","24.9901333333333","6501300","土城區"
"236054","AAC-216","2018/10/27 15:39:49","新北市土城區學成路128巷5號","121.449366666667","24.9898333333333","6501300","土城區"
"220009","293-UM","2018/10/27 15:39:38","新北市板橋區民生路二段188號","121.470143333333","25.020235","6500100","板橋區"
"220025","687-BX","2018/10/27 15:39:36","新北市樹林區八德街437-1號","121.405586666667","24.9693983333333","6500100","板橋區"
"220051","KEA-2699","2018/10/27 15:39:38","新北市五股區五工二路136號","121.454155","25.073375","6500100","板橋區"
