"lineid","car","time","location","longitude","latitude","cityid","cityname"
"234001","149-BY","2018/10/27 16:49:49","新北市永和區福和路1號","121.526258333333","25.0098016666667","6500400","永和區"
"234007","207-UY","2018/10/27 16:21:40","新北市永和區福和路1號","121.526543333333","25.0100866666667","6500400","永和區"
"234042","862-TW","2018/10/27 16:26:41","新北市永和區福和路1號","121.526303333333","25.0096933333333","6500400","永和區"
"249005","172-UM","2018/10/27 16:49:56","新北市八里區大堀湖2-3號","121.422335","25.1537333333333","6502300","八里區"
"249004","303-UY","2018/10/27 16:49:53","新北市八里區博物館路202巷30號","121.405218333333","25.1594983333333","6502300","八里區"
"249002","305-UY","2018/10/27 16:49:51","新北市八里區牛寮埔33號","121.429931666667","25.145715","6502300","八里區"
"249003","593-UM","2018/10/27 16:49:47","新北市八里區中山路二段283號","121.401578333333","25.14865","6502300","八里區"
"231046","107-UY","2018/10/27 16:49:44","新北市新店區華潭街1巷49號","121.52607","24.9466833333333","6500600","新店區"
"241011","013-R5","2018/10/27 16:49:49","新北市三重區仁愛街53巷194號","121.500498333333","25.07309","6500200","三重區"
"241008","059-VK","2018/10/27 16:49:53","新北市三重區永安北路一段17巷26號","121.477618333333","25.0751283333333","6500200","三重區"
"241022","060-VK","2018/10/27 16:49:30","新北市三重區三民街114號","121.484763333333","25.063485","6500200","三重區"
"241031","061-VK","2018/10/27 16:49:55","新北市三重區三寧街1號","121.488711666667","25.0591183333333","6500200","三重區"
"241015","062-VK","2018/10/27 16:49:38","新北市三重區文化北路43巷2號","121.499078333333","25.0655283333333","6500200","三重區"
"241017","063-VK","2018/10/27 16:49:52","新北市三重區大同北路60巷10號","121.493908333333","25.0638116666667","6500200","三重區"
"241024","065-VK","2018/10/27 16:49:59","新北市三重區中正北路317巷32號","121.475955","25.07308","6500200","三重區"
"241026","066-VK","2018/10/27 16:49:56","新北市三重區文化南路10巷19號","121.500911666667","25.062105","6500200","三重區"
"241002","090-VK","2018/10/27 16:49:44","新北市三重區仁義街143巷20號","121.49762","25.080935","6500200","三重區"
"241003","091-VK","2018/10/27 16:49:41","新北市三重區碧華街317號","121.49112","25.08422","6500200","三重區"
"251014","742-BX","2018/10/27 16:49:52","新北市淡水區淡金路四段476號","121.451921666667","25.22369","6501000","淡水區"
"241005","262-UM","2018/10/27 16:49:57","新北市三重區仁安街51號","121.48413","25.0839866666667","6500200","三重區"
"241016","266-UM","2018/10/27 16:49:45","新北市三重區大同北路135巷27號","121.493745","25.064805","6500200","三重區"
"241009","267-UM","2018/10/27 16:49:54","新北市三重區溪尾街233號","121.488155","25.081275","6500200","三重區"
"241018","268-UM","2018/10/27 16:49:55","新北市三重區安樂街73號","121.49482","25.0693666666667","6500200","三重區"
"241032","269-UM","2018/10/27 16:49:49","新北市三重區三光街30巷1號","121.484721666667","25.06049","6500200","三重區"
"241013","270-UM","2018/10/27 16:49:41","新北市三重區三和路三段101巷126號","121.498026666667","25.0735833333333","6500200","三重區"
"241025","271-UM","2018/10/27 16:49:42","新北市三重區中正北路510號","121.472616666667","25.0717233333333","6500200","三重區"
"241007","398-BY","2018/10/27 16:49:45","新北市三重區三和路四段171號","121.483033333333","25.0788566666667","6500200","三重區"
"241020","478-VK","2018/10/27 16:49:50","新北市三重區忠孝路二段34號","121.485795","25.0710233333333","6500200","三重區"
"241030","480-VK","2018/10/27 16:49:52","新北市三重區新興路14號","121.492426666667","25.0531233333333","6500200","三重區"
"241014","543-UM","2018/10/27 16:49:56","新北市三重區長壽街120巷11號","121.502476666667","25.069105","6500200","三重區"
"241023","545-UM","2018/10/27 16:49:45","新北市三重區新北大道一段190號","121.482631666667","25.0619883333333","6500200","三重區"
"241001","547-UM","2018/10/27 16:49:39","新北市三重區仁政街54巷17號","121.492468333333","25.0768133333333","6500200","三重區"
"241019","KEA-2593","2018/10/27 16:49:55","新北市三重區三張街149巷10弄9號","121.48609","25.0698216666667","6500200","三重區"
"241006","AAD-863","2018/10/27 16:49:56","新北市三重區力行路二段182-3號","121.483495","25.0775016666667","6500200","三重區"
"241004","743-BX","2018/10/27 16:49:53","新北市三重區仁愛街397巷66號","121.492215","25.0817483333333","6500200","三重區"
"241028","887-TS","2018/10/27 16:49:36","新北市三重區光興街91號","121.497406666667","25.0599883333333","6500200","三重區"
"241012","941-UM","2018/10/27 16:49:54","新北市三重區仁壽街214號","121.501716666667","25.0750683333333","6500200","三重區"
"241029","942-UM","2018/10/27 16:49:55","新北市三重區集美街175號","121.491325","25.0541083333333","6500200","三重區"
"241033","AAC-255","2018/10/27 16:49:47","新北市三重區新北大道二段95-1號","121.467206666667","25.0614533333333","6500200","三重區"
"235046","733-UM","2018/10/27 16:21:38","新北市中和區員山路36巷13號","121.48418","24.9908433333333","6500300","中和區"
"247006","337-TH","2018/10/27 16:49:54","新北市蘆洲區永安南路二段132-1號","121.462623333333","25.0784866666667","6501400","蘆洲區"
"247008","336-TH","2018/10/27 16:49:43","新北市蘆洲區中山一路176號","121.47419","25.08115","6501400","蘆洲區"
"247010","056-VK","2018/10/27 16:49:40","新北市蘆洲區復興路357號","121.48781","25.0927783333333","6501400","蘆洲區"
"247022","001-UY","2018/10/27 16:49:55","新北市蘆洲區中正路432號","121.462728333333","25.094465","6501400","蘆洲區"
"228003","097-TW","2018/10/27 16:49:47","新北市貢寮區貢寮里朝陽街1-2號","121.912365","25.0212633333333","6502600","貢寮區"
"228002","585-TW","2018/10/27 16:49:38","新北市貢寮區貢寮里朝陽街142號","121.905233333333","25.023345","6502600","貢寮區"
"224006","676-BX","2018/10/27 16:49:42","新北市瑞芳區大寮路356-1號","121.784781666667","25.1031966666667","6501200","瑞芳區"
"224008","285-BY","2018/10/27 16:49:40","新北市瑞芳區中山路159號","121.802075","25.1065466666667","6501200","瑞芳區"
"224007","275-VK","2018/10/27 16:49:42","新北市瑞芳區中央路48巷30號","121.761255","25.103055","6501200","瑞芳區"
"224009","273-VK","2018/10/27 16:49:56","新北市瑞芳區中山路26號","121.803958333333","25.1062066666667","6501200","瑞芳區"
"224005","271-BY","2018/10/27 16:49:42","新北市瑞芳區洞頂路157號","121.861321666667","25.122885","6501200","瑞芳區"
"227002","642-TC","2018/10/27 16:49:54","新北市雙溪區外柑里外柑腳71號","121.807126666667","25.017595","6502500","雙溪區"
"227010","400-TW","2018/10/27 16:49:47","新北市雙溪區牡丹里五分10號","121.866606666667","25.047105","6502500","雙溪區"
"251013","KEA-2871","2018/10/27 16:49:45","新北市淡水區泉洲厝32號","121.48926","25.192615","6501000","淡水區"
"251016","179-VK","2018/10/27 16:49:42","新北市淡水區水頭42號","121.478138333333","25.1850616666667","6501000","淡水區"
"251008","181-VK","2018/10/27 16:49:44","台北市北投區中央北路四段30巷156號","121.474795","25.1414533333333","6501000","淡水區"
"251015","182-VK","2018/10/27 16:49:56","新北市淡水區忠愛街5-1號","121.460711666667","25.171655","6501000","淡水區"
"251012","441-VK","2018/10/27 16:49:48","新北市淡水區中正路二段31號","121.419695","25.18151","6501000","淡水區"
"251007","442-VK","2018/10/27 16:49:36","新北市淡水區中正路一段130號","121.42269","25.1786883333333","6501000","淡水區"
"251004","443-VK","2018/10/27 16:49:52","新北市淡水區中正路二段31號","121.41932","25.1822916666667","6501000","淡水區"
"251011","650-BX","2018/10/27 16:49:51","新北市淡水區中正路一段22巷6號","121.427786666667","25.1757283333333","6501000","淡水區"
"252002","178-VK","2018/10/27 16:49:51","新北市三芝區茂長里陳厝坑15號","121.516405","25.2546566666667","6502100","三芝區"
"252001","292-VK","2018/10/27 16:49:43","新北市三芝區淡金路二段97號","121.504281666667","25.2609716666667","6502100","三芝區"
"242056","751-BX","2018/10/27 16:49:49","新北市新莊區新泰路255巷83號","121.44219","25.038725","6500500","新莊區"
"242013","173-VK","2018/10/27 16:49:55","新北市新莊區三和路12-21號","121.44202","25.038725","6500500","新莊區"
"242019","175-VK","2018/10/27 16:49:41","新北市新莊區三和路12-21號","121.442076666667","25.038755","6500500","新莊區"
"242017","346-TH","2018/10/27 16:49:40","新北市新莊區三和路12-21號","121.442203333333","25.038355","6500500","新莊區"
"239007","AAC-297","2018/10/27 16:49:46","新北市鶯歌區二甲路13-16號","121.345055","24.9350516666667","6500800","鶯歌區"
