"lineid","car","time","location","longitude","latitude","cityid","cityname"
"234001","149-BY","2018/10/27 17:08:19","新北市永和區福和路1號","121.52622","25.009725","6500400","永和區"
"234042","862-TW","2018/10/27 17:29:41","新北市永和區福和路1號","121.526373333333","25.0097116666667","6500400","永和區"
"249005","172-UM","2018/10/27 17:29:56","新北市八里區荖阡坑路69號","121.406455","25.1266366666667","6502300","八里區"
"249001","173-UM","2018/10/27 17:29:39","新北市八里區龍米路三段45-1號","121.424553333333","25.1590333333333","6502300","八里區"
"249004","303-UY","2018/10/27 17:29:53","新北市八里區賢三街90-5號","121.416398333333","25.1577633333333","6502300","八里區"
"249002","305-UY","2018/10/27 17:29:50","新北市八里區烏山頭1-10號","121.447396666667","25.14028","6502300","八里區"
"249003","593-UM","2018/10/27 17:29:47","新北市八里區中山路二段289號","121.401595","25.1485766666667","6502300","八里區"
"232011","375-UM","2018/10/27 17:29:53","新北市坪林區北宜路八段453號","121.706291666667","24.923725","6502000","坪林區"
"244007","080-UY","2018/10/27 17:29:45","新北市林口區湖子46號","121.382786666667","25.0946883333333","6501700","林口區"
"244019","403-UM","2018/10/27 17:29:55","新北市林口區公園路201-1號","121.37227","25.0727466666667","6501700","林口區"
"244013","KEA-2802","2018/10/27 17:29:38","新北市林口區粉寮62號","121.407305","25.0898333333333","6501700","林口區"
"244017","485-VK","2018/10/27 17:29:53","新北市林口區文化一路一段89-5號","121.372106666667","25.070455","6501700","林口區"
"244009","656-BX","2018/10/27 17:29:39","新北市林口區文化一路二段295號","121.385325","25.0850816666667","6501700","林口區"
"244011","701-TV","2018/10/27 17:30:00","新北市林口區竹林路12號","121.386816666667","25.0773083333333","6501700","林口區"
"244025","837-TS","2018/10/27 17:29:43","新北市林口區文化三路一段369號","121.365345","25.072805","6501700","林口區"
"244021","838-TS","2018/10/27 17:29:49","新北市林口區粉寮路一段77號","121.396621666667","25.0788183333333","6501700","林口區"
"231046","107-UY","2018/10/27 17:29:44","新北市新店區直潭路92號","121.530913333333","24.9375933333333","6500600","新店區"
"241011","013-R5","2018/10/27 17:29:49","新北市三重區龍濱路191號","121.502043333333","25.071065","6500200","三重區"
"241015","062-VK","2018/10/27 17:29:58","新北市三重區三和路一段47巷18-2號","121.503635","25.06571","6500200","三重區"
"241017","063-VK","2018/10/27 17:29:51","新北市三重區大同北路34巷52號","121.49358","25.0620216666667","6500200","三重區"
"241024","065-VK","2018/10/27 17:29:39","新北市三重區國道路一段58巷20號","121.481301666667","25.0721116666667","6500200","三重區"
"251014","742-BX","2018/10/27 17:29:52","新北市淡水區公埔子10號","121.474465","25.2274433333333","6501000","淡水區"
"241005","262-UM","2018/10/27 17:29:56","新北市三重區永安北路二段5巷45號","121.483028333333","25.08132","6500200","三重區"
"241016","266-UM","2018/10/27 17:29:45","新北市三重區信義西街41號","121.495308333333","25.0641766666667","6500200","三重區"
"241018","268-UM","2018/10/27 17:29:55","新北市三重區新北大道一段7號","121.489761666667","25.0614333333333","6500200","三重區"
"241032","269-UM","2018/10/27 17:29:49","新北市三重區名源街48號","121.482461666667","25.059375","6500200","三重區"
"241013","270-UM","2018/10/27 17:29:58","新北市三重區仁愛街112巷3號","121.494635","25.07452","6500200","三重區"
"241025","271-UM","2018/10/27 17:29:42","新北市三重區中正北路311號","121.474031666667","25.0714616666667","6500200","三重區"
"241007","398-BY","2018/10/27 17:29:45","新北市三重區三和路四段145巷132號","121.487671666667","25.0792816666667","6500200","三重區"
"241020","478-VK","2018/10/27 17:29:50","新北市三重區忠孝路二段160號","121.482055","25.0678583333333","6500200","三重區"
"241030","480-VK","2018/10/27 17:29:51","新北市三重區環河南路257號","121.490965","25.05035","6500200","三重區"
"241014","543-UM","2018/10/27 17:29:56","新北市三重區安和路17號","121.501408333333","25.0684666666667","6500200","三重區"
"241023","545-UM","2018/10/27 17:29:41","新北市三重區三民街146巷3弄1號","121.481691666667","25.0646783333333","6500200","三重區"
"241019","KEA-2593","2018/10/27 17:30:00","新北市三重區自強路二段26巷9號","121.489036666667","25.06912","6500200","三重區"
"241004","743-BX","2018/10/27 17:20:53","新北市三重區五華街133號","121.491028333333","25.0843733333333","6500200","三重區"
"241012","941-UM","2018/10/27 17:29:54","新北市三重區仁興街39巷18號","121.500156666667","25.07625","6500200","三重區"
"241033","AAC-255","2018/10/27 17:29:47","新北市三重區興德路133號","121.470286666667","25.0528233333333","6500200","三重區"
"235064","005-UY","2018/10/27 17:29:52","新北市中和區員山路36巷16-3號","121.48509","24.991305","6500300","中和區"
"247012","KEA-2869","2018/10/27 17:29:51","新北市蘆洲區民族路31-12號","121.477911666667","25.08514","6501400","蘆洲區"
"247002","893-R6","2018/10/27 17:29:58","新北市蘆洲區永樂街38巷67弄15號","121.457995","25.0907","6501400","蘆洲區"
"247016","546-UM","2018/10/27 17:29:48","新北市蘆洲區中正路185巷23弄11號","121.467418333333","25.0844433333333","6501400","蘆洲區"
"247024","500-BY","2018/10/27 17:29:41","新北市蘆洲區長興路353號","121.460946666667","25.0912566666667","6501400","蘆洲區"
"247014","339-TH","2018/10/27 17:29:47","新北市蘆洲區三民路88號","121.473618333333","25.085235","6501400","蘆洲區"
"247006","337-TH","2018/10/27 17:29:54","新北市蘆洲區長安街68巷29號","121.463796666667","25.080935","6501400","蘆洲區"
"247008","336-TH","2018/10/27 17:29:48","新北市蘆洲區成功路3號","121.473736666667","25.0779416666667","6501400","蘆洲區"
"247020","057-VK","2018/10/27 17:29:54","新北市蘆洲區水湳街102號","121.469556666667","25.0929766666667","6501400","蘆洲區"
"247010","056-VK","2018/10/27 17:29:40","新北市蘆洲區集賢路402號","121.479871666667","25.0820883333333","6501400","蘆洲區"
"247018","007-UY","2018/10/27 17:29:54","新北市蘆洲區水湳街26號","121.472248333333","25.08833","6501400","蘆洲區"
"247004","002-UY","2018/10/27 17:29:48","新北市蘆洲區中原路38號","121.459855","25.0826716666667","6501400","蘆洲區"
"247022","001-UY","2018/10/27 17:29:55","新北市蘆洲區三民路299-1號","121.46582","25.0906883333333","6501400","蘆洲區"
"228003","097-TW","2018/10/27 17:29:47","新北市貢寮區仁理村研海街62-2號","121.925506666667","25.045695","6502600","貢寮區"
"228001","212-TW","2018/10/27 17:29:57","新北市貢寮區仁理村仁愛路66巷3號","121.925935","25.05354","6502600","貢寮區"
"228002","585-TW","2018/10/27 17:29:57","新北市貢寮區福隆里興隆街21-1號","121.943441666667","25.0165116666667","6502600","貢寮區"
"224010","AGQ-8101","2018/10/27 17:29:44","新北市瑞芳區逢甲路43號","121.80833","25.1089266666667","6501200","瑞芳區"
"224006","676-BX","2018/10/27 17:29:41","新北市瑞芳區靜安路四段107號","121.7932","25.109685","6501200","瑞芳區"
"224008","285-BY","2018/10/27 17:29:46","新北市瑞芳區侯硐路220號","121.830535","25.0883816666667","6501200","瑞芳區"
"224009","273-VK","2018/10/27 17:29:56","新北市瑞芳區汽車路10號","121.84634","25.1105583333333","6501200","瑞芳區"
"224005","271-BY","2018/10/27 17:29:22","新北市瑞芳區海濱路3巷2-9號","121.84399","25.126795","6501200","瑞芳區"
"227002","642-TC","2018/10/27 17:29:54","新北市雙溪區平林里外平林32號","121.85561","25.0357666666667","6502500","雙溪區"
"227010","400-TW","2018/10/27 17:29:47","新北市雙溪區三貂里定福路2號","121.850943333333","25.0666416666667","6502500","雙溪區"
"251009","008-UM","2018/10/27 17:29:41","新北市淡水區重建街1巷7號","121.439741666667","25.1736833333333","6501000","淡水區"
"251005","010-UM","2018/10/27 17:29:42","新北市淡水區鄧公路31巷13號","121.45189","25.1707283333333","6501000","淡水區"
"251002","012-UM","2018/10/27 17:29:42","新北市淡水區中正路437號","121.432005","25.1747616666667","6501000","淡水區"
"251013","KEA-2871","2018/10/27 17:29:45","新北市淡水區大竹圍5號","121.466583333333","25.19527","6501000","淡水區"
"251016","179-VK","2018/10/27 17:29:42","新北市淡水區埤島71號","121.457793333333","25.192455","6501000","淡水區"
"251008","181-VK","2018/10/27 17:29:44","新北市淡水區大同路101號","121.46295","25.1403483333333","6501000","淡水區"
"251015","182-VK","2018/10/27 17:29:16","新北市淡水區樹林口16號","121.47796","25.167215","6501000","淡水區"
"251010","413-VK","2018/10/27 17:29:42","新北市淡水區中正路二段211號","121.4262","25.1891066666667","6501000","淡水區"
"251012","441-VK","2018/10/27 17:29:48","新北市淡水區北新路188號","121.449828333333","25.179035","6501000","淡水區"
"251007","442-VK","2018/10/27 17:29:56","新北市淡水區民生路60號","121.462166666667","25.1379466666667","6501000","淡水區"
"251004","443-VK","2018/10/27 17:09:16","新北市淡水區中正東路二段88巷15號","121.459071666667","25.1504783333333","6501000","淡水區"
"251006","561-UM","2018/10/27 17:29:46","新北市淡水區大仁街9號","121.442215","25.174915","6501000","淡水區"
"251011","650-BX","2018/10/27 17:29:51","新北市淡水區坪頂路718號","121.48257","25.1584866666667","6501000","淡水區"
"251003","673-BX","2018/10/27 17:29:51","新北市淡水區中山路163號","121.441023333333","25.1735283333333","6501000","淡水區"
"207003","550-UM","2018/10/27 17:29:55","新北市萬里區龜吼里日光路6巷18號","121.683613333333","25.1861733333333","6502800","萬里區"
"207004","225-TW","2018/10/27 17:29:56","新北市萬里區萬里里景美路11號","121.68497","25.17313","6502800","萬里區"
"252002","178-VK","2018/10/27 17:29:51","新北市三芝區忠孝街1-14號","121.505581666667","25.2539783333333","6502100","三芝區"
"252001","292-VK","2018/10/27 17:29:43","新北市三芝區長安街119號","121.498066666667","25.2596583333333","6502100","三芝區"
"237012","275-BY","2018/10/27 17:29:49","新北市三峽區中山路459巷137號","121.349975","24.9339683333333","6500900","三峽區"
"237016","649-BX","2018/10/27 17:29:54","新北市三峽區中山路281號","121.361941666667","24.9375816666667","6500900","三峽區"
"237005","AKY-6261","2018/10/27 17:29:45","新北市三峽區中山路459巷163-3號","121.348665","24.9330133333333","6500900","三峽區"
"242036","AAC-296","2018/10/27 17:29:40","新北市新莊區新樹路132-4號","121.435111666667","25.02404","6500500","新莊區"
"242058","986-R7","2018/10/27 17:29:49","新北市新莊區中正路530號","121.431021666667","25.0315866666667","6500500","新莊區"
"242056","751-BX","2018/10/27 17:29:49","新北市新莊區新泰路20號","121.44962","25.033625","6500500","新莊區"
"242027","615-BX","2018/10/27 17:29:46","新北市新莊區思源路32號","121.460255","25.0405033333333","6500500","新莊區"
"242025","613-BX","2018/10/27 17:29:59","新北市新莊區復興路二段39號","121.454443333333","25.0441883333333","6500500","新莊區"
"242029","612-BX","2018/10/27 17:29:56","新北市新莊區復興路二段147號","121.45773","25.0444366666667","6500500","新莊區"
"242044","566-BX","2018/10/27 17:29:46","新北市新莊區富國路73號","121.419966666667","25.026005","6500500","新莊區"
"242048","497-BY","2018/10/27 17:29:47","新北市新莊區四維路297號","121.421183333333","25.0196616666667","6500500","新莊區"
"242053","441-UM","2018/10/27 17:29:52","新北市新莊區瓊林南路220號","121.433548333333","25.0057033333333","6500500","新莊區"
"242039","415-TV","2018/10/27 17:29:54","新北市新莊區民安東路11號","121.427901666667","25.021015","6500500","新莊區"
"242009","413-TV","2018/10/27 17:29:39","新北市新莊區中原路189-1號","121.45238","25.05433","6500500","新莊區"
"242046","400-BY","2018/10/27 17:29:39","新北市新莊區新樹路67巷2-11號","121.439678333333","25.0300666666667","6500500","新莊區"
"242023","362-BY","2018/10/27 17:29:50","新北市新莊區公園路41號","121.453198333333","25.0401516666667","6500500","新莊區"
"242061","353-BY","2018/10/27 17:29:54","新北市新莊區瓊林南路48號","121.435848333333","25.0175566666667","6500500","新莊區"
"242011","132-UY","2018/10/27 17:29:41","新北市新莊區中港路394號","121.452298333333","25.0495466666667","6500500","新莊區"
"242042","133-UY","2018/10/27 17:29:54","新北市新莊區新樹路52-37號","121.43704","25.02666","6500500","新莊區"
"242034","135-UY","2018/10/27 17:29:48","新北市新莊區新莊路384號","121.449073333333","25.0334366666667","6500500","新莊區"
"242051","172-VK","2018/10/27 17:29:41","新北市新莊區新樹路439號","121.432661666667","25.0137","6500500","新莊區"
"242013","173-VK","2018/10/27 17:29:56","新北市新莊區中誠街16巷7號","121.451933333333","25.048535","6500500","新莊區"
"242019","175-VK","2018/10/27 17:29:41","新北市新莊區中港路105號","121.455315","25.0395316666667","6500500","新莊區"
"242007","176-VK","2018/10/27 17:29:49","新北市新莊區自強街49號","121.45471","25.0468966666667","6500500","新莊區"
"242017","346-TH","2018/10/27 17:30:00","新北市新莊區復興路一段203號","121.452141666667","25.04362","6500500","新莊區"
"242015","347-TH","2018/10/27 17:29:45","新北市新莊區新泰路195號","121.447201666667","25.0379383333333","6500500","新莊區"
"242031","348-TH","2018/10/27 17:29:44","新北市新莊區新泰路401巷2號","121.443338333333","25.04414","6500500","新莊區"
"242004","349-TH","2018/10/27 17:29:52","新北市新莊區中港路288巷31號","121.453743333333","25.0447483333333","6500500","新莊區"
"242021","350-TH","2018/10/27 17:30:01","新北市新莊區中華路一段31號","121.451986666667","25.03741","6500500","新莊區"
"238015","755-BX","2018/10/27 17:29:55","新北市樹林區復興路9號","121.42263","24.9945916666667","6500700","樹林區"
"238023","601-UM","2018/10/27 17:29:39","新北市樹林區三福街91號","121.406676666667","25.0163066666667","6500700","樹林區"
"238019","599-UM","2018/10/27 17:29:52","新北市樹林區太平路1-5號","121.418548333333","24.9845933333333","6500700","樹林區"
"238018","571-TV","2018/10/27 17:29:48","新北市樹林區博愛街196號","121.424733333333","24.9896383333333","6500700","樹林區"
"238024","5061-A6","2018/10/27 17:29:40","新北市樹林區鎮前街59號","121.425038333333","24.991315","6500700","樹林區"
"238022","KEA-2213","2018/10/27 17:29:55","新北市樹林區仁愛街18號","121.422198333333","24.9820016666667","6500700","樹林區"
"238021","KEA-2539","2018/10/27 17:29:54","新北市樹林區佳園路二段61-12號","121.392478333333","24.961405","6500700","樹林區"
"238025","303-VK","2018/10/27 17:29:58","新北市樹林區保安二街二段6-9號","121.41587","25.001255","6500700","樹林區"
"238017","283-BY","2018/10/27 17:29:37","新北市樹林區中正路232號","121.418348333333","25.0069716666667","6500700","樹林區"
"238014","282-BY","2018/10/27 17:29:42","新北市樹林區保安街一段300號","121.419256666667","24.9976533333333","6500700","樹林區"
"238020","268-VK","2018/10/27 17:29:46","新北市樹林區大安路1-58號","121.428496666667","25.00338","6500700","樹林區"
"238026","172-UY","2018/10/27 17:29:43","新北市樹林區中山路三段41巷20號","121.401588333333","24.9746866666667","6500700","樹林區"
"238016","169-UY","2018/10/27 17:29:57","新北市樹林區保安街一段65號","121.423221666667","24.994895","6500700","樹林區"
"239007","AAC-297","2018/10/27 17:29:46","新北市鶯歌區中山路48號","121.352101666667","24.9570933333333","6500800","鶯歌區"
"239006","891-R6","2018/10/27 17:29:37","新北市鶯歌區鳳鳴路105號","121.334415","24.9664016666667","6500800","鶯歌區"
"239008","527-UM","2018/10/27 17:29:38","新北市鶯歌區宏德司法新村43號","121.334121666667","24.9787616666667","6500800","鶯歌區"
"239005","526-UM","2018/10/27 17:29:53","新北市鶯歌區鶯桃路二段11號","121.325698333333","24.9718366666667","6500800","鶯歌區"
"239001","417-VK","2018/10/27 17:29:48","新北市鶯歌區高職西街101號","121.336003333333","24.9407166666667","6500800","鶯歌區"
"239003","360-BY","2018/10/27 17:29:52","新北市鶯歌區鶯桃路234巷1號","121.336633333333","24.9592166666667","6500800","鶯歌區"
"239002","359-BY","2018/10/27 17:29:44","新北市鶯歌區國慶街93號","121.350315","24.9546466666667","6500800","鶯歌區"
"239004","193-VK","2018/10/27 17:29:50","新北市鶯歌區三鶯路16號","121.356443333333","24.94137","6500800","鶯歌區"
"221010","269-BY","2018/10/27 17:29:51","新北市汐止區汐萬路一段256巷3號","121.652105","25.074755","6501100","汐止區"
"242002","281-VK","2018/10/27 17:29:41","新北市新莊區新莊路154號","121.455221666667","25.0354433333333","6500500","新莊區"
"235061","KEA-2875","2018/10/27 17:15:13","新北市中和區員山路36巷16-2號","121.485188333333","24.9915866666667","6500300","中和區"
