"lineid","car","time","location","longitude","latitude","cityid","cityname"
"234046","148-BY","2018/10/27 18:39:46","新北市永和區永元路64號","121.522538333333","25.0013533333333","6500400","永和區"
"234007","207-UY","2018/10/27 18:39:45","新北市永和區文化路170號","121.511911666667","25.01547","6500400","永和區"
"234081","298-R6","2018/10/27 18:39:48","新北市永和區林森路77號","121.523945","25.003955","6500400","永和區"
"234038","336-UY","2018/10/27 18:39:41","新北市永和區福和路1號","121.526565","25.010125","6500400","永和區"
"234086","338-UY","2018/10/27 18:39:58","新北市永和區中正路10號","121.512533333333","24.9938","6500400","永和區"
"234017","745-BX","2018/10/27 18:39:45","新北市永和區福和路1號","121.526368333333","25.00963","6500400","永和區"
"234030","746-BX","2018/10/27 18:39:56","新北市永和區成功路一段108號","121.5268","25.0028816666667","6500400","永和區"
"234013","KEA-2591","2018/10/27 18:39:41","新北市永和區保福路二段105號","121.510271666667","25.0133483333333","6500400","永和區"
"234042","862-TW","2018/10/27 18:39:41","新北市永和區中和路619號","121.512843333333","25.0047633333333","6500400","永和區"
"234026","9371-KE","2018/10/27 18:39:41","新北市永和區仁愛路293號","121.505296666667","25.0094133333333","6500400","永和區"
"234011","9373-KE","2018/10/27 18:39:43","新北市永和區文化路9巷22弄32號","121.514471666667","25.0145766666667","6500400","永和區"
"249005","172-UM","2018/10/27 18:39:56","新北市八里區中華路三段208號","121.388446666667","25.1258983333333","6502300","八里區"
"249001","173-UM","2018/10/27 18:39:59","新北市八里區龍米路一段398號","121.45141","25.1328833333333","6502300","八里區"
"249004","303-UY","2018/10/27 18:39:53","新北市八里區中山路一段268巷8號","121.414845","25.159895","6502300","八里區"
"249002","305-UY","2018/10/27 18:39:51","新北市八里區頂寮二街138號","121.449325","25.1294516666667","6502300","八里區"
"248016","026-BX","2018/10/27 18:39:48","新北市五股區凌雲路一段149巷13-1號","121.448591666667","25.1008833333333","6501500","五股區"
"248008","095-VK","2018/10/27 18:40:02","新北市五股區中興路一段151巷1弄2號","121.465013333333","25.0729983333333","6501500","五股區"
"248020","225-UY","2018/10/27 18:38:08","新北市五股區孝義路73-1號","121.4454","25.1195383333333","6501500","五股區"
"248012","247-BX","2018/10/27 18:39:59","新北市五股區成泰路三段2巷1-20號","121.441203333333","25.0866683333333","6501500","五股區"
"248014","261-SL","2018/10/27 18:39:52","新北市五股區成泰路一段235號","121.436058333333","25.0794933333333","6501500","五股區"
"248010","272-BY","2018/10/27 18:40:01","新北市五股區水碓路19號","121.433316666667","25.0726366666667","6501500","五股區"
"248002","678-BX","2018/10/27 18:39:54","新北市五股區西雲路214號","121.44795","25.0958233333333","6501500","五股區"
"248004","682-TV","2018/10/27 18:39:55","新北市五股區民義路一段310-9號","121.42431","25.0938816666667","6501500","五股區"
"234023","9380-KE","2018/10/27 18:40:00","新北市永和區福和路74號","121.523036666667","25.0081116666667","6500400","永和區"
"234077","969-R7","2018/10/27 18:39:52","新北市永和區中正路264號","121.516793333333","24.998685","6500400","永和區"
"234003","AAC-295","2018/10/27 18:39:46","新北市永和區福和路1號","121.526095","25.00908","6500400","永和區"
"244023","069-UM","2018/10/27 18:39:48","新北市林口區四維路156-2號","121.381173333333","25.0754133333333","6501700","林口區"
"244007","080-UY","2018/10/27 18:39:45","新北市林口區湖北里14鄰56號","121.38436","25.1014933333333","6501700","林口區"
"244019","403-UM","2018/10/27 18:39:55","新北市林口區麗園二街23巷17號","121.38014","25.0705183333333","6501700","林口區"
"244013","KEA-2802","2018/10/27 18:39:58","新北市林口區中正路514巷31號","121.382161666667","25.0781733333333","6501700","林口區"
"244017","485-VK","2018/10/27 18:39:53","新北市林口區文化二路一段98號","121.36673","25.0700483333333","6501700","林口區"
"244009","656-BX","2018/10/27 18:39:58","新北市林口區竹林路320巷2號","121.391053333333","25.0825083333333","6501700","林口區"
"244011","701-TV","2018/10/27 18:39:59","新北市林口區仁愛路一段336-4號","121.391283333333","25.0768366666667","6501700","林口區"
"244025","837-TS","2018/10/27 18:39:42","新北市林口區南勢47號","121.355231666667","25.0749316666667","6501700","林口區"
"244021","838-TS","2018/10/27 18:39:49","新北市林口區工六路100號","121.401271666667","25.07661","6501700","林口區"
"243013","AAD-798","2018/10/27 18:25:22","新北市泰山區明志路三段206巷3號","121.423281666667","25.037925","6501600","泰山區"
"243016","KEA-2801","2018/10/27 18:39:57","新北市泰山區泰林路二段546號","121.42334","25.0637633333333","6501600","泰山區"
"243015","421-VK","2018/10/27 18:39:53","新北市泰山區黎明路33號","121.421693333333","25.0605266666667","6501600","泰山區"
"243012","539-UM","2018/10/27 18:39:56","新北市泰山區福興三街11號","121.434516666667","25.05771","6501600","泰山區"
"222003","436-BY","2018/10/27 18:39:40","新北市深坑區翠谷街17巷5號","121.62643","25.00848","6501800","深坑區"
"222002","659-BX","2018/10/27 18:39:48","新北市深坑區雲鄉路2號","121.620948333333","24.9997083333333","6501800","深坑區"
"231041","002-UM","2018/10/27 18:39:44","新北市新店區安華路28-1號","121.519553333333","24.9608216666667","6500600","新店區"
"231059","046-UY","2018/10/27 18:39:39","新北市新店區安華路28-1號","121.519596666667","24.9609383333333","6500600","新店區"
"231040","047-UY","2018/10/27 18:39:48","新北市新店區安華路28-1號","121.519248333333","24.9609183333333","6500600","新店區"
"231046","107-UY","2018/10/27 18:39:44","新北市新店區直潭二街1號","121.535495","24.9431866666667","6500600","新店區"
"231052","108-UY","2018/10/27 18:39:54","新北市新店區永興路12號","121.545038333333","24.9398666666667","6500600","新店區"
"231054","110-UY","2018/10/27 18:39:56","新北市新店區安一路一段1-1號","121.519445","24.9612066666667","6500600","新店區"
"231048","187-VK","2018/10/27 18:39:42","新北市新店區安康路一段355號","121.51986","24.9633116666667","6500600","新店區"
"231057","256-BX","2018/10/27 18:39:43","新北市新店區新烏路一段215號","121.548888333333","24.9315333333333","6500600","新店區"
"231042","268-BY","2018/10/27 18:39:49","新北市新店區安一路一段1-1號","121.51958","24.961335","6500600","新店區"
"231051","278-BY","2018/10/27 18:39:55","新北市新店區中央路149號","121.530078333333","24.973315","6500600","新店區"
"231050","AAD-862","2018/10/27 18:39:56","新北市新店區安一路一段1-1號","121.519405","24.9613","6500600","新店區"
"231043","355-BY","2018/10/27 18:39:40","新北市新店區安華路28-1號","121.519153333333","24.9607483333333","6500600","新店區"
"231058","3713-VJ","2018/10/27 18:39:49","新北市新店區新店後街1-1號","121.537813333333","24.9532516666667","6500600","新店區"
"231066","4716-K9","2018/10/27 18:39:52","新北市新店區安一路一段1-1號","121.519325","24.961235","6500600","新店區"
"231056","4715-K9","2018/10/27 18:39:40","新北市新店區建國路198巷2號","121.538121666667","24.980345","6500600","新店區"
"231067","4772-VM","2018/10/27 18:39:44","新北市新店區安華路1-1號","121.519141666667","24.96057","6500600","新店區"
"231065","512-UM","2018/10/27 18:39:57","新北市新店區安一路一段1-1號","121.519406666667","24.9612583333333","6500600","新店區"
"231049","513-UM","2018/10/27 18:39:53","新北市新店區安一路一段1-1號","121.519636666667","24.9612366666667","6500600","新店區"
"231044","618-UM","2018/10/27 18:39:46","新北市新店區安康路一段9-2號","121.533958333333","24.9606416666667","6500600","新店區"
"231061","619-UM","2018/10/27 18:40:00","新北市新店區安華路28-1號","121.519348333333","24.96065","6500600","新店區"
"231063","641-BX","2018/10/27 18:39:57","新北市新店區安華路28-1號","121.519725","24.9609483333333","6500600","新店區"
"231064","719-UM","2018/10/27 18:39:39","新北市新店區安一路一段1-1號","121.519535","24.9611866666667","6500600","新店區"
"231062","720-UM","2018/10/27 18:39:51","新北市新店區安一路一段1-1號","121.519243333333","24.9611816666667","6500600","新店區"
"231060","897-TW","2018/10/27 18:39:59","新北市新店區安華路28-1號","121.5194","24.9606966666667","6500600","新店區"
"231045","898-TW","2018/10/27 18:39:50","新北市新店區安華路28-1號","121.519301666667","24.9607716666667","6500600","新店區"
"231055","AKT-0513","2018/10/27 18:39:56","新北市新店區華興街38巷5號","121.53706","24.969285","6500600","新店區"
"251014","742-BX","2018/10/27 18:39:52","新北市淡水區崙頂12-8號","121.495546666667","25.2172233333333","6501000","淡水區"
"235066","003-UY","2018/10/27 18:39:58","新北市中和區水源路34巷1號","121.505008333333","25.0035733333333","6500300","中和區"
"235064","005-UY","2018/10/27 18:39:52","新北市中和區連城路109巷42號","121.497253333333","24.99784","6500300","中和區"
"235063","006-UY","2018/10/27 18:39:53","新北市中和區連城路347巷4弄33號","121.48685","24.995565","6500300","中和區"
"235056","096-UM","2018/10/27 18:39:52","新北市中和區員山路611巷5弄5號","121.478115","25.011245","6500300","中和區"
"235039","097-UM","2018/10/27 18:39:48","新北市永和區中正路51號","121.514361666667","24.996495","6500300","中和區"
"235065","098-UM","2018/10/27 18:39:52","新北市中和區中山路二段2巷45弄44號","121.501738333333","25.0062816666667","6500300","中和區"
"235040","150-BY","2018/10/27 18:39:43","新北市中和區安平路59號","121.509521666667","24.9952416666667","6500300","中和區"
"235058","151-BY","2018/10/27 18:39:52","新北市中和區員山路37-10號","121.482145","24.9904916666667","6500300","中和區"
"235055","183-VK","2018/10/27 18:39:43","新北市中和區中山路三段229巷43號","121.469443333333","25.0056916666667","6500300","中和區"
"235038","185-VK","2018/10/27 18:39:40","新北市中和區立人街14巷40弄2號","121.519136666667","24.9955633333333","6500300","中和區"
"235049","186-VK","2018/10/27 18:39:44","新北市中和區景平路510號","121.503796666667","24.9938166666667","6500300","中和區"
"235067","255-BX","2018/10/27 18:39:46","新北市中和區中山路二段449號","121.484006666667","25.00501","6500300","中和區"
"235044","293-VK","2018/10/27 18:39:40","新北市中和區復興路280巷15號","121.502216666667","24.9913616666667","6500300","中和區"
"235072","301-VK","2018/10/27 18:39:57","新北市中和區中山路二段89號","121.503463333333","25.0042266666667","6500300","中和區"
"235043","352-BY","2018/10/27 18:39:50","新北市中和區景平路105號","121.516881666667","24.9917516666667","6500300","中和區"
"247012","KEA-2869","2018/10/27 18:39:51","新北市八里區中山路三段382號","121.368705","25.135845","6501400","蘆洲區"
"235050","4979-A6","2018/10/27 18:39:59","新北市中和區忠孝街124巷10號","121.512855","24.985955","6500300","中和區"
"235069","4980-A6","2018/10/27 18:39:59","新北市中和區連城路87號","121.496908333333","25.0003883333333","6500300","中和區"
"235042","551-UM","2018/10/27 18:39:51","新北市中和區成功路97巷2號","121.526688333333","24.991735","6500300","中和區"
"235070","558-UM","2018/10/27 18:39:49","新北市中和區景平路614號","121.500661666667","24.9969416666667","6500300","中和區"
"235045","565-BX","2018/10/27 18:39:44","新北市中和區南山路236巷23弄2號","121.505513333333","24.98852","6500300","中和區"
"235054","640-BX","2018/10/27 18:39:45","新北市中和區莒光路70號","121.472285","25.003135","6500300","中和區"
"235060","647-TV","2018/10/27 18:40:02","新北市中和區中山路三段38號","121.4788","25.0059316666667","6500300","中和區"
"235047","732-UM","2018/10/27 18:39:43","新北市中和區南山路320巷10弄21號","121.506788333333","24.986735","6500300","中和區"
"235046","733-UM","2018/10/27 18:39:57","新北市中和區忠孝街103號","121.512","24.9863033333333","6500300","中和區"
"235062","800-TS","2018/10/27 18:39:44","新北市中和區中山路二段284號","121.49619","25.0025916666667","6500300","中和區"
"235057","801-TS","2018/10/27 18:40:01","新北市中和區員山路327巷10號","121.480883333333","25.0012216666667","6500300","中和區"
"235041","802-TS","2018/10/27 18:39:47","新北市中和區中安街192號","121.511378333333","24.999145","6500300","中和區"
"235052","805-TS","2018/10/27 18:39:49","新北市中和區興南路三段52號","121.49494","24.9762383333333","6500300","中和區"
"235048","896-TW","2018/10/27 18:39:59","新北市中和區南山路250巷2號","121.507716666667","24.9889883333333","6500300","中和區"
"235053","900-TW","2018/10/27 18:39:46","新北市中和區莒光路213號","121.469025","24.9947083333333","6500300","中和區"
"235051","157-BY","2018/10/27 18:39:59","新北市中和區華新街143巷54號","121.505966666667","24.979725","6500300","中和區"
"235037","AAC-213","2018/10/27 18:39:56","新北市中和區景德街56號","121.517446666667","24.9914766666667","6500300","中和區"
"235059","AAC-215","2018/10/27 18:39:52","新北市中和區錦和路350-1號","121.49065","24.9935633333333","6500300","中和區"
"220065","072-UY","2018/10/27 18:39:48","新北市板橋區民族路247巷5弄42號","121.47022","25.008435","6500100","板橋區"
"220086","073-UY","2018/10/27 18:39:59","新北市板橋區南雅西路二段180巷15號","121.452745","25.013975","6500100","板橋區"
"226004","312-R5","2018/10/27 18:39:42","新北市平溪區石底里公園街18-3號","121.733418333333","25.025755","6502400","平溪區"
"228003","097-TW","2018/10/27 18:39:47","新北市貢寮區和美里龍洞街38-1號","121.915805","25.1116166666667","6502600","貢寮區"
"228001","212-TW","2018/10/27 18:39:57","新北市貢寮區仁理村研海街12-1號","121.923765","25.0516516666667","6502600","貢寮區"
"228002","585-TW","2018/10/27 18:39:57","新北市貢寮區福隆里東興街6-11號","121.950733333333","25.021065","6502600","貢寮區"
"224010","AGQ-8101","2018/10/27 18:39:55","新北市瑞芳區烏勢巷118號","121.846348333333","25.10814","6501200","瑞芳區"
"224006","676-BX","2018/10/27 18:39:41","新北市瑞芳區明燈路三段55號","121.806033333333","25.1081216666667","6501200","瑞芳區"
"224002","639-TC","2018/10/27 18:39:57","新北市瑞芳區中山路257號","121.797253333333","25.1098616666667","6501200","瑞芳區"
"224008","285-BY","2018/10/27 18:39:52","新北市瑞芳區逢甲路189號","121.804808333333","25.1105466666667","6501200","瑞芳區"
"224007","275-VK","2018/10/27 18:39:48","新北市瑞芳區大埔路115巷11號","121.763301666667","25.1010516666667","6501200","瑞芳區"
"224009","273-VK","2018/10/27 18:39:56","新北市瑞芳區祈堂路105號","121.859033333333","25.10939","6501200","瑞芳區"
"224005","271-BY","2018/10/27 18:39:42","新北市瑞芳區建基路一段4-2號","121.820691666667","25.121035","6501200","瑞芳區"
"227002","642-TC","2018/10/27 18:39:48","新北市雙溪區魚行里坤溪3-5號","121.876225","25.0208083333333","6502500","雙溪區"
"227010","400-TW","2018/10/27 18:39:47","新北市雙溪區牡丹里牡丹154號","121.850681666667","25.0585483333333","6502500","雙溪區"
"253006","032-BX","2018/10/27 18:39:40","新北市石門區八甲1-7號","121.521091666667","25.283805","6502200","石門區"
"253005","295-VK","2018/10/27 18:39:45","新北市石門區中山路64號","121.567116666667","25.290745","6502200","石門區"
"222001","KEA-2212","2018/10/27 18:39:50","新北市深坑區北深路一段84號","121.636261666667","25.0106866666667","6501800","深坑區"
"208002","KEA-2872","2018/10/27 18:39:41","新北市金山區仁愛路15-7號","121.638448333333","25.218885","6502700","金山區"
"208003","665-BX","2018/10/27 18:39:48","新北市金山區中山路270號","121.635288333333","25.2241166666667","6502700","金山區"
"208001","761-BX","2018/10/27 18:39:57","新北市金山區文化三路9號","121.635278333333","25.2248733333333","6502700","金山區"
"251005","010-UM","2018/10/27 18:39:42","新北市淡水區中山路141號","121.440793333333","25.1718016666667","6501000","淡水區"
"251002","012-UM","2018/10/27 18:39:41","新北市淡水區中正東路一段3巷14弄1號","121.450946666667","25.16416","6501000","淡水區"
"251013","KEA-2871","2018/10/27 18:39:45","新北市淡水區雲廣坑5號","121.473301666667","25.2126716666667","6501000","淡水區"
"251016","179-VK","2018/10/27 18:39:42","新北市淡水區下圭柔山76-12號","121.443385","25.2056733333333","6501000","淡水區"
"251008","181-VK","2018/10/27 18:39:44","新北市淡水區北投子19-8號","121.453928333333","25.183915","6501000","淡水區"
"251015","182-VK","2018/10/27 18:39:56","新北市淡水區興福寮66巷309號","121.485246666667","25.1617516666667","6501000","淡水區"
"251010","413-VK","2018/10/27 18:39:42","新北市淡水區沙崙路145號","121.423338333333","25.1830766666667","6501000","淡水區"
"251012","441-VK","2018/10/27 18:39:51","新北市淡水區北新路136號","121.44828","25.17834","6501000","淡水區"
"251001","559-UM","2018/10/27 18:39:47","新北市淡水區自強路166號","121.465671666667","25.1340916666667","6501000","淡水區"
"251006","561-UM","2018/10/27 18:39:46","新北市淡水區崁頂36號","121.438971666667","25.1946583333333","6501000","淡水區"
"251011","650-BX","2018/10/27 18:39:51","新北市淡水區鄧公路18號","121.450735","25.16957","6501000","淡水區"
"251003","673-BX","2018/10/27 18:39:51","新北市淡水區北新路69巷26號","121.446728333333","25.180035","6501000","淡水區"
"207003","550-UM","2018/10/27 18:39:55","新北市萬里區野柳里港西路48號","121.681415","25.2033783333333","6502800","萬里區"
"207004","225-TW","2018/10/27 18:39:56","新北市萬里區萬里里獅頭路10-1號","121.692053333333","25.1786533333333","6502800","萬里區"
"252002","178-VK","2018/10/27 18:39:51","新北市三芝區民生街56號","121.503595","25.2557233333333","6502100","三芝區"
"252003","249-BX","2018/10/27 18:39:58","新北市三芝區後厝里土地公坑54-17號","121.46597","25.24958","6502100","三芝區"
"252001","292-VK","2018/10/27 18:39:43","新北市三芝區中正路三段30號","121.502146666667","25.2526233333333","6502100","三芝區"
"237004","KEA-2597","2018/10/27 18:39:55","新北市三峽區插角82號","121.406158333333","24.8709133333333","6500900","三峽區"
"237007","153-BY","2018/10/27 18:40:00","新北市三峽區中正路三段262號","121.337613333333","24.89798","6500900","三峽區"
"237009","210-TH","2018/10/27 18:39:47","新北市三峽區大同路258號","121.365713333333","24.92534","6500900","三峽區"
"237013","252-BX","2018/10/27 18:39:45","新北市三峽區光明路69巷25號","121.376531666667","24.9291866666667","6500900","三峽區"
"237012","275-BY","2018/10/27 18:39:49","新北市三峽區三樹路322號","121.381373333333","24.9440833333333","6500900","三峽區"
"237008","302-VK","2018/10/27 18:40:01","新北市三峽區白雞115-7號","121.400806666667","24.90675","6500900","三峽區"
"237014","433-BY","2018/10/27 18:39:44","新北市三峽區復興路480巷52-1號","121.361823333333","24.9410566666667","6500900","三峽區"
"237006","5529-G3","2018/10/27 18:39:53","新北市三峽區溪東路371巷2弄1號","121.412011666667","24.9296466666667","6500900","三峽區"
"237011","KEA-2596","2018/10/27 18:39:51","新北市三峽區溪東路215號","121.406128333333","24.9328483333333","6500900","三峽區"
"237016","649-BX","2018/10/27 18:39:54","新北市三峽區竹崙路68號","121.432178333333","24.9191383333333","6500900","三峽區"
"237010","706-TV","2018/10/27 18:39:56","新北市三峽區復興路489號","121.361256666667","24.93844","6500900","三峽區"
"237005","AKY-6261","2018/10/27 18:39:44","新北市三峽區新興街12號","121.372631666667","24.93571","6500900","三峽區"
"236070","105-UM","2018/10/27 18:39:56","新北市土城區永豐路157巷29弄6-1號","121.468373333333","24.9814683333333","6501300","土城區"
"236079","166-UM","2018/10/27 18:39:59","新北市土城區頂埔街22-1號","121.417011666667","24.958795","6501300","土城區"
"236030","253-BX","2018/10/27 18:39:57","新北市土城區慶利街28巷2號","121.439106666667","24.9743083333333","6501300","土城區"
"236026","269-VK","2018/10/27 18:39:46","新北市土城區和平路49號","121.443555","24.972035","6501300","土城區"
"236014","270-VK","2018/10/27 18:39:59","新北市土城區清水路207巷17號","121.459816666667","24.9823483333333","6501300","土城區"
"236038","271-VK","2018/10/27 18:40:02","新北市土城區明德路一段313巷26號","121.459585","24.9761333333333","6501300","土城區"
"236021","401-BY","2018/10/27 18:39:47","新北市土城區延吉街270號","121.465856666667","24.9844516666667","6501300","土城區"
"236042","752-BX","2018/10/27 18:39:47","新北市土城區學成路108巷11號","121.450161666667","24.9896866666667","6501300","土城區"
"236059","912-UM","2018/10/27 18:39:49","新北市土城區中央路三段149號","121.432208333333","24.9654733333333","6501300","土城區"
"236049","913-UM","2018/10/27 18:39:57","新北市土城區青雲路107-1號","121.459088333333","24.9854266666667","6501300","土城區"
"236063","915-UM","2018/10/27 18:39:47","新北市土城區延壽路13巷38號","121.469965","24.9913883333333","6501300","土城區"
"236055","AAC-216","2018/10/27 18:39:55","新北市土城區裕民路41號","121.44846","24.988185","6501300","土城區"
"242058","986-R7","2018/10/27 18:39:49","新北市新莊區中正路879-6號","121.417735","25.0261966666667","6500500","新莊區"
"242046","400-BY","2018/10/27 18:39:39","新北市新莊區民安路21號","121.423008333333","25.0278766666667","6500500","新莊區"
"242004","349-TH","2018/10/27 18:39:52","新北市新莊區三和路12-21號","121.442136666667","25.0384316666667","6500500","新莊區"
"238023","601-UM","2018/10/27 18:39:39","新北市樹林區三福街114號","121.406465","25.016285","6500700","樹林區"
"238018","571-TV","2018/10/27 18:39:48","新北市樹林區鎮前街160號","121.424436666667","24.990135","6500700","樹林區"
"238024","5061-A6","2018/10/27 18:39:40","新北市樹林區太順街49巷20弄18號","121.417711666667","24.9783816666667","6500700","樹林區"
"238025","303-VK","2018/10/27 18:39:55","新北市樹林區中山路三段22號","121.395578333333","24.9729366666667","6500700","樹林區"
"238017","283-BY","2018/10/27 18:39:57","新北市樹林區光興街50號","121.409875","25.0027366666667","6500700","樹林區"
"238014","282-BY","2018/10/27 18:39:42","新北市樹林區大安路111巷25號","121.42323","24.997555","6500700","樹林區"
"238020","268-VK","2018/10/27 18:39:46","新北市樹林區俊安街29號","121.420015","25.0132483333333","6500700","樹林區"
"238026","172-UY","2018/10/27 18:39:43","新北市樹林區八德街638號","121.396755","24.96942","6500700","樹林區"
"238016","169-UY","2018/10/27 18:39:57","新北市樹林區文化街28號","121.419258333333","24.9877166666667","6500700","樹林區"
"239007","AAC-297","2018/10/27 18:39:46","新北市鶯歌區中山路108號","121.350731666667","24.9570066666667","6500800","鶯歌區"
"239006","891-R6","2018/10/27 18:39:56","新北市鶯歌區鶯桃路296巷53號","121.335888333333","24.9613516666667","6500800","鶯歌區"
"239008","527-UM","2018/10/27 18:39:58","新北市鶯歌區國際一路179號","121.336223333333","24.9765366666667","6500800","鶯歌區"
"239005","526-UM","2018/10/27 18:39:39","新北市鶯歌區鳳吉二街42號","121.3263","24.973495","6500800","鶯歌區"
"239001","417-VK","2018/10/27 18:39:59","新北市鶯歌區鶯桃路39-2號","121.342588333333","24.9510116666667","6500800","鶯歌區"
"239003","360-BY","2018/10/27 18:39:52","新北市鶯歌區鶯桃路632號","121.329626666667","24.9687816666667","6500800","鶯歌區"
"239002","359-BY","2018/10/27 18:39:44","新北市鶯歌區中山路315號","121.344041666667","24.9569016666667","6500800","鶯歌區"
"239004","193-VK","2018/10/27 18:39:50","新北市鶯歌區中正三路196號","121.332771666667","24.9382133333333","6500800","鶯歌區"
"221036","130-UY","2018/10/27 18:39:46","新北市汐止區水碓街26巷1號","121.664425","25.0696583333333","6501100","汐止區"
"221015","131-UY","2018/10/27 18:39:58","新北市汐止區吉祥街3號","121.668051666667","25.0799816666667","6501100","汐止區"
"221010","269-BY","2018/10/27 18:39:51","新北市汐止區汐萬路一段391號","121.649563333333","25.0786016666667","6501100","汐止區"
"221012","278-VK","2018/10/27 18:39:46","新北市汐止區長江街69號","121.656856666667","25.0719716666667","6501100","汐止區"
"221023","279-VK","2018/10/27 18:39:53","新北市汐止區康寧街625號","121.637386666667","25.0720666666667","6501100","汐止區"
"221032","280-BY","2018/10/27 18:39:43","新北市汐止區民權街二段79號","121.619165","25.048025","6501100","汐止區"
"221027","281-BY","2018/10/27 18:39:48","新北市汐止區汐萬路一段256巷3號","121.653341666667","25.0746866666667","6501100","汐止區"
"221029","298-VK","2018/10/27 18:39:52","新北市汐止區樟樹一路131號","121.642061666667","25.0650483333333","6501100","汐止區"
"221021","299-VK","2018/10/27 18:39:43","新北市汐止區南興路9號","121.652038333333","25.0625883333333","6501100","汐止區"
"221031","353-TW","2018/10/27 18:39:45","新北市汐止區福德一路272巷9號","121.631888333333","25.064255","6501100","汐止區"
"221035","622-UM","2018/10/27 18:39:59","新北市汐止區汐萬路一段24號","121.655743333333","25.0679666666667","6501100","汐止區"
"221025","623-UM","2018/10/27 18:39:53","新北市汐止區仁愛路119巷5號","121.662508333333","25.0638516666667","6501100","汐止區"
"221038","646-BX","2018/10/27 18:39:58","新北市汐止區汐萬路一段312號","121.650645","25.0752766666667","6501100","汐止區"
"221002","707-TV","2018/10/27 18:39:59","新北市汐止區大同路一段233-1號","121.634403333333","25.0576583333333","6501100","汐止區"
"221018","753-BX","2018/10/27 18:39:52","新北市汐止區茄苳路301號","121.673248333333","25.0670033333333","6501100","汐止區"
"220079","145-BY","2018/10/27 18:39:58","新北市板橋區館前西路162號","121.4529","25.0085516666667","6500100","板橋區"
"220080","200-UY","2018/10/27 18:37:01","新北市板橋區大觀路二段265巷76弄36號","121.441085","24.996915","6500100","板橋區"
"220082","610-BX","2018/10/27 18:39:51","新北市板橋區篤行路二段73號","121.431658333333","24.9919766666667","6500100","板橋區"
"220103","257-TC","2018/10/27 18:39:53","新北市板橋區民生路二段120號","121.47043","25.0200133333333","6500100","板橋區"
"220056","276-BY","2018/10/27 18:39:58","新北市板橋區四川路二段140巷16弄28號","121.44862","24.9943716666667","6500100","板橋區"
"220072","277-BY","2018/10/27 18:39:58","新北市板橋區大觀路三段131號","121.432473333333","24.9941866666667","6500100","板橋區"
"220057","282-UM","2018/10/27 18:40:01","新北市板橋區南雅南路二段118號","121.452311666667","25.000255","6500100","板橋區"
"220094","283-UM","2018/10/27 18:39:55","新北市板橋區民生路二段161巷1號","121.470043333333","25.0198533333333","6500100","板橋區"
"220071","283-VK","2018/10/27 18:39:51","新北市板橋區四川路二段71號","121.45324","24.9950666666667","6500100","板橋區"
"220083","286-VK","2018/10/27 18:39:51","新北市板橋區大觀路二段20-2號","121.446733333333","25.0033083333333","6500100","板橋區"
"220081","287-VK","2018/10/27 18:39:58","新北市板橋區大觀路二段55號","121.446653333333","25.002815","6500100","板橋區"
"220062","295-UM","2018/10/27 18:39:41","新北市板橋區民生路二段120號","121.470418333333","25.0197016666667","6500100","板橋區"
"220084","296-UM","2018/10/27 18:39:51","新北市板橋區板城路327號","121.449391666667","24.997675","6500100","板橋區"
"220075","303-R5","2018/10/27 18:39:55","新北市板橋區館前西路160巷13號","121.451823333333","25.0091583333333","6500100","板橋區"
"220064","486-VK","2018/10/27 18:39:48","新北市板橋區縣民大道一段269號","121.46043","25.009555","6500100","板橋區"
"220035","560-BX","2018/10/27 18:39:54","新北市板橋區南雅西路二段160號","121.451698333333","25.0135116666667","6500100","板橋區"
"220063","609-BX","2018/10/27 18:39:53","新北市板橋區民生路二段161巷1號","121.469911666667","25.0201233333333","6500100","板橋區"
"220077","687-BX","2018/10/27 18:39:54","新北市板橋區大觀路二段174巷114弄4號","121.441035","25.0015916666667","6500100","板橋區"
"220054","741-BX","2018/10/27 18:39:44","新北市板橋區南雅南路二段4巷18號","121.453621666667","25.0037033333333","6500100","板橋區"
"220055","827-TW","2018/10/27 18:39:57","新北市板橋區南雅南路二段4巷20號","121.453536666667","25.00367","6500100","板橋區"
"220067","829-TW","2018/10/27 18:39:49","新北市板橋區民生路二段120號","121.470331666667","25.0199466666667","6500100","板橋區"
"220074","895-R6","2018/10/27 18:39:40","新北市板橋區館前西路125號","121.456553333333","25.0073033333333","6500100","板橋區"
"220073","985-R7","2018/10/27 18:40:02","新北市板橋區館前西路81號","121.457363333333","25.0071666666667","6500100","板橋區"
"220070","AAC-253","2018/10/27 18:39:45","新北市板橋區南雅南路二段116號","121.452435","25.00034","6500100","板橋區"
"235068","KEA-2873","2018/10/27 18:39:46","新北市中和區中正路137號","121.499486666667","24.9936733333333","6500300","中和區"
"235061","KEA-2875","2018/10/27 18:39:44","新北市中和區民享街52號","121.474025","25.0025183333333","6500300","中和區"
