"lineid","car","time","location","longitude","latitude","cityid","cityname"
"251014","742-BX","2018/10/27 21:49:32","新北市淡水區崁頂72-1號","121.438423333333","25.202305","6501000","淡水區"
"247012","KEA-2869","2018/10/27 21:49:47","新北市八里區中山路三段409號","121.3688","25.1356416666667","6501400","蘆洲區"
"251009","008-UM","2018/10/27 21:49:49","新北市淡水區民族路35巷26號","121.464653333333","25.1367266666667","6501000","淡水區"
"251005","010-UM","2018/10/27 21:49:35","新北市淡水區鄧公路30巷22號","121.453333333333","25.16975","6501000","淡水區"
"251002","012-UM","2018/10/27 21:49:38","新北市淡水區學府路206號","121.447503333333","25.1763333333333","6501000","淡水區"
"251008","181-VK","2018/10/27 21:49:45","新北市淡水區學府路104號","121.449855","25.171825","6501000","淡水區"
"251010","413-VK","2018/10/27 21:49:42","新北市淡水區中正路二段211號","121.426153333333","25.1889766666667","6501000","淡水區"
"251012","441-VK","2018/10/27 21:49:48","新北市淡水區淡金路三段305號","121.44895","25.205395","6501000","淡水區"
"251007","442-VK","2018/10/27 21:49:38","新北市淡水區水源街二段177巷70號","121.452346666667","25.1775016666667","6501000","淡水區"
"251004","443-VK","2018/10/27 21:49:52","新北市淡水區自強路201巷39號","121.462136666667","25.126855","6501000","淡水區"
"251006","561-UM","2018/10/27 21:49:46","新北市淡水區中正路11巷3號","121.437838333333","25.170765","6501000","淡水區"
"251011","650-BX","2018/10/27 21:49:51","新北市淡水區新民街322巷9號","121.4364","25.1829","6501000","淡水區"
"251003","673-BX","2018/10/27 21:49:51","新北市淡水區新春街90號","121.43886","25.1823716666667","6501000","淡水區"
"220070","AAC-253","2018/10/27 21:49:45","新北市板橋區華東街1-9號","121.448116666667","24.9949133333333","6500100","板橋區"
