"lineid","car","time","location","longitude","latitude","cityid","cityname"
"235010","733-UM","2018/10/27 21:54:50","新北市中和區員山路36巷13號","121.484155","24.9907916666667","6500300","中和區"
"251005","010-UM","2018/10/27 21:59:35","新北市淡水區鄧公路30巷2弄1號","121.452463333333","25.169305","6501000","淡水區"
"251008","181-VK","2018/10/27 21:59:45","新北市淡水區學府路104號","121.449816666667","25.1718616666667","6501000","淡水區"
"251010","413-VK","2018/10/27 21:59:42","新北市淡水區中正路二段206號","121.42617","25.1889783333333","6501000","淡水區"
"251007","442-VK","2018/10/27 21:59:38","新北市淡水區北新路184巷59號","121.45118","25.1777016666667","6501000","淡水區"
"251004","443-VK","2018/10/27 21:59:32","新北市淡水區自強路283-3號","121.46131","25.1281233333333","6501000","淡水區"
"251006","561-UM","2018/10/27 21:59:46","新北市淡水區中正路11巷3號","121.437843333333","25.1707666666667","6501000","淡水區"
"251011","650-BX","2018/10/27 21:59:51","新北市淡水區水碓街7號","121.443148333333","25.1770983333333","6501000","淡水區"
"251003","673-BX","2018/10/27 21:59:51","新北市淡水區新春街83號","121.438815","25.1824566666667","6501000","淡水區"
