"lineid","car","time","location","longitude","latitude","cityid","cityname"
"235010","733-UM","2018/10/27 21:54:50","新北市中和區員山路36巷13號","121.484155","24.9907916666667","6500300","中和區"
"247007","336-TH","2018/10/27 22:19:48","新北市五股區中興路三段2巷10號","121.449045","25.0810683333333","6501400","蘆洲區"
"251008","181-VK","2018/10/27 22:19:45","新北市淡水區學府路104號","121.449846666667","25.1718516666667","6501000","淡水區"
"251010","413-VK","2018/10/27 22:19:42","新北市淡水區沙崙路200號","121.424723333333","25.1839183333333","6501000","淡水區"
"251007","442-VK","2018/10/27 22:19:38","新北市淡水區北新路180號","121.449418333333","25.1787066666667","6501000","淡水區"
"251004","443-VK","2018/10/27 22:19:52","新北市淡水區民族路33號","121.462305","25.1357716666667","6501000","淡水區"
"251011","650-BX","2018/10/27 22:19:51","新北市淡水區水碓街7號","121.443178333333","25.1771516666667","6501000","淡水區"
