"lineid","car","time","location","longitude","latitude","cityid","cityname"
"244018","402-UM","2018/12/20 09:29:18","新北市林口區麗園二街23巷88號","121.380596666667","25.070275","6501700","林口區"
"244012","KEA-2802","2018/12/20 09:29:22","新北市林口區麗園一街4巷1號","121.376535","25.0712766666667","6501700","林口區"
"244022","483-VK","2018/12/20 09:29:28","新北市林口區仁愛路二段71號","121.3849","25.0756116666667","6501700","林口區"
"244016","485-VK","2018/12/20 09:29:25","新北市林口區文化二路一段68巷18-2號","121.366106666667","25.0678866666667","6501700","林口區"
"244008","656-BX","2018/12/20 09:29:36","新北市林口區竹林路358巷6號","121.392093333333","25.08414","6501700","林口區"
"244006","657-BX","2018/12/20 09:29:29","新北市林口區後湖11-62號","121.383831666667","25.0995116666667","6501700","林口區"
"244010","701-TV","2018/12/20 09:29:24","新北市林口區中正路290號","121.38868","25.077815","6501700","林口區"
"222006","289-BY","2018/12/20 09:28:47","新北市深坑區昇高坑路50-1號","121.629378333333","24.9963266666667","6501800","深坑區"
"231069","189-VK","2018/12/20 09:29:26","新北市新店區新潭路三段215巷25號","121.508121666667","24.9040966666667","6500600","新店區"
"231008","192-VK","2018/12/20 09:28:34","新北市新店區平廣路一段151號","121.522443333333","24.8911933333333","6500600","新店區"
"231007","515-UM","2018/12/20 09:29:27","新北市新店區翠峰路85巷10號","121.581208333333","24.9343333333333","6500600","新店區"
"223006","022-BY","2018/12/20 09:29:19","新北市石碇區小粗坑(潭邊里)9-1號","121.677768333333","24.9847933333333","6501900","石碇區"
"223003","205-TH","2018/12/20 09:29:24","新北市石碇區北宜路四段30號","121.623535","24.9570616666667","6501900","石碇區"
"223008","406-TH","2018/12/20 09:29:34","新北市石碇區光明路32號","121.695211666667","25.0224816666667","6501900","石碇區"
"223001","592-UM","2018/12/20 09:29:26","新北市石碇區北宜路四段6號","121.613335","24.9607283333333","6501900","石碇區"
"223005","677-TV","2018/12/20 09:29:22","新北市石碇區碇坪路一段137號","121.67495","24.98098","6501900","石碇區"
"252004","249-BX","2018/12/20 09:29:38","新北市三芝區店子里店子112-4號","121.51048","25.2096533333333","6502100","三芝區"
"252007","AAC-283","2018/12/20 09:29:35","新北市三芝區新庄里新庄子92號","121.510563333333","25.268495","6502100","三芝區"
"242035","AAC-296","2018/12/20 09:28:56","新北市新莊區後港一路46巷6號","121.426231666667","25.025775","6500500","新莊區"
"242057","986-R7","2018/12/20 09:29:29","新北市新莊區四維路201號","121.42194","25.0205883333333","6500500","新莊區"
"242024","613-BX","2018/12/20 09:29:36","新北市新莊區新北大道二段302號","121.464578333333","25.0612933333333","6500500","新莊區"
"242043","566-BX","2018/12/20 09:29:27","新北市新莊區中正路新建巷28弄2號","121.414165","25.0218083333333","6500500","新莊區"
"242047","497-BY","2018/12/20 09:29:20","新北市新莊區中正路582號","121.427358333333","25.0304416666667","6500500","新莊區"
"242001","440-UM","2018/12/20 09:29:25","新北市新莊區中港路五守新村37巷1號","121.454626666667","25.038785","6500500","新莊區"
"242038","415-TV","2018/12/20 09:29:26","新北市新莊區新樹路166號","121.434866666667","25.022395","6500500","新莊區"
"242045","400-BY","2018/12/20 09:29:28","新北市新莊區裕民街72巷19號","121.417826666667","25.0243016666667","6500500","新莊區"
"242059","353-BY","2018/12/20 09:29:21","新北市新莊區瓊林路100巷1號","121.44347","25.0264266666667","6500500","新莊區"
"242010","132-UY","2018/12/20 09:29:27","新北市新莊區中榮街104巷23號","121.446863333333","25.05364","6500500","新莊區"
"242033","135-UY","2018/12/20 09:29:23","新北市新莊區中正路248號","121.44798","25.0354083333333","6500500","新莊區"
"242052","346-TH","2018/12/20 09:29:25","新北市新莊區西盛街324巷19號","121.427203333333","25.0147466666667","6500500","新莊區"
"242030","348-TH","2018/12/20 09:29:22","新北市新莊區三泰路1號","121.44066","25.0339816666667","6500500","新莊區"
"242003","349-TH","2018/12/20 09:29:31","新北市新莊區頭前路30號","121.467668333333","25.052525","6500500","新莊區"
"242040","281-VK","2018/12/20 09:29:28","新北市新莊區天祥街47巷10號","121.416245","25.02816","6500500","新莊區"
"242055","280-VK","2018/12/20 09:29:27","新北市新莊區瓊泰路209號","121.44314","25.032395","6500500","新莊區"
