"lineid","car","time","location","longitude","latitude","cityid","cityname"
"244018","402-UM","2018/12/20 09:39:29","新北市林口區麗園二街85號","121.382363333333","25.0674866666667","6501700","林口區"
"244022","483-VK","2018/12/20 09:39:28","新北市林口區四維路245巷43號","121.382535","25.0753583333333","6501700","林口區"
"244016","485-VK","2018/12/20 09:39:25","新北市林口區文化二路一段20巷25弄4號","121.366023333333","25.0678833333333","6501700","林口區"
"244008","656-BX","2018/12/20 09:39:36","新北市林口區台電新村146號","121.388796666667","25.0877333333333","6501700","林口區"
"244010","701-TV","2018/12/20 09:39:24","新北市林口區中正路264巷19號","121.388593333333","25.0782833333333","6501700","林口區"
"222006","289-BY","2018/12/20 09:39:27","新北市深坑區昇高坑路34號","121.627008333333","24.9990633333333","6501800","深坑區"
"231069","189-VK","2018/12/20 09:39:26","新北市新店區新潭路三段215巷25號","121.508125","24.904165","6500600","新店區"
"231008","192-VK","2018/12/20 09:36:43","新北市新店區平廣路一段270-2號","121.504571666667","24.8863533333333","6500600","新店區"
"231007","515-UM","2018/12/20 09:39:27","新北市新店區翠峰路65號","121.580451666667","24.9371566666667","6500600","新店區"
"223008","406-TH","2018/12/20 09:39:34","新北市石碇區西勢坑7號","121.704131666667","24.9950416666667","6501900","石碇區"
"223001","592-UM","2018/12/20 09:39:26","新北市石碇區北宜路五段34號","121.631133333333","24.95238","6501900","石碇區"
"252004","249-BX","2018/12/20 09:39:38","新北市三芝區圓山里石曹子坑44號","121.518363333333","25.2147483333333","6502100","三芝區"
"252007","AAC-283","2018/12/20 09:39:35","新北市三芝區新庄里新庄子113號","121.516961666667","25.266475","6502100","三芝區"
"242035","AAC-296","2018/12/20 09:39:36","新北市新莊區中正路589號","121.434261666667","25.032525","6500500","新莊區"
"242057","986-R7","2018/12/20 09:39:29","新北市新莊區四維路129-1號","121.422891666667","25.0226133333333","6500500","新莊區"
"242024","613-BX","2018/12/20 09:39:36","新北市新莊區中智街50號","121.448315","25.0552233333333","6500500","新莊區"
"242043","566-BX","2018/12/20 09:39:27","新北市新莊區中正路新建巷15弄2號","121.41441","25.0224166666667","6500500","新莊區"
"242047","497-BY","2018/12/20 09:39:20","新北市新莊區新莊路773號","121.442013333333","25.03273","6500500","新莊區"
"242001","440-UM","2018/12/20 09:39:25","新北市新莊區瓊泰路77巷16號","121.442588333333","25.0293416666667","6500500","新莊區"
"242045","400-BY","2018/12/20 09:39:22","新北市新莊區富國路22巷17號","121.418406666667","25.0258366666667","6500500","新莊區"
"242059","353-BY","2018/12/20 09:39:28","新北市新莊區新樹路234巷17號","121.431801666667","25.0200433333333","6500500","新莊區"
"242030","348-TH","2018/12/20 09:39:25","新北市新莊區三和路20-6號","121.43926","25.0375133333333","6500500","新莊區"
"242003","349-TH","2018/12/20 09:39:26","新北市新莊區化成路403巷4號","121.464571666667","25.0587816666667","6500500","新莊區"
"242055","280-VK","2018/12/20 09:39:27","新北市新莊區瓊泰路68號","121.443283333333","25.0288116666667","6500500","新莊區"
