"lineid","car","time","location","longitude","latitude","cityid","cityname"
"234078","298-R6","2018/12/20 12:38:56","新北市永和區環河東路三段54號","121.526843333333","25.0061933333333","6500400","永和區"
"234036","336-UY","2018/12/20 12:39:09","新北市永和區福和路1號","121.5266","25.01009","6500400","永和區"
"234062","337-UY","2018/12/20 12:38:58","新北市永和區福和路1號","121.526698333333","25.0101433333333","6500400","永和區"
"234068","552-UM","2018/12/20 12:39:10","新北市永和區福和路1號","121.525605","25.0096383333333","6500400","永和區"
"234015","745-BX","2018/12/20 12:39:10","新北市永和區福和路1號","121.526301666667","25.0094866666667","6500400","永和區"
"234028","746-BX","2018/12/20 12:38:53","新北市永和區環河東路三段50號","121.52678","25.00632","6500400","永和區"
"234005","839-RS","2018/12/20 12:39:05","新北市永和區福和路1號","121.52661","25.010105","6500400","永和區"
"234084","748-BX","2018/12/20 12:38:54","新北市中和區安樂路69號","121.512388333333","24.99386","6500400","永和區"
"234010","9373-KE","2018/12/20 12:38:57","新北市永和區福和路1號","121.525618333333","25.0093516666667","6500400","永和區"
"234022","9380-KE","2018/12/20 12:38:57","新北市永和區福和路1號","121.525546666667","25.0095016666667","6500400","永和區"
"234076","969-R7","2018/12/20 12:38:52","新北市中和區景安路85號","121.506276666667","24.996875","6500400","永和區"
"234072","AAC-211","2018/12/20 12:39:06","新北市永和區福和路1號","121.526488333333","25.0098566666667","6500400","永和區"
"243005","AAD-798","2018/12/20 12:26:19","新北市泰山區黎明路25號","121.422035","25.060795","6501600","泰山區"
"243004","646-TV","2018/12/20 12:24:16","新北市泰山區黎明路25號","121.42215","25.060715","6501600","泰山區"
"231003","268-BY","2018/12/20 12:38:57","新北市新店區安華路28-1號","121.519581666667","24.9607816666667","6500600","新店區"
"231017","AAD-862","2018/12/20 12:38:50","新北市新店區安華路28-1號","121.519993333333","24.9610383333333","6500600","新店區"
"231013","513-UM","2018/12/20 12:38:59","新北市新店區安一路一段1-1號","121.51973","24.96117","6500600","新店區"
"231035","719-UM","2018/12/20 12:39:04","新北市新店區安一路一段1-1號","121.519508333333","24.9612483333333","6500600","新店區"
"235028","005-UY","2018/12/20 12:39:05","新北市中和區員山路36巷16-3號","121.485126666667","24.9914783333333","6500300","中和區"
"235031","255-BX","2018/12/20 12:38:53","新北市中和區連城路469巷79弄30號","121.48427","24.9937216666667","6500300","中和區"
"235005","802-TS","2018/12/20 12:39:08","新北市中和區和城路一段271巷1號","121.485525","24.9917916666667","6500300","中和區"
"228005","097-TW","2018/12/20 12:38:56","新北市貢寮區福連里蓬萊街14號","121.995465","25.0033083333333","6502600","貢寮區"
"228004","212-TW","2018/12/20 12:39:05","新北市貢寮區吉林里枋腳街6-2號","121.887421666667","25.0087883333333","6502600","貢寮區"
"207002","749-BX","2018/12/20 12:39:06","新北市萬里區雙興里太和路7-2號","121.658588333333","25.1739916666667","6502800","萬里區"
"221032","280-BY","2018/12/20 12:38:55","新北市汐止區汐萬路一段110號","121.653961666667","25.07134","6501100","汐止區"
"235025","KEA-2875","2018/12/20 12:24:36","新北市中和區員山路36巷16-2號","121.485283333333","24.991605","6500300","中和區"
