"lineid","car","time","location","longitude","latitude","cityid","cityname"
"234044","148-BY","2018/12/20 13:19:44","新北市永和區得和路361號","121.524651666667","24.9994883333333","6500400","永和區"
"234078","298-R6","2018/12/20 13:19:36","新北市永和區福和路7巷7-1號","121.525385","25.0077516666667","6500400","永和區"
"234036","336-UY","2018/12/20 13:19:29","新北市永和區民樂街47巷2號","121.527563333333","24.9990216666667","6500400","永和區"
"234062","337-UY","2018/12/20 13:19:38","新北市永和區永元路17巷4號","121.521636666667","25.00054","6500400","永和區"
"234068","552-UM","2018/12/20 13:19:30","新北市永和區豫溪街55號","121.51726","25.00994","6500400","永和區"
"234015","745-BX","2018/12/20 13:19:30","新北市永和區環河西路一段95巷19弄1號","121.511611666667","25.0172283333333","6500400","永和區"
"234028","746-BX","2018/12/20 13:19:34","新北市永和區民生路23號","121.522811666667","24.998785","6500400","永和區"
"234052","KEA-2590","2018/12/20 13:19:37","新北市永和區中興街45號","121.516453333333","25.0118466666667","6500400","永和區"
"234005","839-RS","2018/12/20 13:19:25","新北市永和區中山路一段331號","121.506145","25.006265","6500400","永和區"
"234012","KEA-2591","2018/12/20 13:19:33","新北市永和區信義路62號","121.5128","25.01277","6500400","永和區"
"234060","AAD-866","2018/12/20 13:19:25","新北市永和區秀朗路一段175號","121.517083333333","25.00367","6500400","永和區"
"234084","748-BX","2018/12/20 13:19:34","新北市永和區中正路562號","121.517316666667","25.00597","6500400","永和區"
"234040","862-TW","2018/12/20 13:19:41","新北市永和區保平路177巷6弄2號","121.509818333333","25.00486","6500400","永和區"
"234048","863-TW","2018/12/20 13:19:40","新北市永和區仁愛路142號","121.511","25.013485","6500400","永和區"
"234025","9371-KE","2018/12/20 13:19:38","新北市永和區豫溪街42巷3號","121.515528333333","25.0095583333333","6500400","永和區"
"234010","9373-KE","2018/12/20 13:19:37","新北市永和區文化路90巷48號","121.512866666667","25.0167066666667","6500400","永和區"
"248013","025-BX","2018/12/20 13:19:33","新北市五股區水碓一路11號","121.432548333333","25.072555","6501500","五股區"
"248015","026-BX","2018/12/20 13:19:40","新北市五股區成泰路三段477巷18號","121.44992","25.098915","6501500","五股區"
"248005","077-UY","2018/12/20 13:19:34","新北市五股區中興路一段152號","121.46455","25.073835","6501500","五股區"
"248007","095-VK","2018/12/20 13:19:39","新北市五股區更洲路32巷8弄14號","121.459261666667","25.07965","6501500","五股區"
"248017","225-UY","2018/12/20 13:19:27","新北市五股區御史路195-3號","121.436026666667","25.0977166666667","6501500","五股區"
"248011","247-BX","2018/12/20 13:19:25","新北市五股區御史路1巷101弄2號","121.440973333333","25.091235","6501500","五股區"
"248003","677-BX","2018/12/20 13:19:38","新北市五股區成泰路二段153號","121.439303333333","25.085835","6501500","五股區"
"248001","678-BX","2018/12/20 13:19:41","新北市五股區西雲路70號","121.44367","25.0917583333333","6501500","五股區"
"248009","682-TV","2018/12/20 13:19:32","新北市五股區成泰路一段139巷2弄2號","121.435136666667","25.0729866666667","6501500","五股區"
"234022","9380-KE","2018/12/20 13:19:37","新北市永和區竹林路109巷9號","121.520426666667","25.01206","6500400","永和區"
"234076","969-R7","2018/12/20 13:19:32","新北市永和區民有街69號","121.517855","24.9957166666667","6500400","永和區"
"234072","AAC-211","2018/12/20 13:19:26","新北市永和區竹林路46號","121.517661666667","25.0142183333333","6500400","永和區"
"234066","AAC-212","2018/12/20 13:19:37","新北市永和區保平路50巷8弄1號","121.511036666667","25.00762","6500400","永和區"
"234001","AAC-295","2018/12/20 13:19:43","新北市永和區保福路一段80號","121.512348333333","25.0102","6500400","永和區"
"244003","248-BX","2018/12/20 13:19:32","新北市林口區嘉寶里13鄰51號","121.341413333333","25.11578","6501700","林口區"
"243005","AAD-798","2018/12/20 13:19:26","新北市泰山區明志路三段206巷3號","121.423293333333","25.03793","6501600","泰山區"
"231002","002-UM","2018/12/20 13:19:15","新北市新店區安華路28-1號","121.519693333333","24.96076","6500600","新店區"
"231027","0293-UT","2018/12/20 13:19:23","新北市新店區安康路一段227號","121.525618333333","24.96311","6500600","新店區"
"231028","046-UY","2018/12/20 13:19:36","新北市新店區安華路28-1號","121.519585","24.96082","6500600","新店區"
"231001","047-UY","2018/12/20 13:19:39","新北市新店區安華路28-1號","121.519136666667","24.9608883333333","6500600","新店區"
"231005","106-UY","2018/12/20 13:19:24","新北市新店區安華路28-1號","121.519603333333","24.9607383333333","6500600","新店區"
"231010","107-UY","2018/12/20 13:19:25","新北市新店區安康路一段152號","121.526335","24.96293","6500600","新店區"
"231031","110-UY","2018/12/20 13:19:29","新北市新店區安華路28-1號","121.519688333333","24.9609383333333","6500600","新店區"
"231011","187-VK","2018/12/20 13:19:33","新北市新店區安一路一段1-1號","121.519586666667","24.9611716666667","6500600","新店區"
"231023","KEA-2219","2018/12/20 13:19:27","新北市新店區安一路一段1-1號","121.51984","24.96153","6500600","新店區"
"231026","256-BX","2018/12/20 13:19:36","新北市新店區安一路一段1-1號","121.519643333333","24.96109","6500600","新店區"
"231036","260-TV","2018/12/20 13:19:35","新北市新店區安忠路102-1號","121.510446666667","24.9557733333333","6500600","新店區"
"231003","268-BY","2018/12/20 13:19:37","新北市新店區安一路一段1-1號","121.519681666667","24.9611466666667","6500600","新店區"
"231018","278-BY","2018/12/20 13:19:35","新北市新店區中央路177-1號","121.535255","24.9694116666667","6500600","新店區"
"231017","AAD-862","2018/12/20 13:19:30","新北市新店區安康路一段24巷2號","121.532616666667","24.960405","6500600","新店區"
"231037","4716-K9","2018/12/20 13:19:41","新北市新店區安華路28-1號","121.519585","24.960685","6500600","新店區"
"231025","4715-K9","2018/12/20 13:19:32","新北市新店區中央五街55號","121.52774","24.9754883333333","6500600","新店區"
"231013","513-UM","2018/12/20 13:19:39","新北市新店區安一路一段1-1號","121.51965","24.96106","6500600","新店區"
"231006","617-UM","2018/12/20 13:19:38","新北市新店區安華路28-1號","121.51948","24.960885","6500600","新店區"
"231030","619-UM","2018/12/20 13:19:35","新北市新店區安華路28-1號","121.519578333333","24.9608383333333","6500600","新店區"
"231034","641-BX","2018/12/20 13:19:32","新北市新店區安華路1-1號","121.519533333333","24.9604733333333","6500600","新店區"
"231035","719-UM","2018/12/20 13:19:44","新北市新店區安一路一段1-1號","121.519481666667","24.9613733333333","6500600","新店區"
"231029","897-TW","2018/12/20 13:19:39","新北市新店區安華路28-1號","121.519733333333","24.9608833333333","6500600","新店區"
"231004","899-TW","2018/12/20 13:19:37","新北市新店區安華路28-1號","121.519273333333","24.9607316666667","6500600","新店區"
"231024","AKT-0513","2018/12/20 13:19:32","新北市新店區安康路一段3-1號","121.5341","24.96065","6500600","新店區"
"235030","003-UY","2018/12/20 13:19:33","新北市中和區中山路二段120號","121.5027","25.0037433333333","6500300","中和區"
"235028","005-UY","2018/12/20 13:19:26","新北市中和區中正路150號","121.498923333333","24.9938533333333","6500300","中和區"
"235027","006-UY","2018/12/20 13:19:32","新北市中和區中正路637巷52弄1號","121.485445","24.993325","6500300","中和區"
"235003","097-UM","2018/12/20 13:19:27","新北市中和區安平路59號","121.509653333333","24.9949666666667","6500300","中和區"
"235004","150-BY","2018/12/20 13:19:41","新北市中和區景安路76號","121.505711666667","24.9965","6500300","中和區"
"235022","151-BY","2018/12/20 13:19:25","新北市中和區圓通路369巷156弄46號","121.489455","24.9820483333333","6500300","中和區"
"235019","183-VK","2018/12/20 13:19:32","新北市中和區中正路637巷60弄61號","121.485426666667","24.99301","6500300","中和區"
"235002","185-VK","2018/12/20 13:19:25","新北市中和區大智街111號","121.523511666667","24.9926183333333","6500300","中和區"
"235013","186-VK","2018/12/20 13:19:38","新北市中和區中正路395號","121.48998","24.9935516666667","6500300","中和區"
"235031","255-BX","2018/12/20 13:19:33","新北市中和區民樂路77號","121.484385","25.00132","6500300","中和區"
"235036","301-VK","2018/12/20 13:19:34","新北市中和區連城路265巷1號","121.491375","24.9964283333333","6500300","中和區"
"235006","KEA-2878","2018/12/20 13:19:44","新北市中和區大仁街20巷25弄21號","121.51872","24.9936366666667","6500300","中和區"
"235014","4979-A6","2018/12/20 13:19:42","新北市中和區捷運路93號","121.508198333333","24.9902816666667","6500300","中和區"
"235033","4980-A6","2018/12/20 13:19:25","新北市中和區錦和路99號","121.490068333333","24.99545","6500300","中和區"
"235034","558-UM","2018/12/20 13:19:28","新北市中和區景平路479號","121.500353333333","24.997275","6500300","中和區"
"235009","565-BX","2018/12/20 13:19:37","新北市中和區景安路200巷10號","121.503185","24.9918816666667","6500300","中和區"
"235018","640-BX","2018/12/20 13:19:37","新北市中和區國光街112巷1弄5號","121.469531666667","25.0010216666667","6500300","中和區"
"235024","647-TV","2018/12/20 13:19:25","新北市中和區連城路376-1號","121.481065","24.99535","6500300","中和區"
"235011","732-UM","2018/12/20 13:19:24","新北市中和區中正路273號","121.495706666667","24.993695","6500300","中和區"
"235035","783-BX","2018/12/20 13:19:38","新北市中和區中板路18巷1弄1號","121.483831666667","25.0121216666667","6500300","中和區"
"235026","800-TS","2018/12/20 13:19:33","新北市中和區景平路999巷2號","121.495373333333","25.00607","6500300","中和區"
"235021","801-TS","2018/12/20 13:19:25","新北市中和區民享街97巷19號","121.475333333333","24.999555","6500300","中和區"
"235005","802-TS","2018/12/20 13:19:28","新北市永和區中和路373號","121.508421666667","24.99976","6500300","中和區"
"235012","896-TW","2018/12/20 13:19:29","新北市中和區員山路36巷16-3號","121.484956666667","24.9919066666667","6500300","中和區"
"235015","157-BY","2018/12/20 13:19:39","新北市中和區忠孝街2號","121.508808333333","24.9829","6500300","中和區"
"235001","AAC-213","2018/12/20 13:19:43","新北市中和區景德街79號","121.516505","24.9914266666667","6500300","中和區"
"220013","072-UY","2018/12/20 13:19:31","新北市板橋區華東街1-9號","121.448165","24.9949333333333","6500100","板橋區"
"247021","001-UY","2018/12/20 13:19:43","新北市五股區中興路三段163號","121.44911","25.0807966666667","6501400","蘆洲區"
"235029","251-BX","2018/12/20 13:19:29","新北市中和區莊敬路49巷20弄22號","121.502765","25.0058183333333","6500300","中和區"
"228005","097-TW","2018/12/20 13:19:36","新北市貢寮區美豐里丹裡街36-1號","121.910006666667","25.0599216666667","6502600","貢寮區"
"228004","212-TW","2018/12/20 13:19:24","新北市貢寮區吉林里內寮街23號","121.901796666667","24.9842566666667","6502600","貢寮區"
"253003","6232-TK","2018/12/20 13:19:31","新北市石門區石崩山19-2號","121.56644","25.266195","6502200","石門區"
"253004","6251-TK","2018/12/20 13:19:21","新北市石門區竹子湖1號","121.615066666667","25.2654783333333","6502200","石門區"
"253002","637-UY","2018/12/20 13:19:37","新北市石門區大溪墘9號","121.553513333333","25.2725516666667","6502200","石門區"
"253001","KEC-0718","2018/12/20 13:19:27","新北市石門區八甲1號","121.521645","25.284625","6502200","石門區"
"207002","749-BX","2018/12/20 13:19:26","新北市萬里區崁腳里崁腳路166號","121.645048333333","25.15581","6502800","萬里區"
"207001","662-BX","2018/12/20 13:19:34","新北市萬里區龜吼里玉田路56-1號","121.680688333333","25.19324","6502800","萬里區"
"252005","AAC-283","2018/12/20 13:19:37","新北市三芝區八賢里八連溪63號","121.517101666667","25.2317416666667","6502100","三芝區"
"242049","172-VK","2018/12/20 13:15:55","新北市新莊區立信一街10巷14號","121.444418333333","25.049885","6500500","新莊區"
"221032","280-BY","2018/12/20 13:19:35","新北市汐止區龍安路28巷6號","121.65501","25.064495","6501100","汐止區"
"221033","647-BX","2018/12/20 13:19:33","新北市汐止區仁愛路61號","121.660578333333","25.062915","6501100","汐止區"
"220005","686-BX","2018/12/20 13:19:34","新北市板橋區華東街1-9號","121.448235","24.9948383333333","6500100","板橋區"
"220021","985-R7","2018/12/20 13:19:32","新北市板橋區華東街1-10號","121.448285","24.9949816666667","6500100","板橋區"
"235032","KEA-2873","2018/12/20 13:19:33","新北市中和區員山路36巷16-3號","121.485011666667","24.9912833333333","6500300","中和區"
"235025","KEA-2875","2018/12/20 13:19:26","新北市中和區國光街107巷2弄29號","121.469385","24.9990066666667","6500300","中和區"
