"lineid","car","time","location","longitude","latitude","cityid","cityname"
"234078","298-R6","2018/12/20 14:18:59","新北市永和區福和路19巷1弄7號","121.524386666667","25.00797","6500400","永和區"
"234036","336-UY","2018/12/20 14:19:09","新北市永和區成功路一段91號","121.527116666667","25.0027416666667","6500400","永和區"
"234062","337-UY","2018/12/20 14:18:58","新北市永和區得和路219號","121.519645","25.0002","6500400","永和區"
"234068","552-UM","2018/12/20 14:19:10","新北市永和區福和路263巷7弄1號","121.51793","25.0070233333333","6500400","永和區"
"234015","745-BX","2018/12/20 14:19:10","新北市永和區仁愛路89號","121.513095","25.0129866666667","6500400","永和區"
"234028","746-BX","2018/12/20 14:19:14","新北市永和區民權路49巷37號","121.522051666667","24.9976183333333","6500400","永和區"
"234052","KEA-2590","2018/12/20 14:18:57","新北市永和區光復街2巷8號","121.516813333333","25.0165716666667","6500400","永和區"
"234005","839-RS","2018/12/20 14:19:05","新北市永和區永貞路376號","121.509816666667","25.0069583333333","6500400","永和區"
"234012","KEA-2591","2018/12/20 14:19:13","新北市永和區保生路62號","121.505325","25.00887","6500400","永和區"
"234060","AAD-866","2018/12/20 14:19:14","新北市永和區得和路23號","121.515398333333","25.00043","6500400","永和區"
"234084","748-BX","2018/12/20 14:19:13","新北市永和區中正路629號","121.515575","25.01001","6500400","永和區"
"234040","862-TW","2018/12/20 14:18:59","新北市中和區中安街226號","121.512296666667","24.9986816666667","6500400","永和區"
"234048","863-TW","2018/12/20 14:19:00","新北市永和區文化路230號","121.50981","25.01698","6500400","永和區"
"234025","9371-KE","2018/12/20 14:18:58","新北市永和區安樂路144巷6號","121.514636666667","25.0001116666667","6500400","永和區"
"248015","026-BX","2018/12/20 14:18:59","新北市五股區成洲五路12號","121.452306666667","25.10162","6501500","五股區"
"248007","095-VK","2018/12/20 14:18:59","新北市五股區中興路二段37巷24號","121.460655","25.0750716666667","6501500","五股區"
"248017","225-UY","2018/12/20 14:19:07","新北市五股區壟路7-3號","121.416075","25.08917","6501500","五股區"
"248011","247-BX","2018/12/20 14:19:05","新北市五股區工商路99巷18號","121.436888333333","25.084975","6501500","五股區"
"248003","677-BX","2018/12/20 14:19:07","新北市五股區五福路60號","121.433303333333","25.0898383333333","6501500","五股區"
"248001","678-BX","2018/12/20 14:19:01","新北市五股區成泰路四段2號","121.452961666667","25.106135","6501500","五股區"
"248009","682-TV","2018/12/20 14:18:52","新北市五股區水碓一路23號","121.430621666667","25.0712516666667","6501500","五股區"
"234076","969-R7","2018/12/20 14:19:12","新北市永和區民權路55號","121.520166666667","24.9966616666667","6500400","永和區"
"234072","AAC-211","2018/12/20 14:19:06","新北市永和區福和路24號","121.524036666667","25.0084366666667","6500400","永和區"
"234066","AAC-212","2018/12/20 14:18:57","新北市永和區保平路268巷32號","121.507461666667","25.0065133333333","6500400","永和區"
"234001","AAC-295","2018/12/20 14:19:03","新北市永和區中正路618-1號","121.516988333333","25.0077716666667","6500400","永和區"
"243005","AAD-798","2018/12/20 14:19:09","新北市泰山區明志路三段145巷61號","121.427363333333","25.0391233333333","6501600","泰山區"
"243001","297-R6","2018/12/20 14:19:03","新北市泰山區和平街13巷37號","121.434476666667","25.06625","6501600","泰山區"
"243008","KEA-2801","2018/12/20 14:18:56","新北市泰山區明志路三段159號","121.424665","25.039625","6501600","泰山區"
"243007","421-VK","2018/12/20 14:19:13","新北市泰山區明志路二段41號","121.429525","25.0530583333333","6501600","泰山區"
"243003","KEA-2215","2018/12/20 14:19:02","新北市泰山區貴子路17號","121.426238333333","25.0416983333333","6501600","泰山區"
"243002","KEA-2216","2018/12/20 14:19:02","新北市泰山區明志路二段9號","121.430126666667","25.05359","6501600","泰山區"
"243004","646-TV","2018/12/20 14:18:58","新北市泰山區仁義路220巷6號","121.43284","25.0539666666667","6501600","泰山區"
"243006","680-BX","2018/12/20 14:18:58","新北市泰山區泰林路二段184號","121.433668333333","25.0608233333333","6501600","泰山區"
"231002","002-UM","2018/12/20 14:19:15","新北市新店區中正路472號","121.533866666667","24.9810216666667","6500600","新店區"
"231027","0293-UT","2018/12/20 14:19:02","新北市新店區光明街224巷20弄9號","121.540548333333","24.96208","6500600","新店區"
"231028","046-UY","2018/12/20 14:18:55","新北市新店區安和路二段216號","121.517711666667","24.9755466666667","6500600","新店區"
"231001","047-UY","2018/12/20 14:19:01","新北市新店區北新路一段96巷21號","121.542708333333","24.9688283333333","6500600","新店區"
"231005","106-UY","2018/12/20 14:19:04","新北市新店區中興路三段216號","121.54358","24.9825416666667","6500600","新店區"
"231021","108-UY","2018/12/20 14:19:04","新北市新店區新烏路二段198巷2弄2號","121.547791666667","24.9170716666667","6500600","新店區"
"231031","110-UY","2018/12/20 14:19:12","新北市新店區碧潭路75號","121.534396666667","24.9569083333333","6500600","新店區"
"231011","187-VK","2018/12/20 14:19:12","新北市新店區五峰路61巷7號","121.54887","24.9696433333333","6500600","新店區"
"231023","KEA-2219","2018/12/20 14:19:08","新北市新店區光明街71號","121.538856666667","24.9605483333333","6500600","新店區"
"231036","260-TV","2018/12/20 14:19:15","新北市新店區安祥路109巷1弄33號","121.476758333333","24.9602633333333","6500600","新店區"
"231003","268-BY","2018/12/20 14:18:57","新北市新店區中興路一段193號","121.543226666667","24.9651366666667","6500600","新店區"
"231018","278-BY","2018/12/20 14:18:54","新北市新店區中央四街36號","121.528375","24.9745516666667","6500600","新店區"
"231017","AAD-862","2018/12/20 14:19:10","新北市新店區北宜路三段83-1號","121.577036666667","24.9517816666667","6500600","新店區"
"231038","3712-VJ","2018/12/20 14:19:05","新北市新店區溪洲路6巷16號","121.53399","24.9620716666667","6500600","新店區"
"231037","4716-K9","2018/12/20 14:19:01","新北市新店區安康路三段165巷3號","121.489746666667","24.9514266666667","6500600","新店區"
"231013","513-UM","2018/12/20 14:18:59","新北市新店區大豐路61號","121.53972","24.9795916666667","6500600","新店區"
"231006","617-UM","2018/12/20 14:18:57","新北市新店區北宜路二段452號","121.570101666667","24.9563966666667","6500600","新店區"
"231030","619-UM","2018/12/20 14:18:55","新北市新店區安民街3巷1號","121.514566666667","24.9642116666667","6500600","新店區"
"231034","641-BX","2018/12/20 14:19:13","新北市新店區車子路11號","121.503066666667","24.9520983333333","6500600","新店區"
"231035","719-UM","2018/12/20 14:19:04","新北市新店區安和路二段113巷3弄5號","121.518046666667","24.9698983333333","6500600","新店區"
"231029","897-TW","2018/12/20 14:18:59","新北市新店區安康路二段208-1號","121.510053333333","24.9594983333333","6500600","新店區"
"231004","899-TW","2018/12/20 14:18:57","新北市新店區中正路126號","121.542103333333","24.9712916666667","6500600","新店區"
"235030","003-UY","2018/12/20 14:18:53","新北市中和區中和路102號","121.502638333333","24.9997333333333","6500300","中和區"
"235028","005-UY","2018/12/20 14:19:05","新北市中和區連城路2號","121.49926","25.00235","6500300","中和區"
"235027","006-UY","2018/12/20 14:19:12","新北市中和區連勝街173號","121.494138333333","24.996945","6500300","中和區"
"235020","096-UM","2018/12/20 14:19:14","新北市中和區員山路466號","121.479916666667","25.00645","6500300","中和區"
"235003","097-UM","2018/12/20 14:19:07","新北市中和區秀峰街60號","121.520721666667","24.9903833333333","6500300","中和區"
"235004","150-BY","2018/12/20 14:19:01","新北市中和區保健路72號","121.511373333333","24.9965083333333","6500300","中和區"
"235022","151-BY","2018/12/20 14:19:05","新北市中和區連城路523巷11弄1號","121.481726666667","24.994255","6500300","中和區"
"235019","183-VK","2018/12/20 14:19:12","新北市中和區中山路三段179巷23號","121.473603333333","25.0058966666667","6500300","中和區"
"235002","185-VK","2018/12/20 14:19:06","新北市中和區大智街23巷2弄3號","121.520065","24.9924266666667","6500300","中和區"
"235013","186-VK","2018/12/20 14:18:58","新北市中和區景新街228-6號","121.508155","24.9941283333333","6500300","中和區"
"235031","255-BX","2018/12/20 14:18:57","新北市中和區連城路280號","121.484451666667","24.9963","6500300","中和區"
"235008","293-VK","2018/12/20 14:18:59","新北市中和區中興街263巷2號","121.500323333333","24.988935","6500300","中和區"
"235036","301-VK","2018/12/20 14:18:54","新北市中和區莊敬路33巷20號","121.500273333333","25.0055316666667","6500300","中和區"
"235006","KEA-2878","2018/12/20 14:19:04","新北市中和區安樂路143巷2弄5號","121.514103333333","24.9977783333333","6500300","中和區"
"247011","KEA-2869","2018/12/20 14:19:14","新北市蘆洲區民權路38巷12號","121.47659","25.0866383333333","6501400","蘆洲區"
"247005","KED-0682","2018/12/20 14:19:06","新北市蘆洲區長安街26號","121.464181666667","25.07934","6501400","蘆洲區"
"235014","4979-A6","2018/12/20 14:19:02","新北市中和區景安路208巷31號","121.50224","24.99229","6500300","中和區"
"235033","4980-A6","2018/12/20 14:19:05","新北市中和區景平路736巷1弄3號","121.497175","25.004025","6500300","中和區"
"235034","558-UM","2018/12/20 14:19:08","新北市中和區中山路二段228-1號","121.498841666667","25.002785","6500300","中和區"
"235009","565-BX","2018/12/20 14:18:57","新北市中和區景新街423巷33弄1號","121.513851666667","24.9898233333333","6500300","中和區"
"235018","640-BX","2018/12/20 14:18:56","新北市中和區國光街109巷4-1號","121.469953333333","25.000445","6500300","中和區"
"235024","647-TV","2018/12/20 14:19:05","新北市中和區新生街114巷24號","121.482525","25.0024616666667","6500300","中和區"
"235011","732-UM","2018/12/20 14:19:04","新北市中和區景平路239巷53弄7號","121.508953333333","24.99176","6500300","中和區"
"235010","733-UM","2018/12/20 14:18:59","新北市中和區華新街150號","121.507886666667","24.9824533333333","6500300","中和區"
"235035","783-BX","2018/12/20 14:19:06","新北市中和區立德街98巷91號","121.488746666667","25.008775","6500300","中和區"
"235026","800-TS","2018/12/20 14:19:13","新北市中和區中山路二段366巷13號","121.491421666667","25.00451","6500300","中和區"
"235021","801-TS","2018/12/20 14:19:05","新北市中和區員山路423巷16號","121.480371666667","25.0028","6500300","中和區"
"235005","802-TS","2018/12/20 14:19:08","新北市中和區宜安路120號","121.510233333333","24.998005","6500300","中和區"
"235016","805-TS","2018/12/20 14:18:57","新北市中和區興南路二段142巷17弄33號","121.503021666667","24.9828516666667","6500300","中和區"
"235012","896-TW","2018/12/20 14:19:09","新北市中和區華新街109巷1-3號","121.509063333333","24.9822983333333","6500300","中和區"
"235017","900-TW","2018/12/20 14:19:08","新北市中和區華安街17巷41-3號","121.467891666667","24.998415","6500300","中和區"
"235015","157-BY","2018/12/20 14:18:59","新北市中和區景平路221巷28號","121.5095","24.9922016666667","6500300","中和區"
"235001","AAC-213","2018/12/20 14:19:03","新北市中和區秀朗路三段50巷12弄6號","121.524045","24.99536","6500300","中和區"
"235023","AAC-215","2018/12/20 14:19:12","新北市中和區圓通路286巷2號","121.491523333333","24.991085","6500300","中和區"
"220017","015-TV","2018/12/20 14:19:00","新北市板橋區貴興路39號","121.457501666667","25.0037533333333","6500100","板橋區"
"220013","072-UY","2018/12/20 14:19:11","新北市板橋區民族路129巷12弄5號","121.468038333333","25.008345","6500100","板橋區"
"220034","073-UY","2018/12/20 14:18:59","新北市板橋區中正路250巷20號","121.456231666667","25.0194183333333","6500100","板橋區"
"220105","075-UY","2018/12/20 14:19:10","新北市板橋區江寧路三段87巷2弄38號","121.473213333333","25.033295","6500100","板橋區"
"247001","893-R6","2018/12/20 14:18:55","新北市蘆洲區永樂街75號","121.45621","25.0886883333333","6501400","蘆洲區"
"247015","546-UM","2018/12/20 14:18:57","新北市蘆洲區光華路70巷8號","121.467683333333","25.0833033333333","6501400","蘆洲區"
"247023","500-BY","2018/12/20 14:19:01","新北市蘆洲區長榮路655號","121.460116666667","25.0912316666667","6501400","蘆洲區"
"247019","057-VK","2018/12/20 14:19:06","新北市蘆洲區仁愛街37號","121.472193333333","25.0928933333333","6501400","蘆洲區"
"247009","056-VK","2018/12/20 14:18:54","新北市蘆洲區三民路26巷30號","121.477861666667","25.08299","6501400","蘆洲區"
"247013","053-VK","2018/12/20 14:19:09","新北市蘆洲區中山二路137巷46號","121.472546666667","25.0805533333333","6501400","蘆洲區"
"247017","007-UY","2018/12/20 14:19:03","新北市蘆洲區民權路94號","121.474175","25.0880083333333","6501400","蘆洲區"
"247003","002-UY","2018/12/20 14:19:02","新北市蘆洲區長安街174號","121.459191666667","25.0833866666667","6501400","蘆洲區"
"247021","001-UY","2018/12/20 14:19:03","新北市蘆洲區民族路528-1號","121.468875","25.0897633333333","6501400","蘆洲區"
"235029","251-BX","2018/12/20 14:19:09","新北市中和區中山路二段2巷5弄17號","121.504165","25.0059583333333","6500300","中和區"
"228005","097-TW","2018/12/20 14:18:56","新北市貢寮區美豐里土地公嶺54號","121.894563333333","25.0650783333333","6502600","貢寮區"
"228004","212-TW","2018/12/20 14:19:04","新北市貢寮區雙玉里下雙溪街28-1號","121.925046666667","25.0118433333333","6502600","貢寮區"
"253003","6232-TK","2018/12/20 14:19:11","新北市石門區尖子鹿31-1號","121.57939","25.2669483333333","6502200","石門區"
"253004","6251-TK","2018/12/20 14:19:07","新北市石門區坪林50號","121.589355","25.2689533333333","6502200","石門區"
"253002","637-UY","2018/12/20 14:18:57","新北市石門區大丘田51號","121.550176666667","25.2715483333333","6502200","石門區"
"253001","KEC-0718","2018/12/20 14:19:07","新北市石門區八甲15號","121.523205","25.281255","6502200","石門區"
"207002","749-BX","2018/12/20 14:18:46","新北市萬里區溪底里瑞泉路3號","121.609476666667","25.14363","6502800","萬里區"
"207001","662-BX","2018/12/20 14:18:54","新北市萬里區磺潭里清水18號","121.637753333333","25.1977616666667","6502800","萬里區"
"252005","AAC-283","2018/12/20 14:18:57","新北市三芝區橫山里大坑87-1號","121.530905","25.2594116666667","6502100","三芝區"
"236068","105-UM","2018/12/20 14:19:06","新北市土城區明德路一段128巷4號","121.463143333333","24.9789383333333","6501300","土城區"
"236040","KED-0685","2018/12/20 14:19:11","新北市土城區裕生路21巷6弄25號","121.448696666667","24.9867666666667","6501300","土城區"
"236074","166-UM","2018/12/20 14:19:08","新北市土城區永安街115巷38弄2號","121.428683333333","24.9627816666667","6501300","土城區"
"236029","253-BX","2018/12/20 14:18:59","新北市土城區順風路30號","121.440098333333","24.97712","6501300","土城區"
"236024","269-VK","2018/12/20 14:19:03","新北市土城區承天路18號","121.439515","24.9633983333333","6501300","土城區"
"236012","270-VK","2018/12/20 14:18:56","新北市土城區青雲路39巷7號","121.460358333333","24.9875966666667","6501300","土城區"
"236032","271-VK","2018/12/20 14:19:07","新北市土城區青雲路483巷9號","121.459375","24.973555","6501300","土城區"
"247007","KED-0683","2018/12/20 14:19:13","新北市蘆洲區信義路34巷1號","121.47452","25.0793533333333","6501400","蘆洲區"
"236017","401-BY","2018/12/20 14:19:11","新北市土城區金城路二段217號","121.454811666667","24.9817883333333","6501300","土城區"
"236057","912-UM","2018/12/20 14:19:05","新北市土城區中央路四段254號","121.415058333333","24.9568533333333","6501300","土城區"
"236045","913-UM","2018/12/20 14:19:00","新北市土城區明德路一段375-1號","121.45466","24.9782716666667","6501300","土城區"
"236060","915-UM","2018/12/20 14:19:06","新北市土城區金城路一段112號","121.44674","24.975885","6501300","土城區"
"236054","AAC-216","2018/12/20 14:19:09","新北市土城區中華路二段102號","121.438088333333","24.9743","6501300","土城區"
"221033","647-BX","2018/12/20 14:18:54","新北市汐止區橫科路332巷24弄6號","121.621408333333","25.0489683333333","6501100","汐止區"
"220027","145-BY","2018/12/20 14:18:59","新北市板橋區民權路202巷18弄1-2號","121.460773333333","25.0165733333333","6500100","板橋區"
"220028","200-UY","2018/12/20 14:18:46","新北市板橋區大觀路二段19巷45號","121.448253333333","25.0031433333333","6500100","板橋區"
"220030","610-BX","2018/12/20 14:19:09","新北市板橋區溪崑二街136號","121.425943333333","24.9876383333333","6500100","板橋區"
"220004","276-BY","2018/12/20 14:19:03","新北市板橋區信義路215號","121.45945","24.9915316666667","6500100","板橋區"
"220020","277-BY","2018/12/20 14:19:10","新北市板橋區金門街260巷2-2號","121.429828333333","24.986795","6500100","板橋區"
"220019","283-VK","2018/12/20 14:19:02","新北市板橋區大豐街118號","121.461203333333","25.001235","6500100","板橋區"
"220043","285-UM","2018/12/20 14:18:52","新北市板橋區松江街124巷7號","121.469505","25.030385","6500100","板橋區"
"220001","285-VK","2018/12/20 14:19:10","新北市板橋區富山街18巷16-3號","121.478361666667","25.0226883333333","6500100","板橋區"
"220031","286-VK","2018/12/20 14:19:12","新北市板橋區大觀路二段174巷188號","121.442286666667","25.003715","6500100","板橋區"
"220029","287-VK","2018/12/20 14:19:11","新北市板橋區南雅西路一段88號","121.453286666667","25.0058966666667","6500100","板橋區"
"220039","288-VK","2018/12/20 14:19:03","新北市板橋區裕民街90號","121.460365","25.0280816666667","6500100","板橋區"
"220009","293-UM","2018/12/20 14:19:01","新北市板橋區成功路6巷7號","121.475818333333","25.0170716666667","6500100","板橋區"
"220032","296-UM","2018/12/20 14:19:01","新北市板橋區滿平街110巷6號","121.428065","24.9883533333333","6500100","板橋區"
"220023","303-R5","2018/12/20 14:19:10","新北市板橋區南雅西路一段74號","121.453548333333","25.0053366666667","6500100","板橋區"
"220010","305-R5","2018/12/20 14:19:01","新北市板橋區三民路二段153巷34弄1號","121.481136666667","25.0141766666667","6500100","板橋區"
"220041","307-R5","2018/12/20 14:19:10","新北市板橋區陽明街46-5號","121.465535","25.0220883333333","6500100","板橋區"
"220047","317-R6","2018/12/20 14:19:14","新北市板橋區自由路51巷2號","121.46534","25.023575","6500100","板橋區"
"220037","491-VK","2018/12/20 14:19:08","新北市板橋區雙十路二段233號","121.472941666667","25.0289416666667","6500100","板橋區"
"220104","560-BX","2018/12/20 14:19:13","新北市板橋區中正路360巷14號","121.455066666667","25.0236166666667","6500100","板橋區"
"220052","561-BX","2018/12/20 14:19:08","新北市板橋區文化路一段288號","121.467341666667","25.021485","6500100","板橋區"
"220011","609-BX","2018/12/20 14:19:06","新北市板橋區三民路二段203-4號","121.479095","25.0136033333333","6500100","板橋區"
"220003","630-UY","2018/12/20 14:19:09","新北市板橋區新民街4巷2號","121.464143333333","25.0100866666667","6500100","板橋區"
"220040","637-BX","2018/12/20 14:18:56","新北市板橋區縣民大道247巷33號","121.482051666667","25.026705","6500100","板橋區"
"220005","686-BX","2018/12/20 14:18:54","新北市板橋區五權街30巷1號","121.464783333333","24.99341","6500100","板橋區"
"220025","687-BX","2018/12/20 14:19:10","新北市板橋區龍興街8號","121.442848333333","24.9995766666667","6500100","板橋區"
"220042","689-BX","2018/12/20 14:19:03","新北市板橋區雨農路50號","121.46107","25.0243","6500100","板橋區"
"220002","741-BX","2018/12/20 14:19:05","新北市板橋區光明街142號","121.463973333333","25.00316","6500100","板橋區"
"220051","KEA-2699","2018/12/20 14:18:59","新北市板橋區雙十路二段110號","121.474561666667","25.02875","6500100","板橋區"
"220014","829-TW","2018/12/20 14:18:54","新北市板橋區長安街138巷7弄62號","121.474215","25.0093216666667","6500100","板橋區"
"220016","830-TW","2018/12/20 14:19:08","新北市板橋區林森街1巷21號","121.482488333333","25.0242583333333","6500100","板橋區"
"220038","833-TW","2018/12/20 14:19:07","新北市板橋區英士路199號","121.458823333333","25.0235616666667","6500100","板橋區"
"220022","895-R6","2018/12/20 14:19:04","新北市板橋區民權路170巷2號","121.459823333333","25.0129033333333","6500100","板橋區"
"220021","985-R7","2018/12/20 14:18:52","新北市板橋區中正路152號","121.456676666667","25.0165616666667","6500100","板橋區"
"220046","AAC-210","2018/12/20 14:19:00","新北市板橋區幸福路32巷3號","121.461525","25.0206183333333","6500100","板橋區"
"220012","AAC-253","2018/12/20 14:19:01","新北市板橋區中山路一段54號","121.461263333333","25.0096433333333","6500100","板橋區"
"235032","KEA-2873","2018/12/20 14:19:03","新北市中和區中和路100號","121.50206","24.9995266666667","6500300","中和區"
"235025","KEA-2875","2018/12/20 14:18:56","新北市中和區員山路143巷3號","121.480598333333","24.996115","6500300","中和區"
