"lineid","car","time","location","longitude","latitude","cityid","cityname"
"234078","298-R6","2018/12/20 14:28:55","新北市永和區永貞路8號","121.520898333333","25.0071766666667","6500400","永和區"
"234062","337-UY","2018/12/20 14:28:58","新北市永和區中正路419號","121.517093333333","25.0049766666667","6500400","永和區"
"234068","552-UM","2018/12/20 14:29:10","新北市永和區永亨路7號","121.519398333333","25.00573","6500400","永和區"
"234028","746-BX","2018/12/20 14:29:13","新北市永和區民權路84號","121.51987","24.9970466666667","6500400","永和區"
"234052","KEA-2590","2018/12/20 14:28:57","新北市永和區光復街60巷25號","121.517781666667","25.017495","6500400","永和區"
"234005","839-RS","2018/12/20 14:29:05","新北市永和區中正路433號","121.517081666667","25.005035","6500400","永和區"
"234060","AAD-866","2018/12/20 14:29:12","新北市永和區安樂路194巷8號","121.51585","25.0008933333333","6500400","永和區"
"234084","748-BX","2018/12/20 14:29:05","新北市永和區永和路二段237-2號","121.515655","25.014515","6500400","永和區"
"234040","862-TW","2018/12/20 14:28:59","新北市永和區安樂路338號","121.514455","25.006095","6500400","永和區"
"234048","863-TW","2018/12/20 14:29:06","新北市永和區新生路165號","121.507115","25.0146566666667","6500400","永和區"
"234025","9371-KE","2018/12/20 14:28:58","新北市中和區安樂路145號","121.514535","24.9969266666667","6500400","永和區"
"248013","025-BX","2018/12/20 14:29:01","新北市五股區民義路一段157-22號","121.431163333333","25.08679","6501500","五股區"
"248015","026-BX","2018/12/20 14:28:59","新北市五股區成泰路四段26號","121.454926666667","25.1082516666667","6501500","五股區"
"248007","095-VK","2018/12/20 14:28:59","新北市五股區中興路二段2-1號","121.463145","25.0743033333333","6501500","五股區"
"248017","225-UY","2018/12/20 14:25:27","新北市五股區壟路16號","121.415541666667","25.0854266666667","6501500","五股區"
"248011","247-BX","2018/12/20 14:29:05","新北市五股區蓬萊路24號","121.433893333333","25.0799533333333","6501500","五股區"
"248003","677-BX","2018/12/20 14:29:07","新北市五股區五福路7-1號","121.434303333333","25.0882316666667","6501500","五股區"
"248001","678-BX","2018/12/20 14:29:01","新北市五股區成泰路三段476號","121.451753333333","25.1013166666667","6501500","五股區"
"248009","682-TV","2018/12/20 14:29:12","新北市五股區水碓一路23號","121.430636666667","25.07131","6501500","五股區"
"234072","AAC-211","2018/12/20 14:29:06","新北市永和區竹林路119巷22弄2號","121.521113333333","25.0115","6500400","永和區"
"234001","AAC-295","2018/12/20 14:29:09","新北市永和區自強街19巷3號","121.514728333333","25.0085483333333","6500400","永和區"
"243005","AAD-798","2018/12/20 14:29:09","新北市泰山區明志路二段383號","121.425286666667","25.0436266666667","6501600","泰山區"
"243001","297-R6","2018/12/20 14:29:03","新北市泰山區半山雅5號","121.43108","25.0674266666667","6501600","泰山區"
"243008","KEA-2801","2018/12/20 14:28:56","新北市泰山區明志路三段215號","121.423938333333","25.0382733333333","6501600","泰山區"
"243007","421-VK","2018/12/20 14:28:58","新北市泰山區民權街101號","121.428506666667","25.049385","6501600","泰山區"
"243003","KEA-2215","2018/12/20 14:29:02","新北市泰山區貴子路67巷4弄4號","121.430925","25.0402633333333","6501600","泰山區"
"243002","KEA-2216","2018/12/20 14:29:02","新北市泰山區明志路二段47號","121.429556666667","25.052795","6501600","泰山區"
"243004","646-TV","2018/12/20 14:28:58","新北市泰山區全興路109號","121.43375","25.0567716666667","6501600","泰山區"
"243006","680-BX","2018/12/20 14:28:58","新北市泰山區中港西路420號","121.433838333333","25.053935","6501600","泰山區"
"231002","002-UM","2018/12/20 14:28:55","新北市新店區中央六街1號","121.530581666667","24.9744666666667","6500600","新店區"
"231027","0293-UT","2018/12/20 14:29:02","新北市新店區北新路二段108號","121.543","24.974295","6500600","新店區"
"231028","046-UY","2018/12/20 14:28:56","新北市新店區安和路一段15號","121.516891666667","24.9643416666667","6500600","新店區"
"231001","047-UY","2018/12/20 14:28:59","新北市新店區大新街7巷1號","121.543146666667","24.968595","6500600","新店區"
"231005","106-UY","2018/12/20 14:29:13","新北市新店區寶強路27號","121.54362","24.9791133333333","6500600","新店區"
"231021","108-UY","2018/12/20 14:29:04","新北市新店區桂山路81巷1號","121.567436666667","24.89927","6500600","新店區"
"231031","110-UY","2018/12/20 14:29:09","新北市新店區安業街285號","121.52666","24.967975","6500600","新店區"
"231011","187-VK","2018/12/20 14:29:12","新北市新店區寶興路55號","121.549788333333","24.9724883333333","6500600","新店區"
"231023","KEA-2219","2018/12/20 14:29:08","新北市新店區光明街94號","121.538891666667","24.960425","6500600","新店區"
"231036","260-TV","2018/12/20 14:28:55","新北市新店區安祥路109巷85弄21號","121.47838","24.9600883333333","6500600","新店區"
"231003","268-BY","2018/12/20 14:29:05","新北市新店區中興路一段252號","121.544521666667","24.9667183333333","6500600","新店區"
"231018","278-BY","2018/12/20 14:29:15","新北市新店區中央三街67號","121.52677","24.9751","6500600","新店區"
"231017","AAD-862","2018/12/20 14:29:10","新北市新店區北宜路三段221號","121.592346666667","24.9532316666667","6500600","新店區"
"231038","3712-VJ","2018/12/20 14:29:05","新北市新店區溪洲路163號","121.530963333333","24.964335","6500600","新店區"
"231037","4716-K9","2018/12/20 14:29:01","新北市新店區安康路二段269號","121.504306666667","24.957315","6500600","新店區"
"231013","513-UM","2018/12/20 14:28:59","新北市新店區民權路90巷22號","121.536238333333","24.983665","6500600","新店區"
"231006","617-UM","2018/12/20 14:29:00","新北市新店區北宜路二段483號","121.562175","24.95386","6500600","新店區"
"231030","619-UM","2018/12/20 14:28:55","新北市新店區安民街65巷17號","121.516013333333","24.9669033333333","6500600","新店區"
"231034","641-BX","2018/12/20 14:29:13","新北市新店區車子路11號","121.502846666667","24.9513216666667","6500600","新店區"
"231035","719-UM","2018/12/20 14:29:04","新北市新店區吉安街9號","121.516715","24.9657083333333","6500600","新店區"
"231029","897-TW","2018/12/20 14:28:59","新北市新店區安康路二段382號","121.500475","24.9570216666667","6500600","新店區"
"231004","899-TW","2018/12/20 14:28:57","新北市新店區中正路263-1號","121.53851","24.9737633333333","6500600","新店區"
"235030","003-UY","2018/12/20 14:29:13","新北市中和區景新街7號","121.50336","24.9994916666667","6500300","中和區"
"235028","005-UY","2018/12/20 14:29:05","新北市中和區南華路15號","121.50255","24.995665","6500300","中和區"
"235027","006-UY","2018/12/20 14:29:12","新北市中和區安邦街1號","121.495813333333","24.9984083333333","6500300","中和區"
"235020","096-UM","2018/12/20 14:29:14","新北市中和區員山路514巷1號","121.479261666667","25.0095983333333","6500300","中和區"
"235003","097-UM","2018/12/20 14:29:07","新北市中和區秀峰街103巷7弄4號","121.51944","24.988985","6500300","中和區"
"235004","150-BY","2018/12/20 14:29:01","新北市中和區安樂路91號","121.513021666667","24.99487","6500300","中和區"
"235022","151-BY","2018/12/20 14:29:05","新北市中和區員山路36巷16-2號","121.485346666667","24.9916633333333","6500300","中和區"
"235019","183-VK","2018/12/20 14:29:12","新北市中和區中山路三段181巷18弄5號","121.472563333333","25.0053166666667","6500300","中和區"
"235002","185-VK","2018/12/20 14:29:06","新北市中和區自立路115號","121.521891666667","24.9945033333333","6500300","中和區"
"235013","186-VK","2018/12/20 14:28:53","新北市中和區景新街285巷28號","121.510895","24.993735","6500300","中和區"
"235031","255-BX","2018/12/20 14:29:13","新北市中和區新生街186巷1弄31號","121.483488333333","24.9985833333333","6500300","中和區"
"235008","293-VK","2018/12/20 14:29:00","新北市中和區南山路325號","121.50515","24.9912883333333","6500300","中和區"
"235036","301-VK","2018/12/20 14:29:14","新北市中和區中山路二段3巷22弄38號","121.505781666667","25.00413","6500300","中和區"
"235006","KEA-2878","2018/12/20 14:29:04","新北市中和區中和路262巷45號","121.510108333333","24.99986","6500300","中和區"
"247011","KEA-2869","2018/12/20 14:29:14","新北市蘆洲區復興路88號","121.475338333333","25.0868","6501400","蘆洲區"
"247005","KED-0682","2018/12/20 14:29:06","新北市蘆洲區長安街80號","121.462306666667","25.08035","6501400","蘆洲區"
"235014","4979-A6","2018/12/20 14:29:02","新北市中和區中正路155號","121.49878","24.99347","6500300","中和區"
"235033","4980-A6","2018/12/20 14:29:05","新北市中和區連城路134巷15號","121.495153333333","25.0001616666667","6500300","中和區"
"235034","558-UM","2018/12/20 14:29:08","新北市中和區景平路634-1號","121.500186666667","24.9981016666667","6500300","中和區"
"235009","565-BX","2018/12/20 14:28:57","新北市中和區景新街487號","121.513665","24.9873966666667","6500300","中和區"
"235018","640-BX","2018/12/20 14:28:56","新北市中和區國光街102巷8號","121.470388333333","25.0004733333333","6500300","中和區"
"235024","647-TV","2018/12/20 14:29:05","新北市中和區中山路二段523巷41號","121.482165","25.003225","6500300","中和區"
"235011","732-UM","2018/12/20 14:29:04","新北市中和區景平路259巷18號","121.50777","24.9927","6500300","中和區"
"235010","733-UM","2018/12/20 14:28:59","新北市中和區興南路一段105巷20弄34號","121.510638333333","24.9849316666667","6500300","中和區"
"235035","783-BX","2018/12/20 14:29:06","新北市中和區中山路二段476-5號","121.489153333333","25.00575","6500300","中和區"
"235026","800-TS","2018/12/20 14:29:13","新北市中和區中山路二段492號","121.487061666667","25.0049266666667","6500300","中和區"
"235021","801-TS","2018/12/20 14:29:05","新北市中和區員山路473號","121.480356666667","25.00483","6500300","中和區"
"235005","802-TS","2018/12/20 14:29:08","新北市中和區中和路228號","121.50644","24.9993583333333","6500300","中和區"
"235016","805-TS","2018/12/20 14:28:57","新北市中和區華新街143巷63弄2號","121.506385","24.97928","6500300","中和區"
"235012","896-TW","2018/12/20 14:29:09","新北市中和區忠孝街60巷7號","121.511666666667","24.9838066666667","6500300","中和區"
"235017","900-TW","2018/12/20 14:29:08","新北市中和區民德路198號","121.46825","24.9988633333333","6500300","中和區"
"235015","157-BY","2018/12/20 14:28:59","新北市中和區中興街132巷11號","121.4989","24.9917266666667","6500300","中和區"
"235001","AAC-213","2018/12/20 14:29:03","新北市中和區秀朗路三段10巷14弄18號","121.52485","24.99659","6500300","中和區"
"235023","AAC-215","2018/12/20 14:29:12","新北市中和區圓通路252巷2-5號","121.493518333333","24.9914166666667","6500300","中和區"
"220017","015-TV","2018/12/20 14:29:00","新北市板橋區稚暉街17號","121.456471666667","25.0043433333333","6500100","板橋區"
"220013","072-UY","2018/12/20 14:29:11","新北市板橋區國泰街75巷64號","121.468183333333","25.004885","6500100","板橋區"
"220034","073-UY","2018/12/20 14:28:59","新北市板橋區國光路184號","121.46092","25.0183933333333","6500100","板橋區"
"220105","075-UY","2018/12/20 14:29:10","新北市板橋區江寧路三段66號","121.472148333333","25.032265","6500100","板橋區"
"247001","893-R6","2018/12/20 14:28:55","新北市蘆洲區永樂街38巷33弄36號","121.457106666667","25.0897483333333","6501400","蘆洲區"
"247015","546-UM","2018/12/20 14:28:57","新北市蘆洲區中正路185巷23弄19號","121.467598333333","25.08417","6501400","蘆洲區"
"247023","500-BY","2018/12/20 14:29:01","新北市蘆洲區中正路263巷2號","121.467285","25.08756","6501400","蘆洲區"
"247019","057-VK","2018/12/20 14:29:06","新北市蘆洲區水湳街415號","121.47064","25.0940783333333","6501400","蘆洲區"
"247009","056-VK","2018/12/20 14:29:13","新北市蘆洲區鷺江街16-3號","121.47864","25.0824466666667","6501400","蘆洲區"
"247013","053-VK","2018/12/20 14:29:09","新北市蘆洲區中山二路150號","121.471216666667","25.081245","6501400","蘆洲區"
"247017","007-UY","2018/12/20 14:29:03","新北市蘆洲區復興路227巷37號","121.478955","25.091675","6501400","蘆洲區"
"247003","002-UY","2018/12/20 14:29:02","新北市蘆洲區長安街220巷28號","121.459388333333","25.0850183333333","6501400","蘆洲區"
"247021","001-UY","2018/12/20 14:29:03","新北市蘆洲區三民路128巷35號","121.469876666667","25.0896666666667","6501400","蘆洲區"
"235029","251-BX","2018/12/20 14:29:10","新北市中和區永和路9巷1號","121.49921","25.0040066666667","6500300","中和區"
"228005","097-TW","2018/12/20 14:28:56","新北市貢寮區美豐里巫里岸9-1號","121.901976666667","25.0701033333333","6502600","貢寮區"
"228004","212-TW","2018/12/20 14:29:04","新北市貢寮區福隆里虎子山街22-2號","121.936001666667","25.014375","6502600","貢寮區"
"253003","6232-TK","2018/12/20 14:29:11","新北市石門區內石門65號","121.580103333333","25.2624316666667","6502200","石門區"
"253004","6251-TK","2018/12/20 14:29:07","新北市石門區內阿里磅37-2號","121.582903333333","25.23769","6502200","石門區"
"253002","637-UY","2018/12/20 14:28:57","新北市石門區楓林35號","121.545153333333","25.2781283333333","6502200","石門區"
"253001","KEC-0718","2018/12/20 14:28:47","新北市石門區崁子腳65-3號","121.5329","25.2848533333333","6502200","石門區"
"207002","749-BX","2018/12/20 14:29:09","新北市萬里區溪底里福德坑路2-2號","121.624695","25.1558316666667","6502800","萬里區"
"207001","662-BX","2018/12/20 14:29:14","新北市萬里區磺潭里清水18-2號","121.638521666667","25.1983783333333","6502800","萬里區"
"252005","AAC-283","2018/12/20 14:28:57","新北市三芝區茂長里陳厝坑12-9號","121.513708333333","25.255195","6502100","三芝區"
"236068","105-UM","2018/12/20 14:29:00","新北市土城區永豐路205-3號","121.474025","24.9775883333333","6501300","土城區"
"236040","KED-0685","2018/12/20 14:29:13","新北市土城區學成路99巷9號","121.45001","24.988475","6501300","土城區"
"236074","166-UM","2018/12/20 14:29:12","新北市土城區中央路四段27巷10弄2號","121.424725","24.96188","6501300","土城區"
"236029","253-BX","2018/12/20 14:28:59","新北市土城區水源街48號","121.440581666667","24.9759033333333","6501300","土城區"
"236024","269-VK","2018/12/20 14:29:03","新北市土城區承天路18號","121.439468333333","24.963535","6501300","土城區"
"236012","270-VK","2018/12/20 14:28:56","新北市土城區青雲路39巷7號","121.460371666667","24.98756","6501300","土城區"
"236032","271-VK","2018/12/20 14:29:07","新北市土城區明德路一段323號","121.4589","24.9769","6501300","土城區"
"247007","KED-0683","2018/12/20 14:29:13","新北市蘆洲區民生街1號","121.476185","25.0792683333333","6501400","蘆洲區"
"236017","401-BY","2018/12/20 14:29:11","新北市土城區永豐路202巷14號","121.46637","24.98345","6501300","土城區"
"236057","912-UM","2018/12/20 14:28:57","新北市土城區中央路四段466號","121.409945","24.9506016666667","6501300","土城區"
"236045","913-UM","2018/12/20 14:29:00","新北市土城區青雲路523號","121.458791666667","24.97291","6501300","土城區"
"236060","915-UM","2018/12/20 14:29:06","新北市土城區金城路三段193-1號","121.470006666667","24.98895","6501300","土城區"
"236054","AAC-216","2018/12/20 14:29:09","新北市土城區中華路二段1號","121.439556666667","24.9788866666667","6501300","土城區"
"221033","647-BX","2018/12/20 14:29:14","新北市汐止區光復街8巷10號","121.63993","25.0564116666667","6501100","汐止區"
"220027","145-BY","2018/12/20 14:28:59","新北市板橋區民權路306號","121.457255","25.0162016666667","6500100","板橋區"
"220028","200-UY","2018/12/20 14:29:06","新北市板橋區大觀路二段37巷180號","121.449548333333","25.0021783333333","6500100","板橋區"
"220030","610-BX","2018/12/20 14:29:09","新北市板橋區金門街378號","121.426998333333","24.98375","6500100","板橋區"
"220004","276-BY","2018/12/20 14:29:03","新北市板橋區信義路243號","121.460315","24.99104","6500100","板橋區"
"220020","277-BY","2018/12/20 14:29:13","新北市板橋區篤行路二段137號","121.42997","24.98832","6500100","板橋區"
"220019","283-VK","2018/12/20 14:29:02","新北市板橋區忠孝路26號","121.460183333333","25.001805","6500100","板橋區"
"220043","285-UM","2018/12/20 14:29:12","新北市板橋區銘傳街48號","121.468495","25.0309183333333","6500100","板橋區"
"220001","285-VK","2018/12/20 14:29:11","新北市板橋區富山街71巷8-2號","121.476686666667","25.0216233333333","6500100","板橋區"
"220031","286-VK","2018/12/20 14:29:12","新北市板橋區大觀路二段174巷163弄1號","121.44167","25.00308","6500100","板橋區"
"220029","287-VK","2018/12/20 14:29:11","新北市板橋區大觀路一段29巷131弄136號","121.451435","25.003975","6500100","板橋區"
"220039","288-VK","2018/12/20 14:29:12","新北市板橋區長江路一段50號","121.45889","25.0289866666667","6500100","板橋區"
"220009","293-UM","2018/12/20 14:29:01","新北市板橋區中山路一段265巷13號","121.468693333333","25.0146966666667","6500100","板橋區"
"220032","296-UM","2018/12/20 14:29:00","新北市板橋區滿平街84巷120弄17-1號","121.426625","24.9858766666667","6500100","板橋區"
"220023","303-R5","2018/12/20 14:29:10","新北市板橋區中正路253巷7號","121.455345","25.0181516666667","6500100","板橋區"
"220010","305-R5","2018/12/20 14:29:01","新北市板橋區三民路二段181巷1號","121.479591666667","25.014405","6500100","板橋區"
"220041","307-R5","2018/12/20 14:29:10","新北市板橋區陽明街164巷33號","121.46475","25.02468","6500100","板橋區"
"220047","317-R6","2018/12/20 14:29:14","新北市板橋區四維路251號","121.463673333333","25.027775","6500100","板橋區"
"220037","491-VK","2018/12/20 14:29:08","新北市板橋區雙十路二段4-5號","121.47693","25.02574","6500100","板橋區"
"220104","560-BX","2018/12/20 14:29:09","新北市板橋區中正路399巷26號","121.453288333333","25.0225883333333","6500100","板橋區"
"220052","561-BX","2018/12/20 14:29:15","新北市板橋區陽明街29巷28號","121.463883333333","25.0225716666667","6500100","板橋區"
"220011","609-BX","2018/12/20 14:29:06","新北市板橋區三民路二段224號","121.478775","25.0115633333333","6500100","板橋區"
"220003","630-UY","2018/12/20 14:29:08","新北市板橋區忠孝路116號","121.462751666667","25.002215","6500100","板橋區"
"220040","637-BX","2018/12/20 14:29:08","新北市板橋區文聖街130號","121.478301666667","25.0282733333333","6500100","板橋區"
"220005","686-BX","2018/12/20 14:28:54","新北市板橋區和平路62號","121.461146666667","24.99455","6500100","板橋區"
"220025","687-BX","2018/12/20 14:29:10","新北市板橋區大觀路二段125-1號","121.445841666667","25.0013433333333","6500100","板橋區"
"220042","689-BX","2018/12/20 14:29:03","新北市板橋區新海路364號","121.459685","25.025295","6500100","板橋區"
"220002","741-BX","2018/12/20 14:29:05","新北市板橋區忠孝路203號","121.465201666667","25.002735","6500100","板橋區"
"220051","KEA-2699","2018/12/20 14:29:00","新北市板橋區松柏街36巷22號","121.47557","25.029215","6500100","板橋區"
"220014","829-TW","2018/12/20 14:29:14","新北市板橋區長安街138巷28號","121.473101666667","25.0089333333333","6500100","板橋區"
"220016","830-TW","2018/12/20 14:29:02","新北市板橋區萬安街23號","121.484598333333","25.0228666666667","6500100","板橋區"
"220038","833-TW","2018/12/20 14:29:07","新北市板橋區陽明街249號","121.462723333333","25.0250516666667","6500100","板橋區"
"220022","895-R6","2018/12/20 14:29:04","新北市板橋區倉後街1-3號","121.455478333333","25.0088716666667","6500100","板橋區"
"220021","985-R7","2018/12/20 14:28:52","新北市板橋區瑞安街2號","121.454335","25.0233183333333","6500100","板橋區"
"220046","AAC-210","2018/12/20 14:29:00","新北市板橋區文化路一段285巷2弄23號","121.464121666667","25.0195466666667","6500100","板橋區"
"220012","AAC-253","2018/12/20 14:29:13","新北市板橋區重慶路11號","121.460861666667","25.0080566666667","6500100","板橋區"
"235032","KEA-2873","2018/12/20 14:29:03","新北市中和區中山路二段136巷3弄8號","121.501106666667","25.003955","6500300","中和區"
"235025","KEA-2875","2018/12/20 14:28:56","新北市中和區民利街69號","121.478756666667","24.9983183333333","6500300","中和區"
