"lineid","car","time","location","longitude","latitude","cityid","cityname"
"234062","337-UY","2018/12/20 14:38:58","新北市永和區環河西路二段121號","121.505988333333","25.0146366666667","6500400","永和區"
"234028","746-BX","2018/12/20 14:38:53","新北市永和區民權路51號","121.52","24.9969716666667","6500400","永和區"
"234060","AAD-866","2018/12/20 14:39:05","新北市永和區得和路23號","121.515388333333","25.0004266666667","6500400","永和區"
"234048","863-TW","2018/12/20 14:39:00","新北市永和區保安路144號","121.508568333333","25.0149283333333","6500400","永和區"
"234025","9371-KE","2018/12/20 14:38:59","新北市永和區中和路501巷5號","121.510476666667","25.00266","6500400","永和區"
"248013","025-BX","2018/12/20 14:39:00","新北市五股區五福路52巷6號","121.434056666667","25.0899083333333","6501500","五股區"
"248015","026-BX","2018/12/20 14:38:59","新北市五股區成泰路四段14號","121.453281666667","25.1067816666667","6501500","五股區"
"248007","095-VK","2018/12/20 14:38:59","新北市五股區中興路一段95巷15號","121.466576666667","25.07228","6501500","五股區"
"248017","225-UY","2018/12/20 14:33:00","新北市五股區外寮路13-1號","121.424865","25.0812366666667","6501500","五股區"
"248011","247-BX","2018/12/20 14:39:04","新北市五股區民義路一段128號","121.434625","25.0860383333333","6501500","五股區"
"248003","677-BX","2018/12/20 14:39:07","新北市五股區成泰路二段129號","121.438698333333","25.084795","6501500","五股區"
"248001","678-BX","2018/12/20 14:39:01","新北市五股區成洲一路19號","121.449275","25.0957866666667","6501500","五股區"
"248009","682-TV","2018/12/20 14:39:12","新北市五股區登林路74-1號","121.431068333333","25.0694033333333","6501500","五股區"
"234072","AAC-211","2018/12/20 14:39:06","新北市永和區竹林路91巷60弄70號","121.522851666667","25.0122816666667","6500400","永和區"
"234001","AAC-295","2018/12/20 14:39:03","新北市永和區中正路545號","121.516765","25.0080033333333","6500400","永和區"
"243005","AAD-798","2018/12/20 14:39:09","新北市泰山區應化街7號","121.42385","25.0437583333333","6501600","泰山區"
"243001","297-R6","2018/12/20 14:39:03","新北市泰山區楓江路17號","121.43394","25.0624666666667","6501600","泰山區"
"243008","KEA-2801","2018/12/20 14:39:16","新北市泰山區明志路三段521號","121.421155","25.0316566666667","6501600","泰山區"
"243007","421-VK","2018/12/20 14:38:58","新北市泰山區明志路二段214巷16弄4號","121.427","25.049235","6501600","泰山區"
"243003","KEA-2215","2018/12/20 14:39:02","新北市泰山區明志路三段204巷10弄16號","121.423103333333","25.0386916666667","6501600","泰山區"
"243002","KEA-2216","2018/12/20 14:39:02","新北市泰山區中華街27號","121.427403333333","25.051835","6501600","泰山區"
"243004","646-TV","2018/12/20 14:38:58","新北市泰山區楓江路46巷1號","121.43524","25.0621816666667","6501600","泰山區"
"243006","680-BX","2018/12/20 14:38:58","新北市泰山區仁愛路159號","121.435065","25.0563716666667","6501600","泰山區"
"231002","002-UM","2018/12/20 14:38:56","新北市新店區中正路384號","121.534661666667","24.9770366666667","6500600","新店區"
"231027","0293-UT","2018/12/20 14:39:02","新北市新店區中興路三段1-20號","121.546035","24.9756683333333","6500600","新店區"
"231028","046-UY","2018/12/20 14:39:16","新北市新店區安成街27號","121.510066666667","24.96093","6500600","新店區"
"231001","047-UY","2018/12/20 14:38:59","新北市新店區中正路8號","121.5456","24.9694866666667","6500600","新店區"
"231005","106-UY","2018/12/20 14:39:04","新北市新店區北新路三段236號","121.540755","24.98529","6500600","新店區"
"231021","108-UY","2018/12/20 14:39:04","新北市新店區桂山路73-1號","121.566166666667","24.9009283333333","6500600","新店區"
"231031","110-UY","2018/12/20 14:39:09","新北市新店區安業街8巷1號","121.515383333333","24.9774833333333","6500600","新店區"
"231011","187-VK","2018/12/20 14:39:13","新北市新店區寶宏路14號","121.549208333333","24.9762383333333","6500600","新店區"
"231023","KEA-2219","2018/12/20 14:39:08","新北市新店區檳榔路2號","121.540956666667","24.9649516666667","6500600","新店區"
"231036","260-TV","2018/12/20 14:38:55","新北市新店區安祥路109巷151弄14號","121.477938333333","24.9588316666667","6500600","新店區"
"231003","268-BY","2018/12/20 14:38:57","新北市新店區中興路一段283號","121.545386666667","24.96838","6500600","新店區"
"231018","278-BY","2018/12/20 14:39:15","新北市新店區中央四街28號","121.528641666667","24.97425","6500600","新店區"
"231017","AAD-862","2018/12/20 14:39:10","新北市新店區北宜路三段221號","121.592348333333","24.9532466666667","6500600","新店區"
"231038","3712-VJ","2018/12/20 14:39:05","新北市新店區安康路一段116號","121.527108333333","24.9626316666667","6500600","新店區"
"231037","4716-K9","2018/12/20 14:39:01","新北市新店區車子路1-1號","121.504738333333","24.9578083333333","6500600","新店區"
"231013","513-UM","2018/12/20 14:38:59","新北市新店區明德路31號","121.541593333333","24.9774033333333","6500600","新店區"
"231006","617-UM","2018/12/20 14:38:57","新北市新店區北宜路二段103號","121.55017","24.9524316666667","6500600","新店區"
"231030","619-UM","2018/12/20 14:39:15","新北市新店區安民街172號","121.516841666667","24.9707283333333","6500600","新店區"
"231034","641-BX","2018/12/20 14:39:13","新北市新店區黎明路51巷1號","121.50201","24.9493916666667","6500600","新店區"
"231035","719-UM","2018/12/20 14:29:24","新北市新店區安民街42號","121.51587","24.9653933333333","6500600","新店區"
"231029","897-TW","2018/12/20 14:38:59","新北市新店區安康路三段148號","121.490588333333","24.9517666666667","6500600","新店區"
"231004","899-TW","2018/12/20 14:38:57","新北市新店區中正路269號","121.537785","24.9742516666667","6500600","新店區"
"235030","003-UY","2018/12/20 14:39:13","新北市中和區景新街137號","121.506098333333","24.9970983333333","6500300","中和區"
"235028","005-UY","2018/12/20 14:39:05","新北市中和區南山路127巷18弄42號","121.503593333333","24.9965133333333","6500300","中和區"
"235027","006-UY","2018/12/20 14:39:12","新北市中和區連城路174巷20-3號","121.492803333333","24.9983533333333","6500300","中和區"
"235020","096-UM","2018/12/20 14:39:14","新北市中和區員山路581巷2號","121.478041666667","25.0094183333333","6500300","中和區"
"235003","097-UM","2018/12/20 14:39:07","新北市中和區安樂路68號","121.512236666667","24.9935283333333","6500300","中和區"
"235004","150-BY","2018/12/20 14:39:01","新北市中和區宜安路66號","121.51149","24.99707","6500300","中和區"
"235022","151-BY","2018/12/20 14:39:05","新北市中和區員山路124巷11號","121.481901666667","24.9960333333333","6500300","中和區"
"235019","183-VK","2018/12/20 14:39:12","新北市中和區民生街21-1號","121.471021666667","25.0057316666667","6500300","中和區"
"235002","185-VK","2018/12/20 14:39:06","新北市中和區自強路27巷22號","121.521626666667","24.9932116666667","6500300","中和區"
"235013","186-VK","2018/12/20 14:38:58","新北市中和區景新街208號","121.506568333333","24.9954916666667","6500300","中和區"
"235031","255-BX","2018/12/20 14:39:13","新北市中和區員山路148巷23弄7號","121.482175","24.9976133333333","6500300","中和區"
"235008","293-VK","2018/12/20 14:38:44","新北市中和區興南路一段103號","121.509475","24.98831","6500300","中和區"
"235036","301-VK","2018/12/20 14:39:14","新北市中和區中山路二段3巷22弄3號","121.506276666667","25.0052066666667","6500300","中和區"
"235006","KEA-2878","2018/12/20 14:39:04","新北市中和區保健路2巷4號","121.507695","24.9982116666667","6500300","中和區"
"247011","KEA-2869","2018/12/20 14:39:09","新北市蘆洲區集賢路224巷66號","121.480741666667","25.088185","6501400","蘆洲區"
"247005","KED-0682","2018/12/20 14:39:06","新北市蘆洲區長安街68巷7號","121.462916666667","25.0803633333333","6501400","蘆洲區"
"235014","4979-A6","2018/12/20 14:39:02","新北市中和區員山路36巷16-2號","121.485325","24.9917483333333","6500300","中和區"
"235034","558-UM","2018/12/20 14:39:08","新北市中和區連勝街2號","121.499061666667","24.99872","6500300","中和區"
"235018","640-BX","2018/12/20 14:38:56","新北市中和區莒光路207-7號","121.470616666667","24.99672","6500300","中和區"
"235024","647-TV","2018/12/20 14:39:05","新北市中和區員山路398號","121.480603333333","25.0047166666667","6500300","中和區"
"235011","732-UM","2018/12/20 14:39:04","新北市中和區南山路160號","121.504496666667","24.9918783333333","6500300","中和區"
"235010","733-UM","2018/12/20 14:38:59","新北市中和區四維街26號","121.512835","24.98709","6500300","中和區"
"235035","783-BX","2018/12/20 14:39:06","新北市中和區建康路5號","121.48562","25.000315","6500300","中和區"
"235026","800-TS","2018/12/20 14:38:52","新北市中和區建三路20號","121.486068333333","25.0023816666667","6500300","中和區"
"235021","801-TS","2018/12/20 14:39:05","新北市中和區員山路259號","121.481348333333","24.99897","6500300","中和區"
"235005","802-TS","2018/12/20 14:39:08","新北市中和區宜安路152號","121.509305","24.9986883333333","6500300","中和區"
"235016","805-TS","2018/12/20 14:38:57","新北市中和區華新街206巷20號","121.506211666667","24.9827333333333","6500300","中和區"
"235012","896-TW","2018/12/20 14:39:09","新北市中和區景新街462號","121.513443333333","24.987375","6500300","中和區"
"235017","900-TW","2018/12/20 14:39:08","新北市中和區國光街215巷47號","121.467225","25.00027","6500300","中和區"
"235015","157-BY","2018/12/20 14:38:59","新北市中和區中興街180巷33號","121.49833","24.9891633333333","6500300","中和區"
"235001","AAC-213","2018/12/20 14:39:03","新北市中和區秀朗路三段36巷18號","121.52573","24.9958783333333","6500300","中和區"
"235023","AAC-215","2018/12/20 14:39:12","新北市中和區圓通路329-5號","121.49224","24.99064","6500300","中和區"
"220017","015-TV","2018/12/20 14:39:00","新北市板橋區貴興路106巷16弄2號","121.454875","25.0034133333333","6500100","板橋區"
"220013","072-UY","2018/12/20 14:39:11","新北市板橋區國泰街111巷4-2號","121.465708333333","25.0061683333333","6500100","板橋區"
"220034","073-UY","2018/12/20 14:39:14","新北市板橋區中正路106號","121.456611666667","25.0155616666667","6500100","板橋區"
"220105","075-UY","2018/12/20 14:39:10","新北市板橋區民治街26巷8號","121.47758","25.03382","6500100","板橋區"
"247001","893-R6","2018/12/20 14:39:15","新北市蘆洲區永樂街35號","121.457998333333","25.0882633333333","6501400","蘆洲區"
"247015","546-UM","2018/12/20 14:38:57","新北市蘆洲區光華路68號","121.468041666667","25.082875","6501400","蘆洲區"
"247023","500-BY","2018/12/20 14:39:01","新北市蘆洲區中山二路222巷2號","121.469691666667","25.0800583333333","6501400","蘆洲區"
"247019","057-VK","2018/12/20 14:39:06","新北市蘆洲區民權路125號","121.472218333333","25.0899916666667","6501400","蘆洲區"
"247009","056-VK","2018/12/20 14:39:13","新北市蘆洲區信義路222巷32弄1號","121.480578333333","25.085505","6501400","蘆洲區"
"247013","053-VK","2018/12/20 14:39:09","新北市蘆洲區成功路108號","121.472468333333","25.0822316666667","6501400","蘆洲區"
"247003","002-UY","2018/12/20 14:39:02","新北市蘆洲區長安街287號","121.458068333333","25.0843833333333","6501400","蘆洲區"
"247021","001-UY","2018/12/20 14:39:03","新北市蘆洲區三民路358-3號","121.466156666667","25.09124","6501400","蘆洲區"
"235029","251-BX","2018/12/20 14:39:09","新北市中和區永和路56號","121.4993","25.00429","6500300","中和區"
"228005","097-TW","2018/12/20 14:38:56","新北市貢寮區美豐里雞母嶺街6-6號","121.902073333333","25.0642433333333","6502600","貢寮區"
"228004","212-TW","2018/12/20 14:39:04","新北市貢寮區福隆里龜壽谷街36號","121.946508333333","25.0145766666667","6502600","貢寮區"
"253003","6232-TK","2018/12/20 14:39:11","新北市石門區尖子鹿40號","121.581395","25.2569983333333","6502200","石門區"
"253004","6251-TK","2018/12/20 14:39:07","新北市石門區內阿里磅37-1號","121.585078333333","25.238645","6502200","石門區"
"253002","637-UY","2018/12/20 14:36:17","新北市三芝區橫山里橫山39-7號","121.545773333333","25.2541083333333","6502200","石門區"
"253001","KEC-0718","2018/12/20 14:39:07","新北市石門區八甲172-2號","121.535263333333","25.2701133333333","6502200","石門區"
"207002","749-BX","2018/12/20 14:39:05","新北市萬里區崁腳里崁腳路92號","121.646816666667","25.1594316666667","6502800","萬里區"
"207001","662-BX","2018/12/20 14:38:54","新北市萬里區磺潭里員潭路54號","121.64349","25.1904716666667","6502800","萬里區"
"252005","AAC-283","2018/12/20 14:39:17","新北市三芝區埔坪里埔頭坑140號","121.513408333333","25.2474666666667","6502100","三芝區"
"236068","105-UM","2018/12/20 14:38:58","新北市土城區永豐路340巷8-1號","121.474208333333","24.97687","6501300","土城區"
"236040","KED-0685","2018/12/20 14:39:11","新北市土城區學成路108巷11號","121.450121666667","24.9896783333333","6501300","土城區"
"236074","166-UM","2018/12/20 14:39:08","新北市土城區中央路四段47號","121.4224","24.9615483333333","6501300","土城區"
"236029","253-BX","2018/12/20 14:38:59","新北市土城區中華路二段181號","121.438435","24.974845","6501300","土城區"
"236024","269-VK","2018/12/20 14:39:03","新北市土城區忠義路49-1號","121.44044","24.9690966666667","6501300","土城區"
"236012","270-VK","2018/12/20 14:39:05","新北市土城區清水路207巷25號","121.4597","24.9826383333333","6501300","土城區"
"236032","271-VK","2018/12/20 14:39:07","新北市土城區明德路一段291巷2號","121.460203333333","24.97697","6501300","土城區"
"247007","KED-0683","2018/12/20 14:39:13","新北市蘆洲區成功路40號","121.473276666667","25.07948","6501400","蘆洲區"
"236017","401-BY","2018/12/20 14:39:11","新北市土城區延吉街327-1號","121.465445","24.98415","6501300","土城區"
"236057","912-UM","2018/12/20 14:38:57","新北市土城區中央路四段47號","121.422146666667","24.961585","6501300","土城區"
"236045","913-UM","2018/12/20 14:39:05","新北市土城區明德路一段30號","121.465151666667","24.98472","6501300","土城區"
"236060","915-UM","2018/12/20 14:39:06","新北市土城區延壽路111巷23號","121.468333333333","24.99352","6501300","土城區"
"236054","AAC-216","2018/12/20 14:39:09","新北市土城區中華路一段49號","121.445723333333","24.9883266666667","6501300","土城區"
"221033","647-BX","2018/12/20 14:39:13","新北市汐止區中興路236-1號","121.629925","25.067855","6501100","汐止區"
"220027","145-BY","2018/12/20 14:38:59","新北市板橋區民權路202巷18弄1號","121.460796666667","25.016685","6500100","板橋區"
"220028","200-UY","2018/12/20 14:39:06","新北市板橋區大觀路二段37巷282號","121.449888333333","25.00131","6500100","板橋區"
"220030","610-BX","2018/12/20 14:39:10","新北市板橋區金門街208-1號","121.432301666667","24.9901166666667","6500100","板橋區"
"220050","245-BX","2018/12/20 14:36:05","新北市板橋區民治街71巷40號","121.48232","25.0325716666667","6500100","板橋區"
"220004","276-BY","2018/12/20 14:39:03","新北市板橋區干城路20巷3號","121.459133333333","24.9935033333333","6500100","板橋區"
"220020","277-BY","2018/12/20 14:39:10","新北市板橋區金門街215巷29號","121.432888333333","24.9898733333333","6500100","板橋區"
"220019","283-VK","2018/12/20 14:39:02","新北市板橋區和平路178號","121.463361666667","24.9953833333333","6500100","板橋區"
"220043","285-UM","2018/12/20 14:39:12","新北市板橋區吳鳳路91-1號","121.46664","25.0319016666667","6500100","板橋區"
"220001","285-VK","2018/12/20 14:39:10","新北市板橋區中山路二段273號","121.477656666667","25.017965","6500100","板橋區"
"220031","286-VK","2018/12/20 14:39:12","新北市板橋區龍興街65巷1號","121.443395","25.0014083333333","6500100","板橋區"
"220029","287-VK","2018/12/20 14:39:11","新北市板橋區大觀路一段29巷179弄21號","121.449676666667","25.004595","6500100","板橋區"
"220039","288-VK","2018/12/20 14:39:03","新北市板橋區新海路431巷20號","121.457741666667","25.0269066666667","6500100","板橋區"
"220009","293-UM","2018/12/20 14:39:15","新北市板橋區中山路一段283巷2弄25號","121.470653333333","25.0152716666667","6500100","板橋區"
"220032","296-UM","2018/12/20 14:39:00","新北市板橋區滿平二街4號","121.425516666667","24.9863866666667","6500100","板橋區"
"220023","303-R5","2018/12/20 14:39:10","新北市板橋區大勇街20號","121.454263333333","25.0172233333333","6500100","板橋區"
"220010","305-R5","2018/12/20 14:39:01","新北市板橋區三民路二段75號","121.479308333333","25.0168366666667","6500100","板橋區"
"220041","307-R5","2018/12/20 14:39:10","新北市板橋區四維路259巷80號","121.459815","25.0264916666667","6500100","板橋區"
"220047","317-R6","2018/12/20 14:39:14","新北市板橋區民生路三段299巷4號","121.463243333333","25.0305116666667","6500100","板橋區"
"220037","491-VK","2018/12/20 14:39:08","新北市板橋區雙十路二段26號","121.476291666667","25.027025","6500100","板橋區"
"220104","560-BX","2018/12/20 14:39:09","新北市板橋區中正路360巷43號","121.45595","25.0233233333333","6500100","板橋區"
"220052","561-BX","2018/12/20 14:39:13","新北市板橋區文化路一段421巷34號","121.46652","25.0232133333333","6500100","板橋區"
"220011","609-BX","2018/12/20 14:39:14","新北市板橋區三民路二段120號","121.479225","25.01646","6500100","板橋區"
"220003","630-UY","2018/12/20 14:39:08","新北市板橋區重慶路290巷32號","121.461975","24.9987083333333","6500100","板橋區"
"220040","637-BX","2018/12/20 14:39:16","新北市板橋區懷德街201巷16號","121.481505","25.0295316666667","6500100","板橋區"
"220005","686-BX","2018/12/20 14:39:03","新北市板橋區和平路安樂巷1弄2號","121.461715","24.99385","6500100","板橋區"
"220025","687-BX","2018/12/20 14:39:07","新北市板橋區大觀路一段28巷40號","121.449908333333","25.0097316666667","6500100","板橋區"
"220042","689-BX","2018/12/20 14:39:03","新北市板橋區長江路一段357號","121.461398333333","25.0304483333333","6500100","板橋區"
"220002","741-BX","2018/12/20 14:39:05","新北市板橋區實踐路65巷32號","121.465071666667","25.0063716666667","6500100","板橋區"
"220051","KEA-2699","2018/12/20 14:39:12","新北市板橋區松柏街35號","121.475378333333","25.0302816666667","6500100","板橋區"
"220014","829-TW","2018/12/20 14:38:54","新北市板橋區漢生東路193巷57號","121.4718","25.0116433333333","6500100","板橋區"
"220016","830-TW","2018/12/20 14:38:58","新北市板橋區中山路二段412巷16-1號","121.48332","25.0201866666667","6500100","板橋區"
"220038","833-TW","2018/12/20 14:39:15","新北市板橋區綠堤街41-1號","121.45524","25.0260016666667","6500100","板橋區"
"220022","895-R6","2018/12/20 14:39:04","新北市板橋區府中路29-2號","121.45852","25.0080283333333","6500100","板橋區"
"220021","985-R7","2018/12/20 14:39:12","新北市板橋區新生街44號","121.456653333333","25.02109","6500100","板橋區"
"220046","AAC-210","2018/12/20 14:39:00","新北市板橋區文化路一段71號","121.461008333333","25.013825","6500100","板橋區"
"220012","AAC-253","2018/12/20 14:39:13","新北市板橋區民族路60號","121.462541666667","25.009535","6500100","板橋區"
"235032","KEA-2873","2018/12/20 14:39:10","新北市中和區福美路301巷15號","121.497573333333","25.0042583333333","6500300","中和區"
"235025","KEA-2875","2018/12/20 14:38:56","新北市中和區民安街2巷33號","121.480023333333","25.0016266666667","6500300","中和區"
