"lineid","car","time","location","longitude","latitude","cityid","cityname"
"234028","746-BX","2018/12/20 14:49:13","新北市永和區民權路55號","121.520036666667","24.9969266666667","6500400","永和區"
"234048","863-TW","2018/12/20 14:49:00","新北市中和區環河西路三段123號","121.489953333333","25.0098","6500400","永和區"
"234025","9371-KE","2018/12/20 14:48:58","新北市永和區雙和街52巷1-1號","121.509105","25.0031916666667","6500400","永和區"
"248013","025-BX","2018/12/20 14:49:00","新北市五股區五福路14巷8號","121.434786666667","25.0887383333333","6501500","五股區"
"248015","026-BX","2018/12/20 14:49:04","新北市五股區成泰路三段577巷80弄40號","121.44979","25.10489","6501500","五股區"
"248007","095-VK","2018/12/20 14:48:59","新北市五股區四維路155巷2號","121.467656666667","25.0746033333333","6501500","五股區"
"248017","225-UY","2018/12/20 14:33:00","新北市五股區外寮路13-1號","121.424865","25.0812366666667","6501500","五股區"
"248011","247-BX","2018/12/20 14:49:05","新北市五股區六合街94號","121.431118333333","25.0910083333333","6501500","五股區"
"248003","677-BX","2018/12/20 14:49:02","新北市五股區成泰路一段159號","121.43516","25.074245","6501500","五股區"
"248001","678-BX","2018/12/20 14:49:01","新北市五股區成泰路三段165號","121.445258333333","25.0918716666667","6501500","五股區"
"248009","682-TV","2018/12/20 14:49:12","新北市五股區登林路46巷8號","121.432288333333","25.0686833333333","6501500","五股區"
"243005","AAD-798","2018/12/20 14:49:09","新北市泰山區明志路三段76號","121.424871666667","25.0417333333333","6501600","泰山區"
"243001","297-R6","2018/12/20 14:49:03","新北市泰山區泰林路二段115號","121.434516666667","25.059315","6501600","泰山區"
"243008","KEA-2801","2018/12/20 14:48:55","新北市泰山區貴陽街24號","121.422795","25.0326433333333","6501600","泰山區"
"243007","421-VK","2018/12/20 14:48:58","新北市泰山區明志路一段497號","121.430696666667","25.0548583333333","6501600","泰山區"
"243003","KEA-2215","2018/12/20 14:49:02","新北市泰山區明志路三段529號","121.4208","25.029945","6501600","泰山區"
"243002","KEA-2216","2018/12/20 14:49:02","新北市泰山區明志路二段254巷16弄8號","121.426408333333","25.04827","6501600","泰山區"
"243004","646-TV","2018/12/20 14:48:58","新北市泰山區楓江路113號","121.438498333333","25.0640716666667","6501600","泰山區"
"243006","680-BX","2018/12/20 14:48:58","新北市泰山區明志路一段24號","121.433635","25.065495","6501600","泰山區"
"231002","002-UM","2018/12/20 14:49:15","新北市新店區民權路117號","121.536063333333","24.98282","6500600","新店區"
"231027","0293-UT","2018/12/20 14:49:02","新北市新店區北新路二段2號","121.542851666667","24.9706933333333","6500600","新店區"
"231028","046-UY","2018/12/20 14:48:55","新北市新店區安德街60巷27號","121.511051666667","24.9633166666667","6500600","新店區"
"231001","047-UY","2018/12/20 14:49:12","新北市新店區三民路61號","121.536546666667","24.971235","6500600","新店區"
"231005","106-UY","2018/12/20 14:49:04","新北市新店區復興路2號","121.532321666667","24.9883283333333","6500600","新店區"
"231021","108-UY","2018/12/20 14:49:04","新北市新店區桂山路37號","121.562998333333","24.904615","6500600","新店區"
"231031","110-UY","2018/12/20 14:48:49","新北市新店區薏仁坑路自強巷1號","121.497085","24.95813","6500600","新店區"
"231011","187-VK","2018/12/20 14:49:12","新北市新店區寶橋路75號","121.545736666667","24.9752583333333","6500600","新店區"
"231023","KEA-2219","2018/12/20 14:49:08","新北市新店區檳榔路109號","121.54424","24.9617683333333","6500600","新店區"
"231036","260-TV","2018/12/20 14:49:15","新北市新店區安祥路106-1號","121.478651666667","24.96195","6500600","新店區"
"231003","268-BY","2018/12/20 14:48:57","新北市新店區中興路二段200-1號","121.548326666667","24.9740766666667","6500600","新店區"
"231018","278-BY","2018/12/20 14:48:54","新北市新店區中央五街3-1號","121.53026","24.9742716666667","6500600","新店區"
"231017","AAD-862","2018/12/20 14:49:10","新北市新店區北宜路三段66號","121.575128333333","24.9514116666667","6500600","新店區"
"231038","3712-VJ","2018/12/20 14:49:05","新北市新店區安一路一段1-1號","121.519585","24.9611","6500600","新店區"
"231037","4716-K9","2018/12/20 14:49:01","新北市新店區吉安街39號","121.515401666667","24.9662566666667","6500600","新店區"
"231025","4715-K9","2018/12/20 14:49:12","新北市新店區民族路81號","121.53899","24.9779333333333","6500600","新店區"
"231013","513-UM","2018/12/20 14:48:59","新北市新店區北新路二段97巷7號","121.542186666667","24.9741916666667","6500600","新店區"
"231006","617-UM","2018/12/20 14:48:57","新北市新店區北宜路一段170號","121.540746666667","24.9530083333333","6500600","新店區"
"231030","619-UM","2018/12/20 14:48:55","新北市新店區安民街316號","121.517563333333","24.974205","6500600","新店區"
"231034","641-BX","2018/12/20 14:49:12","新北市新店區安康路二段385號","121.494856666667","24.9546066666667","6500600","新店區"
"231039","718-UY","2018/12/20 14:49:02","新北市新店區安一路一段1-1號","121.519366666667","24.9610733333333","6500600","新店區"
"231035","719-UM","2018/12/20 14:45:44","新北市新店區安樂街1-1號","121.51984","24.9738183333333","6500600","新店區"
"231029","897-TW","2018/12/20 14:48:59","新北市新店區錦秀路11巷12號","121.480926666667","24.9441883333333","6500600","新店區"
"231004","899-TW","2018/12/20 14:48:58","新北市新店區民族路91號","121.538673333333","24.977645","6500600","新店區"
"231024","AKT-0513","2018/12/20 14:49:11","新北市新店區力行路14巷8號","121.539313333333","24.9649816666667","6500600","新店區"
"235030","003-UY","2018/12/20 14:49:13","新北市中和區景新街57巷5號","121.50459","24.9992116666667","6500300","中和區"
"235020","096-UM","2018/12/20 14:49:13","新北市中和區中山路三段114巷14號","121.475983333333","25.0067483333333","6500300","中和區"
"235003","097-UM","2018/12/20 14:49:07","新北市中和區安平路210號","121.513673333333","24.9997733333333","6500300","中和區"
"235004","150-BY","2018/12/20 14:49:01","新北市中和區安和路39號","121.509665","24.9948866666667","6500300","中和區"
"235022","151-BY","2018/12/20 14:49:05","新北市中和區員山路146巷3號","121.48159","24.9968166666667","6500300","中和區"
"235019","183-VK","2018/12/20 14:49:12","新北市中和區民德路6號","121.468795","25.00306","6500300","中和區"
"235002","185-VK","2018/12/20 14:49:06","新北市永和區民族街81巷62號","121.520415","24.9963966666667","6500300","中和區"
"235013","186-VK","2018/12/20 14:48:58","新北市中和區中興街2號","121.501333333333","24.9952166666667","6500300","中和區"
"235031","255-BX","2018/12/20 14:48:53","新北市中和區新生街233巷16號","121.484305","24.9990283333333","6500300","中和區"
"235008","293-VK","2018/12/20 14:48:59","新北市中和區中正路1號","121.503443333333","24.9934816666667","6500300","中和區"
"235036","301-VK","2018/12/20 14:48:54","新北市中和區中和路74號","121.500735","25.0001566666667","6500300","中和區"
"235006","KEA-2878","2018/12/20 14:49:04","新北市中和區成功路127巷12弄10號","121.528131666667","24.989585","6500300","中和區"
"247011","KEA-2869","2018/12/20 14:49:14","新北市蘆洲區中山一路196號","121.473798333333","25.0809283333333","6501400","蘆洲區"
"235014","4979-A6","2018/12/20 14:49:11","新北市中和區景平路241巷84弄54號","121.506118333333","24.9923183333333","6500300","中和區"
"235034","558-UM","2018/12/20 14:49:08","新北市中和區連勝街36號","121.498061666667","24.997695","6500300","中和區"
"235018","640-BX","2018/12/20 14:49:17","新北市中和區莒光路4號","121.472056666667","25.0047033333333","6500300","中和區"
"235024","647-TV","2018/12/20 14:49:05","新北市中和區連城路308號","121.483643333333","24.99635","6500300","中和區"
"235011","732-UM","2018/12/20 14:49:04","新北市中和區和平街130號","121.506603333333","24.9916516666667","6500300","中和區"
"235010","733-UM","2018/12/20 14:48:59","新北市中和區仁愛街35號","121.510965","24.9886","6500300","中和區"
"235035","783-BX","2018/12/20 14:49:06","新北市中和區連城路469巷54號","121.4834","24.9943016666667","6500300","中和區"
"235026","800-TS","2018/12/20 14:49:13","新北市中和區中山路二段365號","121.487651666667","25.0048","6500300","中和區"
"235021","801-TS","2018/12/20 14:49:05","新北市中和區民樂路36號","121.48298","25.00125","6500300","中和區"
"235016","805-TS","2018/12/20 14:48:57","新北市中和區華新街30巷1號","121.507428333333","24.98439","6500300","中和區"
"235012","896-TW","2018/12/20 14:49:09","新北市中和區忠孝街72號","121.512006666667","24.9841066666667","6500300","中和區"
"235017","900-TW","2018/12/20 14:49:08","新北市中和區國光街213號","121.466421666667","25.0019283333333","6500300","中和區"
"235015","157-BY","2018/12/20 14:48:59","新北市中和區景安路247巷26號","121.504463333333","24.9904916666667","6500300","中和區"
"235001","AAC-213","2018/12/20 14:49:03","新北市中和區自立路76號","121.523973333333","24.9913216666667","6500300","中和區"
"235023","AAC-215","2018/12/20 14:49:12","新北市中和區圓通路305巷48號","121.495465","24.98893","6500300","中和區"
"220017","015-TV","2018/12/20 14:49:00","新北市板橋區貴興路60號","121.456703333333","25.0030383333333","6500100","板橋區"
"220013","072-UY","2018/12/20 14:49:11","新北市板橋區國泰街25巷8-2號","121.469221666667","25.0061816666667","6500100","板橋區"
"220034","073-UY","2018/12/20 14:48:59","新北市板橋區南雅西路二段7巷25號","121.451885","25.0094983333333","6500100","板橋區"
"220105","075-UY","2018/12/20 14:49:10","新北市板橋區民治街57巷28號","121.480171666667","25.033855","6500100","板橋區"
"247001","893-R6","2018/12/20 14:49:02","新北市蘆洲區永康街2巷10號","121.459365","25.0862783333333","6501400","蘆洲區"
"247015","546-UM","2018/12/20 14:48:57","新北市蘆洲區正和街96巷22號","121.467775","25.08121","6501400","蘆洲區"
"247023","500-BY","2018/12/20 14:49:01","新北市蘆洲區和平路79號","121.469041666667","25.0792566666667","6501400","蘆洲區"
"247013","053-VK","2018/12/20 14:49:09","新北市蘆洲區中央路37巷15號","121.473365","25.0825133333333","6501400","蘆洲區"
"247021","001-UY","2018/12/20 14:49:03","新北市蘆洲區中正路424-1號","121.46285","25.09402","6501400","蘆洲區"
"235029","251-BX","2018/12/20 14:49:09","新北市中和區福美路250號","121.498523333333","25.005205","6500300","中和區"
"228005","097-TW","2018/12/20 14:48:56","新北市貢寮區美豐里文秀坑1-3號","121.905415","25.0553016666667","6502600","貢寮區"
"228004","212-TW","2018/12/20 14:49:04","新北市貢寮區福隆里裕隆街3-1號","121.946156666667","25.0159466666667","6502600","貢寮區"
"253003","6232-TK","2018/12/20 14:49:11","新北市石門區尖子鹿91-1號","121.577781666667","25.2865183333333","6502200","石門區"
"253004","6251-TK","2018/12/20 14:49:07","新北市石門區內阿里磅1號","121.59225","25.254575","6502200","石門區"
"253002","637-UY","2018/12/20 14:48:37","新北市石門區七股12-1號","121.545221666667","25.268875","6502200","石門區"
"253001","KEC-0718","2018/12/20 14:49:07","新北市石門區崁子腳53-2號","121.537146666667","25.282525","6502200","石門區"
"207002","749-BX","2018/12/20 14:49:05","新北市萬里區崁腳里崁腳路73號","121.647643333333","25.1596","6502800","萬里區"
"207001","662-BX","2018/12/20 14:46:14","新北市萬里區雙興里達天路19號","121.64011","25.1813816666667","6502800","萬里區"
"236068","105-UM","2018/12/20 14:48:58","新北市土城區明德路一段232號","121.460541666667","24.9773916666667","6501300","土城區"
"236040","KED-0685","2018/12/20 14:49:11","新北市土城區裕民路92巷25弄9號","121.449945","24.9857183333333","6501300","土城區"
"236074","166-UM","2018/12/20 14:49:09","新北市土城區中央路四段125巷2弄1號","121.4167","24.95711","6501300","土城區"
"236029","253-BX","2018/12/20 14:49:13","新北市土城區忠義路36巷14號","121.439988333333","24.969685","6501300","土城區"
"236024","269-VK","2018/12/20 14:49:03","新北市土城區慶安街82號","121.440636666667","24.97272","6501300","土城區"
"236012","270-VK","2018/12/20 14:48:58","新北市土城區清水路235巷26號","121.460658333333","24.9839933333333","6501300","土城區"
"236032","271-VK","2018/12/20 14:49:07","新北市土城區仁愛路48-3號","121.461993333333","24.9790733333333","6501300","土城區"
"247007","KED-0683","2018/12/20 14:49:13","新北市蘆洲區中山一路97巷32弄5號","121.475686666667","25.0812266666667","6501400","蘆洲區"
"236017","401-BY","2018/12/20 14:49:11","新北市土城區延吉街253巷13號","121.467876666667","24.9843733333333","6501300","土城區"
"236057","912-UM","2018/12/20 14:48:57","新北市土城區永寧路1號","121.430643333333","24.964835","6501300","土城區"
"236045","913-UM","2018/12/20 14:49:00","新北市土城區廣福街68巷24號","121.45872","24.99046","6501300","土城區"
"236060","915-UM","2018/12/20 14:49:06","新北市土城區延壽路55巷7弄6號","121.46965","24.9916316666667","6501300","土城區"
"236054","AAC-216","2018/12/20 14:49:09","新北市土城區裕民路167-1號","121.452996666667","24.98518","6501300","土城區"
"238004","283-BY","2018/12/20 14:49:05","新北市樹林區育德街78號","121.387445","24.968405","6500700","樹林區"
"238007","268-VK","2018/12/20 14:48:59","新北市樹林區中山路三段202號","121.386733333333","24.9682616666667","6500700","樹林區"
"221033","647-BX","2018/12/20 14:49:13","新北市汐止區福德一路236號","121.633951666667","25.065295","6501100","汐止區"
"220027","145-BY","2018/12/20 14:48:59","新北市板橋區復興街57號","121.458753333333","25.017585","6500100","板橋區"
"220028","200-UY","2018/12/20 14:49:06","新北市板橋區大觀路二段69巷5號","121.446888333333","25.0023216666667","6500100","板橋區"
"220030","610-BX","2018/12/20 14:49:09","新北市板橋區大觀路三段261號","121.429238333333","24.9921666666667","6500100","板橋區"
"220050","245-BX","2018/12/20 14:36:05","新北市板橋區民治街71巷40號","121.48232","25.0325716666667","6500100","板橋區"
"220004","276-BY","2018/12/20 14:49:03","新北市板橋區信義路1巷26弄39號","121.459098333333","24.99674","6500100","板橋區"
"220020","277-BY","2018/12/20 14:49:10","新北市板橋區金門街184-3號","121.432698333333","24.9907316666667","6500100","板橋區"
"220019","283-VK","2018/12/20 14:49:11","新北市板橋區五權街30巷37弄13號","121.463691666667","24.992245","6500100","板橋區"
"220043","285-UM","2018/12/20 14:49:12","新北市板橋區文德路19號","121.462265","25.0241583333333","6500100","板橋區"
"220001","285-VK","2018/12/20 14:49:02","新北市板橋區民享街1號","121.474741666667","25.014465","6500100","板橋區"
"220031","286-VK","2018/12/20 14:49:12","新北市板橋區僑中二街126巷2號","121.445356666667","25.0051766666667","6500100","板橋區"
"220029","287-VK","2018/12/20 14:49:11","新北市板橋區大觀路一段28巷71號","121.449745","25.0111083333333","6500100","板橋區"
"220039","288-VK","2018/12/20 14:49:03","新北市板橋區龍泉街90巷18號","121.456085","25.0249466666667","6500100","板橋區"
"220009","293-UM","2018/12/20 14:49:04","新北市板橋區觀光街69巷1號","121.470141666667","25.0166566666667","6500100","板橋區"
"220032","296-UM","2018/12/20 14:49:14","新北市板橋區溪崑二街92巷4號","121.426643333333","24.9893566666667","6500100","板橋區"
"220023","303-R5","2018/12/20 14:49:10","新北市板橋區金華街10巷48弄1號","121.457031666667","25.0199333333333","6500100","板橋區"
"220010","305-R5","2018/12/20 14:48:58","新北市板橋區光復街8號","121.48126","25.0192733333333","6500100","板橋區"
"220041","307-R5","2018/12/20 14:49:10","新北市板橋區新海路109巷2弄2號","121.460811666667","25.0225016666667","6500100","板橋區"
"220047","317-R6","2018/12/20 14:49:14","新北市板橋區裕民街91號","121.460346666667","25.0278733333333","6500100","板橋區"
"220037","491-VK","2018/12/20 14:49:11","新北市板橋區文化路二段580號","121.476691666667","25.034635","6500100","板橋區"
"220104","560-BX","2018/12/20 14:49:09","新北市板橋區金華街100號","121.458448333333","25.0207316666667","6500100","板橋區"
"220052","561-BX","2018/12/20 14:49:13","新北市板橋區陽明街279巷23-4號","121.461185","25.02571","6500100","板橋區"
"220011","609-BX","2018/12/20 14:49:06","新北市板橋區三民路一段3巷30號","121.48016","25.0237116666667","6500100","板橋區"
"220003","630-UY","2018/12/20 14:49:10","新北市板橋區國慶路149巷13弄2號","121.460948333333","24.9971816666667","6500100","板橋區"
"220040","637-BX","2018/12/20 14:48:56","新北市板橋區懷德街127巷25號","121.479651666667","25.0312916666667","6500100","板橋區"
"220005","686-BX","2018/12/20 14:48:54","新北市板橋區廣權路9號","121.46075","24.9913033333333","6500100","板橋區"
"220025","687-BX","2018/12/20 14:49:11","新北市板橋區僑中二街102巷1號","121.446026666667","25.0080433333333","6500100","板橋區"
"220042","689-BX","2018/12/20 14:49:03","新北市板橋區長江路二段221號","121.468178333333","25.03249","6500100","板橋區"
"220002","741-BX","2018/12/20 14:49:16","新北市板橋區實踐路93巷68號","121.466455","25.004905","6500100","板橋區"
"220051","KEA-2699","2018/12/20 14:49:00","新北市板橋區仁化街42巷3號","121.475368333333","25.0313483333333","6500100","板橋區"
"220014","829-TW","2018/12/20 14:49:13","新北市板橋區長安街331巷19弄8號","121.473486666667","25.012295","6500100","板橋區"
"220016","830-TW","2018/12/20 14:49:04","新北市板橋區光復街13號","121.484903333333","25.0195933333333","6500100","板橋區"
"220038","833-TW","2018/12/20 14:49:08","新北市板橋區龍泉街133號","121.457625","25.0239033333333","6500100","板橋區"
"220022","895-R6","2018/12/20 14:49:04","新北市板橋區府中路29-2號","121.458566666667","25.0080083333333","6500100","板橋區"
"220021","985-R7","2018/12/20 14:49:12","新北市板橋區中正路274號","121.45524","25.0198183333333","6500100","板橋區"
"220046","AAC-210","2018/12/20 14:49:00","新北市板橋區文化路一段221巷26號","121.462706666667","25.0179016666667","6500100","板橋區"
"220012","AAC-253","2018/12/20 14:49:13","新北市板橋區實踐路47號","121.463718333333","25.00688","6500100","板橋區"
"235032","KEA-2873","2018/12/20 14:49:03","新北市中和區福祥路72號","121.499275","25.0054566666667","6500300","中和區"
"235025","KEA-2875","2018/12/20 14:49:03","新北市中和區民樂路5號","121.481691666667","25.001205","6500300","中和區"
