"lineid","car","time","location","longitude","latitude","cityid","cityname"
"234048","863-TW","2018/12/20 15:29:00","新北市八里區下罟子15-9號","121.380308333333","25.1394983333333","6500400","永和區"
"231002","002-UM","2018/12/20 15:29:15","新北市新店區環河路152號","121.535125","24.9670316666667","6500600","新店區"
"231028","046-UY","2018/12/20 15:29:16","新北市新店區僑信路100號","121.499973333333","24.94733","6500600","新店區"
"231005","106-UY","2018/12/20 15:29:04","新北市新店區建國路297號","121.537113333333","24.986145","6500600","新店區"
"231021","108-UY","2018/12/20 15:29:04","新北市新店區湖興路109號","121.561911666667","24.9370016666667","6500600","新店區"
"231031","110-UY","2018/12/20 15:29:09","新北市新店區裕合街9號","121.489623333333","24.9499283333333","6500600","新店區"
"231011","187-VK","2018/12/20 15:29:12","新北市新店區寶元路一段109號","121.545711666667","24.9831133333333","6500600","新店區"
"231023","KEA-2219","2018/12/20 15:29:08","新北市新店區北新路一段88巷1-2號","121.54219","24.9676083333333","6500600","新店區"
"231026","256-BX","2018/12/20 15:29:04","新北市新店區三民路117巷3弄1號","121.534558333333","24.9716916666667","6500600","新店區"
"231036","260-TV","2018/12/20 15:29:15","新北市新店區安祥路104巷6弄31號","121.48254","24.96293","6500600","新店區"
"231003","268-BY","2018/12/20 15:28:57","新北市新店區寶高路120巷1號","121.554573333333","24.9760533333333","6500600","新店區"
"231018","278-BY","2018/12/20 15:28:54","新北市新店區民生路126號","121.529755","24.982495","6500600","新店區"
"231017","AAD-862","2018/12/20 15:29:10","新北市新店區明山路25號","121.564103333333","24.9557583333333","6500600","新店區"
"231038","3712-VJ","2018/12/20 15:29:05","新北市新店區安一路一段1-1號","121.519651666667","24.9616083333333","6500600","新店區"
"231037","4716-K9","2018/12/20 15:29:01","新北市新店區安興路87-1號","121.514875","24.97558","6500600","新店區"
"231025","4715-K9","2018/12/20 15:29:12","新北市新店區安康路一段238號","121.521976666667","24.96381","6500600","新店區"
"231030","619-UM","2018/12/20 15:29:15","新北市新店區安和路三段60-1號","121.518048333333","24.982785","6500600","新店區"
"231034","641-BX","2018/12/20 15:29:12","新北市新店區富貴街8巷2號","121.494463333333","24.949965","6500600","新店區"
"231039","718-UY","2018/12/20 15:29:02","新北市新店區寶慶街35巷3弄2號","121.543163333333","24.9860433333333","6500600","新店區"
"231035","719-UM","2018/12/20 15:29:04","新北市新店區安興路81號","121.515443333333","24.9754416666667","6500600","新店區"
"231029","897-TW","2018/12/20 15:28:59","新北市新店區安康路三段525巷1號","121.482005","24.94518","6500600","新店區"
"231004","899-TW","2018/12/20 15:29:05","新北市新店區民族路207號","121.537048333333","24.97603","6500600","新店區"
"241011","013-R5","2018/12/20 15:29:13","新北市三重區河邊北街23號","121.504481666667","25.0658733333333","6500200","三重區"
"241028","022-UY","2018/12/20 15:29:12","新北市三重區重新路四段121號","121.484853333333","25.0525716666667","6500200","三重區"
"241017","063-VK","2018/12/20 15:29:17","新北市三重區重新路四段121號","121.484806666667","25.0519666666667","6500200","三重區"
"241007","398-BY","2018/12/20 15:29:01","新北市三重區重新路四段121號","121.484963333333","25.0519533333333","6500200","三重區"
"241020","478-VK","2018/12/20 15:29:11","新北市三重區重新路四段121號","121.485226666667","25.0521033333333","6500200","三重區"
"241012","941-UM","2018/12/20 15:29:10","新北市三重區成功路6號","121.490215","25.0501716666667","6500200","三重區"
"235030","003-UY","2018/12/20 15:29:13","新北市中和區光華街31巷26號","121.505685","25.0050116666667","6500300","中和區"
"247011","KEA-2869","2018/12/20 15:29:14","新北市八里區下罟子8-28號","121.38394","25.1409766666667","6501400","蘆洲區"
"235014","4979-A6","2018/12/20 15:29:02","新北市中和區南華路1巷3號","121.501965","24.9954833333333","6500300","中和區"
"235033","4980-A6","2018/12/20 15:29:05","新北市中和區中正路456號","121.490715","24.9942233333333","6500300","中和區"
"235035","783-BX","2018/12/20 15:29:06","新北市中和區中正路866號","121.48449","25.0057683333333","6500300","中和區"
"235012","896-TW","2018/12/20 15:29:09","新北市中和區景新街422號","121.512931666667","24.9889083333333","6500300","中和區"
"235001","AAC-213","2018/12/20 15:29:03","新北市五股區新城三路45號","121.448771666667","25.0927433333333","6500300","中和區"
"235023","AAC-215","2018/12/20 15:29:12","新北市中和區圓通路447號","121.48503","24.9866533333333","6500300","中和區"
"253003","6232-TK","2018/12/20 15:29:11","新北市石門區小坑9號","121.594375","25.288415","6502200","石門區"
"253001","KEC-0718","2018/12/20 15:29:07","新北市石門區小坑9號","121.594361666667","25.2883933333333","6502200","石門區"
"207001","662-BX","2018/12/20 15:28:54","新北市萬里區龜吼里美崙路96號","121.683056666667","25.18477","6502800","萬里區"
"236068","105-UM","2018/12/20 15:28:58","新北市土城區中央路二段280號","121.440835","24.9740883333333","6501300","土城區"
"236040","KED-0685","2018/12/20 15:29:11","新北市土城區學府路一段120巷14號","121.45507","24.9881466666667","6501300","土城區"
"236074","166-UM","2018/12/20 15:29:08","新北市土城區中央路四段254號","121.414925","24.9569516666667","6501300","土城區"
"236029","253-BX","2018/12/20 15:28:59","新北市土城區日新街8巷5號","121.44536","24.98728","6501300","土城區"
"236024","269-VK","2018/12/20 15:29:03","新北市土城區中央路一段289號","121.444333333333","24.98427","6501300","土城區"
"236012","270-VK","2018/12/20 15:28:56","新北市板橋區信義路150巷49號","121.457295","24.99176","6501300","土城區"
"236032","271-VK","2018/12/20 15:29:07","新北市土城區延吉街351號","121.464615","24.9838783333333","6501300","土城區"
"236017","401-BY","2018/12/20 15:29:16","新北市土城區延吉街84號","121.470836666667","24.98646","6501300","土城區"
"236057","912-UM","2018/12/20 15:28:57","新北市土城區慶安街82號","121.44048","24.972745","6501300","土城區"
"236045","913-UM","2018/12/20 15:29:00","新北市土城區青雲路220號","121.45898","24.9812916666667","6501300","土城區"
"236060","915-UM","2018/12/20 15:29:06","新北市土城區延和路103號","121.46768","24.99021","6501300","土城區"
"236054","AAC-216","2018/12/20 15:29:09","新北市土城區金城路三段203號","121.47018","24.9893083333333","6501300","土城區"
"238015","755-BX","2018/12/20 15:29:05","新北市樹林區中山路一段108巷57號","121.421248333333","24.9916883333333","6500700","樹林區"
"238010","601-UM","2018/12/20 15:29:14","新北市樹林區三福街70巷1號","121.40479","25.0164583333333","6500700","樹林區"
"238006","599-UM","2018/12/20 15:29:07","新北市樹林區太順街35號","121.41875","24.9795616666667","6500700","樹林區"
"238005","571-TV","2018/12/20 15:29:13","新北市樹林區中山路一段231號","121.421173333333","24.9865583333333","6500700","樹林區"
"238011","5061-A6","2018/12/20 15:29:09","新北市樹林區中山路二段209號","121.403651666667","24.9769833333333","6500700","樹林區"
"238009","KEA-2213","2018/12/20 15:29:03","新北市樹林區仁愛街61號","121.422666666667","24.9822966666667","6500700","樹林區"
"238008","KEA-2539","2018/12/20 15:29:14","新北市樹林區柑園街一段23-2號","121.404525","24.960445","6500700","樹林區"
"238012","303-VK","2018/12/20 15:29:12","新北市樹林區中山路一段414號","121.417893333333","24.98518","6500700","樹林區"
"238004","283-BY","2018/12/20 15:29:05","新北市樹林區保安街二段335號","121.41226","25.0077033333333","6500700","樹林區"
"238007","268-VK","2018/12/20 15:28:59","新北市樹林區俊英街160巷23號","121.427845","25.0071016666667","6500700","樹林區"
"238013","172-UY","2018/12/20 15:29:00","新北市樹林區新興街19巷34弄27號","121.402393333333","24.972555","6500700","樹林區"
"238003","169-UY","2018/12/20 15:28:38","新北市樹林區長壽街15-6號","121.422843333333","24.9934933333333","6500700","樹林區"
"220031","286-VK","2018/12/20 15:29:12","新北市板橋區僑中二街104巷6號","121.44566","25.00794","6500100","板橋區"
"220012","AAC-253","2018/12/20 15:29:13","新北市板橋區民族路89-3號","121.466476666667","25.0082883333333","6500100","板橋區"
