"lineid","car","time","location","longitude","latitude","cityid","cityname"
"234048","863-TW","2018/12/20 15:39:00","新北市八里區中華路三段27號","121.396585","25.1430816666667","6500400","永和區"
"231028","046-UY","2018/12/20 15:39:16","新北市新店區僑義路12號","121.500433333333","24.9506816666667","6500600","新店區"
"231005","106-UY","2018/12/20 15:39:04","新北市新店區民族路108號","121.537946666667","24.9770916666667","6500600","新店區"
"231021","108-UY","2018/12/20 15:39:04","新北市新店區湖興路128-7號","121.560491666667","24.9306566666667","6500600","新店區"
"231031","110-UY","2018/12/20 15:39:09","新北市新店區雙城路133號","121.497933333333","24.9388","6500600","新店區"
"231011","187-VK","2018/12/20 15:39:12","新北市新店區寶元路一段109號","121.545715","24.98312","6500600","新店區"
"231023","KEA-2219","2018/12/20 15:39:08","新北市新店區五峰路48巷1號","121.54493","24.968695","6500600","新店區"
"231026","256-BX","2018/12/20 15:39:07","新北市新店區三民路75巷3弄2號","121.535661666667","24.970965","6500600","新店區"
"231036","260-TV","2018/12/20 15:38:55","新北市新店區安祥路67巷50弄36號","121.48418","24.9589016666667","6500600","新店區"
"231003","268-BY","2018/12/20 15:38:57","新北市新店區寶高路102巷20號","121.552495","24.974","6500600","新店區"
"231018","278-BY","2018/12/20 15:39:14","新北市新店區中正路663巷7弄15號","121.532921666667","24.9900733333333","6500600","新店區"
"231017","AAD-862","2018/12/20 15:39:10","新北市新店區北宜路二段6號","121.547725","24.9518616666667","6500600","新店區"
"231038","3712-VJ","2018/12/20 15:39:05","新北市新店區安康路二段16巷10號","121.516301666667","24.9643816666667","6500600","新店區"
"231037","4716-K9","2018/12/20 15:39:01","新北市新店區安民街365巷7弄3號","121.51609","24.9752","6500600","新店區"
"231013","513-UM","2018/12/20 15:38:59","新北市新店區永業路81巷1弄12號","121.530206666667","24.9500583333333","6500600","新店區"
"231030","619-UM","2018/12/20 15:39:10","新北市新店區新和街122號","121.52131","24.9866116666667","6500600","新店區"
"231034","641-BX","2018/12/20 15:39:12","新北市新店區玫瑰路58巷34號","121.49347","24.9468116666667","6500600","新店區"
"231039","718-UY","2018/12/20 15:39:06","新北市新店區寶元路二段11號","121.546033333333","24.9824066666667","6500600","新店區"
"231035","719-UM","2018/12/20 15:39:04","新北市新店區安興路81號","121.515501666667","24.9753516666667","6500600","新店區"
"231029","897-TW","2018/12/20 15:38:59","新北市新店區安康路二段391號","121.494503333333","24.9542583333333","6500600","新店區"
"231004","899-TW","2018/12/20 15:38:57","新北市新店區民族路108號","121.538208333333","24.9773583333333","6500600","新店區"
"241011","013-R5","2018/12/20 15:39:13","新北市三重區文化北路248號","121.49731","25.0698366666667","6500200","三重區"
"241028","022-UY","2018/12/20 15:39:12","新北市三重區中正南路222號","121.49361","25.0548716666667","6500200","三重區"
"241015","062-VK","2018/12/20 15:39:11","新北市三重區重新路四段121號","121.4851","25.0519733333333","6500200","三重區"
"241017","063-VK","2018/12/20 15:38:57","新北市三重區大仁街1號","121.491661666667","25.0635983333333","6500200","三重區"
"241003","091-VK","2018/12/20 15:39:00","新北市三重區重新路四段121號","121.485046666667","25.051875","6500200","三重區"
"241016","266-UM","2018/12/20 15:39:11","新北市三重區重新路四段121號","121.48521","25.0520033333333","6500200","三重區"
"241018","268-UM","2018/12/20 15:39:06","新北市三重區重新路四段121號","121.484795","25.0520583333333","6500200","三重區"
"241032","269-UM","2018/12/20 15:39:11","新北市三重區重新路四段97-2號","121.485428333333","25.054675","6500200","三重區"
"241025","271-UM","2018/12/20 15:39:00","新北市三重區重新路四段121號","121.484823333333","25.0524666666667","6500200","三重區"
"241007","398-BY","2018/12/20 15:39:01","新北市三重區重新路四段121號","121.484958333333","25.0519133333333","6500200","三重區"
"241031","462-BY","2018/12/20 15:39:09","新北市三重區重新路四段121號","121.484911666667","25.0519983333333","6500200","三重區"
"241020","478-VK","2018/12/20 15:39:11","新北市三重區忠孝路二段52號","121.48511","25.0704933333333","6500200","三重區"
"241014","543-UM","2018/12/20 15:39:08","新北市三重區重新路四段121號","121.485115","25.052025","6500200","三重區"
"241023","545-UM","2018/12/20 15:39:03","新北市三重區重新路四段121號","121.484848333333","25.052425","6500200","三重區"
"241006","AAD-863","2018/12/20 15:39:12","新北市三重區重新路四段121號","121.484645","25.05205","6500200","三重區"
"241012","941-UM","2018/12/20 15:39:11","新北市三重區自強路一段66號","121.49713","25.066615","6500200","三重區"
"241029","942-UM","2018/12/20 15:39:00","新北市三重區環河南路220-8號","121.49337","25.05269","6500200","三重區"
"235030","003-UY","2018/12/20 15:39:13","新北市中和區景平路396-1號","121.5099","24.9931683333333","6500300","中和區"
"247011","KEA-2869","2018/12/20 15:39:14","新北市五股區成泰路三段320號","121.450456666667","25.0969933333333","6501400","蘆洲區"
"235033","4980-A6","2018/12/20 15:39:05","新北市中和區新生街217號","121.483846666667","24.9995416666667","6500300","中和區"
"235035","783-BX","2018/12/20 15:39:06","新北市中和區中板路47巷8號","121.482075","25.01108","6500300","中和區"
"235023","AAC-215","2018/12/20 15:39:12","新北市中和區員山路5-5號","121.483226666667","24.9844016666667","6500300","中和區"
"227004","642-TC","2018/12/20 15:39:02","新北市雙溪區牡丹里中正路61巷16號","121.865891666667","25.0429583333333","6502500","雙溪區"
"236068","105-UM","2018/12/20 15:38:58","新北市土城區中央路三段72號","121.436555","24.9671883333333","6501300","土城區"
"236040","KED-0685","2018/12/20 15:39:11","新北市土城區學享街22號","121.451513333333","24.9872383333333","6501300","土城區"
"236074","166-UM","2018/12/20 15:39:08","新北市土城區龍泉路23號","121.411623333333","24.9467983333333","6501300","土城區"
"236029","253-BX","2018/12/20 15:38:59","新北市土城區學成路128巷11號","121.44949","24.99016","6501300","土城區"
"236024","269-VK","2018/12/20 15:39:03","新北市土城區裕生路102巷26號","121.446135","24.9848816666667","6501300","土城區"
"236012","270-VK","2018/12/20 15:38:56","新北市土城區青雲路113號","121.458915","24.984805","6501300","土城區"
"236017","401-BY","2018/12/20 15:39:11","新北市土城區延吉街65號","121.472186666667","24.98744","6501300","土城區"
"236057","912-UM","2018/12/20 15:38:57","新北市土城區城林路6巷80號","121.438738333333","24.97974","6501300","土城區"
"236045","913-UM","2018/12/20 15:39:15","新北市土城區金城路三段260號","121.47394","24.9907733333333","6501300","土城區"
"236060","915-UM","2018/12/20 15:39:06","新北市土城區延和路18巷18號","121.46465","24.9877666666667","6501300","土城區"
"236054","AAC-216","2018/12/20 15:39:09","新北市土城區學府路一段146號","121.454853333333","24.98712","6501300","土城區"
"238015","755-BX","2018/12/20 15:39:05","新北市樹林區長壽街4號","121.423801666667","24.9933266666667","6500700","樹林區"
"238010","601-UM","2018/12/20 15:39:14","新北市樹林區龍興街32巷13號","121.402485","25.0156616666667","6500700","樹林區"
"238006","599-UM","2018/12/20 15:39:07","新北市樹林區忠孝街91號","121.42423","24.98122","6500700","樹林區"
"238005","571-TV","2018/12/20 15:38:53","新北市樹林區中華路126號","121.417593333333","24.98046","6500700","樹林區"
"238011","5061-A6","2018/12/20 15:39:09","新北市樹林區山佳街57-1號","121.392901666667","24.972415","6500700","樹林區"
"238009","KEA-2213","2018/12/20 15:39:03","新北市樹林區中華路185-2號","121.42038","24.981685","6500700","樹林區"
"238008","KEA-2539","2018/12/20 15:39:07","新北市樹林區佳園路二段138號","121.389551666667","24.956235","6500700","樹林區"
"238012","303-VK","2018/12/20 15:39:16","新北市樹林區中山路一段115號","121.422913333333","24.9905633333333","6500700","樹林區"
"238004","283-BY","2018/12/20 15:39:17","新北市樹林區光榮街21號","121.412173333333","25.0038316666667","6500700","樹林區"
"238007","268-VK","2018/12/20 15:39:09","新北市樹林區俊英街113號","121.424801666667","25.010165","6500700","樹林區"
"238013","172-UY","2018/12/20 15:39:00","新北市樹林區八德街500號","121.399816666667","24.9703166666667","6500700","樹林區"
"238003","169-UY","2018/12/20 15:39:09","新北市樹林區育英街108號","121.42028","24.9894116666667","6500700","樹林區"
"220012","AAC-253","2018/12/20 15:39:13","新北市板橋區大觀路二段375巷5號","121.440906666667","24.997575","6500100","板橋區"
