"lineid","car","time","location","longitude","latitude","cityid","cityname"
"234048","863-TW","2018/12/20 16:27:57","新北市永和區福和路1號","121.526453333333","25.0099283333333","6500400","永和區"
"249004","303-UY","2018/12/20 16:49:34","新北市八里區博物館路202巷32號","121.405233333333","25.1595066666667","6502300","八里區"
"249002","305-UY","2018/12/20 16:49:29","新北市八里區牛寮埔31號","121.429861666667","25.145705","6502300","八里區"
"249003","759-BX","2018/12/20 16:49:36","新北市八里區中山路二段289號","121.401573333333","25.1486466666667","6502300","八里區"
"244019","402-UM","2018/12/20 16:49:24","新北市林口區粉寮69號","121.405065","25.09082","6501700","林口區"
"244023","483-VK","2018/12/20 16:49:33","新北市林口區粉寮路二段160巷28號","121.405146666667","25.0907966666667","6501700","林口區"
"244009","656-BX","2018/12/20 16:49:38","新北市林口區粉寮69號","121.405076666667","25.09087","6501700","林口區"
"244007","657-BX","2018/12/20 16:49:36","新北市林口區林口路78號","121.389243333333","25.080645","6501700","林口區"
"243016","KEA-2801","2018/12/20 16:26:50","新北市泰山區黎明路25號","121.422051666667","25.0606416666667","6501600","泰山區"
"231046","107-UY","2018/12/20 16:49:29","新北市新店區灣潭路15-8號","121.540755","24.93883","6500600","新店區"
"241011","013-R5","2018/12/20 16:49:32","新北市三重區仁愛街53巷191號","121.50052","25.0729216666667","6500200","三重區"
"241028","022-UY","2018/12/20 16:49:32","新北市三重區正義南路43-1號","121.498198333333","25.0608316666667","6500200","三重區"
"241008","059-VK","2018/12/20 16:49:17","新北市三重區永福街177巷26號","121.477941666667","25.0750466666667","6500200","三重區"
"241022","060-VK","2018/12/20 16:49:20","新北市三重區貴陽街47巷2弄5號","121.48493","25.0630966666667","6500200","三重區"
"241015","062-VK","2018/12/20 16:49:32","新北市三重區文化北路43巷21號","121.49952","25.0654933333333","6500200","三重區"
"241017","063-VK","2018/12/20 16:49:17","新北市三重區國隆路8巷60號","121.492311666667","25.063335","6500200","三重區"
"241024","065-VK","2018/12/20 16:49:32","新北市三重區中正北路317巷37號","121.47625","25.0730516666667","6500200","三重區"
"241002","090-VK","2018/12/20 16:49:35","新北市三重區仁義街209號","121.496868333333","25.0817583333333","6500200","三重區"
"241003","091-VK","2018/12/20 16:49:40","新北市三重區五華街87巷37弄1號","121.493501666667","25.0841266666667","6500200","三重區"
"251014","742-BX","2018/12/20 16:49:38","新北市淡水區淡金路四段476號","121.452438333333","25.2239066666667","6501000","淡水區"
"241005","262-UM","2018/12/20 16:49:25","新北市三重區仁華街78號","121.484766666667","25.083115","6500200","三重區"
"241016","266-UM","2018/12/20 16:49:31","新北市三重區大同北路68號","121.494206666667","25.0640133333333","6500200","三重區"
"241009","267-UM","2018/12/20 16:49:32","新北市三重區三和路四段203巷215號","121.486646666667","25.080715","6500200","三重區"
"241018","268-UM","2018/12/20 16:49:26","新北市三重區正義北路288-1號","121.495493333333","25.0695366666667","6500200","三重區"
"241032","269-UM","2018/12/20 16:49:31","新北市三重區重陽路一段120巷35號","121.485121666667","25.0602083333333","6500200","三重區"
"241013","270-UM","2018/12/20 16:49:35","新北市三重區仁愛街72號","121.495756666667","25.073335","6500200","三重區"
"241025","271-UM","2018/12/20 16:49:40","新北市三重區中正北路530巷7-2號","121.471956666667","25.0709533333333","6500200","三重區"
"241007","398-BY","2018/12/20 16:49:21","新北市三重區三和路四段181巷39弄1號","121.483701666667","25.0792483333333","6500200","三重區"
"241031","462-BY","2018/12/20 16:49:29","新北市三重區新北大道一段11號","121.488083333333","25.0606483333333","6500200","三重區"
"241004","475-VK","2018/12/20 16:49:18","新北市三重區仁愛街397巷17號","121.491981666667","25.08141","6500200","三重區"
"241020","478-VK","2018/12/20 16:49:31","新北市三重區忠孝路二段34號","121.48576","25.0710216666667","6500200","三重區"
"241030","480-VK","2018/12/20 16:49:37","新北市三重區中正南路263號","121.492863333333","25.0529016666667","6500200","三重區"
"241014","543-UM","2018/12/20 16:49:28","新北市三重區長壽街120巷11號","121.502516666667","25.0691616666667","6500200","三重區"
"241023","545-UM","2018/12/20 16:49:23","新北市三重區中華路76巷37-1號","121.482095","25.06259","6500200","三重區"
"241001","547-UM","2018/12/20 16:49:38","新北市三重區仁政街62號","121.492898333333","25.07717","6500200","三重區"
"241033","557-UM","2018/12/20 16:49:14","新北市三重區新北大道二段65號","121.469146666667","25.06117","6500200","三重區"
"241019","KEA-2593","2018/12/20 16:49:36","新北市三重區忠孝路二段38巷17號","121.485658333333","25.0699933333333","6500200","三重區"
"241006","AAD-863","2018/12/20 16:49:32","新北市三重區力行路二段182-3號","121.483473333333","25.07744","6500200","三重區"
"241026","743-BX","2018/12/20 16:49:35","新北市三重區文化南路14號","121.500351666667","25.06197","6500200","三重區"
"241012","941-UM","2018/12/20 16:49:30","新北市三重區河邊北街319號","121.502425","25.0750083333333","6500200","三重區"
"241029","942-UM","2018/12/20 16:49:20","新北市三重區集美街207巷16號","121.492253333333","25.0541683333333","6500200","三重區"
"247006","KED-0682","2018/12/20 16:49:23","新北市蘆洲區永安南路二段132-1號","121.462536666667","25.0785783333333","6501400","蘆洲區"
"235046","733-UM","2018/12/20 16:32:54","新北市中和區員山路36巷13號","121.484175","24.9908166666667","6500300","中和區"
"247020","057-VK","2018/12/20 16:49:32","新北市蘆洲區民族路422巷8號","121.474163333333","25.0920916666667","6501400","蘆洲區"
"247010","056-VK","2018/12/20 16:49:31","新北市蘆洲區復興路355巷5號","121.484863333333","25.0941633333333","6501400","蘆洲區"
"247004","002-UY","2018/12/20 16:49:21","新北市蘆洲區長榮路155號","121.46178","25.084005","6501400","蘆洲區"
"247022","001-UY","2018/12/20 16:49:22","新北市蘆洲區中正路505號","121.461645","25.097025","6501400","蘆洲區"
"228003","097-TW","2018/12/20 16:49:29","新北市貢寮區貢寮里朝陽街1-2號","121.912368333333","25.021275","6502600","貢寮區"
"228002","585-TW","2018/12/20 16:49:36","新北市貢寮區貢寮里朝陽街142號","121.906888333333","25.02267","6502600","貢寮區"
"224008","285-BY","2018/12/20 16:49:25","新北市瑞芳區明燈路二段2巷14號","121.81503","25.1087466666667","6501200","瑞芳區"
"224007","275-VK","2018/12/20 16:49:39","新北市瑞芳區中央路48巷56-8號","121.760363333333","25.10363","6501200","瑞芳區"
"224009","273-VK","2018/12/20 16:49:26","新北市瑞芳區明燈路一段13號","121.825576666667","25.1085016666667","6501200","瑞芳區"
"224005","271-BY","2018/12/20 16:49:22","新北市瑞芳區洞頂路8號","121.861725","25.1216333333333","6501200","瑞芳區"
"227004","642-TC","2018/12/20 16:49:22","新北市雙溪區外柑里外柑腳71號","121.80714","25.0175916666667","6502500","雙溪區"
"227010","400-TW","2018/12/20 16:49:34","新北市雙溪區牡丹里五分10-1號","121.866285","25.047085","6502500","雙溪區"
"251013","KEA-2871","2018/12/20 16:49:18","新北市淡水區泉洲厝32號","121.489248333333","25.1925766666667","6501000","淡水區"
"251016","179-VK","2018/12/20 16:49:35","新北市淡水區北新路一段3-2號","121.474868333333","25.18484","6501000","淡水區"
"251008","181-VK","2018/12/20 16:49:33","新北市淡水區樹梅坑45號","121.47475","25.144575","6501000","淡水區"
"251015","182-VK","2018/12/20 16:49:35","新北市淡水區忠愛街5-1號","121.460785","25.17174","6501000","淡水區"
"251012","441-VK","2018/12/20 16:49:21","新北市淡水區中正路二段31號","121.419695","25.1815166666667","6501000","淡水區"
"251007","442-VK","2018/12/20 16:49:19","新北市淡水區中正路二段31號","121.419343333333","25.1822466666667","6501000","淡水區"
"251011","650-BX","2018/12/20 16:49:24","新北市淡水區中正路二段31號","121.419368333333","25.18175","6501000","淡水區"
"252002","178-VK","2018/12/20 16:49:34","新北市三芝區茂長里陳厝坑12-1號","121.514655","25.2553316666667","6502100","三芝區"
"252001","292-VK","2018/12/20 16:49:29","新北市三芝區淡金路二段89號","121.503866666667","25.2607316666667","6502100","三芝區"
"247008","KED-0683","2018/12/20 16:49:36","新北市蘆洲區中山一路417號","121.468411666667","25.0764216666667","6501400","蘆洲區"
"242007","176-VK","2018/12/20 16:49:31","新北市新莊區三和路12-21號","121.441801666667","25.0386566666667","6500500","新莊區"
"242015","351-TH","2018/12/20 16:49:23","新北市新莊區新泰路357巷3弄57號","121.441955","25.0394783333333","6500500","新莊區"
"238004","283-BY","2018/12/20 16:49:25","新北市樹林區中正路433-1號","121.414881666667","25.00811","6500700","樹林區"
"238001","282-BY","2018/12/20 16:49:34","新北市樹林區中正路22-1號","121.427715","24.9995666666667","6500700","樹林區"
