"lineid","car","time","location","longitude","latitude","cityid","cityname"
"249005","172-UM","2018/12/20 17:19:32","新北市八里區荖阡坑路46號","121.411218333333","25.12363","6502300","八里區"
"249001","173-UM","2018/12/20 17:19:33","新北市八里區中華路二段165巷2-1號","121.407635","25.1508516666667","6502300","八里區"
"249004","303-UY","2018/12/20 17:19:34","新北市八里區賢三街30號","121.418501666667","25.1586266666667","6502300","八里區"
"249002","305-UY","2018/12/20 17:19:29","新北市八里區龍米路二段117巷37號","121.443436666667","25.1419266666667","6502300","八里區"
"249003","759-BX","2018/12/20 17:19:36","新北市八里區中山路二段361號","121.39894","25.1470883333333","6502300","八里區"
"244019","402-UM","2018/12/20 17:19:24","新北市林口區公園路229-3號","121.375046666667","25.0751016666667","6501700","林口區"
"244012","KEA-2802","2018/12/20 17:19:35","新北市林口區粉寮69號","121.4048","25.0908066666667","6501700","林口區"
"244023","483-VK","2018/12/20 17:19:32","新北市林口區隆林街96號","121.385803333333","25.0751016666667","6501700","林口區"
"244017","485-VK","2018/12/20 17:19:32","新北市林口區中山路134-1號","121.391946666667","25.0786266666667","6501700","林口區"
"244009","656-BX","2018/12/20 17:19:18","新北市林口區松柏路26號","121.379746666667","25.091985","6501700","林口區"
"244007","657-BX","2018/12/20 17:19:36","新北市林口區湖子17-3號","121.385003333333","25.09115","6501700","林口區"
"244011","701-TV","2018/12/20 17:19:28","新北市林口區粉寮路一段105號","121.397795","25.0802583333333","6501700","林口區"
"244025","837-TS","2018/12/20 17:19:33","新北市林口區民族路157號","121.36703","25.0764416666667","6501700","林口區"
"244021","838-TS","2018/12/20 17:19:25","新北市林口區粉寮路二段358-11號","121.406823333333","25.0972583333333","6501700","林口區"
"243016","KEA-2801","2018/12/20 17:19:35","新北市泰山區黎明路25號","121.422001666667","25.0606283333333","6501600","泰山區"
"231046","107-UY","2018/12/20 17:19:29","新北市新店區直潭路92號","121.530913333333","24.9375966666667","6500600","新店區"
"241011","013-R5","2018/12/20 17:19:32","新北市三重區介壽路39巷168號","121.502066666667","25.0709333333333","6500200","三重區"
"241028","022-UY","2018/12/20 17:19:32","新北市三重區中正南路77號","121.4941","25.0587933333333","6500200","三重區"
"241008","059-VK","2018/12/20 17:19:27","新北市三重區下竹圍街22號","121.480996666667","25.07569","6500200","三重區"
"241022","060-VK","2018/12/20 17:19:20","新北市三重區中正北路64巷9號","121.486378333333","25.06409","6500200","三重區"
"241015","062-VK","2018/12/20 17:19:32","新北市三重區長元街82-1號","121.501876666667","25.066345","6500200","三重區"
"241017","063-VK","2018/12/20 17:19:37","新北市三重區大同北路52號","121.495038333333","25.0630466666667","6500200","三重區"
"241024","065-VK","2018/12/20 17:19:32","新北市三重區中正北路193巷11弄11號","121.47774","25.0703166666667","6500200","三重區"
"241002","090-VK","2018/12/20 17:19:35","新北市三重區自強路五段1號","121.492061666667","25.0801283333333","6500200","三重區"
"241003","091-VK","2018/12/20 17:19:40","新北市三重區富福街35號","121.490906666667","25.0837433333333","6500200","三重區"
"251014","742-BX","2018/12/20 17:19:18","新北市淡水區番子田132號","121.464363333333","25.2270983333333","6501000","淡水區"
"241005","262-UM","2018/12/20 17:19:25","新北市三重區永安北路二段13巷7號","121.482395","25.081415","6500200","三重區"
"241016","266-UM","2018/12/20 17:19:31","新北市三重區中正北路25巷2號","121.49334","25.0627316666667","6500200","三重區"
"241009","267-UM","2018/12/20 17:19:32","新北市三重區三和路四段231巷105號","121.483538333333","25.0805533333333","6500200","三重區"
"241018","268-UM","2018/12/20 17:19:40","新北市三重區安慶街110號","121.495298333333","25.0690066666667","6500200","三重區"
"241032","269-UM","2018/12/20 17:19:31","新北市三重區興華街129號","121.48331","25.059865","6500200","三重區"
"241013","270-UM","2018/12/20 17:19:35","新北市三重區仁愛街80號","121.495673333333","25.0736583333333","6500200","三重區"
"241025","271-UM","2018/12/20 17:19:20","新北市三重區中正北路378號","121.4768","25.0697633333333","6500200","三重區"
"241007","398-BY","2018/12/20 17:19:21","新北市三重區三和路四段155巷25號","121.484603333333","25.0786016666667","6500200","三重區"
"241024","KEA-2210","2018/12/20 17:19:22","新北市三重區大勇街49號","121.481306666667","25.0719883333333","6500200","三重區"
"241031","462-BY","2018/12/20 17:19:29","新北市三重區新北大道一段7號","121.489795","25.0614716666667","6500200","三重區"
"241004","475-VK","2018/12/20 17:19:38","新北市三重區仁義街288號","121.493608333333","25.0862066666667","6500200","三重區"
"241020","478-VK","2018/12/20 17:19:34","新北市三重區自強路三段72號","121.48679","25.0733866666667","6500200","三重區"
"241030","480-VK","2018/12/20 17:19:37","新北市三重區成功路73巷19號","121.489606666667","25.052185","6500200","三重區"
"241014","543-UM","2018/12/20 17:19:28","新北市三重區長榮路3號","121.500146666667","25.068385","6500200","三重區"
"241023","545-UM","2018/12/20 17:19:23","新北市三重區三民街174號","121.482038333333","25.0656316666667","6500200","三重區"
"241001","547-UM","2018/12/20 17:19:18","新北市三重區仁愛街269巷19號","121.493625","25.0790283333333","6500200","三重區"
"241033","557-UM","2018/12/20 17:10:54","新北市三重區中興北街265號","121.46903","25.0600916666667","6500200","三重區"
"241019","KEA-2593","2018/12/20 17:19:36","新北市三重區自強路二段74巷6號","121.48831","25.06977","6500200","三重區"
"241026","743-BX","2018/12/20 17:19:35","新北市三重區福裕街52號","121.498383333333","25.061475","6500200","三重區"
"241012","941-UM","2018/12/20 17:19:30","新北市三重區仁昌街93-1號","121.499615","25.074975","6500200","三重區"
"241029","942-UM","2018/12/20 17:19:40","新北市三重區重新路三段176號","121.490731666667","25.05933","6500200","三重區"
"247012","KEA-2869","2018/12/20 17:19:25","新北市蘆洲區信義路319巷6號","121.477933333333","25.0862033333333","6501400","蘆洲區"
"247006","KED-0682","2018/12/20 17:19:23","新北市蘆洲區長安街73巷32號","121.461785","25.0791066666667","6501400","蘆洲區"
"235062","800-TS","2018/12/20 16:53:12","新北市中和區員山路36巷16-3號","121.484866666667","24.9915583333333","6500300","中和區"
"247002","893-R6","2018/12/20 17:19:22","新北市蘆洲區永樂街38巷31號","121.458076666667","25.0893833333333","6501400","蘆洲區"
"247024","500-BY","2018/12/20 17:19:19","新北市蘆洲區長榮路207號","121.461025","25.084945","6501400","蘆洲區"
"247020","057-VK","2018/12/20 17:19:32","新北市蘆洲區仁愛街35巷12號","121.471545","25.0926216666667","6501400","蘆洲區"
"247010","056-VK","2018/12/20 17:19:31","新北市蘆洲區中山一路120巷7弄42-1號","121.477015","25.08257","6501400","蘆洲區"
"247014","053-VK","2018/12/20 17:19:22","新北市蘆洲區得勝街183號","121.47091","25.0826383333333","6501400","蘆洲區"
"247018","007-UY","2018/12/20 17:19:22","新北市蘆洲區民權路96巷1弄1號","121.47428","25.0881633333333","6501400","蘆洲區"
"247004","002-UY","2018/12/20 17:19:21","新北市蘆洲區永安南路二段286號","121.457683333333","25.0812483333333","6501400","蘆洲區"
"247022","001-UY","2018/12/20 17:19:22","新北市蘆洲區三民路128巷14號","121.471001666667","25.0878416666667","6501400","蘆洲區"
"235065","251-BX","2018/12/20 16:56:41","新北市中和區員山路36巷16-2號","121.485381666667","24.991575","6500300","中和區"
"228003","097-TW","2018/12/20 17:19:29","新北市貢寮區福隆里東興街100號","121.946265","25.0169316666667","6502600","貢寮區"
"228001","212-TW","2018/12/20 17:19:23","新北市貢寮區仁理村仁和路78號","121.92281","25.0502316666667","6502600","貢寮區"
"228002","585-TW","2018/12/20 17:19:35","新北市貢寮區雙玉里下雙溪街24號","121.920868333333","25.009945","6502600","貢寮區"
"224006","676-BX","2018/12/20 17:19:42","新北市瑞芳區傑魚坑路263號","121.787196666667","25.106","6501200","瑞芳區"
"224008","285-BY","2018/12/20 17:19:25","新北市瑞芳區侯硐路184號","121.829003333333","25.08767","6501200","瑞芳區"
"224009","273-VK","2018/12/20 17:19:26","新北市瑞芳區汽車路21-4號","121.845211666667","25.1106716666667","6501200","瑞芳區"
"224005","271-BY","2018/12/20 17:19:22","新北市瑞芳區鼻頭路247號","121.91277","25.1239866666667","6501200","瑞芳區"
"227004","642-TC","2018/12/20 17:19:22","新北市雙溪區上林里內平林90號","121.827585","25.0274916666667","6502500","雙溪區"
"227010","400-TW","2018/12/20 17:19:34","新北市雙溪區三貂里定福路31號","121.852203333333","25.0757733333333","6502500","雙溪區"
"251009","008-UM","2018/12/20 17:19:39","新北市淡水區建設街2-1號","121.439081666667","25.1721066666667","6501000","淡水區"
"251004","009-UM","2018/12/20 17:19:26","新北市淡水區中正東路36-1號","121.448893333333","25.1657216666667","6501000","淡水區"
"251005","010-UM","2018/12/20 17:19:33","新北市淡水區鄧公路29巷2號","121.451705","25.1698833333333","6501000","淡水區"
"251002","012-UM","2018/12/20 17:19:21","新北市淡水區中正路二段18號","121.41985","25.1808766666667","6501000","淡水區"
"251013","KEA-2871","2018/12/20 17:19:38","新北市淡水區大竹圍1-3號","121.470936666667","25.1962883333333","6501000","淡水區"
"251016","179-VK","2018/12/20 17:19:35","新北市淡水區大竹圍63號","121.463031666667","25.19092","6501000","淡水區"
"251008","181-VK","2018/12/20 17:19:33","新北市淡水區大同路233號","121.465486666667","25.14206","6501000","淡水區"
"251015","182-VK","2018/12/20 17:19:35","新北市淡水區樹林口41號","121.47376","25.1680183333333","6501000","淡水區"
"251010","413-VK","2018/12/20 17:19:30","新北市淡水區中正路二段211號","121.426218333333","25.18915","6501000","淡水區"
"251012","441-VK","2018/12/20 17:19:41","新北市淡水區水碓街81號","121.44508","25.1776783333333","6501000","淡水區"
"251007","442-VK","2018/12/20 17:19:19","新北市淡水區民生路60號","121.462215","25.1378366666667","6501000","淡水區"
"251006","561-UM","2018/12/20 17:19:20","新北市淡水區重建街3巷27號","121.440508333333","25.1747166666667","6501000","淡水區"
"251011","650-BX","2018/12/20 17:19:24","新北市淡水區坪頂路128號","121.464828333333","25.1613716666667","6501000","淡水區"
"251003","766-UM","2018/12/20 17:19:24","新北市淡水區中正路二段31號","121.419271666667","25.1817983333333","6501000","淡水區"
"207003","550-UM","2018/12/20 17:19:28","新北市萬里區萬里里獅頭路23號","121.693286666667","25.1782616666667","6502800","萬里區"
"252002","178-VK","2018/12/20 17:19:34","新北市三芝區忠孝街1-15號","121.505526666667","25.2539083333333","6502100","三芝區"
"252001","292-VK","2018/12/20 17:19:29","新北市三芝區淡金路一段3號","121.4981","25.2596616666667","6502100","三芝區"
"237016","649-BX","2018/12/20 17:19:29","新北市三峽區中山路459巷163-3號","121.348665","24.9329533333333","6500900","三峽區"
"247008","KED-0683","2018/12/20 17:19:36","新北市蘆洲區信義路30巷141號","121.47541","25.0765","6501400","蘆洲區"
"242058","986-R7","2018/12/20 17:19:25","新北市新莊區三和路12-21號","121.44231","25.0379216666667","6500500","新莊區"
"242027","615-BX","2018/12/20 17:19:38","新北市新莊區中港一街161號","121.447055","25.0449033333333","6500500","新莊區"
"242029","612-BX","2018/12/20 17:19:23","新北市新莊區幸福路781號","121.446705","25.0490316666667","6500500","新莊區"
"242044","566-BX","2018/12/20 17:19:30","新北市新莊區民安路29號","121.423438333333","25.0275683333333","6500500","新莊區"
"242048","497-BY","2018/12/20 17:19:29","新北市新莊區龍安路116號","121.41892","25.0204583333333","6500500","新莊區"
"242002","440-UM","2018/12/20 17:19:26","新北市新莊區景德路382號","121.446165","25.0334883333333","6500500","新莊區"
"242039","415-TV","2018/12/20 17:19:29","新北市新莊區民安路336號","121.429195","25.0222583333333","6500500","新莊區"
"242046","400-BY","2018/12/20 17:19:26","新北市新莊區三和路12-12號","121.442303333333","25.0370316666667","6500500","新莊區"
"242023","362-BY","2018/12/20 17:19:26","新北市新莊區中平路82巷29號","121.446116666667","25.0449183333333","6500500","新莊區"
"242061","353-BY","2018/12/20 17:19:37","新北市新莊區新泰路401巷29-1號","121.442251666667","25.0439133333333","6500500","新莊區"
"242034","135-UY","2018/12/20 17:19:25","新北市新莊區新莊路771巷10號","121.442048333333","25.03187","6500500","新莊區"
"242051","172-VK","2018/12/20 17:19:38","新北市新莊區瓊林南路75-5號","121.435136666667","25.014205","6500500","新莊區"
"242013","173-VK","2018/12/20 17:19:38","新北市新莊區三和路12-21號","121.441943333333","25.0386233333333","6500500","新莊區"
"242019","175-VK","2018/12/20 17:19:23","新北市新莊區中平路82巷28號","121.446096666667","25.0448583333333","6500500","新莊區"
"242007","176-VK","2018/12/20 17:19:31","新北市新莊區中華路二段2號","121.453031666667","25.04444","6500500","新莊區"
"242017","KED-0687","2018/12/20 17:19:24","新北市新莊區中環路二段392-1號","121.442333333333","25.0455116666667","6500500","新莊區"
"242053","346-TH","2018/12/20 17:19:29","新北市新莊區瓊林路59-89號","121.442213333333","25.02433","6500500","新莊區"
"242009","347-TH","2018/12/20 17:19:29","新北市新莊區新泰路500號","121.44228","25.045895","6500500","新莊區"
"242031","348-TH","2018/12/20 17:19:28","新北市新莊區中環路二段392-1號","121.442376666667","25.0454816666667","6500500","新莊區"
"242004","349-TH","2018/12/20 17:19:26","新北市新莊區復興路一段29號","121.446386666667","25.0417733333333","6500500","新莊區"
"242021","350-TH","2018/12/20 17:19:33","新北市新莊區中港路273號","121.453476666667","25.04364","6500500","新莊區"
"242015","351-TH","2018/12/20 17:19:23","新北市新莊區新泰路240號","121.446386666667","25.0395316666667","6500500","新莊區"
"238015","755-BX","2018/12/20 17:19:23","新北市樹林區大安路267號","121.419025","24.993685","6500700","樹林區"
"238023","601-UM","2018/12/20 17:19:34","新北市樹林區三福街114號","121.406421666667","25.0162316666667","6500700","樹林區"
"238019","599-UM","2018/12/20 17:19:27","新北市樹林區八德街170號","121.421673333333","24.9780083333333","6500700","樹林區"
"238018","571-TV","2018/12/20 17:19:33","新北市樹林區鎮前街269巷33號","121.419303333333","24.98492","6500700","樹林區"
"238024","5061-A6","2018/12/20 17:19:29","新北市樹林區保安街一段48巷36號","121.426751666667","24.9956216666667","6500700","樹林區"
"238022","KEA-2213","2018/12/20 17:19:23","新北市樹林區忠孝街19號","121.423493333333","24.9825766666667","6500700","樹林區"
"238021","KEA-2539","2018/12/20 17:19:31","新北市樹林區西圳街一段71號","121.400385","24.9629716666667","6500700","樹林區"
"238025","303-VK","2018/12/20 17:19:21","新北市樹林區保安二街56號","121.42425","24.9952016666667","6500700","樹林區"
"238017","283-BY","2018/12/20 17:19:25","新北市樹林區光武街30巷2-3號","121.416495","25.00552","6500700","樹林區"
"238001","282-BY","2018/12/20 17:19:34","新北市樹林區長壽街70巷33弄1號","121.421328333333","24.9949183333333","6500700","樹林區"
"238020","268-VK","2018/12/20 17:19:39","新北市樹林區中正路22-1號","121.427923333333","24.999285","6500700","樹林區"
"238026","172-UY","2018/12/20 17:19:21","新北市樹林區東豐街85號","121.409983333333","24.9738483333333","6500700","樹林區"
"238016","169-UY","2018/12/20 17:18:08","新北市樹林區育英街156號","121.418783333333","24.9896583333333","6500700","樹林區"
"239007","AAC-297","2018/12/20 17:19:26","新北市鶯歌區國慶街115巷18號","121.3512","24.954385","6500800","鶯歌區"
"239006","891-R6","2018/12/20 17:19:29","新北市鶯歌區德昌街50號","121.3333","24.9598766666667","6500800","鶯歌區"
"239008","527-UM","2018/12/20 17:19:20","新北市鶯歌區國光街66-2號","121.340808333333","24.9577583333333","6500800","鶯歌區"
"239005","526-UM","2018/12/20 17:19:39","新北市鶯歌區福德三街7號","121.329983333333","24.9676116666667","6500800","鶯歌區"
"239001","417-VK","2018/12/20 17:19:33","新北市鶯歌區尖山路234號","121.343086666667","24.9466833333333","6500800","鶯歌區"
"239003","360-BY","2018/12/20 17:19:41","新北市鶯歌區德昌二街73號","121.3331","24.9580316666667","6500800","鶯歌區"
"239002","359-BY","2018/12/20 17:19:39","新北市鶯歌區國慶街82號","121.350196666667","24.9545433333333","6500800","鶯歌區"
"239004","193-VK","2018/12/20 17:19:26","新北市鶯歌區文化路322號","121.35239","24.9467083333333","6500800","鶯歌區"
"242042","281-VK","2018/12/20 17:19:32","新北市新莊區新莊路783號","121.441165","25.032645","6500500","新莊區"
"242056","280-VK","2018/12/20 17:19:33","新北市新莊區新泰路357巷3號","121.442016666667","25.04154","6500500","新莊區"
