"lineid","car","time","location","longitude","latitude","cityid","cityname"
"234026","9371-KE","2018/12/20 17:49:26","新北市永和區和平街84號","121.511471666667","25.009905","6500400","永和區"
"249005","172-UM","2018/12/20 17:49:32","新北市八里區荖阡坑路41-10號","121.402388333333","25.13342","6502300","八里區"
"249001","173-UM","2018/12/20 17:49:33","新北市八里區龍米路二段96號","121.445606666667","25.1472333333333","6502300","八里區"
"249004","303-UY","2018/12/20 17:49:34","新北市八里區中華路一段309巷19-6號","121.416766666667","25.1537016666667","6502300","八里區"
"249002","305-UY","2018/12/20 17:49:29","新北市八里區龍形五街35巷3號","121.449153333333","25.13353","6502300","八里區"
"249003","759-BX","2018/12/20 17:49:36","新北市八里區中山路二段88號","121.408248333333","25.155635","6502300","八里區"
"248016","026-BX","2018/12/20 17:40:32","新北市五股區中興路二段83巷26-6號","121.460096666667","25.075245","6501500","五股區"
"248006","077-UY","2018/12/20 17:49:20","新北市五股區中興路二段83巷26-3號","121.45989","25.075555","6501500","五股區"
"248008","095-VK","2018/12/20 17:49:25","新北市五股區中興路二段37巷26號","121.460503333333","25.0750416666667","6501500","五股區"
"248020","225-UY","2018/12/20 17:49:26","新北市五股區中興路二段83巷26-6號","121.460021666667","25.0752766666667","6501500","五股區"
"248004","677-BX","2018/12/20 17:49:25","新北市五股區中興路二段37巷28號","121.460225","25.0748183333333","6501500","五股區"
"232011","375-UM","2018/12/20 17:49:30","新北市坪林區北宜路八段222號","121.708725","24.9348166666667","6502000","坪林區"
"244019","402-UM","2018/12/20 17:49:24","新北市林口區麗園路121號","121.371573333333","25.06751","6501700","林口區"
"244012","KEA-2802","2018/12/20 17:49:35","新北市林口區中山路255號","121.38538","25.0794733333333","6501700","林口區"
"244023","483-VK","2018/12/20 17:49:33","新北市林口區東湖路10號","121.388965","25.0741666666667","6501700","林口區"
"244017","485-VK","2018/12/20 17:49:37","新北市林口區文化二路一段230巷5號","121.370655","25.0719933333333","6501700","林口區"
"244009","656-BX","2018/12/20 17:49:38","新北市林口區竹林路582巷13號","121.386005","25.083315","6501700","林口區"
"244007","657-BX","2018/12/20 17:49:36","新北市林口區林口路178號","121.387648333333","25.08269","6501700","林口區"
"244011","701-TV","2018/12/20 17:49:28","新北市林口區竹林路2號","121.386523333333","25.0769616666667","6501700","林口區"
"244025","837-TS","2018/12/20 17:49:33","新北市林口區三民路185號","121.360675","25.070885","6501700","林口區"
"244021","838-TS","2018/12/20 17:49:25","新北市林口區仁愛路一段83巷38號","121.397721666667","25.0706033333333","6501700","林口區"
"222003","436-BY","2018/12/20 17:49:34","新北市深坑區阿柔洋60-1號","121.608638333333","24.9985133333333","6501800","深坑區"
"222002","659-BX","2018/12/20 17:49:36","新北市深坑區平埔街22巷8號","121.614896666667","25.0009116666667","6501800","深坑區"
"231046","107-UY","2018/12/20 17:49:29","新北市新店區下石厝路1號","121.531213333333","24.92984","6500600","新店區"
"221036","KEA-2785","2018/12/20 17:49:27","新北市汐止區長江街286-2號","121.665476666667","25.0804","6501100","汐止區"
"231055","AKT-0513","2018/12/20 17:49:34","新北市新店區安華路1-1號","121.5196","24.9601816666667","6500600","新店區"
"241002","090-VK","2018/12/20 17:49:35","新北市八里區商港路48號","121.395818333333","25.145535","6500200","三重區"
"251014","742-BX","2018/12/20 17:49:38","新北市淡水區公埔子16-6號","121.480976666667","25.2246216666667","6501000","淡水區"
"241016","266-UM","2018/12/20 17:49:31","新北市三重區新北大道一段3-1號","121.4901","25.061385","6500200","三重區"
"241024","KEA-2210","2018/12/20 17:49:42","新北市三重區國道路一段42號","121.483061666667","25.072945","6500200","三重區"
"247012","KEA-2869","2018/12/20 17:49:25","新北市蘆洲區復興路116號","121.476325","25.087315","6501400","蘆洲區"
"247006","KED-0682","2018/12/20 17:49:23","新北市蘆洲區九芎街107號","121.465786666667","25.0797416666667","6501400","蘆洲區"
"247002","893-R6","2018/12/20 17:49:22","新北市蘆洲區永平街32巷33弄19號","121.458588333333","25.0923866666667","6501400","蘆洲區"
"247024","500-BY","2018/12/20 17:49:39","新北市蘆洲區長興路298巷10號","121.46113","25.0899","6501400","蘆洲區"
"247020","057-VK","2018/12/20 17:49:32","新北市蘆洲區民權路186號","121.471921666667","25.090615","6501400","蘆洲區"
"247010","056-VK","2018/12/20 17:49:31","新北市蘆洲區民族路39號","121.478146666667","25.08521","6501400","蘆洲區"
"247014","053-VK","2018/12/20 17:49:22","新北市蘆洲區保和街69巷2弄1號","121.469563333333","25.0857566666667","6501400","蘆洲區"
"247018","007-UY","2018/12/20 17:49:34","新北市蘆洲區復興路231號","121.480038333333","25.0898983333333","6501400","蘆洲區"
"247004","002-UY","2018/12/20 17:49:21","新北市蘆洲區長榮路211巷6號","121.46031","25.0847583333333","6501400","蘆洲區"
"247022","001-UY","2018/12/20 17:49:35","新北市蘆洲區中正路516巷18-1號","121.462768333333","25.0981416666667","6501400","蘆洲區"
"226004","312-R5","2018/12/20 17:49:23","新北市平溪區石底里公園街18-3號","121.73341","25.0257516666667","6502400","平溪區"
"235065","251-BX","2018/12/20 17:49:27","新北市中和區中正路637巷52弄1號","121.485446666667","24.99357","6500300","中和區"
"228003","097-TW","2018/12/20 17:49:29","新北市貢寮區真理里延平街68-2號","121.925013333333","25.0576416666667","6502600","貢寮區"
"228001","212-TW","2018/12/20 17:49:23","新北市貢寮區仁理村仁愛路95-1號","121.92765","25.05541","6502600","貢寮區"
"228002","585-TW","2018/12/20 17:49:35","新北市貢寮區福隆里龜壽谷街11-1號","121.955293333333","25.0065433333333","6502600","貢寮區"
"224006","676-BX","2018/12/20 17:49:20","新北市瑞芳區傑魚坑路183號","121.788446666667","25.1082783333333","6501200","瑞芳區"
"224008","285-BY","2018/12/20 17:49:25","新北市瑞芳區明燈路一段206號","121.818323333333","25.1087716666667","6501200","瑞芳區"
"224009","273-VK","2018/12/20 17:49:27","新北市瑞芳區山尖路97號","121.853725","25.114105","6501200","瑞芳區"
"224005","271-BY","2018/12/20 17:49:22","新北市瑞芳區海濱路154-1號","121.829826666667","25.12202","6501200","瑞芳區"
"253006","032-BX","2018/12/20 17:49:28","新北市石門區老崩山2-1號","121.555073333333","25.2917333333333","6502200","石門區"
"208002","KEA-2872","2018/12/20 17:49:29","新北市金山區磺清路135號","121.639448333333","25.2277316666667","6502700","金山區"
"208001","761-BX","2018/12/20 17:49:32","新北市金山區磺清路135號","121.639193333333","25.2277566666667","6502700","金山區"
"251009","008-UM","2018/12/20 17:49:28","新北市淡水區長興街48號","121.444256666667","25.17173","6501000","淡水區"
"251004","009-UM","2018/12/20 17:49:37","新北市淡水區民權一街17巷15號","121.459366666667","25.1366216666667","6501000","淡水區"
"251005","010-UM","2018/12/20 17:49:33","新北市淡水區學府路102巷8號","121.450616666667","25.171865","6501000","淡水區"
"251001","011-UM","2018/12/20 17:49:23","新北市淡水區民權路92巷35-1號","121.462193333333","25.12662","6501000","淡水區"
"251002","012-UM","2018/12/20 17:49:41","新北市淡水區中山路88號","121.442876666667","25.1705133333333","6501000","淡水區"
"251013","KEA-2871","2018/12/20 17:49:18","新北市淡水區泉洲厝31號","121.479628333333","25.1910383333333","6501000","淡水區"
"251016","179-VK","2018/12/20 17:49:35","新北市淡水區埤島39-15號","121.452733333333","25.1958583333333","6501000","淡水區"
"251008","181-VK","2018/12/20 17:49:33","新北市淡水區八勢路一段128號","121.467426666667","25.1573533333333","6501000","淡水區"
"251015","182-VK","2018/12/20 17:49:35","新北市淡水區樹林口6號","121.479873333333","25.1684016666667","6501000","淡水區"
"251010","413-VK","2018/12/20 17:49:32","新北市淡水區淡海路280巷33弄34-2號","121.418598333333","25.188465","6501000","淡水區"
"251012","441-VK","2018/12/20 17:49:41","新北市淡水區商工路393號","121.474513333333","25.1848466666667","6501000","淡水區"
"251007","442-VK","2018/12/20 17:49:36","新北市淡水區民生路16巷23號","121.461596666667","25.1374933333333","6501000","淡水區"
"251006","561-UM","2018/12/20 17:49:33","新北市淡水區中山北路一段45巷11號","121.441068333333","25.17569","6501000","淡水區"
"251011","650-BX","2018/12/20 17:47:44","新北市淡水區吳(仔)厝7-1號","121.48037","25.147185","6501000","淡水區"
"251003","766-UM","2018/12/20 17:49:24","新北市淡水區大忠街5巷2號","121.44316","25.1763933333333","6501000","淡水區"
"207003","550-UM","2018/12/20 17:49:28","新北市萬里區野柳里東澳路66號","121.692646666667","25.2008916666667","6502800","萬里區"
"207004","225-TW","2018/12/20 17:49:23","新北市萬里區萬里里瑪鋉頂街61號","121.688351666667","25.1804533333333","6502800","萬里區"
"252002","178-VK","2018/12/20 17:49:34","新北市三芝區智成街12號","121.503115","25.256695","6502100","三芝區"
"252001","292-VK","2018/12/20 17:49:29","新北市三芝區中興街一段39號","121.497668333333","25.2577883333333","6502100","三芝區"
"237007","153-BY","2018/12/20 17:49:26","新北市三峽區中園街207號","121.366976666667","24.9205716666667","6500900","三峽區"
"237009","210-TH","2018/12/20 17:49:23","新北市三峽區文化路248號","121.367268333333","24.93596","6500900","三峽區"
"237013","252-BX","2018/12/20 17:49:32","新北市三峽區愛國路16巷11號","121.373696666667","24.933305","6500900","三峽區"
"237012","275-BY","2018/12/20 17:49:26","新北市三峽區民生街71號","121.37507","24.9360166666667","6500900","三峽區"
"237008","302-VK","2018/12/20 17:49:32","新北市三峽區民權街134號","121.368645","24.931835","6500900","三峽區"
"237014","433-BY","2018/12/20 17:49:30","新北市三峽區文化路120巷21弄2號","121.371095","24.93696","6500900","三峽區"
"237006","5529-G3","2018/12/20 17:49:22","新北市三峽區介壽路二段38巷8號","121.391336666667","24.93507","6500900","三峽區"
"237011","KEA-2596","2018/12/20 17:49:35","新北市三峽區中正路一段246號","121.371955","24.927035","6500900","三峽區"
"237016","649-BX","2018/12/20 17:49:29","新北市三峽區白雞149-2號","121.400111666667","24.90551","6500900","三峽區"
"237010","706-TV","2018/12/20 17:49:40","新北市三峽區文化路212-3號","121.368478333333","24.9359616666667","6500900","三峽區"
"237005","AKY-6261","2018/12/20 17:49:23","新北市三峽區中山路321-2號","121.360911666667","24.9379766666667","6500900","三峽區"
"236070","105-UM","2018/12/20 17:49:26","新北市土城區青雲路647號","121.462133333333","24.966805","6501300","土城區"
"236042","KED-0685","2018/12/20 17:49:35","新北市土城區城林路6巷80號","121.43858","24.9797683333333","6501300","土城區"
"236078","166-UM","2018/12/20 17:49:30","新北市土城區中華路二段2號","121.438883333333","24.9798116666667","6501300","土城區"
"236030","253-BX","2018/12/20 17:49:37","新北市土城區城林路6巷80號","121.438711666667","24.97961","6501300","土城區"
"236014","270-VK","2018/12/20 17:49:32","新北市土城區城林路6巷80號","121.43854","24.9795533333333","6501300","土城區"
"247008","KED-0683","2018/12/20 17:49:36","新北市蘆洲區中山一路265號","121.472646666667","25.0801216666667","6501400","蘆洲區"
"236021","401-BY","2018/12/20 17:49:20","新北市土城區城林路6巷80號","121.438771666667","24.9796833333333","6501300","土城區"
"236059","912-UM","2018/12/20 17:49:42","新北市土城區中華路二段168-1號","121.43741","24.9724533333333","6501300","土城區"
"236049","913-UM","2018/12/20 17:49:20","新北市土城區城林路6巷80號","121.438648333333","24.9797416666667","6501300","土城區"
"236055","AAC-216","2018/12/20 17:49:32","新北市土城區城林路6巷80號","121.438465","24.979605","6501300","土城區"
"242036","AAC-296","2018/12/20 17:49:28","新北市新莊區建福路59巷12號","121.427391666667","25.0274233333333","6500500","新莊區"
"242058","986-R7","2018/12/20 17:49:27","新北市新莊區中正路700-12號","121.418586666667","25.0277","6500500","新莊區"
"242027","615-BX","2018/12/20 17:49:38","新北市新莊區福壽街173號","121.458066666667","25.0538833333333","6500500","新莊區"
"242025","613-BX","2018/12/20 17:49:40","新北市三重區新北大道二段27號","121.47113","25.061245","6500500","新莊區"
"242029","612-BX","2018/12/20 17:49:22","新北市新莊區新泰路310號","121.44543","25.0414066666667","6500500","新莊區"
"242044","566-BX","2018/12/20 17:49:30","新北市新莊區中正路855巷21號","121.420241666667","25.0269666666667","6500500","新莊區"
"242048","497-BY","2018/12/20 17:49:31","新北市新莊區萬安街102巷6號","121.420228333333","25.0226966666667","6500500","新莊區"
"242002","440-UM","2018/12/20 17:49:32","新北市新莊區景德路156號","121.45088","25.0341733333333","6500500","新莊區"
"242039","415-TV","2018/12/20 17:49:29","新北市新莊區民安路182號","121.425236666667","25.0237833333333","6500500","新莊區"
"242046","400-BY","2018/12/20 17:49:26","新北市新莊區建國一路31巷11號","121.434743333333","25.0316533333333","6500500","新莊區"
"242023","362-BY","2018/12/20 17:49:36","新北市新莊區福樂街35號","121.457685","25.0469033333333","6500500","新莊區"
"242061","353-BY","2018/12/20 17:49:37","新北市新莊區瓊林南路219號","121.43467","25.0089233333333","6500500","新莊區"
"242011","132-UY","2018/12/20 17:49:37","新北市新莊區中港路671號","121.450861666667","25.0559","6500500","新莊區"
"242034","135-UY","2018/12/20 17:49:25","新北市新莊區新樹路6號","121.440578333333","25.0327183333333","6500500","新莊區"
"242051","172-VK","2018/12/20 17:49:38","新北市新莊區西盛街257巷21號","121.428963333333","25.0159216666667","6500500","新莊區"
"242013","173-VK","2018/12/20 17:49:38","新北市新莊區中和街108巷11號","121.448233333333","25.0469766666667","6500500","新莊區"
"242019","175-VK","2018/12/20 17:49:38","新北市新莊區民樂街79號","121.457923333333","25.0427816666667","6500500","新莊區"
"242007","176-VK","2018/12/20 17:49:36","新北市新莊區福樂街132巷16號","121.456875","25.0485216666667","6500500","新莊區"
"242017","KED-0687","2018/12/20 17:49:28","新北市新莊區永安街49號","121.45146","25.0447216666667","6500500","新莊區"
"242053","346-TH","2018/12/20 17:49:29","新北市新莊區新樹路607號","121.433328333333","25.005295","6500500","新莊區"
"242009","347-TH","2018/12/20 17:49:29","新北市新莊區昌平街59巷20號","121.454116666667","25.05325","6500500","新莊區"
"242031","348-TH","2018/12/20 17:49:28","新北市新莊區新泰路321巷25號","121.44353","25.041145","6500500","新莊區"
"242004","349-TH","2018/12/20 17:49:26","新北市新莊區自立街231號","121.458041666667","25.0454883333333","6500500","新莊區"
"242021","350-TH","2018/12/20 17:49:41","新北市新莊區永寧街30巷2號","121.452845","25.0389266666667","6500500","新莊區"
"242015","351-TH","2018/12/20 17:49:23","新北市新莊區新泰路421-2號","121.443015","25.0450283333333","6500500","新莊區"
"238015","755-BX","2018/12/20 17:49:23","新北市樹林區復興路201號","121.420488333333","24.99148","6500700","樹林區"
"238023","601-UM","2018/12/20 17:49:34","新北市樹林區龍興街32巷12號","121.402363333333","25.0157333333333","6500700","樹林區"
"238019","599-UM","2018/12/20 17:49:27","新北市樹林區太元街66號","121.418581666667","24.9791066666667","6500700","樹林區"
"238018","571-TV","2018/12/20 17:49:34","新北市樹林區中正路7-1號","121.430288333333","24.9976333333333","6500700","樹林區"
"238022","KEA-2213","2018/12/20 17:49:23","新北市樹林區太順街86巷9號","121.416688333333","24.9785683333333","6500700","樹林區"
"238021","KEA-2539","2018/12/20 17:49:32","新北市樹林區柑園街一段60號","121.402903333333","24.9603166666667","6500700","樹林區"
"238025","303-VK","2018/12/20 17:49:21","新北市樹林區俊興街209-3號","121.417485","25.0141016666667","6500700","樹林區"
"238017","283-BY","2018/12/20 17:49:25","新北市樹林區俊德街11號","121.415056666667","25.014575","6500700","樹林區"
"238014","282-BY","2018/12/20 17:49:34","新北市樹林區保安街一段289巷48號","121.417166666667","24.9967983333333","6500700","樹林區"
"238020","268-VK","2018/12/20 17:49:39","新北市樹林區俊英街254-2號","121.424485","25.01127","6500700","樹林區"
"238026","172-UY","2018/12/20 17:49:20","新北市樹林區新興街19巷11號","121.400788333333","24.9732016666667","6500700","樹林區"
"238016","169-UY","2018/12/20 17:46:08","新北市樹林區育英街161號","121.419066666667","24.9893766666667","6500700","樹林區"
"239007","AAC-297","2018/12/20 17:49:26","新北市鶯歌區鶯桃路94巷29-2號","121.340976666667","24.9543183333333","6500800","鶯歌區"
"239006","891-R6","2018/12/20 17:49:29","新北市鶯歌區鶯桃路438號","121.333085","24.9648166666667","6500800","鶯歌區"
"239008","527-UM","2018/12/20 17:49:20","新北市鶯歌區大湖路718號","121.332903333333","24.9763333333333","6500800","鶯歌區"
"239005","526-UM","2018/12/20 17:49:39","新北市鶯歌區鳳吉五街37號","121.327556666667","24.9728383333333","6500800","鶯歌區"
"239001","417-VK","2018/12/20 17:49:33","新北市鶯歌區中正三路446-3號","121.323521666667","24.9345783333333","6500800","鶯歌區"
"239003","360-BY","2018/12/20 17:49:41","新北市鶯歌區鶯桃路295巷2號","121.334561666667","24.959845","6500800","鶯歌區"
"239002","359-BY","2018/12/20 17:49:19","新北市鶯歌區中山路329巷22弄17號","121.344511666667","24.9558266666667","6500800","鶯歌區"
"239004","193-VK","2018/12/20 17:49:27","新北市鶯歌區文化路206號","121.35282","24.9493516666667","6500800","鶯歌區"
"221008","489-VK","2018/12/20 17:49:25","新北市汐止區康寧街901號","121.651383333333","25.0750666666667","6501100","汐止區"
"221015","131-UY","2018/12/20 17:49:30","新北市汐止區汐萬路一段158號","121.652623333333","25.071405","6501100","汐止區"
"221010","269-BY","2018/12/20 17:49:25","新北市汐止區汐萬路二段109號","121.648303333333","25.0836933333333","6501100","汐止區"
"221012","278-VK","2018/12/20 17:49:22","新北市汐止區長江街15號","121.654846666667","25.07118","6501100","汐止區"
"221023","279-VK","2018/12/20 17:49:27","新北市汐止區民族一街1-2號","121.634906666667","25.070875","6501100","汐止區"
"221032","280-BY","2018/12/20 17:49:27","新北市汐止區汐萬路一段312號","121.650413333333","25.0754866666667","6501100","汐止區"
"221027","281-BY","2018/12/20 17:49:37","新北市汐止區汐萬路一段216號","121.651935","25.0726933333333","6501100","汐止區"
"221029","298-VK","2018/12/20 17:49:26","新北市汐止區康寧街901號","121.651665","25.0748816666667","6501100","汐止區"
"221021","299-VK","2018/12/20 17:49:33","新北市汐止區汐萬路一段18號","121.656026666667","25.0675083333333","6501100","汐止區"
"221031","353-TW","2018/12/20 17:49:26","新北市汐止區中興路96巷1-3號","121.635428333333","25.0625566666667","6501100","汐止區"
"221035","622-UM","2018/12/20 17:49:33","新北市汐止區汐萬路一段212號","121.65202","25.07244","6501100","汐止區"
"221025","623-UM","2018/12/20 17:49:23","新北市汐止區大同路二段187巷5號","121.651958333333","25.06467","6501100","汐止區"
"221038","646-BX","2018/12/20 17:49:42","新北市汐止區汐萬路一段208號","121.6521","25.07237","6501100","汐止區"
"221033","647-BX","2018/12/20 17:49:37","新北市汐止區林森街132巷6弄6號","121.624471666667","25.0405716666667","6501100","汐止區"
"221002","707-TV","2018/12/20 17:49:27","新北市汐止區康寧街901號","121.651481666667","25.0750116666667","6501100","汐止區"
"221018","753-BX","2018/12/20 17:49:31","新北市汐止區汐萬路一段39-3號","121.654945","25.0694083333333","6501100","汐止區"
"242042","281-VK","2018/12/20 17:49:32","新北市泰山區台麗街32號","121.428105","25.0355216666667","6500500","新莊區"
"242056","280-VK","2018/12/20 17:49:33","新北市新莊區瓊林路40巷29號","121.446608333333","25.0301583333333","6500500","新莊區"
