"lineid","car","time","location","longitude","latitude","cityid","cityname"
"234026","9371-KE","2018/12/20 18:09:26","新北市永和區中和路625號","121.512846666667","25.0050466666667","6500400","永和區"
"249005","172-UM","2018/12/20 18:09:12","新北市八里區荖阡坑路15-40號","121.4017","25.1398566666667","6502300","八里區"
"249001","173-UM","2018/12/20 18:08:53","新北市八里區龍米路二段30號","121.448656666667","25.1400133333333","6502300","八里區"
"249004","303-UY","2018/12/20 18:07:10","新北市八里區龍米路二段200巷3號","121.43372","25.158725","6502300","八里區"
"249002","305-UY","2018/12/20 18:07:49","新北市八里區龍米路一段356巷46號","121.45216","25.1303083333333","6502300","八里區"
"249003","759-BX","2018/12/20 18:07:16","新北市八里區松子腳13號","121.40267","25.145825","6502300","八里區"
"248014","025-BX","2018/12/20 18:07:17","新北市五股區成泰路一段198號","121.435833333333","25.0785083333333","6501500","五股區"
"248016","026-BX","2018/12/20 18:09:08","新北市五股區新五路三段1號","121.444461666667","25.0889566666667","6501500","五股區"
"248006","077-UY","2018/12/20 18:06:20","新北市五股區中興路二段95號","121.460418333333","25.0774566666667","6501500","五股區"
"248008","095-VK","2018/12/20 18:05:05","新北市蘆洲區永安南路二段356號","121.456083333333","25.0827983333333","6501500","五股區"
"248020","225-UY","2018/12/20 18:07:06","新北市五股區成泰路三段436號","121.455295","25.097215","6501500","五股區"
"248012","247-BX","2018/12/20 18:07:53","新北市五股區中興路三段190-2號","121.44336","25.0815183333333","6501500","五股區"
"248004","677-BX","2018/12/20 18:06:45","新北市五股區中興路三段198號","121.441713333333","25.08201","6501500","五股區"
"248002","678-BX","2018/12/20 18:08:44","新北市五股區中興路三段198號","121.441693333333","25.08191","6501500","五股區"
"248010","682-TV","2018/12/20 18:07:55","新北市五股區新五路二段129號","121.438518333333","25.07945","6501500","五股區"
"232011","375-UM","2018/12/20 18:06:10","新北市坪林區水柳腳1號","121.71177","24.935265","6502000","坪林區"
"244019","402-UM","2018/12/20 18:07:44","新北市林口區忠孝路561巷10號","121.373215","25.0687333333333","6501700","林口區"
"244012","KEA-2802","2018/12/20 18:08:15","新北市林口區林口路50號","121.390676666667","25.0790133333333","6501700","林口區"
"244023","483-VK","2018/12/20 18:08:12","新北市林口區東湖一街16號","121.38462","25.0721816666667","6501700","林口區"
"244017","485-VK","2018/12/20 18:08:29","新北市林口區八德路20巷1號","121.368295","25.0671983333333","6501700","林口區"
"244009","656-BX","2018/12/20 18:08:50","新北市林口區文化三路二段315號","121.379545","25.087305","6501700","林口區"
"244007","657-BX","2018/12/20 18:09:16","新北市林口區林口路124巷10弄1號","121.389063333333","25.0818516666667","6501700","林口區"
"244011","701-TV","2018/12/20 18:07:08","新北市林口區中正路30巷4號","121.395835","25.0776333333333","6501700","林口區"
"244025","837-TS","2018/12/20 18:05:22","新北市林口區文化北路一段301-1號","121.360386666667","25.0727","6501700","林口區"
"244021","838-TS","2018/12/20 18:09:06","新北市林口區自強五街5號","121.398705","25.0765466666667","6501700","林口區"
"222003","436-BY","2018/12/20 18:08:34","新北市深坑區腳坑2-3號","121.611316666667","24.9962266666667","6501800","深坑區"
"222002","659-BX","2018/12/20 18:04:56","新北市深坑區文化街52號","121.618928333333","25.0016016666667","6501800","深坑區"
"231041","002-UM","2018/12/20 18:06:31","新北市新店區安華路28-1號","121.519671666667","24.9607366666667","6500600","新店區"
"231059","046-UY","2018/12/20 18:09:20","新北市新店區安華路28-1號","121.519578333333","24.9606983333333","6500600","新店區"
"231040","047-UY","2018/12/20 18:08:42","新北市新店區安華路28-1號","121.519283333333","24.9609266666667","6500600","新店區"
"231046","107-UY","2018/12/20 18:06:09","新北市新店區直潭路88-1號","121.531931666667","24.9386016666667","6500600","新店區"
"231062","110-UY","2018/12/20 18:08:16","新北市新店區安一路一段1-1號","121.519745","24.96123","6500600","新店區"
"231054","KEA-2219","2018/12/20 18:08:41","新北市新店區安一路一段1-1號","121.519911666667","24.9612066666667","6500600","新店區"
"221036","KEA-2785","2018/12/20 18:06:56","新北市汐止區大同路三段147號","121.669653333333","25.0777233333333","6501100","汐止區"
"231057","256-BX","2018/12/20 18:08:10","新北市新店區安一路一段1-1號","121.519733333333","24.961115","6500600","新店區"
"231065","260-TV","2018/12/20 18:08:29","新北市新店區安華路1-1號","121.519751666667","24.9603533333333","6500600","新店區"
"231042","268-BY","2018/12/20 18:08:59","新北市新店區安華路1-1號","121.519436666667","24.9604783333333","6500600","新店區"
"231050","AAD-862","2018/12/20 18:07:46","新北市新店區安華路28-1號","121.519761666667","24.9608816666667","6500600","新店區"
"231058","3713-VJ","2018/12/20 18:08:17","新北市新店區安華路28-1號","121.519278333333","24.9605966666667","6500600","新店區"
"231066","4716-K9","2018/12/20 18:08:09","新北市新店區安一路一段1-1號","121.51913","24.9612233333333","6500600","新店區"
"231056","4715-K9","2018/12/20 18:07:23","新北市新店區安一路一段1-1號","121.519525","24.96112","6500600","新店區"
"231049","513-UM","2018/12/20 18:08:46","新北市新店區安華路28-1號","121.519553333333","24.9610283333333","6500600","新店區"
"231045","617-UM","2018/12/20 18:09:12","新北市新店區安華路28-1號","121.519441666667","24.960985","6500600","新店區"
"231061","619-UM","2018/12/20 18:09:08","新北市新店區安華路28-1號","121.519433333333","24.9607883333333","6500600","新店區"
"231063","641-BX","2018/12/20 18:07:49","新北市新店區安華路1-1號","121.519551666667","24.9602866666667","6500600","新店區"
"231064","719-UM","2018/12/20 18:07:10","新北市新店區安一路一段1-1號","121.519371666667","24.9612333333333","6500600","新店區"
"231060","897-TW","2018/12/20 18:05:47","新北市新店區安華路1-1號","121.519535","24.9603333333333","6500600","新店區"
"231055","AKT-0513","2018/12/20 18:08:34","新北市新店區安華路1-1號","121.519451666667","24.9603116666667","6500600","新店區"
"251014","742-BX","2018/12/20 18:04:18","新北市淡水區南平8-1號","121.484965","25.2225566666667","6501000","淡水區"
"241033","557-UM","2018/12/20 18:08:34","新北市三重區光復路一段68巷19號","121.47053","25.0493916666667","6500200","三重區"
"235066","003-UY","2018/12/20 18:07:54","新北市中和區圓通路12號","121.501543333333","24.9980283333333","6500300","中和區"
"235064","005-UY","2018/12/20 18:07:44","新北市中和區中正路303號","121.492881666667","24.9938583333333","6500300","中和區"
"235063","006-UY","2018/12/20 18:08:21","新北市中和區員山路36巷16-3號","121.485013333333","24.99144","6500300","中和區"
"235058","151-BY","2018/12/20 18:08:43","新北市中和區圓通路367巷33弄15號","121.495133333333","24.9850816666667","6500300","中和區"
"235038","185-VK","2018/12/20 18:09:18","新北市中和區景平路105號","121.516971666667","24.9919616666667","6500300","中和區"
"235067","255-BX","2018/12/20 18:05:20","新北市中和區和城路一段271巷1號","121.4857","24.9917533333333","6500300","中和區"
"247012","KEA-2869","2018/12/20 18:08:36","新北市蘆洲區民族路73號","121.479196666667","25.085855","6501400","蘆洲區"
"235070","558-UM","2018/12/20 18:05:34","新北市中和區中正路406號","121.492318333333","24.993945","6500300","中和區"
"235045","565-BX","2018/12/20 18:06:50","新北市中和區錦和路350-1號","121.490156666667","24.993525","6500300","中和區"
"235054","640-BX","2018/12/20 18:08:24","新北市中和區員山路77巷11弄8號","121.48","24.9935983333333","6500300","中和區"
"235046","733-UM","2018/12/20 18:09:08","新北市中和區員山路36巷13號","121.484055","24.99097","6500300","中和區"
"235062","800-TS","2018/12/20 18:08:40","新北市中和區新生街169號","121.483621666667","25.000925","6500300","中和區"
"235053","900-TW","2018/12/20 18:07:49","新北市中和區員山路36巷16-3號","121.484876666667","24.9918","6500300","中和區"
"235051","157-BY","2018/12/20 18:07:42","新北市中和區中興街116號","121.50003","24.99302","6500300","中和區"
"235037","AAC-213","2018/12/20 18:09:15","新北市中和區景平路149號","121.513825","24.992065","6500300","中和區"
"247016","546-UM","2018/12/20 18:04:32","新北市蘆洲區中正路185巷27號","121.466633333333","25.08447","6501400","蘆洲區"
"226004","312-R5","2018/12/20 18:06:43","新北市平溪區菁桐里菁桐街163號","121.723113333333","25.0236966666667","6502400","平溪區"
"235065","251-BX","2018/12/20 18:08:27","新北市中和區莊敬路49巷27號","121.501598333333","25.006185","6500300","中和區"
"228003","097-TW","2018/12/20 18:08:49","新北市貢寮區真理里美艷山街6-2號","121.928811666667","25.0607916666667","6502600","貢寮區"
"228001","212-TW","2018/12/20 18:04:23","新北市貢寮區真理里新港街26巷55弄2-1號","121.927416666667","25.052895","6502600","貢寮區"
"228002","585-TW","2018/12/20 18:05:55","新北市貢寮區福連里香蘭街32號","121.985778333333","25.02055","6502600","貢寮區"
"224006","676-BX","2018/12/20 18:05:59","新北市瑞芳區中山路201號","121.801401666667","25.10661","6501200","瑞芳區"
"224008","285-BY","2018/12/20 18:09:05","新北市瑞芳區員山子路3-9號","121.820453333333","25.1037133333333","6501200","瑞芳區"
"224007","275-VK","2018/12/20 18:05:18","新北市瑞芳區四腳亭埔路16號","121.777981666667","25.1023083333333","6501200","瑞芳區"
"224009","273-VK","2018/12/20 18:07:07","新北市瑞芳區金光路115號","121.85364","25.1062533333333","6501200","瑞芳區"
"224005","271-BY","2018/12/20 18:08:22","新北市瑞芳區深澳路67-1號","121.818221666667","25.1300633333333","6501200","瑞芳區"
"253006","032-BX","2018/12/20 18:08:28","新北市石門區老梅路52巷25弄2-1號","121.54678","25.287155","6502200","石門區"
"253005","295-VK","2018/12/20 18:07:42","新北市石門區中山路70-5號","121.568341666667","25.29171","6502200","石門區"
"222001","KEA-2212","2018/12/20 18:07:41","新北市深坑區北深路二段220號","121.612431666667","25.0012616666667","6501800","深坑區"
"208002","KEA-2872","2018/12/20 18:05:09","新北市金山區三界壇路109巷1號","121.618681666667","25.2305266666667","6502700","金山區"
"208003","665-BX","2018/12/20 18:08:14","新北市金山區磺港里磺港路203號","121.645023333333","25.22759","6502700","金山區"
"208001","761-BX","2018/12/20 18:04:52","新北市金山區磺港里磺港路160號","121.644936666667","25.2255983333333","6502700","金山區"
"251009","008-UM","2018/12/20 18:07:48","新北市淡水區大忠街34巷1號","121.443501666667","25.1757","6501000","淡水區"
"251004","009-UM","2018/12/20 18:08:57","新北市淡水區民族路110巷11號","121.461841666667","25.1354683333333","6501000","淡水區"
"251005","010-UM","2018/12/20 18:09:13","新北市淡水區水源街一段149號","121.447591666667","25.171775","6501000","淡水區"
"251001","011-UM","2018/12/20 18:08:03","新北市淡水區自立路8-6號","121.463216666667","25.129425","6501000","淡水區"
"251002","012-UM","2018/12/20 18:09:01","新北市淡水區中正東路一段3巷2號","121.450446666667","25.164695","6501000","淡水區"
"251013","KEA-2871","2018/12/20 18:08:18","新北市淡水區竹圍子9-1號","121.476878333333","25.19224","6501000","淡水區"
"251016","179-VK","2018/12/20 18:08:15","新北市淡水區下圭柔山13號","121.450971666667","25.2006916666667","6501000","淡水區"
"251008","181-VK","2018/12/20 18:04:53","新北市淡水區中正東路二段7號","121.457981666667","25.1587383333333","6501000","淡水區"
"251015","182-VK","2018/12/20 18:09:15","新北市淡水區興福寮88巷1號","121.485321666667","25.1649766666667","6501000","淡水區"
"251010","413-VK","2018/12/20 18:09:10","新北市淡水區中正路二段50巷10號","121.419888333333","25.18334","6501000","淡水區"
"251012","441-VK","2018/12/20 18:06:41","新北市淡水區泉洲厝13-1號","121.488476666667","25.190125","6501000","淡水區"
"251006","561-UM","2018/12/20 18:05:39","新北市淡水區真理街3巷8號","121.437248333333","25.17534","6501000","淡水區"
"251011","650-BX","2018/12/20 18:08:24","新北市淡水區三空泉9-2號","121.474125","25.1635166666667","6501000","淡水區"
"251003","766-UM","2018/12/20 18:08:43","新北市淡水區大忠街113巷6號","121.446845","25.1775983333333","6501000","淡水區"
"207003","550-UM","2018/12/20 18:08:08","新北市萬里區野柳里港西路56-3號","121.685268333333","25.2034683333333","6502800","萬里區"
"207004","225-TW","2018/12/20 18:07:43","新北市萬里區中幅里中福路84號","121.676065","25.1706883333333","6502800","萬里區"
"252002","178-VK","2018/12/20 18:09:14","新北市三芝區中山路二段39號","121.502951666667","25.2551083333333","6502100","三芝區"
"252003","249-BX","2018/12/20 18:09:15","新北市三芝區埔頭里埔頭39-1號","121.498978333333","25.2607066666667","6502100","三芝區"
"252001","292-VK","2018/12/20 18:08:49","新北市三芝區中興街二段2號","121.498473333333","25.2566516666667","6502100","三芝區"
"237007","153-BY","2018/12/20 18:06:26","新北市三峽區中正路二段370巷36號","121.364555","24.9112183333333","6500900","三峽區"
"237009","210-TH","2018/12/20 18:08:23","新北市三峽區復興路303巷1弄8號","121.365775","24.93835","6500900","三峽區"
"237013","252-BX","2018/12/20 18:07:11","新北市三峽區介壽路一段53號","121.37562","24.9329283333333","6500900","三峽區"
"237012","275-BY","2018/12/20 18:06:06","新北市三峽區民生街1巷6-8號","121.377176666667","24.9357683333333","6500900","三峽區"
"237008","302-VK","2018/12/20 18:08:52","新北市三峽區白雞40-6號","121.376585","24.9116833333333","6500900","三峽區"
"237014","433-BY","2018/12/20 18:05:50","新北市三峽區和平街103號","121.370371666667","24.9380383333333","6500900","三峽區"
"237006","5529-G3","2018/12/20 18:09:22","新北市三峽區介壽路二段167號","121.394728333333","24.9359233333333","6500900","三峽區"
"237011","KEA-2596","2018/12/20 18:09:15","新北市三峽區大同路22號","121.377843333333","24.9294433333333","6500900","三峽區"
"237016","649-BX","2018/12/20 18:06:29","新北市三峽區紫微路22號","121.421181666667","24.9192416666667","6500900","三峽區"
"237010","706-TV","2018/12/20 18:07:40","新北市三峽區民權街203號","121.367713333333","24.92837","6500900","三峽區"
"237005","AKY-6261","2018/12/20 18:07:03","新北市三峽區和平街79巷9號","121.369718333333","24.9371566666667","6500900","三峽區"
"236070","105-UM","2018/12/20 18:07:46","新北市土城區青雲路368號","121.458716666667","24.9738","6501300","土城區"
"236042","KED-0685","2018/12/20 18:07:55","新北市土城區城林路6巷80號","121.438518333333","24.9797666666667","6501300","土城區"
"236078","166-UM","2018/12/20 18:06:10","新北市土城區永寧路32巷10弄45號","121.428973333333","24.9613066666667","6501300","土城區"
"236030","253-BX","2018/12/20 18:08:37","新北市土城區城林路6巷80號","121.438711666667","24.97961","6501300","土城區"
"236026","269-VK","2018/12/20 18:09:07","新北市土城區承天路67號","121.439613333333","24.96347","6501300","土城區"
"236014","270-VK","2018/12/20 18:07:32","新北市土城區學府路二段1號","121.449425","24.982235","6501300","土城區"
"236038","271-VK","2018/12/20 18:08:45","新北市土城區明德路一段385-1號","121.452736666667","24.9797433333333","6501300","土城區"
"236021","401-BY","2018/12/20 18:02:40","新北市土城區城林路6巷80號","121.438463333333","24.979795","6501300","土城區"
"236059","912-UM","2018/12/20 18:08:56","新北市土城區中央路四段188號","121.416398333333","24.9577716666667","6501300","土城區"
"236049","913-UM","2018/12/20 18:09:20","新北市土城區金城路二段12號","121.449273333333","24.9773033333333","6501300","土城區"
"236063","915-UM","2018/12/20 18:07:06","新北市土城區中央路二段98號","121.44207","24.97833","6501300","土城區"
"236055","AAC-216","2018/12/20 18:04:51","新北市土城區中華路二段92號","121.438248333333","24.9747566666667","6501300","土城區"
"242036","AAC-296","2018/12/20 18:02:49","新北市新莊區後港一路65巷10號","121.426475","25.02693","6500500","新莊區"
"242058","986-R7","2018/12/20 18:08:49","新北市新莊區雙鳳路134巷9號","121.412548333333","25.0281733333333","6500500","新莊區"
"242027","615-BX","2018/12/20 18:05:18","新北市新莊區幸福路83號","121.456396666667","25.0493616666667","6500500","新莊區"
"242025","613-BX","2018/12/20 18:04:01","新北市新莊區五權一路18號","121.457121666667","25.0650183333333","6500500","新莊區"
"242029","612-BX","2018/12/20 18:05:42","新北市新莊區中平路136號","121.444833333333","25.04679","6500500","新莊區"
"242044","566-BX","2018/12/20 18:05:10","新北市新莊區雙鳳路137號","121.412871666667","25.027195","6500500","新莊區"
"242048","497-BY","2018/12/20 18:05:09","新北市新莊區富國路130號","121.422596666667","25.0250716666667","6500500","新莊區"
"242002","440-UM","2018/12/20 18:06:27","新北市新莊區新莊路22號","121.458683333333","25.0373616666667","6500500","新莊區"
"242039","415-TV","2018/12/20 18:05:49","新北市新莊區民安西路88巷12弄16號","121.425968333333","25.0203433333333","6500500","新莊區"
"242046","400-BY","2018/12/20 18:09:06","新北市新莊區福營路226號","121.42727","25.02924","6500500","新莊區"
"242023","362-BY","2018/12/20 18:08:46","新北市新莊區幸福路908號","121.442913333333","25.0490433333333","6500500","新莊區"
"242061","353-BY","2018/12/20 18:04:57","新北市新莊區新樹路399號","121.432866666667","25.0161666666667","6500500","新莊區"
"242011","132-UY","2018/12/20 18:03:16","新北市新莊區中港路中慶巷13號","121.450588333333","25.0538083333333","6500500","新莊區"
"242034","135-UY","2018/12/20 18:08:03","新北市新莊區福海街24巷11號","121.446013333333","25.0342033333333","6500500","新莊區"
"242051","172-VK","2018/12/20 18:03:58","新北市新莊區民本街53巷19號","121.428951666667","25.0181716666667","6500500","新莊區"
"242019","175-VK","2018/12/20 18:05:23","新北市新莊區民樂街2巷2號","121.45756","25.0396466666667","6500500","新莊區"
"242007","176-VK","2018/12/20 18:07:43","新北市新莊區自立街79巷20號","121.454453333333","25.0461266666667","6500500","新莊區"
"242017","KED-0687","2018/12/20 18:04:24","新北市新莊區永樂街92號","121.450481666667","25.0449233333333","6500500","新莊區"
"242053","346-TH","2018/12/20 18:08:09","新北市新莊區民安西路344號","121.427065","25.0113666666667","6500500","新莊區"
"242009","347-TH","2018/12/20 18:05:29","新北市新莊區昌平街71巷17號","121.453681666667","25.0536166666667","6500500","新莊區"
"242031","348-TH","2018/12/20 18:07:40","新北市新莊區新泰路289巷51號","121.443303333333","25.04033","6500500","新莊區"
"242004","349-TH","2018/12/20 18:05:26","新北市新莊區自由街52號","121.455886666667","25.045835","6500500","新莊區"
"242021","350-TH","2018/12/20 18:06:33","新北市新莊區新興街45巷6號","121.450431666667","25.0393066666667","6500500","新莊區"
"242015","351-TH","2018/12/20 18:04:43","新北市新莊區中平路130號","121.44504","25.0466933333333","6500500","新莊區"
"238015","755-BX","2018/12/20 18:07:03","新北市樹林區啟智街84-2號","121.418731666667","24.99051","6500700","樹林區"
"238023","601-UM","2018/12/20 18:05:54","新北市樹林區福興街18號","121.404143333333","25.0161533333333","6500700","樹林區"
"238019","599-UM","2018/12/20 18:06:07","新北市樹林區水源街32巷39號","121.425318333333","24.9805883333333","6500700","樹林區"
"238018","571-TV","2018/12/20 18:03:04","新北市樹林區樹新路162號","121.430586666667","24.9994233333333","6500700","樹林區"
"238022","KEA-2213","2018/12/20 18:05:23","新北市樹林區太平路174巷29弄2號","121.417528333333","24.9764533333333","6500700","樹林區"
"238021","KEA-2539","2018/12/20 18:09:01","新北市樹林區柑園街二段9號","121.388155","24.955805","6500700","樹林區"
"238025","303-VK","2018/12/20 18:05:21","新北市樹林區保安街二段179-1號","121.415333333333","25.003","6500700","樹林區"
"238017","283-BY","2018/12/20 18:06:25","新北市樹林區中正路815號","121.40952","25.0168483333333","6500700","樹林區"
"238014","282-BY","2018/12/20 18:08:14","新北市樹林區潭興街107巷1弄11號","121.424941666667","24.9987066666667","6500700","樹林區"
"238020","268-VK","2018/12/20 18:06:59","新北市樹林區俊興街298號","121.418641666667","25.01812","6500700","樹林區"
"238026","172-UY","2018/12/20 18:06:20","新北市樹林區中山路三段125-10號","121.39738","24.973435","6500700","樹林區"
"238016","169-UY","2018/12/20 18:03:28","新北市樹林區日新街172巷6號","121.419805","24.988205","6500700","樹林區"
"239007","AAC-297","2018/12/20 18:08:46","新北市鶯歌區育英街53號","121.347126666667","24.9526766666667","6500800","鶯歌區"
"239006","891-R6","2018/12/20 18:08:09","新北市鶯歌區鶯桃路381巷2弄3號","121.333173333333","24.9634516666667","6500800","鶯歌區"
"239008","527-UM","2018/12/20 18:05:00","新北市鶯歌區明圓街21號","121.336228333333","24.9772683333333","6500800","鶯歌區"
"239005","526-UM","2018/12/20 18:08:39","新北市鶯歌區鶯桃路668巷73號","121.329878333333","24.9718283333333","6500800","鶯歌區"
"239001","417-VK","2018/12/20 18:07:34","新北市鶯歌區尖山路376號","121.342033333333","24.9438233333333","6500800","鶯歌區"
"239003","360-BY","2018/12/20 18:07:00","新北市鶯歌區福安街1號","121.334045","24.9638","6500800","鶯歌區"
"239002","359-BY","2018/12/20 18:07:59","新北市鶯歌區中山路249巷4弄9-1號","121.34592","24.9565266666667","6500800","鶯歌區"
"239004","193-VK","2018/12/20 18:07:06","新北市鶯歌區環河路85號","121.347053333333","24.9392533333333","6500800","鶯歌區"
"221008","489-VK","2018/12/20 18:08:46","新北市汐止區康寧街315號","121.627058333333","25.067845","6501100","汐止區"
"221015","131-UY","2018/12/20 18:08:10","新北市汐止區長江街338號","121.667018333333","25.0818633333333","6501100","汐止區"
"221010","269-BY","2018/12/20 18:08:00","新北市汐止區汐萬路二段234號","121.646586666667","25.0884533333333","6501100","汐止區"
"221012","278-VK","2018/12/20 18:07:02","新北市汐止區保一街103號","121.674925","25.0803616666667","6501100","汐止區"
"221023","279-VK","2018/12/20 18:07:47","新北市汐止區民族六街2巷23號","121.628428333333","25.0701566666667","6501100","汐止區"
"221032","280-BY","2018/12/20 18:04:47","新北市汐止區橫科路73巷8號","121.619578333333","25.0509416666667","6501100","汐止區"
"221027","281-BY","2018/12/20 18:05:17","新北市汐止區大同路二段488號","121.660468333333","25.067975","6501100","汐止區"
"221029","298-VK","2018/12/20 18:09:06","新北市汐止區樟樹二路134號","121.639976666667","25.065705","6501100","汐止區"
"221021","299-VK","2018/12/20 18:08:53","新北市汐止區復興路10號","121.655735","25.0645866666667","6501100","汐止區"
"221031","353-TW","2018/12/20 18:07:36","新北市汐止區中興路206號","121.63127","25.0660833333333","6501100","汐止區"
"221035","622-UM","2018/12/20 18:09:13","新北市汐止區汐萬路一段39號","121.655095","25.06903","6501100","汐止區"
"221025","623-UM","2018/12/20 18:05:43","新北市汐止區秀峰路139號","121.66028","25.06241","6501100","汐止區"
"221038","646-BX","2018/12/20 18:04:42","新北市汐止區南興路83巷11號","121.653415","25.0591316666667","6501100","汐止區"
"221033","647-BX","2018/12/20 18:09:17","新北市汐止區宜興街20巷21號","121.622286666667","25.0409616666667","6501100","汐止區"
"221002","707-TV","2018/12/20 18:07:07","新北市汐止區福德一路235號","121.634025","25.0650066666667","6501100","汐止區"
"221018","753-BX","2018/12/20 18:07:31","新北市汐止區招商街4巷2號","121.666433333333","25.068985","6501100","汐止區"
"224002","257-TC","2018/12/20 18:07:35","新北市瑞芳區三爪子坑路94-2號","121.80943","25.10536","6501200","瑞芳區"
"242042","281-VK","2018/12/20 18:04:32","新北市新莊區中正路662號","121.421068333333","25.0287633333333","6500500","新莊區"
"242056","280-VK","2018/12/20 18:06:13","新北市新莊區豐年街55-4號","121.44654","25.0311016666667","6500500","新莊區"
"235061","KEA-2875","2018/12/20 18:06:29","新北市中和區連城路599號","121.478758333333","24.9932566666667","6500300","中和區"
