"lineid","car","time","location","longitude","latitude","cityid","cityname"
"234007","839-RS","2018/12/20 18:17:58","新北市永和區環河東路一段114號","121.52035","25.01598","6500400","永和區"
"234026","9371-KE","2018/12/20 18:19:26","新北市永和區豫溪街28巷22號","121.515018333333","25.008945","6500400","永和區"
"234011","9373-KE","2018/12/20 18:17:18","新北市永和區環河東路一段162號","121.521411666667","25.0146383333333","6500400","永和區"
"249005","172-UM","2018/12/20 18:14:12","新北市八里區荖阡坑路15號","121.401575","25.1398816666667","6502300","八里區"
"249001","173-UM","2018/12/20 18:19:13","新北市八里區龍米路一段262號","121.4517","25.128935","6502300","八里區"
"249004","303-UY","2018/12/20 18:18:34","新北市八里區龍米路二段232巷1弄8號","121.430695","25.159455","6502300","八里區"
"249002","305-UY","2018/12/20 18:16:29","新北市八里區龍形二街26號","121.450728333333","25.1327","6502300","八里區"
"248014","025-BX","2018/12/20 18:14:17","新北市五股區成泰路一段171巷15號","121.434345","25.07435","6501500","五股區"
"248016","026-BX","2018/12/20 18:18:28","新北市五股區成泰路三段477巷9號","121.449921666667","25.0988716666667","6501500","五股區"
"248006","077-UY","2018/12/20 18:13:41","新北市五股區中興路二段30-2號","121.462315","25.0755266666667","6501500","五股區"
"248008","095-VK","2018/12/20 18:18:25","新北市五股區更洲路32巷8弄14號","121.459251666667","25.07963","6501500","五股區"
"248020","225-UY","2018/12/20 18:15:04","新北市五股區孝義路38號","121.454363333333","25.11014","6501500","五股區"
"248012","247-BX","2018/12/20 18:17:13","新北市五股區御史路1巷1號","121.44222","25.090255","6501500","五股區"
"248004","677-BX","2018/12/20 18:17:05","新北市五股區中興路四段56號","121.437846666667","25.0830383333333","6501500","五股區"
"248002","678-BX","2018/12/20 18:14:04","新北市五股區成泰路三段101-1號","121.443948333333","25.09026","6501500","五股區"
"248010","682-TV","2018/12/20 18:17:35","新北市五股區成泰路一段189巷14-3號","121.43376","25.0773866666667","6501500","五股區"
"232011","375-UM","2018/12/20 18:12:10","新北市坪林區下坑子口5-9號","121.713575","24.9423183333333","6502000","坪林區"
"244019","402-UM","2018/12/20 18:17:24","新北市林口區忠孝路581巷6號","121.375083333333","25.0686266666667","6501700","林口區"
"244012","KEA-2802","2018/12/20 18:19:15","新北市林口區中山路250-1號","121.385711666667","25.0795316666667","6501700","林口區"
"244023","483-VK","2018/12/20 18:19:12","新北市林口區東湖路153巷135號","121.382236666667","25.0736083333333","6501700","林口區"
"244017","485-VK","2018/12/20 18:15:51","新北市林口區公園路8號","121.366278333333","25.0664433333333","6501700","林口區"
"244009","656-BX","2018/12/20 18:14:18","新北市林口區民生路131巷2-2號","121.377716666667","25.08895","6501700","林口區"
"244007","657-BX","2018/12/20 18:17:59","新北市林口區林口路114號","121.388668333333","25.0814166666667","6501700","林口區"
"244011","701-TV","2018/12/20 18:15:33","新北市林口區中正路74巷5弄3號","121.394485","25.0779966666667","6501700","林口區"
"244025","837-TS","2018/12/20 18:16:13","新北市林口區文化北路一段133號","121.35666","25.0694683333333","6501700","林口區"
"244021","838-TS","2018/12/20 18:16:05","新北市林口區自強七街1號","121.400311666667","25.0767516666667","6501700","林口區"
"222003","436-BY","2018/12/20 18:17:52","新北市深坑區旺耽路67號","121.62623","25.0030083333333","6501800","深坑區"
"222002","659-BX","2018/12/20 18:17:16","新北市深坑區文化街8號","121.620498333333","25.0013383333333","6501800","深坑區"
"231041","002-UM","2018/12/20 18:16:31","新北市新店區安華路28-1號","121.519608333333","24.9606616666667","6500600","新店區"
"231059","046-UY","2018/12/20 18:19:00","新北市新店區安華路28-1號","121.51955","24.9608133333333","6500600","新店區"
"231040","047-UY","2018/12/20 18:19:02","新北市新店區安華路28-1號","121.519133333333","24.9609","6500600","新店區"
"231044","106-UY","2018/12/20 18:18:05","新北市新店區安華路28-1號","121.51959","24.9607433333333","6500600","新店區"
"231046","107-UY","2018/12/20 18:18:29","新北市新店區直潭七街60號","121.532263333333","24.9398066666667","6500600","新店區"
"231052","108-UY","2018/12/20 18:17:23","新北市新店區安康路一段240-1號","121.521886666667","24.9637583333333","6500600","新店區"
"231062","110-UY","2018/12/20 18:18:16","新北市新店區安一路一段1-1號","121.519826666667","24.961235","6500600","新店區"
"231047","187-VK","2018/12/20 18:18:39","新北市新店區安一路一段1-1號","121.519473333333","24.961075","6500600","新店區"
"231054","KEA-2219","2018/12/20 18:17:41","新北市新店區安一路一段1-1號","121.519885","24.9611816666667","6500600","新店區"
"221036","KEA-2785","2018/12/20 18:14:47","新北市汐止區長安路75號","121.669026666667","25.078415","6501100","汐止區"
"231057","256-BX","2018/12/20 18:18:30","新北市新店區安一路一段1-1號","121.519691666667","24.961095","6500600","新店區"
"231065","260-TV","2018/12/20 18:17:49","新北市新店區安華路1-1號","121.519663333333","24.9604083333333","6500600","新店區"
"231042","268-BY","2018/12/20 18:18:19","新北市新店區安華路1-1號","121.519446666667","24.9604933333333","6500600","新店區"
"231051","278-BY","2018/12/20 18:17:04","新北市新店區安華路28-1號","121.51973","24.961045","6500600","新店區"
"231050","AAD-862","2018/12/20 18:19:06","新北市新店區安華路28-1號","121.519665","24.96103","6500600","新店區"
"231058","3713-VJ","2018/12/20 18:18:57","新北市新店區安康路一段150號","121.526341666667","24.9629166666667","6500600","新店區"
"231066","4716-K9","2018/12/20 18:19:09","新北市新店區安一路一段1-1號","121.5192","24.9612","6500600","新店區"
"231056","4715-K9","2018/12/20 18:19:15","新北市新店區中正路439號","121.53402","24.9785133333333","6500600","新店區"
"231049","513-UM","2018/12/20 18:18:26","新北市新店區安華路28-1號","121.51958","24.9610316666667","6500600","新店區"
"231045","617-UM","2018/12/20 18:16:32","新北市新店區安華路28-1號","121.519431666667","24.9608016666667","6500600","新店區"
"231061","619-UM","2018/12/20 18:18:48","新北市新店區安華路28-1號","121.51945","24.9606533333333","6500600","新店區"
"231063","641-BX","2018/12/20 18:18:48","新北市新店區安華路1-1號","121.519535","24.9603533333333","6500600","新店區"
"231064","719-UM","2018/12/20 18:16:10","新北市新店區安一路一段1-1號","121.519426666667","24.96107","6500600","新店區"
"231060","897-TW","2018/12/20 18:19:07","新北市新店區安華路1-1號","121.51946","24.9604616666667","6500600","新店區"
"231043","899-TW","2018/12/20 18:19:15","新北市新店區安華路28-1號","121.519106666667","24.960875","6500600","新店區"
"231055","AKT-0513","2018/12/20 18:18:34","新北市新店區北新路一段89號","121.53863","24.9617033333333","6500600","新店區"
"251014","742-BX","2018/12/20 18:12:18","新北市淡水區北勢子4-6號","121.485065","25.22362","6501000","淡水區"
"241033","557-UM","2018/12/20 18:16:34","新北市三重區中興北街56-1號","121.469011666667","25.0514933333333","6500200","三重區"
"235066","003-UY","2018/12/20 18:18:34","新北市中和區中山路二段120號","121.502695","25.0037216666667","6500300","中和區"
"235064","005-UY","2018/12/20 18:18:44","新北市中和區圓通路141巷48弄29號","121.498008333333","24.9943616666667","6500300","中和區"
"235063","006-UY","2018/12/20 18:15:41","新北市中和區中正路571巷2弄11號","121.486101666667","24.99375","6500300","中和區"
"235056","096-UM","2018/12/20 18:18:48","新北市中和區中正路839巷29號","121.483533333333","25.0022216666667","6500300","中和區"
"235039","097-UM","2018/12/20 18:15:33","新北市中和區中正路169號","121.498036666667","24.993655","6500300","中和區"
"235058","151-BY","2018/12/20 18:17:55","新北市中和區圓通路367巷21-1號","121.492555","24.9863966666667","6500300","中和區"
"235055","183-VK","2018/12/20 18:18:40","新北市中和區員山路82巷10弄7號","121.481491666667","24.9935916666667","6500300","中和區"
"235038","185-VK","2018/12/20 18:15:38","新北市中和區大智街79號","121.521611666667","24.9922183333333","6500300","中和區"
"235049","186-VK","2018/12/20 18:18:57","新北市中和區中正路525號","121.487966666667","24.993525","6500300","中和區"
"235067","255-BX","2018/12/20 18:19:00","新北市中和區和城路一段271巷1號","121.48572","24.9917416666667","6500300","中和區"
"235042","KEA-2878","2018/12/20 18:18:03","新北市中和區中正路275號","121.495551666667","24.99381","6500300","中和區"
"247012","KEA-2869","2018/12/20 18:17:45","新北市五股區成泰路一段98巷77號","121.452498333333","25.0806516666667","6501400","蘆洲區"
"235050","4979-A6","2018/12/20 18:14:22","新北市中和區中正路49號","121.501873333333","24.993405","6500300","中和區"
"235069","4980-A6","2018/12/20 18:17:18","新北市中和區中正路589巷3號","121.485863333333","24.994225","6500300","中和區"
"235070","558-UM","2018/12/20 18:19:14","新北市中和區圓通路76號","121.500105","24.9971916666667","6500300","中和區"
"235045","565-BX","2018/12/20 18:18:30","新北市中和區景安路200巷5號","121.50349","24.9915883333333","6500300","中和區"
"235054","640-BX","2018/12/20 18:16:24","新北市中和區莒光路207號","121.469878333333","24.9956866666667","6500300","中和區"
"235060","647-TV","2018/12/20 18:19:09","新北市中和區員山路271-1號","121.481363333333","24.999385","6500300","中和區"
"235047","732-UM","2018/12/20 18:18:51","新北市中和區復興路321號","121.500888333333","24.9902116666667","6500300","中和區"
"235046","733-UM","2018/12/20 18:19:08","新北市中和區中正路637巷52弄1號","121.485418333333","24.99359","6500300","中和區"
"235062","800-TS","2018/12/20 18:19:21","新北市中和區景平路999巷2號","121.495361666667","25.006035","6500300","中和區"
"235057","801-TS","2018/12/20 18:18:35","新北市中和區民安街53-5號","121.479531666667","24.9995833333333","6500300","中和區"
"235041","802-TS","2018/12/20 18:17:11","新北市中和區中正路637巷60弄61號","121.485516666667","24.99323","6500300","中和區"
"235052","805-TS","2018/12/20 18:19:19","新北市中和區興南路一段86號","121.509876666667","24.989415","6500300","中和區"
"235048","896-TW","2018/12/20 18:17:37","新北市中和區錦和路350-1號","121.490523333333","24.993565","6500300","中和區"
"235053","900-TW","2018/12/20 18:16:29","新北市中和區員山路36巷16-3號","121.484841666667","24.9918066666667","6500300","中和區"
"235051","157-BY","2018/12/20 18:16:42","新北市中和區信義街59號","121.511463333333","24.988445","6500300","中和區"
"235037","AAC-213","2018/12/20 18:13:55","新北市中和區景德街128號","121.51449","24.9910633333333","6500300","中和區"
"226004","312-R5","2018/12/20 18:11:43","新北市平溪區薯榔里薯榔寮28號","121.713583333333","25.01949","6502400","平溪區"
"235065","251-BX","2018/12/20 18:18:27","新北市中和區莊敬路49巷18號","121.501638333333","25.0061766666667","6500300","中和區"
"228003","097-TW","2018/12/20 18:17:49","新北市貢寮區真理里美艷山街27號","121.923363333333","25.06896","6502600","貢寮區"
"228001","212-TW","2018/12/20 18:18:03","新北市貢寮區真理里新港街26巷55弄2-1號","121.927408333333","25.052885","6502600","貢寮區"
"228002","585-TW","2018/12/20 18:14:16","新北市貢寮區福連里馬崗街6號","122.001541666667","25.013775","6502600","貢寮區"
"224006","676-BX","2018/12/20 18:13:40","新北市瑞芳區三爪子坑路106巷1-2號","121.808186666667","25.1049183333333","6501200","瑞芳區"
"224008","285-BY","2018/12/20 18:17:45","新北市瑞芳區逢甲路15號","121.809825","25.1087016666667","6501200","瑞芳區"
"224007","275-VK","2018/12/20 18:16:58","新北市瑞芳區大埔路41號","121.765213333333","25.102085","6501200","瑞芳區"
"224009","273-VK","2018/12/20 18:12:07","新北市瑞芳區金光路221號","121.852063333333","25.1067733333333","6501200","瑞芳區"
"224005","271-BY","2018/12/20 18:13:41","新北市瑞芳區建基路二段78-1號","121.814735","25.1291066666667","6501200","瑞芳區"
"227004","642-TC","2018/12/20 18:19:02","新北市雙溪區共和里中山路2號","121.863783333333","25.0337783333333","6502500","雙溪區"
"227010","400-TW","2018/12/20 18:18:54","新北市雙溪區牡丹里牡丹73號","121.85172","25.059335","6502500","雙溪區"
"253006","032-BX","2018/12/20 18:17:28","新北市石門區老梅路74號","121.546925","25.2891666666667","6502200","石門區"
"253005","295-VK","2018/12/20 18:18:42","新北市石門區中央路37-5號","121.569511666667","25.2964966666667","6502200","石門區"
"222001","KEA-2212","2018/12/20 18:18:41","新北市深坑區北深路二段51-1號","121.619098333333","25.00411","6501800","深坑區"
"208002","KEA-2872","2018/12/20 18:05:09","新北市金山區三界壇路109巷1號","121.618681666667","25.2305266666667","6502700","金山區"
"208003","665-BX","2018/12/20 18:13:34","新北市金山區民生路4號","121.649633333333","25.22468","6502700","金山區"
"208001","761-BX","2018/12/20 18:18:32","新北市金山區中山路90-1號","121.641703333333","25.2187433333333","6502700","金山區"
"251004","009-UM","2018/12/20 18:15:37","新北市淡水區民族路134號","121.463015","25.1346266666667","6501000","淡水區"
"251005","010-UM","2018/12/20 18:18:24","新北市淡水區水源街一段122巷37號","121.447168333333","25.17053","6501000","淡水區"
"251001","011-UM","2018/12/20 18:18:23","新北市淡水區自強路108-1號","121.461915","25.1301966666667","6501000","淡水區"
"251002","012-UM","2018/12/20 18:19:00","新北市淡水區中正東路一段125號","121.45519","25.15947","6501000","淡水區"
"251013","KEA-2871","2018/12/20 18:12:58","新北市淡水區破瓦厝子1-8號","121.475496666667","25.19814","6501000","淡水區"
"251016","179-VK","2018/12/20 18:18:55","新北市淡水區淡金路三段194號","121.448888333333","25.203535","6501000","淡水區"
"251008","181-VK","2018/12/20 18:18:53","新北市淡水區水源街二段246號","121.461978333333","25.1761516666667","6501000","淡水區"
"251015","182-VK","2018/12/20 18:18:55","新北市淡水區興福寮88巷1號","121.485321666667","25.1649216666667","6501000","淡水區"
"251010","413-VK","2018/12/20 18:18:10","新北市淡水區淡海路202號","121.420238333333","25.185455","6501000","淡水區"
"251012","441-VK","2018/12/20 18:11:41","新北市淡水區北新路三段126號","121.48791","25.18964","6501000","淡水區"
"251006","561-UM","2018/12/20 18:19:20","新北市淡水區新民街76巷36弄1號","121.439445","25.1780333333333","6501000","淡水區"
"251011","650-BX","2018/12/20 18:16:44","新北市淡水區坪頂路102號","121.463268333333","25.1627833333333","6501000","淡水區"
"251003","766-UM","2018/12/20 18:17:43","新北市淡水區北新路180號","121.44944","25.1786133333333","6501000","淡水區"
"207003","550-UM","2018/12/20 18:13:48","新北市萬里區野柳里港西路73-1號","121.685913333333","25.204855","6502800","萬里區"
"207004","225-TW","2018/12/20 18:15:23","新北市萬里區中幅里中福路180號","121.673718333333","25.1654533333333","6502800","萬里區"
"252002","178-VK","2018/12/20 18:17:14","新北市三芝區中山路二段39號","121.502943333333","25.2551333333333","6502100","三芝區"
"252003","249-BX","2018/12/20 18:17:15","新北市三芝區古庄里四棧橋42號","121.48168","25.2637333333333","6502100","三芝區"
"252001","292-VK","2018/12/20 18:18:09","新北市三芝區中興街二段2號","121.498426666667","25.256635","6502100","三芝區"
"237007","153-BY","2018/12/20 18:19:06","新北市三峽區中正路二段566號","121.3597","24.9061383333333","6500900","三峽區"
"237009","210-TH","2018/12/20 18:15:23","新北市三峽區大仁路66巷22號","121.364785","24.9382","6500900","三峽區"
"237013","252-BX","2018/12/20 18:18:12","新北市三峽區長泰街5巷17號","121.377875","24.931275","6500900","三峽區"
"237012","275-BY","2018/12/20 18:18:26","新北市三峽區民生街19巷7弄16號","121.37689","24.935695","6500900","三峽區"
"237008","302-VK","2018/12/20 18:18:32","新北市三峽區白雞47號","121.383306666667","24.912315","6500900","三峽區"
"237014","433-BY","2018/12/20 18:18:30","新北市三峽區復興路80巷13號","121.373458333333","24.9378066666667","6500900","三峽區"
"237006","5529-G3","2018/12/20 18:14:43","新北市三峽區溪東路178巷13弄14號","121.406265","24.93217","6500900","三峽區"
"237011","KEA-2596","2018/12/20 18:19:15","新北市三峽區溪東路29號","121.400125","24.934965","6500900","三峽區"
"237016","649-BX","2018/12/20 18:18:49","新北市三峽區紫微路42-1號","121.42223","24.9199283333333","6500900","三峽區"
"237010","706-TV","2018/12/20 18:15:40","新北市三峽區民族街35號","121.369675","24.930305","6500900","三峽區"
"237005","AKY-6261","2018/12/20 18:19:03","新北市三峽區秀川街26巷3號","121.371486666667","24.9343083333333","6500900","三峽區"
"236070","105-UM","2018/12/20 18:15:05","新北市土城區明德路一段128巷17號","121.463018333333","24.9788116666667","6501300","土城區"
"236042","KED-0685","2018/12/20 18:17:39","新北市土城區裕生路25號","121.448111666667","24.9872483333333","6501300","土城區"
"236078","166-UM","2018/12/20 18:11:10","新北市土城區永寧路30-1號","121.429351666667","24.9607183333333","6501300","土城區"
"236030","253-BX","2018/12/20 18:15:37","新北市土城區中央路二段93號","121.442156666667","24.9781333333333","6501300","土城區"
"236026","269-VK","2018/12/20 18:18:27","新北市土城區承天路18號","121.4395","24.9633966666667","6501300","土城區"
"236014","270-VK","2018/12/20 18:18:32","新北市土城區立清街69號","121.46028","24.98732","6501300","土城區"
"236038","271-VK","2018/12/20 18:17:25","新北市土城區青雲路451巷2弄2號","121.459095","24.9745633333333","6501300","土城區"
"236021","401-BY","2018/12/20 18:19:00","新北市土城區金城路二段58號","121.452143333333","24.9795083333333","6501300","土城區"
"236059","912-UM","2018/12/20 18:14:42","新北市土城區中央路四段302號","121.414026666667","24.9560966666667","6501300","土城區"
"236049","913-UM","2018/12/20 18:16:39","新北市土城區明德路一段365-1號","121.453565","24.9790333333333","6501300","土城區"
"236063","915-UM","2018/12/20 18:17:46","新北市土城區金城路二段204號","121.45512","24.981975","6501300","土城區"
"236055","AAC-216","2018/12/20 18:17:51","新北市土城區中華路二段92號","121.438323333333","24.974745","6501300","土城區"
"242036","AAC-296","2018/12/20 18:08:08","新北市新莊區後港一路65巷9弄7號","121.42582","25.0267816666667","6500500","新莊區"
"242058","986-R7","2018/12/20 18:11:19","新北市新莊區雙鳳路134巷34號","121.412456666667","25.02896","6500500","新莊區"
"242027","615-BX","2018/12/20 18:11:58","新北市新莊區幸福路599號","121.453226666667","25.04923","6500500","新莊區"
"242025","613-BX","2018/12/20 18:09:21","新北市新莊區五權一路92號","121.459455","25.0675066666667","6500500","新莊區"
"242029","612-BX","2018/12/20 18:13:02","新北市新莊區幸福路874號","121.443171666667","25.0490433333333","6500500","新莊區"
"242044","566-BX","2018/12/20 18:12:30","新北市新莊區中正路730-2號","121.414798333333","25.0239916666667","6500500","新莊區"
"242048","497-BY","2018/12/20 18:09:49","新北市新莊區後港一路19號","121.424056666667","25.0260233333333","6500500","新莊區"
"242002","440-UM","2018/12/20 18:10:05","新北市新莊區新莊路90號","121.456686666667","25.0362633333333","6500500","新莊區"
"242039","415-TV","2018/12/20 18:09:49","新北市新莊區民安西路38巷31號","121.426483333333","25.020395","6500500","新莊區"
"242046","400-BY","2018/12/20 18:15:26","新北市新莊區福營路334號","121.4218","25.0266366666667","6500500","新莊區"
"242061","353-BY","2018/12/20 18:08:57","新北市新莊區新樹路327號","121.43321","25.0188983333333","6500500","新莊區"
"242011","132-UY","2018/12/20 18:13:16","新北市新莊區中信街86號","121.447883333333","25.0532366666667","6500500","新莊區"
"242034","135-UY","2018/12/20 18:11:25","新北市新莊區景德路299號","121.44743","25.033565","6500500","新莊區"
"242051","172-VK","2018/12/20 18:07:18","新北市新莊區民本街27巷13號","121.428878333333","25.0192516666667","6500500","新莊區"
"242019","175-VK","2018/12/20 18:10:43","新北市新莊區中港路138巷7弄5號","121.455776666667","25.04117","6500500","新莊區"
"242007","176-VK","2018/12/20 18:10:52","新北市新莊區自重街33號","121.454113333333","25.047635","6500500","新莊區"
"242017","KED-0687","2018/12/20 18:06:24","新北市新莊區中港路333號","121.452433333333","25.0451666666667","6500500","新莊區"
"242053","346-TH","2018/12/20 18:11:29","新北市新莊區民安西路362號","121.427501666667","25.0110266666667","6500500","新莊區"
"242009","347-TH","2018/12/20 18:10:49","新北市新莊區昌盛街15號","121.453236666667","25.05004","6500500","新莊區"
"242031","348-TH","2018/12/20 18:13:08","新北市新莊區新泰路277巷10號","121.445166666667","25.040345","6500500","新莊區"
"242004","349-TH","2018/12/20 18:12:46","新北市新莊區中平路82巷36-2號","121.446445","25.0448633333333","6500500","新莊區"
"242021","350-TH","2018/12/20 18:09:53","新北市新莊區新興街80號","121.450761666667","25.0381783333333","6500500","新莊區"
"242015","351-TH","2018/12/20 18:08:23","新北市新莊區中和街59巷12號","121.44683","25.046865","6500500","新莊區"
"238015","755-BX","2018/12/20 18:16:42","新北市樹林區文化街79巷1號","121.416795","24.9890783333333","6500700","樹林區"
"238023","601-UM","2018/12/20 18:09:54","新北市樹林區三福街85巷15號","121.407435","25.0155866666667","6500700","樹林區"
"238019","599-UM","2018/12/20 18:09:47","新北市樹林區忠孝街104號","121.424646666667","24.98048","6500700","樹林區"
"238018","571-TV","2018/12/20 18:12:13","新北市樹林區鎮前街53號","121.425211666667","24.9915516666667","6500700","樹林區"
"238024","5061-A6","2018/12/20 18:14:29","新北市樹林區文化街65號","121.41694","24.9890766666667","6500700","樹林區"
"238021","KEA-2539","2018/12/20 18:16:00","新北市樹林區柑園街二段175號","121.380485","24.9529016666667","6500700","樹林區"
"238025","303-VK","2018/12/20 18:16:21","新北市樹林區保安街一段73號","121.422926666667","24.9950766666667","6500700","樹林區"
"238017","283-BY","2018/12/20 18:15:58","新北市樹林區保安街二段333巷2號","121.412488333333","25.0076533333333","6500700","樹林區"
"238014","282-BY","2018/12/20 18:13:54","新北市樹林區大安路111巷43號","121.423346666667","24.9974966666667","6500700","樹林區"
"238020","268-VK","2018/12/20 18:10:39","新北市樹林區三龍街94巷31號","121.414688333333","25.01711","6500700","樹林區"
"238026","172-UY","2018/12/20 18:17:40","新北市樹林區佳園路一段90號","121.393408333333","24.9692683333333","6500700","樹林區"
"238016","169-UY","2018/12/20 18:11:48","新北市樹林區復興路335巷6弄16號","121.417893333333","24.9872266666667","6500700","樹林區"
"239007","AAC-297","2018/12/20 18:18:46","新北市鶯歌區重慶街86號","121.348483333333","24.9520966666667","6500800","鶯歌區"
"239006","891-R6","2018/12/20 18:14:29","新北市鶯歌區鶯桃路365巷122號","121.330228333333","24.9623166666667","6500800","鶯歌區"
"239008","527-UM","2018/12/20 18:10:00","新北市鶯歌區朝陽街59號","121.338211666667","24.97836","6500800","鶯歌區"
"239005","526-UM","2018/12/20 18:18:39","新北市鶯歌區鶯桃路668巷73號","121.329923333333","24.9718683333333","6500800","鶯歌區"
"239001","417-VK","2018/12/20 18:18:53","新北市鶯歌區國中街112號","121.340041666667","24.94018","6500800","鶯歌區"
"239003","360-BY","2018/12/20 18:18:40","新北市鶯歌區福安街58號","121.335575","24.9651866666667","6500800","鶯歌區"
"239002","359-BY","2018/12/20 18:15:39","新北市鶯歌區中山路145號","121.349148333333","24.956885","6500800","鶯歌區"
"239004","193-VK","2018/12/20 18:18:26","新北市鶯歌區尖山路168巷5號","121.344983333333","24.9483116666667","6500800","鶯歌區"
"221008","489-VK","2018/12/20 18:19:05","新北市汐止區汐萬路一段312號","121.650103333333","25.0755866666667","6501100","汐止區"
"221015","131-UY","2018/12/20 18:15:10","新北市汐止區鄉長路二段33號","121.667856666667","25.0833833333333","6501100","汐止區"
"221010","269-BY","2018/12/20 18:17:45","新北市汐止區祥雲街18巷7號","121.646755","25.089775","6501100","汐止區"
"221012","278-VK","2018/12/20 18:12:22","新北市汐止區保一街81號","121.67457","25.0802","6501100","汐止區"
"221023","279-VK","2018/12/20 18:09:47","新北市汐止區明峰街190號","121.628105","25.06989","6501100","汐止區"
"221032","280-BY","2018/12/20 18:15:07","新北市汐止區橫科路19號","121.617798333333","25.0512833333333","6501100","汐止區"
"221027","281-BY","2018/12/20 18:11:57","新北市汐止區和平街8號","121.663378333333","25.0707466666667","6501100","汐止區"
"221029","298-VK","2018/12/20 18:17:06","新北市汐止區樟樹二路351-1號","121.643441666667","25.0738583333333","6501100","汐止區"
"221021","299-VK","2018/12/20 18:13:53","新北市汐止區龍安路179號","121.653093333333","25.0630833333333","6501100","汐止區"
"221031","353-TW","2018/12/20 18:15:06","新北市汐止區福德一路262號","121.632896666667","25.0643483333333","6501100","汐止區"
"221035","622-UM","2018/12/20 18:16:13","新北市汐止區大同路二段207號","121.652681666667","25.0646116666667","6501100","汐止區"
"221025","623-UM","2018/12/20 18:19:03","新北市汐止區勤進路12巷39號","121.659098333333","25.062795","6501100","汐止區"
"221038","646-BX","2018/12/20 18:17:22","新北市汐止區仁愛路315號","121.664653333333","25.067635","6501100","汐止區"
"221033","647-BX","2018/12/20 18:15:37","新北市汐止區宜興街40巷1號","121.622118333333","25.0420866666667","6501100","汐止區"
"221002","707-TV","2018/12/20 18:09:27","新北市汐止區福德一路188號","121.635436666667","25.0657233333333","6501100","汐止區"
"221018","753-BX","2018/12/20 18:18:51","新北市汐止區茄苳路125號","121.667416666667","25.0705116666667","6501100","汐止區"
"224002","257-TC","2018/12/20 18:16:15","新北市瑞芳區三爪子坑路149巷25號","121.811291666667","25.106625","6501200","瑞芳區"
"242042","281-VK","2018/12/20 18:08:32","新北市新莊區壽山路31號","121.42003","25.02896","6500500","新莊區"
"242056","280-VK","2018/12/20 18:09:13","新北市新莊區豐年街豐1巷41號","121.44791","25.0313283333333","6500500","新莊區"
"235068","KEA-2873","2018/12/20 18:19:02","新北市中和區員山路36巷16-3號","121.485153333333","24.9911633333333","6500300","中和區"
"235061","KEA-2875","2018/12/20 18:15:59","新北市中和區國光街215巷24弄1號","121.466933333333","25.0004716666667","6500300","中和區"
