"lineid","car","time","location","longitude","latitude","cityid","cityname"
"234046","148-BY","2018/12/20 18:43:01","新北市永和區永元路40巷37號","121.52342","25.00065","6500400","永和區"
"234081","298-R6","2018/12/20 18:44:48","新北市永和區林森路81號","121.523925","25.0039233333333","6500400","永和區"
"234038","336-UY","2018/12/20 18:48:42","新北市永和區成功路二段74號","121.526655","24.9992816666667","6500400","永和區"
"234064","337-UY","2018/12/20 18:48:15","新北市永和區福和路1號","121.526493333333","25.0099983333333","6500400","永和區"
"234070","552-UM","2018/12/20 18:46:01","新北市永和區福和路1號","121.525708333333","25.0093716666667","6500400","永和區"
"234017","745-BX","2018/12/20 18:49:10","新北市永和區永和路二段405巷3號","121.51531","25.0172366666667","6500400","永和區"
"234030","746-BX","2018/12/20 18:45:56","新北市永和區得和路321號","121.523415","24.9996533333333","6500400","永和區"
"234054","KEA-2590","2018/12/20 18:48:50","新北市永和區環河東路二段92號","121.524181666667","25.0105433333333","6500400","永和區"
"234007","839-RS","2018/12/20 18:45:59","新北市永和區文化路162號","121.512266666667","25.0153833333333","6500400","永和區"
"234013","KEA-2591","2018/12/20 18:46:38","新北市永和區保福路二段109巷43號","121.509088333333","25.012845","6500400","永和區"
"234086","748-BX","2018/12/20 18:44:15","新北市中和區宜安路1巷29號","121.5125","24.9941583333333","6500400","永和區"
"234042","862-TW","2018/12/20 18:49:19","新北市永和區永貞路306號","121.511863333333","25.004815","6500400","永和區"
"234048","863-TW","2018/12/20 18:47:36","新北市永和區福和路1號","121.526336666667","25.0099016666667","6500400","永和區"
"234026","9371-KE","2018/12/20 18:49:26","新北市永和區自由街58號","121.513896666667","25.0059283333333","6500400","永和區"
"234011","9373-KE","2018/12/20 18:41:18","新北市永和區永和路二段231巷5號","121.514845","25.01404","6500400","永和區"
"249005","172-UM","2018/12/20 18:44:32","新北市八里區中華路三段237號","121.391478333333","25.1246966666667","6502300","八里區"
"249001","173-UM","2018/12/20 18:44:33","新北市八里區龍米路一段438號","121.450901666667","25.134015","6502300","八里區"
"249004","303-UY","2018/12/20 18:44:14","新北市八里區中山路一段268巷16號","121.415223333333","25.1600166666667","6502300","八里區"
"248014","025-BX","2018/12/20 18:47:58","新北市五股區民義路一段107巷23號","121.432153333333","25.0844133333333","6501500","五股區"
"248016","026-BX","2018/12/20 18:47:28","新北市五股區凌雲路一段149巷13-1號","121.448618333333","25.1008533333333","6501500","五股區"
"248006","077-UY","2018/12/20 18:37:41","新北市五股區中興路二段83巷26-6號","121.45998","25.0753316666667","6501500","五股區"
"248008","095-VK","2018/12/20 18:48:45","新北市五股區中興路一段128巷12號","121.465718333333","25.074345","6501500","五股區"
"248020","225-UY","2018/12/20 18:39:46","新北市五股區凌雲路三段田埔巷14號","121.43649","25.1216433333333","6501500","五股區"
"248012","247-BX","2018/12/20 18:38:53","新北市五股區成泰路三段45號","121.442526666667","25.08927","6501500","五股區"
"248004","677-BX","2018/12/20 18:43:45","新北市五股區民義路一段236-6號","121.427456666667","25.09124","6501500","五股區"
"248002","678-BX","2018/12/20 18:34:04","新北市五股區西雲路165號","121.446263333333","25.09459","6501500","五股區"
"248010","682-TV","2018/12/20 18:42:15","新北市五股區水碓七路168號","121.430821666667","25.0739383333333","6501500","五股區"
"234023","9380-KE","2018/12/20 18:45:49","新北市永和區竹林路119巷22弄20號","121.522171666667","25.0112766666667","6500400","永和區"
"234077","969-R7","2018/12/20 18:43:52","新北市永和區中正路140號","121.51466","24.9961983333333","6500400","永和區"
"234074","AAC-211","2018/12/20 18:45:30","新北市永和區福和路1號","121.52655","25.0099083333333","6500400","永和區"
"234067","AAC-212","2018/12/20 18:48:15","新北市永和區永和路一段32號","121.513051666667","25.0049416666667","6500400","永和區"
"234003","AAC-295","2018/12/20 18:49:29","新北市永和區中正路657號","121.514821666667","25.010175","6500400","永和區"
"232011","375-UM","2018/12/20 18:46:30","新北市坪林區坪雙路一段43號","121.711715","24.94243","6502000","坪林區"
"244019","402-UM","2018/12/20 18:45:44","新北市林口區麗園二街15號","121.379168333333","25.06959","6501700","林口區"
"244012","KEA-2802","2018/12/20 18:48:35","新北市林口區麗園路2巷15號","121.37527","25.0703366666667","6501700","林口區"
"244023","483-VK","2018/12/20 18:46:27","新北市林口區信義路100號","121.381305","25.0790083333333","6501700","林口區"
"244017","485-VK","2018/12/20 18:48:11","新北市林口區文化二路一段269號","121.367511666667","25.0707366666667","6501700","林口區"
"244009","656-BX","2018/12/20 18:47:16","新北市林口區竹林路460號","121.388021666667","25.08508","6501700","林口區"
"244007","657-BX","2018/12/20 18:46:56","新北市林口區太平里3號","121.37949","25.1122616666667","6501700","林口區"
"244011","701-TV","2018/12/20 18:42:28","新北市林口區新寮1-65號","121.392745","25.0767333333333","6501700","林口區"
"244025","837-TS","2018/12/20 18:45:33","新北市林口區忠孝一路182號","121.358888333333","25.0742033333333","6501700","林口區"
"244021","838-TS","2018/12/20 18:43:05","新北市林口區工六路76號","121.400306666667","25.0772883333333","6501700","林口區"
"243009","297-R6","2018/12/20 18:47:20","新北市泰山區黎明路25號","121.422005","25.0609966666667","6501600","泰山區"
"243016","KEA-2801","2018/12/20 18:48:24","新北市泰山區明志路一段386號","121.430776666667","25.05729","6501600","泰山區"
"243015","421-VK","2018/12/20 18:48:34","新北市泰山區憲訓路5號","121.429101666667","25.0650533333333","6501600","泰山區"
"243011","KEA-2215","2018/12/20 18:48:46","新北市泰山區公園路60號","121.425848333333","25.0556566666667","6501600","泰山區"
"243010","KEA-2216","2018/12/20 18:45:56","新北市泰山區辭修路10-11號","121.429618333333","25.0579883333333","6501600","泰山區"
"243012","646-TV","2018/12/20 18:47:34","新北市泰山區泰林路二段73巷29號","121.434408333333","25.0578333333333","6501600","泰山區"
"243014","680-BX","2018/12/20 18:48:11","新北市泰山區黎明路25號","121.422048333333","25.0606183333333","6501600","泰山區"
"222003","436-BY","2018/12/20 18:41:55","新北市深坑區翠谷街17巷36號","121.625655","25.00987","6501800","深坑區"
"222002","659-BX","2018/12/20 18:35:56","新北市深坑區雲鄉路46號","121.622236666667","24.999665","6501800","深坑區"
"231041","002-UM","2018/12/20 18:47:31","新北市新店區安華路28-1號","121.519538333333","24.9606766666667","6500600","新店區"
"231059","046-UY","2018/12/20 18:49:00","新北市新店區安華路28-1號","121.519491666667","24.9608133333333","6500600","新店區"
"231040","047-UY","2018/12/20 18:47:42","新北市新店區環河路29巷1號","121.536413333333","24.9612283333333","6500600","新店區"
"231044","106-UY","2018/12/20 18:49:05","新北市新店區寶中路72號","121.547806666667","24.9805683333333","6500600","新店區"
"231046","107-UY","2018/12/20 18:47:09","新北市新店區直潭二街1號","121.535508333333","24.9431833333333","6500600","新店區"
"231052","108-UY","2018/12/20 18:45:02","新北市新店區新烏路一段179-1號","121.545378333333","24.9341333333333","6500600","新店區"
"231062","110-UY","2018/12/20 18:49:16","新北市新店區安一路一段1-1號","121.519723333333","24.9612316666667","6500600","新店區"
"231047","187-VK","2018/12/20 18:47:19","新北市新店區安康路一段3-1號","121.534816666667","24.9607766666667","6500600","新店區"
"231054","KEA-2219","2018/12/20 18:48:21","新北市新店區光明街94號","121.538896666667","24.9603916666667","6500600","新店區"
"221036","KEA-2785","2018/12/20 18:31:27","新北市汐止區水碓街2號","121.663738333333","25.06977","6501100","汐止區"
"231057","256-BX","2018/12/20 18:45:11","新北市新店區新烏路一段201號","121.54818","24.9314316666667","6500600","新店區"
"231065","260-TV","2018/12/20 18:48:29","新北市新店區安忠路57巷13號","121.51339","24.9574533333333","6500600","新店區"
"231042","268-BY","2018/12/20 18:48:39","新北市新店區環河路1-2號","121.538186666667","24.9616316666667","6500600","新店區"
"231051","278-BY","2018/12/20 18:48:04","新北市新店區中央路63號","121.532496666667","24.977185","6500600","新店區"
"231050","AAD-862","2018/12/20 18:48:06","新北市新店區安康路一段50號","121.530253333333","24.9611233333333","6500600","新店區"
"231058","3713-VJ","2018/12/20 18:43:37","新北市新店區北宜路一段168號","121.540538333333","24.9530183333333","6500600","新店區"
"231066","4716-K9","2018/12/20 18:45:09","新北市新店區安一路一段1-1號","121.51936","24.9611383333333","6500600","新店區"
"231056","4715-K9","2018/12/20 18:48:23","新北市新店區建國路219號","121.537701666667","24.9809866666667","6500600","新店區"
"231067","4772-VM","2018/12/20 18:48:16","新北市新店區安華路28-1號","121.519188333333","24.9606083333333","6500600","新店區"
"231049","513-UM","2018/12/20 18:48:26","新北市新店區環河路86號","121.536973333333","24.9636566666667","6500600","新店區"
"231045","617-UM","2018/12/20 18:48:52","新北市新店區安一路一段1-1號","121.519761666667","24.9618683333333","6500600","新店區"
"231061","619-UM","2018/12/20 18:48:28","新北市新店區安華路28-1號","121.51942","24.9607366666667","6500600","新店區"
"231063","641-BX","2018/12/20 18:49:09","新北市新店區安華路1-1號","121.519555","24.9603966666667","6500600","新店區"
"231064","719-UM","2018/12/20 18:49:10","新北市新店區安一路一段1-1號","121.519408333333","24.96116","6500600","新店區"
"231060","897-TW","2018/12/20 18:44:47","新北市新店區安華路28-1號","121.519455","24.9605566666667","6500600","新店區"
"231043","899-TW","2018/12/20 18:46:55","新北市新店區安華路28-1號","121.519318333333","24.96081","6500600","新店區"
"231055","AKT-0513","2018/12/20 18:47:36","新北市新店區新生街8號","121.54024","24.9661416666667","6500600","新店區"
"251014","742-BX","2018/12/20 18:28:18","新北市淡水區南平20-1號","121.493543333333","25.2166233333333","6501000","淡水區"
"241023","545-UM","2018/12/20 18:45:23","新北市三重區中華路109號","121.483606666667","25.0634083333333","6500200","三重區"
"235066","003-UY","2018/12/20 18:47:54","新北市中和區光華街42號","121.50501","25.0037966666667","6500300","中和區"
"235064","005-UY","2018/12/20 18:48:04","新北市中和區泰和街7號","121.499736666667","25.0005283333333","6500300","中和區"
"235063","006-UY","2018/12/20 18:43:21","新北市中和區建一路198號","121.487793333333","24.9963433333333","6500300","中和區"
"235056","096-UM","2018/12/20 18:46:48","新北市中和區員山路611巷1號","121.477875","25.0112416666667","6500300","中和區"
"235039","097-UM","2018/12/20 18:48:38","新北市中和區安樂路217巷56號","121.513066666667","24.9976233333333","6500300","中和區"
"235040","150-BY","2018/12/20 18:45:09","新北市中和區安和路17號","121.511193333333","24.9939133333333","6500300","中和區"
"235058","151-BY","2018/12/20 18:43:15","新北市中和區連城路573-1號","121.478835","24.99444","6500300","中和區"
"235055","183-VK","2018/12/20 18:45:00","新北市中和區民生街10巷1號","121.470906666667","25.00572","6500300","中和區"
"235038","185-VK","2018/12/20 18:46:38","新北市中和區立人街36號","121.518231666667","24.99411","6500300","中和區"
"235049","186-VK","2018/12/20 18:38:37","新北市中和區景安路179-3號","121.505051666667","24.9938683333333","6500300","中和區"
"235067","255-BX","2018/12/20 18:46:21","新北市中和區中正路853號","121.484601666667","25.003085","6500300","中和區"
"235044","293-VK","2018/12/20 18:43:34","新北市中和區復興路280巷29號","121.501716666667","24.9917366666667","6500300","中和區"
"235072","301-VK","2018/12/20 18:49:18","新北市中和區中山路二段178巷1號","121.500676666667","25.00278","6500300","中和區"
"235042","KEA-2878","2018/12/20 18:45:43","新北市中和區成功路127巷12弄3號","121.526803333333","24.99068","6500300","中和區"
"247012","KEA-2869","2018/12/20 18:47:25","新北市八里區荖阡坑路22-5號","121.398665","25.13509","6501400","蘆洲區"
"235050","4979-A6","2018/12/20 18:39:42","新北市中和區忠孝街122-2號","121.5123","24.9859533333333","6500300","中和區"
"235069","4980-A6","2018/12/20 18:49:18","新北市中和區南山路111巷8號","121.502578333333","24.9975983333333","6500300","中和區"
"235070","558-UM","2018/12/20 18:44:34","新北市中和區南山路7號","121.502155","24.999405","6500300","中和區"
"235045","565-BX","2018/12/20 18:40:30","新北市中和區南山路208巷2號","121.506031666667","24.9903016666667","6500300","中和區"
"235054","640-BX","2018/12/20 18:47:24","新北市中和區自治街1號","121.47457","25.00324","6500300","中和區"
"235060","647-TV","2018/12/20 18:35:41","新北市中和區中山路二段570號","121.482956666667","25.0051083333333","6500300","中和區"
"235047","732-UM","2018/12/20 18:47:51","新北市中和區興南路二段111號","121.5057","24.9844466666667","6500300","中和區"
"235046","733-UM","2018/12/20 18:48:48","新北市中和區仁愛街36巷55號","121.511423333333","24.9862366666667","6500300","中和區"
"235062","800-TS","2018/12/20 18:47:40","新北市中和區景平路703巷1號","121.496243333333","25.0034366666667","6500300","中和區"
"235057","801-TS","2018/12/20 18:43:15","新北市中和區民安街22巷21號","121.47961","25.0013833333333","6500300","中和區"
"235041","802-TS","2018/12/20 18:47:51","新北市中和區宜安路118巷42號","121.511235","24.9990766666667","6500300","中和區"
"235052","805-TS","2018/12/20 18:44:19","新北市中和區興南路三段90號","121.49096","24.9739316666667","6500300","中和區"
"235048","896-TW","2018/12/20 18:43:37","新北市中和區南山路250巷2號","121.507728333333","24.9889366666667","6500300","中和區"
"235053","900-TW","2018/12/20 18:45:29","新北市中和區華福街29-1號","121.466045","24.9968083333333","6500300","中和區"
"235051","157-BY","2018/12/20 18:46:22","新北市中和區華新街109巷1-2號","121.509046666667","24.98237","6500300","中和區"
"235037","AAC-213","2018/12/20 18:44:15","新北市中和區自立路62號","121.523768333333","24.991445","6500300","中和區"
"235059","AAC-215","2018/12/20 18:47:25","新北市中和區錦和路408號","121.49107","24.9895566666667","6500300","中和區"
"220069","015-TV","2018/12/20 18:44:44","新北市板橋區四川路一段72號","121.459465","25.0053383333333","6500100","板橋區"
"220065","072-UY","2018/12/20 18:42:49","新北市板橋區成都街69號","121.462353333333","25.0050583333333","6500100","板橋區"
"220086","073-UY","2018/12/20 18:47:33","新北市板橋區大智街64號","121.454125","25.0154666666667","6500100","板橋區"
"220106","075-UY","2018/12/20 18:47:53","新北市板橋區文化路二段124巷3號","121.470373333333","25.0261","6500100","板橋區"
"226004","312-R5","2018/12/20 18:45:23","新北市平溪區石底里公園街18-3號","121.734381666667","25.02553","6502400","平溪區"
"235065","251-BX","2018/12/20 18:48:38","新北市中和區中山路二段2巷45弄2號","121.502186666667","25.007195","6500300","中和區"
"228003","097-TW","2018/12/20 18:47:29","新北市貢寮區和美里龍洞街34-1號","121.917295","25.1116933333333","6502600","貢寮區"
"228001","212-TW","2018/12/20 18:49:03","新北市貢寮區仁理村研海街12-1號","121.92378","25.0516333333333","6502600","貢寮區"
"228002","585-TW","2018/12/20 18:48:55","新北市貢寮區福隆里東興街6-11號","121.950731666667","25.0210533333333","6502600","貢寮區"
"224006","676-BX","2018/12/20 18:27:20","新北市瑞芳區明燈路三段22號","121.80856","25.1076016666667","6501200","瑞芳區"
"224008","285-BY","2018/12/20 18:30:25","新北市瑞芳區逢甲路238號","121.805976666667","25.1102283333333","6501200","瑞芳區"
"224007","275-VK","2018/12/20 18:28:58","新北市瑞芳區大埔路吉慶公園城28號","121.76457","25.0997883333333","6501200","瑞芳區"
"224009","273-VK","2018/12/20 18:49:07","新北市瑞芳區祈堂路53-1號","121.85957","25.1104533333333","6501200","瑞芳區"
"224005","271-BY","2018/12/20 18:41:02","新北市瑞芳區瑞濱路87號","121.820728333333","25.12101","6501200","瑞芳區"
"227004","642-TC","2018/12/20 18:46:22","新北市雙溪區共和里中山路36號","121.86561","25.0325833333333","6502500","雙溪區"
"227010","400-TW","2018/12/20 18:43:34","新北市雙溪區牡丹里下坑11號","121.851015","25.05617","6502500","雙溪區"
"253006","032-BX","2018/12/20 18:46:28","新北市石門區下員坑30號","121.520191666667","25.2828816666667","6502200","石門區"
"253005","295-VK","2018/12/20 18:44:02","新北市石門區中山路36號","121.566356666667","25.2901633333333","6502200","石門區"
"222001","KEA-2212","2018/12/20 18:40:41","新北市深坑區北深路一段80號","121.636446666667","25.010665","6501800","深坑區"
"208003","665-BX","2018/12/20 18:32:34","新北市金山區中山路204號","121.637628333333","25.221715","6502700","金山區"
"208001","761-BX","2018/12/20 18:38:52","新北市金山區文化三路7號","121.635158333333","25.22489","6502700","金山區"
"251009","008-UM","2018/12/20 18:45:28","新北市淡水區中山北路一段108號","121.44275","25.1768033333333","6501000","淡水區"
"251004","009-UM","2018/12/20 18:37:37","新北市淡水區民權路3號","121.459748333333","25.1422316666667","6501000","淡水區"
"251001","011-UM","2018/12/20 18:48:15","新北市淡水區自強路94號","121.462468333333","25.1287883333333","6501000","淡水區"
"251002","012-UM","2018/12/20 18:42:05","新北市淡水區中正東路71號","121.447278333333","25.1676016666667","6501000","淡水區"
"251013","KEA-2871","2018/12/20 18:29:18","新北市淡水區椿子林19-1號","121.480675","25.2039366666667","6501000","淡水區"
"251016","179-VK","2018/12/20 18:45:55","新北市淡水區下圭柔山72號","121.445438333333","25.2049183333333","6501000","淡水區"
"251015","182-VK","2018/12/20 18:47:15","新北市淡水區興福寮66巷117號","121.487508333333","25.1615933333333","6501000","淡水區"
"251010","413-VK","2018/12/20 18:46:30","新北市淡水區沙崙路97-1號","121.422016666667","25.181875","6501000","淡水區"
"251012","441-VK","2018/12/20 18:47:39","新北市淡水區中山北路一段245號","121.444076666667","25.180165","6501000","淡水區"
"251006","561-UM","2018/12/20 18:45:00","新北市淡水區崁頂37-4號","121.43965","25.1951733333333","6501000","淡水區"
"251011","650-BX","2018/12/20 18:38:04","新北市淡水區鄧公路2號","121.448766666667","25.1695566666667","6501000","淡水區"
"251003","766-UM","2018/12/20 18:47:43","新北市淡水區中山北路一段212巷38號","121.446151666667","25.1790083333333","6501000","淡水區"
"207003","550-UM","2018/12/20 18:28:08","新北市萬里區野柳里港東路70號","121.687881666667","25.2045683333333","6502800","萬里區"
"207004","225-TW","2018/12/20 18:31:03","新北市萬里區萬里里瑪鋉路278號","121.688628333333","25.1811533333333","6502800","萬里區"
"252002","178-VK","2018/12/20 18:49:14","新北市三芝區中正路一段112號","121.50484","25.2563483333333","6502100","三芝區"
"252003","249-BX","2018/12/20 18:44:55","新北市三芝區後厝里大片頭109號","121.458215","25.24269","6502100","三芝區"
"252001","292-VK","2018/12/20 18:44:09","新北市三芝區中正路三段15號","121.502916666667","25.2536233333333","6502100","三芝區"
"237007","153-BY","2018/12/20 18:44:46","新北市三峽區中正路二段496巷2號","121.36187","24.90641","6500900","三峽區"
"237009","210-TH","2018/12/20 18:49:03","新北市三峽區民權街153-1號","121.36841","24.9312533333333","6500900","三峽區"
"237013","252-BX","2018/12/20 18:47:32","新北市三峽區光明路69巷25號","121.37664","24.9291766666667","6500900","三峽區"
"237012","275-BY","2018/12/20 18:44:46","新北市三峽區三樹路340號","121.383975","24.9433216666667","6500900","三峽區"
"237008","302-VK","2018/12/20 18:47:12","新北市三峽區白雞35-6號","121.377146666667","24.9119083333333","6500900","三峽區"
"237014","433-BY","2018/12/20 18:41:10","新北市三峽區隆恩街551號","121.357196666667","24.9403133333333","6500900","三峽區"
"237006","5529-G3","2018/12/20 18:45:22","新北市三峽區溪東路315巷29號","121.411628333333","24.9309883333333","6500900","三峽區"
"237011","KEA-2596","2018/12/20 18:48:55","新北市三峽區溪東路215號","121.40604","24.9328766666667","6500900","三峽區"
"237016","649-BX","2018/12/20 18:44:29","新北市三峽區安坑1-12號","121.43733","24.92552","6500900","三峽區"
"237010","706-TV","2018/12/20 18:48:57","新北市三峽區復興路449號","121.362583333333","24.93851","6500900","三峽區"
"237005","AKY-6261","2018/12/20 18:46:39","新北市三峽區文化路33號","121.372886666667","24.9361","6500900","三峽區"
"236070","105-UM","2018/12/20 18:31:26","新北市土城區永豐路255巷21弄3號","121.475026666667","24.9741316666667","6501300","土城區"
"236042","KED-0685","2018/12/20 18:30:35","新北市土城區裕民路67巷14號","121.449846666667","24.9879416666667","6501300","土城區"
"236078","166-UM","2018/12/20 18:29:50","新北市土城區中央路三段285號","121.42586","24.9630966666667","6501300","土城區"
"236030","253-BX","2018/12/20 18:32:57","新北市土城區水源街11號","121.441268333333","24.975085","6501300","土城區"
"236026","269-VK","2018/12/20 18:30:27","新北市土城區南天母路135巷1-1號","121.447686666667","24.95463","6501300","土城區"
"236014","270-VK","2018/12/20 18:38:32","新北市土城區青雲路183巷2號","121.459388333333","24.9827433333333","6501300","土城區"
"236038","271-VK","2018/12/20 18:26:25","新北市土城區青雲路451巷13號","121.459585","24.9747466666667","6501300","土城區"
"236021","401-BY","2018/12/20 18:38:40","新北市土城區延吉街329號","121.465681666667","24.9841716666667","6501300","土城區"
"236059","912-UM","2018/12/20 18:36:22","新北市土城區中央路四段5號","121.425536666667","24.96285","6501300","土城區"
"236049","913-UM","2018/12/20 18:28:20","新北市土城區青雲路577號","121.459196666667","24.9718316666667","6501300","土城區"
"236063","915-UM","2018/12/20 18:32:06","新北市土城區延壽路77巷6弄4號","121.468576666667","24.9927383333333","6501300","土城區"
"236055","AAC-216","2018/12/20 18:28:31","新北市土城區中華路一段255號","121.440551666667","24.9809283333333","6501300","土城區"
"242058","986-R7","2018/12/20 18:24:45","新北市新莊區新北大道七段842號","121.413721666667","25.0236466666667","6500500","新莊區"
"242025","613-BX","2018/12/20 18:19:41","新北市新莊區五權一路12巷9弄13號","121.457718333333","25.06515","6500500","新莊區"
"242044","566-BX","2018/12/20 18:27:51","新北市新莊區中正路新旺巷28號","121.41607","25.0229683333333","6500500","新莊區"
"242061","353-BY","2018/12/20 18:22:37","新北市新莊區新樹路69-25號","121.438613333333","25.0297433333333","6500500","新莊區"
"242011","132-UY","2018/12/20 18:26:56","新北市新莊區中港路中慶巷27弄16號","121.450001666667","25.0533516666667","6500500","新莊區"
"242053","346-TH","2018/12/20 18:35:29","新北市板橋區大觀路三段50巷89號","121.431305","24.9964333333333","6500500","新莊區"
"242031","348-TH","2018/12/20 18:24:48","新北市新莊區新泰路277巷57弄2號","121.443481666667","25.03994","6500500","新莊區"
"242015","351-TH","2018/12/20 18:35:10","新北市新莊區新泰路357巷3弄57號","121.442125","25.039405","6500500","新莊區"
"238015","755-BX","2018/12/20 18:24:03","新北市樹林區復興路360號","121.415773333333","24.985985","6500700","樹林區"
"238023","601-UM","2018/12/20 18:42:34","桃園市龜山區萬壽路一段392號","121.400461666667","25.0167166666667","6500700","樹林區"
"238019","599-UM","2018/12/20 18:36:47","新北市樹林區中華路190-16號","121.411711666667","24.9805933333333","6500700","樹林區"
"238018","571-TV","2018/12/20 18:43:13","新北市樹林區鎮前街273-3號","121.419531666667","24.9857366666667","6500700","樹林區"
"238024","5061-A6","2018/12/20 18:29:49","新北市樹林區中山路一段149-3號","121.422096666667","24.9891733333333","6500700","樹林區"
"238022","KEA-2213","2018/12/20 18:46:23","新北市樹林區中華路379巷78弄2-1號","121.413365","24.9772666666667","6500700","樹林區"
"238025","303-VK","2018/12/20 18:48:00","新北市樹林區中山路三段22號","121.39556","24.9728183333333","6500700","樹林區"
"238020","268-VK","2018/12/20 18:33:59","新北市樹林區三龍街131號","121.417923333333","25.01827","6500700","樹林區"
"238026","172-UY","2018/12/20 18:49:00","新北市樹林區中山路三段168號","121.389","24.970095","6500700","樹林區"
"238016","169-UY","2018/12/20 18:23:08","新北市樹林區復興路373巷7弄9號","121.417631666667","24.9868433333333","6500700","樹林區"
"239007","AAC-297","2018/12/20 18:47:25","新北市鶯歌區成功街20巷11號","121.358871666667","24.95777","6500800","鶯歌區"
"239006","891-R6","2018/12/20 18:48:49","新北市鶯歌區高職東街3巷7-1號","121.339538333333","24.9418883333333","6500800","鶯歌區"
"239008","527-UM","2018/12/20 18:46:40","新北市鶯歌區國際一路179號","121.33622","24.97645","6500800","鶯歌區"
"239005","526-UM","2018/12/20 18:44:19","新北市鶯歌區鳳吉三街17號","121.326706666667","24.9735666666667","6500800","鶯歌區"
"239001","417-VK","2018/12/20 18:46:33","新北市鶯歌區尖山埔路116號","121.344163333333","24.9500583333333","6500800","鶯歌區"
"239003","360-BY","2018/12/20 18:47:00","新北市鶯歌區鶯桃路658巷49-2號","121.33097","24.970345","6500800","鶯歌區"
"239004","193-VK","2018/12/20 18:42:06","新北市鶯歌區中正三路225號","121.334935","24.9390833333333","6500800","鶯歌區"
"221008","489-VK","2018/12/20 18:49:05","新北市汐止區康寧街901號","121.651468333333","25.0750916666667","6501100","汐止區"
"221015","131-UY","2018/12/20 18:40:50","新北市汐止區鄉友街1號","121.66795","25.0806166666667","6501100","汐止區"
"221010","269-BY","2018/12/20 18:38:45","新北市汐止區汐萬路三段262號","121.64378","25.1049433333333","6501100","汐止區"
"221012","278-VK","2018/12/20 18:43:02","新北市汐止區汐萬路一段146號","121.652998333333","25.0710816666667","6501100","汐止區"
"221023","279-VK","2018/12/20 18:34:27","新北市汐止區康寧街534巷26號","121.634733333333","25.06892","6501100","汐止區"
"221032","280-BY","2018/12/20 18:48:07","新北市汐止區福山街58巷11號","121.617985","25.0460466666667","6501100","汐止區"
"221027","281-BY","2018/12/20 18:35:57","新北市汐止區大同路二段585號","121.663541666667","25.0704566666667","6501100","汐止區"
"221029","298-VK","2018/12/20 18:45:45","新北市汐止區樟樹一路93號","121.642058333333","25.0635283333333","6501100","汐止區"
"221021","299-VK","2018/12/20 18:35:33","新北市汐止區新台五路一段183號","121.65543","25.06312","6501100","汐止區"
"221031","353-TW","2018/12/20 18:48:46","新北市汐止區福德一路300巷13號","121.630833333333","25.0638716666667","6501100","汐止區"
"221035","622-UM","2018/12/20 18:47:18","新北市汐止區大同路二段208號","121.653503333333","25.065215","6501100","汐止區"
"221025","623-UM","2018/12/20 18:42:23","新北市汐止區仁愛路119巷24號","121.662016666667","25.064525","6501100","汐止區"
"221038","646-BX","2018/12/20 18:46:42","新北市汐止區康寧街901號","121.650705","25.0753516666667","6501100","汐止區"
"221033","647-BX","2018/12/20 18:49:17","新北市汐止區南勢街3號","121.62708","25.03742","6501100","汐止區"
"221002","707-TV","2018/12/20 18:39:07","新北市汐止區大同路一段312號","121.63713","25.0587283333333","6501100","汐止區"
"221018","753-BX","2018/12/20 18:33:11","新北市汐止區茄苳路250巷9號","121.671436666667","25.0678716666667","6501100","汐止區"
"220079","145-BY","2018/12/20 18:48:18","新北市板橋區南雅西路二段180巷3號","121.451803333333","25.0140783333333","6500100","板橋區"
"220080","200-UY","2018/12/20 18:40:34","新北市板橋區大觀路二段265巷76弄17號","121.441876666667","24.99662","6500100","板橋區"
"220082","610-BX","2018/12/20 18:41:45","新北市板橋區篤行路二段52號","121.431726666667","24.992565","6500100","板橋區"
"220101","245-BX","2018/12/20 18:48:39","新北市板橋區文化路二段182巷3弄2號","121.47156","25.0271966666667","6500100","板橋區"
"224002","257-TC","2018/12/20 18:35:35","新北市瑞芳區三爪子坑路29巷7號","121.813746666667","25.1072683333333","6501200","瑞芳區"
"220056","276-BY","2018/12/20 18:41:28","新北市板橋區四川路一段6號","121.459386666667","25.006925","6500100","板橋區"
"220072","277-BY","2018/12/20 18:44:33","新北市板橋區金門街25巷10號","121.434061666667","24.9943333333333","6500100","板橋區"
"220071","283-VK","2018/12/20 18:40:28","新北市板橋區四川路一段467號","121.457505","24.9979416666667","6500100","板橋區"
"220094","285-UM","2018/12/20 18:49:12","新北市板橋區文化路二段76號","121.4694","25.0249216666667","6500100","板橋區"
"220053","285-VK","2018/12/20 18:47:33","新北市板橋區民生路二段80號","121.471881666667","25.0184283333333","6500100","板橋區"
"220083","286-VK","2018/12/20 18:42:21","新北市板橋區大觀路二段9號","121.44691","25.0035933333333","6500100","板橋區"
"220081","287-VK","2018/12/20 18:47:25","新北市板橋區南雅西路二段40號","121.452825","25.0099916666667","6500100","板橋區"
"220090","288-VK","2018/12/20 18:49:02","新北市板橋區四維路137巷5號","121.464573333333","25.024985","6500100","板橋區"
"220061","293-UM","2018/12/20 18:46:45","新北市板橋區太和街4巷20弄1號","121.474655","25.0202333333333","6500100","板橋區"
"220084","296-UM","2018/12/20 18:42:35","新北市板橋區大觀路二段148巷1號","121.441883333333","24.999615","6500100","板橋區"
"242042","281-VK","2018/12/20 18:26:32","新北市新莊區天祥街80號","121.415648333333","25.0293616666667","6500500","新莊區"
"220075","303-R5","2018/12/20 18:46:57","新北市板橋區館前西路257號","121.454243333333","25.0086566666667","6500100","板橋區"
"220062","305-R5","2018/12/20 18:46:14","新北市板橋區民生路二段120號","121.470516666667","25.019555","6500100","板橋區"
"220092","307-R5","2018/12/20 18:47:01","新北市板橋區文化路一段104巷1號","121.464871666667","25.0180316666667","6500100","板橋區"
"220098","317-R6","2018/12/20 18:46:44","新北市板橋區民生路二段226巷6弄6號","121.469688333333","25.0216316666667","6500100","板橋區"
"220089","487-VK","2018/12/20 18:48:41","新北市板橋區文化路二段394號","121.473535","25.0312","6500100","板橋區"
"242056","280-VK","2018/12/20 18:32:13","新北市新莊區瓊林路59-66號","121.44152","25.0228733333333","6500500","新莊區"
"220088","491-VK","2018/12/20 18:43:57","新北市板橋區民生路二段120號","121.47041","25.0196016666667","6500100","板橋區"
"220035","560-BX","2018/12/20 18:45:20","新北市板橋區南雅西路二段301巷43-1號","121.451871666667","25.016675","6500100","板橋區"
"220103","561-BX","2018/12/20 18:45:31","新北市板橋區縣民大道二段279號","121.469985","25.0179416666667","6500100","板橋區"
"220063","609-BX","2018/12/20 18:44:28","新北市板橋區民生路一段109號","121.474021666667","25.0144383333333","6500100","板橋區"
"220055","630-UY","2018/12/20 18:48:59","新北市板橋區忠孝路131號","121.463143333333","25.0023466666667","6500100","板橋區"
"220091","637-BX","2018/12/20 18:46:23","新北市板橋區莒光路167-4號","121.474188333333","25.0235833333333","6500100","板橋區"
"220057","686-BX","2018/12/20 18:42:50","新北市板橋區南雅南路二段4巷10號","121.453888333333","25.0037183333333","6500100","板橋區"
"220093","689-BX","2018/12/20 18:46:09","新北市板橋區民生路三段12號","121.467738333333","25.024125","6500100","板橋區"
"220054","741-BX","2018/12/20 18:45:41","新北市板橋區館前東路24號","121.460311666667","25.0071666666667","6500100","板橋區"
"220102","KEA-2699","2018/12/20 18:49:06","新北市板橋區文聖街198號","121.480016666667","25.0258966666667","6500100","板橋區"
"220067","829-TW","2018/12/20 18:44:04","新北市板橋區中山路二段90巷47弄4號","121.476768333333","25.0146983333333","6500100","板橋區"
"220016","830-TW","2018/12/20 18:48:04","新北市板橋區大同街36號","121.47832","25.027475","6500100","板橋區"
"220074","895-R6","2018/12/20 18:45:19","新北市板橋區南門街85號","121.45677","25.0077733333333","6500100","板橋區"
"220073","985-R7","2018/12/20 18:36:17","新北市板橋區四川路二段58號","121.453165","24.9951266666667","6500100","板橋區"
"220064","AAC-253","2018/12/20 18:43:25","新北市板橋區中山路二段35號","121.472913333333","25.015315","6500100","板橋區"
"235068","KEA-2873","2018/12/20 18:46:55","新北市中和區中正路171號","121.49782","24.9935066666667","6500300","中和區"
"235061","KEA-2875","2018/12/20 18:42:29","新北市中和區民享街114巷21號","121.473726666667","24.9994533333333","6500300","中和區"
