"lineid","car","time","location","longitude","latitude","cityid","cityname"
"234046","148-BY","2018/12/20 19:29:41","新北市永和區秀朗路二段181巷6號","121.526461666667","25.0012866666667","6500400","永和區"
"234081","298-R6","2018/12/20 19:29:28","新北市永和區環河東路三段54號","121.526858333333","25.00623","6500400","永和區"
"234038","336-UY","2018/12/20 19:29:42","新北市永和區民樂街33巷1號","121.527618333333","25.0012966666667","6500400","永和區"
"234064","337-UY","2018/12/20 19:29:35","新北市永和區得和路243巷26號","121.520761666667","25.0011716666667","6500400","永和區"
"234070","552-UM","2018/12/20 19:29:41","新北市永和區竹林路185號","121.520525","25.0096916666667","6500400","永和區"
"234017","745-BX","2018/12/20 19:29:30","新北市永和區環河西路一段87號","121.512283333333","25.0179416666667","6500400","永和區"
"234030","746-BX","2018/12/20 19:29:36","新北市永和區民生路55號","121.52272","24.9976283333333","6500400","永和區"
"234054","KEA-2590","2018/12/20 19:29:30","新北市永和區復興街30號","121.51612","25.0129933333333","6500400","永和區"
"234007","839-RS","2018/12/20 19:29:38","新北市永和區永和路一段127號","121.514006666667","25.00836","6500400","永和區"
"234013","KEA-2591","2018/12/20 19:29:38","新北市永和區中山路一段184巷8號","121.508765","25.0093683333333","6500400","永和區"
"234061","AAD-866","2018/12/20 19:29:38","新北市永和區中正路506號","121.517331666667","25.0046","6500400","永和區"
"234086","748-BX","2018/12/20 19:29:35","新北市永和區林森路74號","121.523636666667","25.003895","6500400","永和區"
"234042","862-TW","2018/12/20 19:29:39","新北市永和區水源街39巷6號","121.51041","25.0040016666667","6500400","永和區"
"234050","863-TW","2018/12/20 19:29:36","新北市永和區信義路99號","121.5123","25.0141816666667","6500400","永和區"
"234026","9371-KE","2018/12/20 19:29:26","新北市永和區中正路49號","121.514343333333","24.9964183333333","6500400","永和區"
"234011","9373-KE","2018/12/20 19:29:38","新北市永和區保福路二段95號","121.510518333333","25.0130183333333","6500400","永和區"
"249003","759-BX","2018/12/20 19:29:40","新北市八里區中山路二段500巷30號","121.397158333333","25.1478366666667","6502300","八里區"
"248014","025-BX","2018/12/20 19:29:34","新北市五股區民義路一段183巷9-3號","121.430275","25.0864216666667","6501500","五股區"
"248016","026-BX","2018/12/20 19:29:34","新北市五股區成泰路三段549號","121.451956666667","25.101685","6501500","五股區"
"248008","095-VK","2018/12/20 19:29:25","新北市五股區中興路一段95巷11號","121.466686666667","25.0723383333333","6501500","五股區"
"248020","225-UY","2018/12/20 19:29:26","新北市五股區凌雲路三段71-12號","121.424865","25.1235733333333","6501500","五股區"
"248012","247-BX","2018/12/20 19:29:33","新北市五股區成泰路二段97號","121.437915","25.0843333333333","6501500","五股區"
"248004","677-BX","2018/12/20 19:29:25","新北市五股區五福路56號","121.433453333333","25.0896733333333","6501500","五股區"
"248002","678-BX","2018/12/20 19:29:24","新北市五股區凌雲路一段158巷6號","121.447806666667","25.10308","6501500","五股區"
"248010","682-TV","2018/12/20 19:29:35","新北市五股區水碓一路23號","121.43056","25.0712816666667","6501500","五股區"
"234023","9380-KE","2018/12/20 19:29:09","新北市永和區竹林路91巷34號","121.520938333333","25.012485","6500400","永和區"
"234077","969-R7","2018/12/20 19:29:31","新北市永和區民族街43巷10號","121.51903","24.998395","6500400","永和區"
"234074","AAC-211","2018/12/20 19:29:42","新北市永和區永和路二段264號","121.515996666667","25.0150233333333","6500400","永和區"
"234067","AAC-212","2018/12/20 19:29:35","新北市永和區永貞路353號","121.509135","25.0075333333333","6500400","永和區"
"234003","AAC-295","2018/12/20 19:29:29","新北市永和區福和路352號","121.514726666667","25.0074116666667","6500400","永和區"
"244023","483-VK","2018/12/20 19:29:32","新北市林口區文化三路一段555巷88-1號","121.368578333333","25.0764133333333","6501700","林口區"
"244017","485-VK","2018/12/20 19:29:31","新北市林口區湖南里70-9號","121.375925","25.089715","6501700","林口區"
"243013","AAD-798","2018/12/20 19:29:33","新北市泰山區貴子路36巷3弄2號","121.425916666667","25.0411766666667","6501600","泰山區"
"243009","297-R6","2018/12/20 19:29:31","新北市泰山區明志路一段17號","121.43371","25.065795","6501600","泰山區"
"243016","KEA-2801","2018/12/20 19:29:38","新北市泰山區明志路三段385號","121.421576666667","25.03468","6501600","泰山區"
"243015","421-VK","2018/12/20 19:29:34","新北市泰山區民權街68號","121.428568333333","25.049905","6501600","泰山區"
"243011","KEA-2215","2018/12/20 19:29:26","新北市泰山區貴子路140號","121.428725","25.0404166666667","6501600","泰山區"
"243010","KEA-2216","2018/12/20 19:29:36","新北市泰山區民生路17巷8號","121.429793333333","25.0521916666667","6501600","泰山區"
"243012","646-TV","2018/12/20 19:29:34","新北市泰山區中港西路388號","121.434945","25.0547383333333","6501600","泰山區"
"243014","680-BX","2018/12/20 19:29:32","新北市泰山區仁義路11巷1號","121.43222","25.0554283333333","6501600","泰山區"
"222003","436-BY","2018/12/20 19:29:34","新北市深坑區深南路51-1號","121.621305","25.0097983333333","6501800","深坑區"
"222002","659-BX","2018/12/20 19:29:36","新北市深坑區北深路一段177號","121.632578333333","25.0108783333333","6501800","深坑區"
"231041","002-UM","2018/12/20 19:29:31","新北市新店區中正路543-4號","121.533653333333","24.9874616666667","6500600","新店區"
"231059","046-UY","2018/12/20 19:29:40","新北市新店區安和路三段7號","121.518025","24.980605","6500600","新店區"
"231040","047-UY","2018/12/20 19:29:42","新北市新店區北新路一段14號","121.540763333333","24.9656","6500600","新店區"
"231044","106-UY","2018/12/20 19:29:25","新北市新店區中興路三段128號","121.544898333333","24.97963","6500600","新店區"
"231046","107-UY","2018/12/20 19:29:29","新北市新店區中央路175-1號","121.534523333333","24.9698483333333","6500600","新店區"
"231052","108-UY","2018/12/20 19:29:23","新北市新店區新烏路二段315號","121.549605","24.9111716666667","6500600","新店區"
"231062","110-UY","2018/12/20 19:29:36","新北市新店區莒光路32號","121.52349","24.95911","6500600","新店區"
"231047","187-VK","2018/12/20 19:29:39","新北市新店區五峰路137號","121.544966666667","24.96574","6500600","新店區"
"231054","KEA-2219","2018/12/20 19:29:41","新北市新店區文中路51-5號","121.5404","24.9568083333333","6500600","新店區"
"221036","KEA-2785","2018/12/20 19:29:27","新北市汐止區康寧街901號","121.651141666667","25.0751583333333","6501100","汐止區"
"231057","256-BX","2018/12/20 19:29:30","新北市新店區花園一路三段34號","121.550276666667","24.9330116666667","6500600","新店區"
"231065","260-TV","2018/12/20 19:29:29","新北市新店區安祥路109巷3弄6號","121.475403333333","24.9595783333333","6500600","新店區"
"231042","268-BY","2018/12/20 19:29:43","新北市新店區中興路一段51號","121.53955","24.9602683333333","6500600","新店區"
"231051","278-BY","2018/12/20 19:28:04","新北市新店區中央五街77號","121.526778333333","24.97607","6500600","新店區"
"231050","AAD-862","2018/12/20 19:29:26","新北市新店區竹林路157-1號","121.556801666667","24.9476266666667","6500600","新店區"
"231058","3713-VJ","2018/12/20 19:29:37","新北市新店區北新路二段228巷2號","121.543268333333","24.9771416666667","6500600","新店區"
"231066","4716-K9","2018/12/20 19:29:29","新北市新店區安康路三段466-2號","121.484061666667","24.9508533333333","6500600","新店區"
"231049","513-UM","2018/12/20 19:29:26","新北市新店區北新路三段105巷11號","121.540675","24.9820633333333","6500600","新店區"
"231045","617-UM","2018/12/20 19:29:32","新北市新店區北宜路二段215號","121.55327","24.9533733333333","6500600","新店區"
"231061","619-UM","2018/12/20 19:29:28","新北市新店區安康路一段285號","121.523265","24.9636283333333","6500600","新店區"
"231063","641-BX","2018/12/20 19:29:29","新北市新店區達觀路14巷2號","121.503378333333","24.9418333333333","6500600","新店區"
"231064","719-UM","2018/12/20 19:29:30","新北市新店區安忠路38號","121.513198333333","24.9596566666667","6500600","新店區"
"231060","897-TW","2018/12/20 19:29:38","新北市新店區安康路二段65號","121.513951666667","24.9631816666667","6500600","新店區"
"231043","899-TW","2018/12/20 19:29:35","新北市新店區北新路二段175號","121.542843333333","24.9769383333333","6500600","新店區"
"241028","022-UY","2018/12/20 19:29:32","新北市三重區中寮街90號","121.493213333333","25.0580516666667","6500200","三重區"
"241008","059-VK","2018/12/20 19:29:33","新北市三重區永福街135巷34號","121.477491666667","25.0771033333333","6500200","三重區"
"241022","060-VK","2018/12/20 19:29:40","新北市三重區三民街175巷1號","121.48367","25.0652866666667","6500200","三重區"
"241017","063-VK","2018/12/20 19:29:37","新北市三重區國隆路28號","121.492338333333","25.06439","6500200","三重區"
"251014","742-BX","2018/12/20 19:29:38","新北市淡水區小中寮15-1號","121.485386666667","25.2303233333333","6501000","淡水區"
"241009","267-UM","2018/12/20 19:29:32","新北市三重區溪尾街242巷72號","121.486085","25.0814116666667","6500200","三重區"
"241013","270-UM","2018/12/20 19:29:32","新北市三重區仁賢街12-1號","121.495733333333","25.07496","6500200","三重區"
"241025","271-UM","2018/12/20 19:29:38","新北市三重區頂崁街210巷28弄9號","121.47583","25.0671866666667","6500200","三重區"
"241007","398-BY","2018/12/20 19:29:41","新北市三重區慈愛街151號","121.489551666667","25.0793883333333","6500200","三重區"
"241035","KEA-2210","2018/12/20 19:29:22","新北市三重區信義西街1號","121.498151666667","25.0648716666667","6500200","三重區"
"241031","462-BY","2018/12/20 19:29:28","新北市三重區重新路四段184巷40號","121.488265","25.055075","6500200","三重區"
"241020","478-VK","2018/12/20 19:29:35","新北市三重區三和路四段15號","121.491218333333","25.0742233333333","6500200","三重區"
"241030","480-VK","2018/12/20 19:29:37","新北市三重區成功路41巷6號","121.49021","25.0514683333333","6500200","三重區"
"241023","545-UM","2018/12/20 19:29:22","新北市三重區頂崁街183號","121.478126666667","25.0637083333333","6500200","三重區"
"241006","AAD-863","2018/12/20 19:29:32","新北市三重區國道路一段23號","121.485448333333","25.0732516666667","6500200","三重區"
"241026","743-BX","2018/12/20 19:29:35","新北市三重區文化南路47巷6號","121.49957","25.0611266666667","6500200","三重區"
"241012","941-UM","2018/12/20 19:29:36","新北市三重區河邊北街262號","121.501655","25.07646","6500200","三重區"
"241029","942-UM","2018/12/20 19:29:40","新北市三重區重安街103號","121.493915","25.0551433333333","6500200","三重區"
"235066","003-UY","2018/12/20 19:29:34","新北市中和區景新街57巷9號","121.50437","24.9991816666667","6500300","中和區"
"235064","005-UY","2018/12/20 19:29:24","新北市中和區南山路127巷8弄2號","121.502563333333","24.9971683333333","6500300","中和區"
"235063","006-UY","2018/12/20 19:29:21","新北市中和區連城路219巷15號","121.494918333333","24.996365","6500300","中和區"
"235056","096-UM","2018/12/20 19:29:28","新北市中和區民富街15-2號","121.476473333333","25.00738","6500300","中和區"
"235039","097-UM","2018/12/20 19:29:33","新北市中和區秀峰街103巷4弄2號","121.520518333333","24.9900716666667","6500300","中和區"
"235040","150-BY","2018/12/20 19:19:30","新北市中和區保健路44巷32弄8號","121.508735","24.9966933333333","6500300","中和區"
"235058","151-BY","2018/12/20 19:29:35","新北市中和區連城路374巷1號","121.481395","24.9953566666667","6500300","中和區"
"235055","183-VK","2018/12/20 19:29:40","新北市中和區莒光路120巷13弄2號","121.471641666667","25.0014166666667","6500300","中和區"
"235038","185-VK","2018/12/20 19:29:38","新北市中和區自立路101號","121.522066666667","24.9947783333333","6500300","中和區"
"235049","186-VK","2018/12/20 19:29:17","新北市中和區景新街285號","121.509755","24.9934316666667","6500300","中和區"
"235067","255-BX","2018/12/20 19:29:40","新北市中和區連城路340巷14弄13號","121.483051666667","24.9971516666667","6500300","中和區"
"235044","293-VK","2018/12/20 19:29:34","新北市中和區捷運路100-1號","121.506333333333","24.99125","6500300","中和區"
"235072","301-VK","2018/12/20 19:29:38","新北市中和區連城路265巷12弄2號","121.491683333333","24.9951866666667","6500300","中和區"
"235042","KEA-2878","2018/12/20 19:29:23","新北市中和區宜安路92巷21號","121.511161666667","24.9984366666667","6500300","中和區"
"235050","4979-A6","2018/12/20 19:29:21","新北市中和區中正路418號","121.491773333333","24.9941333333333","6500300","中和區"
"235070","558-UM","2018/12/20 19:29:34","新北市中和區景平路493-5號","121.500146666667","24.9979433333333","6500300","中和區"
"235045","565-BX","2018/12/20 19:29:30","新北市中和區景新街383巷38號","121.513893333333","24.9907133333333","6500300","中和區"
"235054","640-BX","2018/12/20 19:29:35","新北市中和區國光街102巷3號","121.470445","25.0005783333333","6500300","中和區"
"235060","647-TV","2018/12/20 19:29:21","新北市中和區員山路314巷7弄4號","121.482203333333","25.0031183333333","6500300","中和區"
"235047","732-UM","2018/12/20 19:29:31","新北市中和區景平路259巷26號","121.507341666667","24.9927466666667","6500300","中和區"
"235046","733-UM","2018/12/20 19:29:28","新北市中和區忠孝街37巷44號","121.510728333333","24.9847966666667","6500300","中和區"
"235071","783-BX","2018/12/20 19:29:36","新北市中和區中正路637巷18弄4號","121.48436","24.9950716666667","6500300","中和區"
"235057","801-TS","2018/12/20 19:29:35","新北市中和區員山路376號","121.48068","25.004215","6500300","中和區"
"235041","802-TS","2018/12/20 19:29:31","新北市中和區中安街132號","121.51083","25.0003983333333","6500300","中和區"
"235052","805-TS","2018/12/20 19:29:39","新北市中和區華新街143巷69弄14號","121.50759","24.9788966666667","6500300","中和區"
"235048","896-TW","2018/12/20 19:29:37","新北市中和區忠孝街103號","121.511996666667","24.9863183333333","6500300","中和區"
"235053","900-TW","2018/12/20 19:29:29","新北市中和區華順街2巷2號","121.467671666667","24.9988366666667","6500300","中和區"
"235051","157-BY","2018/12/20 19:29:42","新北市中和區景新街117號","121.505608333333","24.9975666666667","6500300","中和區"
"235037","AAC-213","2018/12/20 19:29:35","新北市中和區秀朗路三段10巷14弄10號","121.525098333333","24.996585","6500300","中和區"
"235059","AAC-215","2018/12/20 19:29:24","新北市中和區圓通路252巷29弄10號","121.492663333333","24.99185","6500300","中和區"
"220069","015-TV","2018/12/20 19:29:24","新北市板橋區縣民大道一段64巷15號","121.455865","25.0035116666667","6500100","板橋區"
"220065","072-UY","2018/12/20 19:29:29","新北市板橋區國泰街111巷4-2號","121.46573","25.0061383333333","6500100","板橋區"
"220086","073-UY","2018/12/20 19:29:33","新北市板橋區中正路236巷93號","121.459525","25.0197183333333","6500100","板橋區"
"220106","075-UY","2018/12/20 19:29:24","新北市板橋區雙十路三段54號","121.471025","25.0315733333333","6500100","板橋區"
"247004","002-UY","2018/12/20 19:29:35","新北市蘆洲區長安街201-1號","121.460105","25.082005","6501400","蘆洲區"
"226004","312-R5","2018/12/20 19:29:23","新北市平溪區十分里十分街156號","121.7779","25.0433616666667","6502400","平溪區"
"235065","251-BX","2018/12/20 19:29:27","新北市中和區中山路二段64巷16弄14號","121.50365","25.0061283333333","6500300","中和區"
"228003","097-TW","2018/12/20 19:29:29","新北市貢寮區和美里和美街22-1號","121.912796666667","25.0826183333333","6502600","貢寮區"
"228001","212-TW","2018/12/20 19:29:23","新北市貢寮區真理里延平街68號","121.92537","25.0574416666667","6502600","貢寮區"
"228002","585-TW","2018/12/20 19:29:35","新北市貢寮區龍門里龍門街69號","121.930971666667","25.0265633333333","6502600","貢寮區"
"224010","AGQ-8101","2018/12/20 19:29:31","新北市瑞芳區基山街171號","121.843286666667","25.10801","6501200","瑞芳區"
"227004","642-TC","2018/12/20 19:29:42","新北市雙溪區雙溪里太平路77號","121.865215","25.0359783333333","6502500","雙溪區"
"227010","400-TW","2018/12/20 19:29:34","新北市雙溪區新基里新基北街43號","121.868193333333","25.0396916666667","6502500","雙溪區"
"253006","032-BX","2018/12/20 19:29:28","新北市石門區楓林29-1號","121.543278333333","25.2884983333333","6502200","石門區"
"222001","KEA-2212","2018/12/20 19:29:21","新北市深坑區北深路二段121號","121.616735","25.0030933333333","6501800","深坑區"
"208002","KEA-2872","2018/12/20 19:29:31","新北市金山區中正路55號","121.634428333333","25.2219066666667","6502700","金山區"
"208003","665-BX","2018/12/20 19:29:34","新北市金山區中山路263巷14號","121.636343333333","25.2215933333333","6502700","金山區"
"208001","761-BX","2018/12/20 19:29:32","新北市金山區南勢96號","121.62596","25.220255","6502700","金山區"
"251009","008-UM","2018/12/20 19:29:28","新北市淡水區大忠街5巷8號","121.443328333333","25.176515","6501000","淡水區"
"251005","010-UM","2018/12/20 19:29:33","新北市淡水區水源街一段71巷11號","121.444456666667","25.1729283333333","6501000","淡水區"
"251001","011-UM","2018/12/20 19:29:23","新北市淡水區民權路179-1號","121.459706666667","25.1349216666667","6501000","淡水區"
"251013","KEA-2871","2018/12/20 19:29:37","新北市淡水區大牛稠6號","121.469873333333","25.2182133333333","6501000","淡水區"
"251016","179-VK","2018/12/20 19:29:34","新北市淡水區下圭柔山119-51號","121.450666666667","25.2085516666667","6501000","淡水區"
"251008","181-VK","2018/12/20 19:29:33","新北市淡水區中正路一段108號","121.423745","25.1779416666667","6501000","淡水區"
"251015","182-VK","2018/12/20 19:29:35","新北市淡水區北新路三段167號","121.489883333333","25.1906116666667","6501000","淡水區"
"251010","413-VK","2018/12/20 19:29:30","新北市淡水區中正路二段150號","121.422856666667","25.1876983333333","6501000","淡水區"
"251012","441-VK","2018/12/20 19:29:41","新北市淡水區崁頂98號","121.434756666667","25.203745","6501000","淡水區"
"251007","442-VK","2018/12/20 19:29:39","新北市淡水區大同路113巷4號","121.463741666667","25.141235","6501000","淡水區"
"251006","561-UM","2018/12/20 19:29:39","新北市淡水區大義街40號","121.442018333333","25.1783366666667","6501000","淡水區"
"251011","650-BX","2018/12/20 19:29:44","新北市淡水區中正東路二段143巷2弄1號","121.460686666667","25.14737","6501000","淡水區"
"207003","550-UM","2018/12/20 19:29:28","新北市萬里區大鵬里萬里加投197-5號","121.643951666667","25.215085","6502800","萬里區"
"207004","225-TW","2018/12/20 19:29:23","新北市萬里區萬里里瑪鋉頂街41號","121.689163333333","25.1787983333333","6502800","萬里區"
"252002","178-VK","2018/12/20 19:29:34","新北市三芝區淡金路二段18-1號","121.502666666667","25.2595083333333","6502100","三芝區"
"252001","292-VK","2018/12/20 19:29:29","新北市三芝區長勤街63-1號","121.500076666667","25.2560933333333","6502100","三芝區"
"237007","153-BY","2018/12/20 19:29:26","新北市三峽區二鬮路136巷20弄2號","121.357431666667","24.9097066666667","6500900","三峽區"
"237009","210-TH","2018/12/20 19:29:43","新北市三峽區民權街37號","121.36978","24.9336316666667","6500900","三峽區"
"237013","252-BX","2018/12/20 19:29:32","新北市三峽區介壽路一段316-1號","121.380715","24.9302","6500900","三峽區"
"237012","275-BY","2018/12/20 19:29:25","新北市三峽區三樹路60號","121.37775","24.9382333333333","6500900","三峽區"
"237008","302-VK","2018/12/20 19:29:32","新北市三峽區永安街183號","121.373148333333","24.926755","6500900","三峽區"
"237014","433-BY","2018/12/20 19:29:30","新北市三峽區中山路63巷6號","121.366935","24.934365","6500900","三峽區"
"237006","5529-G3","2018/12/20 19:29:22","新北市三峽區中正路一段336巷15弄2號","121.369951666667","24.9249766666667","6500900","三峽區"
"237011","KEA-2596","2018/12/20 19:29:35","新北市三峽區介壽路二段91-3號","121.391806666667","24.9354833333333","6500900","三峽區"
"237016","649-BX","2018/12/20 19:29:28","新北市三峽區建安22號","121.445993333333","24.9276033333333","6500900","三峽區"
"237010","706-TV","2018/12/20 19:29:40","新北市三峽區復興路30-4號","121.374298333333","24.9362283333333","6500900","三峽區"
"237005","AKY-6261","2018/12/20 19:29:22","新北市三峽區復興路367巷1弄13號","121.364008333333","24.9380916666667","6500900","三峽區"
"236070","105-UM","2018/12/20 19:29:25","新北市土城區裕民路185巷36弄10號","121.45433","24.98451","6501300","土城區"
"236078","166-UM","2018/12/20 19:29:30","新北市土城區中央路四段181號","121.415016666667","24.9567533333333","6501300","土城區"
"236026","269-VK","2018/12/20 19:29:27","新北市土城區中央路二段61巷26號","121.443261666667","24.97867","6501300","土城區"
"236014","270-VK","2018/12/20 19:29:32","新北市土城區廣福街133號","121.456176666667","24.99329","6501300","土城區"
"236021","401-BY","2018/12/20 19:29:40","新北市土城區峰廷街8號","121.468678333333","24.9877283333333","6501300","土城區"
"236059","912-UM","2018/12/20 19:29:42","新北市土城區中央路二段63號","121.44272","24.97895","6501300","土城區"
"236049","913-UM","2018/12/20 19:29:39","新北市土城區清水路209號","121.460405","24.9819066666667","6501300","土城區"
"236055","AAC-216","2018/12/20 19:29:31","新北市土城區學府路一段276號","121.45023","24.983325","6501300","土城區"
"242013","173-VK","2018/12/20 19:29:37","新北市新莊區三和路12-21號","121.442065","25.0387566666667","6500500","新莊區"
"242031","348-TH","2018/12/20 19:29:36","新北市新莊區新泰路225巷10號","121.445693333333","25.03937","6500500","新莊區"
"238015","755-BX","2018/12/20 19:29:28","新北市樹林區中興街60號","121.42115","24.9916033333333","6500700","樹林區"
"238023","601-UM","2018/12/20 19:29:34","新北市樹林區三福街114號","121.406401666667","25.0163016666667","6500700","樹林區"
"238019","599-UM","2018/12/20 19:29:30","新北市樹林區鎮前街347巷1弄36號","121.417808333333","24.9842733333333","6500700","樹林區"
"238018","571-TV","2018/12/20 19:29:41","新北市樹林區中華路227號","121.418771666667","24.9809366666667","6500700","樹林區"
"238024","5061-A6","2018/12/20 19:29:29","新北市樹林區中山路三段27號","121.401396666667","24.9754616666667","6500700","樹林區"
"238022","KEA-2213","2018/12/20 19:29:43","新北市樹林區名園街45號","121.419723333333","24.978675","6500700","樹林區"
"238025","303-VK","2018/12/20 19:29:40","新北市樹林區中山路一段47號","121.423953333333","24.9923383333333","6500700","樹林區"
"238017","283-BY","2018/12/20 19:29:25","新北市樹林區光興街91號","121.40877","25.00255","6500700","樹林區"
"238014","282-BY","2018/12/20 19:29:34","新北市樹林區保安二街64巷2號","121.424485","24.996245","6500700","樹林區"
"238026","172-UY","2018/12/20 19:29:40","新北市樹林區柑園街一段367號","121.388645","24.95598","6500700","樹林區"
"239007","AAC-297","2018/12/20 19:29:25","新北市鶯歌區大湖路148號","121.342716666667","24.96439","6500800","鶯歌區"
"239006","891-R6","2018/12/20 19:29:29","新北市鶯歌區鶯桃路69號","121.341045","24.9528366666667","6500800","鶯歌區"
"239005","526-UM","2018/12/20 19:29:39","新北市鶯歌區東湖路36號","121.356905","24.972585","6500800","鶯歌區"
"239001","417-VK","2018/12/20 19:29:33","新北市鶯歌區建國路459號","121.339261666667","24.951965","6500800","鶯歌區"
"239003","360-BY","2018/12/20 19:29:40","新北市鶯歌區二甲路13號","121.344456666667","24.93526","6500800","鶯歌區"
"239004","193-VK","2018/12/20 19:29:26","新北市鶯歌區二甲路37號","121.340621666667","24.9366883333333","6500800","鶯歌區"
"221008","489-VK","2018/12/20 19:29:25","新北市汐止區三民街1巷1號","121.624265","25.0667966666667","6501100","汐止區"
"221015","131-UY","2018/12/20 19:29:30","新北市汐止區康寧街901號","121.65149","25.075015","6501100","汐止區"
"221010","269-BY","2018/12/20 19:29:25","新北市汐止區連峰街7號","121.646495","25.077185","6501100","汐止區"
"221012","278-VK","2018/12/20 19:29:22","新北市汐止區大同路三段174號","121.67402","25.0750966666667","6501100","汐止區"
"221023","279-VK","2018/12/20 19:29:27","新北市汐止區康寧街901號","121.651613333333","25.0749016666667","6501100","汐止區"
"221027","281-BY","2018/12/20 19:29:37","新北市汐止區忠孝東路9號","121.658318333333","25.0659883333333","6501100","汐止區"
"221029","298-VK","2018/12/20 19:29:26","新北市汐止區康寧街901號","121.65157","25.0749733333333","6501100","汐止區"
"221021","299-VK","2018/12/20 19:29:33","新北市汐止區康寧街901號","121.651393333333","25.0750116666667","6501100","汐止區"
"221031","353-TW","2018/12/20 19:29:26","新北市汐止區康寧街901號","121.650858333333","25.0752866666667","6501100","汐止區"
"221025","623-UM","2018/12/20 19:29:34","新北市汐止區新台五路二段2號","121.660043333333","25.0649183333333","6501100","汐止區"
"221038","646-BX","2018/12/20 19:29:22","新北市汐止區大同路二段381號","121.657505","25.0672483333333","6501100","汐止區"
"221033","647-BX","2018/12/20 19:29:37","新北市汐止區南勢街3號","121.627096666667","25.0374316666667","6501100","汐止區"
"221002","707-TV","2018/12/20 19:29:27","新北市汐止區大同路一段231-1號","121.634305","25.0575583333333","6501100","汐止區"
"220079","145-BY","2018/12/20 19:29:38","新北市板橋區民權路302巷4號","121.457385","25.0164566666667","6500100","板橋區"
"220080","200-UY","2018/12/20 19:29:34","新北市板橋區大觀路二段37巷180號","121.449563333333","25.0021683333333","6500100","板橋區"
"220082","610-BX","2018/12/20 19:29:25","新北市板橋區金門街131號","121.432918333333","24.9913133333333","6500100","板橋區"
"220101","245-BX","2018/12/20 19:29:39","新北市板橋區萬板路36號","121.471941666667","25.0224416666667","6500100","板橋區"
"220056","276-BY","2018/12/20 19:29:28","新北市板橋區信義路111號","121.457676666667","24.9934566666667","6500100","板橋區"
"220072","277-BY","2018/12/20 19:29:33","新北市板橋區金門街253巷17弄9號","121.433496666667","24.9890583333333","6500100","板橋區"
"220071","283-VK","2018/12/20 19:29:33","新北市板橋區忠孝路22號","121.460048333333","25.0016533333333","6500100","板橋區"
"220094","285-UM","2018/12/20 19:29:32","新北市板橋區銘傳街78號","121.469083333333","25.0312766666667","6500100","板橋區"
"220053","285-VK","2018/12/20 19:29:24","新北市板橋區富山街53巷1弄112號","121.477725","25.0197166666667","6500100","板橋區"
"220083","286-VK","2018/12/20 19:29:41","新北市板橋區大觀路二段174巷163弄9號","121.441243333333","25.0032983333333","6500100","板橋區"
"220081","287-VK","2018/12/20 19:29:25","新北市板橋區大觀路一段28巷1弄102號","121.451805","25.0063166666667","6500100","板橋區"
"220090","288-VK","2018/12/20 19:29:42","新北市板橋區長江路一段9號","121.45782","25.0291033333333","6500100","板橋區"
"220061","293-UM","2018/12/20 19:29:25","新北市板橋區中山路一段265巷16號","121.468691666667","25.0146716666667","6500100","板橋區"
"220084","296-UM","2018/12/20 19:29:35","新北市板橋區篤行路三段玉平巷4-1號","121.428926666667","24.9876866666667","6500100","板橋區"
"220075","303-R5","2018/12/20 19:29:30","新北市板橋區中正路253巷70號","121.452825","25.0172983333333","6500100","板橋區"
"220062","305-R5","2018/12/20 19:29:34","新北市板橋區三民路二段153巷4弄2號","121.479633333333","25.0145666666667","6500100","板橋區"
"220092","307-R5","2018/12/20 19:29:41","新北市板橋區陽明街46-2號","121.465676666667","25.021945","6500100","板橋區"
"220098","317-R6","2018/12/20 19:29:25","新北市板橋區四維路121號","121.465263333333","25.0249266666667","6500100","板橋區"
"220089","487-VK","2018/12/20 19:29:41","新北市板橋區龍泉街94-4號","121.456601666667","25.0250733333333","6500100","板橋區"
"220088","491-VK","2018/12/20 19:29:37","新北市板橋區仁化街182號","121.478486666667","25.0339916666667","6500100","板橋區"
"220035","560-BX","2018/12/20 19:29:39","新北市板橋區中正路399巷34號","121.452966666667","25.023015","6500100","板橋區"
"220103","561-BX","2018/12/20 19:29:31","新北市板橋區陽明街29巷29號","121.464015","25.022485","6500100","板橋區"
"220063","609-BX","2018/12/20 19:29:28","新北市板橋區林森街3巷1弄23號","121.482716666667","25.0236166666667","6500100","板橋區"
"220055","630-UY","2018/12/20 19:29:38","新北市板橋區實踐路189號","121.464351666667","25.0032883333333","6500100","板橋區"
"220091","637-BX","2018/12/20 19:29:23","新北市板橋區文聖街149巷25號","121.47952","25.0285666666667","6500100","板橋區"
"220057","686-BX","2018/12/20 19:29:30","新北市板橋區和平路28號","121.460348333333","24.9945216666667","6500100","板橋區"
"220077","687-BX","2018/12/20 19:29:39","新北市板橋區僑中二街90巷2號","121.44645","25.0092416666667","6500100","板橋區"
"220093","689-BX","2018/12/20 19:29:38","新北市板橋區長江路一段123號","121.4602","25.029945","6500100","板橋區"
"220054","741-BX","2018/12/20 19:29:41","新北市中和區德光路126號","121.467726666667","25.0036933333333","6500100","板橋區"
"220102","KEA-2699","2018/12/20 19:29:26","新北市板橋區雙十路二段130巷2弄76號","121.475613333333","25.02909","6500100","板橋區"
"220067","829-TW","2018/12/20 19:29:23","新北市板橋區漢生東路313巷2弄3號","121.472283333333","25.0081733333333","6500100","板橋區"
"220068","830-TW","2018/12/20 19:29:25","新北市板橋區翠華街12巷1號","121.482896666667","25.02466","6500100","板橋區"
"220074","895-R6","2018/12/20 19:29:28","新北市板橋區文化路一段18-1號","121.457856666667","25.0128433333333","6500100","板橋區"
"220073","985-R7","2018/12/20 19:29:37","新北市板橋區中正路302號","121.454933333333","25.0206233333333","6500100","板橋區"
"220097","AAC-210","2018/12/20 19:29:40","新北市板橋區文化路一段285巷2弄23號","121.464165","25.0195383333333","6500100","板橋區"
"220064","AAC-253","2018/12/20 19:29:24","新北市板橋區公園街64號","121.461966666667","25.0076633333333","6500100","板橋區"
"235068","KEA-2873","2018/12/20 19:29:32","新北市中和區連勝街57巷20號","121.498068333333","24.996435","6500300","中和區"
"235061","KEA-2875","2018/12/20 19:29:29","新北市中和區員山路189號","121.481191666667","24.9973233333333","6500300","中和區"
