"lineid","car","time","location","longitude","latitude","cityid","cityname"
"234046","148-BY","2018/12/20 19:59:41","新北市永和區成功路一段89號","121.526845","25.0029733333333","6500400","永和區"
"234081","298-R6","2018/12/20 19:59:32","新北市永和區林森路99號","121.523488333333","25.0036516666667","6500400","永和區"
"234038","336-UY","2018/12/20 19:59:42","新北市永和區成功路二段118號","121.52656","24.997815","6500400","永和區"
"234064","337-UY","2018/12/20 19:59:34","新北市永和區中正路412巷20弄14號","121.51884","25.0015266666667","6500400","永和區"
"234070","552-UM","2018/12/20 19:59:41","新北市永和區國光路39-1號","121.5191","25.0082733333333","6500400","永和區"
"234017","745-BX","2018/12/20 19:59:36","新北市永和區文化路32號","121.515075","25.01503","6500400","永和區"
"234030","746-BX","2018/12/20 19:59:36","新北市永和區民生路22巷9號","121.52197","24.9972366666667","6500400","永和區"
"234054","KEA-2590","2018/12/20 19:59:41","新北市永和區環河東路一段122號","121.520651666667","25.0156683333333","6500400","永和區"
"234007","839-RS","2018/12/20 19:59:38","新北市永和區保生路22巷8號","121.507395","25.0078566666667","6500400","永和區"
"234013","KEA-2591","2018/12/20 19:59:38","新北市永和區保生路55號","121.504651666667","25.0102883333333","6500400","永和區"
"234061","AAD-866","2018/12/20 19:59:38","新北市永和區中正路283巷37號","121.51613","24.9996283333333","6500400","永和區"
"234086","748-BX","2018/12/20 19:59:35","新北市永和區福和路190號","121.520213333333","25.0077533333333","6500400","永和區"
"234042","862-TW","2018/12/20 19:59:39","新北市永和區中和路421巷5弄27號","121.508255","25.000595","6500400","永和區"
"234050","863-TW","2018/12/20 19:59:36","新北市永和區保安路214號","121.507445","25.0136966666667","6500400","永和區"
"234026","9371-KE","2018/12/20 19:59:31","新北市永和區水源街33巷1號","121.510871666667","25.0044566666667","6500400","永和區"
"234011","9373-KE","2018/12/20 19:59:38","新北市永和區仁愛路352巷124號","121.500246666667","25.0085633333333","6500400","永和區"
"249005","172-UM","2018/12/20 19:59:33","新北市八里區楓林路3-4號","121.382186666667","25.1293633333333","6502300","八里區"
"249001","173-UM","2018/12/20 19:59:29","新北市八里區中華路二段310號","121.403816666667","25.1484016666667","6502300","八里區"
"249004","303-UY","2018/12/20 19:59:38","新北市八里區中山路一段157巷67號","121.412296666667","25.1577416666667","6502300","八里區"
"249002","305-UY","2018/12/20 19:59:29","新北市八里區頂寮一街40號","121.45066","25.1237483333333","6502300","八里區"
"249003","759-BX","2018/12/20 19:59:40","新北市八里區中華路二段558號","121.398603333333","25.1451733333333","6502300","八里區"
"248014","025-BX","2018/12/20 19:59:34","新北市五股區五福路14巷22號","121.435328333333","25.0887983333333","6501500","五股區"
"248016","026-BX","2018/12/20 19:59:27","新北市五股區成泰路三段577巷80弄72號","121.448945","25.1047766666667","6501500","五股區"
"248008","095-VK","2018/12/20 19:59:25","新北市五股區中興路一段1巷11號","121.469378333333","25.0714533333333","6501500","五股區"
"248020","225-UY","2018/12/20 19:59:26","新北市五股區中直路崩山巷2號","121.424206666667","25.11455","6501500","五股區"
"248012","247-BX","2018/12/20 19:59:33","新北市五股區民義路一段109號","121.434058333333","25.08647","6501500","五股區"
"248004","677-BX","2018/12/20 19:59:44","新北市五股區成泰路一段8巷2-3號","121.434918333333","25.066855","6501500","五股區"
"248002","678-BX","2018/12/20 19:59:24","新北市五股區成泰路三段487號","121.450718333333","25.099215","6501500","五股區"
"248010","682-TV","2018/12/20 19:59:35","新北市五股區成泰路一段42號","121.435253333333","25.0688516666667","6501500","五股區"
"234023","9380-KE","2018/12/20 19:59:40","新北市永和區中正路704號","121.516221666667","25.0100366666667","6500400","永和區"
"234077","969-R7","2018/12/20 19:59:31","新北市永和區民有街14號","121.516418333333","24.9967516666667","6500400","永和區"
"234074","AAC-211","2018/12/20 19:59:42","新北市永和區豫溪街213號","121.524108333333","25.0094166666667","6500400","永和區"
"234067","AAC-212","2018/12/20 19:59:35","新北市永和區永貞路313號","121.510103333333","25.0065033333333","6500400","永和區"
"234003","AAC-295","2018/12/20 19:59:29","新北市永和區中正路704號","121.51619","25.00988","6500400","永和區"
"243013","AAD-798","2018/12/20 19:59:33","新北市泰山區應化街7號","121.423875","25.0437383333333","6501600","泰山區"
"243009","297-R6","2018/12/20 19:59:31","新北市泰山區楓江路16巷19號","121.433948333333","25.0616366666667","6501600","泰山區"
"243016","KEA-2801","2018/12/20 19:59:24","新北市泰山區貴陽街4-1號","121.42157","25.0331766666667","6501600","泰山區"
"243015","421-VK","2018/12/20 19:59:41","新北市泰山區明志路二段74號","121.428788333333","25.0523783333333","6501600","泰山區"
"243011","KEA-2215","2018/12/20 19:59:26","新北市泰山區工專路65號","121.4222","25.0404333333333","6501600","泰山區"
"243010","KEA-2216","2018/12/20 19:59:36","新北市泰山區中華街11號","121.4277","25.0523383333333","6501600","泰山區"
"243012","646-TV","2018/12/20 19:59:34","新北市泰山區全興路103號","121.433573333333","25.0569333333333","6501600","泰山區"
"243014","680-BX","2018/12/20 19:59:38","新北市泰山區泰林路二段216號","121.432866666667","25.0619183333333","6501600","泰山區"
"222003","436-BY","2018/12/20 19:59:34","新北市深坑區埔新街14號","121.62075","25.0039516666667","6501800","深坑區"
"222002","659-BX","2018/12/20 19:59:36","新北市深坑區北深路二段81巷8弄1號","121.618303333333","25.0030266666667","6501800","深坑區"
"231041","002-UM","2018/12/20 19:59:31","新北市新店區自由街2-1號","121.535638333333","24.9756183333333","6500600","新店區"
"231059","046-UY","2018/12/20 19:59:40","新北市新店區安康路二段3-3號","121.515843333333","24.9636983333333","6500600","新店區"
"231040","047-UY","2018/12/20 19:59:22","新北市新店區中正路59號","121.544271666667","24.9700133333333","6500600","新店區"
"231044","106-UY","2018/12/20 19:59:44","新北市新店區復興路40-2號","121.538765","24.986685","6500600","新店區"
"231052","108-UY","2018/12/20 19:59:43","新北市新店區新烏路三段寶島巷2弄3號","121.552008333333","24.8986683333333","6500600","新店區"
"231062","110-UY","2018/12/20 19:59:36","新北市新店區精忠路7號","121.52869","24.9560683333333","6500600","新店區"
"231047","187-VK","2018/12/20 19:59:39","新北市新店區寶宏路3-6號","121.549241666667","24.9764116666667","6500600","新店區"
"231054","KEA-2219","2018/12/20 19:59:41","新北市新店區光明街131號","121.539415","24.9619116666667","6500600","新店區"
"221036","KEA-2785","2018/12/20 19:59:23","新北市汐止區忠孝東路258巷9號","121.663736666667","25.0672566666667","6501100","汐止區"
"231057","256-BX","2018/12/20 19:59:30","新北市新店區花園二路一段11號","121.555528333333","24.9324966666667","6500600","新店區"
"231065","260-TV","2018/12/20 19:59:29","新北市新店區安祥路109巷151弄10號","121.478155","24.9589183333333","6500600","新店區"
"231042","268-BY","2018/12/20 19:59:39","新北市新店區中興路一段278號","121.54548","24.9682966666667","6500600","新店區"
"231051","278-BY","2018/12/20 19:59:24","新北市新店區中央路137號","121.530225","24.9736116666667","6500600","新店區"
"231050","AAD-862","2018/12/20 19:59:26","新北市新店區北宜路二段10號","121.54781","24.9517933333333","6500600","新店區"
"231066","4716-K9","2018/12/20 19:59:29","新北市新店區安康路二段341巷1號","121.49685","24.9552816666667","6500600","新店區"
"231056","4715-K9","2018/12/20 19:59:35","新北市新店區北新路二段59巷1號","121.54239","24.9728916666667","6500600","新店區"
"231067","4772-VM","2018/12/20 19:59:36","新北市新店區秀山路11巷12弄2號","121.531516666667","24.9595166666667","6500600","新店區"
"231049","513-UM","2018/12/20 19:59:26","新北市新店區民族路11號","121.541625","24.9787733333333","6500600","新店區"
"231045","617-UM","2018/12/20 19:59:32","新北市新店區中生路66號","121.56459","24.9526683333333","6500600","新店區"
"231061","619-UM","2018/12/20 19:59:28","新北市新店區安民街326號","121.517446666667","24.974575","6500600","新店區"
"231063","641-BX","2018/12/20 19:59:29","新北市新店區車子路11號","121.502961666667","24.9518016666667","6500600","新店區"
"231068","718-UY","2018/12/20 19:59:33","新北市新店區安平路23-13號","121.520515","24.9658","6500600","新店區"
"231064","719-UM","2018/12/20 19:59:30","新北市新店區吉安街21號","121.516176666667","24.965865","6500600","新店區"
"231060","897-TW","2018/12/20 19:59:27","新北市新店區安康路二段426號","121.496021666667","24.9550233333333","6500600","新店區"
"231043","899-TW","2018/12/20 19:59:35","新北市新店區中正路263-2號","121.538483333333","24.9737883333333","6500600","新店區"
"231055","AKT-0513","2018/12/20 19:59:39","新北市新店區中華路50號","121.539656666667","24.9684816666667","6500600","新店區"
"241011","013-R5","2018/12/20 19:59:38","新北市三重區三和路二段171號","121.49785","25.0696833333333","6500200","三重區"
"241028","022-UY","2018/12/20 19:59:32","新北市三重區重新路三段90號","121.492943333333","25.0607566666667","6500200","三重區"
"241008","059-VK","2018/12/20 19:59:33","新北市三重區永福街179巷28號","121.47804","25.07481","6500200","三重區"
"241022","060-VK","2018/12/20 19:59:40","新北市三重區過圳街19號","121.488716666667","25.06059","6500200","三重區"
"241015","062-VK","2018/12/20 19:59:34","新北市三重區三和路二段14-2號","121.500876666667","25.0671166666667","6500200","三重區"
"241017","063-VK","2018/12/20 19:59:36","新北市三重區自強路一段215號","121.491325","25.0685283333333","6500200","三重區"
"241024","065-VK","2018/12/20 19:59:32","新北市三重區大勇街49號","121.481551666667","25.0718133333333","6500200","三重區"
"241003","091-VK","2018/12/20 19:59:42","新北市三重區仁愛街445巷7號","121.490201666667","25.082455","6500200","三重區"
"251014","742-BX","2018/12/20 19:59:38","新北市淡水區石頭厝1號","121.459051666667","25.2353066666667","6501000","淡水區"
"241016","266-UM","2018/12/20 19:59:42","新北市三重區正義北路37號","121.497441666667","25.06365","6500200","三重區"
"241009","267-UM","2018/12/20 19:59:32","新北市三重區三和路四段390巷8號","121.481628333333","25.0788983333333","6500200","三重區"
"241018","268-UM","2018/12/20 19:59:26","新北市三重區正義北路244巷58號","121.494293333333","25.0677316666667","6500200","三重區"
"241032","269-UM","2018/12/20 19:59:28","新北市三重區朝陽街55號","121.483393333333","25.0574866666667","6500200","三重區"
"241013","270-UM","2018/12/20 19:59:32","新北市三重區三和路三段125巷40號","121.494011666667","25.07375","6500200","三重區"
"241025","271-UM","2018/12/20 19:59:38","新北市三重區頂崁街210巷23弄1號","121.475866666667","25.0681016666667","6500200","三重區"
"241007","398-BY","2018/12/20 19:59:21","新北市三重區溪尾街96號","121.489656666667","25.0785816666667","6500200","三重區"
"241035","KEA-2210","2018/12/20 19:59:22","新北市三重區重新路二段13巷8號","121.498286666667","25.0628216666667","6500200","三重區"
"241031","462-BY","2018/12/20 19:59:28","新北市三重區重新路四段144巷36號","121.487188333333","25.05496","6500200","三重區"
"241004","475-VK","2018/12/20 19:59:37","新北市三重區五華街65號","121.49264","25.08258","6500200","三重區"
"241020","478-VK","2018/12/20 19:59:35","新北市三重區忠孝路一段101號","121.489691666667","25.0721516666667","6500200","三重區"
"241030","480-VK","2018/12/20 19:59:37","新北市三重區重新路四段248-1號","121.486256666667","25.0534533333333","6500200","三重區"
"241014","543-UM","2018/12/20 19:59:28","新北市三重區三和路二段156號","121.499438333333","25.0684033333333","6500200","三重區"
"241023","545-UM","2018/12/20 19:59:42","新北市三重區頂崁街172號","121.47762","25.065965","6500200","三重區"
"241001","547-UM","2018/12/20 19:59:33","新北市三重區福隆路107號","121.49257","25.078435","6500200","三重區"
"241033","557-UM","2018/12/20 19:59:34","新北市林口區太平里181號","121.3655","25.133615","6500200","三重區"
"241019","KEA-2593","2018/12/20 19:59:35","新北市三重區自強路二段24號","121.489615","25.0692783333333","6500200","三重區"
"241006","AAD-863","2018/12/20 19:59:32","新北市三重區力行路二段91巷2號","121.482931666667","25.07589","6500200","三重區"
"241026","743-BX","2018/12/20 19:59:35","新北市三重區仁慈街11號","121.501788333333","25.0630166666667","6500200","三重區"
"241012","941-UM","2018/12/20 19:59:36","新北市三重區仁興街54號","121.498811666667","25.0759","6500200","三重區"
"241029","942-UM","2018/12/20 19:59:40","新北市三重區重安街1號","121.489991666667","25.058295","6500200","三重區"
"235066","003-UY","2018/12/20 19:59:34","新北市中和區中山路二段56號","121.504205","25.0048316666667","6500300","中和區"
"235056","096-UM","2018/12/20 19:59:28","新北市中和區中山路三段161號","121.473341666667","25.006235","6500300","中和區"
"235039","097-UM","2018/12/20 19:59:33","新北市中和區景平路278巷16弄28號","121.514598333333","24.99391","6500300","中和區"
"235040","150-BY","2018/12/20 19:59:30","新北市中和區保健路10巷3弄1號","121.507795","24.997645","6500300","中和區"
"235055","183-VK","2018/12/20 19:59:40","新北市中和區中山路三段218號","121.471346666667","25.00653","6500300","中和區"
"235049","186-VK","2018/12/20 19:56:57","新北市中和區南山路171號","121.50303","24.9952316666667","6500300","中和區"
"235067","255-BX","2018/12/20 19:59:40","新北市中和區民樂路81號","121.484795","25.00126","6500300","中和區"
"235044","293-VK","2018/12/20 19:59:34","新北市中和區復興路73號","121.503756666667","24.9902866666667","6500300","中和區"
"235042","KEA-2878","2018/12/20 19:59:43","新北市中和區景平路1號","121.525581666667","24.99012","6500300","中和區"
"247012","KEA-2869","2018/12/20 19:59:29","新北市蘆洲區民族路151號","121.479543333333","25.087985","6501400","蘆洲區"
"247006","KED-0682","2018/12/20 19:59:43","新北市蘆洲區九芎街115號","121.465518333333","25.079515","6501400","蘆洲區"
"235050","4979-A6","2018/12/20 19:59:42","新北市中和區景平路241巷52號","121.50811","24.992315","6500300","中和區"
"235069","4980-A6","2018/12/20 19:59:38","新北市中和區圓通路76號","121.50009","24.9971166666667","6500300","中和區"
"235070","558-UM","2018/12/20 19:59:34","新北市中和區中正路250號","121.495716666667","24.9940166666667","6500300","中和區"
"235054","640-BX","2018/12/20 19:59:24","新北市中和區中山路三段136號","121.47399","25.0062433333333","6500300","中和區"
"235046","733-UM","2018/12/20 19:59:36","新北市中和區興南路一段93巷58弄7號","121.510481666667","24.98583","6500300","中和區"
"235041","802-TS","2018/12/20 19:59:31","新北市中和區安平路17號","121.509196666667","24.9941783333333","6500300","中和區"
"235052","805-TS","2018/12/20 19:59:41","新北市中和區華新街30巷13號","121.507221666667","24.98429","6500300","中和區"
"235048","896-TW","2018/12/20 19:59:37","新北市中和區景新街401號","121.512648333333","24.9897316666667","6500300","中和區"
"235053","900-TW","2018/12/20 19:59:29","新北市中和區莒光路222-8號","121.468976666667","24.9948116666667","6500300","中和區"
"235051","157-BY","2018/12/20 19:59:42","新北市中和區景安路233號","121.504215","24.991095","6500300","中和區"
"235037","AAC-213","2018/12/20 19:59:35","新北市中和區自立路99巷24號","121.523431666667","24.9945866666667","6500300","中和區"
"235059","AAC-215","2018/12/20 19:59:24","新北市中和區圓通路367巷40號","121.49202","24.9883983333333","6500300","中和區"
"220069","015-TV","2018/12/20 19:59:24","新北市板橋區大明街20巷19弄10號","121.458308333333","25.0032733333333","6500100","板橋區"
"220065","072-UY","2018/12/20 19:59:30","新北市板橋區新府路150號","121.464736666667","25.0113016666667","6500100","板橋區"
"220106","075-UY","2018/12/20 19:59:44","新北市板橋區文聖街11巷25號","121.476055","25.0330033333333","6500100","板橋區"
"247002","893-R6","2018/12/20 19:59:36","新北市蘆洲區長安街274巷9號","121.4578","25.087045","6501400","蘆洲區"
"247016","546-UM","2018/12/20 19:59:44","新北市蘆洲區光華路43號","121.46893","25.0830466666667","6501400","蘆洲區"
"247024","500-BY","2018/12/20 19:59:27","新北市蘆洲區光榮路120巷23號","121.46572","25.0882133333333","6501400","蘆洲區"
"247020","057-VK","2018/12/20 19:59:29","新北市蘆洲區民權路113號","121.47241","25.0894333333333","6501400","蘆洲區"
"247014","053-VK","2018/12/20 19:59:31","新北市蘆洲區成功路185號","121.471846666667","25.08297","6501400","蘆洲區"
"247018","007-UY","2018/12/20 19:59:43","新北市蘆洲區民族路292號","121.477875","25.089745","6501400","蘆洲區"
"247004","002-UY","2018/12/20 19:59:35","新北市蘆洲區永康街39號","121.45725","25.0852866666667","6501400","蘆洲區"
"226004","312-R5","2018/12/20 19:59:43","新北市平溪區十分里十分街147-1號","121.777193333333","25.0438433333333","6502400","平溪區"
"235065","251-BX","2018/12/20 19:59:27","新北市中和區莊敬路33巷3弄3號","121.499615","25.0060816666667","6500300","中和區"
"228003","097-TW","2018/12/20 19:59:29","新北市貢寮區仁理村仁和路220號","121.923885","25.053495","6502600","貢寮區"
"224010","AGQ-8101","2018/12/20 19:59:31","新北市瑞芳區輕便路308號","121.84303","25.1084616666667","6501200","瑞芳區"
"227004","642-TC","2018/12/20 19:59:42","新北市雙溪區雙溪里長安街16號","121.86502","25.03468","6502500","雙溪區"
"227010","400-TW","2018/12/20 19:59:34","新北市雙溪區新基里新基南街25號","121.866275","25.0381533333333","6502500","雙溪區"
"222001","KEA-2212","2018/12/20 19:59:41","新北市深坑區北深路三段165-1號","121.602128333333","25.0033266666667","6501800","深坑區"
"208002","KEA-2872","2018/12/20 19:59:29","新北市金山區中山路69號","121.641111666667","25.2177416666667","6502700","金山區"
"208003","665-BX","2018/12/20 19:59:34","新北市金山區永興里濆水路13號","121.626798333333","25.2684466666667","6502700","金山區"
"208001","761-BX","2018/12/20 19:59:32","新北市金山區南勢41-1號","121.629096666667","25.2198783333333","6502700","金山區"
"251009","008-UM","2018/12/20 19:59:28","新北市淡水區英專路28巷2弄8-4號","121.445863333333","25.1696966666667","6501000","淡水區"
"251004","009-UM","2018/12/20 19:59:30","新北市淡水區民族路48號","121.461575","25.1359816666667","6501000","淡水區"
"251005","010-UM","2018/12/20 19:59:33","新北市淡水區學府路136巷29號","121.4515","25.1727666666667","6501000","淡水區"
"251001","011-UM","2018/12/20 19:59:43","新北市淡水區淡金路二段30號","121.452141666667","25.1813466666667","6501000","淡水區"
"251002","012-UM","2018/12/20 19:59:26","新北市淡水區中正路二段96號","121.417895","25.1858416666667","6501000","淡水區"
"251013","KEA-2871","2018/12/20 19:59:37","新北市淡水區奎柔山路63號","121.451705","25.2061733333333","6501000","淡水區"
"251016","179-VK","2018/12/20 19:59:35","新北市淡水區淡金路五段20號","121.452941666667","25.2322033333333","6501000","淡水區"
"251008","181-VK","2018/12/20 19:59:33","新北市淡水區淡海路72巷24號","121.424316666667","25.1811316666667","6501000","淡水區"
"251015","182-VK","2018/12/20 19:59:35","新北市淡水區埤島76-2號","121.451881666667","25.193125","6501000","淡水區"
"251010","413-VK","2018/12/20 19:59:30","新北市淡水區崁頂三路177號","121.429683333333","25.2015916666667","6501000","淡水區"
"251012","441-VK","2018/12/20 19:59:01","新北市淡水區下圭柔山93-4號","121.436663333333","25.2095","6501000","淡水區"
"251007","442-VK","2018/12/20 19:59:39","新北市淡水區竿蓁二街36巷2號","121.454065","25.1629783333333","6501000","淡水區"
"251006","561-UM","2018/12/20 19:59:39","新北市淡水區北新路8號","121.44448","25.17738","6501000","淡水區"
"251011","650-BX","2018/12/20 19:59:43","新北市淡水區崁頂55-3號","121.442188333333","25.1966683333333","6501000","淡水區"
"251003","766-UM","2018/12/20 19:59:43","新北市淡水區中山北路二段189巷15弄29號","121.443438333333","25.1842516666667","6501000","淡水區"
"207003","550-UM","2018/12/20 19:59:28","新北市萬里區磺潭里公館崙5號","121.641895","25.214235","6502800","萬里區"
"207004","225-TW","2018/12/20 19:59:23","新北市萬里區北基里忠二街39號","121.68572","25.175835","6502800","萬里區"
"252002","178-VK","2018/12/20 19:59:34","新北市三芝區三民街39巷36號","121.50542","25.2575933333333","6502100","三芝區"
"252001","292-VK","2018/12/20 19:59:29","新北市三芝區公正街9號","121.499775","25.2574916666667","6502100","三芝區"
"237004","KEA-2597","2018/12/20 19:59:35","新北市三峽區添福15-32號","121.372563333333","24.904765","6500900","三峽區"
"237007","153-BY","2018/12/20 19:59:26","新北市三峽區麻園46號","121.364065","24.9218116666667","6500900","三峽區"
"237009","210-TH","2018/12/20 19:59:23","新北市三峽區民族街78巷1號","121.369075","24.929885","6500900","三峽區"
"237012","275-BY","2018/12/20 19:59:25","新北市三峽區中華路115號","121.371225","24.9279883333333","6500900","三峽區"
"237008","302-VK","2018/12/20 19:59:32","新北市三峽區大同路209號","121.370718333333","24.9270666666667","6500900","三峽區"
"237014","433-BY","2018/12/20 19:59:29","新北市三峽區白雞2號","121.368055","24.9132133333333","6500900","三峽區"
"237006","5529-G3","2018/12/20 19:59:42","新北市三峽區中正路二段168號","121.36601","24.915705","6500900","三峽區"
"237016","649-BX","2018/12/20 19:59:28","新北市三峽區橫溪路99巷70號","121.400985","24.9375733333333","6500900","三峽區"
"237005","AKY-6261","2018/12/20 19:59:42","新北市三峽區民生街1巷26-1號","121.379401666667","24.9340583333333","6500900","三峽區"
"236070","105-UM","2018/12/20 19:59:37","新北市土城區忠義路92號","121.444458333333","24.962395","6501300","土城區"
"236078","166-UM","2018/12/20 19:59:30","新北市土城區中央路四段290號","121.414246666667","24.956245","6501300","土城區"
"236030","253-BX","2018/12/20 19:59:36","新北市土城區中央路一段252號","121.444253333333","24.9846433333333","6501300","土城區"
"236026","269-VK","2018/12/20 19:59:29","新北市土城區員林街1號","121.442278333333","24.97821","6501300","土城區"
"236014","270-VK","2018/12/20 19:59:32","新北市土城區廣福街123號","121.456235","24.99286","6501300","土城區"
"236038","271-VK","2018/12/20 19:59:33","新北市土城區國際路32號","121.465738333333","24.9794433333333","6501300","土城區"
"247008","KED-0683","2018/12/20 19:59:37","新北市蘆洲區信義路119巷1號","121.47846","25.08032","6501400","蘆洲區"
"236021","401-BY","2018/12/20 19:59:40","新北市土城區延吉街137巷25弄5號","121.471421666667","24.9852016666667","6501300","土城區"
"236059","912-UM","2018/12/20 19:59:42","新北市土城區中央路一段279號","121.44455","24.9846783333333","6501300","土城區"
"236049","913-UM","2018/12/20 19:59:39","新北市土城區金城路三段188號","121.468253333333","24.98801","6501300","土城區"
"236063","915-UM","2018/12/20 19:59:25","新北市土城區延和路18巷10號","121.464458333333","24.9879966666667","6501300","土城區"
"236055","AAC-216","2018/12/20 19:59:31","新北市土城區學府路一段35號","121.45792","24.98836","6501300","土城區"
"242036","AAC-296","2018/12/20 19:59:29","新北市新莊區建安街45號","121.428696666667","25.0254666666667","6500500","新莊區"
"242058","986-R7","2018/12/20 19:59:44","新北市新莊區八德街99號","121.424298333333","25.02127","6500500","新莊區"
"242027","615-BX","2018/12/20 19:59:37","新北市新莊區中平路181號","121.44471","25.0490633333333","6500500","新莊區"
"242025","613-BX","2018/12/20 19:59:39","新北市新莊區五工一路88號","121.461313333333","25.0674983333333","6500500","新莊區"
"242029","612-BX","2018/12/20 19:59:41","新北市新莊區中榮街152巷18號","121.44594","25.05348","6500500","新莊區"
"242048","497-BY","2018/12/20 19:59:29","新北市新莊區民安路209號","121.426396666667","25.02239","6500500","新莊區"
"242002","440-UM","2018/12/20 19:59:30","新北市新莊區中正路170號","121.450885","25.0358366666667","6500500","新莊區"
"242039","415-TV","2018/12/20 19:59:37","新北市新莊區民安路287-5號","121.428838333333","25.02312","6500500","新莊區"
"242023","362-BY","2018/12/20 19:59:41","新北市新莊區化成路388號","121.46588","25.0503283333333","6500500","新莊區"
"242061","353-BY","2018/12/20 19:59:37","新北市新莊區瓊林路59-8號","121.444398333333","25.0274933333333","6500500","新莊區"
"242011","132-UY","2018/12/20 19:59:36","新北市新莊區中港路531巷33號","121.450085","25.0514716666667","6500500","新莊區"
"242034","135-UY","2018/12/20 19:59:25","新北市新莊區新泰路157號","121.44761","25.0368633333333","6500500","新莊區"
"242051","172-VK","2018/12/20 19:59:31","新北市新莊區龍安路537號","121.42805","25.0175283333333","6500500","新莊區"
"242013","173-VK","2018/12/20 19:59:37","新北市新莊區幸福路670巷2弄1號","121.451026666667","25.04947","6500500","新莊區"
"242019","175-VK","2018/12/20 19:59:38","新北市新莊區民生街15巷9號","121.455313333333","25.0425666666667","6500500","新莊區"
"242007","176-VK","2018/12/20 19:59:31","新北市新莊區福壽街204號","121.458151666667","25.053715","6500500","新莊區"
"242017","KED-0687","2018/12/20 19:59:38","新北市新莊區中安街1號","121.452825","25.0452933333333","6500500","新莊區"
"242031","348-TH","2018/12/20 19:59:29","新北市新莊區公園一路61號","121.443113333333","25.0364266666667","6500500","新莊區"
"242004","349-TH","2018/12/20 19:59:26","新北市新莊區化成路350號","121.465788333333","25.0491066666667","6500500","新莊區"
"242021","350-TH","2018/12/20 19:59:34","新北市新莊區建中街16巷20號","121.449401666667","25.03846","6500500","新莊區"
"242015","351-TH","2018/12/20 19:59:28","新北市新莊區泰安街46號","121.446951666667","25.04246","6500500","新莊區"
"238017","283-BY","2018/12/20 19:59:25","新北市樹林區保安街一段269號","121.41927","24.9971633333333","6500700","樹林區"
"239006","891-R6","2018/12/20 19:59:29","新北市鶯歌區文化路87號","121.357503333333","24.9554816666667","6500800","鶯歌區"
"221008","489-VK","2018/12/20 19:59:25","台北市內湖區康樂街138號","121.6193","25.07202","6501100","汐止區"
"221015","131-UY","2018/12/20 19:59:38","新北市汐止區大同路二段689號","121.665041666667","25.0724316666667","6501100","汐止區"
"221010","269-BY","2018/12/20 19:59:45","新北市汐止區連峰街225巷27號","121.64398","25.08099","6501100","汐止區"
"221018","277-VK","2018/12/20 19:59:31","新北市汐止區中興路286巷1號","121.628228333333","25.0695333333333","6501100","汐止區"
"221012","278-VK","2018/12/20 19:59:42","新北市汐止區大同路三段425-1號","121.677253333333","25.0714633333333","6501100","汐止區"
"221023","279-VK","2018/12/20 19:59:27","新北市汐止區翠峰街21巷3弄8號","121.643588333333","25.07573","6501100","汐止區"
"221027","281-BY","2018/12/20 19:59:37","新北市汐止區中正路97號","121.661033333333","25.069395","6501100","汐止區"
"221029","298-VK","2018/12/20 19:59:26","新北市汐止區樟樹一路137巷26號","121.640993333333","25.0659716666667","6501100","汐止區"
"221021","299-VK","2018/12/20 19:59:43","新北市汐止區復興路31號","121.656398333333","25.0633833333333","6501100","汐止區"
"221031","353-TW","2018/12/20 19:59:26","新北市汐止區福德一路256號","121.633593333333","25.0646483333333","6501100","汐止區"
"221035","622-UM","2018/12/20 19:59:33","新北市汐止區長江街39巷16號","121.655426666667","25.0719766666667","6501100","汐止區"
"221025","623-UM","2018/12/20 19:59:23","新北市汐止區秀峰路109巷26弄8號","121.661076666667","25.0634316666667","6501100","汐止區"
"221038","646-BX","2018/12/20 19:59:22","新北市汐止區忠孝東路475號","121.666091666667","25.0730916666667","6501100","汐止區"
"221033","647-BX","2018/12/20 19:59:37","新北市汐止區東勢街201巷2號","121.633703333333","25.0421266666667","6501100","汐止區"
"221002","707-TV","2018/12/20 19:59:27","新北市汐止區工建路332號","121.633686666667","25.059585","6501100","汐止區"
"221018","753-BX","2018/12/20 19:59:31","新北市汐止區茄苳路42號","121.665883333333","25.070705","6501100","汐止區"
"220079","145-BY","2018/12/20 19:59:38","新北市板橋區建國街54巷30號","121.459888333333","25.0170016666667","6500100","板橋區"
"220080","200-UY","2018/12/20 19:59:34","新北市板橋區大觀路二段169巷21號","121.44633","24.9998666666667","6500100","板橋區"
"220082","610-BX","2018/12/20 19:59:45","新北市板橋區存德街81號","121.43197","24.9911","6500100","板橋區"
"220101","245-BX","2018/12/20 19:59:39","新北市板橋區莒光路165巷18號","121.474248333333","25.0244016666667","6500100","板橋區"
"224002","257-TC","2018/12/20 19:59:35","新北市瑞芳區三爪子坑路335號","121.818861666667","25.1049566666667","6501200","瑞芳區"
"220056","276-BY","2018/12/20 19:59:28","新北市板橋區德興街29號","121.453526666667","24.9940366666667","6500100","板橋區"
"220072","277-BY","2018/12/20 19:59:33","新北市板橋區篤行路二段143號","121.429726666667","24.9881416666667","6500100","板橋區"
"220071","283-VK","2018/12/20 19:59:27","新北市板橋區五權街2號","121.46393","24.99442","6500100","板橋區"
"220094","285-UM","2018/12/20 19:59:32","新北市板橋區文化路一段371號","121.466968333333","25.02156","6500100","板橋區"
"220053","285-VK","2018/12/20 19:59:24","新北市板橋區永豐街139號","121.474931666667","25.01999","6500100","板橋區"
"220083","286-VK","2018/12/20 19:59:41","新北市板橋區僑中二街12巷6號","121.446575","25.0106933333333","6500100","板橋區"
"220081","287-VK","2018/12/20 19:59:45","新北市板橋區僑中一街80巷6弄1號","121.447706666667","25.0121566666667","6500100","板橋區"
"220090","288-VK","2018/12/20 19:59:42","新北市板橋區雨農路27巷9號","121.46155","25.0238066666667","6500100","板橋區"
"220061","293-UM","2018/12/20 19:59:36","新北市板橋區觀光街67-1號","121.470153333333","25.016615","6500100","板橋區"
"220084","296-UM","2018/12/20 19:59:35","新北市板橋區滿平街2巷10號","121.425255","24.9894216666667","6500100","板橋區"
"220075","303-R5","2018/12/20 19:59:30","新北市板橋區金華街10巷41號","121.457223333333","25.020265","6500100","板橋區"
"220062","305-R5","2018/12/20 19:59:37","新北市板橋區光復街103號","121.48413","25.0190766666667","6500100","板橋區"
"220092","307-R5","2018/12/20 19:59:41","新北市板橋區文化路一段93號","121.461186666667","25.0140566666667","6500100","板橋區"
"220098","317-R6","2018/12/20 19:59:25","新北市板橋區四維路269巷94弄2號","121.459431666667","25.02681","6500100","板橋區"
"220089","487-VK","2018/12/20 19:59:41","新北市板橋區四維路319號","121.462871666667","25.0290383333333","6500100","板橋區"
"242056","280-VK","2018/12/20 19:59:33","新北市新莊區中正路347巷17弄6號","121.447393333333","25.0343783333333","6500500","新莊區"
"220088","491-VK","2018/12/20 19:59:37","新北市板橋區民治街84號","121.4794","25.03211","6500100","板橋區"
"220035","560-BX","2018/12/20 19:59:39","新北市板橋區新生街29巷15弄5號","121.45626","25.021965","6500100","板橋區"
"220103","561-BX","2018/12/20 19:59:31","新北市板橋區漢生東路35號","121.465413333333","25.0169016666667","6500100","板橋區"
"220055","630-UY","2018/12/20 19:59:38","新北市板橋區國慶路167巷35-4號","121.461576666667","24.9981366666667","6500100","板橋區"
"220091","637-BX","2018/12/20 19:59:23","新北市板橋區懷德街158巷5號","121.47861","25.0305466666667","6500100","板橋區"
"220057","686-BX","2018/12/20 19:59:30","新北市板橋區四川路二段245巷30號","121.451326666667","24.99277","6500100","板橋區"
"220077","687-BX","2018/12/20 19:59:39","新北市板橋區僑中一街124巷3弄1號","121.445931666667","25.012265","6500100","板橋區"
"220093","689-BX","2018/12/20 19:59:38","新北市板橋區長江路一段134號","121.460531666667","25.02997","6500100","板橋區"
"220102","KEA-2699","2018/12/20 19:59:34","新北市板橋區莒光路16巷26號","121.469468333333","25.024035","6500100","板橋區"
"220067","829-TW","2018/12/20 19:59:23","新北市板橋區漢生東路193巷7-1號","121.47034","25.01171","6500100","板橋區"
"220068","830-TW","2018/12/20 19:59:44","新北市板橋區中山路二段427號","121.481028333333","25.0199233333333","6500100","板橋區"
"220074","895-R6","2018/12/20 19:59:43","新北市板橋區明德街22號","121.460095","25.01076","6500100","板橋區"
"220073","985-R7","2018/12/20 19:59:36","新北市板橋區南雅西路二段281號","121.451973333333","25.015265","6500100","板橋區"
"220097","AAC-210","2018/12/20 19:59:31","新北市板橋區光正街45巷2弄16號","121.461121666667","25.0173233333333","6500100","板橋區"
"220064","AAC-253","2018/12/20 19:59:28","新北市板橋區長安街331巷114-4號","121.471521666667","25.01246","6500100","板橋區"
"235068","KEA-2873","2018/12/20 19:59:32","新北市中和區福美路301巷19號","121.497588333333","25.004065","6500300","中和區"
"235061","KEA-2875","2018/12/20 19:59:29","新北市中和區員山路174巷2號","121.481716666667","24.9998766666667","6500300","中和區"
