"lineid","car","time","location","longitude","latitude","cityid","cityname"
"231059","046-UY","2018/12/20 20:59:00","新北市新店區僑信路98號","121.49992","24.947565","6500600","新店區"
"231040","047-UY","2018/12/20 20:59:11","新北市新店區中正路213號","121.5398","24.9728433333333","6500600","新店區"
"231052","108-UY","2018/12/20 20:59:02","新北市新店區環河路16號","121.537463333333","24.961565","6500600","新店區"
"231062","110-UY","2018/12/20 20:58:56","新北市新店區裕合街143號","121.489095","24.9491333333333","6500600","新店區"
"231047","187-VK","2018/12/20 20:58:59","新北市新店區寶中路95號","121.548915","24.9834616666667","6500600","新店區"
"231054","KEA-2219","2018/12/20 20:59:01","新北市新店區中正路75巷71號","121.543093333333","24.96892","6500600","新店區"
"231065","260-TV","2018/12/20 20:59:08","新北市新店區安祥路69巷89弄1號","121.48369","24.9591783333333","6500600","新店區"
"231042","268-BY","2018/12/20 20:58:59","新北市新店區寶高路102巷20號","121.552476666667","24.9739916666667","6500600","新店區"
"231051","278-BY","2018/12/20 20:59:04","新北市新店區中正路663巷1弄24號","121.532665","24.9897833333333","6500600","新店區"
"231050","AAD-862","2018/12/20 20:59:00","新北市新店區三民路65號","121.53637","24.9713033333333","6500600","新店區"
"231058","3713-VJ","2018/12/20 20:58:57","新北市新店區溪園路365-8號","121.521891666667","24.9808016666667","6500600","新店區"
"231066","4716-K9","2018/12/20 20:59:09","新北市新店區吉安街33號","121.515925","24.9660133333333","6500600","新店區"
"231067","4772-VM","2018/12/20 20:58:56","新北市新店區安德街148巷6號","121.508081666667","24.959985","6500600","新店區"
"231061","619-UM","2018/12/20 20:59:08","新北市新店區永安街109巷11號","121.521431666667","24.9859533333333","6500600","新店區"
"231063","641-BX","2018/12/20 20:59:08","新北市新店區如意街1巷8號","121.496203333333","24.9493016666667","6500600","新店區"
"231068","718-UY","2018/12/20 20:59:13","新北市新店區寶中路73號","121.54749","24.9805583333333","6500600","新店區"
"231064","719-UM","2018/12/20 20:54:50","新北市新店區安民街303巷20號","121.516796666667","24.973415","6500600","新店區"
"231060","897-TW","2018/12/20 20:59:07","新北市新店區安康路三段51號","121.492441666667","24.952245","6500600","新店區"
"231043","899-TW","2018/12/20 20:59:15","新北市新店區中央路151號","121.529651666667","24.9723483333333","6500600","新店區"
"241011","013-R5","2018/12/20 20:58:58","新北市三重區秀江街119號","121.499678333333","25.0722716666667","6500200","三重區"
"241028","022-UY","2018/12/20 20:59:12","新北市三重區重新路二段76號","121.497341666667","25.0619933333333","6500200","三重區"
"241008","059-VK","2018/12/20 20:58:53","新北市三重區車路頭街139巷2號","121.484075","25.0762733333333","6500200","三重區"
"241022","060-VK","2018/12/20 20:59:00","新北市三重區中正北路20巷12號","121.48799","25.062435","6500200","三重區"
"241015","062-VK","2018/12/20 20:58:54","新北市三重區福德北路46號","121.502031666667","25.0654316666667","6500200","三重區"
"241017","063-VK","2018/12/20 20:58:57","新北市三重區民生街38巷2弄19號","121.492271666667","25.0671783333333","6500200","三重區"
"241024","065-VK","2018/12/20 20:59:12","新北市三重區國道路一段58巷20號","121.481233333333","25.0720033333333","6500200","三重區"
"241002","090-VK","2018/12/20 20:58:55","新北市三重區仁義街157巷44號","121.498085","25.0814866666667","6500200","三重區"
"241003","091-VK","2018/12/20 20:59:02","新北市三重區進安街196號","121.49375","25.086125","6500200","三重區"
"251014","742-BX","2018/12/20 20:58:58","新北市淡水區溪口7-3號","121.455628333333","25.23657","6501000","淡水區"
"241005","262-UM","2018/12/20 20:59:05","新北市三重區五華街189號","121.489836666667","25.0853133333333","6500200","三重區"
"241016","266-UM","2018/12/20 20:59:11","新北市三重區自強路一段107號","121.495378333333","25.0664116666667","6500200","三重區"
"241009","267-UM","2018/12/20 20:59:11","新北市三重區三和路四段360號","121.483225","25.07854","6500200","三重區"
"241018","268-UM","2018/12/20 20:59:06","新北市三重區雙園街103號","121.493721666667","25.067275","6500200","三重區"
"241032","269-UM","2018/12/20 20:59:08","新北市三重區三陽路118號","121.48301","25.0587933333333","6500200","三重區"
"241013","270-UM","2018/12/20 20:59:12","新北市三重區仁賢街12-1號","121.495721666667","25.07489","6500200","三重區"
"241025","271-UM","2018/12/20 20:58:58","新北市三重區貴陽街14號","121.484185","25.061825","6500200","三重區"
"241007","398-BY","2018/12/20 20:59:01","新北市三重區慈愛街32號","121.48511","25.0789216666667","6500200","三重區"
"241031","462-BY","2018/12/20 20:59:08","新北市三重區重陽路一段113巷2弄2號","121.487438333333","25.0598583333333","6500200","三重區"
"241004","475-VK","2018/12/20 20:58:58","新北市三重區仁愛街418號","121.490446666667","25.0814016666667","6500200","三重區"
"241020","478-VK","2018/12/20 20:58:55","新北市三重區忠孝路二段34號","121.48572","25.071015","6500200","三重區"
"241030","480-VK","2018/12/20 20:58:57","新北市三重區環河南路221巷8號","121.491998333333","25.0521433333333","6500200","三重區"
"241014","543-UM","2018/12/20 20:59:08","新北市三重區長壽街120巷11號","121.502501666667","25.0691516666667","6500200","三重區"
"241023","545-UM","2018/12/20 20:59:02","新北市三重區洛陽街45巷13號","121.482365","25.0637516666667","6500200","三重區"
"241001","547-UM","2018/12/20 20:59:13","新北市三重區三和路四段128號","121.488988333333","25.0752083333333","6500200","三重區"
"241033","557-UM","2018/12/20 20:58:58","新北市三重區光復路二段23號","121.472143333333","25.0545966666667","6500200","三重區"
"241019","KEA-2593","2018/12/20 20:58:54","新北市三重區三張街104號","121.487891666667","25.0699166666667","6500200","三重區"
"241006","AAD-863","2018/12/20 20:59:12","新北市三重區永福街52號","121.481715","25.078085","6500200","三重區"
"241026","743-BX","2018/12/20 20:58:55","新北市三重區文化南路45號","121.500196666667","25.061395","6500200","三重區"
"241012","941-UM","2018/12/20 20:58:56","新北市三重區仁信街27號","121.50129","25.07554","6500200","三重區"
"241029","942-UM","2018/12/20 20:58:59","新北市三重區正義南路107號","121.498206666667","25.05858","6500200","三重區"
"247012","KEA-2869","2018/12/20 20:59:09","新北市蘆洲區民權路5號","121.476651666667","25.08578","6501400","蘆洲區"
"247006","KED-0682","2018/12/20 20:59:03","新北市蘆洲區永安南路二段16巷8號","121.467825","25.07723","6501400","蘆洲區"
"235069","4980-A6","2018/12/20 20:58:58","新北市中和區連城路469巷44弄24號","121.48258","24.994205","6500300","中和區"
"247002","893-R6","2018/12/20 20:58:56","新北市蘆洲區永樂街52-2號","121.457386666667","25.0884133333333","6501400","蘆洲區"
"247016","546-UM","2018/12/20 20:59:03","新北市蘆洲區正和街92號","121.468188333333","25.0807716666667","6501400","蘆洲區"
"247024","500-BY","2018/12/20 20:59:07","新北市蘆洲區光明路20號","121.461213333333","25.0864","6501400","蘆洲區"
"247020","057-VK","2018/12/20 20:59:09","新北市蘆洲區民族路488號","121.471115","25.0912883333333","6501400","蘆洲區"
"247010","056-VK","2018/12/20 20:59:07","新北市蘆洲區鷺江街74號","121.477096666667","25.08384","6501400","蘆洲區"
"247014","053-VK","2018/12/20 20:59:11","新北市蘆洲區得勝街78號","121.472403333333","25.0835683333333","6501400","蘆洲區"
"247018","007-UY","2018/12/20 20:59:02","新北市蘆洲區民權路120號","121.473506666667","25.088575","6501400","蘆洲區"
"247004","002-UY","2018/12/20 20:58:55","新北市蘆洲區永安南路二段264號","121.459416666667","25.0804983333333","6501400","蘆洲區"
"247022","001-UY","2018/12/20 20:59:11","新北市蘆洲區三民路230號","121.46872","25.08966","6501400","蘆洲區"
"251005","010-UM","2018/12/20 20:58:53","新北市淡水區學府路73巷2弄1號","121.447961666667","25.1701033333333","6501000","淡水區"
"251001","011-UM","2018/12/20 20:59:03","新北市淡水區北投子14-3號","121.449471666667","25.1830166666667","6501000","淡水區"
"251002","012-UM","2018/12/20 20:59:10","新北市淡水區英專路8-5號","121.445471666667","25.1693633333333","6501000","淡水區"
"251013","KEA-2871","2018/12/20 20:58:57","新北市淡水區行忠路521號","121.465285","25.1992416666667","6501000","淡水區"
"251016","179-VK","2018/12/20 20:59:14","新北市淡水區牛埔子11-1號","121.45023","25.2184783333333","6501000","淡水區"
"251008","181-VK","2018/12/20 20:59:07","新北市淡水區崁頂57-12號","121.443686666667","25.1971016666667","6501000","淡水區"
"251015","182-VK","2018/12/20 20:59:03","新北市淡水區淡金路四段542巷17號","121.45278","25.22709","6501000","淡水區"
"251010","413-VK","2018/12/20 20:59:10","新北市淡水區淡海路22號","121.423976666667","25.17874","6501000","淡水區"
"251012","441-VK","2018/12/20 20:59:01","新北市淡水區淡金路五段110號","121.456456666667","25.2366866666667","6501000","淡水區"
"251007","442-VK","2018/12/20 20:58:59","新北市淡水區仁愛街2巷31-3號","121.44645","25.1712166666667","6501000","淡水區"
"251011","650-BX","2018/12/20 20:59:03","新北市淡水區新民街322巷1號","121.43526","25.183805","6501000","淡水區"
"251003","766-UM","2018/12/20 20:59:03","新北市淡水區新春街125巷7號","121.441355","25.1824","6501000","淡水區"
"247008","KED-0683","2018/12/20 20:58:57","新北市蘆洲區民生街74號","121.4729","25.079005","6501400","蘆洲區"
"242011","132-UY","2018/12/20 20:58:56","新北市五股區成泰路三段320號","121.450968333333","25.0973933333333","6500500","新莊區"
"242007","176-VK","2018/12/20 20:59:11","新北市五股區中興路三段2巷10號","121.448258333333","25.08302","6500500","新莊區"
"221018","277-VK","2018/12/20 20:59:11","新北市汐止區康寧街708-3號","121.63884","25.0734833333333","6501100","汐止區"
"221023","279-VK","2018/12/20 20:59:07","新北市汐止區翠峰街21巷3弄8號","121.643598333333","25.075725","6501100","汐止區"
"221029","298-VK","2018/12/20 20:59:06","新北市汐止區康寧街901號","121.651698333333","25.0749466666667","6501100","汐止區"
"221035","622-UM","2018/12/20 20:59:12","新北市汐止區汐萬路一段256巷1號","121.652015","25.0747916666667","6501100","汐止區"
"221018","753-BX","2018/12/20 20:59:11","新北市汐止區汐萬路一段256巷3號","121.65245","25.0746233333333","6501100","汐止區"
"220064","AAC-253","2018/12/20 20:59:04","新北市五股區新五路三段202號","121.446021666667","25.0899333333333","6500100","板橋區"
