"lineid","car","time","location","longitude","latitude","cityid","cityname"
"241017","063-VK","2018/12/20 21:38:56","新北市新莊區化成路585-15號","121.462828333333","25.067125","6500200","三重區"
"251014","742-BX","2018/12/20 21:38:58","新北市淡水區淡金路三段436號","121.450468333333","25.2129216666667","6501000","淡水區"
"241005","262-UM","2018/12/20 21:39:05","新北市三重區碧華街50號","121.483525","25.0812283333333","6500200","三重區"
"247012","KEA-2869","2018/12/20 21:39:09","新北市五股區中直路17-3號","121.422148333333","25.1115983333333","6501400","蘆洲區"
"251009","008-UM","2018/12/20 21:39:08","新北市淡水區民族路29巷2弄1號","121.462578333333","25.1372383333333","6501000","淡水區"
"251004","009-UM","2018/12/20 21:39:07","新北市淡水區民生路17號","121.460778333333","25.1379","6501000","淡水區"
"251005","010-UM","2018/12/20 21:39:12","新北市淡水區水源街一段160號","121.448888333333","25.17118","6501000","淡水區"
"251001","011-UM","2018/12/20 21:39:03","新北市淡水區新市二路三段152號","121.435375","25.194275","6501000","淡水區"
"251002","012-UM","2018/12/20 21:39:10","新北市淡水區學府路153號","121.445681666667","25.1742483333333","6501000","淡水區"
"251016","179-VK","2018/12/20 21:38:54","新北市淡水區中山北路三段165-1號","121.44473","25.1969733333333","6501000","淡水區"
"251010","413-VK","2018/12/20 21:39:10","新北市淡水區沙崙路216巷58號","121.426278333333","25.1841616666667","6501000","淡水區"
"251012","441-VK","2018/12/20 21:39:01","新北市淡水區淡金路四段215號","121.451676666667","25.2223533333333","6501000","淡水區"
"251007","442-VK","2018/12/20 21:39:12","新北市淡水區水源街二段179號","121.455278333333","25.1756916666667","6501000","淡水區"
"251006","561-UM","2018/12/20 21:38:59","新北市淡水區中正路11巷4號","121.43892","25.1702266666667","6501000","淡水區"
"251011","650-BX","2018/12/20 21:39:06","新北市淡水區新民街294號","121.43511","25.1822866666667","6501000","淡水區"
"251003","766-UM","2018/12/20 21:39:03","新北市淡水區新春街34號","121.437011666667","25.1814133333333","6501000","淡水區"
"247008","KED-0683","2018/12/20 21:38:57","新北市八里區商港路88-2號","121.394566666667","25.1475316666667","6501400","蘆洲區"
"242007","176-VK","2018/12/20 21:39:11","新北市五股區凌雲路三段32-1號","121.431653333333","25.1079516666667","6500500","新莊區"
"220064","AAC-253","2018/12/20 21:39:04","新北市板橋區華東街1-10號","121.448383333333","24.99493","6500100","板橋區"
