"lineid","car","time","location","longitude","latitude","cityid","cityname"
"231059","046-UY","2018/12/20 21:55:10","新北市新店區安華路28-1號","121.519665","24.9607716666667","6500600","新店區"
"247012","KEA-2869","2018/12/20 22:19:09","新北市五股區更洲路47-1號","121.456736666667","25.0792016666667","6501400","蘆洲區"
"251004","009-UM","2018/12/20 22:19:07","新北市淡水區民族路33號","121.462336666667","25.1356816666667","6501000","淡水區"
"251008","181-VK","2018/12/20 22:19:07","新北市淡水區學府路104號","121.449858333333","25.1717916666667","6501000","淡水區"
"251010","413-VK","2018/12/20 22:19:10","新北市淡水區沙崙路200號","121.4248","25.1838966666667","6501000","淡水區"
"251007","442-VK","2018/12/20 22:19:12","新北市淡水區北新路180號","121.449468333333","25.1787983333333","6501000","淡水區"
"251011","650-BX","2018/12/20 22:19:03","新北市淡水區水碓街7號","121.443178333333","25.1771583333333","6501000","淡水區"
"247007","KED-0683","2018/12/20 22:18:57","新北市五股區中興路三段2巷10號","121.44899","25.0811816666667","6501400","蘆洲區"
