"lineid","car","time","location","longitude","latitude","cityid","cityname"
"232003","290-BY","2018/12/21 06:49:16","新北市坪林區北宜路八段553號","121.716503333333","24.9110216666667","6502000","坪林區"
"232015","291-BY","2018/12/21 06:49:13","新北市坪林區北宜路八段298號","121.710215","24.93526","6502000","坪林區"
"232019","705-BZ","2018/12/21 06:49:19","新北市坪林區魚堀55-1號","121.708243333333","24.9292416666667","6502000","坪林區"
"232008","758-BX","2018/12/21 06:49:20","新北市坪林區鶯子瀨1-4號","121.707296666667","24.9175833333333","6502000","坪林區"
"244004","248-BX","2018/12/21 06:49:19","新北市林口區粉寮路二段167-1號","121.404473333333","25.088595","6501700","林口區"
"235001","611-BX","2018/12/21 06:49:09","新北市中和區圓通路367巷4號","121.491323333333","24.9892283333333","6500300","中和區"
"223006","022-BY","2018/12/21 06:49:16","新北市石碇區楓子林1-2號","121.642641666667","25.0085666666667","6501900","石碇區"
"223002","KEA-2673","2018/12/21 06:49:11","新北市石碇區員山子1號","121.652208333333","24.9671333333333","6501900","石碇區"
"223003","205-TH","2018/12/21 06:46:40","新北市石碇區湳窟34-2號","121.665376666667","24.9940466666667","6501900","石碇區"
"223008","406-TH","2018/12/21 06:49:22","新北市石碇區雙溪37-2號","121.65576","25.0080416666667","6501900","石碇區"
"223001","592-UM","2018/12/21 06:49:27","新北市石碇區湳窟37-1號","121.66266","24.9958416666667","6501900","石碇區"
"223007","661-BX","2018/12/21 06:49:26","新北市石碇區靜安路一段97號","121.660208333333","25.0083866666667","6501900","石碇區"
"223005","677-TV","2018/12/21 06:49:10","新北市石碇區碇坪路一段152號","121.660418333333","24.991205","6501900","石碇區"
"227005","282-VK","2018/12/21 06:49:21","新北市雙溪區新基里自強路5號","121.866406666667","25.0390583333333","6502500","雙溪區"
"252003","249-BX","2018/12/21 06:49:13","新北市三芝區中正路三段3號","121.503053333333","25.2542883333333","6502100","三芝區"
