"lineid","car","time","location","longitude","latitude","cityid","cityname"
"248005","653-BX","2018/06/02 09:59:28","新北市五股區中興路二段83巷26-6號","121.45993","25.0752566666667","6501500","五股區"
"222004","289-BY","2018/06/02 09:59:27","新北市深坑區深南路50號","121.620155","25.00889","6501800","深坑區"
"231007","189-VK","2018/06/02 09:59:19","新北市新店區新潭路三段215巷25號","121.50817","24.9040616666667","6500600","新店區"
"231008","192-VK","2018/06/02 09:40:52","新北市新店區平廣路一段256號","121.507863333333","24.88822","6500600","新店區"
"227006","030-BX","2018/06/02 09:59:27","新北市雙溪區長源里柑腳18號","121.804691666667","25.0141433333333","6502500","雙溪區"
"252004","249-BX","2018/06/02 09:59:24","新北市三芝區福德里埔尾34號","121.507981666667","25.2388566666667","6502100","三芝區"
"252007","AAC-283","2018/06/02 09:59:34","新北市三芝區新庄里新庄子58-1號","121.507721666667","25.275265","6502100","三芝區"
