"lineid","car","time","location","longitude","latitude","cityid","cityname"
"248005","653-BX","2018/06/02 10:19:34","新北市五股區中興路二段37巷24號","121.460631666667","25.0750383333333","6501500","五股區"
"231007","189-VK","2018/06/02 10:19:19","新北市新店區新潭路三段215巷25號","121.508176666667","24.904055","6500600","新店區"
"231008","192-VK","2018/06/02 10:19:30","新北市新店區小坑一路35巷1號","121.529793333333","24.910545","6500600","新店區"
"227006","030-BX","2018/06/02 10:19:27","新北市雙溪區長源里柑腳18號","121.804691666667","25.01412","6502500","雙溪區"
"252007","AAC-283","2018/06/02 10:19:14","新北市三芝區古庄里古庄99-3號","121.494205","25.26781","6502100","三芝區"
