"lineid","car","time","location","longitude","latitude","cityid","cityname"
"231008","192-VK","2018/06/02 11:59:30","新北市新店區頂石厝路8號","121.540105","24.9196133333333","6500600","新店區"
"235029","098-UM","2018/06/02 11:59:33","新北市中和區員山路36巷16-3號","121.484991666667","24.991295","6500300","中和區"
"235031","255-BX","2018/06/02 11:51:26","新北市中和區和城路一段271巷1號","121.485738333333","24.9916983333333","6500300","中和區"
"228005","097-TW","2018/06/02 11:59:31","新北市貢寮區貢寮里朝陽街1-2號","121.912343333333","25.02131","6502600","貢寮區"
"228004","212-TW","2018/06/02 11:59:28","新北市貢寮區貢寮里朝陽街1-2號","121.912178333333","25.021265","6502600","貢寮區"
"227006","030-BX","2018/06/02 11:59:26","新北市雙溪區牡丹里牡丹58號","121.850886666667","25.0617116666667","6502500","雙溪區"
