"lineid","car","time","location","longitude","latitude","cityid","cityname"
"234044","148-BY","2018/06/02 13:09:20","新北市永和區永元路18巷16號","121.523113333333","25.0002183333333","6500400","永和區"
"234005","207-UY","2018/06/02 13:09:24","新北市永和區中山路一段130號","121.510428333333","25.01001","6500400","永和區"
"234078","298-R6","2018/06/02 13:09:20","新北市永和區永貞路39巷13號","121.522426666667","25.0064266666667","6500400","永和區"
"234036","336-UY","2018/06/02 13:09:34","新北市永和區民樂街71巷1號","121.527413333333","24.9975516666667","6500400","永和區"
"234062","337-UY","2018/06/02 13:09:35","新北市永和區秀朗路二段50-1號","121.521853333333","25.002125","6500400","永和區"
"234084","338-UY","2018/06/02 13:09:34","新北市永和區永貞路94號","121.519281666667","25.004535","6500400","永和區"
"234068","552-UM","2018/06/02 13:09:17","新北市永和區豫溪街137巷1弄23號","121.518435","25.0103716666667","6500400","永和區"
"234015","745-BX","2018/06/02 13:09:19","新北市永和區文化路90巷8號","121.51397","25.015635","6500400","永和區"
"234028","746-BX","2018/06/02 13:09:20","新北市永和區民生路21號","121.522826666667","24.9988966666667","6500400","永和區"
"234052","KEA-2590","2018/06/02 13:09:32","新北市永和區中興街133巷8號","121.518733333333","25.01274","6500400","永和區"
"234012","KEA-2591","2018/06/02 13:09:26","新北市永和區保福路二段34號","121.511076666667","25.011855","6500400","永和區"
"234060","AAD-866","2018/06/02 13:09:29","新北市永和區安樂路330號","121.514475","25.005835","6500400","永和區"
"234040","862-TW","2018/06/02 13:09:23","新北市永和區保平路111巷5號","121.51163","25.0059433333333","6500400","永和區"
"234048","863-TW","2018/06/02 13:09:27","新北市永和區保福路二段150巷18號","121.510421666667","25.015005","6500400","永和區"
"234025","9371-KE","2018/06/02 13:09:21","新北市永和區秀朗路一段10巷19號","121.513435","25.0061816666667","6500400","永和區"
"234010","9373-KE","2018/06/02 13:09:26","新北市永和區仁愛路31巷2弄2號","121.514205","25.01299","6500400","永和區"
"248017","225-UY","2018/06/02 13:09:26","新北市五股區成泰路三段101-1號","121.444235","25.09031","6501500","五股區"
"234022","9380-KE","2018/06/02 13:09:31","新北市永和區中興街10巷25號","121.51622","25.0111266666667","6500400","永和區"
"234076","969-R7","2018/06/02 13:09:35","新北市永和區中正路164號","121.515028333333","24.9965633333333","6500400","永和區"
"234072","AAC-211","2018/06/02 13:09:26","新北市永和區竹林路206號","121.520641666667","25.0086216666667","6500400","永和區"
"234066","AAC-212","2018/06/02 13:09:26","新北市永和區永和路一段65巷4號","121.512738333333","25.0073183333333","6500400","永和區"
"234001","AAC-295","2018/06/02 13:09:16","新北市永和區中山路一段26號","121.51371","25.0106183333333","6500400","永和區"
"244005","248-BX","2018/06/02 13:09:23","新北市林口區中山路576號","121.37659","25.084805","6501700","林口區"
"231005","001-UM","2018/06/02 13:09:35","新北市新店區安華路28-1號","121.519523333333","24.960985","6500600","新店區"
"231002","002-UM","2018/06/02 13:09:33","新北市新店區安華路28-1號","121.5196","24.9608716666667","6500600","新店區"
"231027","0291-UT","2018/06/02 13:09:38","新北市新店區安華路28-1號","121.519265","24.96062","6500600","新店區"
"231028","046-UY","2018/06/02 13:09:27","新北市新店區安華路28-1號","121.519578333333","24.9608716666667","6500600","新店區"
"231001","047-UY","2018/06/02 13:09:27","新北市新店區安華路28-1號","121.518905","24.9608216666667","6500600","新店區"
"231020","108-UY","2018/06/02 13:09:31","新北市新店區安一路一段1-1號","121.519423333333","24.9610983333333","6500600","新店區"
"231012","187-VK","2018/06/02 13:09:39","新北市新店區安一路一段1-1號","121.519546666667","24.9611916666667","6500600","新店區"
"231023","KEA-2219","2018/06/02 13:09:26","新北市新店區安一路一段1-1號","121.520003333333","24.9612383333333","6500600","新店區"
"231026","256-BX","2018/06/02 13:09:37","新北市新店區安一路一段1-1號","121.51972","24.9611033333333","6500600","新店區"
"231003","268-BY","2018/06/02 13:09:17","新北市新店區安華路28-1號","121.519435","24.9605783333333","6500600","新店區"
"231018","278-BY","2018/06/02 12:50:07","新北市新店區安一路一段1-1號","121.519823333333","24.9610716666667","6500600","新店區"
"231017","AAD-862","2018/06/02 13:09:17","新北市新店區安一路一段1-1號","121.519746666667","24.9611766666667","6500600","新店區"
"231037","4716-K9","2018/06/02 13:09:26","新北市新店區安一路一段1-1號","121.519343333333","24.9613466666667","6500600","新店區"
"231025","4715-K9","2018/06/02 13:09:26","新北市新店區安華路28-1號","121.519475","24.9605633333333","6500600","新店區"
"231036","512-UM","2018/06/02 13:09:23","新北市新店區安一路一段1-1號","121.519305","24.9612766666667","6500600","新店區"
"231013","513-UM","2018/06/02 13:09:36","新北市新店區安一路一段1-1號","121.519635","24.9611566666667","6500600","新店區"
"231006","617-UM","2018/06/02 13:09:26","新北市新店區安華路28-1號","121.519493333333","24.9609333333333","6500600","新店區"
"231030","619-UM","2018/06/02 13:09:24","新北市新店區安華路28-1號","121.519526666667","24.960945","6500600","新店區"
"231034","641-BX","2018/06/02 13:09:31","新北市新店區安華路28-1號","121.519501666667","24.96054","6500600","新店區"
"231035","719-UY","2018/06/02 13:09:23","新北市新店區安華路28-1號","121.51961","24.9605366666667","6500600","新店區"
"231033","720-UM","2018/06/02 13:09:25","新北市新店區安一路一段1-1號","121.519405","24.9613283333333","6500600","新店區"
"231029","897-TW","2018/06/02 13:09:20","新北市新店區安華路28-1號","121.51959","24.960875","6500600","新店區"
"231004","899-TW","2018/06/02 13:09:31","新北市新店區安華路28-1號","121.519415","24.9609083333333","6500600","新店區"
"231024","AKT-0513","2018/06/02 13:09:22","新北市新店區安華路28-1號","121.519441666667","24.96063","6500600","新店區"
"235028","005-UY","2018/06/02 13:09:34","新北市中和區錦和路350-1號","121.490548333333","24.9936016666667","6500300","中和區"
"235027","006-UY","2018/06/02 13:09:38","新北市中和區員山路36巷16-3號","121.485083333333","24.991505","6500300","中和區"
"235003","097-UM","2018/06/02 13:09:18","新北市中和區中正路561號","121.487026666667","24.99441","6500300","中和區"
"235029","098-UM","2018/06/02 13:09:33","新北市中和區福祥路56號","121.499343333333","25.0046816666667","6500300","中和區"
"235022","151-BY","2018/06/02 13:09:13","新北市中和區圓通路367巷21-1號","121.492875","24.98579","6500300","中和區"
"235002","185-VK","2018/06/02 13:09:28","新北市中和區大智街38號","121.521655","24.9922016666667","6500300","中和區"
"235031","255-BX","2018/06/02 13:09:35","新北市中和區新生街177巷14號","121.484318333333","25.0002583333333","6500300","中和區"
"235008","293-VK","2018/06/02 13:09:23","新北市中和區員山路36巷16-2號","121.485205","24.9915266666667","6500300","中和區"
"235018","269-TV","2018/06/02 13:09:28","新北市中和區連城路607號","121.478515","24.99314","6500300","中和區"
"235014","4979-A6","2018/06/02 13:09:35","新北市中和區中正路637巷52弄1號","121.48545","24.9933833333333","6500300","中和區"
"235033","4980-A6","2018/06/02 13:09:32","新北市中和區中正路521號","121.488148333333","24.9937","6500300","中和區"
"235006","551-UM","2018/06/02 13:09:38","新北市中和區錦和路350-1號","121.490426666667","24.9935783333333","6500300","中和區"
"235034","558-UM","2018/06/02 13:09:21","新北市中和區中正路525號","121.487943333333","24.9935833333333","6500300","中和區"
"235035","783-BX","2018/06/02 13:09:24","新北市中和區板南路520巷15號","121.483726666667","25.0089333333333","6500300","中和區"
"235005","802-TS","2018/06/02 13:09:23","新北市中和區中正路589巷15號","121.48566","24.993575","6500300","中和區"
"235017","900-TW","2018/06/02 13:09:24","新北市中和區員山路36巷16-5號","121.484933333333","24.991955","6500300","中和區"
"235015","157-BY","2018/06/02 13:09:25","新北市中和區捷運路122號","121.505388333333","24.9914916666667","6500300","中和區"
"235001","AAC-213","2018/06/02 13:09:18","新北市中和區景平路155號","121.513545","24.9923583333333","6500300","中和區"
"235023","AAC-215","2018/06/02 13:09:20","新北市中和區員山路36巷16-3號","121.484971666667","24.99135","6500300","中和區"
"235011","251-BX","2018/06/02 13:09:33","新北市中和區中正路637巷60弄61號","121.485451666667","24.9932016666667","6500300","中和區"
"228005","097-TW","2018/06/02 13:09:31","新北市貢寮區仁理村尖山腳街20號","121.924168333333","25.04772","6502600","貢寮區"
"228004","212-TW","2018/06/02 13:09:28","新北市貢寮區吉林里內寮街75號","121.891168333333","24.9717383333333","6502600","貢寮區"
"253003","6232-TK","2018/06/02 13:09:30","新北市石門區石崩山20-1號","121.565616666667","25.2755416666667","6502200","石門區"
"253001","6251-TK","2018/06/02 13:09:20","新北市石門區老梅路43號","121.545326666667","25.2896033333333","6502200","石門區"
"253002","637-UY","2018/06/02 13:09:34","新北市石門區老崩山36號","121.557026666667","25.2737216666667","6502200","石門區"
"253004","8270-PC","2018/06/02 13:09:28","新北市石門區小坑12號","121.592398333333","25.2908483333333","6502200","石門區"
"207002","749-BX","2018/06/02 13:09:28","新北市萬里區崁腳里內崁路10-1號","121.64159","25.1595133333333","6502800","萬里區"
"252005","073-UM","2018/06/02 13:09:24","新北市三芝區埔頭里埔頭2-1號","121.505788333333","25.25089","6502100","三芝區"
"207001","662-BX","2018/06/02 13:09:36","新北市萬里區萬里里瑪鋉路302號","121.68844","25.1815416666667","6502800","萬里區"
"236006","498-BY","2018/06/02 13:09:24","新北市土城區亞洲路60號","121.435316666667","24.9735366666667","6501300","土城區"
"221015","131-UY","2018/06/02 13:09:37","新北市汐止區汐萬路三段56號","121.643695","25.092675","6501100","汐止區"
"221032","280-BY","2018/06/02 13:09:39","新北市汐止區大同路二段383號","121.65766","25.0673266666667","6501100","汐止區"
"235032","KEA-2873","2018/06/02 13:09:16","新北市中和區員山路36巷16-2號","121.485263333333","24.9914366666667","6500300","中和區"
"235025","KEA-2875","2018/06/02 13:09:29","新北市中和區中正路637巷60弄61號","121.485458333333","24.99317","6500300","中和區"
