"lineid","car","time","location","longitude","latitude","cityid","cityname"
"248017","225-UY","2018/06/02 15:46:37","新北市五股區中興路二段83巷26-6號","121.460078333333","25.0752633333333","6501500","五股區"
"244005","248-BX","2018/06/02 15:55:06","新北市林口區粉寮路二段160巷28號","121.405155","25.0907583333333","6501700","林口區"
"231046","188-VK","2018/06/02 16:09:22","新北市新店區灣潭路5-1號","121.53731","24.9492616666667","6500600","新店區"
"231023","KEA-2219","2018/06/02 16:09:26","新北市新店區薏仁坑路自強巷1號","121.497913333333","24.95761","6500600","新店區"
"231018","278-BY","2018/06/02 16:09:28","新北市新店區中正路694巷15號","121.535365","24.990835","6500600","新店區"
"241011","013-R5","2018/06/02 16:09:26","新北市三重區重陽路四段158號","121.493203333333","25.0720183333333","6500200","三重區"
"241028","022-UY","2018/06/02 16:09:27","新北市三重區正義南路111號","121.498263333333","25.058545","6500200","三重區"
"241008","059-VK","2018/06/02 16:09:06","新北市三重區力行路二段90號","121.481945","25.0743733333333","6500200","三重區"
"241015","062-VK","2018/06/02 16:09:31","新北市三重區福德南路86號","121.502506666667","25.059905","6500200","三重區"
"241017","063-VK","2018/06/02 16:09:27","新北市三重區大同北路148巷76號","121.490216666667","25.0645466666667","6500200","三重區"
"241024","065-VK","2018/06/02 16:09:25","新北市三重區中正北路145巷32號","121.485166666667","25.06804","6500200","三重區"
"241026","066-VK","2018/06/02 16:09:43","新北市三重區福裕街56號","121.497265","25.0614283333333","6500200","三重區"
"241002","090-VK","2018/06/02 16:09:35","新北市三重區仁義街91號","121.49974","25.0796816666667","6500200","三重區"
"241003","091-VK","2018/06/02 16:09:31","新北市三重區仁義街218-2號","121.49557","25.0837816666667","6500200","三重區"
"241013","742-BX","2018/06/02 16:09:42","新北市三重區正義北路213號","121.496345","25.068655","6500200","三重區"
"241005","262-UM","2018/06/02 16:09:29","新北市三重區溪尾街300-2號","121.487453333333","25.0837","6500200","三重區"
"241016","266-UM","2018/06/02 16:09:29","新北市三重區新北大道一段2號","121.491308333333","25.0613666666667","6500200","三重區"
"241022","267-UM","2018/06/02 16:09:27","新北市三重區重陽路二段72號","121.487288333333","25.06407","6500200","三重區"
"241018","268-UM","2018/06/02 16:09:29","新北市三重區中正北路39號","121.491131666667","25.0627866666667","6500200","三重區"
"241025","413-TH","2018/06/02 16:09:30","新北市三重區忠孝路三段40巷6弄1號","121.481978333333","25.066475","6500200","三重區"
"241004","475-VK","2018/06/02 16:09:33","新北市三重區五華街74號","121.493486666667","25.0819833333333","6500200","三重區"
"241020","478-VK","2018/06/02 16:09:40","新北市三重區車路頭街17巷2號","121.483986666667","25.0705416666667","6500200","三重區"
"241030","480-VK","2018/06/02 16:09:22","新北市三重區重新路四段121號","121.484705","25.05253","6500200","三重區"
"241014","543-UM","2018/06/02 16:09:30","新北市三重區福德南路65巷2號","121.502523333333","25.0600466666667","6500200","三重區"
"241023","545-UM","2018/06/02 16:09:40","新北市三重區力行路一段58巷11號","121.483968333333","25.0688266666667","6500200","三重區"
"241001","547-UM","2018/06/02 16:09:31","新北市三重區自強路三段93號","121.487538333333","25.0750566666667","6500200","三重區"
"241033","557-UM","2018/06/02 16:08:45","新北市三重區五谷王南街46巷5號","121.474675","25.0450633333333","6500200","三重區"
"241019","KEA-2593","2018/06/02 16:09:30","新北市三重區自強路二段16號","121.490001666667","25.0690083333333","6500200","三重區"
"241006","AAD-863","2018/06/02 16:09:29","新北市三重區永福街58巷3弄20號","121.480643333333","25.0773","6500200","三重區"
"241002","887-TS","2018/06/02 16:09:32","新北市三重區三陽路100巷3弄13號","121.482988333333","25.05799","6500200","三重區"
"241012","941-UM","2018/06/02 16:09:34","新北市三重區自強路一段62號","121.497336666667","25.0665666666667","6500200","三重區"
"241029","942-UM","2018/06/02 16:09:36","新北市三重區大同南路194號","121.496786666667","25.0568966666667","6500200","三重區"
"235049","186-VK","2018/06/02 15:54:05","新北市中和區員山路36巷13號","121.48427","24.9908883333333","6500300","中和區"
"235062","800-TS","2018/06/02 15:54:36","新北市中和區員山路36巷16-3號","121.48478","24.9914883333333","6500300","中和區"
"224007","275-VK","2018/06/02 16:09:23","新北市瑞芳區粗坑口路24號","121.761351666667","25.0989466666667","6501200","瑞芳區"
"227002","642-TC","2018/06/02 16:09:29","新北市雙溪區上林里內平林34-2號","121.833598333333","25.0305766666667","6502500","雙溪區"
"227010","400-TW","2018/06/02 16:09:36","新北市雙溪區三港里雙澳路75號","121.88358","25.0539566666667","6502500","雙溪區"
"251013","KEA-2871","2018/06/02 16:09:31","新北市淡水區中正路340-2號","121.435183333333","25.1736033333333","6501000","淡水區"
"251008","575-R6","2018/06/02 16:09:36","新北市淡水區中正路二段31號","121.419338333333","25.18174","6501000","淡水區"
"236017","401-BY","2018/06/02 16:09:25","新北市樹林區八德街828-9號","121.392803333333","24.96865","6501300","土城區"
