"lineid","car","time","location","longitude","latitude","cityid","cityname"
"231046","188-VK","2018/06/02 16:29:22","新北市新店區灣潭路3-3號","121.538248333333","24.950815","6500600","新店區"
"241011","013-R5","2018/06/02 16:29:27","新北市三重區秀江街59巷7號","121.500823333333","25.0727933333333","6500200","三重區"
"241028","022-UY","2018/06/02 16:29:27","新北市三重區中正南路212號","121.493953333333","25.0555933333333","6500200","三重區"
"241008","059-VK","2018/06/02 16:29:26","新北市三重區力行路二段136巷45弄12號","121.479113333333","25.0753816666667","6500200","三重區"
"241031","061-VK","2018/06/02 16:29:27","新北市三重區重陽路一段68號","121.486533333333","25.05847","6500200","三重區"
"241015","062-VK","2018/06/02 16:29:31","新北市三重區福德北路36-1號","121.501781666667","25.0651866666667","6500200","三重區"
"241017","063-VK","2018/06/02 16:29:33","新北市三重區大同北路61號","121.495156666667","25.0633116666667","6500200","三重區"
"241024","065-VK","2018/06/02 16:29:25","新北市三重區中正北路193巷27號","121.476243333333","25.07058","6500200","三重區"
"241026","066-VK","2018/06/02 16:29:23","新北市三重區光興街1號","121.500366666667","25.0604133333333","6500200","三重區"
"241002","090-VK","2018/06/02 16:29:35","新北市三重區五華街9-1號","121.495126666667","25.08012","6500200","三重區"
"241003","091-VK","2018/06/02 16:29:31","新北市三重區仁義街228巷8號","121.494465","25.0845033333333","6500200","三重區"
"241013","742-BX","2018/06/02 16:29:42","新北市三重區三和路三段101巷113號","121.497481666667","25.0733166666667","6500200","三重區"
"241005","262-UM","2018/06/02 16:29:29","新北市三重區溪尾街300-2號","121.487423333333","25.0837533333333","6500200","三重區"
"241009","265-UM","2018/06/02 16:29:25","新北市三重區三和路四段181巷106號","121.484838333333","25.0798683333333","6500200","三重區"
"241016","266-UM","2018/06/02 16:29:29","新北市三重區大智街23號","121.494238333333","25.06592","6500200","三重區"
"241022","267-UM","2018/06/02 16:29:27","新北市三重區三民街65-1號","121.485996666667","25.06243","6500200","三重區"
"241018","268-UM","2018/06/02 16:29:29","新北市三重區重陽路三段160號","121.489848333333","25.0677316666667","6500200","三重區"
"241007","398-BY","2018/06/02 16:29:23","新北市三重區三和路四段167巷147號","121.488053333333","25.0803383333333","6500200","三重區"
"241025","413-TH","2018/06/02 16:29:30","新北市三重區中正北路560巷100弄2號","121.472506666667","25.0683133333333","6500200","三重區"
"241004","475-VK","2018/06/02 16:29:33","新北市三重區仁愛街377巷9號","121.49217","25.0806516666667","6500200","三重區"
"241020","478-VK","2018/06/02 16:29:33","新北市三重區後竹圍街205巷8號","121.484726666667","25.0717966666667","6500200","三重區"
"241030","480-VK","2018/06/02 16:29:42","新北市三重區成功路106-1號","121.487573333333","25.0515533333333","6500200","三重區"
"241014","543-UM","2018/06/02 16:29:30","新北市三重區河邊北街72-6號","121.504346666667","25.068425","6500200","三重區"
"241023","545-UM","2018/06/02 16:29:39","新北市三重區忠孝路三段50巷47號","121.483083333333","25.0643916666667","6500200","三重區"
"241001","547-UM","2018/06/02 16:29:31","新北市三重區福隆路34號","121.492103333333","25.0782833333333","6500200","三重區"
"241033","557-UM","2018/06/02 16:29:24","新北市三重區重新路五段428號","121.475226666667","25.047655","6500200","三重區"
"241019","KEA-2593","2018/06/02 16:29:30","新北市三重區重陽路三段97號","121.490396666667","25.06801","6500200","三重區"
"241006","AAD-863","2018/06/02 16:29:29","新北市三重區力行路二段125號","121.483165","25.076595","6500200","三重區"
"241002","887-TS","2018/06/02 16:29:31","新北市三重區三陽路100巷3弄13號","121.483018333333","25.0581116666667","6500200","三重區"
"241012","941-UM","2018/06/02 16:29:34","新北市三重區河邊北街385號","121.50161","25.07667","6500200","三重區"
"241029","942-UM","2018/06/02 16:29:36","新北市三重區集美街126巷2號","121.489048333333","25.0536483333333","6500200","三重區"
"235046","733-UM","2018/06/02 16:18:18","新北市中和區員山路36巷13號","121.484121666667","24.9908966666667","6500300","中和區"
"247006","336-TH","2018/06/02 16:29:27","新北市五股區中興路三段163號","121.449145","25.080715","6501400","蘆洲區"
"224007","275-VK","2018/06/02 16:29:23","新北市瑞芳區中央路49巷2號","121.762133333333","25.1028133333333","6501200","瑞芳區"
"224005","271-BY","2018/06/02 16:29:32","新北市瑞芳區阿美家園45號","121.82107","25.11707","6501200","瑞芳區"
"227002","642-TC","2018/06/02 16:29:29","新北市雙溪區上林里內平林119號","121.825323333333","25.0266","6502500","雙溪區"
"227010","400-TW","2018/06/02 16:29:36","新北市雙溪區三港里雙澳路2號","121.868955","25.04685","6502500","雙溪區"
"251013","KEA-2871","2018/06/02 16:29:31","新北市淡水區北新路三段162號","121.492371666667","25.1915216666667","6501000","淡水區"
"251016","179-VK","2018/06/02 16:29:34","新北市淡水區新民街一段117號","121.428231666667","25.1878083333333","6501000","淡水區"
"251014","180-VK","2018/06/02 16:29:41","新北市淡水區中正路二段31號","121.419401666667","25.18166","6501000","淡水區"
"251008","575-R6","2018/06/02 16:29:36","新北市淡水區民權路67號","121.460801666667","25.1390866666667","6501000","淡水區"
