"lineid","car","time","location","longitude","latitude","cityid","cityname"
"249005","172-UM","2018/06/02 16:49:33","新北市八里區大堀湖1-9號","121.42263","25.1550683333333","6502300","八里區"
"244013","742-UY","2018/06/02 16:49:24","新北市林口區粉寮69號","121.404796666667","25.090845","6501700","林口區"
"244017","485-VK","2018/06/02 16:49:35","新北市林口區粉寮69號","121.405106666667","25.0908533333333","6501700","林口區"
"231046","188-VK","2018/06/02 16:49:22","新北市新店區灣潭路15-8號","121.541351666667","24.9394616666667","6500600","新店區"
"241011","013-R5","2018/06/02 16:49:26","新北市三重區仁愛街53巷184號","121.50029","25.0729233333333","6500200","三重區"
"241028","022-UY","2018/06/02 16:49:27","新北市三重區光興街101號","121.497126666667","25.0599183333333","6500200","三重區"
"241008","059-VK","2018/06/02 16:49:33","新北市三重區永安北路一段17巷24號","121.477471666667","25.0751283333333","6500200","三重區"
"241031","061-VK","2018/06/02 16:49:27","新北市三重區三寧街1號","121.48879","25.0590633333333","6500200","三重區"
"241015","062-VK","2018/06/02 16:49:31","新北市三重區文化北路43巷6號","121.499178333333","25.0655583333333","6500200","三重區"
"241017","063-VK","2018/06/02 16:49:27","新北市三重區國隆路8巷13號","121.493068333333","25.0635783333333","6500200","三重區"
"241024","065-VK","2018/06/02 16:49:25","新北市三重區中正北路331巷22號","121.473825","25.0723383333333","6500200","三重區"
"241026","066-VK","2018/06/02 16:49:43","新北市三重區文化南路10巷12號","121.500573333333","25.0621266666667","6500200","三重區"
"241002","090-VK","2018/06/02 16:49:35","新北市三重區仁義街161-4號","121.49692","25.0814133333333","6500200","三重區"
"241003","091-VK","2018/06/02 16:49:31","新北市三重區五華街71巷12號","121.492671666667","25.08319","6500200","三重區"
"241013","742-BX","2018/06/02 16:49:21","新北市三重區仁壽街53號","121.497343333333","25.0735216666667","6500200","三重區"
"241005","262-UM","2018/06/02 16:49:29","新北市三重區仁安街37號","121.48437","25.0841316666667","6500200","三重區"
"241009","265-UM","2018/06/02 16:49:24","新北市三重區三和路四段203巷194號","121.486111666667","25.0806233333333","6500200","三重區"
"241016","266-UM","2018/06/02 16:49:29","新北市三重區大同北路115巷19號","121.493891666667","25.0646683333333","6500200","三重區"
"241022","267-UM","2018/06/02 16:49:27","新北市三重區貴陽街47巷2弄15號","121.484835","25.0631933333333","6500200","三重區"
"241018","268-UM","2018/06/02 16:49:29","新北市三重區正義北路300-3號","121.495275","25.0698316666667","6500200","三重區"
"241007","398-BY","2018/06/02 16:49:23","新北市三重區三和路四段181巷54號","121.483768333333","25.079425","6500200","三重區"
"241025","413-TH","2018/06/02 16:49:30","新北市三重區中正北路532號","121.47185","25.0718","6500200","三重區"
"241004","475-VK","2018/06/02 16:49:33","新北市三重區仁愛街397巷34號","121.491773333333","25.0813533333333","6500200","三重區"
"241020","478-VK","2018/06/02 16:49:33","新北市三重區忠孝路二段34號","121.485745","25.071025","6500200","三重區"
"241030","480-VK","2018/06/02 16:49:42","新北市三重區新興路6號","121.492731666667","25.05297","6500200","三重區"
"241014","543-UM","2018/06/02 16:49:30","新北市三重區龍濱路64號","121.502511666667","25.0692266666667","6500200","三重區"
"241023","545-UM","2018/06/02 16:49:39","新北市三重區新北大道一段206巷16號","121.482556666667","25.0621333333333","6500200","三重區"
"241001","547-UM","2018/06/02 16:49:31","新北市三重區仁政街54巷7號","121.492648333333","25.076935","6500200","三重區"
"241033","557-UM","2018/06/02 16:37:24","新北市三重區光復路一段108號","121.471678333333","25.0512966666667","6500200","三重區"
"241019","KEA-2593","2018/06/02 16:49:30","新北市三重區忠孝路二段38巷18號","121.485721666667","25.070105","6500200","三重區"
"241006","AAD-863","2018/06/02 16:49:29","新北市三重區力行路二段182-3號","121.483435","25.0774233333333","6500200","三重區"
"241002","887-TS","2018/06/02 16:49:31","新北市三重區三光街30巷3號","121.484633333333","25.0605166666667","6500200","三重區"
"241012","941-UM","2018/06/02 16:49:34","新北市三重區仁興街11巷32號","121.500563333333","25.0743266666667","6500200","三重區"
"241029","942-UM","2018/06/02 16:49:36","新北市三重區集美街207巷12號","121.492098333333","25.0542933333333","6500200","三重區"
"247010","341-TH","2018/06/02 16:49:35","新北市蘆洲區復興路323巷166-1號","121.478431666667","25.096445","6501400","蘆洲區"
"247004","337-TH","2018/06/02 16:49:29","新北市蘆洲區長榮路106號","121.461886666667","25.0840016666667","6501400","蘆洲區"
"247006","336-TH","2018/06/02 16:49:27","新北市蘆洲區永安南路二段132-1號","121.462556666667","25.0785766666667","6501400","蘆洲區"
"247008","056-VK","2018/06/02 16:49:34","新北市蘆洲區中山一路174號","121.474398333333","25.0812566666667","6501400","蘆洲區"
"247020","001-UY","2018/06/02 16:49:31","新北市蘆洲區民族路420號","121.474048333333","25.091675","6501400","蘆洲區"
"228003","097-TW","2018/06/02 16:49:29","新北市貢寮區貢寮里朝陽街1-2號","121.912378333333","25.021315","6502600","貢寮區"
"228002","585-TW","2018/06/02 16:49:22","新北市貢寮區貢寮里朝陽街142號","121.906856666667","25.0226533333333","6502600","貢寮區"
"224006","676-BX","2018/06/02 16:49:35","新北市瑞芳區大寮路356-1號","121.784851666667","25.1032233333333","6501200","瑞芳區"
"224008","285-BY","2018/06/02 16:49:24","新北市瑞芳區中山路156號","121.80225","25.10655","6501200","瑞芳區"
"224007","275-VK","2018/06/02 16:49:43","新北市瑞芳區瑞竹路22號","121.764808333333","25.1034716666667","6501200","瑞芳區"
"224009","273-VK","2018/06/02 16:49:39","新北市瑞芳區中山路241號","121.800355","25.1069166666667","6501200","瑞芳區"
"224005","271-BY","2018/06/02 16:49:32","新北市瑞芳區明里路122號","121.86391","25.1223733333333","6501200","瑞芳區"
"227002","642-TC","2018/06/02 16:49:29","新北市雙溪區外柑里外柑腳71號","121.807121666667","25.0176216666667","6502500","雙溪區"
"227010","400-TW","2018/06/02 16:49:36","新北市雙溪區牡丹里五分10號","121.86659","25.0471233333333","6502500","雙溪區"
"251013","KEA-2871","2018/06/02 16:49:31","新北市淡水區泉洲厝32號","121.489296666667","25.1926166666667","6501000","淡水區"
"251016","179-VK","2018/06/02 16:49:34","新北市淡水區水頭42號","121.47845","25.184985","6501000","淡水區"
"251014","180-VK","2018/06/02 16:49:41","新北市淡水區興仁路162號","121.451296666667","25.22061","6501000","淡水區"
"251015","182-VK","2018/06/02 16:49:39","新北市淡水區忠愛街6號","121.460905","25.171605","6501000","淡水區"
"251010","413-VK","2018/06/02 16:49:29","新北市淡水區中正路二段38號","121.41943","25.1823533333333","6501000","淡水區"
"251007","442-VK","2018/06/02 16:49:33","新北市淡水區中正路340-2號","121.435185","25.1736466666667","6501000","淡水區"
"251012","443-VK","2018/06/02 16:49:43","新北市淡水區中正路二段31號","121.419681666667","25.181505","6501000","淡水區"
"251008","575-R6","2018/06/02 16:49:36","新北市淡水區樹梅坑20號","121.474603333333","25.1426716666667","6501000","淡水區"
"251011","650-BX","2018/06/02 16:49:21","新北市淡水區中山路8號","121.445018333333","25.1687","6501000","淡水區"
"252002","178-VK","2018/06/02 16:49:37","新北市三芝區忠孝街116號","121.505946666667","25.2574916666667","6502100","三芝區"
"252001","292-VK","2018/06/02 16:49:25","新北市三芝區淡金路二段76-1號","121.503883333333","25.260865","6502100","三芝區"
"242053","751-BX","2018/06/02 16:49:23","新北市新莊區新泰路357巷3弄57號","121.442056666667","25.039205","6500500","新莊區"
"242044","400-BY","2018/06/02 16:49:38","新北市新莊區新泰路357巷3弄57號","121.442176666667","25.0396333333333","6500500","新莊區"
"242021","348-TH","2018/06/02 16:49:30","新北市新莊區新泰路357巷3弄57號","121.442196666667","25.0395683333333","6500500","新莊區"
