"lineid","car","time","location","longitude","latitude","cityid","cityname"
"234026","9371-KE","2018/06/02 17:49:29","新北市永和區和平街95巷34號","121.511088333333","25.009155","6500400","永和區"
"234011","9373-KE","2018/06/02 17:49:23","新北市永和區福和路1號","121.525615","25.0093433333333","6500400","永和區"
"249005","172-UM","2018/06/02 17:49:33","新北市八里區荖阡坑路41-6號","121.402291666667","25.132445","6502300","八里區"
"249001","173-UM","2018/06/02 17:49:43","新北市八里區龍米路二段125巷25號","121.446016666667","25.146285","6502300","八里區"
"249004","303-UY","2018/06/02 17:49:27","新北市八里區中華路一段81巷22號","121.419585","25.155375","6502300","八里區"
"249002","305-UY","2018/06/02 17:49:28","新北市八里區龍形五街37巷2號","121.448683333333","25.1326383333333","6502300","八里區"
"249003","593-UM","2018/06/02 17:49:31","新北市八里區中山路二段123號","121.40547","25.1519016666667","6502300","八里區"
"248008","095-VK","2018/06/02 17:49:30","新北市五股區中興路二段83巷26-6號","121.460155","25.0751916666667","6501500","五股區"
"232011","375-UM","2018/06/02 17:49:38","新北市坪林區北宜路八段61號","121.704808333333","24.93541","6502000","坪林區"
"244007","080-UY","2018/06/02 17:49:36","新北市林口區佳林路29號","121.386755","25.082035","6501700","林口區"
"244019","403-UM","2018/06/02 17:49:26","新北市林口區忠孝路528號","121.372285","25.0684783333333","6501700","林口區"
"244013","742-UY","2018/06/02 17:49:24","新北市林口區中山路255號","121.385411666667","25.0794816666667","6501700","林口區"
"244009","410-SL","2018/06/02 17:49:31","新北市林口區竹林路584號","121.38656","25.08306","6501700","林口區"
"244023","483-VK","2018/06/02 17:49:33","新北市林口區東湖路92號","121.386223333333","25.0738883333333","6501700","林口區"
"244017","485-VK","2018/06/02 17:49:35","新北市林口區文化二路一段260巷18號","121.370961666667","25.0725633333333","6501700","林口區"
"244011","657-BX","2018/06/02 17:49:23","新北市林口區中正路435號","121.38502","25.0776966666667","6501700","林口區"
"244025","837-TS","2018/06/02 17:49:30","新北市林口區忠孝三路42號","121.360243333333","25.070335","6501700","林口區"
"244021","838-TS","2018/06/02 17:49:27","新北市林口區仁愛路一段157號","121.398645","25.0722316666667","6501700","林口區"
"222002","016-RS","2018/06/02 17:49:30","新北市深坑區平埔街22巷17弄1號","121.614848333333","25.0009433333333","6501800","深坑區"
"222003","436-BY","2018/06/02 17:49:35","新北市深坑區阿柔洋60-1號","121.608573333333","24.9985333333333","6501800","深坑區"
"231046","188-VK","2018/06/02 17:49:42","新北市新店區康雅崙路3號","121.539416666667","24.9255283333333","6500600","新店區"
"231055","AKT-0513","2018/06/02 17:49:29","新北市新店區安華路1-1號","121.519458333333","24.96051","6500600","新店區"
"241024","065-VK","2018/06/02 17:49:25","新北市三重區車路頭街62巷39號","121.483203333333","25.07247","6500200","三重區"
"241016","266-UM","2018/06/02 17:49:29","新北市三重區新北大道一段7號","121.489703333333","25.061475","6500200","三重區"
"241018","268-UM","2018/06/02 17:49:28","新北市八里區中山路三段386號","121.368423333333","25.1358966666667","6500200","三重區"
"241033","557-UM","2018/06/02 17:22:04","新北市新莊區化成路630巷19弄10號","121.467335","25.0557466666667","6500200","三重區"
"241002","887-TS","2018/06/02 17:49:32","新北市八里區下罟子8-10號","121.38471","25.1450083333333","6500200","三重區"
"241012","941-UM","2018/06/02 17:49:33","新北市三重區龍濱路190號","121.50111","25.0732933333333","6500200","三重區"
"235063","006-UY","2018/06/02 17:49:36","新北市中和區員山路36巷16-3號","121.485085","24.99122","6500300","中和區"
"235065","098-UM","2018/06/02 17:49:33","新北市中和區中正路637巷52弄3號","121.48531","24.99373","6500300","中和區"
"235038","185-VK","2018/06/02 17:49:41","新北市中和區和城路一段271巷1號","121.485393333333","24.991915","6500300","中和區"
"247024","893-R6","2018/06/02 17:49:32","新北市蘆洲區光榮路61巷22號","121.461425","25.0889966666667","6501400","蘆洲區"
"247014","546-UM","2018/06/02 17:49:38","新北市蘆洲區保和街69巷18號","121.469623333333","25.08533","6501400","蘆洲區"
"247022","500-BY","2018/06/02 17:49:28","新北市蘆洲區中正路284-1號","121.465015","25.0902116666667","6501400","蘆洲區"
"247010","341-TH","2018/06/02 17:49:34","新北市蘆洲區信義路273號","121.478926666667","25.0850583333333","6501400","蘆洲區"
"247012","339-TH","2018/06/02 17:49:32","新北市蘆洲區復興路109-1號","121.47719","25.0880216666667","6501400","蘆洲區"
"247004","337-TH","2018/06/02 17:49:29","新北市蘆洲區環堤大道2-1號","121.456746666667","25.08286","6501400","蘆洲區"
"247006","336-TH","2018/06/02 17:49:27","新北市蘆洲區九芎街115號","121.465505","25.0794383333333","6501400","蘆洲區"
"247018","057-VK","2018/06/02 17:49:33","新北市蘆洲區復興路227巷2弄5號","121.48018","25.090295","6501400","蘆洲區"
"247008","056-VK","2018/06/02 17:49:34","新北市蘆洲區中山一路233號","121.473501666667","25.080705","6501400","蘆洲區"
"247016","007-UY","2018/06/02 17:49:31","新北市蘆洲區中正路185巷25弄6號","121.4669","25.084205","6501400","蘆洲區"
"247002","002-UY","2018/06/02 17:49:31","新北市蘆洲區永平街32巷33弄10號","121.458991666667","25.0922616666667","6501400","蘆洲區"
"247020","001-UY","2018/06/02 17:49:31","新北市蘆洲區民義街71巷3號","121.472903333333","25.0902916666667","6501400","蘆洲區"
"228003","097-TW","2018/06/02 17:49:29","新北市貢寮區真理里延平街72-5號","121.925221666667","25.0582866666667","6502600","貢寮區"
"228001","212-TW","2018/06/02 17:49:35","新北市貢寮區仁理村仁愛路95-1號","121.927683333333","25.0554383333333","6502600","貢寮區"
"228002","585-TW","2018/06/02 17:49:22","新北市貢寮區福隆里外隆林街14-1號","121.95914","25.0036666666667","6502600","貢寮區"
"224010","AGQ-8101","2018/06/02 17:40:07","新北市瑞芳區岳王路139號","121.806351666667","25.1119933333333","6501200","瑞芳區"
"224006","676-BX","2018/06/02 17:49:35","新北市瑞芳區瑞興新村12巷1號","121.788443333333","25.1083233333333","6501200","瑞芳區"
"224008","285-BY","2018/06/02 17:49:29","新北市瑞芳區明燈路一段175號","121.819258333333","25.1076233333333","6501200","瑞芳區"
"224009","273-VK","2018/06/02 17:49:39","新北市瑞芳區金光路368號","121.849845","25.1104066666667","6501200","瑞芳區"
"224005","271-BY","2018/06/02 17:49:32","新北市瑞芳區瑞濱路32-6號","121.823748333333","25.1211233333333","6501200","瑞芳區"
"227002","642-TC","2018/06/02 17:49:29","新北市雙溪區共和里東榮街52號","121.866381666667","25.03362","6502500","雙溪區"
"253006","295-VK","2018/06/02 17:49:31","新北市石門區中山路64號","121.567306666667","25.290725","6502200","石門區"
"222001","KEA-2212","2018/06/02 17:49:37","新北市深坑區北深路三段25巷15-2號","121.608726666667","24.9997116666667","6501800","深坑區"
"208003","665-BX","2018/06/02 17:49:31","新北市金山區磺清路135號","121.639448333333","25.2276216666667","6502700","金山區"
"208001","761-BX","2018/06/02 17:49:31","新北市金山區磺清路135號","121.639336666667","25.2276583333333","6502700","金山區"
"251009","008-UM","2018/06/02 17:49:33","新北市淡水區長興街47號","121.444208333333","25.1717833333333","6501000","淡水區"
"251004","009-UM","2018/06/02 17:49:33","新北市淡水區民權一街17巷2號","121.458735","25.1365583333333","6501000","淡水區"
"251005","010-UM","2018/06/02 17:49:25","新北市淡水區學府路102巷16號","121.451036666667","25.17186","6501000","淡水區"
"251002","012-UM","2018/06/02 17:49:25","新北市淡水區中山路50號","121.443961666667","25.170325","6501000","淡水區"
"251013","KEA-2871","2018/06/02 17:49:31","新北市淡水區泉洲厝31號","121.479458333333","25.1910216666667","6501000","淡水區"
"251016","179-VK","2018/06/02 17:49:33","新北市淡水區埤島39-15號","121.452765","25.195895","6501000","淡水區"
"251014","180-VK","2018/06/02 17:49:21","新北市淡水區公埔子16-6號","121.480993333333","25.2246116666667","6501000","淡水區"
"251015","182-VK","2018/06/02 17:49:39","新北市淡水區興福寮32-2號","121.490683333333","25.1633733333333","6501000","淡水區"
"251010","413-VK","2018/06/02 17:49:36","新北市淡水區淡海路280巷33弄34-2號","121.41862","25.188495","6501000","淡水區"
"251007","442-VK","2018/06/02 17:49:33","新北市淡水區民生路87號","121.46369","25.1383166666667","6501000","淡水區"
"251012","443-VK","2018/06/02 17:49:39","新北市淡水區水頭43-1號","121.47685","25.18574","6501000","淡水區"
"251006","561-UM","2018/06/02 17:49:40","新北市淡水區中山北路一段45巷16號","121.441011666667","25.175855","6501000","淡水區"
"251008","575-R6","2018/06/02 17:49:35","新北市淡水區八勢路一段156號","121.468168333333","25.1565233333333","6501000","淡水區"
"251011","650-BX","2018/06/02 17:45:06","新北市淡水區吳(仔)厝10-2號","121.480875","25.147805","6501000","淡水區"
"251003","673-BX","2018/06/02 17:49:30","新北市淡水區大仁街69號","121.44301","25.1763483333333","6501000","淡水區"
"207003","550-UM","2018/06/02 17:49:24","新北市萬里區野柳里東澳路55號","121.692015","25.2033","6502800","萬里區"
"207004","225-TW","2018/06/02 17:49:41","新北市萬里區萬里里瑪鋉頂街61號","121.688363333333","25.1804966666667","6502800","萬里區"
"252002","178-VK","2018/06/02 17:49:37","新北市三芝區中山路一段88巷15號","121.50289","25.2567366666667","6502100","三芝區"
"252001","292-VK","2018/06/02 17:49:25","新北市三芝區中興街一段37號","121.497635","25.2578733333333","6502100","三芝區"
"237004","KEA-2597","2018/06/02 17:49:32","新北市三峽區仁愛街9號","121.368481666667","24.9339333333333","6500900","三峽區"
"237007","153-BY","2018/06/02 17:49:27","新北市三峽區中正路二段167號","121.366033333333","24.9150283333333","6500900","三峽區"
"237009","210-TH","2018/06/02 17:49:26","新北市三峽區大勇路3巷26號","121.36786","24.93682","6500900","三峽區"
"237013","252-BX","2018/06/02 17:49:36","新北市三峽區中華路8-1號","121.374986666667","24.932905","6500900","三峽區"
"237008","302-VK","2018/06/02 17:49:35","新北市三峽區中園街237-1號","121.366795","24.9194816666667","6500900","三峽區"
"237014","433-BY","2018/06/02 17:49:40","新北市三峽區和平街36巷15號","121.371228333333","24.9370233333333","6500900","三峽區"
"237006","5529-G3","2018/06/02 17:49:15","新北市三峽區介壽路二段136巷118-1號","121.392361666667","24.9326816666667","6500900","三峽區"
"237016","649-BX","2018/06/02 17:49:32","新北市三峽區白雞149-2號","121.39987","24.9052166666667","6500900","三峽區"
"237010","706-TV","2018/06/02 17:49:37","新北市三峽區文化路232號","121.367876666667","24.93588","6500900","三峽區"
"237005","AKY-6261","2018/06/02 17:49:35","新北市三峽區中山路156號","121.364738333333","24.9364783333333","6500900","三峽區"
"236070","105-UM","2018/06/02 17:49:25","新北市土城區明德路一段280號","121.457591666667","24.97745","6501300","土城區"
"236042","107-UM","2018/06/02 17:49:33","新北市土城區城林路6巷80號","121.438513333333","24.97981","6501300","土城區"
"236030","253-BX","2018/06/02 17:49:42","新北市土城區城林路6巷80號","121.438541666667","24.9796816666667","6501300","土城區"
"236026","269-VK","2018/06/02 17:49:26","新北市土城區城林路6巷80號","121.438405","24.9796366666667","6501300","土城區"
"236014","270-VK","2018/06/02 17:49:40","新北市土城區城林路6巷80號","121.438431666667","24.9796383333333","6501300","土城區"
"236038","271-VK","2018/06/02 17:49:34","新北市土城區城林路6巷80號","121.438566666667","24.9795933333333","6501300","土城區"
"236021","401-BY","2018/06/02 17:49:41","新北市土城區城林路6巷80號","121.43879","24.9796783333333","6501300","土城區"
"236079","752-BX","2018/06/02 17:49:24","新北市土城區中央路三段42號","121.437491666667","24.9682383333333","6501300","土城區"
"236059","912-UM","2018/06/02 17:49:26","新北市土城區中華路二段241號","121.437486666667","24.9725766666667","6501300","土城區"
"236049","913-UM","2018/06/02 17:49:29","新北市土城區城林路6巷80號","121.438603333333","24.9797116666667","6501300","土城區"
"236063","915-UM","2018/06/02 17:49:19","新北市土城區城林路6巷80號","121.438641666667","24.97962","6501300","土城區"
"236055","AAC-216","2018/06/02 17:49:41","新北市土城區城林路6巷80號","121.438435","24.9795833333333","6501300","土城區"
"242034","AAC-296","2018/06/02 17:49:35","新北市新莊區新莊路452號","121.447521666667","25.03335","6500500","新莊區"
"242058","986-R7","2018/06/02 17:49:28","新北市新莊區中正路726-2號","121.415955","25.0242616666667","6500500","新莊區"
"242053","751-BX","2018/06/02 17:49:43","新北市新莊區民安西路470-1號","121.431718333333","25.0078066666667","6500500","新莊區"
"242027","615-BX","2018/06/02 17:49:32","新北市新莊區福壽街173號","121.457961666667","25.0538716666667","6500500","新莊區"
"242025","613-BX","2018/06/02 17:49:34","新北市三重區中山路279號","121.471468333333","25.0615583333333","6500500","新莊區"
"242029","612-BX","2018/06/02 17:49:42","新北市新莊區復興路一段29號","121.446365","25.04169","6500500","新莊區"
"242042","566-BX","2018/06/02 17:49:37","新北市泰山區貴陽街29號","121.42228","25.03311","6500500","新莊區"
"242046","497-BY","2018/06/02 17:49:40","新北市新莊區福營路141號","121.432643333333","25.0317016666667","6500500","新莊區"
"242056","440-UM","2018/06/02 17:49:31","新北市新莊區瓊林路40巷27號","121.44668","25.030165","6500500","新莊區"
"242036","415-TV","2018/06/02 17:49:39","新北市新莊區建福路59巷3號","121.42705","25.027415","6500500","新莊區"
"242007","413-TV","2018/06/02 17:49:39","新北市新莊區福樂街120號","121.457141666667","25.0478783333333","6500500","新莊區"
"242044","400-BY","2018/06/02 17:49:38","新北市新莊區中正路855巷18號","121.419816666667","25.0271916666667","6500500","新莊區"
"242023","362-BY","2018/06/02 17:49:37","新北市新莊區福樂街76號","121.45779","25.046715","6500500","新莊區"
"242061","353-BY","2018/06/02 17:49:43","新北市新莊區新樹路533號","121.432811666667","25.0090533333333","6500500","新莊區"
"242009","132-UY","2018/06/02 17:49:26","新北市新莊區昌明街30巷5弄1號","121.456636666667","25.0528716666667","6500500","新莊區"
"242031","135-UY","2018/06/02 17:49:33","新北市新莊區新泰路321巷37號","121.443041666667","25.0412583333333","6500500","新莊區"
"242048","172-VK","2018/06/02 17:49:36","新北市新莊區萬安街60巷3號","121.420836666667","25.0234883333333","6500500","新莊區"
"242017","175-VK","2018/06/02 17:49:36","新北市新莊區永安街48號","121.451455","25.0447883333333","6500500","新莊區"
"242004","176-VK","2018/06/02 17:49:24","新北市新莊區思源路177巷6號","121.459315","25.04541","6500500","新莊區"
"242015","346-TH","2018/06/02 17:49:31","新北市新莊區新泰路480號","121.442611666667","25.0456166666667","6500500","新莊區"
"242021","348-TH","2018/06/02 17:49:32","新北市新莊區中港路209號","121.454805","25.0420233333333","6500500","新莊區"
"242051","349-TH","2018/06/02 17:49:40","新北市新莊區西盛街269巷21號","121.428863333333","25.0156083333333","6500500","新莊區"
"242019","350-TH","2018/06/02 17:49:40","新北市新莊區中港路273號","121.453355","25.04353","6500500","新莊區"
"242013","351-TH","2018/06/02 17:49:39","新北市新莊區中和街108巷12號","121.44819","25.0472033333333","6500500","新莊區"
"238015","755-BX","2018/06/02 17:49:25","新北市樹林區樹德街136巷14號","121.41948","24.9936683333333","6500700","樹林區"
"238023","601-UM","2018/06/02 17:49:30","新北市樹林區龍興街32巷25號","121.402141666667","25.0155766666667","6500700","樹林區"
"238019","599-UM","2018/06/02 17:49:32","新北市樹林區太平路176號","121.418415","24.9768366666667","6500700","樹林區"
"238018","571-TV","2018/06/02 17:49:36","新北市樹林區鎮前街128號","121.424835","24.9908066666667","6500700","樹林區"
"238022","KEA-2213","2018/06/02 17:49:26","新北市樹林區太順街62巷3弄16號","121.416995","24.97956","6500700","樹林區"
"238021","KEA-2539","2018/06/02 17:49:41","新北市樹林區柑園街一段36-2號","121.405366666667","24.9614966666667","6500700","樹林區"
"238025","303-VK","2018/06/02 17:49:35","新北市樹林區三俊街70號","121.413165","25.015675","6500700","樹林區"
"238017","283-BY","2018/06/02 17:49:30","新北市樹林區三德街30巷3號","121.414583333333","25.0130433333333","6500700","樹林區"
"238014","282-BY","2018/06/02 17:49:27","新北市樹林區大安路127號","121.422696666667","24.9971583333333","6500700","樹林區"
"238020","268-VK","2018/06/02 17:49:27","新北市樹林區三俊街211號","121.420503333333","25.015445","6500700","樹林區"
"238026","172-UY","2018/06/02 17:49:27","新北市樹林區八德街500號","121.399781666667","24.9702166666667","6500700","樹林區"
"238016","169-UY","2018/06/02 17:44:42","新北市樹林區復興路244號","121.418641666667","24.9891616666667","6500700","樹林區"
"239006","891-R6","2018/06/02 17:49:27","新北市鶯歌區鳳鳴路5號","121.333286666667","24.9648866666667","6500800","鶯歌區"
"239008","527-UM","2018/06/02 17:49:28","新北市鶯歌區國際一路4號","121.335125","24.977345","6500800","鶯歌區"
"239005","526-UM","2018/06/02 17:49:39","新北市鶯歌區鳳吉五街19號","121.326956666667","24.9725316666667","6500800","鶯歌區"
"239001","417-VK","2018/06/02 17:49:37","新北市鶯歌區中正三路442號","121.323746666667","24.9346216666667","6500800","鶯歌區"
"239003","360-BY","2018/06/02 17:49:36","新北市鶯歌區永吉街46巷37號","121.334636666667","24.95763","6500800","鶯歌區"
"239002","359-BY","2018/06/02 17:49:40","新北市鶯歌區育智路84號","121.344971666667","24.954735","6500800","鶯歌區"
"239004","193-VK","2018/06/02 17:49:28","新北市鶯歌區文化路136巷52號","121.35099","24.9504883333333","6500800","鶯歌區"
"221036","130-UY","2018/06/02 17:49:23","新北市汐止區汐萬路一段312號","121.650446666667","25.0752633333333","6501100","汐止區"
"221015","131-UY","2018/06/02 17:49:33","新北市汐止區長江街256巷1號","121.664608333333","25.0799166666667","6501100","汐止區"
"221010","269-BY","2018/06/02 17:49:36","新北市汐止區汐萬路二段110號","121.648155","25.08461","6501100","汐止區"
"221012","278-VK","2018/06/02 17:49:32","新北市汐止區吉祥街27巷2號","121.667455","25.08143","6501100","汐止區"
"221023","279-VK","2018/06/02 17:49:40","新北市汐止區民族一街1-2號","121.634851666667","25.0708416666667","6501100","汐止區"
"221027","281-BY","2018/06/02 17:49:35","新北市汐止區康寧街901號","121.650853333333","25.0752583333333","6501100","汐止區"
"221029","298-VK","2018/06/02 17:49:26","新北市汐止區汐萬路一段256巷1號","121.651676666667","25.0748366666667","6501100","汐止區"
"221021","299-VK","2018/06/02 17:49:33","新北市汐止區水源路一段56號","121.657256666667","25.06563","6501100","汐止區"
"221031","353-TW","2018/06/02 17:49:31","新北市汐止區中興路96巷1-3號","121.635605","25.0626916666667","6501100","汐止區"
"221008","129-UY","2018/06/02 17:49:26","新北市汐止區康寧街901號","121.651391666667","25.0750816666667","6501100","汐止區"
"221035","622-UM","2018/06/02 17:49:42","新北市汐止區汐萬路一段144-2號","121.653033333333","25.0711383333333","6501100","汐止區"
"221025","623-UM","2018/06/02 17:49:38","新北市汐止區仁愛路1號","121.658528333333","25.0642866666667","6501100","汐止區"
"221038","646-BX","2018/06/02 17:49:44","新北市汐止區汐萬路一段312號","121.65055","25.0753716666667","6501100","汐止區"
"221033","647-BX","2018/06/02 17:41:36","新北市汐止區東勢街13號","121.624128333333","25.0395133333333","6501100","汐止區"
"221018","753-BX","2018/06/02 17:49:26","新北市汐止區忠孝東路384號","121.665578333333","25.06984","6501100","汐止區"
"242002","KEA-2550","2018/06/02 17:49:41","新北市新莊區景德路174號","121.45021","25.0342516666667","6500500","新莊區"
"242039","280-VK","2018/06/02 17:49:42","新北市新莊區富國路204號","121.424838333333","25.024105","6500500","新莊區"
