"lineid","car","time","location","longitude","latitude","cityid","cityname"
"234026","9371-KE","2018/06/02 18:09:29","新北市永和區永和路一段36號","121.513135","25.005185","6500400","永和區"
"234011","9373-KE","2018/06/02 18:09:23","新北市永和區福和路1號","121.525606666667","25.009485","6500400","永和區"
"249005","172-UM","2018/06/02 18:09:33","新北市八里區荖阡坑路15號","121.401585","25.1398283333333","6502300","八里區"
"249001","173-UM","2018/06/02 18:09:41","新北市八里區龍米路二段30號","121.448668333333","25.13986","6502300","八里區"
"249004","303-UY","2018/06/02 18:09:43","新北市八里區龍米路二段166號","121.434848333333","25.1581666666667","6502300","八里區"
"249002","305-UY","2018/06/02 18:09:28","新北市八里區龍米路一段356巷46號","121.452041666667","25.1303283333333","6502300","八里區"
"249003","593-UM","2018/06/02 18:09:31","新北市八里區中華路二段165巷17號","121.40855","25.1505166666667","6502300","八里區"
"248016","026-BX","2018/06/02 18:09:37","新北市五股區成泰路三段221巷18號","121.445711666667","25.0934533333333","6501500","五股區"
"248006","077-UY","2018/06/02 18:09:31","新北市五股區中興路二段94號","121.460441666667","25.0774716666667","6501500","五股區"
"248008","095-VK","2018/06/02 18:09:30","新北市五股區更洲路32巷15弄5號","121.458486666667","25.0804083333333","6501500","五股區"
"248020","225-UY","2018/06/02 18:09:30","新北市五股區成泰路三段621號","121.45305","25.1037966666667","6501500","五股區"
"248014","261-SL","2018/06/02 18:09:27","新北市五股區成泰路一段158號","121.435075","25.07647","6501500","五股區"
"248010","272-BY","2018/06/02 18:09:19","新北市五股區成泰路一段194-1號","121.435573333333","25.0779433333333","6501500","五股區"
"248004","677-BX","2018/06/02 18:09:38","新北市五股區中興路四段49號","121.438226666667","25.0828883333333","6501500","五股區"
"248002","678-BX","2018/06/02 18:09:32","新北市五股區成泰路三段75-1號","121.443625","25.0898116666667","6501500","五股區"
"232011","375-UM","2018/06/02 18:09:38","新北市坪林區水柳腳10號","121.711113333333","24.935705","6502000","坪林區"
"244007","080-UY","2018/06/02 18:09:36","新北市林口區林口路124巷10弄1號","121.389111666667","25.0817883333333","6501700","林口區"
"244019","403-UM","2018/06/02 18:09:26","新北市林口區忠孝路561巷13號","121.373115","25.0687583333333","6501700","林口區"
"244013","742-UY","2018/06/02 18:09:24","新北市林口區中山路36號","121.395615","25.0784066666667","6501700","林口區"
"244009","410-SL","2018/06/02 18:09:31","新北市林口區中山路492號","121.379885","25.0826416666667","6501700","林口區"
"244023","483-VK","2018/06/02 18:09:33","新北市林口區東湖路155號","121.383131666667","25.07295","6501700","林口區"
"244017","485-VK","2018/06/02 18:09:35","新北市林口區文化一路一段43號","121.371006666667","25.0698383333333","6501700","林口區"
"244011","657-BX","2018/06/02 18:09:43","新北市林口區中正路100號","121.393895","25.0772616666667","6501700","林口區"
"244025","837-TS","2018/06/02 18:09:30","新北市林口區文化北路一段301-1號","121.360335","25.07276","6501700","林口區"
"244021","838-TS","2018/06/02 18:09:27","新北市林口區自強四街1號","121.398755","25.076895","6501700","林口區"
"243013","AAD-798","2018/06/02 18:09:24","新北市泰山區南林路99巷1-1號","121.415451666667","25.0511633333333","6501600","泰山區"
"222002","016-RS","2018/06/02 18:09:30","新北市深坑區文化街37號","121.619058333333","25.0015533333333","6501800","深坑區"
"222003","436-BY","2018/06/02 18:09:35","新北市深坑區阿柔洋47號","121.611861666667","24.9973033333333","6501800","深坑區"
"231044","001-UM","2018/06/02 18:09:31","新北市新店區安華路28-1號","121.519503333333","24.9607166666667","6500600","新店區"
"231041","002-UM","2018/06/02 18:09:42","新北市新店區安華路28-1號","121.519898333333","24.9608583333333","6500600","新店區"
"231040","047-UY","2018/06/02 18:09:29","新北市新店區安一路一段1-1號","121.51929","24.9610066666667","6500600","新店區"
"231048","187-VK","2018/06/02 18:09:42","新北市新店區安一路一段1-1號","121.519688333333","24.96118","6500600","新店區"
"231046","188-VK","2018/06/02 18:09:22","新北市新店區直潭七街60號","121.532245","24.9398083333333","6500600","新店區"
"231042","268-BY","2018/06/02 18:09:36","新北市新店區安華路1-1號","121.519391666667","24.9605133333333","6500600","新店區"
"231050","AAD-862","2018/06/02 18:09:36","新北市新店區安一路一段1-1號","121.519855","24.9611","6500600","新店區"
"231058","3713-VJ","2018/06/02 18:09:30","新北市新店區安華路1-1號","121.519663333333","24.9601266666667","6500600","新店區"
"231066","4716-K9","2018/06/02 18:09:29","新北市新店區安一路一段1-1號","121.519055","24.9615983333333","6500600","新店區"
"231056","4715-K9","2018/06/02 18:09:25","新北市新店區安華路28-1號","121.519413333333","24.960695","6500600","新店區"
"231067","4772-VM","2018/06/02 18:09:23","新北市新店區安華路28-1號","121.51926","24.96064","6500600","新店區"
"231065","512-UM","2018/06/02 18:09:35","新北市新店區安一路一段1-1號","121.519355","24.961285","6500600","新店區"
"231049","513-UM","2018/06/02 18:09:39","新北市新店區安一路一段1-1號","121.519645","24.961165","6500600","新店區"
"231045","617-UM","2018/06/02 18:09:28","新北市新店區安華路28-1號","121.519436666667","24.9608666666667","6500600","新店區"
"231030","619-UM","2018/06/02 18:09:37","新北市新店區安華路28-1號","121.519635","24.9609616666667","6500600","新店區"
"231064","719-UY","2018/06/02 18:09:38","新北市新店區安華路28-1號","121.519623333333","24.9605633333333","6500600","新店區"
"231060","897-TW","2018/06/02 18:09:25","新北市新店區安華路28-1號","121.519805","24.9608983333333","6500600","新店區"
"231043","899-TW","2018/06/02 18:09:41","新北市新店區安華路28-1號","121.519208333333","24.960835","6500600","新店區"
"231055","AKT-0513","2018/06/02 18:09:29","新北市新店區安華路28-1號","121.519518333333","24.9606516666667","6500600","新店區"
"241024","065-VK","2018/06/02 18:09:25","新北市三重區中正北路193巷35弄16號","121.47642","25.0709916666667","6500200","三重區"
"241018","268-UM","2018/06/02 18:09:29","新北市五股區中興路三段2巷10號","121.44793","25.0825366666667","6500200","三重區"
"241002","887-TS","2018/06/02 18:08:51","新北市八里區荖阡坑路34號","121.401398333333","25.1298866666667","6500200","三重區"
"235064","005-UY","2018/06/02 18:09:33","新北市中和區中正路78號","121.500485","24.9937733333333","6500300","中和區"
"235063","006-UY","2018/06/02 18:09:36","新北市中和區員山路36巷16-3號","121.485076666667","24.9913733333333","6500300","中和區"
"235056","096-UM","2018/06/02 18:09:28","新北市中和區連城路308號","121.483656666667","24.9963316666667","6500300","中和區"
"235039","097-UM","2018/06/02 18:09:41","新北市中和區中正路637巷60弄61號","121.485518333333","24.9931333333333","6500300","中和區"
"235065","098-UM","2018/06/02 18:09:33","新北市中和區莊敬路49巷18號","121.501668333333","25.0062116666667","6500300","中和區"
"235058","151-BY","2018/06/02 18:09:27","新北市中和區圓通路367巷66號","121.49319","24.9832383333333","6500300","中和區"
"235038","185-VK","2018/06/02 18:09:41","新北市中和區大智街40號","121.52179","24.9921983333333","6500300","中和區"
"235067","255-BX","2018/06/02 18:09:34","新北市中和區和城路一段271巷1號","121.485695","24.9917316666667","6500300","中和區"
"235072","301-VK","2018/06/02 18:09:29","新北市中和區員山路36巷13號","121.484295","24.9910066666667","6500300","中和區"
"235043","352-BY","2018/06/02 18:09:26","新北市中和區中正路637巷52弄1號","121.485443333333","24.993415","6500300","中和區"
"235054","269-TV","2018/06/02 18:09:28","新北市土城區延壽路75巷1號","121.46923","24.9926133333333","6500300","中和區"
"235050","4979-A6","2018/06/02 18:09:32","新北市中和區錦和路350-1號","121.490258333333","24.99357","6500300","中和區"
"235042","551-UM","2018/06/02 18:09:28","新北市中和區復興路20號","121.505495","24.9899483333333","6500300","中和區"
"235070","558-UM","2018/06/02 18:09:29","新北市中和區錦和路350-1號","121.490443333333","24.9936066666667","6500300","中和區"
"235045","565-BX","2018/06/02 18:09:36","新北市中和區錦和路350-1號","121.490541666667","24.9936266666667","6500300","中和區"
"235046","733-UM","2018/06/02 18:09:39","新北市中和區員山路36巷13號","121.484151666667","24.9909566666667","6500300","中和區"
"235062","800-TS","2018/06/02 18:09:32","新北市中和區板南路448-1號","121.489618333333","25.0054483333333","6500300","中和區"
"235057","801-TS","2018/06/02 18:09:42","新北市中和區中正路637巷52弄5號","121.485181666667","24.9937933333333","6500300","中和區"
"235052","805-TS","2018/06/02 18:09:40","新北市中和區中正路275號","121.495481666667","24.9936883333333","6500300","中和區"
"235053","900-TW","2018/06/02 18:09:24","新北市中和區員山路36巷16-3號","121.48493","24.9915933333333","6500300","中和區"
"235066","911-UM","2018/06/02 18:09:26","新北市中和區圓通路54號","121.500623333333","24.9976033333333","6500300","中和區"
"235051","157-BY","2018/06/02 18:09:33","新北市中和區復興路276號","121.502728333333","24.9903866666667","6500300","中和區"
"235037","AAC-213","2018/06/02 18:09:30","新北市中和區景平路257號","121.50863","24.9930366666667","6500300","中和區"
"226004","312-R5","2018/06/02 18:09:29","新北市平溪區白石里白石腳24-1號","121.720123333333","25.02163","6502400","平溪區"
"235047","251-BX","2018/06/02 18:09:38","新北市中和區圓通路141巷48弄15號","121.498255","24.99372","6500300","中和區"
"228003","097-TW","2018/06/02 18:09:29","新北市貢寮區真理里美艷山街6-2號","121.928965","25.060765","6502600","貢寮區"
"228001","212-TW","2018/06/02 18:09:35","新北市貢寮區真理里新港街26巷55弄2-1號","121.927391666667","25.0528683333333","6502600","貢寮區"
"228002","585-TW","2018/06/02 18:09:42","新北市貢寮區福連里香蘭街26號","121.984856666667","25.0211733333333","6502600","貢寮區"
"224010","AGQ-8101","2018/06/02 18:02:27","新北市瑞芳區烏勢巷145號","121.847741666667","25.10897","6501200","瑞芳區"
"224006","676-BX","2018/06/02 18:09:35","新北市瑞芳區中山路251號","121.79819","25.1093116666667","6501200","瑞芳區"
"224002","639-TC","2018/06/02 18:09:44","新北市瑞芳區三爪子坑路48號","121.810635","25.1058066666667","6501200","瑞芳區"
"224008","285-BY","2018/06/02 18:09:24","新北市瑞芳區員山子路23號","121.82134","25.1031316666667","6501200","瑞芳區"
"224007","275-VK","2018/06/02 18:09:41","新北市瑞芳區頂埔巷1弄2號","121.766078333333","25.1024466666667","6501200","瑞芳區"
"224009","273-VK","2018/06/02 18:09:39","新北市瑞芳區金光路115號","121.853545","25.1062816666667","6501200","瑞芳區"
"224005","271-BY","2018/06/02 18:09:32","新北市瑞芳區深澳路63號","121.817878333333","25.1293133333333","6501200","瑞芳區"
"227002","642-TC","2018/06/02 18:09:29","新北市雙溪區共和里東榮街52號","121.86629","25.03356","6502500","雙溪區"
"253005","032-BX","2018/06/02 18:09:24","新北市石門區福安街5號","121.568411666667","25.2929083333333","6502200","石門區"
"253006","295-VK","2018/06/02 18:09:31","新北市石門區老梅路52巷19號","121.546361666667","25.2886366666667","6502200","石門區"
"222001","KEA-2212","2018/06/02 18:09:37","新北市深坑區北深路二段182號","121.614148333333","25.002395","6501800","深坑區"
"208002","KEA-2872","2018/06/02 18:09:38","新北市金山區三界壇路97巷1號","121.619315","25.2274466666667","6502700","金山區"
"208003","665-BX","2018/06/02 18:09:31","新北市金山區磺港里磺港路193號","121.645358333333","25.22764","6502700","金山區"
"208001","761-BX","2018/06/02 18:09:31","新北市金山區磺港里磺港路63號","121.64725","25.2270016666667","6502700","金山區"
"251009","008-UM","2018/06/02 18:09:33","新北市淡水區大忠街34巷19號","121.444061666667","25.1757816666667","6501000","淡水區"
"251004","009-UM","2018/06/02 18:09:33","新北市淡水區民族路110巷1號","121.462213333333","25.13536","6501000","淡水區"
"251005","010-UM","2018/06/02 18:09:25","新北市淡水區水源街一段139號","121.447178333333","25.1718766666667","6501000","淡水區"
"251001","011-UM","2018/06/02 18:09:31","新北市淡水區自立路8-2號","121.462746666667","25.1296516666667","6501000","淡水區"
"251002","012-UM","2018/06/02 18:09:25","新北市淡水區中正東路一段127巷2號","121.45565","25.1593416666667","6501000","淡水區"
"251013","KEA-2871","2018/06/02 18:09:31","新北市淡水區竹圍子19-2號","121.477241666667","25.1917","6501000","淡水區"
"251016","179-VK","2018/06/02 18:09:33","新北市淡水區下圭柔山13號","121.451403333333","25.2011683333333","6501000","淡水區"
"251014","180-VK","2018/06/02 18:09:41","新北市淡水區南平11-3號","121.486043333333","25.221635","6501000","淡水區"
"251015","182-VK","2018/06/02 18:09:39","新北市淡水區興福寮66巷16號","121.48676","25.1622433333333","6501000","淡水區"
"251010","413-VK","2018/06/02 18:09:29","新北市淡水區淡海路166號","121.4207","25.183355","6501000","淡水區"
"251012","443-VK","2018/06/02 18:09:43","新北市淡水區北新路三段171-1號","121.49218","25.19173","6501000","淡水區"
"251006","561-UM","2018/06/02 18:09:40","新北市淡水區新民街74號","121.438665","25.17644","6501000","淡水區"
"251008","575-R6","2018/06/02 18:09:35","新北市淡水區淡金路16巷62弄3號","121.460045","25.1608183333333","6501000","淡水區"
"251011","650-BX","2018/06/02 18:09:27","新北市淡水區三空泉9-1號","121.474603333333","25.1629916666667","6501000","淡水區"
"251003","673-BX","2018/06/02 18:09:30","新北市淡水區大忠街113巷24號","121.447433333333","25.1774283333333","6501000","淡水區"
"207003","550-UM","2018/06/02 18:09:24","新北市萬里區野柳里港西路13號","121.685145","25.2043716666667","6502800","萬里區"
"207004","225-TW","2018/06/02 18:09:21","新北市萬里區中幅里中福路106號","121.67641","25.169575","6502800","萬里區"
"252002","178-VK","2018/06/02 18:09:37","新北市三芝區中山路二段41號","121.502916666667","25.255055","6502100","三芝區"
"252003","249-BX","2018/06/02 18:09:41","新北市三芝區埔頭里埔頭37號","121.498551666667","25.2604033333333","6502100","三芝區"
"252001","292-VK","2018/06/02 18:09:25","新北市三芝區中興街二段2號","121.498338333333","25.2565616666667","6502100","三芝區"
"237004","KEA-2597","2018/06/02 18:09:32","新北市三峽區大埔路150號","121.367595","24.9022516666667","6500900","三峽區"
"237007","153-BY","2018/06/02 18:09:27","新北市三峽區中正路三段70巷28號","121.355878333333","24.9048766666667","6500900","三峽區"
"237009","210-TH","2018/06/02 18:09:26","新北市三峽區大仁路50巷19號","121.365223333333","24.93825","6500900","三峽區"
"237013","252-BX","2018/06/02 18:09:32","新北市三峽區長泰街5巷15號","121.377855","24.9312033333333","6500900","三峽區"
"237008","302-VK","2018/06/02 18:09:35","新北市三峽區白雞58-15號","121.385066666667","24.9101933333333","6500900","三峽區"
"237014","433-BY","2018/06/02 18:09:40","新北市三峽區復興路110巷3弄4號","121.372926666667","24.93854","6500900","三峽區"
"237006","5529-G3","2018/06/02 18:09:35","新北市三峽區溪東路235號","121.40654","24.9326233333333","6500900","三峽區"
"237016","649-BX","2018/06/02 18:09:32","新北市三峽區紫新路48號","121.422101666667","24.9219283333333","6500900","三峽區"
"237010","706-TV","2018/06/02 18:09:37","新北市三峽區民族街158號","121.369023333333","24.9282516666667","6500900","三峽區"
"237005","AKY-6261","2018/06/02 18:09:35","新北市三峽區忠孝街21號","121.370981666667","24.93422","6500900","三峽區"
"236070","105-UM","2018/06/02 18:09:24","新北市土城區石門路12號","121.459355","24.968115","6501300","土城區"
"236042","107-UM","2018/06/02 18:09:33","新北市土城區中華路二段2號","121.439475","24.9796283333333","6501300","土城區"
"236030","253-BX","2018/06/02 18:09:22","新北市土城區城林路6巷80號","121.438573333333","24.9797033333333","6501300","土城區"
"236026","269-VK","2018/06/02 18:09:26","新北市土城區承天路43巷4號","121.439271666667","24.96384","6501300","土城區"
"236014","270-VK","2018/06/02 18:09:40","新北市土城區學成路1號","121.453503333333","24.9862316666667","6501300","土城區"
"236038","271-VK","2018/06/02 18:09:34","新北市土城區金城路二段28-6號","121.450438333333","24.97819","6501300","土城區"
"236021","401-BY","2018/06/02 18:09:41","新北市土城區中央路二段280號","121.440661666667","24.974","6501300","土城區"
"236079","752-BX","2018/06/02 18:09:24","新北市土城區永安街85號","121.431111666667","24.9638683333333","6501300","土城區"
"236059","912-UM","2018/06/02 18:09:26","新北市土城區中央路四段123號","121.416285","24.9576483333333","6501300","土城區"
"236049","913-UM","2018/06/02 18:09:33","新北市土城區中正路65號","121.444445","24.9757233333333","6501300","土城區"
"236063","915-UM","2018/06/02 18:09:39","新北市土城區延吉街114號","121.470083333333","24.9860866666667","6501300","土城區"
"236055","AAC-216","2018/06/02 18:09:41","新北市土城區中華路二段80號","121.438698333333","24.9757533333333","6501300","土城區"
"242034","AAC-296","2018/06/02 18:09:35","新北市新莊區新莊路749號","121.442746666667","25.0328083333333","6500500","新莊區"
"242058","986-R7","2018/06/02 18:09:28","新北市新莊區新北大道七段372號","121.41337","25.0302183333333","6500500","新莊區"
"242053","751-BX","2018/06/02 18:09:43","新北市新莊區西盛街436號","121.426863333333","25.0117883333333","6500500","新莊區"
"242027","615-BX","2018/06/02 18:09:32","新北市新莊區幸福路548號","121.455045","25.0493966666667","6500500","新莊區"
"242025","613-BX","2018/06/02 18:09:34","新北市新莊區五工二路92號","121.459461666667","25.0667816666667","6500500","新莊區"
"242029","612-BX","2018/06/02 18:09:39","新北市新莊區中平路158號","121.444753333333","25.04754","6500500","新莊區"
"242042","566-BX","2018/06/02 18:09:37","新北市新莊區天祥街135巷8弄1號","121.41357","25.0293083333333","6500500","新莊區"
"242046","497-BY","2018/06/02 18:09:32","新北市新莊區福營路300號","121.42246","25.0274983333333","6500500","新莊區"
"242056","440-UM","2018/06/02 18:09:31","新北市新莊區豐年街豐1巷39號","121.447788333333","25.031425","6500500","新莊區"
"242036","415-TV","2018/06/02 18:09:39","新北市新莊區建福路48巷13號","121.425646666667","25.0273483333333","6500500","新莊區"
"242007","413-TV","2018/06/02 18:09:39","新北市新莊區中華路二段94號","121.453473333333","25.0472283333333","6500500","新莊區"
"242044","400-BY","2018/06/02 18:09:39","新北市新莊區中正路730號","121.414921666667","25.023765","6500500","新莊區"
"242023","362-BY","2018/06/02 18:09:37","新北市泰山區泰林路一段2號","121.442","25.04782","6500500","新莊區"
"242061","353-BY","2018/06/02 18:09:43","新北市新莊區新樹路40號","121.437768333333","25.0283483333333","6500500","新莊區"
"242009","132-UY","2018/06/02 18:09:35","新北市新莊區中華路二段294號","121.45265","25.05389","6500500","新莊區"
"242031","135-UY","2018/06/02 18:09:43","新北市新莊區新泰路289巷35號","121.443998333333","25.04034","6500500","新莊區"
"242048","172-VK","2018/06/02 18:09:36","新北市新莊區富國路152號","121.423146666667","25.0248216666667","6500500","新莊區"
"242017","175-VK","2018/06/02 18:09:29","新北市新莊區中港路303號","121.45279","25.04463","6500500","新莊區"
"242004","176-VK","2018/06/02 18:09:24","新北市新莊區自由街36號","121.455785","25.046495","6500500","新莊區"
"242015","346-TH","2018/06/02 18:09:31","新北市新莊區中平路152巷48號","121.446893333333","25.0472933333333","6500500","新莊區"
"242021","348-TH","2018/06/02 18:09:30","新北市新莊區建興街85號","121.449905","25.0387116666667","6500500","新莊區"
"242051","349-TH","2018/06/02 18:09:40","新北市新莊區民本街25巷15號","121.42906","25.0195533333333","6500500","新莊區"
"242019","350-TH","2018/06/02 18:09:40","新北市新莊區民樂街22號","121.457783333333","25.0405733333333","6500500","新莊區"
"242013","351-TH","2018/06/02 18:09:26","新北市新莊區瓊林路108號","121.442195","25.026265","6500500","新莊區"
"238015","755-BX","2018/06/02 18:09:25","新北市樹林區大安路316號","121.417355","24.9918416666667","6500700","樹林區"
"238023","601-UM","2018/06/02 18:09:30","新北市樹林區福興街17號","121.404418333333","25.0162333333333","6500700","樹林區"
"238019","599-UM","2018/06/02 18:09:32","新北市樹林區水源街32巷74號","121.424966666667","24.9802216666667","6500700","樹林區"
"238018","571-TV","2018/06/02 18:09:35","新北市樹林區樹新路99號","121.42789","24.99559","6500700","樹林區"
"238024","5061-A6","2018/06/02 18:09:28","新北市樹林區豐林街41-1號","121.421366666667","24.99817","6500700","樹林區"
"238022","KEA-2213","2018/06/02 18:09:25","新北市樹林區太平路174巷29弄3號","121.417778333333","24.976535","6500700","樹林區"
"238021","KEA-2539","2018/06/02 18:09:41","新北市樹林區柑園街二段123號","121.384625","24.9548133333333","6500700","樹林區"
"238025","303-VK","2018/06/02 18:09:35","新北市樹林區保安街二段61號","121.415928333333","25.0004483333333","6500700","樹林區"
"238017","283-BY","2018/06/02 18:09:30","新北市樹林區中正路652號","121.409803333333","25.0164933333333","6500700","樹林區"
"238014","282-BY","2018/06/02 18:09:27","新北市樹林區潭興街103號","121.42471","24.9985383333333","6500700","樹林區"
"238020","268-VK","2018/06/02 18:09:26","新北市樹林區三龍街142號","121.416796666667","25.01832","6500700","樹林區"
"238026","172-UY","2018/06/02 18:09:27","新北市樹林區育德街38-8號","121.390033333333","24.9694533333333","6500700","樹林區"
"238016","169-UY","2018/06/02 17:54:41","新北市樹林區文化街46號","121.418671666667","24.9883916666667","6500700","樹林區"
"239006","891-R6","2018/06/02 18:09:32","新北市鶯歌區鶯桃路383號","121.333541666667","24.9636383333333","6500800","鶯歌區"
"239008","527-UM","2018/06/02 18:09:27","新北市鶯歌區國際一路179號","121.336261666667","24.9764833333333","6500800","鶯歌區"
"239005","526-UM","2018/06/02 18:09:27","新北市鶯歌區鶯桃路668巷73號","121.329955","24.9718233333333","6500800","鶯歌區"
"239001","417-VK","2018/06/02 18:09:37","新北市鶯歌區國中街109號","121.341418333333","24.9415733333333","6500800","鶯歌區"
"239003","360-BY","2018/06/02 18:09:36","新北市鶯歌區福安街7巷2號","121.335068333333","24.96484","6500800","鶯歌區"
"239002","359-BY","2018/06/02 18:09:40","新北市鶯歌區光明街100號","121.345925","24.9560783333333","6500800","鶯歌區"
"239004","193-VK","2018/06/02 18:09:24","新北市鶯歌區尖山路101巷4弄2號","121.348013333333","24.9485933333333","6500800","鶯歌區"
"221036","130-UY","2018/06/02 18:09:43","新北市汐止區大同路三段101號","121.668206666667","25.0776433333333","6501100","汐止區"
"221015","131-UY","2018/06/02 18:09:43","新北市汐止區長江街367號","121.667925","25.082655","6501100","汐止區"
"221010","269-BY","2018/06/02 18:09:36","新北市汐止區汐萬路二段260號","121.645893333333","25.0893383333333","6501100","汐止區"
"221012","278-VK","2018/06/02 18:09:32","新北市汐止區保長路37巷42號","121.674106666667","25.0798483333333","6501100","汐止區"
"221023","279-VK","2018/06/02 18:09:28","新北市汐止區中興路291巷1號","121.628071666667","25.0699466666667","6501100","汐止區"
"221032","280-BY","2018/06/02 18:09:34","新北市汐止區橫科路10號","121.617775","25.051175","6501100","汐止區"
"221027","281-BY","2018/06/02 18:09:39","新北市汐止區大同路二段585號","121.663618333333","25.0702516666667","6501100","汐止區"
"221029","298-VK","2018/06/02 18:09:26","新北市汐止區樟樹二路134號","121.639955","25.0657766666667","6501100","汐止區"
"221021","299-VK","2018/06/02 18:09:33","新北市汐止區龍安路202巷24號","121.652728333333","25.0635083333333","6501100","汐止區"
"221031","353-TW","2018/06/02 18:09:36","新北市汐止區中興路158-1號","121.632285","25.06507","6501100","汐止區"
"221008","129-UY","2018/06/02 18:09:26","新北市汐止區康寧街543號","121.634188333333","25.0690133333333","6501100","汐止區"
"221035","622-UM","2018/06/02 18:09:43","新北市汐止區大同路二段187巷4弄2號","121.652296666667","25.0650466666667","6501100","汐止區"
"221025","623-UM","2018/06/02 18:09:38","新北市汐止區秀峰路151巷1號","121.660751666667","25.0621133333333","6501100","汐止區"
"221038","646-BX","2018/06/02 18:09:24","新北市汐止區南興路83巷1號","121.652878333333","25.0590983333333","6501100","汐止區"
"221033","647-BX","2018/06/02 18:09:36","新北市汐止區宜興街20巷22號","121.622116666667","25.0407533333333","6501100","汐止區"
"221002","707-TV","2018/06/02 18:09:31","新北市汐止區福德一路205號","121.635348333333","25.065485","6501100","汐止區"
"221018","753-BX","2018/06/02 18:09:45","新北市汐止區忠孝東路351號","121.665623333333","25.0704466666667","6501100","汐止區"
"242002","KEA-2550","2018/06/02 18:09:36","新北市新莊區新莊路35號","121.45882","25.0374","6500500","新莊區"
"242039","280-VK","2018/06/02 18:09:29","新北市新莊區民安西路38巷33號","121.426461666667","25.0203683333333","6500500","新莊區"
"235061","KEA-2875","2018/06/02 18:09:45","新北市中和區連城路518巷1號","121.476503333333","24.991875","6500300","中和區"
