"lineid","car","time","location","longitude","latitude","cityid","cityname"
"234046","148-BY","2018/06/02 18:29:34","新北市永和區福和路1號","121.525051666667","25.0090916666667","6500400","永和區"
"234081","298-R6","2018/06/02 18:29:33","新北市永和區福和路8巷3號","121.524948333333","25.0092166666667","6500400","永和區"
"234086","338-UY","2018/06/02 18:29:42","新北市永和區福和路26號","121.523948333333","25.0083466666667","6500400","永和區"
"234042","862-TW","2018/06/02 18:29:27","新北市永和區福和路8巷1號","121.524928333333","25.0089233333333","6500400","永和區"
"234026","9371-KE","2018/06/02 18:29:29","新北市永和區中山路一段50號","121.513301666667","25.0106166666667","6500400","永和區"
"234011","9373-KE","2018/06/02 18:29:23","新北市永和區保福路二段158巷1號","121.509163333333","25.015065","6500400","永和區"
"249005","172-UM","2018/06/02 18:29:33","新北市八里區中華路三段128號","121.392485","25.13575","6502300","八里區"
"249001","173-UM","2018/06/02 18:29:23","新北市八里區龍米路一段132號","121.453066666667","25.12548","6502300","八里區"
"249004","303-UY","2018/06/02 18:29:23","新北市八里區忠孝路82號","121.426071666667","25.160455","6502300","八里區"
"249002","305-UY","2018/06/02 18:29:28","新北市八里區龍形三街16號","121.449581666667","25.1315983333333","6502300","八里區"
"248016","026-BX","2018/06/02 18:29:37","新北市五股區凌雲路一段83巷34號","121.449278333333","25.1010283333333","6501500","五股區"
"248006","077-UY","2018/06/02 18:29:42","新北市五股區中興路一段77號","121.467296666667","25.0725816666667","6501500","五股區"
"248008","095-VK","2018/06/02 18:29:30","新北市五股區四維路185巷42弄7號","121.463755","25.0768566666667","6501500","五股區"
"248020","225-UY","2018/06/02 18:29:30","新北市五股區天乙路114號","121.447125","25.1129666666667","6501500","五股區"
"248012","247-BX","2018/06/02 18:29:38","新北市五股區御成路140號","121.441026666667","25.09432","6501500","五股區"
"248014","261-SL","2018/06/02 18:29:27","新北市五股區明德路7巷31號","121.43472","25.07084","6501500","五股區"
"248010","272-BY","2018/06/02 18:29:39","新北市五股區水碓路1-1號","121.43405","25.0719416666667","6501500","五股區"
"248004","677-BX","2018/06/02 18:29:36","新北市五股區六合街3號","121.431958333333","25.088545","6501500","五股區"
"248002","678-BX","2018/06/02 18:29:32","新北市五股區西雲路116-6號","121.444676666667","25.0936533333333","6501500","五股區"
"234077","969-R7","2018/06/02 18:29:43","新北市永和區福和路8巷1號","121.525013333333","25.0090316666667","6500400","永和區"
"232011","375-UM","2018/06/02 18:26:19","新北市坪林區坪雙路一段43號","121.711716666667","24.9425333333333","6502000","坪林區"
"244007","080-UY","2018/06/02 18:29:36","新北市林口區湖子36-1號","121.386331666667","25.0939683333333","6501700","林口區"
"244019","403-UM","2018/06/02 18:29:26","新北市林口區忠孝路646巷9號","121.379078333333","25.0676066666667","6501700","林口區"
"244013","742-UY","2018/06/02 18:29:25","新北市林口區中山路258-1號","121.385181666667","25.0797983333333","6501700","林口區"
"244009","410-SL","2018/06/02 18:29:31","新北市林口區民生路164號","121.379618333333","25.08792","6501700","林口區"
"244023","483-VK","2018/06/02 18:29:33","新北市林口區仁愛路二段106巷10號","121.383383333333","25.075255","6501700","林口區"
"244017","485-VK","2018/06/02 18:29:35","新北市林口區公園路37號","121.367118333333","25.068065","6501700","林口區"
"244011","657-BX","2018/06/02 18:29:43","新北市林口區仁愛路一段272巷24號","121.39318","25.076385","6501700","林口區"
"244025","837-TS","2018/06/02 18:29:30","新北市林口區南勢四街196巷17號","121.356905","25.073045","6501700","林口區"
"244021","838-TS","2018/06/02 18:29:27","新北市林口區自強二街58號","121.399458333333","25.0769383333333","6501700","林口區"
"243012","646-TV","2018/06/02 18:29:37","新北市泰山區忠孝街12號","121.427786666667","25.0647066666667","6501600","泰山區"
"222002","016-RS","2018/06/02 18:29:30","新北市深坑區雲鄉路182號","121.622256666667","24.99836","6501800","深坑區"
"222003","436-BY","2018/06/02 18:29:35","新北市深坑區烏月路141號","121.631006666667","25.0054133333333","6501800","深坑區"
"231044","001-UM","2018/06/02 18:29:31","新北市新店區安華路28-1號","121.51944","24.9608933333333","6500600","新店區"
"231041","002-UM","2018/06/02 18:29:22","新北市新店區安華路28-1號","121.519713333333","24.9607433333333","6500600","新店區"
"231059","046-UY","2018/06/02 18:29:41","新北市新店區安華路28-1號","121.51958","24.9607933333333","6500600","新店區"
"231040","047-UY","2018/06/02 18:29:29","新北市新店區安華路28-1號","121.519191666667","24.9609433333333","6500600","新店區"
"231052","108-UY","2018/06/02 18:29:44","新北市新店區新烏路一段50-2號","121.545591666667","24.949145","6500600","新店區"
"231048","187-VK","2018/06/02 18:29:42","新北市新店區安一路一段1-1號","121.519625","24.9612566666667","6500600","新店區"
"231046","188-VK","2018/06/02 18:29:42","新北市新店區直潭七街60號","121.532271666667","24.9398183333333","6500600","新店區"
"231054","KEA-2219","2018/06/02 18:29:37","新北市新店區安華路28-1號","121.519995","24.9610433333333","6500600","新店區"
"231057","256-BX","2018/06/02 18:29:34","新北市新店區北宜路一段121號","121.540381666667","24.953975","6500600","新店區"
"231042","268-BY","2018/06/02 18:29:36","新北市新店區安華路28-1號","121.519365","24.9605766666667","6500600","新店區"
"231051","278-BY","2018/06/02 18:28:36","新北市新店區柴埕路60巷34號","121.50723","24.9699233333333","6500600","新店區"
"231050","AAD-862","2018/06/02 18:29:36","新北市新店區安華路28-1號","121.520086666667","24.96103","6500600","新店區"
"231058","3713-VJ","2018/06/02 18:29:30","新北市新店區新店後街49號","121.537398333333","24.9547566666667","6500600","新店區"
"231066","4716-K9","2018/06/02 18:29:29","新北市新店區安一路一段1-1號","121.519248333333","24.96132","6500600","新店區"
"231056","4715-K9","2018/06/02 18:29:25","新北市新店區中正路418巷5號","121.53476","24.97849","6500600","新店區"
"231067","4772-VM","2018/06/02 18:29:23","新北市新店區安華路28-1號","121.519278333333","24.9606683333333","6500600","新店區"
"231065","512-UM","2018/06/02 18:29:35","新北市新店區安一路一段1-1號","121.519228333333","24.9612816666667","6500600","新店區"
"231049","513-UM","2018/06/02 18:29:39","新北市新店區安一路一段1-1號","121.519758333333","24.96118","6500600","新店區"
"231045","617-UM","2018/06/02 18:29:28","新北市新店區安華路28-1號","121.519416666667","24.960915","6500600","新店區"
"231061","619-UM","2018/06/02 18:29:37","新北市新店區安華路28-1號","121.519591666667","24.96083","6500600","新店區"
"231063","641-BX","2018/06/02 18:29:45","新北市新店區安華路28-1號","121.519486666667","24.9605716666667","6500600","新店區"
"231064","719-UY","2018/06/02 18:29:38","新北市新店區安華路28-1號","121.519695","24.9605133333333","6500600","新店區"
"231062","720-UM","2018/06/02 18:29:32","新北市新店區安一路一段1-1號","121.519341666667","24.9612466666667","6500600","新店區"
"231060","897-TW","2018/06/02 18:29:25","新北市新店區安華路28-1號","121.519763333333","24.9607083333333","6500600","新店區"
"231043","899-TW","2018/06/02 18:29:41","新北市新店區安華路28-1號","121.519123333333","24.96094","6500600","新店區"
"231055","AKT-0513","2018/06/02 18:29:29","新北市新店區中正路228號","121.539963333333","24.972795","6500600","新店區"
"241018","268-UM","2018/06/02 18:29:28","新北市三重區安慶街226-1號","121.492705","25.068185","6500200","三重區"
"235064","005-UY","2018/06/02 18:29:33","新北市中和區連城路139巷49號","121.496718333333","24.9974583333333","6500300","中和區"
"235063","006-UY","2018/06/02 18:29:36","新北市中和區連城路347巷16弄29號","121.487501666667","24.9950466666667","6500300","中和區"
"235056","096-UM","2018/06/02 18:29:28","新北市板橋區三民路二段220巷19號","121.477975","25.0113616666667","6500300","中和區"
"235039","097-UM","2018/06/02 18:29:21","新北市中和區安平路192號","121.513178333333","24.9992766666667","6500300","中和區"
"235065","098-UM","2018/06/02 18:29:33","新北市中和區莊敬路49巷20弄26號","121.503088333333","25.0054366666667","6500300","中和區"
"235040","150-BY","2018/06/02 18:29:43","新北市中和區安平路38號","121.509883333333","24.99505","6500300","中和區"
"235058","151-BY","2018/06/02 18:29:27","新北市中和區圓通路369巷30弄6號","121.488883333333","24.9845216666667","6500300","中和區"
"235055","183-VK","2018/06/02 18:29:38","新北市中和區莒光路122號","121.472491666667","25.0018316666667","6500300","中和區"
"235038","185-VK","2018/06/02 18:29:41","新北市中和區立人街14巷26號","121.519515","24.99545","6500300","中和區"
"235049","186-VK","2018/06/02 18:29:34","新北市中和區景安路117號","121.50577","24.9963683333333","6500300","中和區"
"235067","255-BX","2018/06/02 18:29:34","新北市中和區新生街46號","121.483196666667","25.0032716666667","6500300","中和區"
"235044","293-VK","2018/06/02 18:29:24","新北市中和區中興街152號","121.499858333333","24.9919833333333","6500300","中和區"
"235072","301-VK","2018/06/02 18:29:29","新北市中和區連城路103號","121.496423333333","24.9997566666667","6500300","中和區"
"235043","352-BY","2018/06/02 18:29:26","新北市中和區景平路259巷8號","121.508206666667","24.9927183333333","6500300","中和區"
"235054","269-TV","2018/06/02 18:29:28","新北市中和區民享街87號","121.474448333333","25.0015683333333","6500300","中和區"
"235050","4979-A6","2018/06/02 18:29:32","新北市中和區景新街410巷18弄11號","121.511905","24.9895533333333","6500300","中和區"
"235069","4980-A6","2018/06/02 18:29:30","新北市中和區連城路127巷19號","121.49671","24.9982416666667","6500300","中和區"
"235042","551-UM","2018/06/02 18:29:28","新北市中和區秀朗路三段150巷2號","121.524131666667","24.9910233333333","6500300","中和區"
"235070","558-UM","2018/06/02 18:29:29","新北市中和區景平路429-3號","121.501303333333","24.99561","6500300","中和區"
"235045","565-BX","2018/06/02 18:29:36","新北市中和區南山路236巷24弄21號","121.50491","24.9890083333333","6500300","中和區"
"235060","647-TV","2018/06/02 18:29:35","新北市中和區員山路437號","121.48074","25.0038483333333","6500300","中和區"
"235046","733-UM","2018/06/02 18:29:39","新北市中和區南山路291號","121.504425","24.992075","6500300","中和區"
"235062","800-TS","2018/06/02 18:29:32","新北市中和區福美路301巷8弄10號","121.49678","25.0045083333333","6500300","中和區"
"235057","801-TS","2018/06/02 18:29:42","新北市中和區民安街180號","121.476338333333","24.9999116666667","6500300","中和區"
"235041","802-TS","2018/06/02 18:29:36","新北市中和區景安路46號","121.506905","24.99811","6500300","中和區"
"235052","805-TS","2018/06/02 18:29:40","新北市中和區興南路二段108號","121.504746666667","24.984","6500300","中和區"
"235048","896-TW","2018/06/02 18:29:44","新北市中和區中正路79號","121.500825","24.9934283333333","6500300","中和區"
"235053","900-TW","2018/06/02 18:29:24","新北市中和區莒光路211-41號","121.470136666667","24.99288","6500300","中和區"
"235066","911-UM","2018/06/02 18:29:26","新北市中和區中山路二段113號","121.5031","25.003665","6500300","中和區"
"235051","157-BY","2018/06/02 18:29:33","新北市中和區興南路二段142巷16號","121.502898333333","24.9841633333333","6500300","中和區"
"235037","AAC-213","2018/06/02 18:29:30","新北市中和區景德街103號","121.515625","24.9911916666667","6500300","中和區"
"220065","072-UY","2018/06/02 18:29:31","新北市板橋區南雅南路二段1-1號","121.454936666667","25.0039316666667","6500100","板橋區"
"220086","073-UY","2018/06/02 18:29:30","新北市板橋區南雅南路二段140號","121.451728333333","24.9962983333333","6500100","板橋區"
"226004","312-R5","2018/06/02 18:29:29","新北市平溪區石底里石筍尖3號","121.73644","25.025735","6502400","平溪區"
"235047","251-BX","2018/06/02 18:29:38","新北市中和區南山路300號","121.507896666667","24.9871416666667","6500300","中和區"
"228003","097-TW","2018/06/02 18:29:29","新北市貢寮區和美里和美街38號","121.912163333333","25.0888583333333","6502600","貢寮區"
"228001","212-TW","2018/06/02 18:29:35","新北市貢寮區仁理村仁和路120號","121.922961666667","25.051085","6502600","貢寮區"
"228002","585-TW","2018/06/02 18:29:22","新北市貢寮區福連里福連街7號","121.989201666667","25.0141133333333","6502600","貢寮區"
"224010","AGQ-8101","2018/06/02 18:02:27","新北市瑞芳區烏勢巷145號","121.847741666667","25.10897","6501200","瑞芳區"
"224006","676-BX","2018/06/02 18:29:35","新北市瑞芳區明燈路三段3號","121.808908333333","25.1074333333333","6501200","瑞芳區"
"224002","639-TC","2018/06/02 18:29:44","新北市瑞芳區正貿新村22號","121.813293333333","25.1057083333333","6501200","瑞芳區"
"224008","285-BY","2018/06/02 18:29:24","新北市瑞芳區逢甲路204號","121.806851666667","25.1102216666667","6501200","瑞芳區"
"224007","275-VK","2018/06/02 18:29:41","新北市瑞芳區大埔路67巷3-1號","121.764443333333","25.101535","6501200","瑞芳區"
"224009","273-VK","2018/06/02 18:29:39","新北市瑞芳區五號路49號","121.854993333333","25.110905","6501200","瑞芳區"
"224005","271-BY","2018/06/02 18:29:32","新北市瑞芳區台電新村26-2號","121.814046666667","25.1292683333333","6501200","瑞芳區"
"227002","642-TC","2018/06/02 18:29:29","新北市雙溪區魚行里坤溪22號","121.870346666667","25.0289583333333","6502500","雙溪區"
"227010","400-TW","2018/06/02 18:29:36","新北市雙溪區牡丹里牡丹135號","121.851108333333","25.0591183333333","6502500","雙溪區"
"253005","032-BX","2018/06/02 18:29:24","新北市石門區老崩山7號","121.553321666667","25.2914133333333","6502200","石門區"
"253006","295-VK","2018/06/02 18:29:31","新北市石門區公地16號","121.545698333333","25.2902616666667","6502200","石門區"
"222001","KEA-2212","2018/06/02 18:29:37","新北市深坑區北深路一段199號","121.630623333333","25.0092266666667","6501800","深坑區"
"208002","KEA-2872","2018/06/02 18:29:38","新北市金山區民生路51巷13號","121.642365","25.2211466666667","6502700","金山區"
"208003","665-BX","2018/06/02 18:29:31","新北市金山區中山路170號","121.638418333333","25.2211233333333","6502700","金山區"
"208001","761-BX","2018/06/02 18:29:31","新北市金山區溫泉路21巷1號","121.63779","25.2228566666667","6502700","金山區"
"251004","009-UM","2018/06/02 18:29:33","新北市淡水區民族路33巷12號","121.462881666667","25.1363533333333","6501000","淡水區"
"251005","010-UM","2018/06/02 18:29:45","新北市淡水區中正東路37號","121.446215","25.168405","6501000","淡水區"
"251001","011-UM","2018/06/02 18:29:31","新北市淡水區自強路373號","121.464596666667","25.1332916666667","6501000","淡水區"
"251002","012-UM","2018/06/02 18:29:25","新北市淡水區竿蓁二街19巷32號","121.452871666667","25.1641633333333","6501000","淡水區"
"251013","KEA-2871","2018/06/02 18:29:31","新北市淡水區椿子林20號","121.480038333333","25.203755","6501000","淡水區"
"251016","179-VK","2018/06/02 18:29:33","新北市淡水區下圭柔山115-7號","121.446431666667","25.2096866666667","6501000","淡水區"
"251014","180-VK","2018/06/02 18:29:43","新北市淡水區南平26-1號","121.493956666667","25.2147216666667","6501000","淡水區"
"251015","182-VK","2018/06/02 18:29:39","新北市淡水區興福寮88巷216號","121.485973333333","25.166655","6501000","淡水區"
"251010","413-VK","2018/06/02 18:29:29","新北市淡水區沙崙路181巷2-2號","121.424176666667","25.1841166666667","6501000","淡水區"
"251012","443-VK","2018/06/02 18:29:43","新北市淡水區北新路一段175號","121.459448333333","25.1822566666667","6501000","淡水區"
"251006","561-UM","2018/06/02 18:29:40","新北市淡水區中山北路一段151號","121.442988333333","25.177495","6501000","淡水區"
"251008","575-R6","2018/06/02 18:29:35","新北市淡水區北投子83-1號","121.468836666667","25.181025","6501000","淡水區"
"251011","650-BX","2018/06/02 18:29:27","新北市淡水區中正東路一段9巷1號","121.451136666667","25.163955","6501000","淡水區"
"251003","673-BX","2018/06/02 18:29:30","新北市淡水區北新路169巷35-1號","121.4495","25.1802216666667","6501000","淡水區"
"207003","550-UM","2018/06/02 18:29:40","新北市萬里區野柳里港東路72號","121.687896666667","25.2046833333333","6502800","萬里區"
"207004","225-TW","2018/06/02 18:29:41","新北市萬里區萬里里瑪鋉路190號","121.68917","25.1800016666667","6502800","萬里區"
"252002","178-VK","2018/06/02 18:29:37","新北市三芝區中山路二段41號","121.502896666667","25.25503","6502100","三芝區"
"252003","249-BX","2018/06/02 18:29:42","新北市三芝區後厝里北勢子45-33號","121.47041","25.2515016666667","6502100","三芝區"
"252001","292-VK","2018/06/02 18:29:25","新北市三芝區中興街二段12號","121.498606666667","25.2564383333333","6502100","三芝區"
"237004","KEA-2597","2018/06/02 18:29:32","新北市三峽區五寮65號","121.360243333333","24.8596716666667","6500900","三峽區"
"237007","153-BY","2018/06/02 18:29:27","新北市三峽區柑樹路2巷98號","121.361733333333","24.9042683333333","6500900","三峽區"
"237009","210-TH","2018/06/02 18:29:26","新北市三峽區大同路206-3號","121.367251666667","24.926805","6500900","三峽區"
"237013","252-BX","2018/06/02 18:29:32","新北市三峽區光明路69巷25號","121.376693333333","24.9292016666667","6500900","三峽區"
"237012","275-BY","2018/06/02 18:29:40","新北市三峽區三樹路168巷19號","121.379321666667","24.9407533333333","6500900","三峽區"
"237008","302-VK","2018/06/02 18:29:35","新北市三峽區白雞127號","121.393583333333","24.9095183333333","6500900","三峽區"
"237014","433-BY","2018/06/02 18:29:40","新北市三峽區復興路179-2號","121.369513333333","24.9387766666667","6500900","三峽區"
"237006","5529-G3","2018/06/02 18:29:35","新北市三峽區溪東路473巷3號","121.413838333333","24.9282933333333","6500900","三峽區"
"237016","649-BX","2018/06/02 18:29:31","新北市三峽區竹崙路149號","121.434163333333","24.90799","6500900","三峽區"
"237010","706-TV","2018/06/02 18:29:37","新北市三峽區復興路449號","121.362613333333","24.9385316666667","6500900","三峽區"
"237005","AKY-6261","2018/06/02 18:29:35","新北市三峽區清水街319號","121.372311666667","24.9342816666667","6500900","三峽區"
"236070","105-UM","2018/06/02 18:29:28","新北市土城區永豐路255巷23弄2號","121.475313333333","24.9732366666667","6501300","土城區"
"236042","107-UM","2018/06/02 18:29:33","新北市土城區裕民路67巷13號","121.44991","24.98846","6501300","土城區"
"236030","253-BX","2018/06/02 18:29:42","新北市土城區水源街81巷8號","121.43942","24.9762566666667","6501300","土城區"
"236026","269-VK","2018/06/02 18:29:36","新北市土城區南天母路135巷34號","121.448788333333","24.9543883333333","6501300","土城區"
"236014","270-VK","2018/06/02 18:29:40","新北市土城區立清街69號","121.46037","24.9873383333333","6501300","土城區"
"236038","271-VK","2018/06/02 18:29:34","新北市土城區青雲路453號","121.458753333333","24.9745833333333","6501300","土城區"
"236021","401-BY","2018/06/02 18:29:41","新北市土城區永豐路202巷14號","121.466316666667","24.9834183333333","6501300","土城區"
"236079","752-BX","2018/06/02 18:29:44","新北市土城區大暖路61-2號","121.422061666667","24.9582283333333","6501300","土城區"
"236059","912-UM","2018/06/02 18:29:26","新北市土城區中央路四段183號","121.414941666667","24.9567333333333","6501300","土城區"
"236049","913-UM","2018/06/02 18:29:33","新北市土城區青雲路364號","121.458643333333","24.9740233333333","6501300","土城區"
"236063","915-UM","2018/06/02 18:29:39","新北市中和區民享街466號","121.469281666667","24.9926283333333","6501300","土城區"
"236055","AAC-216","2018/06/02 18:29:41","新北市土城區中華路一段243-8號","121.44115","24.9821383333333","6501300","土城區"
"242034","AAC-296","2018/06/02 18:29:35","新北市新莊區福海街24巷7號","121.445815","25.0341883333333","6500500","新莊區"
"242058","986-R7","2018/06/02 18:29:28","新北市新莊區中正路895-27號","121.412088333333","25.02199","6500500","新莊區"
"242053","751-BX","2018/06/02 18:29:23","新北市新莊區民安西路405號","121.429748333333","25.0095683333333","6500500","新莊區"
"242025","613-BX","2018/06/02 18:29:34","新北市新莊區中原路660號","121.442865","25.0546083333333","6500500","新莊區"
"242042","566-BX","2018/06/02 18:29:37","新北市新莊區天祥街72巷11號","121.416196666667","25.0299483333333","6500500","新莊區"
"242046","497-BY","2018/06/02 18:29:32","新北市新莊區中正路803巷39號","121.422073333333","25.0278383333333","6500500","新莊區"
"242044","400-BY","2018/06/02 18:29:38","新北市新莊區中正路新旺巷1號","121.41584","25.0236733333333","6500500","新莊區"
"242009","132-UY","2018/06/02 18:29:26","新北市新莊區昌盛街15號","121.453231666667","25.0500483333333","6500500","新莊區"
"242051","349-TH","2018/06/02 18:29:40","新北市新莊區環漢路三段528巷6-1號","121.43443","25.0019866666667","6500500","新莊區"
"238015","755-BX","2018/06/02 18:29:37","新北市樹林區啟智街139號","121.416988333333","24.9882533333333","6500700","樹林區"
"238023","601-UM","2018/06/02 18:29:30","新北市樹林區三福街114號","121.406485","25.0163316666667","6500700","樹林區"
"238018","571-TV","2018/06/02 18:29:35","新北市樹林區博愛街8號","121.427701666667","24.993145","6500700","樹林區"
"238024","5061-A6","2018/06/02 18:29:28","新北市樹林區中山路一段376-3號","121.418663333333","24.98561","6500700","樹林區"
"238025","303-VK","2018/06/02 18:29:34","新北市樹林區中山路二段209號","121.403123333333","24.97664","6500700","樹林區"
"238017","283-BY","2018/06/02 18:29:30","新北市樹林區保安街二段215號","121.413108333333","25.0040433333333","6500700","樹林區"
"238014","282-BY","2018/06/02 18:29:27","新北市樹林區大安路111巷41號","121.423333333333","24.9976666666667","6500700","樹林區"
"238020","268-VK","2018/06/02 18:29:27","新北市樹林區中正路642巷19號","121.411466666667","25.0175366666667","6500700","樹林區"
"238026","172-UY","2018/06/02 18:29:27","新北市樹林區八德街624號","121.397056666667","24.9697266666667","6500700","樹林區"
"238016","169-UY","2018/06/02 18:28:10","新北市樹林區日新街172巷10號","121.419696666667","24.9883066666667","6500700","樹林區"
"239006","891-R6","2018/06/02 18:29:27","新北市鶯歌區鶯桃路296巷46號","121.335628333333","24.961325","6500800","鶯歌區"
"239008","527-UM","2018/06/02 18:29:26","新北市鶯歌區國際一路179號","121.336261666667","24.9765016666667","6500800","鶯歌區"
"239005","526-UM","2018/06/02 18:29:27","新北市鶯歌區鶯桃路668巷1號","121.328843333333","24.969675","6500800","鶯歌區"
"239001","417-VK","2018/06/02 18:29:37","新北市鶯歌區國中街178號","121.338228333333","24.939285","6500800","鶯歌區"
"239003","360-BY","2018/06/02 18:29:36","新北市鶯歌區鶯桃路518號","121.331668333333","24.96658","6500800","鶯歌區"
"239002","359-BY","2018/06/02 18:29:40","新北市鶯歌區中正一路159號","121.35261","24.9563933333333","6500800","鶯歌區"
"239004","193-VK","2018/06/02 18:29:24","新北市鶯歌區尖山路275號","121.341238333333","24.9437466666667","6500800","鶯歌區"
"221036","130-UY","2018/06/02 18:29:43","新北市汐止區南昌街27號","121.663251666667","25.06917","6501100","汐止區"
"221015","131-UY","2018/06/02 18:29:33","新北市汐止區吉祥街26號","121.667771666667","25.08108","6501100","汐止區"
"221010","269-BY","2018/06/02 18:29:36","新北市汐止區汐萬路三段252巷6號","121.6443","25.1047716666667","6501100","汐止區"
"221012","278-VK","2018/06/02 18:29:45","新北市汐止區保長路51巷3號","121.67345","25.0788783333333","6501100","汐止區"
"221023","279-VK","2018/06/02 18:29:31","新北市汐止區康寧街543號","121.634253333333","25.069145","6501100","汐止區"
"221032","280-BY","2018/06/02 18:29:34","新北市汐止區民權街二段109巷4弄1號","121.619008333333","25.0468783333333","6501100","汐止區"
"221027","281-BY","2018/06/02 18:28:55","新北市汐止區和平街62號","121.661991666667","25.0709083333333","6501100","汐止區"
"221029","298-VK","2018/06/02 18:29:26","新北市汐止區樟樹二路330巷72號","121.642941666667","25.0700166666667","6501100","汐止區"
"221021","299-VK","2018/06/02 18:29:33","新北市汐止區復興路78號","121.65722","25.0619283333333","6501100","汐止區"
"221031","353-TW","2018/06/02 18:29:31","新北市汐止區新台五路一段35號","121.636351666667","25.0561683333333","6501100","汐止區"
"221008","129-UY","2018/06/02 18:19:33","新北市汐止區康寧街901號","121.651553333333","25.0750416666667","6501100","汐止區"
"221035","622-UM","2018/06/02 18:29:43","新北市汐止區大同路二段270號","121.654695","25.06616","6501100","汐止區"
"221025","623-UM","2018/06/02 18:29:38","新北市汐止區仁愛路122巷14號","121.663293333333","25.0633283333333","6501100","汐止區"
"221038","646-BX","2018/06/02 18:29:24","新北市汐止區忠孝東路206號","121.661851666667","25.0663783333333","6501100","汐止區"
"221033","647-BX","2018/06/02 18:29:37","新北市汐止區宜興街50巷1號","121.622506666667","25.0423933333333","6501100","汐止區"
"221002","707-TV","2018/06/02 18:29:31","新北市汐止區福德一路146號","121.636608333333","25.0669533333333","6501100","汐止區"
"221018","753-BX","2018/06/02 18:29:45","新北市汐止區茄苳路228號","121.671018333333","25.0685833333333","6501100","汐止區"
"220079","145-BY","2018/06/02 18:29:36","新北市板橋區華東街1-10號","121.448311666667","24.995025","6500100","板橋區"
"242002","KEA-2550","2018/06/02 18:29:36","新北市新莊區中正路461號","121.442356666667","25.03374","6500500","新莊區"
"220082","610-BX","2018/06/02 18:29:40","新北市板橋區華東街1-10號","121.448276666667","24.994895","6500100","板橋區"
"220071","283-VK","2018/06/02 18:29:46","新北市板橋區華東街1-9號","121.448066666667","24.9949233333333","6500100","板橋區"
"220084","296-UM","2018/06/02 18:29:34","新北市板橋區華東街1-9號","121.448138333333","24.9949933333333","6500100","板橋區"
"220075","303-R5","2018/06/02 18:29:35","新北市板橋區華東街1-10號","121.448223333333","24.99498","6500100","板橋區"
"220064","486-VK","2018/06/02 18:29:29","新北市板橋區華東街1-10號","121.448385","24.99503","6500100","板橋區"
"220035","560-BX","2018/06/02 18:29:26","新北市板橋區南雅南路二段20號","121.45449","25.0033433333333","6500100","板橋區"
"220074","895-R6","2018/06/02 18:29:28","新北市板橋區華東街1-10號","121.448671666667","24.99509","6500100","板橋區"
"220073","985-R7","2018/06/02 18:29:32","新北市板橋區華東街1-10號","121.448338333333","24.9950483333333","6500100","板橋區"
"235068","KEA-2873","2018/06/02 18:29:37","新北市中和區圓通路230號","121.495173333333","24.9929216666667","6500300","中和區"
"235061","KEA-2875","2018/06/02 18:29:45","新北市中和區民享街93號","121.474661666667","25.0006133333333","6500300","中和區"
