"lineid","car","time","location","longitude","latitude","cityid","cityname"
"234046","148-BY","2018/06/02 18:49:34","新北市永和區秀朗路二段149號","121.524815","25.0015966666667","6500400","永和區"
"234007","207-UY","2018/06/02 18:49:26","新北市永和區文化路123號","121.512168333333","25.0153366666667","6500400","永和區"
"234081","298-R6","2018/06/02 18:49:33","新北市永和區永利路138號","121.521995","25.002825","6500400","永和區"
"234038","336-UY","2018/06/02 18:49:28","新北市永和區福和路7巷5弄7號","121.525645","25.0082016666667","6500400","永和區"
"234064","337-UY","2018/06/02 18:49:34","新北市永和區豫溪街217巷7號","121.525236666667","25.0100233333333","6500400","永和區"
"234086","338-UY","2018/06/02 18:49:39","新北市永和區中正路63號","121.514795","24.9965683333333","6500400","永和區"
"234017","745-BX","2018/06/02 18:49:43","新北市永和區永和路二段405巷3號","121.515358333333","25.0172233333333","6500400","永和區"
"234030","746-BX","2018/06/02 18:49:40","新北市永和區得和路321號","121.5234","24.9995766666667","6500400","永和區"
"234054","KEA-2590","2018/06/02 18:49:27","新北市永和區竹林路64號","121.518245","25.0134933333333","6500400","永和區"
"234013","KEA-2591","2018/06/02 18:49:42","新北市永和區仁愛路202巷38號","121.508921666667","25.0131883333333","6500400","永和區"
"234061","AAD-866","2018/06/02 18:49:40","新北市永和區福和路303號","121.516366666667","25.0071616666667","6500400","永和區"
"234042","862-TW","2018/06/02 18:49:27","新北市永和區永貞路310號","121.511858333333","25.0049533333333","6500400","永和區"
"234050","863-TW","2018/06/02 18:49:30","新北市永和區福和路1號","121.525861666667","25.009715","6500400","永和區"
"234011","9373-KE","2018/06/02 18:49:43","新北市永和區文化路124號","121.513113333333","25.0153933333333","6500400","永和區"
"249005","172-UM","2018/06/02 18:49:33","新北市八里區長道坑17號","121.396421666667","25.115595","6502300","八里區"
"249001","173-UM","2018/06/02 18:49:23","新北市八里區龍米路二段58號","121.448265","25.1408733333333","6502300","八里區"
"249004","303-UY","2018/06/02 18:49:43","新北市八里區中山路一段268巷2號","121.414616666667","25.1598183333333","6502300","八里區"
"248016","026-BX","2018/06/02 18:49:37","新北市五股區凌雲路一段133巷36號","121.4487","25.1009766666667","6501500","五股區"
"248006","077-UY","2018/06/02 18:49:31","新北市五股區中興路二段83巷26-6號","121.459931666667","25.0753316666667","6501500","五股區"
"248008","095-VK","2018/06/02 18:49:30","新北市五股區中興路一段126號","121.465551666667","25.0736033333333","6501500","五股區"
"248020","225-UY","2018/06/02 18:49:30","新北市五股區凌雲路三段41-1號","121.43087","25.1182216666667","6501500","五股區"
"248012","247-BX","2018/06/02 18:49:38","新北市五股區成泰路二段147巷6號","121.437578333333","25.0892133333333","6501500","五股區"
"248014","261-SL","2018/06/02 18:49:27","新北市五股區成泰路二段252號","121.44061","25.0872233333333","6501500","五股區"
"248010","272-BY","2018/06/02 18:49:39","新北市五股區水碓三路42號","121.431611666667","25.0721916666667","6501500","五股區"
"248004","677-BX","2018/06/02 18:49:36","新北市五股區民義路二段52-16號","121.409023333333","25.1056983333333","6501500","五股區"
"248002","678-BX","2018/06/02 18:49:32","新北市五股區成泰路三段437號","121.449808333333","25.0979383333333","6501500","五股區"
"234023","9380-KE","2018/06/02 18:49:32","新北市永和區竹林路119巷22弄51號","121.522738333333","25.011255","6500400","永和區"
"234077","969-R7","2018/06/02 18:49:23","新北市永和區中正路42巷14號","121.51353","24.9940866666667","6500400","永和區"
"234067","AAC-212","2018/06/02 18:49:28","新北市中和區永貞路248號","121.514211666667","25.0035433333333","6500400","永和區"
"234003","AAC-295","2018/06/02 18:49:30","新北市永和區中正路716號","121.515956666667","25.01007","6500400","永和區"
"232011","375-UM","2018/06/02 18:49:23","新北市坪林區坪雙路一段5號","121.711238333333","24.9397666666667","6502000","坪林區"
"244007","080-UY","2018/06/02 18:49:36","新北市林口區後湖60-1號","121.384826666667","25.10794","6501700","林口區"
"244019","403-UM","2018/06/02 18:49:26","新北市林口區麗園二街87號","121.382688333333","25.0667916666667","6501700","林口區"
"244013","742-UY","2018/06/02 18:49:45","新北市林口區文化一路二段68號","121.381028333333","25.0780333333333","6501700","林口區"
"244009","410-SL","2018/06/02 18:49:31","新北市林口區竹林路446巷1弄2號","121.388533333333","25.0858016666667","6501700","林口區"
"244023","483-VK","2018/06/02 18:49:33","新北市林口區文化三路二段160號","121.375776666667","25.08209","6501700","林口區"
"244017","485-VK","2018/06/02 18:49:35","新北市林口區文化二路一段269號","121.36739","25.070645","6501700","林口區"
"244011","657-BX","2018/06/02 18:49:43","新北市林口區新寮1-66號","121.392655","25.076725","6501700","林口區"
"244025","837-TS","2018/06/02 18:49:30","新北市林口區南勢二街160號","121.359115","25.0746516666667","6501700","林口區"
"244021","838-TS","2018/06/02 18:49:27","新北市林口區自強二街20號","121.397806666667","25.0779966666667","6501700","林口區"
"243013","AAD-798","2018/06/02 18:38:53","新北市泰山區明志路三段206巷3號","121.423308333333","25.03795","6501600","泰山區"
"243016","380-SR","2018/06/02 18:49:30","新北市泰山區明志路一段519號","121.430368333333","25.0541216666667","6501600","泰山區"
"243010","KEA-2216","2018/06/02 18:49:45","新北市泰山區辭修路24號","121.429028333333","25.0581733333333","6501600","泰山區"
"243012","646-TV","2018/06/02 18:49:37","新北市泰山區福興三街13號","121.434393333333","25.0578033333333","6501600","泰山區"
"222002","016-RS","2018/06/02 18:49:30","新北市深坑區文山路一段69號","121.62706","25.0019816666667","6501800","深坑區"
"222003","436-BY","2018/06/02 18:49:34","新北市深坑區翠谷街1號","121.627101666667","25.0074316666667","6501800","深坑區"
"231044","001-UM","2018/06/02 18:49:31","新北市新店區中興路二段192號","121.548365","24.9735116666667","6500600","新店區"
"231041","002-UM","2018/06/02 18:49:42","新北市新店區安一路一段1-1號","121.519695","24.9614883333333","6500600","新店區"
"231059","046-UY","2018/06/02 18:49:41","新北市新店區安華路28-1號","121.519613333333","24.960795","6500600","新店區"
"231040","047-UY","2018/06/02 18:49:29","新北市新店區環河路116號","121.537093333333","24.9672766666667","6500600","新店區"
"231052","108-UY","2018/06/02 18:49:44","新北市新店區湖子內路1-1號","121.541963333333","24.9301216666667","6500600","新店區"
"231048","187-VK","2018/06/02 18:49:42","新北市新店區北新路一段72號","121.541393333333","24.9672266666667","6500600","新店區"
"231046","188-VK","2018/06/02 18:49:43","新北市新店區直潭路37號","121.533906666667","24.9426633333333","6500600","新店區"
"231054","KEA-2219","2018/06/02 18:49:37","新北市新店區秀山路68-1號","121.531008333333","24.9609333333333","6500600","新店區"
"231042","268-BY","2018/06/02 18:49:36","新北市新店區北新路一段303號","121.54149","24.9674866666667","6500600","新店區"
"231051","278-BY","2018/06/02 18:49:35","新北市新店區中央路47號","121.532826666667","24.97742","6500600","新店區"
"231050","AAD-862","2018/06/02 18:49:36","新北市新店區安康路一段3-1號","121.535488333333","24.9609466666667","6500600","新店區"
"231058","3713-VJ","2018/06/02 18:49:30","新北市新店區中興路一段202號","121.543598333333","24.9653433333333","6500600","新店區"
"231066","4716-K9","2018/06/02 18:49:29","新北市新店區安豐路22巷4號","121.501423333333","24.9561066666667","6500600","新店區"
"231056","4715-K9","2018/06/02 18:49:45","新北市新店區大豐路68巷17號","121.538398333333","24.9803183333333","6500600","新店區"
"231067","4772-VM","2018/06/02 18:49:43","新北市新店區安康路一段281巷27號","121.523875","24.9623483333333","6500600","新店區"
"231065","512-UM","2018/06/02 18:49:35","新北市新店區車子路115-11號","121.507283333333","24.954695","6500600","新店區"
"231049","513-UM","2018/06/02 18:49:39","新北市新店區中央路183-1號","121.536186666667","24.96884","6500600","新店區"
"231045","617-UM","2018/06/02 18:49:28","新北市新店區安康路一段3-1號","121.535376666667","24.96092","6500600","新店區"
"231061","619-UM","2018/06/02 18:49:37","新北市新店區安華路28-1號","121.51933","24.9607483333333","6500600","新店區"
"231063","641-BX","2018/06/02 18:49:25","新北市新店區安華路28-1號","121.519501666667","24.9605666666667","6500600","新店區"
"231064","719-UY","2018/06/02 18:49:38","新北市新店區安華路28-1號","121.519883333333","24.960465","6500600","新店區"
"231062","720-UM","2018/06/02 18:49:32","新北市新店區安一路一段1-1號","121.519266666667","24.9611916666667","6500600","新店區"
"231060","897-TW","2018/06/02 18:49:25","新北市新店區安華路28-1號","121.519565","24.9608083333333","6500600","新店區"
"231043","899-TW","2018/06/02 18:49:41","新北市新店區安康路一段231號","121.525446666667","24.96315","6500600","新店區"
"231055","AKT-0513","2018/06/02 18:49:37","新北市新店區新生街13巷7號","121.539706666667","24.9660216666667","6500600","新店區"
"241018","268-UM","2018/06/02 18:49:28","新北市三重區安慶街226-2號","121.49269","25.0681533333333","6500200","三重區"
"241035","462-BY","2018/06/02 18:49:29","新北市三重區重新路四段121號","121.484883333333","25.0519816666667","6500200","三重區"
"235064","005-UY","2018/06/02 18:49:33","新北市中和區連城路75巷2-10號","121.49761","24.9993683333333","6500300","中和區"
"235063","006-UY","2018/06/02 18:49:36","新北市中和區錦和路196巷4號","121.489851666667","24.9950166666667","6500300","中和區"
"235056","096-UM","2018/06/02 18:49:28","新北市板橋區三民路二段220巷19號","121.477943333333","25.0114016666667","6500300","中和區"
"235039","097-UM","2018/06/02 18:49:41","新北市中和區宜安路52巷24號","121.512745","24.9975516666667","6500300","中和區"
"235065","098-UM","2018/06/02 18:49:32","新北市中和區中山路二段2巷45弄14號","121.501918333333","25.00689","6500300","中和區"
"235040","150-BY","2018/06/02 18:49:23","新北市中和區安平路67號","121.509976666667","24.9956233333333","6500300","中和區"
"235058","151-BY","2018/06/02 18:49:27","新北市中和區連城路532巷34弄18號","121.475213333333","24.9927616666667","6500300","中和區"
"235055","183-VK","2018/06/02 18:49:38","新北市中和區民生街59號","121.469416666667","25.0050916666667","6500300","中和區"
"235038","185-VK","2018/06/02 18:49:41","新北市中和區大勇街43巷11號","121.51713","24.9946433333333","6500300","中和區"
"235049","186-VK","2018/06/02 18:49:34","新北市中和區景安路177巷28號","121.506618333333","24.9943883333333","6500300","中和區"
"235067","255-BX","2018/06/02 18:49:34","新北市中和區中正路839巷13號","121.48417","25.0023216666667","6500300","中和區"
"235044","293-VK","2018/06/02 18:49:44","新北市中和區中興街129號","121.499956666667","24.9916116666667","6500300","中和區"
"235072","301-VK","2018/06/02 18:49:29","新北市中和區中山路二段119號","121.502791666667","25.0036083333333","6500300","中和區"
"235043","352-BY","2018/06/02 18:49:26","新北市中和區成功路139號","121.52585","24.9905783333333","6500300","中和區"
"235054","269-TV","2018/06/02 18:49:28","新北市中和區民享街60巷1號","121.473856666667","25.002125","6500300","中和區"
"235050","4979-A6","2018/06/02 18:49:32","新北市中和區忠孝街62巷7弄11號","121.51254","24.98366","6500300","中和區"
"235069","4980-A6","2018/06/02 18:49:30","新北市中和區連城路65巷1號","121.497803333333","25.001205","6500300","中和區"
"235042","551-UM","2018/06/02 18:49:28","新北市中和區成功路70號","121.525948333333","24.9919366666667","6500300","中和區"
"235070","558-UM","2018/06/02 18:49:29","新北市中和區南山路6號","121.502015","24.9986866666667","6500300","中和區"
"235045","565-BX","2018/06/02 18:49:36","新北市中和區捷運路125號","121.50725","24.990695","6500300","中和區"
"235060","647-TV","2018/06/02 18:49:35","新北市中和區中山路三段171號","121.473095","25.0062366666667","6500300","中和區"
"235046","733-UM","2018/06/02 18:49:39","新北市中和區仁愛街36巷55號","121.511425","24.9863733333333","6500300","中和區"
"235062","800-TS","2018/06/02 18:49:32","新北市中和區中山路二段328-3號","121.495043333333","25.00246","6500300","中和區"
"235057","801-TS","2018/06/02 18:49:42","新北市中和區民安街42巷32號","121.479175","25.0011166666667","6500300","中和區"
"235041","802-TS","2018/06/02 18:49:36","新北市中和區中安街202-1號","121.51183","24.998925","6500300","中和區"
"235052","805-TS","2018/06/02 18:49:40","新北市中和區興南路二段399巷98弄11號","121.500001666667","24.9774033333333","6500300","中和區"
"235048","896-TW","2018/06/02 18:49:24","新北市中和區華新街2-6號","121.507466666667","24.9851333333333","6500300","中和區"
"235053","900-TW","2018/06/02 18:49:24","新北市中和區民德路290巷40號","121.46652","24.9960233333333","6500300","中和區"
"235066","911-UM","2018/06/02 18:49:46","新北市中和區水源路18巷4號","121.503991666667","25.0032216666667","6500300","中和區"
"235051","157-BY","2018/06/02 18:49:33","新北市中和區忠孝街106巷45號","121.51375","24.9843083333333","6500300","中和區"
"235037","AAC-213","2018/06/02 18:49:30","新北市中和區秀朗路三段128巷13號","121.524476666667","24.9934083333333","6500300","中和區"
"235059","AAC-215","2018/06/02 18:49:26","新北市中和區圓通路393巷18號","121.489873333333","24.9885816666667","6500300","中和區"
"220065","072-UY","2018/06/02 18:49:31","新北市板橋區民族路247巷5弄42號","121.470235","25.008485","6500100","板橋區"
"220086","073-UY","2018/06/02 18:49:30","新北市板橋區大智街40-2號","121.454911666667","25.015215","6500100","板橋區"
"220106","075-UY","2018/06/02 18:49:25","新北市板橋區民生路二段120號","121.470298333333","25.0197383333333","6500100","板橋區"
"220069","AAD-861","2018/06/02 18:49:40","新北市板橋區大華街28號","121.459003333333","25.0059333333333","6500100","板橋區"
"226004","312-R5","2018/06/02 18:49:29","新北市平溪區靜安路二段532號","121.746556666667","25.0279716666667","6502400","平溪區"
"235047","251-BX","2018/06/02 18:49:38","新北市中和區興南路二段34巷57弄2號","121.504948333333","24.9857666666667","6500300","中和區"
"228003","097-TW","2018/06/02 18:49:29","新北市貢寮區和美里龍洞街63-7號","121.91798","25.1190933333333","6502600","貢寮區"
"228001","212-TW","2018/06/02 18:49:35","新北市貢寮區仁理村研海街12-1號","121.92385","25.0516883333333","6502600","貢寮區"
"228002","585-TW","2018/06/02 18:49:42","新北市貢寮區福隆里東興街6-11號","121.950736666667","25.0210816666667","6502600","貢寮區"
"224010","AGQ-8101","2018/06/02 18:47:27","新北市瑞芳區烏勢巷145號","121.847925","25.1090983333333","6501200","瑞芳區"
"224006","676-BX","2018/06/02 18:49:35","新北市瑞芳區中正路91號","121.805195","25.1076783333333","6501200","瑞芳區"
"224002","639-TC","2018/06/02 18:49:44","新北市瑞芳區傑魚坑路311-1號","121.794623333333","25.10747","6501200","瑞芳區"
"224008","285-BY","2018/06/02 18:49:44","新北市瑞芳區逢甲路284號","121.803608333333","25.111585","6501200","瑞芳區"
"224007","275-VK","2018/06/02 18:49:41","新北市瑞芳區大埔路慶安新村44-1號","121.762805","25.1001833333333","6501200","瑞芳區"
"224009","273-VK","2018/06/02 18:49:38","新北市瑞芳區祈堂路53-1號","121.859566666667","25.1104666666667","6501200","瑞芳區"
"224005","271-BY","2018/06/02 18:49:32","新北市瑞芳區濱二路41-2號","121.833001666667","25.1164333333333","6501200","瑞芳區"
"227002","642-TC","2018/06/02 18:49:29","新北市雙溪區平林里梅竹蹊28號","121.861646666667","25.0360516666667","6502500","雙溪區"
"227010","400-TW","2018/06/02 18:49:36","新北市雙溪區牡丹里聖南8號","121.859223333333","25.0523333333333","6502500","雙溪區"
"253005","032-BX","2018/06/02 18:49:44","新北市石門區中山路15號","121.566033333333","25.2903666666667","6502200","石門區"
"253006","295-VK","2018/06/02 18:49:31","新北市石門區下員坑16號","121.511076666667","25.2835466666667","6502200","石門區"
"222001","KEA-2212","2018/06/02 18:49:37","新北市深坑區松柏街30巷1號","121.63875","25.0112916666667","6501800","深坑區"
"208002","KEA-2872","2018/06/02 18:49:38","新北市金山區信義路62號","121.635716666667","25.2189583333333","6502700","金山區"
"208003","665-BX","2018/06/02 18:49:31","新北市金山區中山路342號","121.633483333333","25.2253016666667","6502700","金山區"
"208001","761-BX","2018/06/02 18:49:31","新北市金山區文化三路66巷1號","121.634143333333","25.225615","6502700","金山區"
"251009","008-UM","2018/06/02 18:49:33","新北市淡水區重建街178號","121.440858333333","25.17409","6501000","淡水區"
"251001","011-UM","2018/06/02 18:49:39","新北市淡水區自強路108-17號","121.461696666667","25.131005","6501000","淡水區"
"251002","012-UM","2018/06/02 18:49:25","新北市淡水區學府路71號","121.448405","25.169885","6501000","淡水區"
"251013","KEA-2871","2018/06/02 18:49:31","新北市淡水區頂田寮路769號","121.479453333333","25.2149933333333","6501000","淡水區"
"251016","179-VK","2018/06/02 18:49:33","新北市淡水區下圭柔山72號","121.445961666667","25.20476","6501000","淡水區"
"251014","180-VK","2018/06/02 18:49:41","新北市淡水區崙頂2-5號","121.49208","25.224","6501000","淡水區"
"251015","182-VK","2018/06/02 18:49:39","新北市淡水區糞箕湖20號","121.485621666667","25.1710533333333","6501000","淡水區"
"251010","413-VK","2018/06/02 18:49:29","新北市淡水區沙崙路20號","121.421205","25.18114","6501000","淡水區"
"251007","442-VK","2018/06/02 18:49:33","新北市淡水區中正東路二段143巷2弄5號","121.460695","25.1469566666667","6501000","淡水區"
"251012","443-VK","2018/06/02 18:49:35","新北市淡水區新興街13號","121.44328","25.1804866666667","6501000","淡水區"
"251011","650-BX","2018/06/02 18:49:27","新北市淡水區鄧公路30巷2弄25號","121.453198333333","25.1691516666667","6501000","淡水區"
"251003","673-BX","2018/06/02 18:49:30","新北市淡水區中山北路一段186巷27弄1-1號","121.446138333333","25.1787483333333","6501000","淡水區"
"207003","550-UM","2018/06/02 18:49:24","新北市萬里區野柳里八斗60號","121.659278333333","25.2077433333333","6502800","萬里區"
"207004","225-TW","2018/06/02 18:49:41","新北市萬里區萬里里獅頭路23號","121.693231666667","25.1782566666667","6502800","萬里區"
"252002","178-VK","2018/06/02 18:49:37","新北市三芝區中正路一段112號","121.504853333333","25.2564033333333","6502100","三芝區"
"252003","249-BX","2018/06/02 18:49:41","新北市三芝區後厝里大片頭74號","121.459416666667","25.2462683333333","6502100","三芝區"
"252001","292-VK","2018/06/02 18:49:25","新北市三芝區中正路三段9號","121.502978333333","25.2538216666667","6502100","三芝區"
"237004","KEA-2597","2018/06/02 18:49:32","新北市三峽區有木2-2號","121.419163333333","24.8661266666667","6500900","三峽區"
"237007","153-BY","2018/06/02 18:49:28","新北市三峽區中正路二段83巷11號","121.367161666667","24.9178233333333","6500900","三峽區"
"237009","210-TH","2018/06/02 18:49:26","新北市三峽區仁愛街31號","121.368466666667","24.933375","6500900","三峽區"
"237013","252-BX","2018/06/02 18:49:32","新北市三峽區光明路69巷25號","121.37673","24.9291483333333","6500900","三峽區"
"237012","275-BY","2018/06/02 18:49:40","新北市三峽區三樹路358號","121.38398","24.9434283333333","6500900","三峽區"
"237008","302-VK","2018/06/02 18:49:35","新北市三峽區正義街100號","121.368671666667","24.9171983333333","6500900","三峽區"
"237014","433-BY","2018/06/02 18:49:40","新北市三峽區隆恩街162號","121.365046666667","24.9431416666667","6500900","三峽區"
"237006","5529-G3","2018/06/02 18:49:35","新北市三峽區溪東路211巷18弄1-1號","121.406358333333","24.934285","6500900","三峽區"
"237011","KEA-2596","2018/06/02 18:49:43","新北市三峽區介壽路三段260巷1號","121.407301666667","24.9490283333333","6500900","三峽區"
"237016","649-BX","2018/06/02 18:49:31","新北市三峽區安坑1-3號","121.434441666667","24.9243266666667","6500900","三峽區"
"237010","706-TV","2018/06/02 18:49:37","新北市三峽區國光街40號","121.374766666667","24.9378033333333","6500900","三峽區"
"237005","AKY-6261","2018/06/02 18:49:34","新北市三峽區中山路459巷163-3號","121.349093333333","24.93341","6500900","三峽區"
"236070","105-UM","2018/06/02 18:49:24","新北市土城區立德路105號","121.463728333333","24.98761","6501300","土城區"
"236042","107-UM","2018/06/02 18:49:45","新北市土城區裕民路92巷25弄8號","121.449751666667","24.985795","6501300","土城區"
"236030","253-BX","2018/06/02 18:49:42","新北市土城區忠義路36巷24號","121.439631666667","24.9695133333333","6501300","土城區"
"236026","269-VK","2018/06/02 18:49:35","新北市土城區興城路60號","121.441353333333","24.9723933333333","6501300","土城區"
"236014","270-VK","2018/06/02 18:49:19","新北市土城區金城路二段354巷20號","121.46076","24.98412","6501300","土城區"
"236038","271-VK","2018/06/02 18:49:34","新北市土城區明德路一段221巷13號","121.463776666667","24.9781133333333","6501300","土城區"
"236021","401-BY","2018/06/02 18:49:41","新北市土城區延吉街194號","121.46769","24.9851966666667","6501300","土城區"
"236079","752-BX","2018/06/02 18:49:24","新北市土城區中央路四段67巷30號","121.417785","24.9572433333333","6501300","土城區"
"236059","912-UM","2018/06/02 18:49:26","新北市土城區忠義路48巷1號","121.440198333333","24.969165","6501300","土城區"
"236049","913-UM","2018/06/02 18:49:33","新北市土城區青雲路8-2號","121.460151666667","24.98908","6501300","土城區"
"236063","915-UM","2018/06/02 18:49:39","新北市土城區金城路三段161號","121.468965","24.9884933333333","6501300","土城區"
"236055","AAC-216","2018/06/02 18:49:41","新北市土城區學府路一段169號","121.452831666667","24.98546","6501300","土城區"
"238023","601-UM","2018/06/02 18:49:30","桃園市龜山區萬壽路一段253號","121.404226666667","25.01744","6500700","樹林區"
"238019","599-UM","2018/06/02 18:49:32","新北市樹林區東陽街3號","121.412753333333","24.9822316666667","6500700","樹林區"
"238018","571-TV","2018/06/02 18:49:35","新北市樹林區鎮前街111號","121.424461666667","24.989925","6500700","樹林區"
"238024","5061-A6","2018/06/02 18:49:28","新北市樹林區中山路三段204號","121.387341666667","24.9684283333333","6500700","樹林區"
"238021","KEA-2539","2018/06/02 18:49:35","新北市樹林區西圳街二段56號","121.387036666667","24.9597616666667","6500700","樹林區"
"238025","303-VK","2018/06/02 18:49:34","新北市樹林區中山路三段22號","121.39555","24.97293","6500700","樹林區"
"238017","283-BY","2018/06/02 18:49:30","新北市樹林區光興街44號","121.409923333333","25.002875","6500700","樹林區"
"238014","282-BY","2018/06/02 18:49:39","新北市樹林區潭興街143巷18號","121.425165","24.999985","6500700","樹林區"
"238020","268-VK","2018/06/02 18:49:26","新北市樹林區俊英街280號","121.423846666667","25.0131233333333","6500700","樹林區"
"238026","172-UY","2018/06/02 18:49:27","新北市樹林區信和街120號","121.38776","24.9733966666667","6500700","樹林區"
"238016","169-UY","2018/06/02 18:49:41","新北市樹林區文化街28號","121.41941","24.9877633333333","6500700","樹林區"
"239006","891-R6","2018/06/02 18:49:27","新北市鶯歌區鶯桃路294-1號","121.334948333333","24.9603333333333","6500800","鶯歌區"
"239008","527-UM","2018/06/02 18:49:35","新北市鶯歌區國際二路48號","121.335755","24.9758016666667","6500800","鶯歌區"
"239005","526-UM","2018/06/02 18:49:27","新北市鶯歌區鳳吉一街22號","121.325613333333","24.9734533333333","6500800","鶯歌區"
"239001","417-VK","2018/06/02 18:49:37","新北市鶯歌區鶯桃路21號","121.343773333333","24.95045","6500800","鶯歌區"
"239003","360-BY","2018/06/02 18:49:36","新北市鶯歌區鶯桃路658巷49-2號","121.330868333333","24.9703116666667","6500800","鶯歌區"
"239002","359-BY","2018/06/02 18:49:40","新北市鶯歌區中山路286-1號","121.344048333333","24.957055","6500800","鶯歌區"
"239004","193-VK","2018/06/02 18:49:30","新北市鶯歌區中正三路192號","121.332786666667","24.9383083333333","6500800","鶯歌區"
"221036","130-UY","2018/06/02 18:49:43","新北市汐止區忠孝東路312號","121.664471666667","25.06899","6501100","汐止區"
"221015","131-UY","2018/06/02 18:49:33","新北市汐止區大同路二段713號","121.665146666667","25.0733416666667","6501100","汐止區"
"221010","269-BY","2018/06/02 18:49:36","新北市汐止區汐萬路一段256巷3號","121.652308333333","25.074665","6501100","汐止區"
"221012","278-VK","2018/06/02 18:49:32","新北市汐止區汐萬路一段256巷3號","121.652456666667","25.0745883333333","6501100","汐止區"
"221023","279-VK","2018/06/02 18:49:27","新北市汐止區康寧街901號","121.650963333333","25.07522","6501100","汐止區"
"221032","280-BY","2018/06/02 18:49:34","新北市汐止區橫科路322巷24弄6-1號","121.620461666667","25.050285","6501100","汐止區"
"221027","281-BY","2018/06/02 18:49:35","新北市汐止區康寧街901號","121.651468333333","25.074965","6501100","汐止區"
"221029","298-VK","2018/06/02 18:49:26","新北市汐止區工建路62號","121.640616666667","25.0628983333333","6501100","汐止區"
"221021","299-VK","2018/06/02 18:49:33","新北市汐止區汐萬路一段256巷3號","121.652676666667","25.0745083333333","6501100","汐止區"
"221031","353-TW","2018/06/02 18:49:31","新北市汐止區福德二路187巷10號","121.630198333333","25.0647083333333","6501100","汐止區"
"221035","622-UM","2018/06/02 18:49:43","新北市汐止區康寧街901號","121.651123333333","25.07519","6501100","汐止區"
"221025","623-UM","2018/06/02 18:49:38","新北市汐止區仁愛路34號","121.660445","25.0628066666667","6501100","汐止區"
"221038","646-BX","2018/06/02 18:49:44","新北市汐止區康寧街901號","121.650756666667","25.0753416666667","6501100","汐止區"
"221002","707-TV","2018/06/02 18:49:31","新北市汐止區環河街207號","121.626588333333","25.0551383333333","6501100","汐止區"
"221018","753-BX","2018/06/02 18:49:25","新北市汐止區茄苳路28號","121.665105","25.0707083333333","6501100","汐止區"
"220079","145-BY","2018/06/02 18:49:36","新北市板橋區民權路202巷2弄1號","121.459556666667","25.0141916666667","6500100","板橋區"
"220080","200-UY","2018/06/02 18:49:30","新北市板橋區大觀路二段265巷60弄20號","121.441836666667","24.99799","6500100","板橋區"
"220082","610-BX","2018/06/02 18:49:40","新北市板橋區篤行路三段79-1號","121.427163333333","24.9853283333333","6500100","板橋區"
"220101","245-BX","2018/06/02 18:49:37","新北市板橋區民生路二段120號","121.470603333333","25.0197066666667","6500100","板橋區"
"220103","257-TC","2018/06/02 18:49:39","新北市板橋區民生路二段120號","121.470543333333","25.0197766666667","6500100","板橋區"
"220093","267-BY","2018/06/02 18:49:33","新北市板橋區民生路二段161巷1號","121.470046666667","25.0201066666667","6500100","板橋區"
"220056","276-BY","2018/06/02 18:49:40","新北市板橋區信義路53號","121.457038333333","24.9958033333333","6500100","板橋區"
"220072","277-BY","2018/06/02 18:49:34","新北市板橋區大觀路三段57號","121.433685","24.995445","6500100","板橋區"
"220071","283-VK","2018/06/02 18:49:42","新北市板橋區重慶路245巷67弄2號","121.465653333333","25.0012316666667","6500100","板橋區"
"220094","285-UM","2018/06/02 18:49:28","新北市板橋區民生路二段161巷1號","121.470148333333","25.0198666666667","6500100","板橋區"
"220083","286-VK","2018/06/02 18:49:41","新北市板橋區僑中一街70號","121.447488333333","25.0114266666667","6500100","板橋區"
"220081","287-VK","2018/06/02 18:49:42","新北市板橋區光華街13巷25號","121.45324","25.01126","6500100","板橋區"
"220090","288-VK","2018/06/02 18:49:26","新北市板橋區民生路二段120號","121.470508333333","25.0197233333333","6500100","板橋區"
"220061","293-UM","2018/06/02 18:49:38","新北市板橋區民生路二段123號","121.470663333333","25.0186733333333","6500100","板橋區"
"220084","296-UM","2018/06/02 18:49:37","新北市板橋區大觀路二段150巷22號","121.441771666667","24.9995116666667","6500100","板橋區"
"220075","303-R5","2018/06/02 18:49:35","新北市板橋區南雅東路88號","121.453855","25.0075933333333","6500100","板橋區"
"220062","305-R5","2018/06/02 18:49:27","新北市板橋區中山路二段25號","121.47251","25.015295","6500100","板橋區"
"220092","307-R5","2018/06/02 18:49:36","新北市板橋區民生路二段120號","121.470488333333","25.0197733333333","6500100","板橋區"
"220098","317-R6","2018/06/02 18:49:29","新北市板橋區民生路二段120號","121.47058","25.0199333333333","6500100","板橋區"
"220064","486-VK","2018/06/02 18:49:43","新北市板橋區中山路二段50-1號","121.473135","25.0154883333333","6500100","板橋區"
"220088","491-VK","2018/06/02 18:49:45","新北市板橋區民生路二段171號","121.469893333333","25.0201883333333","6500100","板橋區"
"220035","560-BX","2018/06/02 18:49:26","新北市板橋區中正路325巷30-2號","121.453025","25.0187066666667","6500100","板橋區"
"220063","609-BX","2018/06/02 18:49:32","新北市板橋區民生路二段121號","121.470875","25.01838","6500100","板橋區"
"220057","686-BX","2018/06/02 18:49:19","新北市板橋區館前西路19號","121.458716666667","25.007005","6500100","板橋區"
"220077","687-BX","2018/06/02 18:49:42","新北市板橋區龍興街97巷2號","121.444188333333","25.0026333333333","6500100","板橋區"
"220054","741-BX","2018/06/02 18:49:39","新北市板橋區四川路一段2號","121.459375","25.0070666666667","6500100","板橋區"
"220102","KEA-2699","2018/06/02 18:49:29","新北市板橋區民生路二段120號","121.470308333333","25.0198133333333","6500100","板橋區"
"220070","806-UM","2018/06/02 18:49:27","新北市板橋區館前西路7號","121.459068333333","25.0070616666667","6500100","板橋區"
"220055","827-TW","2018/06/02 18:49:35","新北市板橋區縣民大道一段314號","121.461038333333","25.0102183333333","6500100","板橋區"
"220067","829-TW","2018/06/02 18:49:40","新北市板橋區中山路二段90巷47弄2號","121.476695","25.014685","6500100","板橋區"
"220068","830-TW","2018/06/02 18:49:35","新北市板橋區富山街7巷2號","121.478428333333","25.0217266666667","6500100","板橋區"
"220089","833-TW","2018/06/02 18:49:31","新北市板橋區民生路二段161巷1號","121.470011666667","25.0201","6500100","板橋區"
"220074","895-R6","2018/06/02 18:49:28","新北市板橋區館前西路269號","121.453505","25.0086916666667","6500100","板橋區"
"220073","985-R7","2018/06/02 18:49:32","新北市板橋區林園街7-1號","121.454026666667","25.009235","6500100","板橋區"
"235068","KEA-2873","2018/06/02 18:49:37","新北市中和區中正路211巷36弄4號","121.497168333333","24.9927666666667","6500300","中和區"
"235061","KEA-2875","2018/06/02 18:49:14","新北市中和區民享街44巷16號","121.473441666667","25.0026916666667","6500300","中和區"
