"lineid","car","time","location","longitude","latitude","cityid","cityname"
"234046","148-BY","2018/06/02 18:59:34","新北市永和區秀朗路二段126巷30號","121.524496666667","25.0007833333333","6500400","永和區"
"234007","207-UY","2018/06/02 18:59:26","新北市永和區永和路二段59號","121.514743333333","25.010975","6500400","永和區"
"234081","298-R6","2018/06/02 18:59:44","新北市永和區永貞路39巷13號","121.522391666667","25.0064016666667","6500400","永和區"
"234038","336-UY","2018/06/02 18:59:28","新北市永和區成功路二段207號","121.526565","24.995915","6500400","永和區"
"234064","337-UY","2018/06/02 18:59:34","新北市永和區秀朗路一段205號","121.519113333333","25.00333","6500400","永和區"
"234086","338-UY","2018/06/02 18:59:42","新北市永和區永寧街125號","121.518093333333","25.0054883333333","6500400","永和區"
"234070","552-UM","2018/06/02 18:59:42","新北市永和區竹林路124巷32號","121.518186666667","25.01153","6500400","永和區"
"234017","745-BX","2018/06/02 18:59:24","新北市永和區永和路二段299號","121.516105","25.0160883333333","6500400","永和區"
"234030","746-BX","2018/06/02 18:59:41","新北市永和區秀朗路二段289號","121.526168333333","24.99807","6500400","永和區"
"234054","KEA-2590","2018/06/02 18:59:27","新北市永和區竹林路64號","121.518306666667","25.0134183333333","6500400","永和區"
"234013","KEA-2591","2018/06/02 18:59:28","新北市永和區中山路一段60巷8號","121.513113333333","25.011065","6500400","永和區"
"234061","AAD-866","2018/06/02 18:59:40","新北市永和區福和路313號","121.516171666667","25.00712","6500400","永和區"
"234042","862-TW","2018/06/02 18:59:27","新北市永和區永貞路271號","121.511655","25.004955","6500400","永和區"
"234050","863-TW","2018/06/02 18:59:30","新北市永和區文化路194號","121.510806666667","25.01636","6500400","永和區"
"234026","9371-KE","2018/06/02 18:59:35","新北市永和區安樂路467號","121.514245","25.0054883333333","6500400","永和區"
"234011","9373-KE","2018/06/02 18:59:43","新北市永和區永和路二段425巷75弄5號","121.51346","25.0170633333333","6500400","永和區"
"249005","172-UM","2018/06/02 18:59:37","新北市八里區長道坑6號","121.397703333333","25.1235883333333","6502300","八里區"
"249001","173-UM","2018/06/02 18:59:44","新北市八里區龍米路二段222號","121.432946666667","25.15844","6502300","八里區"
"249004","303-UY","2018/06/02 18:59:43","新北市八里區博物館路15號","121.415221666667","25.1635583333333","6502300","八里區"
"248016","026-BX","2018/06/02 18:59:37","新北市五股區成泰路三段543巷29號","121.450251666667","25.1026666666667","6501500","五股區"
"248006","077-UY","2018/06/02 18:59:31","新北市五股區中興路一段24號","121.46873","25.072395","6501500","五股區"
"248008","095-VK","2018/06/02 18:59:30","新北市五股區中興路一段118巷6弄4號","121.466271666667","25.074135","6501500","五股區"
"248020","225-UY","2018/06/02 18:56:09","新北市五股區凌雲路三段57號","121.425301666667","25.125005","6501500","五股區"
"248012","247-BX","2018/06/02 18:59:38","新北市五股區工商路38號","121.439441666667","25.083785","6501500","五股區"
"248010","272-BY","2018/06/02 18:59:39","新北市五股區水碓七路38號","121.429263333333","25.0717283333333","6501500","五股區"
"248004","677-BX","2018/06/02 18:59:36","新北市五股區民義路一段312-1號","121.423428333333","25.0946683333333","6501500","五股區"
"248002","678-BX","2018/06/02 18:59:32","新北市五股區凌雲路一段118號","121.450058333333","25.1018616666667","6501500","五股區"
"234023","9380-KE","2018/06/02 18:59:32","新北市永和區竹林路91巷60弄2-1號","121.521673333333","25.0129083333333","6500400","永和區"
"234077","969-R7","2018/06/02 18:59:24","新北市永和區中正路314號","121.517858333333","24.9993316666667","6500400","永和區"
"234074","AAC-211","2018/06/02 18:59:40","新北市永和區環河東路二段98號","121.524123333333","25.010355","6500400","永和區"
"234067","AAC-212","2018/06/02 18:59:28","新北市永和區永和路一段22號","121.513026666667","25.00488","6500400","永和區"
"234003","AAC-295","2018/06/02 18:59:30","新北市永和區和平街28號","121.513441666667","25.0099316666667","6500400","永和區"
"232011","375-UM","2018/06/02 18:59:43","新北市坪林區水柳腳1號","121.71163","24.93525","6502000","坪林區"
"244007","080-UY","2018/06/02 18:59:36","新北市林口區太平里20-1號","121.377551666667","25.1157666666667","6501700","林口區"
"244019","403-UM","2018/06/02 18:59:46","新北市林口區麗園二街1巷5-2號","121.377621666667","25.0700533333333","6501700","林口區"
"244013","742-UY","2018/06/02 18:59:24","新北市林口區麗園一街6巷4號","121.375616666667","25.0701816666667","6501700","林口區"
"244009","410-SL","2018/06/02 18:59:31","新北市林口區林口路54號","121.390413333333","25.0790316666667","6501700","林口區"
"244023","483-VK","2018/06/02 18:59:33","新北市林口區民權路24號","121.371678333333","25.0805233333333","6501700","林口區"
"244017","485-VK","2018/06/02 18:59:35","新北市林口區文化二路一段68巷12-2號","121.366163333333","25.0680666666667","6501700","林口區"
"244011","657-BX","2018/06/02 18:59:23","新北市林口區粉寮路一段50號","121.39663","25.0769366666667","6501700","林口區"
"244025","837-TS","2018/06/02 18:59:30","新北市林口區文化北路一段400-1號","121.363823333333","25.0756316666667","6501700","林口區"
"243013","AAD-798","2018/06/02 18:59:38","新北市泰山區明志路三段257號","121.423298333333","25.0373283333333","6501600","泰山區"
"243009","297-R6","2018/06/02 18:59:38","新北市泰山區泰林路二段353號","121.428396666667","25.0636633333333","6501600","泰山區"
"243016","380-SR","2018/06/02 18:59:30","新北市泰山區明志路二段135號","121.427653333333","25.0507683333333","6501600","泰山區"
"243015","421-VK","2018/06/02 18:59:42","新北市泰山區明志路一段193號","121.432781666667","25.06167","6501600","泰山區"
"243010","KEA-2216","2018/06/02 18:59:25","新北市泰山區辭修路24號","121.429033333333","25.058185","6501600","泰山區"
"243012","646-TV","2018/06/02 18:59:37","新北市泰山區泰林路二段73巷31號","121.434366666667","25.05782","6501600","泰山區"
"243014","680-BX","2018/06/02 18:59:40","新北市泰山區黎明路3號","121.421128333333","25.0632816666667","6501600","泰山區"
"222002","016-RS","2018/06/02 18:59:30","新北市深坑區文山路一段31巷2號","121.629941666667","25.0032866666667","6501800","深坑區"
"222003","436-BY","2018/06/02 18:59:35","新北市深坑區深南路51-1號","121.621345","25.01017","6501800","深坑區"
"231044","001-UM","2018/06/02 18:59:35","新北市新店區寶中路72號","121.547946666667","24.98068","6500600","新店區"
"231041","002-UM","2018/06/02 18:59:42","新北市新店區環河路78號","121.537075","24.9632516666667","6500600","新店區"
"231059","046-UY","2018/06/02 18:59:41","新北市新店區安華路28-1號","121.519648333333","24.9608333333333","6500600","新店區"
"231040","047-UY","2018/06/02 18:59:29","新北市新店區中正路434號","121.53433","24.97824","6500600","新店區"
"231052","108-UY","2018/06/02 18:59:24","新北市新店區櫻花街15號","121.547061666667","24.9267383333333","6500600","新店區"
"231048","187-VK","2018/06/02 18:59:42","新北市新店區德正街23巷12-1號","121.544653333333","24.9722466666667","6500600","新店區"
"231046","188-VK","2018/06/02 18:59:42","新北市新店區直潭五街28號","121.534161666667","24.9415216666667","6500600","新店區"
"231054","KEA-2219","2018/06/02 18:59:37","新北市新店區新店路13號","121.540285","24.9528683333333","6500600","新店區"
"231042","268-BY","2018/06/02 18:59:36","新北市新店區五峰路60號","121.545765","24.9682233333333","6500600","新店區"
"231051","278-BY","2018/06/02 18:59:35","新北市新店區百忍街22號","121.534315","24.975745","6500600","新店區"
"231050","AAD-862","2018/06/02 18:59:36","新北市新店區北宜路二段30巷5弄1號","121.548275","24.95077","6500600","新店區"
"231058","3713-VJ","2018/06/02 18:59:30","新北市新店區光明街96巷1號","121.539215","24.9600766666667","6500600","新店區"
"231066","4716-K9","2018/06/02 18:59:29","新北市新店區安祥路30-1號","121.49323","24.95607","6500600","新店區"
"231056","4715-K9","2018/06/02 18:59:25","新北市新店區大豐路56號","121.53973","24.9798566666667","6500600","新店區"
"231067","4772-VM","2018/06/02 18:59:43","新北市新店區安康路一段207巷6弄12號","121.525148333333","24.9627983333333","6500600","新店區"
"231065","512-UM","2018/06/02 18:59:35","新北市新店區安祥路156巷47號","121.474241666667","24.95496","6500600","新店區"
"231049","513-UM","2018/06/02 18:59:40","新北市新店區中正路454-5號","121.534526666667","24.9789983333333","6500600","新店區"
"231045","617-UM","2018/06/02 18:59:28","新北市新店區光明街1-1號","121.538185","24.95919","6500600","新店區"
"231061","619-UM","2018/06/02 18:59:37","新北市新店區安華路30巷1號","121.519138333333","24.95932","6500600","新店區"
"231063","641-BX","2018/06/02 18:59:25","新北市新店區安華路30巷1號","121.519426666667","24.9596833333333","6500600","新店區"
"231064","719-UY","2018/06/02 18:59:38","新北市新店區安華路28-1號","121.519855","24.96052","6500600","新店區"
"231062","720-UM","2018/06/02 18:59:32","新北市新店區安康路二段330號","121.50444","24.9578983333333","6500600","新店區"
"231060","897-TW","2018/06/02 18:59:25","新北市新店區安忠路102-1號","121.510345","24.9556566666667","6500600","新店區"
"231043","899-TW","2018/06/02 18:59:41","新北市新店區北新路二段1號","121.542676666667","24.9712266666667","6500600","新店區"
"231055","AKT-0513","2018/06/02 18:59:29","新北市新店區中央一街16號","121.528301666667","24.972745","6500600","新店區"
"241018","268-UM","2018/06/02 18:59:28","新北市三重區安慶街226-2號","121.492675","25.0681883333333","6500200","三重區"
"241035","462-BY","2018/06/02 18:59:29","新北市三重區重新路四段121號","121.484868333333","25.0519383333333","6500200","三重區"
"241029","942-UM","2018/06/02 18:59:36","新北市三重區重安街14號","121.490165","25.058175","6500200","三重區"
"235064","005-UY","2018/06/02 18:59:33","新北市中和區泰和街25號","121.49935","25.0000366666667","6500300","中和區"
"235063","006-UY","2018/06/02 18:59:36","新北市中和區中正路526號","121.487965","24.9944216666667","6500300","中和區"
"235056","096-UM","2018/06/02 18:59:28","新北市中和區員山路466巷17弄8號","121.48056","25.0072633333333","6500300","中和區"
"235039","097-UM","2018/06/02 18:59:41","新北市中和區立人街14巷34號","121.519366666667","24.9955383333333","6500300","中和區"
"235065","098-UM","2018/06/02 18:59:32","新北市中和區福祥路136號","121.498916666667","25.0068116666667","6500300","中和區"
"235040","150-BY","2018/06/02 18:59:43","新北市中和區安樂路101號","121.513168333333","24.9950883333333","6500300","中和區"
"235058","151-BY","2018/06/02 18:59:27","新北市中和區員山路109號","121.480868333333","24.9947216666667","6500300","中和區"
"235055","183-VK","2018/06/02 18:59:38","新北市中和區民德路25巷3號","121.46924","25.0027966666667","6500300","中和區"
"235038","185-VK","2018/06/02 18:59:41","新北市中和區大勇街48號","121.517525","24.9939783333333","6500300","中和區"
"235049","186-VK","2018/06/02 18:59:34","新北市中和區明仁街10號","121.50604","24.99547","6500300","中和區"
"235067","255-BX","2018/06/02 18:59:34","新北市中和區新生街195號","121.483888333333","25.0001516666667","6500300","中和區"
"235044","293-VK","2018/06/02 18:59:24","新北市中和區中興街161巷7弄2號","121.50116","24.990945","6500300","中和區"
"235072","301-VK","2018/06/02 18:59:29","新北市中和區景平路723號","121.496426666667","25.0040066666667","6500300","中和區"
"235043","352-BY","2018/06/02 18:59:47","新北市中和區秀朗路三段107號","121.526441666667","24.9945683333333","6500300","中和區"
"235054","269-TV","2018/06/02 18:59:28","新北市中和區民享街2巷2號","121.473825","25.00581","6500300","中和區"
"235050","4979-A6","2018/06/02 18:59:32","新北市中和區華新街50巷7號","121.507663333333","24.9838583333333","6500300","中和區"
"235069","4980-A6","2018/06/02 18:59:30","新北市中和區南山路52巷22號","121.501291666667","24.99732","6500300","中和區"
"235042","551-UM","2018/06/02 18:59:28","新北市中和區秀朗路三段78巷4弄1號","121.525591666667","24.9939533333333","6500300","中和區"
"235070","558-UM","2018/06/02 18:59:29","新北市中和區安和路165號","121.50622","24.9976533333333","6500300","中和區"
"235045","565-BX","2018/06/02 18:59:36","新北市中和區景新街467巷32弄10號","121.51432","24.9880966666667","6500300","中和區"
"235060","647-TV","2018/06/02 18:59:35","新北市中和區民治街3巷1號","121.475001666667","25.0053333333333","6500300","中和區"
"235046","733-UM","2018/06/02 18:59:39","新北市中和區興南路二段3巷11號","121.508193333333","24.986265","6500300","中和區"
"235062","800-TS","2018/06/02 18:59:33","新北市中和區中山路二段434號","121.489505","25.00412","6500300","中和區"
"235057","801-TS","2018/06/02 18:59:42","新北市中和區民安街65巷5號","121.478821666667","24.9993266666667","6500300","中和區"
"235041","802-TS","2018/06/02 18:59:36","新北市中和區宜安路127號","121.509841666667","24.9980883333333","6500300","中和區"
"235052","805-TS","2018/06/02 18:59:40","新北市中和區興南路二段347號","121.500091666667","24.98009","6500300","中和區"
"235048","896-TW","2018/06/02 18:59:24","新北市中和區華新街109巷16號","121.50873","24.981","6500300","中和區"
"235053","900-TW","2018/06/02 18:59:44","新北市中和區民德路384號","121.465528333333","24.99419","6500300","中和區"
"235066","911-UM","2018/06/02 18:59:26","新北市中和區中山路二段131巷5弄9號","121.502956666667","25.0030283333333","6500300","中和區"
"235051","157-BY","2018/06/02 18:59:33","新北市中和區忠孝街31巷25-1號","121.510056666667","24.9836483333333","6500300","中和區"
"235037","AAC-213","2018/06/02 18:59:30","新北市中和區秀朗路三段10巷14弄41-5號","121.524148333333","24.9964133333333","6500300","中和區"
"235059","AAC-215","2018/06/02 18:59:26","新北市中和區圓通路367巷20弄23號","121.491446666667","24.9882716666667","6500300","中和區"
"220065","072-UY","2018/06/02 18:59:31","新北市板橋區民族路287巷10號","121.471175","25.0071116666667","6500100","板橋區"
"220086","073-UY","2018/06/02 18:59:30","新北市板橋區中正路250巷36號","121.456913333333","25.0194583333333","6500100","板橋區"
"220106","075-UY","2018/06/02 18:59:44","新北市板橋區文化路二段124巷28-2號","121.471225","25.0256","6500100","板橋區"
"220069","AAD-861","2018/06/02 18:59:43","新北市板橋區東興街48號","121.458543333333","25.0058633333333","6500100","板橋區"
"226004","312-R5","2018/06/02 18:59:29","新北市平溪區十分里十分街98號","121.777133333333","25.0425316666667","6502400","平溪區"
"235047","251-BX","2018/06/02 18:59:38","新北市中和區興南路二段32巷5號","121.507025","24.9855","6500300","中和區"
"228003","097-TW","2018/06/02 18:59:29","新北市貢寮區和美里龍洞街56-2號","121.912136666667","25.1139366666667","6502600","貢寮區"
"228001","212-TW","2018/06/02 18:59:35","新北市貢寮區仁理村研海街12-1號","121.923865","25.0517","6502600","貢寮區"
"228002","585-TW","2018/06/02 18:59:42","新北市貢寮區福隆里東興街104號","121.945953333333","25.017265","6502600","貢寮區"
"224010","AGQ-8101","2018/06/02 18:58:06","新北市瑞芳區基山街2號","121.845095","25.1097866666667","6501200","瑞芳區"
"224006","676-BX","2018/06/02 18:59:32","新北市瑞芳區中正路22號","121.80833","25.1070733333333","6501200","瑞芳區"
"224002","639-TC","2018/06/02 18:59:24","新北市瑞芳區靜安路四段10號","121.795096666667","25.0850483333333","6501200","瑞芳區"
"224008","285-BY","2018/06/02 18:59:24","新北市瑞芳區逢甲路402號","121.797551666667","25.1133566666667","6501200","瑞芳區"
"224007","275-VK","2018/06/02 18:59:41","新北市瑞芳區中央路48巷吉祥園9號","121.759496666667","25.103535","6501200","瑞芳區"
"224009","273-VK","2018/06/02 18:59:38","新北市瑞芳區長仁路32號","121.866123333333","25.11795","6501200","瑞芳區"
"224005","271-BY","2018/06/02 18:59:32","新北市瑞芳區瑞芳街32-10號","121.822361666667","25.12099","6501200","瑞芳區"
"227002","642-TC","2018/06/02 18:59:29","新北市雙溪區平林里康福家園10號","121.858778333333","25.0373583333333","6502500","雙溪區"
"227010","400-TW","2018/06/02 18:59:36","新北市雙溪區牡丹里中正路58巷23號","121.866468333333","25.0416533333333","6502500","雙溪區"
"253005","032-BX","2018/06/02 18:59:24","新北市石門區中央路37-5號","121.56888","25.29603","6502200","石門區"
"253006","295-VK","2018/06/02 18:59:31","新北市石門區下員坑30-7號","121.519835","25.2822616666667","6502200","石門區"
"222001","KEA-2212","2018/06/02 18:59:37","新北市深坑區北深路一段177號","121.632536666667","25.0108783333333","6501800","深坑區"
"208002","KEA-2872","2018/06/02 18:59:38","新北市金山區信義路72號","121.635191666667","25.219585","6502700","金山區"
"208003","665-BX","2018/06/02 18:59:33","新北市金山區中正路32號","121.635431666667","25.222195","6502700","金山區"
"208001","761-BX","2018/06/02 18:59:31","新北市金山區中山路69號","121.640826666667","25.2181983333333","6502700","金山區"
"251009","008-UM","2018/06/02 18:59:33","新北市淡水區文化路15號","121.439566666667","25.1725683333333","6501000","淡水區"
"251001","011-UM","2018/06/02 18:59:31","新北市淡水區自強路58號","121.463235","25.1275433333333","6501000","淡水區"
"251002","012-UM","2018/06/02 18:59:25","新北市淡水區中正東路49號","121.446681666667","25.1679883333333","6501000","淡水區"
"251013","KEA-2871","2018/06/02 18:59:31","新北市三芝區興華里楓子林64號","121.492566666667","25.2123616666667","6501000","淡水區"
"251016","179-VK","2018/06/02 18:59:33","新北市淡水區淡金路三段331巷3號","121.448551666667","25.2061616666667","6501000","淡水區"
"251014","180-VK","2018/06/02 18:59:41","新北市淡水區小中寮22-1號","121.488956666667","25.2287433333333","6501000","淡水區"
"251015","182-VK","2018/06/02 18:59:39","新北市淡水區糞箕湖103號","121.487085","25.1727183333333","6501000","淡水區"
"251010","413-VK","2018/06/02 18:59:29","新北市淡水區淡海路85號","121.422833333333","25.1816616666667","6501000","淡水區"
"251007","442-VK","2018/06/02 18:59:33","新北市淡水區民生路113巷1弄39號","121.462971666667","25.1386366666667","6501000","淡水區"
"251011","650-BX","2018/06/02 18:59:27","新北市淡水區中正東路一段135-5號","121.456586666667","25.1588416666667","6501000","淡水區"
"251003","673-BX","2018/06/02 18:59:30","新北市淡水區中山北路一段149巷31號","121.443","25.1779383333333","6501000","淡水區"
"207003","550-UM","2018/06/02 18:59:24","新北市萬里區大鵬里頂社27號","121.656613333333","25.2107566666667","6502800","萬里區"
"207004","225-TW","2018/06/02 18:59:41","新北市萬里區萬里里獅頭路23號","121.693248333333","25.178275","6502800","萬里區"
"252002","178-VK","2018/06/02 18:59:37","新北市三芝區中正路一段72號","121.50393","25.25753","6502100","三芝區"
"252003","249-BX","2018/06/02 18:59:41","新北市三芝區後厝里北勢子42-6號","121.472403333333","25.2527366666667","6502100","三芝區"
"252001","292-VK","2018/06/02 18:59:45","新北市三芝區中興街二段260號","121.50172","25.253035","6502100","三芝區"
"237004","KEA-2597","2018/06/02 18:59:32","新北市三峽區有木145號","121.444401666667","24.8492116666667","6500900","三峽區"
"237007","153-BY","2018/06/02 18:59:27","新北市三峽區二鬮路31-1號","121.362266666667","24.9103483333333","6500900","三峽區"
"237013","252-BX","2018/06/02 18:59:32","新北市三峽區光明路69巷25號","121.376725","24.9291633333333","6500900","三峽區"
"237012","275-BY","2018/06/02 18:59:41","新北市三峽區三樹路222巷192-3號","121.388461666667","24.9423783333333","6500900","三峽區"
"237008","302-VK","2018/06/02 18:59:35","新北市三峽區中正路一段191巷9號","121.373001666667","24.9277683333333","6500900","三峽區"
"237014","433-BY","2018/06/02 18:59:40","新北市三峽區復興路480巷7-2號","121.358011666667","24.9396283333333","6500900","三峽區"
"237006","5529-G3","2018/06/02 18:59:35","新北市三峽區溪東路233巷47弄2號","121.410723333333","24.934565","6500900","三峽區"
"237011","KEA-2596","2018/06/02 18:59:23","新北市三峽區介壽路三段107號","121.395571666667","24.9402083333333","6500900","三峽區"
"237016","649-BX","2018/06/02 18:59:44","新北市三峽區安坑46-3號","121.455451666667","24.9320866666667","6500900","三峽區"
"237010","706-TV","2018/06/02 18:59:37","新北市三峽區復興路58號","121.37344","24.937095","6500900","三峽區"
"237005","AKY-6261","2018/06/02 18:59:34","新北市三峽區中山路459巷163-3號","121.348656666667","24.932925","6500900","三峽區"
"236070","105-UM","2018/06/02 18:59:44","新北市土城區明德路一段385-1號","121.4527","24.98027","6501300","土城區"
"236042","107-UM","2018/06/02 18:59:45","新北市土城區學府路一段221號","121.451403333333","24.9842733333333","6501300","土城區"
"236030","253-BX","2018/06/02 18:59:42","新北市土城區福仁街81號","121.439256666667","24.973925","6501300","土城區"
"236026","269-VK","2018/06/02 18:59:36","新北市土城區中央路二段246號","121.441943333333","24.9748433333333","6501300","土城區"
"236014","270-VK","2018/06/02 18:59:40","新北市土城區立德路105號","121.463748333333","24.9875816666667","6501300","土城區"
"236038","271-VK","2018/06/02 18:59:41","新北市土城區仁愛路38號","121.461515","24.97942","6501300","土城區"
"236021","401-BY","2018/06/02 18:59:41","新北市土城區延吉街168巷3號","121.46826","24.9855783333333","6501300","土城區"
"236079","752-BX","2018/06/02 18:59:44","新北市土城區中央路四段466號","121.40995","24.95062","6501300","土城區"
"236059","912-UM","2018/06/02 18:59:26","新北市土城區明德路一段385-1號","121.452838333333","24.9801916666667","6501300","土城區"
"236049","913-UM","2018/06/02 18:59:33","新北市土城區明德路一段280號","121.457816666667","24.977415","6501300","土城區"
"236063","915-UM","2018/06/02 18:59:40","新北市土城區延和路88巷1號","121.4666","24.98931","6501300","土城區"
"236055","AAC-216","2018/06/02 18:59:44","新北市土城區學成路124號","121.449386666667","24.9894766666667","6501300","土城區"
"238023","601-UM","2018/06/02 18:59:30","新北市樹林區工興街14巷12號","121.399503333333","25.013225","6500700","樹林區"
"238019","599-UM","2018/06/02 18:59:32","新北市樹林區東榮街180號","121.414306666667","24.9819666666667","6500700","樹林區"
"238021","KEA-2539","2018/06/02 18:59:35","新北市樹林區柑園街二段316號","121.373323333333","24.951725","6500700","樹林區"
"238025","303-VK","2018/06/02 18:59:39","新北市樹林區民和街81號","121.379366666667","24.972705","6500700","樹林區"
"238017","283-BY","2018/06/02 18:59:30","新北市樹林區光興街44號","121.409888333333","25.0028066666667","6500700","樹林區"
"238014","282-BY","2018/06/02 18:59:27","新北市樹林區中正路21號","121.42761","24.999395","6500700","樹林區"
"238020","268-VK","2018/06/02 18:59:27","新北市樹林區俊英街181號","121.423898333333","25.0122816666667","6500700","樹林區"
"238026","172-UY","2018/06/02 18:59:27","新北市樹林區中山路三段118號","121.392456666667","24.97215","6500700","樹林區"
"238016","169-UY","2018/06/02 18:59:42","新北市樹林區復興路373巷7弄16號","121.417988333333","24.9867816666667","6500700","樹林區"
"239006","891-R6","2018/06/02 18:59:27","新北市鶯歌區鶯桃路296巷109號","121.336728333333","24.9620216666667","6500800","鶯歌區"
"239008","527-UM","2018/06/02 18:59:26","新北市鶯歌區國際二路12巷27號","121.338463333333","24.9748533333333","6500800","鶯歌區"
"239005","526-UM","2018/06/02 18:59:27","新北市鶯歌區大湖路361巷12號","121.33067","24.9779516666667","6500800","鶯歌區"
"239001","417-VK","2018/06/02 18:59:37","新北市鶯歌區永明街60巷48號","121.340586666667","24.9553083333333","6500800","鶯歌區"
"239003","360-BY","2018/06/02 18:59:36","新北市鶯歌區鶯桃路442號","121.33282","24.964915","6500800","鶯歌區"
"239002","359-BY","2018/06/02 18:59:40","新北市鶯歌區中正一路303-1號","121.3561","24.9570433333333","6500800","鶯歌區"
"239004","193-VK","2018/06/02 18:59:43","新北市鶯歌區中正三路304號","121.328191666667","24.9358783333333","6500800","鶯歌區"
"221036","130-UY","2018/06/02 18:59:23","新北市汐止區汐萬路一段125號","121.654123333333","25.0711766666667","6501100","汐止區"
"221010","269-BY","2018/06/02 18:59:36","新北市汐止區康寧街901號","121.651665","25.07499","6501100","汐止區"
"221012","278-VK","2018/06/02 18:59:32","新北市汐止區康寧街901號","121.650876666667","25.075315","6501100","汐止區"
"221023","279-VK","2018/06/02 18:59:27","新北市汐止區康寧街901號","121.650991666667","25.0752333333333","6501100","汐止區"
"221032","280-BY","2018/06/02 18:59:34","新北市汐止區橫科路407巷30弄28-5號","121.627293333333","25.0484033333333","6501100","汐止區"
"221027","281-BY","2018/06/02 18:59:35","新北市汐止區康寧街901號","121.651496666667","25.0749983333333","6501100","汐止區"
"221029","298-VK","2018/06/02 18:59:26","新北市汐止區樟樹一路258號","121.642375","25.0673833333333","6501100","汐止區"
"221021","299-VK","2018/06/02 18:59:33","新北市汐止區康寧街901號","121.651448333333","25.0750383333333","6501100","汐止區"
"221031","353-TW","2018/06/02 18:59:31","新北市汐止區中興路181巷3號","121.630288333333","25.0665766666667","6501100","汐止區"
"221008","129-UY","2018/06/02 18:59:34","新北市汐止區伯爵街2巷5號","121.642245","25.075425","6501100","汐止區"
"221025","623-UM","2018/06/02 18:59:38","新北市汐止區汐萬路一段256巷3號","121.652481666667","25.0745833333333","6501100","汐止區"
"221038","646-BX","2018/06/02 18:59:24","新北市汐止區康寧街901號","121.650748333333","25.0753366666667","6501100","汐止區"
"221002","707-TV","2018/06/02 18:59:31","新北市汐止區大同路一段2號","121.620936666667","25.0550816666667","6501100","汐止區"
"220079","145-BY","2018/06/02 18:59:36","新北市板橋區民權路202巷9弄57號","121.458853333333","25.01568","6500100","板橋區"
"220080","200-UY","2018/06/02 18:59:30","新北市板橋區大觀路二段文和巷68號","121.443633333333","24.9985716666667","6500100","板橋區"
"220082","610-BX","2018/06/02 18:59:40","新北市板橋區滿平街114號","121.428405","24.9884983333333","6500100","板橋區"
"220101","245-BX","2018/06/02 18:59:38","新北市板橋區文化路二段182巷7弄3號","121.471931666667","25.0270616666667","6500100","板橋區"
"220103","257-TC","2018/06/02 18:59:39","新北市板橋區民生路二段121號","121.47071","25.018515","6500100","板橋區"
"220093","267-BY","2018/06/02 18:59:34","新北市板橋區民生路三段68-1號","121.466893333333","25.025915","6500100","板橋區"
"220056","276-BY","2018/06/02 18:59:40","新北市板橋區信義路175號","121.458978333333","24.9920133333333","6500100","板橋區"
"220072","277-BY","2018/06/02 18:59:34","新北市板橋區篤行路一段29號","121.432025","24.9945383333333","6500100","板橋區"
"220071","283-VK","2018/06/02 18:59:45","新北市板橋區忠孝路154巷21號","121.464311666667","25.0015966666667","6500100","板橋區"
"220094","285-UM","2018/06/02 18:59:28","新北市板橋區文化路二段76號","121.46944","25.0250266666667","6500100","板橋區"
"220053","285-VK","2018/06/02 18:59:39","新北市板橋區中山路二段89巷25號","121.473726666667","25.0166366666667","6500100","板橋區"
"220083","286-VK","2018/06/02 18:59:43","新北市板橋區大觀路一段38巷156弄9號","121.442435","25.0050016666667","6500100","板橋區"
"220081","287-VK","2018/06/02 18:59:42","新北市板橋區光華街19巷41號","121.4526","25.0118216666667","6500100","板橋區"
"220090","288-VK","2018/06/02 18:59:31","新北市板橋區四維路179號","121.464313333333","25.0263683333333","6500100","板橋區"
"220061","293-UM","2018/06/02 18:59:38","新北市板橋區富山街109巷69號","121.475358333333","25.0212083333333","6500100","板橋區"
"220084","296-UM","2018/06/02 18:59:33","新北市板橋區大觀路二段333號","121.441365","24.9985766666667","6500100","板橋區"
"220075","303-R5","2018/06/02 18:59:35","新北市板橋區館前西路153號","121.456208333333","25.0080216666667","6500100","板橋區"
"220062","305-R5","2018/06/02 18:59:27","新北市板橋區民享街162號","121.477536666667","25.017025","6500100","板橋區"
"220092","307-R5","2018/06/02 18:59:36","新北市板橋區文化路一段98號","121.464535","25.0180716666667","6500100","板橋區"
"220098","317-R6","2018/06/02 18:59:28","新北市板橋區民有街18號","121.466303333333","25.02501","6500100","板橋區"
"220064","486-VK","2018/06/02 18:59:39","新北市板橋區中山路一段283巷2弄25號","121.470556666667","25.01545","6500100","板橋區"
"220088","491-VK","2018/06/02 18:59:25","新北市板橋區民生路二段148號","121.471345","25.0198683333333","6500100","板橋區"
"220035","560-BX","2018/06/02 18:59:34","新北市板橋區中正路325巷27號","121.453991666667","25.019635","6500100","板橋區"
"220063","609-BX","2018/06/02 18:59:32","新北市板橋區中山路二段114號","121.475991666667","25.01674","6500100","板橋區"
"220091","637-BX","2018/06/02 18:59:26","新北市板橋區莒光路165巷32-2號","121.474211666667","25.0248116666667","6500100","板橋區"
"220057","686-BX","2018/06/02 18:59:38","新北市板橋區重慶路169號","121.46276","25.0026883333333","6500100","板橋區"
"220077","687-BX","2018/06/02 18:59:26","新北市板橋區大觀路二段293號","121.44226","24.9986916666667","6500100","板橋區"
"220054","741-BX","2018/06/02 18:59:39","新北市板橋區重慶路127巷8號","121.4631","25.0048416666667","6500100","板橋區"
"220102","KEA-2699","2018/06/02 18:59:29","新北市板橋區雙十路一段44巷36號","121.477268333333","25.0248366666667","6500100","板橋區"
"220070","806-UM","2018/06/02 18:59:28","新北市板橋區四川路一段333號","121.458588333333","25.0002683333333","6500100","板橋區"
"220055","827-TW","2018/06/02 18:59:35","新北市板橋區中山路1段158巷22-1號","121.46643","25.0110333333333","6500100","板橋區"
"220067","829-TW","2018/06/02 18:59:43","新北市板橋區三民路186巷13-1號","121.478635","25.0148566666667","6500100","板橋區"
"220068","830-TW","2018/06/02 18:59:40","新北市板橋區三民路一段31巷42號","121.481118333333","25.0229816666667","6500100","板橋區"
"220096","831-TW","2018/06/02 18:59:45","新北市板橋區莒光路122號","121.472633333333","25.02395","6500100","板橋區"
"220089","833-TW","2018/06/02 18:59:31","新北市板橋區仁化街8號","121.474351666667","25.0315816666667","6500100","板橋區"
"220074","895-R6","2018/06/02 18:59:28","新北市板橋區後菜園街47號","121.456183333333","25.009925","6500100","板橋區"
"220073","985-R7","2018/06/02 18:59:43","新北市板橋區民權路200號","121.459073333333","25.01383","6500100","板橋區"
"220097","AAC-210","2018/06/02 18:59:27","新北市板橋區漢生東路7號","121.464683333333","25.017525","6500100","板橋區"
"235068","KEA-2873","2018/06/02 18:59:36","新北市中和區圓通路202號","121.496078333333","24.9942283333333","6500300","中和區"
"235061","KEA-2875","2018/06/02 18:59:14","新北市中和區民治街130巷5號","121.475008333333","25.0026116666667","6500300","中和區"
