"lineid","car","time","location","longitude","latitude","cityid","cityname"
"234046","148-BY","2018/06/02 19:49:34","新北市永和區永利路145號","121.52435","25.0035816666667","6500400","永和區"
"234007","207-UY","2018/06/02 19:49:26","新北市中和區中和路232號","121.506736666667","24.99951","6500400","永和區"
"234081","298-R6","2018/06/02 19:49:33","新北市永和區永亨路98號","121.523078333333","25.004805","6500400","永和區"
"234038","336-UY","2018/06/02 19:49:28","新北市永和區成功路二段131號","121.526765","24.99822","6500400","永和區"
"234064","337-UY","2018/06/02 19:49:34","新北市永和區中正路368巷18號","121.518355","25.0007416666667","6500400","永和區"
"234086","338-UY","2018/06/02 19:49:42","新北市永和區中正路511號","121.516795","25.0071583333333","6500400","永和區"
"234070","552-UM","2018/06/02 19:49:32","新北市永和區竹林路81號","121.519565","25.0125933333333","6500400","永和區"
"234017","745-BX","2018/06/02 19:49:43","新北市永和區永和路二段299號","121.515985","25.01611","6500400","永和區"
"234030","746-BX","2018/06/02 19:49:40","新北市永和區民生路67巷37號","121.524766666667","24.9974433333333","6500400","永和區"
"234054","KEA-2590","2018/06/02 19:49:27","新北市永和區竹林路75巷25弄7號","121.520078333333","25.014435","6500400","永和區"
"234013","KEA-2591","2018/06/02 19:49:28","新北市永和區仁愛路168號","121.510208333333","25.012685","6500400","永和區"
"234061","AAD-866","2018/06/02 19:49:40","新北市永和區中正路96號","121.514128333333","24.9955033333333","6500400","永和區"
"234042","862-TW","2018/06/02 19:49:27","新北市永和區中和路389巷44弄2號","121.508071666667","25.0021233333333","6500400","永和區"
"234050","863-TW","2018/06/02 19:49:10","新北市永和區保安路118號","121.509226666667","25.0156633333333","6500400","永和區"
"234026","9371-KE","2018/06/02 19:49:39","新北市永和區雙和街20巷1號","121.509165","25.00218","6500400","永和區"
"234011","9373-KE","2018/06/02 19:49:43","新北市永和區保順路11號","121.50474","25.0095716666667","6500400","永和區"
"249001","173-UM","2018/06/02 19:49:36","新北市八里區中華路二段250號","121.40542","25.1497233333333","6502300","八里區"
"249004","303-UY","2018/06/02 19:49:39","新北市八里區仁愛路19號","121.413381666667","25.160875","6502300","八里區"
"249002","305-UY","2018/06/02 19:49:28","新北市八里區頂寮五街20號","121.451261666667","25.1262233333333","6502300","八里區"
"249003","593-UM","2018/06/02 19:49:40","新北市八里區中華路二段558號","121.398535","25.14524","6502300","八里區"
"248016","026-BX","2018/06/02 19:49:37","新北市五股區成泰路四段22巷29號","121.455621666667","25.10828","6501500","五股區"
"248008","095-VK","2018/06/02 19:49:30","新北市五股區四維路171巷4號","121.467585","25.075145","6501500","五股區"
"248012","247-BX","2018/06/02 19:49:38","新北市五股區蓬萊路1-3號","121.434325","25.0797183333333","6501500","五股區"
"248014","261-SL","2018/06/02 19:49:29","新北市五股區五福路32巷23號","121.435045","25.0897866666667","6501500","五股區"
"248010","272-BY","2018/06/02 19:49:39","新北市五股區登林路貿商巷2弄2號","121.430685","25.0696816666667","6501500","五股區"
"248004","677-BX","2018/06/02 19:49:40","新北市五股區成泰路一段194-1號","121.43555","25.077865","6501500","五股區"
"248002","678-BX","2018/06/02 19:49:32","新北市五股區成泰路四段15-3號","121.453206666667","25.1069083333333","6501500","五股區"
"234077","969-R7","2018/06/02 19:49:23","新北市永和區智光街53號","121.517175","24.9979266666667","6500400","永和區"
"234074","AAC-211","2018/06/02 19:49:40","新北市永和區竹林路213巷26號","121.522133333333","25.0089283333333","6500400","永和區"
"234067","AAC-212","2018/06/02 19:49:28","新北市永和區中山路一段149號","121.510033333333","25.0095433333333","6500400","永和區"
"234003","AAC-295","2018/06/02 19:49:30","新北市永和區福和路346號","121.514975","25.0071816666667","6500400","永和區"
"244019","403-UM","2018/06/02 19:49:26","新北市八里區中華路三段138-1號","121.391941666667","25.132115","6501700","林口區"
"244013","742-UY","2018/06/02 19:49:44","新北市八里區下罟子30-35號","121.36769","25.1350783333333","6501700","林口區"
"243013","AAD-798","2018/06/02 19:37:49","新北市泰山區應化街7號","121.423875","25.04373","6501600","泰山區"
"243009","297-R6","2018/06/02 19:49:37","新北市泰山區美寧街64號","121.430991666667","25.0645383333333","6501600","泰山區"
"243016","380-SR","2018/06/02 19:49:30","新北市泰山區中山路三段8-1號","121.41852","25.0323666666667","6501600","泰山區"
"243015","421-VK","2018/06/02 19:49:43","新北市泰山區明志路二段214巷9號","121.426705","25.04882","6501600","泰山區"
"243010","KEA-2216","2018/06/02 19:49:24","新北市泰山區民生路33號","121.430733333333","25.0521966666667","6501600","泰山區"
"243012","646-TV","2018/06/02 19:49:37","新北市泰山區全興路18巷25號","121.431998333333","25.058465","6501600","泰山區"
"243014","680-BX","2018/06/02 19:49:40","新北市泰山區泰林路二段33-7號","121.435233333333","25.056425","6501600","泰山區"
"222002","016-RS","2018/06/02 19:49:30","新北市深坑區北深路二段2巷1號","121.621383333333","25.0046083333333","6501800","深坑區"
"222003","436-BY","2018/06/02 19:49:34","新北市深坑區深南路51-1號","121.621256666667","25.0098133333333","6501800","深坑區"
"231044","001-UM","2018/06/02 19:49:31","新北市新店區復興路44-1號","121.53857","24.9866833333333","6500600","新店區"
"231041","002-UM","2018/06/02 19:49:42","新北市新店區中央四街5-1號","121.530218333333","24.9737666666667","6500600","新店區"
"231059","046-UY","2018/06/02 19:49:41","新北市新店區安和路二段175號","121.518496666667","24.97464","6500600","新店區"
"231040","047-UY","2018/06/02 19:49:29","新北市新店區中正路75巷71號","121.543305","24.9687816666667","6500600","新店區"
"231052","108-UY","2018/06/02 19:49:24","新北市新店區新烏路三段249號","121.546721666667","24.89605","6500600","新店區"
"231048","187-VK","2018/06/02 19:49:42","新北市新店區寶興路64巷1號","121.550676666667","24.9715866666667","6500600","新店區"
"231046","188-VK","2018/06/02 19:49:42","新北市新店區福園街10巷1號","121.532703333333","24.9727866666667","6500600","新店區"
"231054","KEA-2219","2018/06/02 19:49:42","新北市新店區光明街104號","121.53905","24.960555","6500600","新店區"
"231057","256-BX","2018/06/02 19:49:43","新北市新店區花園二路三段21-3號","121.556943333333","24.9317716666667","6500600","新店區"
"231042","268-BY","2018/06/02 19:49:36","新北市新店區中興路一段271號","121.545105","24.9680566666667","6500600","新店區"
"231051","278-BY","2018/06/02 19:49:35","新北市新店區中央路216-1號","121.529626666667","24.973375","6500600","新店區"
"231050","AAD-862","2018/06/02 19:49:36","新北市新店區郵政路93號","121.554753333333","24.95145","6500600","新店區"
"231066","4716-K9","2018/06/02 19:49:29","新北市新店區薏仁坑路自強巷6號","121.496758333333","24.9585266666667","6500600","新店區"
"231067","4772-VM","2018/06/02 19:49:42","新北市新店區精忠路10-1號","121.532721666667","24.959055","6500600","新店區"
"231065","512-UM","2018/06/02 19:49:35","新北市新店區安祥路109巷108號","121.477253333333","24.958805","6500600","新店區"
"231049","513-UM","2018/06/02 19:49:39","新北市新店區民權路129-1號","121.535503333333","24.9828266666667","6500600","新店區"
"231045","617-UM","2018/06/02 19:49:28","新北市新店區北宜路二段384號","121.56454","24.9528133333333","6500600","新店區"
"231061","619-UM","2018/06/02 19:49:37","新北市新店區安民街166號","121.516773333333","24.9706566666667","6500600","新店區"
"231063","641-BX","2018/06/02 19:49:45","新北市新店區車子路11號","121.503013333333","24.9519316666667","6500600","新店區"
"231064","719-UY","2018/06/02 19:49:38","新北市新店區安和路一段52巷2號","121.51765","24.9662416666667","6500600","新店區"
"231062","720-UM","2018/06/02 19:49:32","新北市新店區永業路51巷2號","121.53187","24.9547266666667","6500600","新店區"
"231060","897-TW","2018/06/02 19:49:26","新北市新店區安康路二段268號","121.50852","24.9587433333333","6500600","新店區"
"231043","899-TW","2018/06/02 19:49:41","新北市新店區中正路243號","121.53919","24.97332","6500600","新店區"
"231055","AKT-0513","2018/06/02 19:49:29","新北市新店區力行路12號","121.53938","24.9646333333333","6500600","新店區"
"241011","013-R5","2018/06/02 19:49:32","新北市三重區三和路二段173巷45號","121.499285","25.0701833333333","6500200","三重區"
"241028","022-UY","2018/06/02 19:49:35","新北市三重區中正南路157號","121.493868333333","25.056225","6500200","三重區"
"241008","059-VK","2018/06/02 19:49:30","新北市三重區永福街68號","121.479175","25.0769983333333","6500200","三重區"
"241031","061-VK","2018/06/02 19:49:27","新北市三重區重新路四段250-1號","121.486018333333","25.053415","6500200","三重區"
"241015","062-VK","2018/06/02 19:49:40","新北市三重區重新路一段1號","121.503806666667","25.0643083333333","6500200","三重區"
"241017","063-VK","2018/06/02 19:49:27","新北市三重區重陽路三段5巷8弄29號","121.489596666667","25.0666716666667","6500200","三重區"
"241024","065-VK","2018/06/02 19:49:44","新北市三重區後竹圍街307號","121.478243333333","25.069495","6500200","三重區"
"241026","066-VK","2018/06/02 19:49:29","新北市三重區文化南路42號","121.500448333333","25.060275","6500200","三重區"
"241003","091-VK","2018/06/02 19:49:42","新北市三重區五華街95號","121.491908333333","25.08369","6500200","三重區"
"241013","742-BX","2018/06/02 19:49:45","新北市三重區仁愛街102巷1-1號","121.494876666667","25.0740733333333","6500200","三重區"
"241009","265-UM","2018/06/02 19:49:24","新北市三重區三和路四段396巷13號","121.480895","25.079135","6500200","三重區"
"241016","266-UM","2018/06/02 19:49:29","新北市三重區正義北路48巷67號","121.495603333333","25.06358","6500200","三重區"
"241022","267-UM","2018/06/02 19:49:30","新北市三重區新北大道一段7號","121.489803333333","25.0615683333333","6500200","三重區"
"241018","268-UM","2018/06/02 19:49:28","新北市三重區雙園街57巷9號","121.49487","25.06789","6500200","三重區"
"241007","398-BY","2018/06/02 19:49:42","新北市三重區三和路四段135巷8號","121.48498","25.07814","6500200","三重區"
"241025","413-TH","2018/06/02 19:49:31","新北市三重區忠孝路三段54號","121.480676666667","25.0655666666667","6500200","三重區"
"241035","462-BY","2018/06/02 19:49:29","新北市三重區文化北路10-7號","121.49923","25.0634533333333","6500200","三重區"
"241004","475-VK","2018/06/02 19:49:33","新北市三重區五華街74號","121.49342","25.0820133333333","6500200","三重區"
"241020","478-VK","2018/06/02 19:49:33","新北市三重區後竹圍街1號","121.49155","25.0736033333333","6500200","三重區"
"241030","480-VK","2018/06/02 19:49:42","新北市三重區環河南路254巷36-1號","121.489956666667","25.0511183333333","6500200","三重區"
"241014","543-UM","2018/06/02 19:49:29","新北市三重區三和路二段37-8號","121.501298333333","25.0674983333333","6500200","三重區"
"241023","545-UM","2018/06/02 19:49:39","新北市三重區頂崁街168號","121.477588333333","25.0658766666667","6500200","三重區"
"241001","547-UM","2018/06/02 19:49:41","新北市三重區仁愛街327巷53號","121.49346","25.080245","6500200","三重區"
"241019","KEA-2593","2018/06/02 19:49:39","新北市三重區自強路二段74巷11號","121.488171666667","25.0700883333333","6500200","三重區"
"241006","AAD-863","2018/06/02 19:49:42","新北市三重區力行路二段76巷29號","121.480515","25.0736383333333","6500200","三重區"
"241002","887-TS","2018/06/02 19:49:39","新北市三重區三陽路13巷2號","121.486076666667","25.058835","6500200","三重區"
"241012","941-UM","2018/06/02 19:49:33","新北市三重區仁福街64巷18號","121.497673333333","25.0751516666667","6500200","三重區"
"241029","942-UM","2018/06/02 19:49:35","新北市三重區光明路27號","121.491231666667","25.0584866666667","6500200","三重區"
"235064","005-UY","2018/06/02 19:49:32","新北市中和區南華路41號","121.503703333333","24.9966333333333","6500300","中和區"
"235056","096-UM","2018/06/02 19:49:30","新北市中和區中山路三段114巷46號","121.475851666667","25.0071933333333","6500300","中和區"
"235039","097-UM","2018/06/02 19:49:41","新北市中和區大勇街27巷19號","121.516611666667","24.9937066666667","6500300","中和區"
"235065","098-UM","2018/06/02 19:49:32","新北市中和區福祥路90巷7弄17號","121.499333333333","25.0065283333333","6500300","中和區"
"235040","150-BY","2018/06/02 19:49:43","新北市中和區安平路30號","121.509603333333","24.99484","6500300","中和區"
"235058","151-BY","2018/06/02 19:49:26","新北市中和區員山路173號","121.481183333333","24.99702","6500300","中和區"
"235055","183-VK","2018/06/02 19:49:38","新北市中和區莒光路2號","121.471718333333","25.00467","6500300","中和區"
"235049","186-VK","2018/06/02 19:49:34","新北市中和區景平路385巷81號","121.50103","24.9942516666667","6500300","中和區"
"235067","255-BX","2018/06/02 19:49:40","新北市中和區中正路751巷3弄9號","121.484416666667","24.9993316666667","6500300","中和區"
"235044","293-VK","2018/06/02 19:49:24","新北市中和區南山路259號","121.503808333333","24.9926933333333","6500300","中和區"
"235043","352-BY","2018/06/02 19:49:26","新北市中和區華新街232巷24號","121.505565","24.982565","6500300","中和區"
"235054","269-TV","2018/06/02 19:49:31","新北市中和區莒光路99號","121.47245","25.0029666666667","6500300","中和區"
"235050","4979-A6","2018/06/02 19:49:32","新北市中和區景平路241巷84弄57號","121.506051666667","24.99231","6500300","中和區"
"235042","551-UM","2018/06/02 19:49:28","新北市中和區景安路79巷37弄12號","121.507936666667","24.9961583333333","6500300","中和區"
"235070","558-UM","2018/06/02 19:49:29","新北市中和區景平路503號","121.49965","24.99837","6500300","中和區"
"235045","565-BX","2018/06/02 19:49:36","新北市中和區景平路322號","121.512175","24.992775","6500300","中和區"
"235060","647-TV","2018/06/02 19:49:35","新北市中和區新生街16巷11號","121.48264","25.0043","6500300","中和區"
"235046","733-UM","2018/06/02 19:49:39","新北市中和區仁愛街59號","121.511358333333","24.9878283333333","6500300","中和區"
"235071","783-BX","2018/06/02 19:49:24","新北市中和區中板路7-2號","121.484911666667","25.011315","6500300","中和區"
"235057","801-TS","2018/06/02 19:49:42","新北市中和區員山路130號","121.481221666667","24.9962866666667","6500300","中和區"
"235041","802-TS","2018/06/02 19:49:36","新北市中和區永貞路239巷3號","121.51285","25.0034316666667","6500300","中和區"
"235052","805-TS","2018/06/02 19:49:39","新北市中和區華新街192巷40號","121.5061","24.98364","6500300","中和區"
"235048","896-TW","2018/06/02 19:49:44","新北市中和區興南路二段3巷1號","121.508085","24.9864466666667","6500300","中和區"
"235053","900-TW","2018/06/02 19:49:24","新北市中和區國光街171巷6號","121.467535","25.00139","6500300","中和區"
"235066","911-UM","2018/06/02 19:49:26","新北市中和區南工路18號","121.5055","25.000425","6500300","中和區"
"235051","157-BY","2018/06/02 19:49:33","新北市中和區中興街180巷51弄6號","121.498685","24.9890733333333","6500300","中和區"
"235037","AAC-213","2018/06/02 19:49:30","新北市中和區自立路66號","121.523906666667","24.99132","6500300","中和區"
"235059","AAC-215","2018/06/02 19:49:26","新北市中和區圓通路335巷71號","121.494206666667","24.989385","6500300","中和區"
"220065","072-UY","2018/06/02 19:49:31","新北市板橋區民族路239號","121.469991666667","25.007045","6500100","板橋區"
"220106","075-UY","2018/06/02 19:49:40","新北市板橋區民治街57巷32-1號","121.480115","25.034365","6500100","板橋區"
"220069","AAD-861","2018/06/02 19:49:40","新北市板橋區南雅南路二段11-14號","121.455005","25.0018483333333","6500100","板橋區"
"247014","546-UM","2018/06/02 19:49:34","新北市蘆洲區復興路30號","121.472286666667","25.085105","6501400","蘆洲區"
"247004","337-TH","2018/06/02 19:49:40","新北市蘆洲區中原路62號","121.458763333333","25.0821133333333","6501400","蘆洲區"
"247006","336-TH","2018/06/02 19:49:31","新北市蘆洲區永安南路二段28號","121.467135","25.0770466666667","6501400","蘆洲區"
"247008","056-VK","2018/06/02 19:49:34","新北市蘆洲區信義路139號","121.479271666667","25.0804183333333","6501400","蘆洲區"
"247002","002-UY","2018/06/02 19:49:33","新北市蘆洲區永平街28號","121.458855","25.0907966666667","6501400","蘆洲區"
"226004","312-R5","2018/06/02 19:49:29","新北市平溪區石底里公園街18-3號","121.733225","25.0258633333333","6502400","平溪區"
"235047","251-BX","2018/06/02 19:49:38","新北市中和區興南路一段71號","121.51022","24.98928","6500300","中和區"
"228003","097-TW","2018/06/02 19:49:29","新北市貢寮區真理里美艷山街5-1號","121.926678333333","25.0597183333333","6502600","貢寮區"
"228001","212-TW","2018/06/02 19:49:35","新北市貢寮區真理里新港街78號","121.927293333333","25.055755","6502600","貢寮區"
"224010","AGQ-8101","2018/06/02 19:48:27","新北市瑞芳區烏勢巷145號","121.847556666667","25.1087016666667","6501200","瑞芳區"
"224002","639-TC","2018/06/02 19:49:44","新北市瑞芳區三爪子坑路303-2號","121.818293333333","25.1057216666667","6501200","瑞芳區"
"227002","642-TC","2018/06/02 19:49:29","新北市雙溪區雙溪里內挖路47號","121.86327","25.0367316666667","6502500","雙溪區"
"227010","400-TW","2018/06/02 19:49:36","新北市雙溪區新基里中華路115號","121.866011666667","25.0390933333333","6502500","雙溪區"
"253006","295-VK","2018/06/02 19:49:31","新北市石門區小坑9號","121.594421666667","25.2883466666667","6502200","石門區"
"222001","KEA-2212","2018/06/02 19:49:37","新北市深坑區北深路三段71號","121.606816666667","25.0015133333333","6501800","深坑區"
"208002","KEA-2872","2018/06/02 19:49:38","新北市金山區三民街34號","121.634911666667","25.2235966666667","6502700","金山區"
"208003","665-BX","2018/06/02 19:49:30","新北市金山區海興路112-1號","121.631141666667","25.2386466666667","6502700","金山區"
"208001","761-BX","2018/06/02 19:49:31","新北市金山區重和里六股林口25號","121.603351666667","25.219245","6502700","金山區"
"251009","008-UM","2018/06/02 19:49:33","新北市淡水區中正路38-1號","121.443741666667","25.16927","6501000","淡水區"
"251005","010-UM","2018/06/02 19:49:36","新北市淡水區中山路108巷3號","121.442035","25.1710383333333","6501000","淡水區"
"251001","011-UM","2018/06/02 19:49:31","新北市淡水區淡金路73號","121.456293333333","25.161915","6501000","淡水區"
"251013","KEA-2871","2018/06/02 19:49:31","新北市淡水區頂田寮路109號","121.458818333333","25.2160933333333","6501000","淡水區"
"251016","179-VK","2018/06/02 19:49:33","新北市淡水區三塊厝5-2號","121.457886666667","25.2103916666667","6501000","淡水區"
"251014","180-VK","2018/06/02 19:49:41","新北市淡水區番社前2-7號","121.470418333333","25.23708","6501000","淡水區"
"251015","182-VK","2018/06/02 19:49:39","新北市淡水區北新路三段73號","121.48512","25.1877516666667","6501000","淡水區"
"251010","413-VK","2018/06/02 19:49:29","新北市淡水區崁頂78-3號","121.429866666667","25.2062283333333","6501000","淡水區"
"251007","442-VK","2018/06/02 19:49:33","新北市淡水區竿蓁一街102巷1號","121.453931666667","25.166145","6501000","淡水區"
"251012","443-VK","2018/06/02 19:49:43","新北市淡水區淡金路三段170號","121.448705","25.2025816666667","6501000","淡水區"
"251006","561-UM","2018/06/02 19:49:39","新北市淡水區水碓街15號","121.443486666667","25.1769333333333","6501000","淡水區"
"251008","575-R6","2018/06/02 19:49:45","新北市淡水區中正路一段24巷11號","121.426675","25.17718","6501000","淡水區"
"251011","650-BX","2018/06/02 19:49:36","新北市淡水區淡金路二段401號","121.446848333333","25.187035","6501000","淡水區"
"251003","673-BX","2018/06/02 19:49:30","新北市淡水區崁頂57-12號","121.443681666667","25.1971016666667","6501000","淡水區"
"207003","550-UM","2018/06/02 19:49:43","新北市萬里區大鵬里萬里加投44-3號","121.641106666667","25.2097616666667","6502800","萬里區"
"207004","225-TW","2018/06/02 19:49:41","新北市萬里區萬里里瑪鋉路261號","121.6898","25.17982","6502800","萬里區"
"252001","292-VK","2018/06/02 19:49:45","新北市三芝區公正街66號","121.499805","25.2573933333333","6502100","三芝區"
"252002","AAC-283","2018/06/02 19:49:36","新北市三芝區三民街29號","121.504546666667","25.25848","6502100","三芝區"
"237004","KEA-2597","2018/06/02 19:49:32","新北市三峽區添福278號","121.375695","24.89273","6500900","三峽區"
"237009","210-TH","2018/06/02 19:49:25","新北市三峽區中園街64號","121.368061666667","24.925545","6500900","三峽區"
"237013","252-BX","2018/06/02 19:49:32","新北市三峽區溪北街10號","121.396208333333","24.9364016666667","6500900","三峽區"
"237012","275-BY","2018/06/02 19:49:40","新北市三峽區光明路27號","121.37338","24.9310433333333","6500900","三峽區"
"237008","302-VK","2018/06/02 19:49:35","新北市三峽區中華路76號","121.371351666667","24.9284516666667","6500900","三峽區"
"237014","433-BY","2018/06/02 19:49:40","新北市三峽區添福13-1號","121.374495","24.9076433333333","6500900","三峽區"
"237006","5529-G3","2018/06/02 19:49:35","新北市三峽區中正路一段336巷15弄2號","121.36998","24.9249416666667","6500900","三峽區"
"237016","649-BX","2018/06/02 19:49:31","新北市三峽區溪北街1號","121.395785","24.9363666666667","6500900","三峽區"
"237005","AKY-6261","2018/06/02 19:49:34","新北市三峽區長泰街48號","121.378051666667","24.93242","6500900","三峽區"
"236070","105-UM","2018/06/02 19:49:24","新北市土城區水源街30號","121.440985","24.97563","6501300","土城區"
"236042","107-UM","2018/06/02 19:49:32","新北市土城區金城路二段245巷52號","121.455183333333","24.983585","6501300","土城區"
"236030","253-BX","2018/06/02 19:49:42","新北市土城區中央路一段318巷4弄12號","121.443248333333","24.9823866666667","6501300","土城區"
"236026","269-VK","2018/06/02 19:49:46","新北市土城區中央路二段61巷28號","121.443446666667","24.9787583333333","6501300","土城區"
"236038","271-VK","2018/06/02 19:49:34","新北市土城區國際路158巷41號","121.468313333333","24.9755416666667","6501300","土城區"
"236021","401-BY","2018/06/02 19:49:41","新北市土城區延吉街137巷3號","121.470776666667","24.98608","6501300","土城區"
"236079","752-BX","2018/06/02 19:46:04","新北市土城區溪頭路27號","121.412471666667","24.9552983333333","6501300","土城區"
"236059","912-UM","2018/06/02 19:49:40","新北市土城區中央路一段186-2號","121.445513333333","24.9862983333333","6501300","土城區"
"236049","913-UM","2018/06/02 19:49:33","新北市土城區青雲路309號","121.459031666667","24.97921","6501300","土城區"
"236063","915-UM","2018/06/02 19:49:39","新北市土城區延平街69巷2號","121.467503333333","24.9928383333333","6501300","土城區"
"236055","AAC-216","2018/06/02 19:49:41","新北市土城區延和路148號","121.467821666667","24.9902","6501300","土城區"
"242025","613-BX","2018/06/02 19:49:31","新北市新莊區五權一路12巷9弄26號","121.458131666667","25.0652083333333","6500500","新莊區"
"242029","612-BX","2018/06/02 19:49:42","新北市新莊區中平路269號","121.444678333333","25.049725","6500500","新莊區"
"242046","497-BY","2018/06/02 19:49:32","新北市新莊區裕民街19巷4號","121.41978","25.0252716666667","6500500","新莊區"
"242056","440-UM","2018/06/02 19:49:39","新北市新莊區新泰路67號","121.449343333333","25.034245","6500500","新莊區"
"242036","415-TV","2018/06/02 19:49:42","新北市新莊區建安街101巷32號","121.427083333333","25.0236566666667","6500500","新莊區"
"242007","413-TV","2018/06/02 19:49:39","新北市新莊區思源路593巷30號","121.457663333333","25.0597216666667","6500500","新莊區"
"242023","362-BY","2018/06/02 19:49:30","新北市新莊區化成路228號","121.465638333333","25.0469016666667","6500500","新莊區"
"242061","353-BY","2018/06/02 19:49:42","新北市新莊區中環路一段10號","121.442678333333","25.02581","6500500","新莊區"
"242031","135-UY","2018/06/02 19:49:44","新北市新莊區忠孝街50號","121.443958333333","25.0359266666667","6500500","新莊區"
"242048","172-VK","2018/06/02 19:49:40","新北市新莊區建安街92巷15號","121.425798333333","25.0244166666667","6500500","新莊區"
"242017","175-VK","2018/06/02 19:49:33","新北市新莊區中華路一段226號","121.452658333333","25.0429733333333","6500500","新莊區"
"242004","176-VK","2018/06/02 19:49:24","新北市新莊區化成路63巷105號","121.461565","25.0459416666667","6500500","新莊區"
"242021","348-TH","2018/06/02 19:49:29","新北市新莊區建中街33號","121.448638333333","25.0371516666667","6500500","新莊區"
"238015","755-BX","2018/06/02 19:49:25","新北市樹林區中山路一段402號","121.418266666667","24.9854466666667","6500700","樹林區"
"238023","601-UM","2018/06/02 19:49:32","新北市樹林區三寶街6號","121.406465","25.0158383333333","6500700","樹林區"
"238021","KEA-2539","2018/06/02 19:49:35","新北市樹林區佳園路三段181巷87號","121.391018333333","24.94835","6500700","樹林區"
"238017","283-BY","2018/06/02 19:49:30","新北市樹林區保安街二段73號","121.41603","25.00081","6500700","樹林區"
"238014","282-BY","2018/06/02 19:49:27","新北市樹林區中正路22-1號","121.427746666667","24.9994183333333","6500700","樹林區"
"239006","891-R6","2018/06/02 19:49:27","新北市鶯歌區文化路124號","121.351866666667","24.9519716666667","6500800","鶯歌區"
"221036","130-UY","2018/06/02 19:49:43","新北市汐止區汐萬路一段310號","121.650353333333","25.0747016666667","6501100","汐止區"
"221015","131-UY","2018/06/02 19:49:33","新北市汐止區大同路二段341-1號","121.656146666667","25.0672166666667","6501100","汐止區"
"221010","269-BY","2018/06/02 19:49:36","新北市汐止區連峰街128號","121.646223333333","25.079085","6501100","汐止區"
"221012","278-VK","2018/06/02 19:49:31","新北市汐止區保長路273巷8號","121.681618333333","25.0740083333333","6501100","汐止區"
"221023","279-VK","2018/06/02 19:49:27","新北市汐止區民族六街3巷1號","121.629483333333","25.0703416666667","6501100","汐止區"
"221032","280-BY","2018/06/02 19:49:34","新北市汐止區橫科路403巷13號","121.62484","25.0476466666667","6501100","汐止區"
"221027","281-BY","2018/06/02 19:49:35","新北市汐止區南昌街35號","121.662786666667","25.06893","6501100","汐止區"
"221029","298-VK","2018/06/02 19:49:46","新北市汐止區康寧街901號","121.651223333333","25.07511","6501100","汐止區"
"221021","299-VK","2018/06/02 19:49:33","新北市汐止區青山路2號","121.655791666667","25.0626966666667","6501100","汐止區"
"221031","353-TW","2018/06/02 19:49:31","新北市汐止區福德三路127號","121.633618333333","25.0674866666667","6501100","汐止區"
"221008","129-UY","2018/06/02 19:49:34","新北市汐止區康寧街39號","121.618516666667","25.0668466666667","6501100","汐止區"
"221035","622-UM","2018/06/02 19:49:43","新北市汐止區長江街13巷6弄1號","121.65471","25.07171","6501100","汐止區"
"221025","623-UM","2018/06/02 19:49:38","新北市汐止區秀峰路81巷33號","121.661413333333","25.0647316666667","6501100","汐止區"
"221038","646-BX","2018/06/02 19:49:24","新北市汐止區忠孝東路413號","121.665791666667","25.0712883333333","6501100","汐止區"
"221033","647-BX","2018/06/02 19:49:44","新北市汐止區東勢街216巷22弄23號","121.63447","25.0389366666667","6501100","汐止區"
"221018","753-BX","2018/06/02 19:49:45","新北市汐止區大同路二段542號","121.661508333333","25.0688166666667","6501100","汐止區"
"220079","145-BY","2018/06/02 19:49:36","新北市板橋區建國街62-3號","121.458908333333","25.01718","6500100","板橋區"
"220080","200-UY","2018/06/02 19:49:46","新北市板橋區大觀路二段37巷39號","121.448693333333","25.0028066666667","6500100","板橋區"
"242002","KEA-2550","2018/06/02 19:49:36","新北市新莊區新泰路2-11號","121.45012","25.0325066666667","6500500","新莊區"
"220082","610-BX","2018/06/02 19:49:40","新北市板橋區溪北路102號","121.428513333333","24.9893066666667","6500100","板橋區"
"220101","245-BX","2018/06/02 19:49:37","新北市板橋區縣民大道三段79巷3號","121.475271666667","25.0217933333333","6500100","板橋區"
"220103","257-TC","2018/06/02 19:49:39","新北市板橋區陽明街29巷2號","121.465293333333","25.0217566666667","6500100","板橋區"
"220093","267-BY","2018/06/02 19:49:33","新北市板橋區長江路二段299號","121.4706","25.03315","6500100","板橋區"
"220056","276-BY","2018/06/02 19:49:40","新北市板橋區四川路二段97號","121.452595","24.994745","6500100","板橋區"
"220072","277-BY","2018/06/02 19:49:34","新北市板橋區金門街151巷1號","121.432835","24.99056","6500100","板橋區"
"220071","283-VK","2018/06/02 19:49:45","新北市板橋區五權街30巷24弄28號","121.463603333333","24.9941366666667","6500100","板橋區"
"220094","285-UM","2018/06/02 19:49:28","新北市板橋區長江路一段107號","121.459688333333","25.029675","6500100","板橋區"
"220053","285-VK","2018/06/02 19:49:33","新北市板橋區民享街58號","121.476218333333","25.0151633333333","6500100","板橋區"
"220083","286-VK","2018/06/02 19:49:40","新北市板橋區僑中二街8巷13號","121.44653","25.01122","6500100","板橋區"
"220081","287-VK","2018/06/02 19:49:42","新北市板橋區大觀路一段77號","121.447205","25.0044616666667","6500100","板橋區"
"220090","288-VK","2018/06/02 19:49:32","新北市板橋區新海路431巷1號","121.457836666667","25.0275133333333","6500100","板橋區"
"220061","293-UM","2018/06/02 19:49:38","新北市板橋區中山路一段283巷2弄11號","121.470395","25.01487","6500100","板橋區"
"220084","296-UM","2018/06/02 19:49:38","新北市板橋區溪崑二街103巷9號","121.427065","24.988805","6500100","板橋區"
"220075","303-R5","2018/06/02 19:49:35","新北市板橋區金華街10巷48弄19-1號","121.45772","25.0199566666667","6500100","板橋區"
"220062","305-R5","2018/06/02 19:49:46","新北市板橋區中山路二段416巷38弄27-2號","121.481933333333","25.0193466666667","6500100","板橋區"
"220092","307-R5","2018/06/02 19:49:35","新北市板橋區四維路137巷9號","121.464531666667","25.0247633333333","6500100","板橋區"
"220098","317-R6","2018/06/02 19:49:28","新北市板橋區新海路416號","121.458513333333","25.0271316666667","6500100","板橋區"
"220064","486-VK","2018/06/02 19:49:25","新北市板橋區實踐路72-4號","121.463923333333","25.0057166666667","6500100","板橋區"
"220088","491-VK","2018/06/02 19:49:45","新北市板橋區文聖街20-3號","121.476065","25.0316666666667","6500100","板橋區"
"220035","560-BX","2018/06/02 19:49:26","新北市板橋區金華街52號","121.456785","25.0204766666667","6500100","板橋區"
"220063","609-BX","2018/06/02 19:49:32","新北市板橋區三民路一段5巷1號","121.479066666667","25.02342","6500100","板橋區"
"220091","637-BX","2018/06/02 19:49:46","新北市板橋區懷德街127巷23弄33號","121.480368333333","25.0321483333333","6500100","板橋區"
"220057","686-BX","2018/06/02 19:49:38","新北市板橋區信義路185號","121.459051666667","24.9918483333333","6500100","板橋區"
"220077","687-BX","2018/06/02 19:49:25","新北市板橋區僑中一街124巷11弄2號","121.446023333333","25.013115","6500100","板橋區"
"220054","741-BX","2018/06/02 19:49:39","新北市板橋區忠孝路忠義巷21弄2號","121.466968333333","25.0040066666667","6500100","板橋區"
"220102","KEA-2699","2018/06/02 19:49:29","新北市板橋區松柏街57-4號","121.475685","25.0303583333333","6500100","板橋區"
"220070","806-UM","2018/06/02 19:49:27","新北市板橋區館前東路124號","121.46387","25.0077933333333","6500100","板橋區"
"220055","827-TW","2018/06/02 19:49:35","新北市板橋區國慶路149巷4弄18-3號","121.461921666667","24.9970216666667","6500100","板橋區"
"220067","829-TW","2018/06/02 19:49:33","新北市板橋區長安街138巷1弄83號","121.474833333333","25.01122","6500100","板橋區"
"220068","830-TW","2018/06/02 19:49:34","新北市板橋區中山路二段412巷12號","121.483311666667","25.02028","6500100","板橋區"
"220096","831-TW","2018/06/02 19:49:25","新北市板橋區民生路二段226巷31弄2號","121.471171666667","25.02217","6500100","板橋區"
"220089","833-TW","2018/06/02 19:49:31","新北市板橋區綠堤街41-1號","121.45528","25.0259616666667","6500100","板橋區"
"220074","895-R6","2018/06/02 19:49:28","新北市板橋區府中路29-2號","121.458541666667","25.008185","6500100","板橋區"
"220073","985-R7","2018/06/02 19:49:38","新北市板橋區大仁街116號","121.452693333333","25.0157566666667","6500100","板橋區"
"220097","AAC-210","2018/06/02 19:49:27","新北市板橋區文化路一段285巷1弄15號","121.46413","25.0187","6500100","板橋區"
"235068","KEA-2873","2018/06/02 19:49:36","新北市中和區莊敬路1-5號","121.499553333333","25.004415","6500300","中和區"
"235061","KEA-2875","2018/06/02 19:49:14","新北市中和區員山路325-2號","121.481248333333","25.0006866666667","6500300","中和區"
