"lineid","car","time","location","longitude","latitude","cityid","cityname"
"234046","148-BY","2018/06/02 19:59:34","新北市永和區成功路一段2號","121.527006666667","25.0056716666667","6500400","永和區"
"234007","207-UY","2018/06/02 19:59:46","新北市永和區保生路22巷21號","121.507263333333","25.0082766666667","6500400","永和區"
"234081","298-R6","2018/06/02 19:59:33","新北市永和區國中路1號","121.523945","25.0044233333333","6500400","永和區"
"234038","336-UY","2018/06/02 19:59:28","新北市永和區成功路二段132號","121.526568333333","24.9974283333333","6500400","永和區"
"234064","337-UY","2018/06/02 19:59:34","新北市永和區秀朗路一段192巷3號","121.519526666667","25.002545","6500400","永和區"
"234086","338-UY","2018/06/02 19:59:42","新北市永和區福和路65號","121.522825","25.0078733333333","6500400","永和區"
"234070","552-UM","2018/06/02 19:59:32","新北市永和區國光路14號","121.519178333333","25.008335","6500400","永和區"
"234017","745-BX","2018/06/02 19:59:43","新北市永和區文化路75號","121.513821666667","25.01514","6500400","永和區"
"234030","746-BX","2018/06/02 19:59:40","新北市永和區民生路22巷19號","121.521515","24.99712","6500400","永和區"
"234054","KEA-2590","2018/06/02 19:59:27","新北市永和區環河東路一段122號","121.520656666667","25.0155066666667","6500400","永和區"
"234013","KEA-2591","2018/06/02 19:59:28","新北市永和區保生路55號","121.504743333333","25.0105783333333","6500400","永和區"
"234061","AAD-866","2018/06/02 19:59:40","新北市永和區得和路68號","121.51628","24.9998433333333","6500400","永和區"
"234042","862-TW","2018/06/02 19:59:38","新北市永和區中和路335巷18弄15號","121.507841666667","25.0004883333333","6500400","永和區"
"234050","863-TW","2018/06/02 19:59:36","新北市永和區保安路141號","121.507366666667","25.013215","6500400","永和區"
"234026","9371-KE","2018/06/02 19:59:29","新北市永和區水源街21巷14弄4號","121.511408333333","25.0038033333333","6500400","永和區"
"234011","9373-KE","2018/06/02 19:59:43","新北市永和區仁愛路352巷110號","121.500565","25.0083416666667","6500400","永和區"
"249005","172-UM","2018/06/02 19:59:33","新北市八里區楓林路3-1號","121.382476666667","25.13046","6502300","八里區"
"249001","173-UM","2018/06/02 19:59:36","新北市八里區中華路二段310號","121.403838333333","25.1483866666667","6502300","八里區"
"249004","303-UY","2018/06/02 19:59:39","新北市八里區中華路一段333-1號","121.41358","25.15351","6502300","八里區"
"249002","305-UY","2018/06/02 19:59:28","新北市八里區頂寮一街20-1號","121.451991666667","25.1242916666667","6502300","八里區"
"249003","593-UM","2018/06/02 19:59:40","新北市八里區中華路二段538-3號","121.398886666667","25.1450233333333","6502300","八里區"
"248016","026-BX","2018/06/02 19:59:37","新北市五股區成泰路三段577巷31號","121.451308333333","25.1029733333333","6501500","五股區"
"248008","095-VK","2018/06/02 19:59:36","新北市五股區四維路30巷45號","121.469095","25.071555","6501500","五股區"
"248012","247-BX","2018/06/02 19:59:38","新北市五股區民義路一段84號","121.436023333333","25.08491","6501500","五股區"
"248014","261-SL","2018/06/02 19:59:29","新北市五股區五福路14巷9號","121.434776666667","25.08878","6501500","五股區"
"248010","272-BY","2018/06/02 19:59:39","新北市五股區登林路92號","121.428816666667","25.069405","6501500","五股區"
"248004","677-BX","2018/06/02 19:59:36","新北市五股區成泰路一段32巷62號","121.435121666667","25.067015","6501500","五股區"
"248002","678-BX","2018/06/02 19:59:43","新北市五股區成泰路三段436號","121.45095","25.099675","6501500","五股區"
"234077","969-R7","2018/06/02 19:59:43","新北市永和區民有街7號","121.516168333333","24.9969816666667","6500400","永和區"
"234074","AAC-211","2018/06/02 19:59:40","新北市永和區豫溪街162巷1號","121.523781666667","25.0095533333333","6500400","永和區"
"234067","AAC-212","2018/06/02 19:59:38","新北市永和區中山路一段277號","121.507121666667","25.0070316666667","6500400","永和區"
"234003","AAC-295","2018/06/02 19:59:44","新北市永和區永和路二段28號","121.514733333333","25.01032","6500400","永和區"
"244019","403-UM","2018/06/02 19:59:26","新北市林口區粉寮69號","121.404881666667","25.09079","6501700","林口區"
"244013","742-UY","2018/06/02 19:59:24","新北市八里區中華路3段78-1號","121.392728333333","25.140815","6501700","林口區"
"243013","AAD-798","2018/06/02 19:37:49","新北市泰山區應化街7號","121.423875","25.04373","6501600","泰山區"
"243009","297-R6","2018/06/02 19:59:37","新北市泰山區楓江路16巷25號","121.434066666667","25.0614833333333","6501600","泰山區"
"243016","380-SR","2018/06/02 19:59:30","新北市泰山區明志路三段492號","121.421026666667","25.0312433333333","6501600","泰山區"
"243015","421-VK","2018/06/02 19:59:43","新北市泰山區明志路二段194號","121.427455","25.0496383333333","6501600","泰山區"
"243010","KEA-2216","2018/06/02 19:59:44","新北市泰山區中華街10巷2號","121.427965","25.0524566666667","6501600","泰山區"
"243012","646-TV","2018/06/02 19:59:37","新北市泰山區全興路13號","121.432371666667","25.0589466666667","6501600","泰山區"
"243014","680-BX","2018/06/02 19:59:40","新北市泰山區泰林路二段105號","121.434608333333","25.0590983333333","6501600","泰山區"
"222002","016-RS","2018/06/02 19:59:30","新北市深坑區北深路二段81巷8弄2號","121.618373333333","25.0031466666667","6501800","深坑區"
"222003","436-BY","2018/06/02 19:59:34","新北市深坑區埔新街14號","121.620725","25.0039416666667","6501800","深坑區"
"231044","001-UM","2018/06/02 19:59:31","新北市新店區復興路36號","121.539008333333","24.9867533333333","6500600","新店區"
"231041","002-UM","2018/06/02 19:59:42","新北市新店區中正路354號","121.535818333333","24.9756916666667","6500600","新店區"
"231059","046-UY","2018/06/02 19:59:41","新北市新店區安康路二段12號","121.516211666667","24.9637833333333","6500600","新店區"
"231040","047-UY","2018/06/02 19:59:29","新北市新店區中正路64號","121.544243333333","24.9701783333333","6500600","新店區"
"231052","108-UY","2018/06/02 19:59:44","新北市新店區新烏路三段寶島巷2弄3號","121.552006666667","24.898635","6500600","新店區"
"231048","187-VK","2018/06/02 19:59:42","新北市新店區寶宏路38號","121.549471666667","24.9755233333333","6500600","新店區"
"231046","188-VK","2018/06/02 19:59:42","新北市新店區中央路97號","121.531075","24.9752133333333","6500600","新店區"
"231054","KEA-2219","2018/06/02 19:59:37","新北市新店區光明街135號","121.539488333333","24.9619766666667","6500600","新店區"
"231057","256-BX","2018/06/02 19:59:43","新北市新店區花園二路一段11號","121.55553","24.932485","6500600","新店區"
"231042","268-BY","2018/06/02 19:59:36","新北市新店區中興路一段292號","121.54589","24.969145","6500600","新店區"
"231051","278-BY","2018/06/02 19:59:35","新北市新店區中央一街20-3號","121.52825","24.9732083333333","6500600","新店區"
"231050","AAD-862","2018/06/02 19:56:16","新北市新店區北宜路二段579巷6號","121.565446666667","24.95449","6500600","新店區"
"231056","4715-K9","2018/06/02 19:59:25","新北市新店區民權路42巷26號","121.539451666667","24.98372","6500600","新店區"
"231067","4772-VM","2018/06/02 19:59:42","新北市新店區秀山路45巷6號","121.531126666667","24.96047","6500600","新店區"
"231065","512-UM","2018/06/02 19:59:35","新北市新店區安祥路109巷8號","121.475466666667","24.9588433333333","6500600","新店區"
"231049","513-UM","2018/06/02 19:59:39","新北市新店區明德路42號","121.541428333333","24.9781816666667","6500600","新店區"
"231045","617-UM","2018/06/02 19:59:28","新北市新店區北宜路二段112號","121.556331666667","24.9537366666667","6500600","新店區"
"231061","619-UM","2018/06/02 19:59:37","新北市新店區安民街304號","121.517636666667","24.9738683333333","6500600","新店區"
"231063","641-BX","2018/06/02 19:59:45","新北市新店區黎明路52巷2號","121.501953333333","24.94891","6500600","新店區"
"231068","718-UY","2018/06/02 19:59:34","新北市新店區安康路一段35-5號","121.531911666667","24.9607733333333","6500600","新店區"
"231064","719-UY","2018/06/02 19:59:38","新北市新店區碧安街3號","121.516741666667","24.9677716666667","6500600","新店區"
"231062","720-UM","2018/06/02 19:59:32","新北市新店區華城路36巷1-5號","121.52764","24.9553583333333","6500600","新店區"
"231060","897-TW","2018/06/02 19:59:25","新北市新店區安康路二段454號","121.49443","24.9542333333333","6500600","新店區"
"231043","899-TW","2018/06/02 19:59:41","新北市新店區中正路263-2號","121.538406666667","24.973775","6500600","新店區"
"231055","AKT-0513","2018/06/02 19:59:29","新北市新店區中華路83巷67號","121.538423333333","24.9673983333333","6500600","新店區"
"241011","013-R5","2018/06/02 19:59:32","新北市三重區三和路二段220號","121.497951666667","25.0695333333333","6500200","三重區"
"241028","022-UY","2018/06/02 19:59:34","新北市三重區重新路三段82號","121.493276666667","25.0608666666667","6500200","三重區"
"241008","059-VK","2018/06/02 19:59:30","新北市三重區永福街179巷15號","121.478336666667","25.0749333333333","6500200","三重區"
"241031","061-VK","2018/06/02 19:59:27","新北市三重區重新路四段144巷23號","121.487083333333","25.0552583333333","6500200","三重區"
"241015","062-VK","2018/06/02 19:59:40","新北市三重區三和路二段35-1號","121.500901666667","25.0671233333333","6500200","三重區"
"241017","063-VK","2018/06/02 19:59:26","新北市三重區自強路一段298號","121.4914","25.0683983333333","6500200","三重區"
"241024","065-VK","2018/06/02 19:59:24","新北市三重區力行路一段176號","121.482048333333","25.0714833333333","6500200","三重區"
"241026","066-VK","2018/06/02 19:59:29","新北市三重區重新路一段102號","121.501073333333","25.06318","6500200","三重區"
"241003","091-VK","2018/06/02 19:59:42","新北市三重區仁愛街431號","121.490363333333","25.0817933333333","6500200","三重區"
"241013","742-BX","2018/06/02 19:59:45","新北市三重區三和路三段125巷32號","121.493761666667","25.0737216666667","6500200","三重區"
"241005","262-UM","2018/06/02 19:59:29","新北市三重區溪尾街325巷32號","121.488766666667","25.0835016666667","6500200","三重區"
"241009","265-UM","2018/06/02 19:59:44","新北市三重區三和路四段392-1號","121.481775","25.079015","6500200","三重區"
"241016","266-UM","2018/06/02 19:59:29","新北市三重區正義北路36巷26號","121.496265","25.0632616666667","6500200","三重區"
"241022","267-UM","2018/06/02 19:59:30","新北市三重區過圳街31巷2號","121.488916666667","25.0606233333333","6500200","三重區"
"241018","268-UM","2018/06/02 19:59:28","新北市三重區正義北路244巷23號","121.495255","25.0680233333333","6500200","三重區"
"241007","398-BY","2018/06/02 19:59:42","新北市三重區溪尾街140號","121.489185","25.07973","6500200","三重區"
"241025","413-TH","2018/06/02 19:59:31","新北市三重區頂崁街210巷16號","121.476535","25.0676983333333","6500200","三重區"
"241035","462-BY","2018/06/02 19:59:29","新北市三重區大榮街11號","121.498326666667","25.0632566666667","6500200","三重區"
"241004","475-VK","2018/06/02 19:59:33","新北市三重區五華街110號","121.492325","25.0827483333333","6500200","三重區"
"241020","478-VK","2018/06/02 19:59:33","新北市三重區大智街163號","121.489833333333","25.072385","6500200","三重區"
"241030","480-VK","2018/06/02 19:59:42","新北市三重區重新路四段248-1號","121.486173333333","25.0534083333333","6500200","三重區"
"241014","543-UM","2018/06/02 19:59:29","新北市三重區三和路二段115號","121.499166666667","25.068775","6500200","三重區"
"241023","545-UM","2018/06/02 19:59:39","新北市三重區頂崁街166號","121.477575","25.0658516666667","6500200","三重區"
"241001","547-UM","2018/06/02 19:59:41","新北市三重區五華街16號","121.494708333333","25.08019","6500200","三重區"
"241019","KEA-2593","2018/06/02 19:59:39","新北市三重區重陽路四段20號","121.491003333333","25.06918","6500200","三重區"
"241006","AAD-863","2018/06/02 19:59:41","新北市三重區車路頭街150號","121.48358","25.0760333333333","6500200","三重區"
"241002","887-TS","2018/06/02 19:59:39","新北市三重區朝陽街55號","121.483375","25.057495","6500200","三重區"
"241012","941-UM","2018/06/02 19:59:33","新北市三重區仁厚街96號","121.501128333333","25.0769066666667","6500200","三重區"
"241029","942-UM","2018/06/02 19:59:35","新北市三重區重安街14號","121.490305","25.0583083333333","6500200","三重區"
"235056","096-UM","2018/06/02 19:59:14","新北市中和區中山路三段168號","121.472901666667","25.0063733333333","6500300","中和區"
"235039","097-UM","2018/06/02 19:59:41","新北市中和區景平路278巷4號","121.514043333333","24.99265","6500300","中和區"
"235065","098-UM","2018/06/02 19:59:32","新北市中和區莊敬路4號","121.49959","25.004295","6500300","中和區"
"235040","150-BY","2018/06/02 19:59:43","新北市中和區景安路77號","121.506471666667","24.997435","6500300","中和區"
"235055","183-VK","2018/06/02 19:59:38","新北市中和區民生街23巷1弄1號","121.470845","25.00545","6500300","中和區"
"235049","186-VK","2018/06/02 19:59:34","新北市中和區圓通路42號","121.500888333333","24.997725","6500300","中和區"
"235067","255-BX","2018/06/02 19:59:34","新北市中和區民樂路81號","121.484523333333","25.0013616666667","6500300","中和區"
"235044","293-VK","2018/06/02 19:59:44","新北市中和區復興路73號","121.503703333333","24.9902483333333","6500300","中和區"
"235043","352-BY","2018/06/02 19:59:46","新北市中和區興南路二段159巷12號","121.505171666667","24.9832","6500300","中和區"
"235054","269-TV","2018/06/02 19:59:42","新北市中和區莒光路25號","121.471935","25.005555","6500300","中和區"
"235050","4979-A6","2018/06/02 19:59:32","新北市中和區景平路239巷5-2號","121.509808333333","24.9925216666667","6500300","中和區"
"235069","4980-A6","2018/06/02 19:59:30","新北市中和區景平路477號","121.500305","24.9972283333333","6500300","中和區"
"235042","551-UM","2018/06/02 19:59:28","新北市中和區宜安路66號","121.511456666667","24.9971416666667","6500300","中和區"
"235070","558-UM","2018/06/02 19:59:29","新北市中和區圓通路172號","121.497363333333","24.9947433333333","6500300","中和區"
"235060","647-TV","2018/06/02 19:59:35","新北市中和區民樂路65號","121.48365","25.0013033333333","6500300","中和區"
"235046","733-UM","2018/06/02 19:59:39","新北市中和區興南路一段93巷79號","121.51051","24.9864183333333","6500300","中和區"
"235041","802-TS","2018/06/02 19:59:36","新北市中和區安平路148號","121.512388333333","24.998195","6500300","中和區"
"235052","805-TS","2018/06/02 19:59:39","新北市中和區華新街144巷18號","121.507588333333","24.9831483333333","6500300","中和區"
"235048","896-TW","2018/06/02 19:59:44","新北市中和區興南路一段1號","121.511546666667","24.9912666666667","6500300","中和區"
"235066","911-UM","2018/06/02 19:59:40","新北市中和區光華街32號","121.504796666667","25.0040616666667","6500300","中和區"
"235051","157-BY","2018/06/02 19:59:33","新北市中和區景安路247巷7號","121.504356666667","24.99064","6500300","中和區"
"235037","AAC-213","2018/06/02 19:59:30","新北市中和區自立路101號","121.522236666667","24.99481","6500300","中和區"
"235059","AAC-215","2018/06/02 19:59:46","新北市中和區圓通路335巷33弄3號","121.493326666667","24.989405","6500300","中和區"
"220065","072-UY","2018/06/02 19:59:31","新北市板橋區民族路69巷14號","121.465773333333","25.009535","6500100","板橋區"
"220106","075-UY","2018/06/02 19:59:25","新北市板橋區民治街52巷11號","121.478935","25.03286","6500100","板橋區"
"220069","AAD-861","2018/06/02 19:59:40","新北市板橋區大明街37號","121.458061666667","25.00272","6500100","板橋區"
"247024","893-R6","2018/06/02 19:59:32","新北市蘆洲區光榮路120巷8弄21號","121.465166666667","25.0883166666667","6501400","蘆洲區"
"247014","546-UM","2018/06/02 19:59:28","新北市蘆洲區成功路129號","121.4724","25.0822","6501400","蘆洲區"
"247010","341-TH","2018/06/02 19:59:45","新北市蘆洲區集賢路204號","121.483388333333","25.0873966666667","6501400","蘆洲區"
"247012","339-TH","2018/06/02 19:59:36","新北市蘆洲區民族路226號","121.479563333333","25.0880033333333","6501400","蘆洲區"
"247004","337-TH","2018/06/02 19:59:46","新北市蘆洲區長安街267巷8弄269-1號","121.458488333333","25.083775","6501400","蘆洲區"
"247006","336-TH","2018/06/02 19:59:31","新北市蘆洲區九芎街105號","121.46585","25.0797183333333","6501400","蘆洲區"
"247008","056-VK","2018/06/02 19:59:34","新北市蘆洲區信義路93號","121.47765","25.08006","6501400","蘆洲區"
"247016","007-UY","2018/06/02 19:59:41","新北市蘆洲區光華路18號","121.469625","25.0834516666667","6501400","蘆洲區"
"247002","002-UY","2018/06/02 19:59:33","新北市蘆洲區長安街274巷1號","121.457588333333","25.0870983333333","6501400","蘆洲區"
"247020","001-UY","2018/06/02 19:59:39","新北市蘆洲區民義街73號","121.473245","25.0901266666667","6501400","蘆洲區"
"235047","251-BX","2018/06/02 19:59:38","新北市中和區和平街146號","121.506201666667","24.9917933333333","6500300","中和區"
"228003","097-TW","2018/06/02 19:59:28","新北市貢寮區仁理村仁和路148號","121.923175","25.05181","6502600","貢寮區"
"224002","639-TC","2018/06/02 19:59:44","新北市瑞芳區員山子路員山巷1號","121.816896666667","25.1036016666667","6501200","瑞芳區"
"227002","642-TC","2018/06/02 19:59:29","新北市雙溪區雙溪里長安街18號","121.865063333333","25.0347783333333","6502500","雙溪區"
"227010","400-TW","2018/06/02 19:59:36","新北市雙溪區新基里新基南街25號","121.866255","25.0381516666667","6502500","雙溪區"
"253006","295-VK","2018/06/02 19:59:31","新北市石門區中山路64-1號","121.567638333333","25.2903916666667","6502200","石門區"
"222001","KEA-2212","2018/06/02 19:59:37","新北市深坑區北深路三段157號","121.602046666667","25.003155","6501800","深坑區"
"208002","KEA-2872","2018/06/02 19:59:38","新北市金山區中華路182-2號","121.632805","25.2234583333333","6502700","金山區"
"208003","665-BX","2018/06/02 19:59:30","新北市金山區永興里濆水路13號","121.626776666667","25.26841","6502700","金山區"
"208001","761-BX","2018/06/02 19:59:44","新北市金山區重和里茅埔頭15號","121.601733333333","25.21351","6502700","金山區"
"251009","008-UM","2018/06/02 19:59:33","新北市淡水區英專路28巷18號","121.445865","25.1698833333333","6501000","淡水區"
"251004","009-UM","2018/06/02 19:59:45","新北市淡水區民族路110巷38弄11號","121.461108333333","25.1357066666667","6501000","淡水區"
"251005","010-UM","2018/06/02 19:59:36","新北市淡水區學府路136巷13號","121.451095","25.1728616666667","6501000","淡水區"
"251001","011-UM","2018/06/02 19:59:31","新北市淡水區淡金路二段15號","121.447025","25.1891816666667","6501000","淡水區"
"251013","KEA-2871","2018/06/02 19:59:30","新北市淡水區下圭柔山63-7號","121.451756666667","25.2061833333333","6501000","淡水區"
"251016","179-VK","2018/06/02 19:59:33","新北市淡水區淡金路四段508號","121.452096666667","25.22549","6501000","淡水區"
"251014","180-VK","2018/06/02 19:59:41","新北市淡水區石頭厝9-3號","121.45839","25.2366366666667","6501000","淡水區"
"251015","182-VK","2018/06/02 19:59:39","新北市淡水區埤島80-7號","121.448873333333","25.1890783333333","6501000","淡水區"
"251010","413-VK","2018/06/02 19:59:29","新北市淡水區崁頂145號","121.430411666667","25.2059666666667","6501000","淡水區"
"251012","443-VK","2018/06/02 19:59:23","新北市淡水區下圭柔山99-2號","121.438628333333","25.2113366666667","6501000","淡水區"
"251006","561-UM","2018/06/02 19:59:39","新北市淡水區北新路6號","121.444435","25.1774016666667","6501000","淡水區"
"251008","575-R6","2018/06/02 19:59:26","新北市淡水區淡海路72巷18號","121.423918333333","25.180935","6501000","淡水區"
"251011","650-BX","2018/06/02 19:59:36","新北市淡水區崁頂78-3號","121.429906666667","25.206155","6501000","淡水區"
"251003","673-BX","2018/06/02 19:59:30","新北市淡水區中山北路二段189巷15弄29號","121.44332","25.1842083333333","6501000","淡水區"
"207003","550-UM","2018/06/02 19:59:24","新北市萬里區磺潭里公館崙5號","121.64191","25.214255","6502800","萬里區"
"207004","225-TW","2018/06/02 19:59:41","新北市萬里區北基里忠二街35號","121.685636666667","25.1757366666667","6502800","萬里區"
"252001","292-VK","2018/06/02 19:59:25","新北市三芝區公正街66號","121.499801666667","25.2574066666667","6502100","三芝區"
"252002","AAC-283","2018/06/02 19:59:36","新北市三芝區忠孝街116-3號","121.505498333333","25.2576166666667","6502100","三芝區"
"237004","KEA-2597","2018/06/02 19:59:32","新北市三峽區添福15-32號","121.37257","24.90473","6500900","三峽區"
"237009","210-TH","2018/06/02 19:59:30","新北市三峽區民族街28巷1號","121.369081666667","24.930905","6500900","三峽區"
"237012","275-BY","2018/06/02 19:59:20","新北市三峽區大同路196-4號","121.371175","24.92719","6500900","三峽區"
"237008","302-VK","2018/06/02 19:59:35","新北市三峽區中正路一段174巷9號","121.371896666667","24.928915","6500900","三峽區"
"237014","433-BY","2018/06/02 19:59:39","新北市三峽區介壽路一段53號","121.375681666667","24.932955","6500900","三峽區"
"237006","5529-G3","2018/06/02 19:59:34","新北市三峽區中正路二段24號","121.367211666667","24.91961","6500900","三峽區"
"237016","649-BX","2018/06/02 19:59:31","新北市三峽區介壽路二段138巷16號","121.395953333333","24.9346716666667","6500900","三峽區"
"237005","AKY-6261","2018/06/02 19:59:34","新北市三峽區民生街1巷7號","121.379755","24.9359033333333","6500900","三峽區"
"236070","105-UM","2018/06/02 19:59:24","新北市土城區忠義路77號","121.443065","24.9650383333333","6501300","土城區"
"236042","107-UM","2018/06/02 19:59:32","新北市土城區學府路一段113號","121.455548333333","24.9874916666667","6501300","土城區"
"236030","253-BX","2018/06/02 19:59:42","新北市土城區中央路一段252號","121.444323333333","24.9846116666667","6501300","土城區"
"236026","269-VK","2018/06/02 19:59:36","新北市土城區中央路二段89號","121.442283333333","24.97816","6501300","土城區"
"236014","270-VK","2018/06/02 19:59:40","新北市土城區廣福街128號","121.456326666667","24.9929066666667","6501300","土城區"
"236038","271-VK","2018/06/02 19:59:34","新北市土城區國際路70號","121.466531666667","24.978135","6501300","土城區"
"236021","401-BY","2018/06/02 19:59:41","新北市土城區延吉街111巷1弄1號","121.471506666667","24.9864583333333","6501300","土城區"
"236079","752-BX","2018/06/02 19:59:24","新北市土城區福安街86號","121.417978333333","24.964255","6501300","土城區"
"236059","912-UM","2018/06/02 19:59:26","新北市土城區中央路一段289-1號","121.444298333333","24.9842216666667","6501300","土城區"
"236049","913-UM","2018/06/02 19:59:33","新北市土城區金城路三段190號","121.468348333333","24.9879666666667","6501300","土城區"
"236063","915-UM","2018/06/02 19:59:43","新北市土城區金城路三段149巷4弄8號","121.468745","24.9889916666667","6501300","土城區"
"236055","AAC-216","2018/06/02 19:59:43","新北市土城區學府路一段8號","121.459473333333","24.9884933333333","6501300","土城區"
"242034","AAC-296","2018/06/02 19:59:35","新北市新莊區仁愛街54巷1號","121.444901666667","25.0371416666667","6500500","新莊區"
"242058","986-R7","2018/06/02 19:59:27","新北市新莊區八德街29號","121.424991666667","25.0224083333333","6500500","新莊區"
"242025","613-BX","2018/06/02 19:58:51","新北市新莊區五工一路86號","121.461333333333","25.0674516666667","6500500","新莊區"
"242029","612-BX","2018/06/02 19:59:42","新北市新莊區中榮街152巷45號","121.445461666667","25.0537016666667","6500500","新莊區"
"242042","566-BX","2018/06/02 19:59:26","新北市新莊區青山路一段8-2號","121.411583333333","25.0274316666667","6500500","新莊區"
"242046","497-BY","2018/06/02 19:59:32","新北市新莊區裕民街19巷4號","121.419805","25.025225","6500500","新莊區"
"242056","440-UM","2018/06/02 19:59:39","新北市新莊區中正路347巷17弄6號","121.447398333333","25.0343616666667","6500500","新莊區"
"242036","415-TV","2018/06/02 19:59:35","新北市新莊區建安街39號","121.429023333333","25.0255383333333","6500500","新莊區"
"242007","413-TV","2018/06/02 19:59:39","新北市新莊區思源路682號","121.459713333333","25.0579583333333","6500500","新莊區"
"242044","400-BY","2018/06/02 19:59:37","新北市新莊區中正路891-17號","121.412835","25.022485","6500500","新莊區"
"242023","362-BY","2018/06/02 19:59:30","新北市新莊區化成路478號","121.466063333333","25.0516066666667","6500500","新莊區"
"242061","353-BY","2018/06/02 19:59:41","新北市新莊區瓊泰路21號","121.444273333333","25.0286083333333","6500500","新莊區"
"242031","135-UY","2018/06/02 19:59:44","新北市新莊區公園一路63號","121.44311","25.0365866666667","6500500","新莊區"
"242048","172-VK","2018/06/02 19:59:20","新北市新莊區四維路8號","121.423921666667","25.0252816666667","6500500","新莊區"
"242011","173-VK","2018/06/02 19:58:30","新北市新莊區中港路531巷10號","121.450766666667","25.0515216666667","6500500","新莊區"
"242017","175-VK","2018/06/02 19:59:33","新北市新莊區中安街33號","121.452475","25.0459766666667","6500500","新莊區"
"242004","176-VK","2018/06/02 19:59:44","新北市新莊區頭前路167號","121.460683333333","25.0526733333333","6500500","新莊區"
"242015","346-TH","2018/06/02 19:59:41","新北市新莊區復興路一段33巷6號","121.44631","25.0422966666667","6500500","新莊區"
"242021","348-TH","2018/06/02 19:59:29","新北市新莊區建中街16巷35號","121.44869","25.0384016666667","6500500","新莊區"
"242051","349-TH","2018/06/02 19:59:40","新北市新莊區民安西路137號","121.426388333333","25.01752","6500500","新莊區"
"242019","350-TH","2018/06/02 19:59:32","新北市新莊區民生街15巷9號","121.455258333333","25.0426133333333","6500500","新莊區"
"238015","755-BX","2018/06/02 19:59:25","新北市樹林區中山路三段210-2號","121.380786666667","24.96688","6500700","樹林區"
"238021","KEA-2539","2018/06/02 19:59:35","新北市樹林區佳園路三段99巷19號","121.389303333333","24.9522016666667","6500700","樹林區"
"239006","891-R6","2018/06/02 19:59:27","新北市鶯歌區文化路145巷1號","121.356708333333","24.9539966666667","6500800","鶯歌區"
"221036","130-UY","2018/06/02 19:59:43","新北市汐止區新台五路二段85巷8號","121.66459","25.0672516666667","6501100","汐止區"
"221015","131-UY","2018/06/02 19:59:33","新北市汐止區忠孝東路473巷18號","121.66525","25.0734366666667","6501100","汐止區"
"221010","269-BY","2018/06/02 19:59:36","新北市汐止區連峰街225巷25號","121.644016666667","25.0809866666667","6501100","汐止區"
"221012","278-VK","2018/06/02 19:59:31","新北市汐止區大同路三段186號","121.674451666667","25.0744166666667","6501100","汐止區"
"221023","279-VK","2018/06/02 19:59:27","新北市汐止區明峰街295號","121.625605","25.06793","6501100","汐止區"
"221032","280-BY","2018/06/02 19:59:34","新北市汐止區橫科路18巷9弄1號","121.61788","25.0506533333333","6501100","汐止區"
"221027","281-BY","2018/06/02 19:59:35","新北市汐止區信義路19號","121.661585","25.0694783333333","6501100","汐止區"
"221029","298-VK","2018/06/02 19:59:26","新北市汐止區樟樹一路137巷26號","121.64096","25.06588","6501100","汐止區"
"221021","299-VK","2018/06/02 19:59:33","新北市汐止區連興街143號","121.654086666667","25.0615583333333","6501100","汐止區"
"221031","353-TW","2018/06/02 19:59:31","新北市汐止區福德一路212號","121.634448333333","25.06523","6501100","汐止區"
"221008","129-UY","2018/06/02 19:59:34","台北市內湖區安泰街2號","121.619561666667","25.0732933333333","6501100","汐止區"
"221035","622-UM","2018/06/02 19:59:23","新北市汐止區長江街57巷10號","121.656131666667","25.0719166666667","6501100","汐止區"
"221025","623-UM","2018/06/02 19:59:38","新北市汐止區秀峰路116號","121.659976666667","25.0634883333333","6501100","汐止區"
"221038","646-BX","2018/06/02 19:59:44","新北市汐止區忠孝東路474號","121.666143333333","25.0733633333333","6501100","汐止區"
"221033","647-BX","2018/06/02 19:59:36","新北市汐止區東勢街190巷3號","121.633868333333","25.041595","6501100","汐止區"
"221018","753-BX","2018/06/02 19:59:28","新北市汐止區茄苳路282巷1號","121.672505","25.0677983333333","6501100","汐止區"
"220079","145-BY","2018/06/02 19:59:36","新北市板橋區大智街93號","121.453031666667","25.0158783333333","6500100","板橋區"
"220080","200-UY","2018/06/02 19:59:30","新北市板橋區大觀路二段163巷23號","121.446601666667","25.0000966666667","6500100","板橋區"
"242002","KEA-2550","2018/06/02 19:59:36","新北市新莊區中正路283號","121.448963333333","25.0351483333333","6500500","新莊區"
"220082","610-BX","2018/06/02 19:59:40","新北市板橋區篤行路二段131巷23號","121.431761666667","24.990275","6500100","板橋區"
"220101","245-BX","2018/06/02 19:59:37","新北市板橋區萬板路126號","121.475011666667","25.0233916666667","6500100","板橋區"
"220103","257-TC","2018/06/02 19:59:39","新北市板橋區自由路13號","121.465488333333","25.022665","6500100","板橋區"
"220093","267-BY","2018/06/02 19:59:33","新北市板橋區長江路三段56號","121.473488333333","25.03398","6500100","板橋區"
"220072","277-BY","2018/06/02 19:59:34","新北市板橋區大觀路三段201號","121.431788333333","24.9932666666667","6500100","板橋區"
"220071","283-VK","2018/06/02 19:59:25","新北市板橋區廣權路129號","121.465575","24.993285","6500100","板橋區"
"220094","285-UM","2018/06/02 19:59:36","新北市板橋區陽明街243號","121.46299","25.024565","6500100","板橋區"
"220053","285-VK","2018/06/02 19:59:33","新北市板橋區中山路二段90巷5號","121.475415","25.0161616666667","6500100","板橋區"
"220083","286-VK","2018/06/02 19:59:40","新北市板橋區僑中二街48巷14號","121.445736666667","25.0103433333333","6500100","板橋區"
"220081","287-VK","2018/06/02 19:59:42","新北市板橋區大觀路一段29巷131弄27號","121.450586666667","25.0046666666667","6500100","板橋區"
"220090","288-VK","2018/06/02 19:59:26","新北市板橋區綠堤街29號","121.455786666667","25.026455","6500100","板橋區"
"220061","293-UM","2018/06/02 19:59:38","新北市板橋區觀光街57巷15弄1號","121.470333333333","25.0161866666667","6500100","板橋區"
"220084","296-UM","2018/06/02 19:59:33","新北市板橋區溪崑二街114號","121.426213333333","24.9886466666667","6500100","板橋區"
"220075","303-R5","2018/06/02 19:59:35","新北市板橋區金華街10巷83號","121.458248333333","25.0204033333333","6500100","板橋區"
"220062","305-R5","2018/06/02 19:59:27","新北市板橋區光復街172巷31弄5-2號","121.486328333333","25.0189866666667","6500100","板橋區"
"220092","307-R5","2018/06/02 19:59:43","新北市板橋區四維路259巷64號","121.460493333333","25.02685","6500100","板橋區"
"220098","317-R6","2018/06/02 19:59:42","新北市板橋區新海路72巷46弄7號","121.462315","25.023325","6500100","板橋區"
"220064","486-VK","2018/06/02 19:59:29","新北市板橋區漢生東路193巷21-2號","121.470818333333","25.0121033333333","6500100","板橋區"
"242039","280-VK","2018/06/02 19:59:29","新北市新莊區民安路316號","121.42851","25.0220016666667","6500500","新莊區"
"220088","491-VK","2018/06/02 19:59:25","新北市板橋區懷德街189-1號","121.479825","25.0295716666667","6500100","板橋區"
"220035","560-BX","2018/06/02 19:59:26","新北市板橋區新生街53巷3弄12號","121.45702","25.0217883333333","6500100","板橋區"
"220091","637-BX","2018/06/02 19:59:39","新北市板橋區文聖街89巷13號","121.478016666667","25.030245","6500100","板橋區"
"220057","686-BX","2018/06/02 19:59:38","新北市板橋區四川路二段130巷53號","121.449725","24.99478","6500100","板橋區"
"220054","741-BX","2018/06/02 19:59:41","新北市板橋區忠孝路忠義巷9弄14號","121.465476666667","25.004015","6500100","板橋區"
"220102","KEA-2699","2018/06/02 19:59:29","新北市板橋區仁化街66號","121.475935","25.0318916666667","6500100","板橋區"
"220070","806-UM","2018/06/02 19:59:27","新北市板橋區四川路一段104號","121.459743333333","25.0046433333333","6500100","板橋區"
"220055","827-TW","2018/06/02 19:59:35","新北市板橋區仁愛路62巷15弄2號","121.460023333333","24.9984766666667","6500100","板橋區"
"220067","829-TW","2018/06/02 19:59:29","新北市板橋區中山路一段206巷40弄13號","121.471373333333","25.0123666666667","6500100","板橋區"
"220068","830-TW","2018/06/02 19:59:26","新北市板橋區光復街172巷29號","121.485648333333","25.0189816666667","6500100","板橋區"
"220096","831-TW","2018/06/02 19:59:45","新北市板橋區文化路一段370-1號","121.46981","25.0236616666667","6500100","板橋區"
"220089","833-TW","2018/06/02 19:59:31","新北市板橋區龍泉街57號","121.457095","25.0259016666667","6500100","板橋區"
"220074","895-R6","2018/06/02 19:59:28","新北市板橋區縣民大道一段287號","121.460735","25.0101166666667","6500100","板橋區"
"220073","985-R7","2018/06/02 19:59:41","新北市板橋區南雅西路二段42號","121.452825","25.0100766666667","6500100","板橋區"
"220097","AAC-210","2018/06/02 19:59:42","新北市板橋區文化路一段221巷14號","121.463196666667","25.0178033333333","6500100","板橋區"
"235068","KEA-2873","2018/06/02 19:59:36","新北市中和區中山路二段250巷24號","121.497381666667","25.0033833333333","6500300","中和區"
