"lineid","car","time","location","longitude","latitude","cityid","cityname"
"234007","207-UY","2018/06/02 20:19:46","新北市永和區環河西路二段217巷5號","121.501683333333","25.0099233333333","6500400","永和區"
"234081","298-R6","2018/06/02 20:19:53","新北市永和區福和路19巷4號","121.524026666667","25.0077033333333","6500400","永和區"
"234038","336-UY","2018/06/02 20:19:48","新北市永和區成功路一段93巷11號","121.527593333333","25.0027133333333","6500400","永和區"
"234064","337-UY","2018/06/02 20:19:54","新北市永和區中正路267號","121.517578333333","25.0007366666667","6500400","永和區"
"234086","338-UY","2018/06/02 20:19:42","新北市永和區永和路二段213號","121.515411666667","25.0139333333333","6500400","永和區"
"234070","552-UM","2018/06/02 20:19:52","新北市永和區福和路263巷13號","121.517993333333","25.006585","6500400","永和區"
"234017","745-BX","2018/06/02 20:19:44","新北市永和區仁愛路36號","121.51437","25.0135216666667","6500400","永和區"
"234030","746-BX","2018/06/02 20:19:54","新北市永和區民有街75巷10弄22號","121.519263333333","24.996005","6500400","永和區"
"234054","KEA-2590","2018/06/02 20:19:48","新北市永和區光復街2巷26弄1號","121.517601666667","25.0166","6500400","永和區"
"234013","KEA-2591","2018/06/02 20:19:48","新北市永和區保生路40巷1號","121.505858333333","25.0082983333333","6500400","永和區"
"234061","AAD-866","2018/06/02 20:19:40","新北市中和區安平路222號","121.514053333333","25.000225","6500400","永和區"
"234042","862-TW","2018/06/02 20:19:47","新北市中和區中安街180號","121.511055","24.9995233333333","6500400","永和區"
"234050","863-TW","2018/06/02 20:19:50","新北市永和區環河西路二段7-5號","121.508903333333","25.0167233333333","6500400","永和區"
"249005","172-UM","2018/06/02 20:19:53","新北市八里區下罟子2-17號","121.388293333333","25.1410466666667","6502300","八里區"
"249001","173-UM","2018/06/02 20:19:56","新北市八里區中華路二段538號","121.399078333333","25.14508","6502300","八里區"
"249004","303-UY","2018/06/02 20:19:39","新北市八里區中山路一段143號","121.413043333333","25.1591416666667","6502300","八里區"
"249002","305-UY","2018/06/02 20:19:48","新北市八里區龍米路一段472號","121.44957","25.1378383333333","6502300","八里區"
"249003","593-UM","2018/06/02 20:19:40","新北市八里區中山路二段447巷19號","121.397268333333","25.1454","6502300","八里區"
"248016","026-BX","2018/06/02 20:19:57","新北市五股區凌雲路一段158巷50弄2號","121.447128333333","25.1044516666667","6501500","五股區"
"248012","247-BX","2018/06/02 20:19:38","新北市五股區民義路一段212號","121.430616666667","25.0893483333333","6501500","五股區"
"248014","261-SL","2018/06/02 20:18:29","新北市五股區中直路21號","121.421235","25.11199","6501500","五股區"
"248010","272-BY","2018/06/02 20:19:39","新北市泰山區楓江路113號","121.43862","25.0643616666667","6501500","五股區"
"248004","677-BX","2018/06/02 20:19:56","新北市五股區成泰路二段102號","121.437543333333","25.0829566666667","6501500","五股區"
"248002","678-BX","2018/06/02 20:19:52","新北市五股區成泰路三段101-1號","121.444028333333","25.09025","6501500","五股區"
"234023","9380-KE","2018/06/02 20:19:52","新北市永和區中正路654巷30號","121.517746666667","25.0085416666667","6500400","永和區"
"234077","969-R7","2018/06/02 20:19:43","新北市永和區民享街11號","121.515313333333","24.9953283333333","6500400","永和區"
"234074","AAC-211","2018/06/02 20:19:40","新北市永和區竹林路201巷22弄7號","121.522405","25.00944","6500400","永和區"
"234067","AAC-212","2018/06/02 20:19:48","新北市永和區保平路266號","121.508718333333","25.00513","6500400","永和區"
"234003","AAC-295","2018/06/02 20:19:50","新北市永和區自強街16號","121.514991666667","25.0079916666667","6500400","永和區"
"243013","AAD-798","2018/06/02 20:19:41","新北市泰山區新民路42號","121.427276666667","25.04428","6501600","泰山區"
"243009","297-R6","2018/06/02 20:19:37","新北市泰山區福泰街24巷4號","121.433398333333","25.0598566666667","6501600","泰山區"
"243016","380-SR","2018/06/02 20:19:50","新北市泰山區明志路三段235號","121.423706666667","25.0377933333333","6501600","泰山區"
"243015","421-VK","2018/06/02 20:19:43","新北市泰山區仁愛路43號","121.432423333333","25.05518","6501600","泰山區"
"243010","KEA-2216","2018/06/02 20:19:44","新北市泰山區明志路二段246巷4號","121.42629","25.0482883333333","6501600","泰山區"
"243012","646-TV","2018/06/02 20:19:57","新北市泰山區楓江路142-1號","121.440015","25.065275","6501600","泰山區"
"243014","680-BX","2018/06/02 20:19:40","新北市泰山區泰林路二段346號","121.429296666667","25.06347","6501600","泰山區"
"222002","016-RS","2018/06/02 20:19:50","新北市深坑區萬福路75巷8-2號","121.599555","25.0096433333333","6501800","深坑區"
"222003","436-BY","2018/06/02 20:19:55","新北市深坑區文化街88號","121.617578333333","25.0019633333333","6501800","深坑區"
"231044","001-UM","2018/06/02 20:19:51","新北市新店區北新路三段87號","121.541571666667","24.9816383333333","6500600","新店區"
"231041","002-UM","2018/06/02 20:19:42","新北市新店區民權路44號","121.540213333333","24.9830166666667","6500600","新店區"
"231059","046-UY","2018/06/02 20:19:41","新北市新店區安成街42號","121.509806666667","24.961245","6500600","新店區"
"231040","047-UY","2018/06/02 20:19:49","新北市新店區中華路147號","121.538385","24.970605","6500600","新店區"
"231052","108-UY","2018/06/02 20:19:44","新北市新店區松林路2號","121.546633333333","24.9110383333333","6500600","新店區"
"231048","187-VK","2018/06/02 20:19:42","新北市新店區寶橋路97號","121.547216666667","24.976245","6500600","新店區"
"231046","188-VK","2018/06/02 20:19:42","新北市新店區薏仁坑路自強巷1號","121.496806666667","24.9581433333333","6500600","新店區"
"231054","KEA-2219","2018/06/02 20:19:57","新北市新店區檳榔路109號","121.544486666667","24.9616883333333","6500600","新店區"
"231057","256-BX","2018/06/02 20:19:43","新北市新店區花園五路二段27號","121.554735","24.9347483333333","6500600","新店區"
"231042","268-BY","2018/06/02 20:19:36","新北市新店區中興路二段100巷1號","121.547561666667","24.9715733333333","6500600","新店區"
"231051","278-BY","2018/06/02 20:19:35","新北市新店區中央六街117號","121.525126666667","24.9775316666667","6500600","新店區"
"231050","AAD-862","2018/06/02 20:19:43","新北市新店區博愛街9巷2號","121.540838333333","24.9729616666667","6500600","新店區"
"231066","4716-K9","2018/06/02 20:19:55","新北市新店區安興路112號","121.514611666667","24.9774266666667","6500600","新店區"
"231056","4715-K9","2018/06/02 20:19:45","新北市新店區中正路275巷45號","121.536643333333","24.972635","6500600","新店區"
"231067","4772-VM","2018/06/02 20:19:42","新北市新店區安華路28-1號","121.519548333333","24.9609133333333","6500600","新店區"
"231065","512-UM","2018/06/02 20:19:55","新北市新店區安祥路106巷12號","121.47849","24.9625116666667","6500600","新店區"
"231049","513-UM","2018/06/02 20:19:39","新北市新店區北新路二段7號","121.542728333333","24.9713733333333","6500600","新店區"
"231045","617-UM","2018/06/02 20:19:48","新北市新店區新坡一街111號","121.547395","24.9638166666667","6500600","新店區"
"231061","619-UM","2018/06/02 20:19:37","新北市新店區安興路33-1號","121.515888333333","24.970475","6500600","新店區"
"231063","641-BX","2018/06/02 20:19:45","新北市新店區安康路二段383號","121.494963333333","24.95461","6500600","新店區"
"231068","718-UY","2018/06/02 20:19:54","新北市新店區寶安街6巷2號","121.542238333333","24.9812483333333","6500600","新店區"
"231064","719-UY","2018/06/02 20:19:38","新北市新店區安樂街12號","121.520766666667","24.9733716666667","6500600","新店區"
"231062","720-UM","2018/06/02 20:17:07","新北市新店區安康路二段362號","121.501768333333","24.9574","6500600","新店區"
"231060","897-TW","2018/06/02 20:19:45","新北市新店區錦秀路11巷96弄2號","121.480138333333","24.9421266666667","6500600","新店區"
"231043","899-TW","2018/06/02 20:19:41","新北市新店區民族路66號","121.539431666667","24.9782866666667","6500600","新店區"
"231055","AKT-0513","2018/06/02 20:19:49","新北市新店區北新路一段303號","121.541448333333","24.9675716666667","6500600","新店區"
"241011","013-R5","2018/06/02 20:19:52","新北市三重區龍門路187號","121.499451666667","25.0731833333333","6500200","三重區"
"241028","022-UY","2018/06/02 20:19:54","新北市三重區大同南路100號","121.496236666667","25.0588066666667","6500200","三重區"
"241008","059-VK","2018/06/02 20:19:50","新北市三重區永福街211巷19號","121.479221666667","25.07412","6500200","三重區"
"241031","061-VK","2018/06/02 20:19:47","新北市三重區三寧街15號","121.489471666667","25.05978","6500200","三重區"
"241015","062-VK","2018/06/02 20:19:40","新北市三重區重新路一段130號","121.500138333333","25.0628916666667","6500200","三重區"
"241017","063-VK","2018/06/02 20:19:47","新北市三重區自強路一段236號","121.493346666667","25.0670616666667","6500200","三重區"
"241024","065-VK","2018/06/02 20:19:44","新北市三重區忠孝路三段12號","121.481758333333","25.0673433333333","6500200","三重區"
"241026","066-VK","2018/06/02 20:19:49","新北市三重區福德南路52-1號","121.503033333333","25.0622416666667","6500200","三重區"
"241002","090-VK","2018/06/02 20:19:54","新北市三重區仁義街101巷42號","121.499161666667","25.0807933333333","6500200","三重區"
"241003","091-VK","2018/06/02 20:19:42","新北市三重區富華街98號","121.49125","25.0836516666667","6500200","三重區"
"241013","742-BX","2018/06/02 20:19:45","新北市三重區三和路三段167巷6號","121.492106666667","25.0741483333333","6500200","三重區"
"241005","262-UM","2018/06/02 20:19:49","新北市三重區仁愛街502號","121.488046666667","25.0821116666667","6500200","三重區"
"241009","265-UM","2018/06/02 20:19:44","新北市三重區三和路四段382巷2號","121.481918333333","25.0786683333333","6500200","三重區"
"241016","266-UM","2018/06/02 20:19:48","新北市三重區大同北路54巷3號","121.494048333333","25.06365","6500200","三重區"
"241022","267-UM","2018/06/02 20:19:50","新北市三重區市前街4號","121.488991666667","25.0620633333333","6500200","三重區"
"241018","268-UM","2018/06/02 20:19:48","新北市三重區雙園街105號","121.493681666667","25.067285","6500200","三重區"
"241007","398-BY","2018/06/02 20:19:42","新北市三重區溪尾街108巷33號","121.488158333333","25.0785616666667","6500200","三重區"
"241025","413-TH","2018/06/02 20:19:47","新北市三重區三民街272巷6-1號","121.478805","25.0677583333333","6500200","三重區"
"241035","462-BY","2018/06/02 20:19:49","新北市三重區正義北路33巷52號","121.49905","25.0639583333333","6500200","三重區"
"241004","475-VK","2018/06/02 20:19:53","新北市三重區仁愛街376號","121.491246666667","25.0806916666667","6500200","三重區"
"241020","478-VK","2018/06/02 20:19:53","新北市三重區明德街61號","121.491995","25.072135","6500200","三重區"
"241030","480-VK","2018/06/02 20:19:42","新北市三重區環河南路254巷53號","121.48803","25.052305","6500200","三重區"
"241014","543-UM","2018/06/02 20:19:49","新北市三重區長榮路75號","121.502596666667","25.0690833333333","6500200","三重區"
"241023","545-UM","2018/06/02 20:19:39","新北市三重區忠孝路三段56-1號","121.480508333333","25.0652116666667","6500200","三重區"
"241001","547-UM","2018/06/02 20:19:42","新北市三重區溪尾街42-1號","121.49101","25.0770783333333","6500200","三重區"
"241019","KEA-2593","2018/06/02 20:19:39","新北市三重區忠孝路一段66號","121.490235","25.0717266666667","6500200","三重區"
"241006","AAD-863","2018/06/02 20:19:41","新北市三重區車路頭街139巷14號","121.484313333333","25.07621","6500200","三重區"
"241002","887-TS","2018/06/02 20:19:39","新北市三重區捷運路19巷15號","121.485023333333","25.0569466666667","6500200","三重區"
"241012","941-UM","2018/06/02 20:19:53","新北市三重區河邊北街286號","121.50129","25.0771316666667","6500200","三重區"
"241029","942-UM","2018/06/02 20:19:55","新北市三重區光明路116號","121.492703333333","25.0560716666667","6500200","三重區"
"235039","097-UM","2018/06/02 20:19:41","新北市中和區大勇街27巷6號","121.51711","24.99376","6500300","中和區"
"235065","098-UM","2018/06/02 20:19:53","新北市中和區永和路128巷47號","121.497716666667","25.0068916666667","6500300","中和區"
"235040","150-BY","2018/06/02 20:19:43","新北市中和區保健路63-1號","121.509638333333","24.9972","6500300","中和區"
"235049","186-VK","2018/06/02 20:19:54","新北市新店區安豐路30-1號","121.50068","24.9568933333333","6500300","中和區"
"235043","352-BY","2018/06/02 20:19:46","新北市三重區光復路二段175號","121.472686666667","25.0618433333333","6500300","中和區"
"235050","4979-A6","2018/06/02 20:19:52","新北市中和區景安路177巷8號","121.505766666667","24.9939833333333","6500300","中和區"
"235069","4980-A6","2018/06/02 20:19:51","新北市中和區圓通路198巷2號","121.496203333333","24.9944383333333","6500300","中和區"
"235042","551-UM","2018/06/02 20:19:48","新北市新店區薏仁坑路自強巷1號","121.496921666667","24.9580833333333","6500300","中和區"
"235066","911-UM","2018/06/02 20:19:46","新北市中和區保平路372號","121.506336666667","25.0035033333333","6500300","中和區"
"235059","AAC-215","2018/06/02 20:19:26","新北市中和區圓通路403-1號","121.489171666667","24.9891533333333","6500300","中和區"
"247024","893-R6","2018/06/02 20:19:52","新北市蘆洲區光明路106巷17號","121.463988333333","25.087565","6501400","蘆洲區"
"247014","546-UM","2018/06/02 20:19:48","新北市蘆洲區中山二路137巷24號","121.472301666667","25.08096","6501400","蘆洲區"
"247022","500-BY","2018/06/02 20:19:36","新北市蘆洲區民族路451號","121.46746","25.0886483333333","6501400","蘆洲區"
"247010","341-TH","2018/06/02 20:19:46","新北市蘆洲區信義路188巷23號","121.480145","25.0845783333333","6501400","蘆洲區"
"247012","339-TH","2018/06/02 20:19:56","新北市蘆洲區中興街15巷10號","121.480461666667","25.0873416666667","6501400","蘆洲區"
"247004","337-TH","2018/06/02 20:19:40","新北市蘆洲區永康街116號","121.45817","25.0853866666667","6501400","蘆洲區"
"247006","336-TH","2018/06/02 20:19:51","新北市蘆洲區九芎街140號","121.464938333333","25.0789133333333","6501400","蘆洲區"
"247018","057-VK","2018/06/02 20:19:39","新北市蘆洲區民族路408巷11號","121.474776666667","25.0920816666667","6501400","蘆洲區"
"247008","056-VK","2018/06/02 20:19:54","新北市蘆洲區集賢路223-1號","121.482573333333","25.0864416666667","6501400","蘆洲區"
"247016","007-UY","2018/06/02 20:19:48","新北市蘆洲區光華路132巷30號","121.46572","25.08353","6501400","蘆洲區"
"247002","002-UY","2018/06/02 20:19:52","新北市蘆洲區長安街331巷32號","121.455995","25.086645","6501400","蘆洲區"
"247020","001-UY","2018/06/02 20:19:39","新北市蘆洲區仁愛街18號","121.472285","25.0927766666667","6501400","蘆洲區"
"224010","AGQ-8101","2018/06/02 20:19:46","新北市瑞芳區輕便路226號","121.844851666667","25.1088616666667","6501200","瑞芳區"
"224002","639-TC","2018/06/02 20:19:44","新北市瑞芳區大寮路356-1號","121.784861666667","25.1031933333333","6501200","瑞芳區"
"222001","KEA-2212","2018/06/02 20:19:54","新北市深坑區北深路三段256號","121.599693333333","25.0043416666667","6501800","深坑區"
"251009","008-UM","2018/06/02 20:19:53","新北市淡水區中正路118號","121.441676666667","25.169555","6501000","淡水區"
"251004","009-UM","2018/06/02 20:19:45","新北市淡水區竹林路151號","121.462695","25.1429916666667","6501000","淡水區"
"251001","011-UM","2018/06/02 20:19:51","新北市淡水區新市二路四段265號","121.44573","25.1925166666667","6501000","淡水區"
"251002","012-UM","2018/06/02 20:19:45","新北市淡水區中正路27號","121.442528333333","25.169615","6501000","淡水區"
"251013","KEA-2871","2018/06/02 20:19:50","新北市淡水區相公山1-3號","121.474093333333","25.2066316666667","6501000","淡水區"
"251016","179-VK","2018/06/02 20:19:53","新北市淡水區番子田18號","121.457398333333","25.2291266666667","6501000","淡水區"
"251014","180-VK","2018/06/02 20:19:41","新北市淡水區石頭厝1號","121.45872","25.23553","6501000","淡水區"
"251015","182-VK","2018/06/02 20:19:39","新北市淡水區淡金路三段254號","121.449085","25.2061383333333","6501000","淡水區"
"251010","413-VK","2018/06/02 20:19:49","新北市淡水區新民街一段132號","121.42771","25.1887266666667","6501000","淡水區"
"251012","443-VK","2018/06/02 20:19:43","新北市淡水區淡金路三段436號","121.450633333333","25.2131183333333","6501000","淡水區"
"251006","561-UM","2018/06/02 20:19:39","新北市淡水區淡金路一段571號","121.45265","25.1805216666667","6501000","淡水區"
"251008","575-R6","2018/06/02 20:19:45","新北市淡水區淡海路182巷17號","121.421118333333","25.1847683333333","6501000","淡水區"
"251011","650-BX","2018/06/02 20:19:56","新北市淡水區崁頂78-5號","121.429636666667","25.2066883333333","6501000","淡水區"
"251003","673-BX","2018/06/02 20:19:50","新北市淡水區中山北路一段229號","121.444471666667","25.1795166666667","6501000","淡水區"
"207004","225-TW","2018/06/02 20:19:45","新北市萬里區北基里大仁路4號","121.68204","25.1753116666667","6502800","萬里區"
"252002","178-VK","2018/06/02 20:19:36","新北市三芝區中正路一段25號","121.502995","25.2585983333333","6502100","三芝區"
"252001","292-VK","2018/06/02 20:19:45","新北市三芝區中山路一段14號","121.500723333333","25.25803","6502100","三芝區"
"237006","5529-G3","2018/06/02 20:19:34","新北市三峽區中正路二段125-5號","121.366208333333","24.9162016666667","6500900","三峽區"
"236070","105-UM","2018/06/02 20:19:44","新北市土城區三民路47-1號","121.419803333333","24.96414","6501300","土城區"
"236042","107-UM","2018/06/02 20:19:53","新北市土城區中華路一段50號","121.445788333333","24.9887366666667","6501300","土城區"
"236030","253-BX","2018/06/02 20:19:42","新北市土城區學成路128巷8弄1號","121.449528333333","24.9899133333333","6501300","土城區"
"236026","269-VK","2018/06/02 20:19:47","新北市土城區中央路一段249巷10弄12號","121.445693333333","24.9852616666667","6501300","土城區"
"236014","270-VK","2018/06/02 20:19:40","新北市土城區廣明街90巷23號","121.455426666667","24.9946383333333","6501300","土城區"
"236059","912-UM","2018/06/02 20:19:46","新北市土城區中央路三段140號","121.433273333333","24.9656166666667","6501300","土城區"
"242034","AAC-296","2018/06/02 20:19:55","新北市新莊區中正路318巷16號","121.446625","25.0359416666667","6500500","新莊區"
"242058","986-R7","2018/06/02 20:19:47","新北市新莊區龍安路280號","121.422343333333","25.01911","6500500","新莊區"
"242027","615-BX","2018/06/02 20:19:42","新北市新莊區幸福路566號","121.454366666667","25.0493983333333","6500500","新莊區"
"242025","613-BX","2018/06/02 20:19:53","新北市新莊區五工一路80巷3號","121.46178","25.067085","6500500","新莊區"
"242029","612-BX","2018/06/02 20:19:42","新北市新莊區中原路112號","121.450495","25.0543383333333","6500500","新莊區"
"242042","566-BX","2018/06/02 20:19:46","新北市新莊區壽山路45號","121.414818333333","25.031045","6500500","新莊區"
"242046","497-BY","2018/06/02 20:19:52","新北市新莊區中正路新生巷33號","121.417135","25.0234766666667","6500500","新莊區"
"242056","440-UM","2018/06/02 20:19:41","新北市新莊區豐年街28巷1弄1號","121.446046666667","25.0323416666667","6500500","新莊區"
"242036","415-TV","2018/06/02 20:19:35","新北市新莊區建安街62巷3弄8號","121.42625","25.0249883333333","6500500","新莊區"
"242007","413-TV","2018/06/02 20:19:39","新北市新莊區福壽街124巷34弄4號","121.459233333333","25.0511933333333","6500500","新莊區"
"242044","400-BY","2018/06/02 20:19:57","新北市新莊區中正路新建巷28弄57號","121.413608333333","25.0213633333333","6500500","新莊區"
"242023","362-BY","2018/06/02 20:19:50","新北市新莊區化成路1002號","121.465128333333","25.0646566666667","6500500","新莊區"
"242061","353-BY","2018/06/02 20:19:48","新北市新莊區新樹路210號","121.433886666667","25.0203116666667","6500500","新莊區"
"242009","132-UY","2018/06/02 20:19:46","新北市新莊區昌隆街60號","121.454893333333","25.0506766666667","6500500","新莊區"
"242031","135-UY","2018/06/02 20:19:44","新北市新莊區中正路418號","121.44107","25.0337966666667","6500500","新莊區"
"242048","172-VK","2018/06/02 20:19:41","新北市新莊區龍安路285號","121.420613333333","25.0197983333333","6500500","新莊區"
"242011","173-VK","2018/06/02 20:19:30","新北市新莊區中信街27號","121.450728333333","25.0506516666667","6500500","新莊區"
"242017","175-VK","2018/06/02 20:19:53","新北市新莊區中港一街120號","121.448476666667","25.0451833333333","6500500","新莊區"
"242004","176-VK","2018/06/02 20:19:44","新北市新莊區化成路746巷37號","121.466888333333","25.0579566666667","6500500","新莊區"
"242015","346-TH","2018/06/02 20:19:50","新北市新莊區永樂街237巷2號","121.446308333333","25.0442966666667","6500500","新莊區"
"242021","348-TH","2018/06/02 20:19:51","新北市新莊區和興街45號","121.446636666667","25.0406116666667","6500500","新莊區"
"242051","349-TH","2018/06/02 20:19:40","新北市新莊區民安西路235號","121.426155","25.014065","6500500","新莊區"
"242019","350-TH","2018/06/02 20:19:51","新北市新莊區復興路二段90號","121.456016666667","25.0442716666667","6500500","新莊區"
"221036","130-UY","2018/06/02 20:19:43","新北市汐止區仁愛路152巷31號","121.66496","25.0637266666667","6501100","汐止區"
"221015","131-UY","2018/06/02 20:19:53","新北市汐止區建成路142巷19弄15號","121.661865","25.073915","6501100","汐止區"
"221010","269-BY","2018/06/02 20:19:36","新北市汐止區八連路二段280-1號","121.630706666667","25.0980366666667","6501100","汐止區"
"221012","278-VK","2018/06/02 20:19:51","新北市汐止區保新街158號","121.689336666667","25.0681833333333","6501100","汐止區"
"221023","279-VK","2018/06/02 20:19:47","新北市汐止區湖東街5巷9號","121.634041666667","25.0730233333333","6501100","汐止區"
"221032","280-BY","2018/06/02 20:19:54","新北市汐止區民權街二段43號","121.619453333333","25.0492116666667","6501100","汐止區"
"221027","281-BY","2018/06/02 20:19:55","新北市汐止區大同路二段353號","121.65699","25.0672716666667","6501100","汐止區"
"221029","298-VK","2018/06/02 20:19:46","新北市汐止區樟樹二路106-1號","121.639573333333","25.0639466666667","6501100","汐止區"
"221021","299-VK","2018/06/02 20:19:53","新北市汐止區水源路一段284號","121.654155","25.0583233333333","6501100","汐止區"
"221031","353-TW","2018/06/02 20:19:51","新北市汐止區中興路150巷15號","121.633158333333","25.0650066666667","6501100","汐止區"
"221008","129-UY","2018/06/02 20:19:54","新北市汐止區康寧街389號","121.629253333333","25.06787","6501100","汐止區"
"221035","622-UM","2018/06/02 20:19:43","新北市汐止區長江街101-5號","121.65885","25.07312","6501100","汐止區"
"221025","623-UM","2018/06/02 20:19:38","新北市汐止區水源路二段32號","121.654883333333","25.057365","6501100","汐止區"
"221038","646-BX","2018/06/02 20:19:44","新北市汐止區忠孝東路477號","121.666048333333","25.0731433333333","6501100","汐止區"
"221033","647-BX","2018/06/02 20:19:56","新北市汐止區東勢街203號","121.633803333333","25.0418483333333","6501100","汐止區"
"221018","753-BX","2018/06/02 20:19:45","新北市汐止區茄苳路274號","121.67216","25.0679383333333","6501100","汐止區"
"242002","KEA-2550","2018/06/02 20:19:56","新北市新莊區中正路32號","121.464998333333","25.0417483333333","6500500","新莊區"
"220101","245-BX","2018/06/02 20:19:37","新北市板橋區萬板路478號","121.479951666667","25.02598","6500100","板橋區"
"220103","257-TC","2018/06/02 20:19:39","新北市板橋區新海路5-1號","121.462668333333","25.020455","6500100","板橋區"
"220083","286-VK","2018/06/02 20:19:40","新北市板橋區僑中二街102巷25-4號","121.445071666667","25.0083683333333","6500100","板橋區"
"220081","287-VK","2018/06/02 20:19:42","新北市板橋區僑中一街124巷20弄20號","121.446955","25.0139033333333","6500100","板橋區"
"220061","293-UM","2018/06/02 20:19:38","新北市板橋區四川路一段274巷13號","121.457945","25.001395","6500100","板橋區"
"242039","280-VK","2018/06/02 20:19:49","新北市新莊區成功街76號","121.424303333333","25.0191066666667","6500500","新莊區"
"220088","491-VK","2018/06/02 20:19:45","新北市板橋區萬板路812-1號","121.483518333333","25.0278566666667","6500100","板橋區"
"220035","560-BX","2018/06/02 20:19:46","新北市板橋區大觀路二段443-2號","121.439435","24.9951666666667","6500100","板橋區"
"220091","637-BX","2018/06/02 20:19:46","新北市五股區凌雲路二段66號","121.439533333333","25.106265","6500100","板橋區"
"220057","686-BX","2018/06/02 20:17:38","新北市樹林區中山路三段214號","121.380078333333","24.9679466666667","6500100","板橋區"
"220102","KEA-2699","2018/06/02 20:19:49","新北市板橋區縣民大道三段33巷1弄23號","121.47306","25.0200133333333","6500100","板橋區"
"220070","806-UM","2018/06/02 20:19:47","新北市板橋區四川路二段253號","121.450481666667","24.9932983333333","6500100","板橋區"
"220055","827-TW","2018/06/02 20:19:35","新北市板橋區仁愛路23號","121.45889","24.9994566666667","6500100","板橋區"
"220089","833-TW","2018/06/02 20:19:51","新北市板橋區四維路133號","121.465038333333","25.0251933333333","6500100","板橋區"
"235068","KEA-2873","2018/06/02 20:19:36","新北市中和區勝利路35巷1弄36號","121.500356666667","25.0079916666667","6500300","中和區"
