"lineid","car","time","location","longitude","latitude","cityid","cityname"
"234081","298-R6","2018/06/02 20:29:53","新北市永和區永貞路19號","121.520946666667","25.0071066666667","6500400","永和區"
"234038","336-UY","2018/06/02 20:29:50","新北市永和區民樂街31巷8弄13號","121.528873333333","25.001325","6500400","永和區"
"234064","337-UY","2018/06/02 20:29:54","新北市永和區中正路433號","121.517171666667","25.0051083333333","6500400","永和區"
"234086","338-UY","2018/06/02 20:29:42","新北市永和區光復街21號","121.516516666667","25.0174666666667","6500400","永和區"
"234070","552-UM","2018/06/02 20:29:52","新北市永和區永亨路9號","121.51945","25.00577","6500400","永和區"
"234030","746-BX","2018/06/02 20:29:40","新北市永和區民權路53號","121.520236666667","24.9966016666667","6500400","永和區"
"234054","KEA-2590","2018/06/02 20:29:48","新北市永和區環河東路一段80號","121.519578333333","25.0164616666667","6500400","永和區"
"234061","AAD-866","2018/06/02 20:29:40","新北市永和區安樂路192號","121.515151666667","25.0012433333333","6500400","永和區"
"234042","862-TW","2018/06/02 20:29:47","新北市永和區安樂路282號","121.514473333333","25.0044066666667","6500400","永和區"
"234050","863-TW","2018/06/02 20:29:50","新北市永和區新生路137號","121.5075","25.0150083333333","6500400","永和區"
"249001","173-UM","2018/06/02 20:29:56","新北市八里區下罟子5-11號","121.38656","25.1422033333333","6502300","八里區"
"249004","303-UY","2018/06/02 20:29:39","新北市八里區中山路一段129巷27號","121.414043333333","25.1586533333333","6502300","八里區"
"249002","305-UY","2018/06/02 20:29:48","新北市八里區龍米路二段123號","121.446783333333","25.1445266666667","6502300","八里區"
"249003","593-UM","2018/06/02 20:29:40","新北市八里區華峰一街27-1號","121.399158333333","25.1465133333333","6502300","八里區"
"248010","272-BY","2018/06/02 20:29:39","新北市五股區新五路二段86號","121.437006666667","25.073935","6501500","五股區"
"248002","678-BX","2018/06/02 20:29:52","新北市五股區新五路三段8號","121.443755","25.0872316666667","6501500","五股區"
"234023","9380-KE","2018/06/02 20:29:52","新北市永和區勵行街46號","121.516776666667","25.0134933333333","6500400","永和區"
"234074","AAC-211","2018/06/02 20:29:40","新北市永和區福和路8巷1號","121.525006666667","25.00895","6500400","永和區"
"234067","AAC-212","2018/06/02 20:29:48","新北市永和區保平路292巷46弄2號","121.50745","25.0053416666667","6500400","永和區"
"234003","AAC-295","2018/06/02 20:29:50","新北市永和區大新街50號","121.516015","25.00829","6500400","永和區"
"243013","AAD-798","2018/06/02 20:29:41","新北市泰山區明志路三段31號","121.42489","25.0428816666667","6501600","泰山區"
"243009","297-R6","2018/06/02 20:29:37","新北市泰山區忠孝街41巷1號","121.4284","25.0654016666667","6501600","泰山區"
"243016","380-SR","2018/06/02 20:29:50","新北市泰山區新生路22巷9號","121.428983333333","25.0445866666667","6501600","泰山區"
"243015","421-VK","2018/06/02 20:29:43","新北市泰山區泰林路二段310號","121.430571666667","25.0628866666667","6501600","泰山區"
"243010","KEA-2216","2018/06/02 20:29:44","新北市泰山區新生路31巷7號","121.427655","25.0458616666667","6501600","泰山區"
"243012","646-TV","2018/06/02 20:29:37","新北市泰山區文化街42號","121.435183333333","25.0634816666667","6501600","泰山區"
"243014","680-BX","2018/06/02 20:29:47","新北市泰山區泰林路二段596號","121.421863333333","25.0635633333333","6501600","泰山區"
"222002","016-RS","2018/06/02 20:29:50","新北市深坑區萬福路16巷45號","121.609553333333","25.0089166666667","6501800","深坑區"
"222003","436-BY","2018/06/02 20:29:55","新北市深坑區深坑街42號","121.615113333333","25.0017666666667","6501800","深坑區"
"231044","001-UM","2018/06/02 20:29:51","新北市新店區建國路134號","121.539013333333","24.9788666666667","6500600","新店區"
"231041","002-UM","2018/06/02 20:29:42","新北市新店區中正路501-4號","121.53369","24.983785","6500600","新店區"
"231059","046-UY","2018/06/02 20:29:41","新北市新店區安豐路30-1號","121.500965","24.9568066666667","6500600","新店區"
"231040","047-UY","2018/06/02 20:29:49","新北市新店區中正路326號","121.536948333333","24.9748983333333","6500600","新店區"
"231052","108-UY","2018/06/02 20:29:44","新北市新店區松林路36號","121.546211666667","24.91026","6500600","新店區"
"231048","187-VK","2018/06/02 20:29:42","新北市新店區寶慶街58巷21-1號","121.54201","24.9872733333333","6500600","新店區"
"231054","KEA-2219","2018/06/02 20:29:36","新北市新店區檳榔路109號","121.544553333333","24.96169","6500600","新店區"
"231057","256-BX","2018/06/02 20:29:43","新北市新店區花園五路二段1號","121.553505","24.9341883333333","6500600","新店區"
"231042","268-BY","2018/06/02 20:29:41","新北市新店區寶橋路150號","121.54824","24.9767333333333","6500600","新店區"
"231051","278-BY","2018/06/02 20:29:55","新北市新店區中央七街18號","121.529983333333","24.9750283333333","6500600","新店區"
"231050","AAD-862","2018/06/02 20:29:56","新北市新店區建興街9巷1號","121.5399","24.9763433333333","6500600","新店區"
"231066","4716-K9","2018/06/02 20:29:49","新北市新店區安興路56號","121.516378333333","24.9746533333333","6500600","新店區"
"231056","4715-K9","2018/06/02 20:29:45","新北市新店區中正路328巷42弄10號","121.538488333333","24.975985","6500600","新店區"
"231067","4772-VM","2018/06/02 20:29:42","新北市新店區安華路28-1號","121.519781666667","24.960855","6500600","新店區"
"231065","512-UM","2018/06/02 20:29:55","新北市新店區安祥路102巷42弄49號","121.485708333333","24.9633283333333","6500600","新店區"
"231049","513-UM","2018/06/02 20:29:39","新北市新店區華潭街52號","121.528446666667","24.9545566666667","6500600","新店區"
"231045","617-UM","2018/06/02 20:29:28","新北市新店區長春路21巷1號","121.549361666667","24.9581583333333","6500600","新店區"
"231061","619-UM","2018/06/02 20:29:37","新北市新店區安興路141號","121.516706666667","24.9793033333333","6500600","新店區"
"231063","641-BX","2018/06/02 20:29:45","新北市新店區玫瑰路4-1號","121.493593333333","24.9513866666667","6500600","新店區"
"231068","718-UY","2018/06/02 20:29:54","新北市新店區中興路三段254號","121.542861666667","24.98417","6500600","新店區"
"231064","719-UY","2018/06/02 20:29:38","新北市新店區安和路二段240號","121.516613333333","24.97823","6500600","新店區"
"231062","720-UM","2018/06/02 20:29:54","新北市新店區安泰路60巷47號","121.483855","24.94593","6500600","新店區"
"231060","897-TW","2018/06/02 20:29:45","新北市新店區錦秀路61號","121.479028333333","24.9431316666667","6500600","新店區"
"231043","899-TW","2018/06/02 20:29:41","新北市新店區建國路104號","121.539845","24.9778666666667","6500600","新店區"
"241011","013-R5","2018/06/02 20:29:52","新北市三重區龍門路66號","121.496755","25.0726316666667","6500200","三重區"
"241028","022-UY","2018/06/02 20:29:34","新北市三重區光興街91號","121.49737","25.0599466666667","6500200","三重區"
"241008","059-VK","2018/06/02 20:29:50","新北市三重區永福街281-3號","121.482856666667","25.0744566666667","6500200","三重區"
"241031","061-VK","2018/06/02 20:29:47","新北市三重區三寧街15號","121.489461666667","25.0597933333333","6500200","三重區"
"241015","062-VK","2018/06/02 20:29:40","新北市三重區長元街2-2號","121.498761666667","25.065865","6500200","三重區"
"241017","063-VK","2018/06/02 20:29:46","新北市三重區自強路一段193-1號","121.491753333333","25.06815","6500200","三重區"
"241024","065-VK","2018/06/02 20:29:49","新北市三重區三民街283巷2號","121.479066666667","25.068495","6500200","三重區"
"241026","066-VK","2018/06/02 20:29:49","新北市三重區重新路一段30號","121.503421666667","25.06373","6500200","三重區"
"241002","090-VK","2018/06/02 20:29:34","新北市三重區仁義街211巷1號","121.496963333333","25.08192","6500200","三重區"
"241003","091-VK","2018/06/02 20:29:42","新北市三重區富華街216號","121.493516666667","25.0852033333333","6500200","三重區"
"241013","742-BX","2018/06/02 20:29:45","新北市三重區溪尾街5巷12號","121.492251666667","25.074505","6500200","三重區"
"241005","262-UM","2018/06/02 20:29:49","新北市三重區碧華街382號","121.491276666667","25.0845583333333","6500200","三重區"
"241009","265-UM","2018/06/02 20:29:44","新北市三重區永福街64-1號","121.480641666667","25.0777966666667","6500200","三重區"
"241016","266-UM","2018/06/02 20:29:48","新北市三重區正義北路190巷7號","121.496018333333","25.066805","6500200","三重區"
"241022","267-UM","2018/06/02 20:29:50","新北市三重區重陽路二段19巷6號","121.487561666667","25.062695","6500200","三重區"
"241018","268-UM","2018/06/02 20:29:48","新北市三重區正義北路216巷11號","121.495753333333","25.0674833333333","6500200","三重區"
"241007","398-BY","2018/06/02 20:29:42","新北市三重區自強路四段12號","121.488501666667","25.0762566666667","6500200","三重區"
"241025","413-TH","2018/06/02 20:29:47","新北市三重區頂崁街210巷27號","121.475805","25.06818","6500200","三重區"
"241035","462-BY","2018/06/02 20:29:49","新北市三重區正義北路124號","121.496866666667","25.065565","6500200","三重區"
"241004","475-VK","2018/06/02 20:29:53","新北市三重區溪尾街216號","121.488026666667","25.08145","6500200","三重區"
"241020","478-VK","2018/06/02 20:29:53","新北市三重區三和路三段138號","121.493171666667","25.072395","6500200","三重區"
"241030","480-VK","2018/06/02 20:29:42","新北市三重區成功路60號","121.488768333333","25.0509316666667","6500200","三重區"
"241014","543-UM","2018/06/02 20:29:49","新北市三重區長興街99號","121.501798333333","25.0691233333333","6500200","三重區"
"241023","545-UM","2018/06/02 20:29:39","新北市三重區自由街16號","121.479848333333","25.0665366666667","6500200","三重區"
"241001","547-UM","2018/06/02 20:29:41","新北市三重區自強路四段5號","121.488486666667","25.07619","6500200","三重區"
"241019","KEA-2593","2018/06/02 20:29:39","新北市三重區重陽路四段81號","121.49252","25.0710366666667","6500200","三重區"
"241006","AAD-863","2018/06/02 20:29:41","新北市三重區車路頭街139巷14號","121.48435","25.0762433333333","6500200","三重區"
"241002","887-TS","2018/06/02 20:29:39","新北市三重區重陽路一段120巷48號","121.485028333333","25.060165","6500200","三重區"
"241012","941-UM","2018/06/02 20:29:53","新北市三重區龍濱路287號","121.500931666667","25.0737116666667","6500200","三重區"
"241029","942-UM","2018/06/02 20:29:55","新北市三重區集美街235號","121.492121666667","25.0552266666667","6500200","三重區"
"235039","097-UM","2018/06/02 20:29:41","新北市中和區大勇街29巷12-2號","121.515851666667","24.994565","6500300","中和區"
"235049","186-VK","2018/06/02 20:29:54","新北市新店區安忠路57巷13號","121.513668333333","24.957365","6500300","中和區"
"235043","352-BY","2018/06/02 20:29:46","新北市八里區商港路80號","121.395391666667","25.1462783333333","6500300","中和區"
"235050","4979-A6","2018/06/02 20:29:52","新北市中和區南華路68號","121.504963333333","24.9971633333333","6500300","中和區"
"235069","4980-A6","2018/06/02 20:29:51","新北市中和區中正路432巷20號","121.491051666667","24.99539","6500300","中和區"
"235042","551-UM","2018/06/02 20:29:48","新北市中和區華新街143巷106弄26號","121.505543333333","24.9782816666667","6500300","中和區"
"235026","800-TS","2018/06/02 20:25:52","新北市中和區員山路36巷13號","121.484516666667","24.9906966666667","6500300","中和區"
"235066","911-UM","2018/06/02 20:29:46","新北市中和區保平路362巷11號","121.505848333333","25.0040366666667","6500300","中和區"
"235059","AAC-215","2018/06/02 20:29:46","新北市中和區員山路37-9號","121.482356666667","24.99023","6500300","中和區"
"247024","893-R6","2018/06/02 20:29:52","新北市蘆洲區光復路78號","121.464371666667","25.0854683333333","6501400","蘆洲區"
"247014","546-UM","2018/06/02 20:29:48","新北市蘆洲區中山二路107號","121.472553333333","25.0817116666667","6501400","蘆洲區"
"247022","500-BY","2018/06/02 20:29:46","新北市蘆洲區中正路210號","121.466451666667","25.08852","6501400","蘆洲區"
"247010","341-TH","2018/06/02 20:29:45","新北市蘆洲區集賢路300號","121.481621666667","25.0852466666667","6501400","蘆洲區"
"247012","339-TH","2018/06/02 20:29:56","新北市蘆洲區復興路226號","121.479138333333","25.0893266666667","6501400","蘆洲區"
"247004","337-TH","2018/06/02 20:29:40","新北市蘆洲區長安街297號","121.458048333333","25.0848283333333","6501400","蘆洲區"
"247006","336-TH","2018/06/02 20:29:51","新北市蘆洲區光華路175巷58號","121.465671666667","25.0807816666667","6501400","蘆洲區"
"247018","057-VK","2018/06/02 20:29:39","新北市蘆洲區民義街106巷3號","121.474198333333","25.09065","6501400","蘆洲區"
"247008","056-VK","2018/06/02 20:29:54","新北市蘆洲區永安北路二段70-7號","121.483385","25.0842383333333","6501400","蘆洲區"
"247016","007-UY","2018/06/02 20:29:41","新北市蘆洲區光華路43號","121.468803333333","25.0829966666667","6501400","蘆洲區"
"247002","002-UY","2018/06/02 20:29:52","新北市蘆洲區長安街361巷28號","121.455901666667","25.0875983333333","6501400","蘆洲區"
"247020","001-UY","2018/06/02 20:29:39","新北市蘆洲區水湳街395號","121.469221666667","25.094475","6501400","蘆洲區"
"224010","AGQ-8101","2018/06/02 20:25:06","新北市瑞芳區烏勢巷145號","121.847565","25.10877","6501200","瑞芳區"
"222001","KEA-2212","2018/06/02 20:29:57","新北市深坑區北深路三段329號","121.597265","25.0050083333333","6501800","深坑區"
"251009","008-UM","2018/06/02 20:29:53","新北市淡水區中正東路36-1號","121.44883","25.1657516666667","6501000","淡水區"
"251001","011-UM","2018/06/02 20:29:51","新北市淡水區新市一路三段188號","121.448513333333","25.183065","6501000","淡水區"
"251002","012-UM","2018/06/02 20:29:45","新北市淡水區中正路38-1號","121.443685","25.1694183333333","6501000","淡水區"
"251013","KEA-2871","2018/06/02 20:29:50","新北市淡水區後坑子6號","121.463938333333","25.2064983333333","6501000","淡水區"
"251016","179-VK","2018/06/02 20:29:53","新北市淡水區淡金路四段562號","121.451653333333","25.22795","6501000","淡水區"
"251014","180-VK","2018/06/02 20:29:41","新北市淡水區石頭厝9-2號","121.458876666667","25.2370633333333","6501000","淡水區"
"251015","182-VK","2018/06/02 20:29:39","新北市淡水區淡金路四段478號","121.452063333333","25.2245116666667","6501000","淡水區"
"251010","413-VK","2018/06/02 20:29:49","新北市淡水區沙崙路181巷1號","121.424005","25.1843433333333","6501000","淡水區"
"251012","443-VK","2018/06/02 20:29:43","新北市淡水區興仁路108號","121.451695","25.2181433333333","6501000","淡水區"
"251006","561-UM","2018/06/02 20:29:39","新北市淡水區商工路296號","121.460688333333","25.1859683333333","6501000","淡水區"
"251008","575-R6","2018/06/02 20:29:45","新北市淡水區淡海路189巷10號","121.41962","25.1845533333333","6501000","淡水區"
"251011","650-BX","2018/06/02 20:29:36","新北市淡水區新市一路一段363號","121.436391666667","25.186145","6501000","淡水區"
"251003","673-BX","2018/06/02 20:29:50","新北市淡水區新生街108巷2號","121.440086666667","25.174785","6501000","淡水區"
"207004","225-TW","2018/06/02 20:29:41","新北市萬里區北基里忠二街13號","121.684825","25.1756116666667","6502800","萬里區"
"252002","178-VK","2018/06/02 20:29:57","新北市三芝區淡金路二段47-1號","121.503606666667","25.2604516666667","6502100","三芝區"
"252001","292-VK","2018/06/02 20:29:45","新北市三芝區中山路一段37號","121.500763333333","25.257765","6502100","三芝區"
"242034","AAC-296","2018/06/02 20:29:55","新北市新莊區建中街141號","121.444916666667","25.036345","6500500","新莊區"
"242058","986-R7","2018/06/02 20:29:47","新北市新莊區四維路202號","121.421693333333","25.0202783333333","6500500","新莊區"
"242053","751-BX","2018/06/02 20:29:48","新北市新莊區西盛街362巷11-2號","121.427283333333","25.0136283333333","6500500","新莊區"
"242027","615-BX","2018/06/02 20:29:42","新北市新莊區思源路309號","121.459791666667","25.0489466666667","6500500","新莊區"
"242025","613-BX","2018/06/02 20:29:51","新北市新莊區五工二路50巷9號","121.461208333333","25.0655483333333","6500500","新莊區"
"242029","612-BX","2018/06/02 20:29:42","新北市新莊區中華路二段162號","121.453476666667","25.051425","6500500","新莊區"
"242042","566-BX","2018/06/02 20:29:46","新北市新莊區天祥街54巷1弄2號","121.416671666667","25.02929","6500500","新莊區"
"242046","497-BY","2018/06/02 20:29:52","新北市新莊區中正路新雅巷2弄18號","121.417755","25.0249216666667","6500500","新莊區"
"242056","440-UM","2018/06/02 20:29:58","新北市新莊區瓊泰路148號","121.443193333333","25.0322866666667","6500500","新莊區"
"242036","415-TV","2018/06/02 20:29:55","新北市新莊區後港一路56巷5弄1號","121.426615","25.0258783333333","6500500","新莊區"
"242007","413-TV","2018/06/02 20:29:39","新北市新莊區思源路335號","121.459755","25.04979","6500500","新莊區"
"242044","400-BY","2018/06/02 20:29:57","新北市新莊區中正路891-43號","121.414003333333","25.0229483333333","6500500","新莊區"
"242023","362-BY","2018/06/02 20:29:50","新北市新莊區化成路414號","121.465916666667","25.0508683333333","6500500","新莊區"
"242061","353-BY","2018/06/02 20:29:46","新北市新莊區新樹路244巷57號","121.431168333333","25.0194116666667","6500500","新莊區"
"242009","132-UY","2018/06/02 20:29:46","新北市新莊區昌隆街94號","121.45619","25.0507066666667","6500500","新莊區"
"242031","135-UY","2018/06/02 20:29:44","新北市新莊區三和路60-23號","121.437388333333","25.0389383333333","6500500","新莊區"
"242048","172-VK","2018/06/02 20:29:40","新北市新莊區裕民街85巷20號","121.419681666667","25.0232316666667","6500500","新莊區"
"242011","173-VK","2018/06/02 20:29:52","新北市新莊區中義街18號","121.450918333333","25.0512766666667","6500500","新莊區"
"242017","175-VK","2018/06/02 20:29:53","新北市新莊區中港三街7號","121.451151666667","25.0465233333333","6500500","新莊區"
"242015","346-TH","2018/06/02 20:29:50","新北市新莊區中平路61號","121.444736666667","25.0445783333333","6500500","新莊區"
"242021","348-TH","2018/06/02 20:29:49","新北市新莊區公園路10巷2號","121.447806666667","25.0387916666667","6500500","新莊區"
"242051","349-TH","2018/06/02 20:29:40","新北市新莊區民安西路254號","121.42599","25.0135916666667","6500500","新莊區"
"242019","350-TH","2018/06/02 20:29:51","新北市新莊區民樂街85號","121.457891666667","25.0432533333333","6500500","新莊區"
"221036","130-UY","2018/06/02 20:29:43","新北市汐止區新台五路二段126巷9號","121.663683333333","25.0661","6501100","汐止區"
"221015","131-UY","2018/06/02 20:29:53","新北市汐止區建成路142巷19弄12號","121.66206","25.074125","6501100","汐止區"
"221010","269-BY","2018/06/02 20:29:56","新北市汐止區八連路二段610巷17號","121.624663333333","25.1118133333333","6501100","汐止區"
"221012","278-VK","2018/06/02 20:29:51","新北市汐止區大同路三段279號","121.674146666667","25.0750516666667","6501100","汐止區"
"221023","279-VK","2018/06/02 20:29:47","新北市汐止區湖東街31號","121.634575","25.07261","6501100","汐止區"
"221032","280-BY","2018/06/02 20:29:54","新北市汐止區弘道街53巷12號","121.61867","25.048905","6501100","汐止區"
"221027","281-BY","2018/06/02 20:29:55","新北市汐止區中正路206號","121.65845","25.0690766666667","6501100","汐止區"
"221029","298-VK","2018/06/02 20:29:46","新北市汐止區樟樹一路113號","121.642103333333","25.0640866666667","6501100","汐止區"
"221021","299-VK","2018/06/02 20:29:53","新北市汐止區水源路一段282巷3號","121.65401","25.058105","6501100","汐止區"
"221031","353-TW","2018/06/02 20:29:51","新北市汐止區中興路110巷36號","121.634301666667","25.0647016666667","6501100","汐止區"
"221008","129-UY","2018/06/02 20:29:49","新北市汐止區康寧街582號","121.635151666667","25.0699","6501100","汐止區"
"221035","622-UM","2018/06/02 20:29:43","新北市汐止區長江街101-5號","121.658875","25.073125","6501100","汐止區"
"221025","623-UM","2018/06/02 20:29:48","新北市汐止區水源路二段88巷1弄4號","121.656395","25.0556966666667","6501100","汐止區"
"221038","646-BX","2018/06/02 20:29:44","新北市汐止區水源路一段56-1號","121.657075","25.0655316666667","6501100","汐止區"
"221033","647-BX","2018/06/02 20:29:56","新北市汐止區林森街73巷15號","121.623816666667","25.0414183333333","6501100","汐止區"
"221018","753-BX","2018/06/02 20:29:50","新北市汐止區茄苳路202號","121.6704","25.0689866666667","6501100","汐止區"
"242002","KEA-2550","2018/06/02 20:29:36","新北市新莊區中正路11號","121.464066666667","25.0411566666667","6500500","新莊區"
"220103","257-TC","2018/06/02 20:29:39","新北市板橋區漢生東路31號","121.465386666667","25.0169783333333","6500100","板橋區"
"220083","286-VK","2018/06/02 20:29:41","新北市板橋區大觀路一段38巷156弄110-7號","121.444536666667","25.00756","6500100","板橋區"
"220081","287-VK","2018/06/02 20:29:42","新北市板橋區僑中一街102巷5弄15號","121.446073333333","25.01267","6500100","板橋區"
"242039","280-VK","2018/06/02 20:29:49","新北市新莊區八德街15巷21號","121.425996666667","25.022115","6500500","新莊區"
"220035","560-BX","2018/06/02 20:29:46","新北市樹林區八德街850號","121.39204","24.9686133333333","6500100","板橋區"
"220091","637-BX","2018/06/02 20:29:46","新北市八里區中山路三段409號","121.368596666667","25.1354216666667","6500100","板橋區"
"220057","686-BX","2018/06/02 20:29:38","新北市樹林區太平路247巷30號","121.42269","24.9749666666667","6500100","板橋區"
"220102","KEA-2699","2018/06/02 20:29:49","新北市板橋區民生路二段161巷1號","121.469768333333","25.0199333333333","6500100","板橋區"
"220070","806-UM","2018/06/02 20:29:47","新北市樹林區環河路250-1號","121.4229","24.975145","6500100","板橋區"
"220089","833-TW","2018/06/02 20:29:51","新北市板橋區四維路325號","121.462751666667","25.02925","6500100","板橋區"
