"lineid","car","time","location","longitude","latitude","cityid","cityname"
"234081","298-R6","2018/06/02 20:39:53","新北市永和區永貞路82號","121.520131666667","25.0050716666667","6500400","永和區"
"234064","337-UY","2018/06/02 20:39:54","台北市文山區溪洲街137巷58弄42號","121.535308333333","25.0003483333333","6500400","永和區"
"234030","746-BX","2018/06/02 20:39:40","新北市新店區安和路三段1-1號","121.516991666667","24.979465","6500400","永和區"
"234061","AAD-866","2018/06/02 20:39:44","新北市永和區秀安街17號","121.516083333333","25.0036666666667","6500400","永和區"
"234042","862-TW","2018/06/02 20:39:47","新北市永和區永利路45號","121.518961666667","25.0054133333333","6500400","永和區"
"249001","173-UM","2018/06/02 20:39:56","新北市八里區中山路三段365號","121.37376","25.1380383333333","6502300","八里區"
"249004","303-UY","2018/06/02 20:39:39","新北市八里區中山路一段157巷17號","121.413118333333","25.1583066666667","6502300","八里區"
"234023","9380-KE","2018/06/02 20:39:52","新北市永和區博愛街32巷17-1號","121.518866666667","25.01523","6500400","永和區"
"234074","AAC-211","2018/06/02 20:39:40","新北市永和區竹林路119巷16號","121.52104","25.0114016666667","6500400","永和區"
"243016","380-SR","2018/06/02 20:39:50","新北市泰山區民權街76號","121.42835","25.0496266666667","6501600","泰山區"
"243010","KEA-2216","2018/06/02 20:39:44","新北市泰山區公園路97號","121.424688333333","25.0558733333333","6501600","泰山區"
"243012","646-TV","2018/06/02 20:39:37","新北市泰山區忠孝街17巷2號","121.427566666667","25.065425","6501600","泰山區"
"222002","016-RS","2018/06/02 20:39:50","新北市深坑區萬福路45號","121.599483333333","25.00686","6501800","深坑區"
"222003","436-BY","2018/06/02 20:39:55","新北市深坑區深坑街164號","121.6127","25.0011816666667","6501800","深坑區"
"231044","001-UM","2018/06/02 20:39:51","新北市新店區建國路293巷2號","121.537001666667","24.9858716666667","6500600","新店區"
"231041","002-UM","2018/06/02 20:39:42","新北市新店區中正路696號","121.53406","24.990525","6500600","新店區"
"231059","046-UY","2018/06/02 20:39:41","新北市新店區僑愛一路1號","121.499853333333","24.94477","6500600","新店區"
"231040","047-UY","2018/06/02 20:39:49","新北市新店區中正路266號","121.5391","24.97358","6500600","新店區"
"231052","108-UY","2018/06/02 20:39:44","新北市新店區廣興路7-10號","121.54578","24.9116966666667","6500600","新店區"
"231048","187-VK","2018/06/02 20:39:42","新北市新店區寶慶街34號","121.543095","24.9868166666667","6500600","新店區"
"231054","KEA-2219","2018/06/02 20:39:36","新北市新店區行政街22號","121.543035","24.96567","6500600","新店區"
"231057","256-BX","2018/06/02 20:39:43","新北市新店區花園六路二段9號","121.555675","24.932935","6500600","新店區"
"231042","268-BY","2018/06/02 20:39:36","新北市新店區寶橋路188-7號","121.55047","24.97815","6500600","新店區"
"231051","278-BY","2018/06/02 20:39:55","新北市新店區中央五街83號","121.526513333333","24.9763483333333","6500600","新店區"
"231050","AAD-862","2018/06/02 20:39:56","新北市新店區建國路40號","121.540496666667","24.9746833333333","6500600","新店區"
"231058","3713-VJ","2018/06/02 20:39:50","新北市新店區平等街42號","121.536488333333","24.97341","6500600","新店區"
"231066","4716-K9","2018/06/02 20:39:49","新北市新店區安興路56號","121.516428333333","24.9746633333333","6500600","新店區"
"231056","4715-K9","2018/06/02 20:39:51","新北市新店區民生路75巷221號","121.53207","24.98182","6500600","新店區"
"231067","4772-VM","2018/06/02 20:39:43","新北市新店區安華路28-1號","121.51974","24.960855","6500600","新店區"
"231065","512-UM","2018/06/02 20:39:55","新北市新店區安祥路102巷146號","121.486811666667","24.96455","6500600","新店區"
"231049","513-UM","2018/06/02 20:39:39","新北市新店區永業路81巷3弄1號","121.529883333333","24.949195","6500600","新店區"
"231045","617-UM","2018/06/02 20:39:48","新北市新店區長春路39號","121.549871666667","24.957485","6500600","新店區"
"231061","619-UM","2018/06/02 20:39:37","新北市新店區新和街36號","121.519255","24.9848883333333","6500600","新店區"
"231063","641-BX","2018/06/02 20:39:45","新北市新店區玫瑰路4-2號","121.493841666667","24.9513533333333","6500600","新店區"
"231068","718-UY","2018/06/02 20:39:54","新北市新店區寶元路一段85巷10號","121.543133333333","24.986025","6500600","新店區"
"231064","719-UY","2018/06/02 20:39:38","新北市新店區永安街56巷6-4號","121.518326666667","24.9861783333333","6500600","新店區"
"231062","720-UM","2018/06/02 20:39:54","新北市新店區安泰路11巷1號","121.48553","24.9502216666667","6500600","新店區"
"231060","897-TW","2018/06/02 20:39:45","新北市新店區安康路三段571巷5-1號","121.475305","24.9430183333333","6500600","新店區"
"231043","899-TW","2018/06/02 20:39:41","新北市新店區博愛街13巷23號","121.540285","24.974135","6500600","新店區"
"241011","013-R5","2018/06/02 20:39:52","新北市三重區龍濱路251號","121.501465","25.0726566666667","6500200","三重區"
"241028","022-UY","2018/06/02 20:39:54","新北市三重區光興街91號","121.497351666667","25.05994","6500200","三重區"
"241008","059-VK","2018/06/02 20:39:50","新北市三重區下竹圍街42-1號","121.48102","25.07492","6500200","三重區"
"241031","061-VK","2018/06/02 20:39:47","新北市三重區重陽路一段43巷32號","121.488308333333","25.0585766666667","6500200","三重區"
"241015","062-VK","2018/06/02 20:39:40","新北市三重區文化北路103號","121.497868333333","25.0684133333333","6500200","三重區"
"241017","063-VK","2018/06/02 20:39:46","新北市三重區大同北路269號","121.490803333333","25.0673083333333","6500200","三重區"
"241024","065-VK","2018/06/02 20:39:23","新北市三重區三民街296號","121.477995","25.0689016666667","6500200","三重區"
"241026","066-VK","2018/06/02 20:39:49","新北市三重區和平街1號","121.500085","25.06234","6500200","三重區"
"241002","090-VK","2018/06/02 20:39:34","新北市三重區仁義街167巷34號","121.498308333333","25.0822433333333","6500200","三重區"
"241003","091-VK","2018/06/02 20:39:42","新北市三重區集賢路87-1號","121.493791666667","25.086935","6500200","三重區"
"241013","742-BX","2018/06/02 20:39:45","新北市三重區仁賢街4號","121.495623333333","25.0747633333333","6500200","三重區"
"241005","262-UM","2018/06/02 20:39:49","新北市三重區集賢路87-1號","121.493636666667","25.0868583333333","6500200","三重區"
"241009","265-UM","2018/06/02 20:39:44","新北市三重區碧華街57號","121.484771666667","25.0813566666667","6500200","三重區"
"241016","266-UM","2018/06/02 20:39:48","新北市三重區長壽西街93號","121.49491","25.0669966666667","6500200","三重區"
"241022","267-UM","2018/06/02 20:39:50","新北市三重區新北大道一段46巷16號","121.487988333333","25.062","6500200","三重區"
"241018","268-UM","2018/06/02 20:39:48","新北市三重區重陽路四段11號","121.491075","25.069125","6500200","三重區"
"241007","398-BY","2018/06/02 20:39:42","新北市三重區三和路四段109號","121.486333333333","25.0769666666667","6500200","三重區"
"241025","413-TH","2018/06/02 20:39:47","新北市三重區頂崁街210巷27號","121.475786666667","25.0681816666667","6500200","三重區"
"241035","462-BY","2018/06/02 20:39:48","新北市三重區正義北路350號","121.494138333333","25.0711333333333","6500200","三重區"
"241004","475-VK","2018/06/02 20:39:53","新北市三重區仁愛街401號","121.491103333333","25.0809783333333","6500200","三重區"
"241020","478-VK","2018/06/02 20:39:53","新北市三重區忠孝路一段101號","121.489526666667","25.0721533333333","6500200","三重區"
"241030","480-VK","2018/06/02 20:39:42","新北市三重區成功路73巷11號","121.489438333333","25.05192","6500200","三重區"
"241014","543-UM","2018/06/02 20:39:49","新北市三重區三和路二段156號","121.499378333333","25.0685","6500200","三重區"
"241023","545-UM","2018/06/02 20:39:39","新北市三重區自由街59號","121.478223333333","25.0664816666667","6500200","三重區"
"241001","547-UM","2018/06/02 20:39:41","新北市三重區自強路三段110巷37號","121.485971666667","25.074645","6500200","三重區"
"241019","KEA-2593","2018/06/02 20:39:39","新北市三重區重陽路四段66-1號","121.491553333333","25.0705033333333","6500200","三重區"
"241006","AAD-863","2018/06/02 20:39:41","新北市三重區車路頭街137號","121.484168333333","25.07622","6500200","三重區"
"241002","887-TS","2018/06/02 20:39:39","新北市三重區重陽路一段120巷35號","121.48504","25.0602033333333","6500200","三重區"
"241012","941-UM","2018/06/02 20:39:53","新北市三重區河邊北街176巷2號","121.50284","25.0736533333333","6500200","三重區"
"241029","942-UM","2018/06/02 20:39:35","新北市三重區集美街126巷26號","121.490003333333","25.05396","6500200","三重區"
"235049","186-VK","2018/06/02 20:39:54","新北市中和區員山路36巷16-2號","121.485215","24.9917416666667","6500300","中和區"
"235043","352-BY","2018/06/02 20:39:46","新北市林口區太平里180號","121.36833","25.1346316666667","6500300","中和區"
"235069","4980-A6","2018/06/02 20:39:50","新北市中和區新生街231號","121.483815","24.99914","6500300","中和區"
"235042","551-UM","2018/06/02 20:39:48","新北市中和區員山路36巷13號","121.484345","24.99068","6500300","中和區"
"235026","800-TS","2018/06/02 20:25:52","新北市中和區員山路36巷13號","121.484516666667","24.9906966666667","6500300","中和區"
"247024","893-R6","2018/06/02 20:39:52","新北市蘆洲區長樂路61號","121.462878333333","25.0863","6501400","蘆洲區"
"247014","546-UM","2018/06/02 20:39:48","新北市蘆洲區中山一路230號","121.47281","25.0806","6501400","蘆洲區"
"247022","500-BY","2018/06/02 20:39:36","新北市蘆洲區中正路243巷7弄9號","121.467546666667","25.0860483333333","6501400","蘆洲區"
"247010","341-TH","2018/06/02 20:39:45","新北市蘆洲區重陽街70號","121.481873333333","25.08413","6501400","蘆洲區"
"247012","339-TH","2018/06/02 20:39:56","新北市蘆洲區集賢路224巷41號","121.480478333333","25.0884066666667","6501400","蘆洲區"
"247004","337-TH","2018/06/02 20:39:39","新北市蘆洲區長安街297號","121.458098333333","25.084865","6501400","蘆洲區"
"247006","336-TH","2018/06/02 20:39:51","新北市蘆洲區和平路146號","121.466825","25.0808766666667","6501400","蘆洲區"
"247008","056-VK","2018/06/02 20:39:54","新北市蘆洲區集賢路395號","121.480535","25.081945","6501400","蘆洲區"
"247016","007-UY","2018/06/02 20:39:41","新北市蘆洲區中山二路309號","121.469175","25.0771033333333","6501400","蘆洲區"
"247002","002-UY","2018/06/02 20:39:52","新北市蘆洲區環堤大道136號","121.455621666667","25.0882183333333","6501400","蘆洲區"
"247020","001-UY","2018/06/02 20:39:39","新北市蘆洲區民族路424-1號","121.473876666667","25.091905","6501400","蘆洲區"
"222001","KEA-2212","2018/06/02 20:39:57","新北市深坑區北深路三段234號","121.600653333333","25.0041683333333","6501800","深坑區"
"251009","008-UM","2018/06/02 20:39:53","新北市淡水區民權路82號","121.45923","25.13361","6501000","淡水區"
"251001","011-UM","2018/06/02 20:39:51","新北市淡水區淡金路57號","121.456171666667","25.1613233333333","6501000","淡水區"
"251002","012-UM","2018/06/02 20:39:45","新北市淡水區中正路28號","121.444325","25.1690616666667","6501000","淡水區"
"251013","KEA-2871","2018/06/02 20:39:50","新北市淡水區下圭柔山28巷27號","121.458201666667","25.20383","6501000","淡水區"
"251016","179-VK","2018/06/02 20:39:53","新北市淡水區後洲子8-2號","121.449663333333","25.22402","6501000","淡水區"
"251014","180-VK","2018/06/02 20:39:41","新北市淡水區公埔子26號","121.467336666667","25.2332616666667","6501000","淡水區"
"251015","182-VK","2018/06/02 20:39:39","新北市淡水區淡金路四段478號","121.452066666667","25.2245066666667","6501000","淡水區"
"251010","413-VK","2018/06/02 20:39:49","新北市淡水區沙崙路181巷15號","121.423888333333","25.1843616666667","6501000","淡水區"
"251012","443-VK","2018/06/02 20:39:43","新北市淡水區興仁路108號","121.451653333333","25.2181133333333","6501000","淡水區"
"251006","561-UM","2018/06/02 20:39:54","新北市淡水區商工路194號","121.450891666667","25.18811","6501000","淡水區"
"251008","575-R6","2018/06/02 20:39:45","新北市淡水區崁頂128號","121.43214","25.20431","6501000","淡水區"
"251011","650-BX","2018/06/02 20:39:56","新北市淡水區新市一路一段361號","121.436351666667","25.18619","6501000","淡水區"
"251003","673-BX","2018/06/02 20:39:50","新北市淡水區新民街152巷6弄22號","121.438835","25.1785683333333","6501000","淡水區"
"252002","178-VK","2018/06/02 20:39:57","新北市三芝區淡金路二段47-1號","121.503611666667","25.2604383333333","6502100","三芝區"
"252001","292-VK","2018/06/02 20:39:45","新北市三芝區育英街29-1號","121.501283333333","25.2573533333333","6502100","三芝區"
"242034","AAC-296","2018/06/02 20:39:55","新北市新莊區公園一路148號","121.44666","25.0383383333333","6500500","新莊區"
"242058","986-R7","2018/06/02 20:39:47","新北市新莊區四維路143號","121.422696666667","25.0223083333333","6500500","新莊區"
"242053","751-BX","2018/06/02 20:39:42","新北市新莊區西盛街341號","121.42806","25.0142683333333","6500500","新莊區"
"242027","615-BX","2018/06/02 20:39:42","新北市新莊區思源路59號","121.459916666667","25.0403183333333","6500500","新莊區"
"242025","613-BX","2018/06/02 20:39:51","新北市三重區光復路二段178-1號","121.47174","25.06217","6500500","新莊區"
"242029","612-BX","2018/06/02 20:39:42","新北市新莊區昌隆街10號","121.4531","25.0507666666667","6500500","新莊區"
"242042","566-BX","2018/06/02 20:39:48","新北市新莊區中正路694巷3弄8號","121.418125","25.0281483333333","6500500","新莊區"
"242046","497-BY","2018/06/02 20:39:32","新北市新莊區裕民街98號","121.418296666667","25.023325","6500500","新莊區"
"242056","440-UM","2018/06/02 20:39:41","新北市新莊區瓊泰路2巷4號","121.444998333333","25.028995","6500500","新莊區"
"242036","415-TV","2018/06/02 20:39:55","新北市新莊區建安街10-1號","121.428493333333","25.0265116666667","6500500","新莊區"
"242007","413-TV","2018/06/02 20:39:39","新北市新莊區福壽街56巷3號","121.458591666667","25.048875","6500500","新莊區"
"242044","400-BY","2018/06/02 20:39:37","新北市新莊區龍安路94號","121.417725","25.0207833333333","6500500","新莊區"
"242023","362-BY","2018/06/02 20:39:50","新北市新莊區思源路123號","121.459816666667","25.0425283333333","6500500","新莊區"
"242061","353-BY","2018/06/02 20:39:41","新北市新莊區新樹路262號","121.432678333333","25.0148066666667","6500500","新莊區"
"242009","132-UY","2018/06/02 20:39:46","新北市新莊區福壽街99巷4弄1號","121.4574","25.05046","6500500","新莊區"
"242031","135-UY","2018/06/02 20:39:44","新北市新莊區三泰路17號","121.438053333333","25.035165","6500500","新莊區"
"242048","172-VK","2018/06/02 20:39:40","新北市新莊區中正路671號","121.426671666667","25.0300833333333","6500500","新莊區"
"242011","173-VK","2018/06/02 20:39:50","新北市新莊區中榮街104巷7號","121.447051666667","25.0532233333333","6500500","新莊區"
"242017","175-VK","2018/06/02 20:39:53","新北市新莊區中港一街161號","121.447105","25.0449833333333","6500500","新莊區"
"242015","346-TH","2018/06/02 20:39:50","新北市新莊區中和街24號","121.448375","25.043665","6500500","新莊區"
"242021","348-TH","2018/06/02 20:39:49","新北市新莊區公園路126號","121.451856666667","25.04001","6500500","新莊區"
"242051","349-TH","2018/06/02 20:39:40","新北市新莊區民安西路173巷14號","121.427198333333","25.0158283333333","6500500","新莊區"
"242019","350-TH","2018/06/02 20:39:51","新北市新莊區銘德街115號","121.45549","25.0432916666667","6500500","新莊區"
"221036","130-UY","2018/06/02 20:39:52","新北市汐止區南昌街16號","121.662885","25.0684166666667","6501100","汐止區"
"221015","131-UY","2018/06/02 20:39:53","新北市汐止區建成路21號","121.664366666667","25.07265","6501100","汐止區"
"221023","279-VK","2018/06/02 20:39:47","新北市汐止區康寧街702號","121.637238333333","25.0719083333333","6501100","汐止區"
"221032","280-BY","2018/06/02 20:39:54","新北市汐止區民權街二段28號","121.619448333333","25.0500266666667","6501100","汐止區"
"221027","281-BY","2018/06/02 20:39:55","新北市汐止區大同路二段567號","121.662931666667","25.0698983333333","6501100","汐止區"
"221029","298-VK","2018/06/02 20:39:46","新北市汐止區樟樹一路1巷1號","121.64201","25.0615416666667","6501100","汐止區"
"221021","299-VK","2018/06/02 20:39:53","新北市汐止區水源路一段282巷1號","121.654056666667","25.058135","6501100","汐止區"
"221008","129-UY","2018/06/02 20:39:54","新北市汐止區康寧街706-2號","121.638525","25.0730183333333","6501100","汐止區"
"221035","622-UM","2018/06/02 20:39:43","新北市汐止區長江街101-5號","121.658848333333","25.073145","6501100","汐止區"
"221025","623-UM","2018/06/02 20:39:38","新北市汐止區水源路二段185號","121.657768333333","25.0535433333333","6501100","汐止區"
"221038","646-BX","2018/06/02 20:39:44","新北市汐止區汐萬路一段256巷3號","121.653351666667","25.0746683333333","6501100","汐止區"
"221033","647-BX","2018/06/02 20:39:36","新北市汐止區合順街18巷8弄5號","121.62029","25.0418883333333","6501100","汐止區"
"221018","753-BX","2018/06/02 20:39:45","新北市汐止區中華街83號","121.668428333333","25.070715","6501100","汐止區"
"242002","KEA-2550","2018/06/02 20:39:49","新北市新莊區明中街12-21號","121.458083333333","25.038865","6500500","新莊區"
"220103","257-TC","2018/06/02 20:39:39","新北市板橋區漢生東路63巷1號","121.465848333333","25.016315","6500100","板橋區"
"242039","280-VK","2018/06/02 20:39:49","新北市新莊區民安路381號","121.431871666667","25.023095","6500500","新莊區"
"220035","560-BX","2018/06/02 20:39:46","新北市樹林區環河路600號","121.40464","24.9688666666667","6500100","板橋區"
"220091","637-BX","2018/06/02 20:39:46","新北市八里區中山路三段409號","121.368773333333","25.135845","6500100","板橋區"
"220057","686-BX","2018/06/02 20:39:38","新北市板橋區華東街1-9號","121.448258333333","24.9949133333333","6500100","板橋區"
"220070","806-UM","2018/06/02 20:39:47","新北市樹林區八德街278號","121.411021666667","24.97012","6500100","板橋區"
