"lineid","car","time","location","longitude","latitude","cityid","cityname"
"235010","733-UM","2018/06/02 21:34:31","新北市中和區員山路36巷13號","121.484131666667","24.99086","6500300","中和區"
"251004","009-UM","2018/06/02 21:59:16","新北市淡水區民權路92巷35-1號","121.462136666667","25.1267066666667","6501000","淡水區"
"251005","010-UM","2018/06/02 21:59:15","新北市淡水區鄧公路30巷2弄63號","121.454288333333","25.1692316666667","6501000","淡水區"
"251010","413-VK","2018/06/02 21:59:09","新北市淡水區中正路二段211號","121.426203333333","25.1891116666667","6501000","淡水區"
"251007","442-VK","2018/06/02 21:59:13","新北市淡水區北新路184巷160號","121.45151","25.1772816666667","6501000","淡水區"
"251006","561-UM","2018/06/02 21:59:19","新北市淡水區中正路11巷3號","121.437793333333","25.17079","6501000","淡水區"
"251008","575-R6","2018/06/02 21:59:27","新北市淡水區學府路104號","121.449813333333","25.1717783333333","6501000","淡水區"
"251011","650-BX","2018/06/02 21:59:16","新北市淡水區水碓街7號","121.443171666667","25.1770966666667","6501000","淡水區"
"251003","673-BX","2018/06/02 21:59:10","新北市淡水區新春街94號","121.439026666667","25.1823583333333","6501000","淡水區"
