"lineid","car","time","location","longitude","latitude","cityid","cityname"
"234044","148-BY","2018/04/28 12:49:22","新北市永和區秀朗路二段148巷12弄16號","121.524791666667","25.0011483333333","6500400","永和區"
"234005","207-UY","2018/04/28 12:49:33","新北市永和區文化路50號","121.51465","25.01511","6500400","永和區"
"234078","298-R6","2018/04/28 12:49:25","新北市永和區永利路108號","121.521153333333","25.0034866666667","6500400","永和區"
"234036","336-UY","2018/04/28 12:49:39","新北市永和區成功路一段79號","121.526998333333","25.0030933333333","6500400","永和區"
"234062","337-UY","2018/04/28 12:49:27","新北市永和區福和路8巷3號","121.524895","25.0091883333333","6500400","永和區"
"234084","338-UY","2018/04/28 12:49:31","新北市永和區中正路59號","121.51461","24.99641","6500400","永和區"
"234068","552-UM","2018/04/28 12:49:23","新北市永和區竹林路155號","121.52047","25.01034","6500400","永和區"
"234015","745-BX","2018/04/28 12:49:37","新北市永和區環河西路一段1號","121.5153","25.01802","6500400","永和區"
"234028","746-BX","2018/04/28 12:49:30","新北市永和區得和路321號","121.52335","24.999595","6500400","永和區"
"234052","KEA-2590","2018/04/28 12:49:37","新北市永和區豫溪街191巷1弄1號","121.523111666667","25.01047","6500400","永和區"
"234012","KEA-2591","2018/04/28 12:49:21","新北市永和區保福路二段133巷25號","121.509343333333","25.01354","6500400","永和區"
"234060","AAD-866","2018/04/28 12:49:36","新北市永和區福和路305號","121.51633","25.00715","6500400","永和區"
"234040","862-TW","2018/04/28 12:49:25","新北市永和區永貞路310號","121.51178","25.0049183333333","6500400","永和區"
"234048","863-TW","2018/04/28 12:49:35","新北市永和區環河東路二段52號","121.523346666667","25.0118783333333","6500400","永和區"
"234025","9371-KE","2018/04/28 12:49:32","新北市永和區中正路748號","121.514855","25.0103","6500400","永和區"
"234010","9373-KE","2018/04/28 12:49:29","新北市永和區保福路二段158巷1號","121.509133333333","25.0150383333333","6500400","永和區"
"248019","225-UY","2018/04/28 12:49:23","新北市五股區中興路二段83巷26-6號","121.460036666667","25.0751416666667","6501500","五股區"
"234022","9380-KE","2018/04/28 12:49:35","新北市永和區豫溪街207巷22號","121.52343","25.0104183333333","6500400","永和區"
"234076","969-R7","2018/04/28 12:49:29","新北市中和區安樂路101-3號","121.513481666667","24.9950616666667","6500400","永和區"
"234072","AAC-211","2018/04/28 12:49:33","新北市永和區福和路1號","121.526188333333","25.009805","6500400","永和區"
"234001","AAC-295","2018/04/28 12:49:33","新北市永和區福和路175號","121.519868333333","25.0076433333333","6500400","永和區"
"231001","047-UY","2018/04/28 12:49:39","新北市新店區安華路28-1號","121.51932","24.9612283333333","6500600","新店區"
"231005","106-UY","2018/04/28 12:49:31","新北市新店區安華路28-1號","121.519675","24.9608433333333","6500600","新店區"
"231010","107-UY","2018/04/28 12:49:29","新北市新店區安康路一段355-3號","121.519426666667","24.9614933333333","6500600","新店區"
"231012","187-VK","2018/04/28 12:49:29","新北市新店區安華路28-1號","121.519601666667","24.961105","6500600","新店區"
"231023","KEA-2219","2018/04/28 12:49:27","新北市新店區安華路28-1號","121.519631666667","24.961255","6500600","新店區"
"231003","268-BY","2018/04/28 12:49:40","新北市新店區安華路1-1號","121.519335","24.9604533333333","6500600","新店區"
"231017","AAD-862","2018/04/28 12:49:27","新北市新店區安華路28-1號","121.519775","24.9613083333333","6500600","新店區"
"231036","512-UM","2018/04/28 12:49:37","新北市新店區安華路28-1號","121.519351666667","24.9613283333333","6500600","新店區"
"231013","513-UM","2018/04/28 12:49:33","新北市新店區安華路28-1號","121.519761666667","24.9611516666667","6500600","新店區"
"231033","720-UM","2018/04/28 12:49:38","新北市新店區安康路一段355-3號","121.519278333333","24.9617683333333","6500600","新店區"
"231024","AKT-0513","2018/04/28 12:49:30","新北市新店區安華路28-1號","121.51959","24.96062","6500600","新店區"
"235029","098-UM","2018/04/28 12:49:20","新北市中和區員山路36巷16-3號","121.485041666667","24.9913366666667","6500300","中和區"
"235002","185-VK","2018/04/28 12:49:30","新北市中和區景平路1號","121.5256","24.9900966666667","6500300","中和區"
"235031","255-BX","2018/04/28 12:49:41","新北市中和區新民街12-3號","121.482198333333","25.007325","6500300","中和區"
"235001","611-BX","2018/04/28 12:49:30","新北市中和區連城路380號","121.48081","24.995","6500300","中和區"
"235005","802-TS","2018/04/28 12:49:32","新北市中和區員山路36巷16-2號","121.485308333333","24.9917933333333","6500300","中和區"
"228005","097-TW","2018/04/28 12:49:31","新北市貢寮區福連里福連街34-1號","121.988653333333","25.01119","6502600","貢寮區"
"228004","212-TW","2018/04/28 12:49:27","新北市貢寮區吉林里內寮街20-1號","121.889828333333","24.99481","6502600","貢寮區"
"207002","749-BX","2018/04/28 12:49:25","新北市萬里區雙興里大坪路1-1號","121.64164","25.1667616666667","6502800","萬里區"
"207001","662-BX","2018/04/28 12:49:40","新北市萬里區萬里里獅頭路22-1號","121.693001666667","25.1782216666667","6502800","萬里區"
"236006","498-BY","2018/04/28 12:49:39","新北市土城區永平街51號","121.427776666667","24.9590716666667","6501300","土城區"
"239006","661-UM","2018/04/28 12:49:21","新北市鶯歌區二甲路12-2號","121.34559","24.9348033333333","6500800","鶯歌區"
