"lineid","car","time","location","longitude","latitude","cityid","cityname"
"234044","148-BY","2018/04/28 13:09:22","新北市永和區永元路18巷7號","121.522981666667","25.0003433333333","6500400","永和區"
"234005","207-UY","2018/04/28 13:09:33","新北市永和區中山路一段177號","121.509318333333","25.008965","6500400","永和區"
"234078","298-R6","2018/04/28 13:09:25","新北市永和區永貞路39巷9弄1號","121.521836666667","25.006585","6500400","永和區"
"234036","336-UY","2018/04/28 13:09:39","新北市永和區民樂街73巷1號","121.527431666667","24.99725","6500400","永和區"
"234062","337-UY","2018/04/28 13:09:27","新北市永和區秀朗路二段67號","121.52206","25.0020316666667","6500400","永和區"
"234084","338-UY","2018/04/28 13:09:24","新北市永和區永貞路90號","121.519483333333","25.0046483333333","6500400","永和區"
"234068","552-UM","2018/04/28 13:09:28","新北市永和區豫溪街137巷1弄20號","121.5187","25.0105266666667","6500400","永和區"
"234066","553-UM","2018/04/28 13:09:29","新北市永和區永和路一段112-1號","121.51357","25.007345","6500400","永和區"
"234015","745-BX","2018/04/28 13:09:38","新北市永和區文化路90巷12號","121.513951666667","25.0158416666667","6500400","永和區"
"234028","746-BX","2018/04/28 13:09:30","新北市永和區民生路21號","121.522741666667","24.9989416666667","6500400","永和區"
"234052","KEA-2590","2018/04/28 13:09:37","新北市永和區中興街102號","121.519016666667","25.012305","6500400","永和區"
"234012","KEA-2591","2018/04/28 13:09:30","新北市永和區保福路二段56號","121.510963333333","25.0122866666667","6500400","永和區"
"234060","AAD-866","2018/04/28 13:09:36","新北市永和區安樂路332巷1號","121.514558333333","25.005955","6500400","永和區"
"234040","862-TW","2018/04/28 13:09:25","新北市永和區永貞路354號","121.510343333333","25.0063533333333","6500400","永和區"
"234048","863-TW","2018/04/28 13:09:35","新北市永和區仁愛路104巷7弄64號","121.51087","25.014295","6500400","永和區"
"234025","9371-KE","2018/04/28 13:09:32","新北市永和區秀朗路一段10巷19號","121.513468333333","25.006125","6500400","永和區"
"234010","9373-KE","2018/04/28 13:09:33","新北市永和區永和路二段231巷1-1號","121.514968333333","25.01403","6500400","永和區"
"248019","225-UY","2018/04/28 13:09:23","新北市五股區工商路8號","121.440961666667","25.08273","6501500","五股區"
"234022","9380-KE","2018/04/28 13:09:35","新北市永和區中興街113號","121.51844","25.0122516666667","6500400","永和區"
"234076","969-R7","2018/04/28 13:09:32","新北市永和區民光街1號","121.515248333333","24.9964533333333","6500400","永和區"
"234072","AAC-211","2018/04/28 13:09:38","新北市永和區竹林路207號","121.520625","25.0089483333333","6500400","永和區"
"234001","AAC-295","2018/04/28 13:09:33","新北市永和區永和路二段8號","121.514605","25.0101183333333","6500400","永和區"
"244005","248-BX","2018/04/28 13:09:30","新北市林口區民族路185號","121.367901666667","25.076925","6501700","林口區"
"231027","0293-UT","2018/04/28 13:09:37","新北市新店區安華路28-1號","121.519621666667","24.9606883333333","6500600","新店區"
"231001","047-UY","2018/04/28 13:09:39","新北市新店區安華路28-1號","121.519198333333","24.9609183333333","6500600","新店區"
"231005","106-UY","2018/04/28 13:09:31","新北市新店區安華路28-1號","121.519676666667","24.96083","6500600","新店區"
"231010","107-UY","2018/04/28 13:09:29","新北市新店區安華路28-1號","121.519525","24.961385","6500600","新店區"
"231020","108-UY","2018/04/28 13:09:35","新北市新店區安華路28-1號","121.519585","24.9611666666667","6500600","新店區"
"231012","187-VK","2018/04/28 13:09:29","新北市新店區安華路28-1號","121.519543333333","24.9611083333333","6500600","新店區"
"231023","KEA-2219","2018/04/28 13:09:27","新北市新店區安華路28-1號","121.519751666667","24.9612633333333","6500600","新店區"
"231026","256-BX","2018/04/28 13:09:27","新北市新店區安華路28-1號","121.519946666667","24.9611366666667","6500600","新店區"
"231003","268-BY","2018/04/28 13:09:40","新北市新店區安華路1-1號","121.519386666667","24.9604983333333","6500600","新店區"
"231018","278-BY","2018/04/28 13:09:22","新北市新店區安華路28-1號","121.51919","24.9612216666667","6500600","新店區"
"231017","AAD-862","2018/04/28 13:09:27","新北市新店區安華路28-1號","121.519866666667","24.961275","6500600","新店區"
"231028","355-BY","2018/04/28 13:09:31","新北市新店區安華路28-1號","121.519315","24.9609516666667","6500600","新店區"
"231025","4715-K9","2018/04/28 13:09:24","新北市新店區安華路1-1號","121.519285","24.96053","6500600","新店區"
"231036","512-UM","2018/04/28 13:09:37","新北市新店區安華路28-1號","121.519353333333","24.9612266666667","6500600","新店區"
"231013","513-UM","2018/04/28 13:09:33","新北市新店區安華路28-1號","121.519695","24.9611583333333","6500600","新店區"
"231034","616-UM","2018/04/28 13:09:27","新北市新店區安華路28-1號","121.519293333333","24.960645","6500600","新店區"
"231006","617-UM","2018/04/28 13:09:29","新北市新店區安華路28-1號","121.519465","24.9609066666667","6500600","新店區"
"231030","619-UM","2018/04/28 13:09:26","新北市新店區安華路28-1號","121.519368333333","24.96072","6500600","新店區"
"231035","719-UM","2018/04/28 13:09:25","新北市新店區安華路28-1號","121.519546666667","24.9614333333333","6500600","新店區"
"231033","720-UM","2018/04/28 13:09:39","新北市新店區安康路一段355-3號","121.519318333333","24.96154","6500600","新店區"
"231029","897-TW","2018/04/28 13:09:36","新北市新店區安華路28-1號","121.519518333333","24.9607233333333","6500600","新店區"
"231004","899-TW","2018/04/28 13:09:20","新北市新店區安華路28-1號","121.519341666667","24.9609016666667","6500600","新店區"
"231024","AKT-0513","2018/04/28 13:09:30","新北市新店區安華路28-1號","121.519516666667","24.9606483333333","6500600","新店區"
"235028","005-UY","2018/04/28 13:09:20","新北市中和區中正路277號","121.495281666667","24.9938416666667","6500300","中和區"
"235027","006-UY","2018/04/28 13:09:22","新北市中和區員山路36巷16-3號","121.485006666667","24.991405","6500300","中和區"
"235020","096-UM","2018/04/28 13:09:37","新北市中和區員山路36巷16號","121.484418333333","24.9914233333333","6500300","中和區"
"235029","098-UM","2018/04/28 13:09:20","新北市中和區中山路二段65號","121.504071666667","25.0046566666667","6500300","中和區"
"235022","151-BY","2018/04/28 13:09:26","新北市中和區圓通路367巷66號","121.49332","24.9832316666667","6500300","中和區"
"235002","185-VK","2018/04/28 13:09:30","新北市中和區大智街10號","121.520355","24.99192","6500300","中和區"
"235031","255-BX","2018/04/28 13:09:21","新北市中和區新生街146號","121.483511666667","25.0007983333333","6500300","中和區"
"235025","378-QA","2018/04/28 13:09:35","新北市中和區員山路72-1號","121.48108","24.9936933333333","6500300","中和區"
"235033","4980-A6","2018/04/28 13:09:35","新北市中和區員山路36巷16-8號","121.485451666667","24.9922216666667","6500300","中和區"
"235006","551-UM","2018/04/28 13:09:32","新北市中和區中正路250號","121.495735","24.9939433333333","6500300","中和區"
"235034","558-UM","2018/04/28 13:09:20","新北市中和區錦和路350-1號","121.490396666667","24.9935966666667","6500300","中和區"
"235018","640-BX","2018/04/28 13:09:22","新北市土城區延壽路117號","121.469063333333","24.994295","6500300","中和區"
"235011","732-UM","2018/04/28 13:09:27","新北市中和區中正路395號","121.489866666667","24.9935866666667","6500300","中和區"
"235035","783-BX","2018/04/28 13:09:36","新北市中和區板南路520巷15號","121.483515","25.00872","6500300","中和區"
"235026","800-TS","2018/04/28 13:09:26","新北市中和區橋和路12號","121.489068333333","25.0050883333333","6500300","中和區"
"235021","801-TS","2018/04/28 13:09:30","新北市中和區員山路36巷16-3號","121.484811666667","24.9915216666667","6500300","中和區"
"235005","802-TS","2018/04/28 13:09:32","新北市中和區中正路509號","121.488565","24.9942566666667","6500300","中和區"
"235016","805-TS","2018/04/28 13:09:19","新北市中和區錦和路350-1號","121.490533333333","24.993605","6500300","中和區"
"235017","900-TW","2018/04/28 13:09:27","新北市中和區員山路36巷16-2號","121.48506","24.9917766666667","6500300","中和區"
"235015","157-BY","2018/04/28 13:09:25","新北市中和區板南路128巷1號","121.502758333333","24.992555","6500300","中和區"
"235001","AAC-213","2018/04/28 13:09:26","新北市中和區景平路149號","121.513796666667","24.992275","6500300","中和區"
"220013","072-UY","2018/04/28 13:09:37","新北市板橋區華東街1-10號","121.448235","24.9950433333333","6500100","板橋區"
"235036","251-BX","2018/04/28 13:09:27","新北市中和區員山路36巷16-3號","121.484801666667","24.9912716666667","6500300","中和區"
"228005","097-TW","2018/04/28 13:09:31","新北市貢寮區仁理村仁和路136號","121.923066666667","25.051435","6502600","貢寮區"
"228004","212-TW","2018/04/28 13:09:27","新北市貢寮區吉林里內寮街75號","121.891398333333","24.9724066666667","6502600","貢寮區"
"253003","6232-TK","2018/04/28 13:09:33","新北市石門區石崩山27-7號","121.564368333333","25.2800666666667","6502200","石門區"
"253001","6251-TK","2018/04/28 13:09:30","新北市石門區老梅路43-2號","121.545358333333","25.2896183333333","6502200","石門區"
"253002","637-UY","2018/04/28 13:09:35","新北市石門區老崩山35號","121.557121666667","25.2766133333333","6502200","石門區"
"253004","8270-PC","2018/04/28 13:09:18","新北市石門區阿里荖28-1號","121.607071666667","25.2808416666667","6502200","石門區"
"207002","749-BX","2018/04/28 13:09:25","新北市萬里區崁腳里崁腳路166號","121.645048333333","25.155825","6502800","萬里區"
"252005","073-UM","2018/04/28 13:09:30","新北市三芝區埔頭里埔頭6-1號","121.504703333333","25.2521366666667","6502100","三芝區"
"252002","178-VK","2018/04/28 13:09:31","新北市三芝區埔頭里埔頭24號","121.490898333333","25.2606216666667","6502100","三芝區"
"207001","662-BX","2018/04/28 13:09:40","新北市萬里區萬里里瑪鋉路314號","121.688268333333","25.181975","6502800","萬里區"
"236006","498-BY","2018/04/28 13:09:39","新北市土城區亞洲路33號","121.433788333333","24.9716766666667","6501300","土城區"
"220002","741-BX","2018/04/28 13:09:31","新北市板橋區華東街1-9號","121.448155","24.9949516666667","6500100","板橋區"
