"lineid","car","time","location","longitude","latitude","cityid","cityname"
"234044","148-BY","2018/04/28 13:39:40","新北市永和區永亨路146巷3號","121.525293333333","25.003645","6500400","永和區"
"234005","207-UY","2018/04/28 13:39:33","新北市永和區永和路一段100號","121.513348333333","25.0068833333333","6500400","永和區"
"234078","298-R6","2018/04/28 13:39:25","新北市永和區國中路4號","121.524415","25.0043883333333","6500400","永和區"
"234036","336-UY","2018/04/28 13:39:39","新北市永和區民樂街31巷10弄2號","121.528231666667","25.00067","6500400","永和區"
"234062","337-UY","2018/04/28 13:39:27","新北市永和區秀朗路一段192巷6弄12號","121.519066666667","25.0023666666667","6500400","永和區"
"234084","338-UY","2018/04/28 13:39:23","新北市永和區永亨路165巷10號","121.526253333333","25.0042016666667","6500400","永和區"
"234068","552-UM","2018/04/28 13:39:23","新北市永和區永和路二段216號","121.51575","25.01408","6500400","永和區"
"234066","553-UM","2018/04/28 13:39:39","新北市永和區中山路一段191巷9弄2號","121.509736666667","25.0080433333333","6500400","永和區"
"234015","745-BX","2018/04/28 13:39:37","新北市永和區永和路二段425巷9號","121.515045","25.017665","6500400","永和區"
"234028","746-BX","2018/04/28 13:39:30","新北市永和區民權路31號","121.520118333333","24.997735","6500400","永和區"
"234052","KEA-2590","2018/04/28 13:39:37","新北市永和區竹林路39巷7號","121.518201666667","25.014575","6500400","永和區"
"234012","KEA-2591","2018/04/28 13:39:21","新北市永和區永平路258號","121.50818","25.011365","6500400","永和區"
"234060","AAD-866","2018/04/28 13:39:36","新北市永和區中正路446號","121.517446666667","25.002795","6500400","永和區"
"234040","862-TW","2018/04/28 13:39:30","新北市永和區中和路305巷2弄1號","121.506683333333","25.0000966666667","6500400","永和區"
"234048","863-TW","2018/04/28 13:39:35","新北市永和區文化路163號","121.510255","25.0164733333333","6500400","永和區"
"234025","9371-KE","2018/04/28 13:39:32","新北市永和區中山路一段142號","121.510016666667","25.0097","6500400","永和區"
"234010","9373-KE","2018/04/28 13:39:29","新北市永和區信義路25巷53號","121.512373333333","25.0115566666667","6500400","永和區"
"248019","225-UY","2018/04/28 13:39:23","新北市五股區民義路二段66-1號","121.40624","25.1082583333333","6501500","五股區"
"234022","9380-KE","2018/04/28 13:39:35","新北市永和區豫溪街57巷8弄3號","121.517543333333","25.0104633333333","6500400","永和區"
"234076","969-R7","2018/04/28 13:39:29","新北市永和區得和路233號","121.520015","25.000195","6500400","永和區"
"234072","AAC-211","2018/04/28 13:39:33","新北市永和區竹林路213巷25號","121.522408333333","25.009085","6500400","永和區"
"234001","AAC-295","2018/04/28 13:39:33","新北市永和區自由街3號","121.515015","25.0071583333333","6500400","永和區"
"244005","248-BX","2018/04/28 13:39:30","新北市林口區竹林路326巷24弄4號","121.392068333333","25.0814833333333","6501700","林口區"
"231002","002-UM","2018/04/28 13:39:39","新北市新店區中央三街127號","121.524016666667","24.97691","6500600","新店區"
"231027","0293-UT","2018/04/28 13:39:37","新北市新店區北宜路一段105巷4弄7-1號","121.540238333333","24.95559","6500600","新店區"
"231001","047-UY","2018/04/28 13:39:18","新北市新店區中正路434號","121.534231666667","24.9782416666667","6500600","新店區"
"231005","106-UY","2018/04/28 13:39:31","新北市新店區寶橋路132號","121.547328333333","24.97611","6500600","新店區"
"231010","107-UY","2018/04/28 13:39:29","新北市新店區自由街35號","121.534806666667","24.974125","6500600","新店區"
"231020","108-UY","2018/04/28 13:39:35","新北市新店區永興路132-3號","121.544813333333","24.9316533333333","6500600","新店區"
"231012","187-VK","2018/04/28 13:39:29","新北市新店區德正街27巷3號","121.544596666667","24.9714533333333","6500600","新店區"
"231023","KEA-2219","2018/04/28 13:39:27","新北市新店區新店路182號","121.537213333333","24.95595","6500600","新店區"
"231026","256-BX","2018/04/28 13:39:27","新北市新店區光明街306號","121.540555","24.96491","6500600","新店區"
"231003","268-BY","2018/04/28 13:39:40","新北市新店區中興路一段282號","121.545756666667","24.9683866666667","6500600","新店區"
"231018","278-BY","2018/04/28 13:39:22","新北市新店區百忍街14號","121.534623333333","24.97563","6500600","新店區"
"231017","AAD-862","2018/04/28 13:39:27","新北市新店區竹林路25巷10號","121.552281666667","24.951355","6500600","新店區"
"231028","355-BY","2018/04/28 13:39:34","新北市新店區安和路二段18號","121.518055","24.9674716666667","6500600","新店區"
"231038","3712-VJ","2018/04/28 13:39:41","新北市新店區安康路一段323-3號","121.521216666667","24.9638116666667","6500600","新店區"
"231037","4716-K9","2018/04/28 13:39:38","新北市新店區薏仁坑路30號","121.49767","24.9593233333333","6500600","新店區"
"231025","4715-K9","2018/04/28 13:39:24","新北市新店區中央六街52號","121.528108333333","24.975605","6500600","新店區"
"231036","512-UM","2018/04/28 13:39:37","新北市新店區安祥路147巷37號","121.476568333333","24.95658","6500600","新店區"
"231013","513-UM","2018/04/28 13:39:38","新北市新店區中正路454-5號","121.534436666667","24.9791116666667","6500600","新店區"
"231034","616-UM","2018/04/28 13:39:27","新北市新店區車子路134號","121.505236666667","24.949435","6500600","新店區"
"231006","617-UM","2018/04/28 13:39:37","新北市新店區北宜路一段107-1號","121.539445","24.9551466666667","6500600","新店區"
"231030","619-UM","2018/04/28 13:39:31","新北市新店區安康路一段323-1號","121.521621666667","24.963795","6500600","新店區"
"231035","719-UM","2018/04/28 13:39:37","新北市新店區安忠路20號","121.514611666667","24.9620966666667","6500600","新店區"
"231033","720-UM","2018/04/28 13:39:19","新北市新店區安康路一段230-3號","121.522411666667","24.96372","6500600","新店區"
"231029","897-TW","2018/04/28 13:39:40","新北市新店區安康路二段199號","121.509195","24.9589966666667","6500600","新店區"
"231004","899-TW","2018/04/28 13:39:20","新北市新店區北新路二段12號","121.542793333333","24.9712183333333","6500600","新店區"
"231024","AKT-0513","2018/04/28 13:39:30","新北市新店區華興街15號","121.537821666667","24.96951","6500600","新店區"
"235028","005-UY","2018/04/28 13:39:40","新北市中和區連城路89巷6號","121.496926666667","24.99956","6500300","中和區"
"235027","006-UY","2018/04/28 13:39:31","新北市中和區連城路403巷1號","121.486315","24.9959216666667","6500300","中和區"
"235020","096-UM","2018/04/28 13:39:37","新北市中和區員山路466巷17弄31號","121.480478333333","25.0074066666667","6500300","中和區"
"235003","097-UM","2018/04/28 13:39:22","新北市中和區大勇街25巷38弄1號","121.515751666667","24.9937033333333","6500300","中和區"
"235029","098-UM","2018/04/28 13:39:41","新北市中和區中山路二段2巷81弄1號","121.501211666667","25.00758","6500300","中和區"
"235004","150-BY","2018/04/28 13:39:25","新北市中和區保健路61巷5弄2號","121.509711666667","24.9975366666667","6500300","中和區"
"235022","151-BY","2018/04/28 13:39:26","新北市中和區圓通路369巷39-30號","121.489681666667","24.9859016666667","6500300","中和區"
"235019","183-VK","2018/04/28 13:39:41","新北市中和區國光街102巷29號","121.471368333333","25.0007966666667","6500300","中和區"
"235002","185-VK","2018/04/28 13:39:30","新北市中和區大勇街31巷1號","121.517446666667","24.9941416666667","6500300","中和區"
"235013","186-VK","2018/04/28 13:39:33","新北市中和區明義街16號","121.504646666667","24.9948833333333","6500300","中和區"
"235031","255-BX","2018/04/28 13:39:41","新北市中和區新生街220巷4號","121.482921666667","24.9986216666667","6500300","中和區"
"235008","293-VK","2018/04/28 13:39:34","新北市中和區復興路280巷30號","121.501663333333","24.9918","6500300","中和區"
"235007","352-BY","2018/04/28 13:39:34","新北市中和區景平路165號","121.512306666667","24.9924783333333","6500300","中和區"
"235032","377-QA","2018/04/28 13:39:31","新北市中和區中正路209號","121.497086666667","24.9933816666667","6500300","中和區"
"235025","378-QA","2018/04/28 13:39:35","新北市中和區民享街88巷20號","121.47363","25.0004216666667","6500300","中和區"
"235014","4979-A6","2018/04/28 13:39:31","新北市中和區景新街496巷35弄2號","121.513503333333","24.9854533333333","6500300","中和區"
"235033","4980-A6","2018/04/28 13:39:35","新北市中和區連城路99巷5號","121.496873333333","24.999305","6500300","中和區"
"235006","551-UM","2018/04/28 13:39:32","新北市中和區成功路41巷1號","121.526321666667","24.9932583333333","6500300","中和區"
"235034","558-UM","2018/04/28 13:39:40","新北市中和區明禮街42號","121.50408","24.9965883333333","6500300","中和區"
"235009","565-BX","2018/04/28 13:39:29","新北市中和區南山路236巷51號","121.504936666667","24.988245","6500300","中和區"
"235018","640-BX","2018/04/28 13:39:22","新北市中和區民享街32巷18號","121.473033333333","25.0032333333333","6500300","中和區"
"235024","647-TV","2018/04/28 13:39:27","新北市中和區中山路二段586-2號","121.482248333333","25.0051483333333","6500300","中和區"
"235011","732-UM","2018/04/28 13:39:27","新北市中和區南山路320巷3號","121.507661666667","24.9864816666667","6500300","中和區"
"235035","783-BX","2018/04/28 13:39:36","新北市中和區立德街17號","121.489086666667","25.0070566666667","6500300","中和區"
"235026","800-TS","2018/04/28 13:39:26","新北市中和區景平路703巷2弄2號","121.496193333333","25.0035183333333","6500300","中和區"
"235021","801-TS","2018/04/28 13:39:32","新北市中和區民安街42巷28號","121.47938","25.0009733333333","6500300","中和區"
"235005","802-TS","2018/04/28 13:39:32","新北市中和區中和路400巷27號","121.51187","25.0020666666667","6500300","中和區"
"235016","805-TS","2018/04/28 13:39:19","新北市中和區興南路三段42-2號","121.495845","24.97724","6500300","中和區"
"235012","896-TW","2018/04/28 13:39:28","新北市中和區中正路83號","121.500596666667","24.993505","6500300","中和區"
"235017","900-TW","2018/04/28 13:39:27","新北市中和區莒光路213號","121.469046666667","24.9946916666667","6500300","中和區"
"235030","911-UM","2018/04/28 13:39:39","新北市中和區光華街46號","121.505046666667","25.0036633333333","6500300","中和區"
"235015","157-BY","2018/04/28 13:39:25","新北市中和區興南路二段114巷6號","121.50404","24.98443","6500300","中和區"
"235001","AAC-213","2018/04/28 13:39:26","新北市中和區景德街54號","121.517516666667","24.9916283333333","6500300","中和區"
"235023","AAC-215","2018/04/28 13:39:35","新北市中和區中正路395號","121.489926666667","24.9935833333333","6500300","中和區"
"220016","013-TV","2018/04/28 13:39:32","新北市板橋區民生路二段120號","121.470468333333","25.0195083333333","6500100","板橋區"
"220013","072-UY","2018/04/28 13:39:23","新北市板橋區南雅南路二段144巷60號","121.450261666667","24.9973916666667","6500100","板橋區"
"220034","073-UY","2018/04/28 13:39:41","新北市板橋區南雅西路二段192巷1弄5號","121.452061666667","25.0145516666667","6500100","板橋區"
"220017","AAD-861","2018/04/28 13:39:40","新北市板橋區華東街1-10號","121.448351666667","24.9951083333333","6500100","板橋區"
"247005","336-TH","2018/04/28 13:39:28","新北市五股區工商路8號","121.44051","25.0823983333333","6501400","蘆洲區"
"247007","056-VK","2018/04/28 13:39:35","新北市蘆洲區國道路二段88號","121.472038333333","25.0746033333333","6501400","蘆洲區"
"247017","053-VK","2018/04/28 13:39:27","新北市五股區成洲五路38號","121.453663333333","25.1012566666667","6501400","蘆洲區"
"247019","001-UY","2018/04/28 13:39:41","新北市五股區成泰路三段544-1號","121.454345","25.1016066666667","6501400","蘆洲區"
"235036","251-BX","2018/04/28 13:39:27","新北市中和區中山路二段193號","121.499973333333","25.002685","6500300","中和區"
"228005","097-TW","2018/04/28 13:39:31","新北市貢寮區美豐里文秀坑8號","121.902445","25.05035","6502600","貢寮區"
"228004","212-TW","2018/04/28 13:38:06","新北市貢寮區龍崗里石壁坑街30號","121.909796666667","25.0022833333333","6502600","貢寮區"
"227010","400-TW","2018/04/28 13:39:25","新北市雙溪區三貂里政光路3-1號","121.850856666667","25.0630166666667","6502500","雙溪區"
"253003","6232-TK","2018/04/28 13:39:23","新北市石門區尖子鹿5-1號","121.571683333333","25.281075","6502200","石門區"
"253001","6251-TK","2018/04/28 13:39:30","新北市石門區白沙灣別墅46號","121.509216666667","25.2782666666667","6502200","石門區"
"253002","637-UY","2018/04/28 13:39:35","新北市石門區九芎林35號","121.566601666667","25.2554933333333","6502200","石門區"
"253004","8270-PC","2018/04/28 13:39:38","新北市石門區阿里荖53號","121.606981666667","25.2736333333333","6502200","石門區"
"207002","749-BX","2018/04/28 13:39:25","新北市萬里區崁腳里崁腳路166號","121.645043333333","25.15592","6502800","萬里區"
"252005","073-UM","2018/04/28 13:39:30","新北市三芝區圓山里木屐寮32-2號","121.530313333333","25.221015","6502100","三芝區"
"252002","178-VK","2018/04/28 13:39:27","新北市三芝區後厝里北勢子12-1號","121.47498","25.2552916666667","6502100","三芝區"
"207001","662-BX","2018/04/28 13:39:20","新北市萬里區大鵬里萬里加投59號","121.642351666667","25.21248","6502800","萬里區"
"236068","105-UM","2018/04/28 13:39:37","新北市土城區城林路6巷80號","121.438663333333","24.9796483333333","6501300","土城區"
"236074","166-UM","2018/04/28 13:39:33","新北市土城區中華路二段48號","121.43922","24.9779483333333","6501300","土城區"
"236013","270-VK","2018/04/28 13:39:29","新北市土城區城林路6巷80號","121.438563333333","24.9797733333333","6501300","土城區"
"236032","271-VK","2018/04/28 13:39:32","新北市土城區城林路6巷80號","121.438436666667","24.97972","6501300","土城區"
"236017","401-BY","2018/04/28 13:39:30","新北市土城區城林路6巷80號","121.438645","24.979645","6501300","土城區"
"236006","498-BY","2018/04/28 13:39:39","新北市土城區學府路二段216號","121.444853333333","24.97819","6501300","土城區"
"236057","912-UM","2018/04/28 13:39:23","新北市土城區城林路6巷80號","121.438475","24.9797733333333","6501300","土城區"
"220027","145-BY","2018/04/28 13:39:37","新北市板橋區漢生西路89巷5弄8-1號","121.461041666667","25.01927","6500100","板橋區"
"220028","200-UY","2018/04/28 13:39:32","新北市板橋區大觀路二段265巷76弄34號","121.441176666667","24.996825","6500100","板橋區"
"220030","610-BX","2018/04/28 13:39:21","新北市板橋區大觀路三段52號","121.432376666667","24.9960416666667","6500100","板橋區"
"220004","276-BY","2018/04/28 13:39:41","新北市板橋區四川路二段140巷2號","121.449911666667","24.99307","6500100","板橋區"
"220020","277-BY","2018/04/28 13:39:34","新北市板橋區大觀路三段59巷17弄6-1號","121.437411666667","24.9954183333333","6500100","板橋區"
"220043","283-UM","2018/04/28 13:39:39","新北市板橋區民生路二段161巷3號","121.47009","25.0197533333333","6500100","板橋區"
"220001","285-VK","2018/04/28 13:39:22","新北市板橋區民生路二段120號","121.470335","25.01983","6500100","板橋區"
"220031","286-VK","2018/04/28 13:39:31","新北市板橋區大觀路二段57號","121.446663333333","25.00269","6500100","板橋區"
"220029","287-VK","2018/04/28 13:39:31","新北市板橋區大觀路二段153巷33號","121.446906666667","25.0002533333333","6500100","板橋區"
"220009","295-UM","2018/04/28 13:39:37","新北市板橋區民生路二段161巷1號","121.47019","25.019975","6500100","板橋區"
"220032","296-UM","2018/04/28 13:39:23","新北市板橋區大觀路二段179巷33號","121.446328333333","24.999585","6500100","板橋區"
"220023","303-R5","2018/04/28 13:39:27","新北市板橋區華東街328號","121.452786666667","25.003435","6500100","板橋區"
"220010","305-R5","2018/04/28 13:39:31","新北市板橋區民生路二段120號","121.470381666667","25.0197433333333","6500100","板橋區"
"220047","317-R6","2018/04/28 13:39:34","新北市板橋區民生路二段120號","121.470408333333","25.019805","6500100","板橋區"
"220012","486-VK","2018/04/28 13:39:40","新北市板橋區民生路二段36-1號","121.472061666667","25.0168583333333","6500100","板橋區"
"220104","560-BX","2018/04/28 13:39:38","新北市板橋區南雅西路二段175巷2號","121.45154","25.0125416666667","6500100","板橋區"
"220052","561-BX","2018/04/28 13:39:34","新北市板橋區民生路二段120號","121.470395","25.019945","6500100","板橋區"
"220019","568-UM","2018/04/28 13:39:30","新北市板橋區四川路二段140巷2號","121.449796666667","24.9931566666667","6500100","板橋區"
"220011","609-BX","2018/04/28 13:39:35","新北市板橋區民生路二段188號","121.46999","25.02028","6500100","板橋區"
"220005","686-BX","2018/04/28 13:39:38","新北市板橋區華東街1-9號","121.448218333333","24.9949683333333","6500100","板橋區"
"220025","687-BX","2018/04/28 13:39:20","新北市板橋區大觀路三段212巷70號","121.429836666667","24.99352","6500100","板橋區"
"220002","741-BX","2018/04/28 13:39:31","新北市板橋區板城路421號","121.448111666667","24.99565","6500100","板橋區"
"220051","KEA-2699","2018/04/28 13:39:22","新北市板橋區民生路二段161巷1號","121.470043333333","25.0201016666667","6500100","板橋區"
"220014","829-TW","2018/04/28 13:39:35","新北市板橋區民生路二段161巷3號","121.470245","25.0198516666667","6500100","板橋區"
"220045","830-TW","2018/04/28 13:39:22","新北市板橋區民生路二段120號","121.470515","25.0198083333333","6500100","板橋區"
"220022","895-R6","2018/04/28 13:39:29","新北市板橋區南雅南路一段111號","121.455473333333","25.0049183333333","6500100","板橋區"
"220021","985-R7","2018/04/28 13:39:33","新北市板橋區華東街328號","121.452785","25.0034333333333","6500100","板橋區"
"220018","AAC-253","2018/04/28 13:39:20","新北市板橋區華東街1-9號","121.448255","24.9948783333333","6500100","板橋區"
