"lineid","car","time","location","longitude","latitude","cityid","cityname"
"234005","207-UY","2018/04/28 14:19:33","新北市永和區中正路636號","121.517031666667","25.0081883333333","6500400","永和區"
"234078","298-R6","2018/04/28 14:19:25","新北市永和區國中路146號","121.523086666667","25.0070316666667","6500400","永和區"
"234036","336-UY","2018/04/28 14:19:39","新北市永和區成功路一段11號","121.52725","25.0050366666667","6500400","永和區"
"234062","337-UY","2018/04/28 14:19:34","新北市永和區中正路342號","121.517783333333","25.0001416666667","6500400","永和區"
"234084","338-UY","2018/04/28 14:19:26","新北市永和區永和路二段93號","121.514853333333","25.011485","6500400","永和區"
"234068","552-UM","2018/04/28 14:19:23","新北市永和區福和路263巷17號","121.518091666667","25.0063216666667","6500400","永和區"
"234066","553-UM","2018/04/28 14:19:29","新北市永和區保平路268巷51弄20號","121.506811666667","25.00617","6500400","永和區"
"234028","746-BX","2018/04/28 14:19:30","新北市永和區民權路84號","121.519876666667","24.9970383333333","6500400","永和區"
"234052","KEA-2590","2018/04/28 14:19:37","新北市永和區博愛街19巷2號","121.517605","25.0158366666667","6500400","永和區"
"234012","KEA-2591","2018/04/28 14:19:41","新北市永和區保生路56號","121.505503333333","25.0088383333333","6500400","永和區"
"234060","AAD-866","2018/04/28 14:19:36","新北市永和區安樂路192號","121.515221666667","25.001275","6500400","永和區"
"234040","862-TW","2018/04/28 14:19:25","新北市永和區雙和街6巷2號","121.509898333333","25.0018183333333","6500400","永和區"
"234048","863-TW","2018/04/28 14:19:35","新北市永和區保福路三段17號","121.508155","25.0157066666667","6500400","永和區"
"234025","9371-KE","2018/04/28 14:19:43","新北市永和區安樂路144巷18號","121.514945","24.999745","6500400","永和區"
"234010","9373-KE","2018/04/28 14:19:29","新北市永和區保生路55-1號","121.504531666667","25.01094","6500400","永和區"
"248019","225-UY","2018/04/28 14:18:04","新北市五股區壟路19-2號","121.412798333333","25.085145","6501500","五股區"
"234022","9380-KE","2018/04/28 14:19:35","新北市永和區竹林路25巷21號","121.518156666667","25.0149816666667","6500400","永和區"
"234076","969-R7","2018/04/28 14:19:29","新北市永和區民權路96號","121.519906666667","24.996665","6500400","永和區"
"234072","AAC-211","2018/04/28 14:19:33","新北市永和區豫溪街217巷29號","121.524318333333","25.0102683333333","6500400","永和區"
"234001","AAC-295","2018/04/28 14:19:33","新北市永和區中正路616巷1號","121.517161666667","25.0077383333333","6500400","永和區"
"231002","002-UM","2018/04/28 14:19:39","新北市新店區中央路137號","121.530293333333","24.9737166666667","6500600","新店區"
"231027","0293-UT","2018/04/28 14:19:37","新北市新店區北新路二段18號","121.542846666667","24.971315","6500600","新店區"
"231001","047-UY","2018/04/28 14:19:39","新北市新店區中正路75巷71號","121.543066666667","24.9688916666667","6500600","新店區"
"231005","106-UY","2018/04/28 14:19:39","新北市新店區中興路三段202號","121.543795","24.98191","6500600","新店區"
"231020","108-UY","2018/04/28 14:19:35","新北市新店區桂山路73-1號","121.566315","24.9009033333333","6500600","新店區"
"231012","187-VK","2018/04/28 14:19:29","新北市新店區五峰路63巷22號","121.54645","24.9690266666667","6500600","新店區"
"231023","KEA-2219","2018/04/28 14:19:27","新北市新店區光明街140號","121.539406666667","24.9613183333333","6500600","新店區"
"231003","268-BY","2018/04/28 14:19:39","新北市新店區中興路一段216號","121.543936666667","24.965675","6500600","新店區"
"231018","278-BY","2018/04/28 14:19:22","新北市新店區中央四街60號","121.527313333333","24.9753683333333","6500600","新店區"
"231017","AAD-862","2018/04/28 14:19:27","新北市新店區北宜路三段86號","121.577758333333","24.9514566666667","6500600","新店區"
"231028","355-BY","2018/04/28 14:19:34","新北市新店區安和路二段138-3號","121.519245","24.9716383333333","6500600","新店區"
"231038","3712-VJ","2018/04/28 14:19:20","新北市新店區溪洲路8巷42號","121.533398333333","24.962185","6500600","新店區"
"231037","4716-K9","2018/04/28 14:19:38","新北市新店區車子路49號","121.504018333333","24.9519483333333","6500600","新店區"
"231025","4715-K9","2018/04/28 14:19:24","新北市新店區民族路161號","121.537768333333","24.97678","6500600","新店區"
"231036","512-UM","2018/04/28 14:19:37","新北市新店區安祥路109巷90弄64號","121.476261666667","24.9587216666667","6500600","新店區"
"231013","513-UM","2018/04/28 14:19:33","新北市新店區建國路154號","121.538665","24.9792716666667","6500600","新店區"
"231034","616-UM","2018/04/28 14:19:27","新北市新店區車子路11號","121.503111666667","24.952085","6500600","新店區"
"231006","617-UM","2018/04/28 14:19:29","新北市新店區北宜路二段599號","121.56814","24.95559","6500600","新店區"
"231030","619-UM","2018/04/28 14:19:26","新北市新店區安民街3巷6弄6號","121.514646666667","24.9646133333333","6500600","新店區"
"231035","719-UM","2018/04/28 14:19:40","新北市新店區安和路二段117巷10號","121.51828","24.9703066666667","6500600","新店區"
"231033","720-UM","2018/04/28 14:19:39","新北市新店區溪洲路163號","121.530655","24.9640183333333","6500600","新店區"
"231029","897-TW","2018/04/28 14:19:36","新北市新店區安康路二段296-3號","121.506241666667","24.9581633333333","6500600","新店區"
"231004","899-TW","2018/04/28 14:19:20","新北市新店區北新路二段4號","121.542936666667","24.9709483333333","6500600","新店區"
"231024","AKT-0513","2018/04/28 14:19:30","新北市新店區薏仁坑路6號","121.500208333333","24.9581283333333","6500600","新店區"
"235028","005-UY","2018/04/28 14:19:40","新北市中和區泰和街41號","121.499088333333","24.999535","6500300","中和區"
"235027","006-UY","2018/04/28 14:19:22","新北市中和區連勝街119號","121.495066666667","24.9954283333333","6500300","中和區"
"235020","096-UM","2018/04/28 14:19:37","新北市中和區民富街40號","121.476695","25.0067933333333","6500300","中和區"
"235003","097-UM","2018/04/28 14:19:25","新北市中和區秀峰街119巷6弄13號","121.519166666667","24.9901316666667","6500300","中和區"
"235029","098-UM","2018/04/28 14:19:40","新北市中和區永和路60-1號","121.49896","25.0043583333333","6500300","中和區"
"235004","150-BY","2018/04/28 14:19:33","新北市中和區安樂路51巷34號","121.510856666667","24.9945183333333","6500300","中和區"
"235022","151-BY","2018/04/28 14:19:26","新北市中和區連城路469巷20號","121.483575","24.9951083333333","6500300","中和區"
"235019","183-VK","2018/04/28 14:19:25","新北市中和區中山路三段191號","121.47237","25.0061583333333","6500300","中和區"
"235002","185-VK","2018/04/28 14:19:30","新北市中和區大仁街20巷50號","121.52005","24.9934166666667","6500300","中和區"
"235013","186-VK","2018/04/28 14:19:33","新北市中和區景新街228-6號","121.508193333333","24.9941633333333","6500300","中和區"
"235031","255-BX","2018/04/28 14:19:41","新北市中和區中正路711號","121.484618333333","24.9984616666667","6500300","中和區"
"235008","293-VK","2018/04/28 14:19:34","新北市中和區復興路306號","121.501266666667","24.9903466666667","6500300","中和區"
"235007","352-BY","2018/04/28 14:19:34","新北市中和區景平路300號","121.512708333333","24.992805","6500300","中和區"
"235032","377-QA","2018/04/28 14:19:31","新北市中和區景平路493巷12弄23號","121.498638333333","24.9970833333333","6500300","中和區"
"235025","378-QA","2018/04/28 14:19:35","新北市中和區員山路326號","121.481525","25.0029316666667","6500300","中和區"
"235014","4979-A6","2018/04/28 14:19:30","新北市中和區景安路208巷1號","121.503811666667","24.9909866666667","6500300","中和區"
"235033","4980-A6","2018/04/28 14:19:35","新北市中和區景平路736巷3弄6號","121.49736","25.00369","6500300","中和區"
"235006","551-UM","2018/04/28 14:19:32","新北市永和區民有街1號","121.51587","24.9973066666667","6500300","中和區"
"235034","558-UM","2018/04/28 14:19:40","新北市中和區連城路72號","121.497421666667","25.001275","6500300","中和區"
"235009","565-BX","2018/04/28 14:19:29","新北市中和區景新街383巷36號","121.513795","24.990655","6500300","中和區"
"235018","640-BX","2018/04/28 14:19:41","新北市中和區國光街107巷2弄5-4號","121.469996666667","24.9998616666667","6500300","中和區"
"235024","647-TV","2018/04/28 14:19:39","新北市中和區民治街2巷2號","121.474818333333","25.0056983333333","6500300","中和區"
"235011","732-UM","2018/04/28 14:19:34","新北市中和區和平街38巷27號","121.509555","24.9912083333333","6500300","中和區"
"235010","733-UM","2018/04/28 14:19:42","新北市中和區忠孝街2巷8-5號","121.510388333333","24.9818583333333","6500300","中和區"
"235035","783-BX","2018/04/28 14:19:38","新北市中和區建一路97號","121.488046666667","25.0018583333333","6500300","中和區"
"235026","800-TS","2018/04/28 14:19:26","新北市中和區中山路二段369-1號","121.48744","25.0048","6500300","中和區"
"235021","801-TS","2018/04/28 14:19:30","新北市中和區員山路423巷9號","121.480578333333","25.003125","6500300","中和區"
"235005","802-TS","2018/04/28 14:19:35","新北市中和區安平路155號","121.51227","24.9982016666667","6500300","中和區"
"235016","805-TS","2018/04/28 14:19:39","新北市中和區興南路二段149號","121.504783333333","24.9837983333333","6500300","中和區"
"235012","896-TW","2018/04/28 14:19:28","新北市中和區華新街109巷1-3號","121.509086666667","24.9823316666667","6500300","中和區"
"235017","900-TW","2018/04/28 14:19:27","新北市中和區華安街19巷29弄4號","121.467891666667","24.9983516666667","6500300","中和區"
"235030","911-UM","2018/04/28 14:19:39","新北市中和區中和路102號","121.502715","24.999725","6500300","中和區"
"235015","157-BY","2018/04/28 14:19:25","新北市中和區和平街2巷4弄8號","121.510178333333","24.9907066666667","6500300","中和區"
"235001","AAC-213","2018/04/28 14:19:26","新北市中和區秀朗路三段10巷37弄10號","121.52381","24.995875","6500300","中和區"
"235023","AAC-215","2018/04/28 14:19:35","新北市中和區圓通路252巷5弄38號","121.492188333333","24.991615","6500300","中和區"
"220016","013-TV","2018/04/28 14:19:32","新北市板橋區翠華街6巷68號","121.48177","25.02503","6500100","板橋區"
"220013","072-UY","2018/04/28 14:19:43","新北市板橋區國泰街76巷34號","121.467093333333","25.0071966666667","6500100","板橋區"
"220034","073-UY","2018/04/28 14:19:37","新北市板橋區中正路216巷31號","121.456836666667","25.01894","6500100","板橋區"
"220105","075-UY","2018/04/28 14:19:32","新北市板橋區雙十路三段70巷1號","121.470296666667","25.0324583333333","6500100","板橋區"
"220017","AAD-861","2018/04/28 14:19:20","新北市板橋區華興街29號","121.458431666667","25.00461","6500100","板橋區"
"247023","893-R6","2018/04/28 14:19:31","新北市蘆洲區長榮路707號","121.46096","25.0928066666667","6501400","蘆洲區"
"247013","546-UM","2018/04/28 14:19:38","新北市蘆洲區中山一路231號","121.47366","25.0806933333333","6501400","蘆洲區"
"247021","500-BY","2018/04/28 14:19:31","新北市蘆洲區仁愛街212巷2號","121.464766666667","25.0931283333333","6501400","蘆洲區"
"247009","341-TH","2018/04/28 14:19:32","新北市蘆洲區三民路26巷36號","121.478085","25.0830466666667","6501400","蘆洲區"
"247011","339-TH","2018/04/28 14:19:39","新北市蘆洲區民權路38巷12號","121.476615","25.0867833333333","6501400","蘆洲區"
"247003","337-TH","2018/04/28 14:19:38","新北市蘆洲區長安街172巷16號","121.460031666667","25.08369","6501400","蘆洲區"
"247005","336-TH","2018/04/28 14:19:39","新北市蘆洲區長安街13號","121.464095","25.0790583333333","6501400","蘆洲區"
"247007","056-VK","2018/04/28 14:19:35","新北市蘆洲區中山一路61巷34號","121.477388333333","25.0808483333333","6501400","蘆洲區"
"247017","053-VK","2018/04/28 14:19:27","新北市蘆洲區民權路108號","121.473813333333","25.08821","6501400","蘆洲區"
"247015","007-UY","2018/04/28 14:19:22","新北市蘆洲區中正路185巷31弄10號","121.46646","25.08397","6501400","蘆洲區"
"247001","002-UY","2018/04/28 14:19:27","新北市蘆洲區永樂街62號","121.457211666667","25.0885033333333","6501400","蘆洲區"
"247019","001-UY","2018/04/28 14:19:21","新北市蘆洲區仁愛街29號","121.472183333333","25.0927016666667","6501400","蘆洲區"
"235036","251-BX","2018/04/28 14:19:27","新北市中和區保平路362巷11號","121.505851666667","25.004005","6500300","中和區"
"228005","097-TW","2018/04/28 14:19:31","新北市貢寮區美豐里雞母嶺街6-2號","121.899226666667","25.0632266666667","6502600","貢寮區"
"228004","212-TW","2018/04/28 14:19:27","新北市貢寮區雙玉里田寮洋街39號","121.924923333333","25.0139033333333","6502600","貢寮區"
"227010","400-TW","2018/04/28 14:19:25","新北市雙溪區三貂里政光路3-1號","121.850876666667","25.0630183333333","6502500","雙溪區"
"253003","6232-TK","2018/04/28 14:19:23","新北市石門區尖子鹿29號","121.58269","25.262725","6502200","石門區"
"253001","6251-TK","2018/04/28 14:19:30","新北市石門區八甲71-1號","121.529238333333","25.26993","6502200","石門區"
"253002","637-UY","2018/04/28 14:19:35","新北市石門區大溪墘2-4號","121.548865","25.2893516666667","6502200","石門區"
"253004","8270-PC","2018/04/28 14:19:38","新北市石門區內阿里磅13號","121.592755","25.2499016666667","6502200","石門區"
"207002","749-BX","2018/04/28 14:19:25","新北市萬里區溪底里瑞泉路2-6號","121.609905","25.1428366666667","6502800","萬里區"
"252005","073-UM","2018/04/28 14:19:30","新北市三芝區橫山里橫山56-6號","121.535068333333","25.2499866666667","6502100","三芝區"
"207001","662-BX","2018/04/28 14:19:39","新北市萬里區磺潭里清水18號","121.637628333333","25.1977383333333","6502800","萬里區"
"236068","105-UM","2018/04/28 14:19:37","新北市土城區明德路一段128巷17號","121.462991666667","24.9788316666667","6501300","土城區"
"236040","107-UM","2018/04/28 14:19:21","新北市土城區裕民路3巷32號","121.448643333333","24.9864816666667","6501300","土城區"
"236074","166-UM","2018/04/28 14:19:41","新北市土城區中央路三段281巷23弄19號","121.426363333333","24.96155","6501300","土城區"
"236029","253-BX","2018/04/28 14:19:28","新北市土城區順風路41號","121.440741666667","24.9767533333333","6501300","土城區"
"236024","269-VK","2018/04/28 14:19:31","新北市土城區承天路67號","121.439538333333","24.96348","6501300","土城區"
"236013","270-VK","2018/04/28 14:19:29","新北市土城區青雲路39巷7號","121.46036","24.987595","6501300","土城區"
"236032","271-VK","2018/04/28 14:19:32","新北市土城區青雲路451巷8弄11號","121.45957","24.9743566666667","6501300","土城區"
"236017","401-BY","2018/04/28 14:19:30","新北市土城區金城路二段204號","121.455086666667","24.9819566666667","6501300","土城區"
"236057","912-UM","2018/04/28 14:19:23","新北市土城區中央路四段466號","121.409975","24.9506266666667","6501300","土城區"
"236045","913-UM","2018/04/28 14:19:37","新北市土城區明德路一段280-1號","121.457213333333","24.97754","6501300","土城區"
"236060","915-UM","2018/04/28 14:19:31","新北市土城區延壽路44巷11號","121.471466666667","24.9928866666667","6501300","土城區"
"236054","AAC-216","2018/04/28 14:19:41","新北市土城區中華路二段196號","121.43769","24.970325","6501300","土城區"
"220027","145-BY","2018/04/28 14:19:37","新北市板橋區民權路202巷17-1號","121.460756666667","25.01666","6500100","板橋區"
"220028","200-UY","2018/04/28 14:19:32","新北市板橋區大觀路二段1巷44號","121.450195","25.0036916666667","6500100","板橋區"
"220030","610-BX","2018/04/28 14:19:27","新北市板橋區溪城路123號","121.427743333333","24.98204","6500100","板橋區"
"220050","245-BX","2018/04/28 14:19:27","新北市板橋區莊敬路36-2號","121.473365","25.0273083333333","6500100","板橋區"
"220004","276-BY","2018/04/28 14:19:40","新北市板橋區和平路4號","121.458143333333","24.9943383333333","6500100","板橋區"
"220020","277-BY","2018/04/28 14:19:34","新北市板橋區金門街317巷6號","121.429845","24.9859683333333","6500100","板橋區"
"220043","283-UM","2018/04/28 14:19:19","新北市板橋區吳鳳路19巷18號","121.466878333333","25.0308583333333","6500100","板橋區"
"220001","285-VK","2018/04/28 14:19:39","新北市板橋區富山街10號","121.478678333333","25.0217866666667","6500100","板橋區"
"220031","286-VK","2018/04/28 14:19:31","新北市板橋區龍興街73巷22號","121.443113333333","25.0024733333333","6500100","板橋區"
"220029","287-VK","2018/04/28 14:19:31","新北市板橋區南雅西路一段52號","121.453813333333","25.0048883333333","6500100","板橋區"
"220039","288-VK","2018/04/28 14:19:20","新北市板橋區長江路一段106巷13弄35號","121.461331666667","25.0298016666667","6500100","板橋區"
"220009","295-UM","2018/04/28 14:19:37","新北市板橋區中山路二段326號","121.480985","25.01967","6500100","板橋區"
"220032","296-UM","2018/04/28 14:19:23","新北市板橋區滿平街136巷3弄1號","121.428451666667","24.9877716666667","6500100","板橋區"
"220023","303-R5","2018/04/28 14:19:36","新北市板橋區南雅南路一段4巷8號","121.45505","25.00535","6500100","板橋區"
"220010","305-R5","2018/04/28 14:19:33","新北市板橋區三民路二段153巷3弄17號","121.479786666667","25.015035","6500100","板橋區"
"220041","307-R5","2018/04/28 14:19:28","新北市板橋區松江街41號","121.46863","25.02725","6500100","板橋區"
"220047","317-R6","2018/04/28 14:19:34","新北市板橋區四維路249號","121.46369","25.027655","6500100","板橋區"
"220012","486-VK","2018/04/28 14:19:40","新北市板橋區縣民大道二段3號","121.4626","25.0120783333333","6500100","板橋區"
"220037","491-VK","2018/04/28 14:19:38","新北市板橋區雙十路二段86號","121.474826666667","25.028225","6500100","板橋區"
"220104","560-BX","2018/04/28 14:19:38","新北市板橋區中正路413巷2弄18號","121.4534","25.02324","6500100","板橋區"
"220052","561-BX","2018/04/28 14:19:37","新北市板橋區文化路一段188巷7弄28號","121.467908333333","25.0195583333333","6500100","板橋區"
"220019","568-UM","2018/04/28 14:19:38","新北市板橋區忠孝路48巷9弄3-1號","121.461275","25.000115","6500100","板橋區"
"220011","609-BX","2018/04/28 14:19:35","新北市板橋區三民路二段204號","121.478858333333","25.0122566666667","6500100","板橋區"
"220003","630-UY","2018/04/28 14:19:30","新北市板橋區實踐路65巷17號","121.464443333333","25.0065533333333","6500100","板橋區"
"220040","637-BX","2018/04/28 14:19:40","新北市板橋區文聖街75號","121.477278333333","25.030435","6500100","板橋區"
"220005","686-BX","2018/04/28 14:19:38","新北市中和區華順街142號","121.464711666667","24.9957233333333","6500100","板橋區"
"220025","687-BX","2018/04/28 14:19:23","新北市板橋區大觀路二段87號","121.446443333333","25.0020266666667","6500100","板橋區"
"220042","689-BX","2018/04/28 14:19:31","新北市板橋區漢生西路34號","121.463421666667","25.0182816666667","6500100","板橋區"
"220002","741-BX","2018/04/28 14:19:39","新北市板橋區光明街116號","121.463225","25.0030766666667","6500100","板橋區"
"220051","KEA-2699","2018/04/28 14:19:22","新北市板橋區文聖街86號","121.477476666667","25.0296916666667","6500100","板橋區"
"220014","829-TW","2018/04/28 14:19:35","新北市板橋區長安街138巷3弄47號","121.474015","25.0096533333333","6500100","板橋區"
"220045","830-TW","2018/04/28 14:19:35","新北市板橋區文聖街158號","121.478835","25.0271483333333","6500100","板橋區"
"220038","833-TW","2018/04/28 14:19:42","新北市板橋區文化路一段357號","121.466788333333","25.021045","6500100","板橋區"
"220022","895-R6","2018/04/28 14:19:29","新北市板橋區北門街25-2號","121.456483333333","25.011385","6500100","板橋區"
"220021","985-R7","2018/04/28 14:19:33","新北市板橋區中正路393號","121.454238333333","25.02191","6500100","板橋區"
"220046","AAC-210","2018/04/28 14:19:40","新北市板橋區幸福路60巷49號","121.460308333333","25.0213316666667","6500100","板橋區"
"220018","AAC-253","2018/04/28 14:19:40","新北市板橋區四川路一段281號","121.45949","25.0020166666667","6500100","板橋區"
