"lineid","car","time","location","longitude","latitude","cityid","cityname"
"234067","553-UM","2018/04/28 15:29:29","新北市永和區福和路1號","121.526335","25.0096716666667","6500400","永和區"
"231002","002-UM","2018/04/28 15:29:39","新北市新店區環河路182-3號","121.533915","24.969965","6500600","新店區"
"231005","106-UY","2018/04/28 15:29:30","新北市新店區建國路293巷2號","121.537015","24.9859516666667","6500600","新店區"
"231020","108-UY","2018/04/28 15:29:35","新北市新店區花園二路三段21-1號","121.556593333333","24.9321516666667","6500600","新店區"
"231012","187-VK","2018/04/28 15:29:28","新北市新店區寶慶街7號","121.543885","24.9865766666667","6500600","新店區"
"231023","KEA-2219","2018/04/28 15:29:27","新北市新店區北新路一段96巷23號","121.542811666667","24.9687","6500600","新店區"
"231026","256-BX","2018/04/28 15:29:39","新北市新店區三民路117巷5弄2號","121.534143333333","24.9711166666667","6500600","新店區"
"231003","268-BY","2018/04/28 15:29:39","新北市新店區寶高路120巷1號","121.554623333333","24.9760883333333","6500600","新店區"
"231018","278-BY","2018/04/28 15:29:22","新北市新店區中央六街84-1號","121.52653","24.976475","6500600","新店區"
"231017","AAD-862","2018/04/28 15:29:27","新北市新店區明山路45號","121.563823333333","24.95589","6500600","新店區"
"231028","355-BY","2018/04/28 15:29:34","新北市新店區僑信路28號","121.499685","24.9521216666667","6500600","新店區"
"231038","3712-VJ","2018/04/28 15:29:41","新北市新店區安華路28-1號","121.519605","24.9609416666667","6500600","新店區"
"231037","4716-K9","2018/04/28 15:29:38","新北市新店區安民街341-1號","121.516873333333","24.9749033333333","6500600","新店區"
"231025","4715-K9","2018/04/28 15:29:24","新北市新店區安德街60巷17-1號","121.510211666667","24.9631766666667","6500600","新店區"
"231036","512-UM","2018/04/28 15:29:37","新北市新店區安祥路69巷54弄31號","121.482383333333","24.9590833333333","6500600","新店區"
"231034","616-UM","2018/04/28 15:29:28","新北市新店區富貴街16巷2號","121.494108333333","24.9487366666667","6500600","新店區"
"231030","619-UM","2018/04/28 15:29:26","新北市新店區新和街36號","121.519271666667","24.9849183333333","6500600","新店區"
"231039","718-UY","2018/04/28 15:29:37","新北市新店區寶元路一段84巷2號","121.544406666667","24.9838766666667","6500600","新店區"
"231035","719-UM","2018/04/28 15:29:26","新北市新店區安興路92號","121.515121666667","24.9761666666667","6500600","新店區"
"231033","720-UM","2018/04/28 15:29:39","新北市新店區裕合街122號","121.490288333333","24.9492966666667","6500600","新店區"
"231029","897-TW","2018/04/28 15:29:36","新北市新店區安康路三段466-2號","121.484081666667","24.9509016666667","6500600","新店區"
"231004","899-TW","2018/04/28 15:29:41","新北市新店區民族路243號","121.536426666667","24.9755516666667","6500600","新店區"
"241028","265-UM","2018/04/28 15:29:33","新北市三重區重新路四段121號","121.484741666667","25.0525283333333","6500200","三重區"
"241013","270-UM","2018/04/28 15:29:43","新北市三重區重新路四段121號","121.484518333333","25.052055","6500200","三重區"
"241033","AAC-255","2018/04/28 15:29:12","新北市三重區成功路106-1號","121.487648333333","25.0515533333333","6500200","三重區"
"235031","255-BX","2018/04/28 15:29:41","新北市八里區中山路三段390號","121.368238333333","25.1352016666667","6500300","中和區"
"235033","4980-A6","2018/04/28 15:29:35","新北市中和區新生街278號","121.48374","24.996825","6500300","中和區"
"235023","AAC-215","2018/04/28 15:29:34","新北市中和區員山路11號","121.48027","24.9830933333333","6500300","中和區"
"227010","400-TW","2018/04/28 15:29:25","新北市雙溪區三貂里政光路3-1號","121.850838333333","25.0630616666667","6502500","雙溪區"
"253001","6251-TK","2018/04/28 15:29:30","新北市石門區小坑9號","121.594373333333","25.28845","6502200","石門區"
"253004","8270-PC","2018/04/28 15:29:23","新北市石門區小坑9號","121.594368333333","25.2883416666667","6502200","石門區"
"236068","105-UM","2018/04/28 15:29:37","新北市土城區中正路56巷2號","121.443853333333","24.9754","6501300","土城區"
"236040","107-UM","2018/04/28 15:29:41","新北市土城區學成路5號","121.453363333333","24.9863733333333","6501300","土城區"
"236074","166-UM","2018/04/28 15:29:33","新北市土城區龍泉路13-1號","121.41094","24.9479283333333","6501300","土城區"
"236029","253-BX","2018/04/28 15:29:28","新北市土城區日新街8巷7號","121.445398333333","24.9873283333333","6501300","土城區"
"236024","269-VK","2018/04/28 15:29:37","新北市土城區明德路二段102巷14號","121.445623333333","24.9846216666667","6501300","土城區"
"236013","270-VK","2018/04/28 15:29:32","新北市土城區德興街123號","121.454706666667","24.9919966666667","6501300","土城區"
"236032","271-VK","2018/04/28 15:29:42","新北市土城區明德路一段48巷12號","121.464623333333","24.98383","6501300","土城區"
"236017","401-BY","2018/04/28 15:29:30","新北市土城區延吉街137巷12弄2號","121.470755","24.9855466666667","6501300","土城區"
"236057","912-UM","2018/04/28 15:29:23","新北市土城區中央路一段294號","121.443556666667","24.98236","6501300","土城區"
"236045","913-UM","2018/04/28 15:29:36","新北市土城區金城路三段186號","121.46812","24.9878633333333","6501300","土城區"
"236060","915-UM","2018/04/28 15:29:31","新北市土城區延和路180號","121.469206666667","24.99024","6501300","土城區"
"236054","AAC-216","2018/04/28 15:29:40","新北市土城區金城路三段159號","121.468883333333","24.988405","6501300","土城區"
"220050","245-BX","2018/04/28 15:29:27","新北市板橋區漢生東路83巷1號","121.46655","25.01575","6500100","板橋區"
"220047","317-R6","2018/04/28 15:29:34","新北市樹林區八德街370號","121.408133333333","24.9696466666667","6500100","板橋區"
"220052","561-BX","2018/04/28 15:29:35","新北市板橋區漢生東路33巷26號","121.465916666667","25.0175116666667","6500100","板橋區"
"220038","833-TW","2018/04/28 15:29:42","新北市板橋區四維路343號","121.462348333333","25.0297616666667","6500100","板橋區"
"220018","AAC-253","2018/04/28 15:29:40","新北市板橋區華東街1-10號","121.448281666667","24.99491","6500100","板橋區"
