"lineid","car","time","location","longitude","latitude","cityid","cityname"
"234067","553-UM","2018/04/28 15:52:47","新北市永和區福和路1號","121.526388333333","25.00962","6500400","永和區"
"231046","107-UY","2018/04/28 15:59:28","新北市新店區安華路28-1號","121.519691666667","24.9615083333333","6500600","新店區"
"231020","108-UY","2018/04/28 15:59:35","新北市新店區北宜路一段169號","121.5429","24.953005","6500600","新店區"
"231012","187-VK","2018/04/28 15:59:29","新北市新店區中正路384號","121.534705","24.9769966666667","6500600","新店區"
"231026","256-BX","2018/04/28 15:59:39","新北市新店區中央路183-3號","121.536208333333","24.9686366666667","6500600","新店區"
"231003","268-BY","2018/04/28 15:59:39","新北市新店區寶興路60巷4號","121.549828333333","24.971925","6500600","新店區"
"231018","278-BY","2018/04/28 15:59:41","新北市新店區中正路707號","121.53358","24.9913016666667","6500600","新店區"
"231017","AAD-862","2018/04/28 15:59:27","新北市新店區中正路284巷4弄3號","121.538381666667","24.9748033333333","6500600","新店區"
"231038","3712-VJ","2018/04/28 15:59:20","新北市新店區安康路二段320巷6號","121.504795","24.9590366666667","6500600","新店區"
"231037","4716-K9","2018/04/28 15:59:38","新北市新店區安民街5號","121.515168333333","24.9641983333333","6500600","新店區"
"231036","512-UM","2018/04/28 15:59:37","新北市新店區安華路28-1號","121.519766666667","24.9610516666667","6500600","新店區"
"231013","513-UM","2018/04/28 15:59:41","新北市新店區安康路一段244-1號","121.521141666667","24.963925","6500600","新店區"
"231034","616-UM","2018/04/28 15:59:27","新北市新店區玫瑰路53巷14號","121.496626666667","24.94709","6500600","新店區"
"231030","619-UM","2018/04/28 15:59:26","新北市新店區永平街62號","121.516256666667","24.984835","6500600","新店區"
"231035","719-UM","2018/04/28 15:59:35","新北市新店區安民街303巷8號","121.517081666667","24.9737466666667","6500600","新店區"
"231033","720-UM","2018/04/28 15:59:39","新北市新店區安豐路74-1號","121.497235","24.9528833333333","6500600","新店區"
"241011","013-R5","2018/04/28 15:59:30","新北市三重區雙園街5號","121.496848333333","25.068065","6500200","三重區"
"241008","059-VK","2018/04/28 15:59:38","新北市三重區重新路四段121號","121.484981666667","25.051925","6500200","三重區"
"241015","062-VK","2018/04/28 15:59:27","新北市三重區重新路四段121號","121.485155","25.0520016666667","6500200","三重區"
"241017","063-VK","2018/04/28 15:59:37","新北市三重區大仁街48巷31號","121.491045","25.064515","6500200","三重區"
"241024","065-VK","2018/04/28 15:59:29","新北市三重區力行路一段38巷13號","121.485961666667","25.0675316666667","6500200","三重區"
"241005","262-UM","2018/04/28 15:59:33","新北市三重區溪尾街305號","121.487466666667","25.08379","6500200","三重區"
"241028","265-UM","2018/04/28 15:59:33","新北市三重區電信街20號","121.497523333333","25.058625","6500200","三重區"
"241016","266-UM","2018/04/28 15:59:40","新北市三重區重新路四段121號","121.485168333333","25.05207","6500200","三重區"
"241022","267-UM","2018/04/28 15:59:38","新北市三重區中正北路174-9號","121.483213333333","25.06658","6500200","三重區"
"241018","268-UM","2018/04/28 15:59:43","新北市三重區中正北路71巷38號","121.491335","25.0635683333333","6500200","三重區"
"241013","270-UM","2018/04/28 15:59:23","新北市三重區三和路三段16巷17號","121.496365","25.0700516666667","6500200","三重區"
"241025","271-UM","2018/04/28 15:59:40","新北市三重區三民街199號","121.481956666667","25.0658316666667","6500200","三重區"
"241007","398-BY","2018/04/28 15:59:25","新北市三重區慈愛街10號","121.484505","25.0785","6500200","三重區"
"241020","478-VK","2018/04/28 15:59:31","新北市三重區車路頭街4巷19號","121.483325","25.0702516666667","6500200","三重區"
"241014","543-UM","2018/04/28 15:59:41","新北市三重區重新路四段121號","121.485086666667","25.05202","6500200","三重區"
"241023","545-UM","2018/04/28 15:59:39","新北市三重區中正北路182號","121.483188333333","25.0669466666667","6500200","三重區"
"241001","547-UM","2018/04/28 15:59:41","新北市三重區新北大道一段250號","121.479845","25.0613833333333","6500200","三重區"
"241006","AAD-863","2018/04/28 15:59:39","新北市三重區忠孝路二段124號","121.482925","25.0689233333333","6500200","三重區"
"241026","887-TS","2018/04/28 15:59:33","新北市三重區重新路二段87號","121.496191666667","25.061795","6500200","三重區"
"241012","941-UM","2018/04/28 15:59:38","新北市三重區文化北路118巷47號","121.49756","25.0662483333333","6500200","三重區"
"241029","942-UM","2018/04/28 15:59:38","新北市三重區大同南路212巷44號","121.4979","25.0567466666667","6500200","三重區"
"241033","AAC-255","2018/04/28 15:59:32","新北市三重區五谷王南街18號","121.474631666667","25.0465983333333","6500200","三重區"
"235031","255-BX","2018/04/28 15:59:41","新北市中和區新生街205號","121.483833333333","24.9998966666667","6500300","中和區"
"235062","800-TS","2018/04/28 15:31:41","新北市中和區員山路36巷16-3號","121.48486","24.9916833333333","6500300","中和區"
"224007","275-VK","2018/04/28 15:59:43","新北市瑞芳區楓子瀨路14號","121.772805","25.1069833333333","6501200","瑞芳區"
"227002","642-TC","2018/04/28 15:59:40","新北市雙溪區平林里外平林71號","121.842443333333","25.0349633333333","6502500","雙溪區"
"227010","400-TW","2018/04/28 15:59:41","新北市雙溪區三港里雙澳路38號","121.871976666667","25.05102","6502500","雙溪區"
"251013","KEA-2871","2018/04/28 15:59:27","新北市淡水區中正路二段31號","121.41944","25.1817966666667","6501000","淡水區"
"251008","181-VK","2018/04/28 15:59:31","新北市淡水區中正路一段22巷6號","121.427683333333","25.1757666666667","6501000","淡水區"
"236057","912-UM","2018/04/28 15:59:43","新北市土城區大安路2號","121.432901666667","24.9654933333333","6501300","土城區"
"220047","317-R6","2018/04/28 15:59:33","新北市板橋區南雅南路一段131號","121.455313333333","25.0042633333333","6500100","板橋區"
