"lineid","car","time","location","longitude","latitude","cityid","cityname"
"234067","553-UM","2018/04/28 16:09:37","新北市永和區福和路1號","121.526433333333","25.0097316666667","6500400","永和區"
"231046","107-UY","2018/04/28 16:09:28","新北市新店區永業路43號","121.532328333333","24.95518","6500600","新店區"
"231012","187-VK","2018/04/28 16:09:28","新北市新店區安民街65巷21-2號","121.515276666667","24.9674733333333","6500600","新店區"
"231018","278-BY","2018/04/28 16:09:41","新北市新店區中正路694巷15號","121.535358333333","24.9908983333333","6500600","新店區"
"241011","013-R5","2018/04/28 16:09:30","新北市三重區正義北路351號","121.493178333333","25.0717616666667","6500200","三重區"
"241008","059-VK","2018/04/28 16:09:38","新北市三重區中正北路165巷13號","121.4791","25.0704366666667","6500200","三重區"
"241031","061-VK","2018/04/28 16:09:43","新北市三重區重新路四段121號","121.484683333333","25.0520616666667","6500200","三重區"
"241015","062-VK","2018/04/28 16:09:27","新北市三重區福德南路86號","121.502351666667","25.0598933333333","6500200","三重區"
"241017","063-VK","2018/04/28 16:09:37","新北市三重區民生街74號","121.490435","25.0649916666667","6500200","三重區"
"241024","065-VK","2018/04/28 16:09:29","新北市三重區中正北路145巷32號","121.485083333333","25.0680716666667","6500200","三重區"
"241003","091-VK","2018/04/28 16:09:31","新北市三重區自強路五段110號","121.496956666667","25.0835133333333","6500200","三重區"
"241005","262-UM","2018/04/28 16:09:33","新北市三重區溪尾街300-2號","121.487415","25.0837","6500200","三重區"
"241028","265-UM","2018/04/28 16:09:33","新北市三重區正義南路107號","121.498185","25.0586933333333","6500200","三重區"
"241016","266-UM","2018/04/28 16:09:40","新北市三重區新北大道一段1號","121.4919","25.0613366666667","6500200","三重區"
"241022","267-UM","2018/04/28 16:09:38","新北市三重區新北大道一段6號","121.488878333333","25.061605","6500200","三重區"
"241018","268-UM","2018/04/28 16:09:23","新北市三重區中正北路29號","121.491585","25.0630516666667","6500200","三重區"
"241013","270-UM","2018/04/28 16:09:23","新北市三重區安樂街29號","121.496428333333","25.06982","6500200","三重區"
"241025","271-UM","2018/04/28 16:09:40","新北市三重區忠孝路三段40巷20號","121.48227","25.066225","6500200","三重區"
"241007","398-BY","2018/04/28 16:09:25","新北市三重區慈愛街10號","121.484535","25.07852","6500200","三重區"
"241004","475-VK","2018/04/28 16:09:38","新北市三重區泉州街84巷18號","121.495853333333","25.0543283333333","6500200","三重區"
"241020","478-VK","2018/04/28 16:09:42","新北市三重區車路頭街29號","121.483865","25.07078","6500200","三重區"
"241014","543-UM","2018/04/28 16:09:41","新北市三重區環河南路35號","121.503056666667","25.0613066666667","6500200","三重區"
"241023","545-UM","2018/04/28 16:09:39","新北市三重區力行路一段58巷4號","121.484395","25.0688766666667","6500200","三重區"
"241001","547-UM","2018/04/28 16:09:41","新北市三重區自強路四段77號","121.490686666667","25.0789133333333","6500200","三重區"
"241006","AAD-863","2018/04/28 16:09:39","新北市三重區永福街58巷3弄20號","121.480671666667","25.0773633333333","6500200","三重區"
"241026","887-TS","2018/04/28 16:09:33","新北市三重區正義南路15-2號","121.49775","25.061485","6500200","三重區"
"241012","941-UM","2018/04/28 16:09:38","新北市三重區文化北路132巷31號","121.497776666667","25.0666183333333","6500200","三重區"
"241029","942-UM","2018/04/28 16:09:38","新北市三重區同安街90號","121.49507","25.0565316666667","6500200","三重區"
"241033","AAC-255","2018/04/28 16:09:32","新北市三重區五谷王南街50-1號","121.47392","25.0445733333333","6500200","三重區"
"224007","275-VK","2018/04/28 16:09:43","新北市瑞芳區粗坑口路86巷14號","121.761196666667","25.0992266666667","6501200","瑞芳區"
"224005","271-BY","2018/04/28 16:09:35","新北市瑞芳區傑魚坑路4號","121.795115","25.1104783333333","6501200","瑞芳區"
"227002","642-TC","2018/04/28 16:09:39","新北市雙溪區上林里內平林47號","121.833291666667","25.0304216666667","6502500","雙溪區"
"227010","400-TW","2018/04/28 16:09:25","新北市雙溪區三港里雙澳路75號","121.883571666667","25.053935","6502500","雙溪區"
"251013","KEA-2871","2018/04/28 16:09:27","新北市淡水區濱海路一段221號","121.437915","25.1895533333333","6501000","淡水區"
"251008","181-VK","2018/04/28 16:09:30","新北市淡水區中正東路8-8號","121.447828333333","25.16673","6501000","淡水區"
