"lineid","car","time","location","longitude","latitude","cityid","cityname"
"234067","553-UM","2018/04/28 17:09:37","新北市永和區福和路1號","121.526355","25.0097216666667","6500400","永和區"
"249005","172-UM","2018/04/28 17:09:43","新北市八里區華富山6-3號","121.420723333333","25.1427133333333","6502300","八里區"
"249001","173-UM","2018/04/28 17:09:43","新北市八里區中華路二段199號","121.406641666667","25.150505","6502300","八里區"
"249004","303-UY","2018/04/28 17:09:25","新北市八里區忠孝路302號","121.41807","25.1614066666667","6502300","八里區"
"249002","305-UY","2018/04/28 17:09:30","新北市八里區米倉18號","121.440886666667","25.14978","6502300","八里區"
"249003","593-UM","2018/04/28 17:09:36","新北市八里區中山路二段405號","121.397761666667","25.146575","6502300","八里區"
"244007","080-UY","2018/04/28 17:09:27","新北市林口區菁埔路3號","121.37955","25.0959883333333","6501700","林口區"
"244023","483-VK","2018/04/28 17:09:41","新北市林口區仁愛路一段635號","121.389165","25.076625","6501700","林口區"
"244009","656-BX","2018/04/28 17:09:27","新北市林口區竹林路412巷2號","121.390113333333","25.08456","6501700","林口區"
"244025","837-TS","2018/04/28 17:09:36","新北市林口區粉寮路一段77-1號","121.396975","25.0790166666667","6501700","林口區"
"244021","838-TS","2018/04/28 17:09:25","新北市林口區粉寮一街17巷5-1號","121.404893333333","25.08557","6501700","林口區"
"231046","107-UY","2018/04/28 17:09:28","新北市新店區直潭路92號","121.530903333333","24.9376133333333","6500600","新店區"
"241011","013-R5","2018/04/28 17:09:30","新北市三重區河邊北街110巷5號","121.503731666667","25.0710566666667","6500200","三重區"
"241008","059-VK","2018/04/28 17:09:38","新北市三重區力行路二段138-1號","121.482328333333","25.0757116666667","6500200","三重區"
"241009","060-VK","2018/04/28 17:09:34","新北市三重區三和路四段211-22號","121.482445","25.0799316666667","6500200","三重區"
"241015","062-VK","2018/04/28 17:09:27","新北市三重區長生街32號","121.499615","25.0664566666667","6500200","三重區"
"241017","063-VK","2018/04/28 17:09:37","新北市三重區中正北路25巷8號","121.493396666667","25.0629","6500200","三重區"
"241024","065-VK","2018/04/28 17:09:29","新北市三重區中正北路193巷21弄20號","121.477433333333","25.07071","6500200","三重區"
"241002","090-VK","2018/04/28 17:09:30","新北市三重區五華街35巷54號","121.495711666667","25.0816433333333","6500200","三重區"
"241003","091-VK","2018/04/28 17:09:30","新北市三重區富福街98號","121.49309","25.0854033333333","6500200","三重區"
"241005","262-UM","2018/04/28 17:09:33","新北市三重區仁華街6號","121.483398333333","25.08123","6500200","三重區"
"241028","265-UM","2018/04/28 17:09:32","新北市三重區重新路三段110號","121.492268333333","25.0603683333333","6500200","三重區"
"241016","266-UM","2018/04/28 17:09:40","新北市三重區大仁街29號","121.492458333333","25.0650583333333","6500200","三重區"
"241022","267-UM","2018/04/28 17:09:38","新北市三重區重陽路二段34巷57號","121.485211666667","25.0642633333333","6500200","三重區"
"241018","268-UM","2018/04/28 17:09:23","新北市三重區大智街172-1號","121.49173","25.0692716666667","6500200","三重區"
"241032","269-UM","2018/04/28 17:09:42","新北市三重區興華街53號","121.485388333333","25.0597966666667","6500200","三重區"
"241013","270-UM","2018/04/28 17:09:42","新北市三重區仁昌街34號","121.496883333333","25.0741333333333","6500200","三重區"
"241025","271-UM","2018/04/28 17:09:40","新北市三重區中正北路560巷89號","121.470851666667","25.0686916666667","6500200","三重區"
"241007","398-BY","2018/04/28 17:09:25","新北市三重區三和路四段163巷34號","121.485393333333","25.0792966666667","6500200","三重區"
"241004","475-VK","2018/04/28 17:09:38","新北市三重區五華街122巷1號","121.491655","25.0831466666667","6500200","三重區"
"241020","478-VK","2018/04/28 17:09:31","新北市三重區後竹圍街180號","121.486571666667","25.07197","6500200","三重區"
"241030","480-VK","2018/04/28 17:09:44","新北市三重區集成路37號","121.489131666667","25.0525866666667","6500200","三重區"
"241014","543-UM","2018/04/28 17:09:41","新北市三重區龍濱路191號","121.502056666667","25.0710716666667","6500200","三重區"
"241023","545-UM","2018/04/28 17:09:39","新北市三重區忠孝路三段84巷1號","121.480236666667","25.06446","6500200","三重區"
"241001","547-UM","2018/04/28 17:09:40","新北市三重區仁愛街255巷82號","121.49463","25.07927","6500200","三重區"
"241019","KEA-2593","2018/04/28 17:09:32","新北市三重區自強路二段74巷93號","121.487526666667","25.0694916666667","6500200","三重區"
"241006","AAD-863","2018/04/28 17:09:39","新北市三重區車路頭街139巷1弄10號","121.484785","25.0764033333333","6500200","三重區"
"241026","887-TS","2018/04/28 17:09:33","新北市三重區重新路二段6號","121.499756666667","25.062765","6500200","三重區"
"241012","941-UM","2018/04/28 17:09:38","新北市三重區河邊北街256巷24號","121.501158333333","25.076015","6500200","三重區"
"241029","942-UM","2018/04/28 17:09:38","新北市三重區重新路三段150號","121.490838333333","25.0593033333333","6500200","三重區"
"241033","AAC-255","2018/04/28 17:09:32","新北市三重區中興北街275號","121.4691","25.0608916666667","6500200","三重區"
"247024","893-R6","2018/04/28 17:09:43","新北市蘆洲區長興路15號","121.46417","25.0829316666667","6501400","蘆洲區"
"247014","546-UM","2018/04/28 17:09:39","新北市蘆洲區中央路37巷15號","121.47329","25.0825016666667","6501400","蘆洲區"
"247022","500-BY","2018/04/28 17:09:28","新北市蘆洲區三民路222號","121.46881","25.0892683333333","6501400","蘆洲區"
"247010","341-TH","2018/04/28 17:09:37","新北市蘆洲區民族路16號","121.475918333333","25.08409","6501400","蘆洲區"
"247012","339-TH","2018/04/28 17:09:38","新北市蘆洲區信義路278號","121.477921666667","25.08715","6501400","蘆洲區"
"247004","337-TH","2018/04/28 17:09:36","新北市蘆洲區長安街136-1號","121.460296666667","25.0820066666667","6501400","蘆洲區"
"247006","336-TH","2018/04/28 17:09:46","新北市蘆洲區長安街108巷37號","121.462113333333","25.0824666666667","6501400","蘆洲區"
"247008","056-VK","2018/04/28 17:09:39","新北市蘆洲區信義路30巷57號","121.474758333333","25.0779633333333","6501400","蘆洲區"
"247018","053-VK","2018/04/28 17:09:29","新北市蘆洲區復興路132號","121.476596666667","25.0875316666667","6501400","蘆洲區"
"247016","007-UY","2018/04/28 17:09:29","新北市蘆洲區正和街40巷2號","121.469411666667","25.0820583333333","6501400","蘆洲區"
"247002","002-UY","2018/04/28 17:09:27","新北市蘆洲區永樂街60號","121.457341666667","25.0885433333333","6501400","蘆洲區"
"247020","001-UY","2018/04/28 17:09:31","新北市蘆洲區民族路426巷62號","121.472696666667","25.0939766666667","6501400","蘆洲區"
"228003","097-TW","2018/04/28 17:09:42","新北市貢寮區福隆里東興街10-6號","121.951038333333","25.0193783333333","6502600","貢寮區"
"228001","212-TW","2018/04/28 17:09:31","新北市貢寮區仁理村研海街62-2號","121.925728333333","25.0438083333333","6502600","貢寮區"
"228002","585-TW","2018/04/28 17:09:32","新北市貢寮區龍崗里泮宮路51-1號","121.908071666667","25.016675","6502600","貢寮區"
"224006","676-BX","2018/04/28 17:09:44","新北市瑞芳區大寮路101-2號","121.77835","25.099255","6501200","瑞芳區"
"224008","285-BY","2018/04/28 17:09:40","新北市瑞芳區柴寮路58號","121.827656666667","25.0871883333333","6501200","瑞芳區"
"224009","273-VK","2018/04/28 17:09:42","新北市瑞芳區豎崎路36號","121.843131666667","25.1106783333333","6501200","瑞芳區"
"224005","271-BY","2018/04/28 17:09:41","新北市瑞芳區鼻頭路227-1號","121.914681666667","25.1240216666667","6501200","瑞芳區"
"227002","642-TC","2018/04/28 17:09:39","新北市雙溪區外柑里外柑腳67號","121.807611666667","25.017735","6502500","雙溪區"
"227010","400-TW","2018/04/28 17:09:45","新北市雙溪區三貂里子崙坑1-6號","121.84989","25.0574683333333","6502500","雙溪區"
"251009","008-UM","2018/04/28 17:09:42","新北市淡水區三民街20號","121.439026666667","25.171775","6501000","淡水區"
"251004","009-UM","2018/04/28 17:09:35","新北市淡水區中正東路36號","121.449085","25.1657033333333","6501000","淡水區"
"251007","010-UM","2018/04/28 17:09:34","新北市淡水區民權路97-2號","121.459795","25.138105","6501000","淡水區"
"251013","KEA-2871","2018/04/28 17:09:42","新北市淡水區大埤頭3號","121.486123333333","25.1959666666667","6501000","淡水區"
"251014","180-VK","2018/04/28 17:09:29","新北市淡水區八里堆7-6號","121.460998333333","25.22459","6501000","淡水區"
"251008","181-VK","2018/04/28 17:09:30","新北市淡水區樹梅坑17號","121.470953333333","25.14403","6501000","淡水區"
"251015","182-VK","2018/04/28 17:09:36","新北市淡水區樹林口41號","121.47361","25.16802","6501000","淡水區"
"251010","413-VK","2018/04/28 17:09:40","新北市淡水區新市五路二段75號","121.431245","25.1982716666667","6501000","淡水區"
"251012","441-VK","2018/04/28 17:09:37","新北市淡水區中山北路一段156號","121.443993333333","25.1779666666667","6501000","淡水區"
"251016","442-VK","2018/04/28 17:09:34","新北市淡水區社厝坑1號","121.476466666667","25.1888833333333","6501000","淡水區"
"251005","443-VK","2018/04/28 17:09:34","新北市淡水區水源街一段34巷1號","121.443226666667","25.17228","6501000","淡水區"
"251006","561-UM","2018/04/28 17:09:29","新北市淡水區新民街21號","121.439033333333","25.175275","6501000","淡水區"
"251011","650-BX","2018/04/28 16:49:52","新北市淡水區坪頂路50號","121.457903333333","25.162575","6501000","淡水區"
"251002","672-BX","2018/04/28 17:09:24","新北市淡水區中正路二段31號","121.419255","25.18156","6501000","淡水區"
"252002","178-VK","2018/04/28 17:09:35","新北市三芝區忠孝街2號","121.505678333333","25.25471","6502100","三芝區"
"252001","292-VK","2018/04/28 17:09:24","新北市三芝區埔坪里埔頭坑33號","121.501655","25.2614533333333","6502100","三芝區"
"242053","751-BX","2018/04/28 17:09:32","新北市新莊區新泰路357巷3弄49號","121.441948333333","25.04008","6500500","新莊區"
"242025","705-TV","2018/04/28 17:09:30","新北市新莊區三和路12-13號","121.442165","25.037115","6500500","新莊區"
"242029","612-BX","2018/04/28 17:09:42","新北市新莊區新泰路357巷3弄57號","121.442238333333","25.0393033333333","6500500","新莊區"
"242042","566-BX","2018/04/28 17:09:27","新北市新莊區新泰路357巷3弄57號","121.442116666667","25.0391816666667","6500500","新莊區"
"242046","497-BY","2018/04/28 17:09:37","新北市新莊區新泰路357巷3弄43號","121.442503333333","25.040225","6500500","新莊區"
"242007","413-TV","2018/04/28 17:09:29","新北市新莊區新泰路357巷3弄57號","121.44194","25.0394716666667","6500500","新莊區"
"242044","400-BY","2018/04/28 17:09:41","新北市新莊區新泰路357巷3弄27號","121.441978333333","25.04061","6500500","新莊區"
"242023","362-BY","2018/04/28 17:09:39","新北市新莊區三和路12-21號","121.442283333333","25.0385583333333","6500500","新莊區"
"242061","353-BY","2018/04/28 17:09:43","新北市新莊區新泰路255巷83號","121.442221666667","25.0387816666667","6500500","新莊區"
"242009","132-UY","2018/04/28 17:09:35","新北市新莊區新泰路357巷3弄57號","121.441928333333","25.038945","6500500","新莊區"
"242039","133-UY","2018/04/28 17:09:37","新北市新莊區新泰路357巷1弄48號","121.442528333333","25.0401033333333","6500500","新莊區"
"242031","135-UY","2018/04/28 17:09:30","新北市新莊區三和路12-21號","121.44203","25.0386683333333","6500500","新莊區"
"242048","172-VK","2018/04/28 17:09:45","新北市新莊區中正路535-4號","121.437846666667","25.03323","6500500","新莊區"
"242017","175-VK","2018/04/28 17:09:23","新北市新莊區三和路12-21號","121.442036666667","25.038645","6500500","新莊區"
"242004","176-VK","2018/04/28 17:09:40","新北市新莊區三和路12-21號","121.441865","25.0387316666667","6500500","新莊區"
"242021","348-TH","2018/04/28 17:09:36","新北市新莊區新泰路357巷3弄57號","121.442198333333","25.039275","6500500","新莊區"
"242036","349-TH","2018/04/28 17:09:37","新北市新莊區三和路12-14號","121.442003333333","25.0372816666667","6500500","新莊區"
"242013","351-TH","2018/04/28 17:09:42","新北市新莊區新泰路357巷3弄57號","121.44205","25.0395216666667","6500500","新莊區"
"238019","599-UM","2018/04/28 17:09:34","新北市樹林區八德街247號","121.421686666667","24.9785683333333","6500700","樹林區"
"238018","571-TV","2018/04/28 17:09:24","新北市樹林區環河路10號","121.426768333333","24.9786183333333","6500700","樹林區"
"238024","5061-A6","2018/04/28 17:09:36","新北市樹林區鎮前街164號","121.424403333333","24.99005","6500700","樹林區"
"238022","KEA-2213","2018/04/28 17:09:38","新北市樹林區忠孝街31號","121.423703333333","24.9822116666667","6500700","樹林區"
"238021","KEA-2539","2018/04/28 17:09:37","新北市樹林區西圳街一段165巷20弄28號","121.395613333333","24.9601433333333","6500700","樹林區"
"238017","283-BY","2018/04/28 17:09:26","新北市樹林區東和街8號","121.405023333333","24.9801266666667","6500700","樹林區"
"238014","282-BY","2018/04/28 17:09:26","新北市樹林區大安路626號","121.411196666667","24.9825466666667","6500700","樹林區"
"238016","169-UY","2018/04/28 17:09:34","新北市樹林區中山路二段121-1號","121.408293333333","24.979875","6500700","樹林區"
"239006","891-R6","2018/04/28 17:09:26","新北市鶯歌區八德路23巷9-3號","121.333588333333","24.9515133333333","6500800","鶯歌區"
"239008","527-UM","2018/04/28 17:09:37","新北市鶯歌區文化路136巷8號","121.351696666667","24.9511716666667","6500800","鶯歌區"
"239005","526-UM","2018/04/28 17:09:44","新北市鶯歌區鶯桃路300號","121.33411","24.9615816666667","6500800","鶯歌區"
"239003","360-BY","2018/04/28 17:09:45","新北市鶯歌區德昌二街70巷32弄93號","121.330355","24.9569233333333","6500800","鶯歌區"
"239002","359-BY","2018/04/28 17:09:28","新北市鶯歌區建國路278號","121.347025","24.9533333333333","6500800","鶯歌區"
"239004","193-VK","2018/04/28 17:09:29","新北市鶯歌區文化路324巷1-2號","121.350721666667","24.9453866666667","6500800","鶯歌區"
"242002","KEA-2550","2018/04/28 17:09:41","新北市新莊區三和路12-17號","121.442226666667","25.03756","6500500","新莊區"
"242051","281-VK","2018/04/28 17:09:33","新北市新莊區新泰路357巷3弄17號","121.441951666667","25.0408433333333","6500500","新莊區"
"242019","280-VK","2018/04/28 17:09:33","新北市新莊區三和路12-21號","121.44212","25.038235","6500500","新莊區"
