"lineid","car","time","location","longitude","latitude","cityid","cityname"
"234067","553-UM","2018/04/28 17:19:37","新北市永和區福和路1號","121.526296666667","25.0097583333333","6500400","永和區"
"249005","172-UM","2018/04/28 17:19:23","新北市八里區荖阡坑路46號","121.411066666667","25.1236583333333","6502300","八里區"
"249001","173-UM","2018/04/28 17:19:23","新北市八里區中華路二段165巷3號","121.407641666667","25.15092","6502300","八里區"
"249004","303-UY","2018/04/28 17:19:25","新北市八里區文化街78號","121.421401666667","25.1601","6502300","八里區"
"249002","305-UY","2018/04/28 17:19:30","新北市八里區龍米路二段117巷33-2號","121.444655","25.14266","6502300","八里區"
"249003","593-UM","2018/04/28 17:19:35","新北市八里區中山路二段449號","121.396616666667","25.1456933333333","6502300","八里區"
"244007","080-UY","2018/04/28 17:19:27","新北市林口區湖子10-2號","121.387998333333","25.0901566666667","6501700","林口區"
"244019","742-UY","2018/04/28 17:19:29","新北市林口區公園路225-3號","121.374343333333","25.0748933333333","6501700","林口區"
"244023","483-VK","2018/04/28 17:19:41","新北市林口區隆林街96號","121.38567","25.0751733333333","6501700","林口區"
"244009","656-BX","2018/04/28 17:19:27","新北市林口區文化北路二段550巷20弄37號","121.377925","25.091255","6501700","林口區"
"244025","837-TS","2018/04/28 17:19:36","新北市林口區仁愛二路63號","121.368578333333","25.07538","6501700","林口區"
"244021","838-TS","2018/04/28 17:19:45","新北市林口區粉寮路二段160巷17號","121.40571","25.0922933333333","6501700","林口區"
"231046","107-UY","2018/04/28 17:19:28","新北市新店區直潭路92號","121.530901666667","24.9376166666667","6500600","新店區"
"241011","013-R5","2018/04/28 17:19:43","新北市三重區介壽路39巷252號","121.50366","25.0712166666667","6500200","三重區"
"241008","059-VK","2018/04/28 17:19:38","新北市三重區永福街72巷37號","121.48021","25.0763483333333","6500200","三重區"
"241009","060-VK","2018/04/28 17:19:34","新北市三重區仁愛街604號","121.483953333333","25.0807016666667","6500200","三重區"
"241015","062-VK","2018/04/28 17:19:27","新北市三重區長元街82-1號","121.501833333333","25.0662616666667","6500200","三重區"
"241017","063-VK","2018/04/28 17:19:42","新北市三重區大同北路52號","121.495046666667","25.063045","6500200","三重區"
"241024","065-VK","2018/04/28 17:19:29","新北市三重區國道路一段58巷20號","121.481238333333","25.0720233333333","6500200","三重區"
"241002","090-VK","2018/04/28 17:19:30","新北市三重區自強路五段22號","121.492601666667","25.0806866666667","6500200","三重區"
"241003","091-VK","2018/04/28 17:19:30","新北市三重區富福街30號","121.490688333333","25.0836333333333","6500200","三重區"
"241005","262-UM","2018/04/28 17:19:33","新北市蘆洲區重陽一街1號","121.481888333333","25.0814383333333","6500200","三重區"
"241028","265-UM","2018/04/28 17:19:33","新北市三重區中正南路77號","121.494171666667","25.0587233333333","6500200","三重區"
"241016","266-UM","2018/04/28 17:19:40","新北市三重區大同北路97-3號","121.494368333333","25.06356","6500200","三重區"
"241022","267-UM","2018/04/28 17:19:37","新北市三重區重陽路二段25號","121.487083333333","25.0626666666667","6500200","三重區"
"241018","268-UM","2018/04/28 17:19:23","新北市三重區安慶街158號","121.49408","25.0686083333333","6500200","三重區"
"241032","269-UM","2018/04/28 17:19:42","新北市三重區中華路2巷23號","121.482446666667","25.0604516666667","6500200","三重區"
"241013","270-UM","2018/04/28 17:19:42","新北市三重區仁愛街82巷15號","121.494451666667","25.0733483333333","6500200","三重區"
"241025","271-UM","2018/04/28 17:19:40","新北市三重區中正北路219號","121.47619","25.0701016666667","6500200","三重區"
"241007","398-BY","2018/04/28 17:19:39","新北市三重區慈愛街9號","121.485123333333","25.07861","6500200","三重區"
"241004","475-VK","2018/04/28 17:19:38","新北市三重區仁義街288號","121.493531666667","25.0862366666667","6500200","三重區"
"241020","478-VK","2018/04/28 17:19:31","新北市三重區忠孝路一段177號","121.48742","25.0719216666667","6500200","三重區"
"241030","480-VK","2018/04/28 17:19:29","新北市三重區成功路73巷36號","121.489658333333","25.0523483333333","6500200","三重區"
"241014","543-UM","2018/04/28 17:19:41","新北市三重區三和路二段83號","121.500111666667","25.0684566666667","6500200","三重區"
"241023","545-UM","2018/04/28 17:19:39","新北市三重區三民街195號","121.48209","25.0656983333333","6500200","三重區"
"241001","547-UM","2018/04/28 17:19:40","新北市三重區碧華街366號","121.490721666667","25.0842083333333","6500200","三重區"
"241019","KEA-2593","2018/04/28 17:19:32","新北市三重區自強路二段74巷6號","121.488268333333","25.0697883333333","6500200","三重區"
"241026","887-TS","2018/04/28 17:19:33","新北市三重區福裕街28號","121.4993","25.0615583333333","6500200","三重區"
"241012","941-UM","2018/04/28 17:19:38","新北市三重區仁福街68號","121.498156666667","25.07481","6500200","三重區"
"241033","AAC-255","2018/04/28 17:19:32","新北市三重區中興北街191號","121.469078333333","25.0565516666667","6500200","三重區"
"235061","378-QA","2018/04/28 17:16:53","新北市中和區員山路36巷13號","121.484266666667","24.991395","6500300","中和區"
"247024","893-R6","2018/04/28 17:19:43","新北市蘆洲區光明路1號","121.46014","25.0865316666667","6501400","蘆洲區"
"247014","546-UM","2018/04/28 17:19:39","新北市蘆洲區中正路94號","121.470241666667","25.0839816666667","6501400","蘆洲區"
"247022","500-BY","2018/04/28 17:19:28","新北市蘆洲區三民路128巷66號","121.470226666667","25.089185","6501400","蘆洲區"
"247010","341-TH","2018/04/28 17:19:37","新北市蘆洲區中山一路120巷7弄2號","121.477488333333","25.082025","6501400","蘆洲區"
"247012","339-TH","2018/04/28 17:19:38","新北市蘆洲區信義路319巷10弄5號","121.47741","25.0863766666667","6501400","蘆洲區"
"247004","337-TH","2018/04/28 17:19:36","新北市蘆洲區中原路60號","121.458833333333","25.082235","6501400","蘆洲區"
"247006","336-TH","2018/04/28 17:19:46","新北市蘆洲區永安南路二段160號","121.461675","25.0789383333333","6501400","蘆洲區"
"247008","056-VK","2018/04/28 17:19:39","新北市蘆洲區永安北路一段72巷2號","121.476933333333","25.0772166666667","6501400","蘆洲區"
"247018","053-VK","2018/04/28 17:19:29","新北市蘆洲區民權路68巷4號","121.475258333333","25.0874933333333","6501400","蘆洲區"
"247002","002-UY","2018/04/28 17:19:27","新北市蘆洲區永樂街38巷33弄6-1號","121.457808333333","25.0896083333333","6501400","蘆洲區"
"247020","001-UY","2018/04/28 17:19:31","新北市蘆洲區民族路440號","121.473158333333","25.091945","6501400","蘆洲區"
"228003","097-TW","2018/04/28 17:19:42","新北市貢寮區福隆里虎子山街21號","121.938491666667","25.0185133333333","6502600","貢寮區"
"228001","212-TW","2018/04/28 17:19:31","新北市貢寮區仁理村尖山腳街18-3號","121.925555","25.048325","6502600","貢寮區"
"228002","585-TW","2018/04/28 17:19:32","新北市貢寮區雙玉里下雙溪街26號","121.924211666667","25.0104933333333","6502600","貢寮區"
"224006","676-BX","2018/04/28 17:19:34","新北市瑞芳區傑魚坑路309號","121.786293333333","25.104555","6501200","瑞芳區"
"224008","285-BY","2018/04/28 17:19:35","新北市瑞芳區侯硐路170號","121.82846","25.0858583333333","6501200","瑞芳區"
"224009","273-VK","2018/04/28 17:19:42","新北市瑞芳區汽車路29號","121.84454","25.1098333333333","6501200","瑞芳區"
"224005","271-BY","2018/04/28 17:19:35","新北市瑞芳區鼻頭路169-1號","121.915946666667","25.1226666666667","6501200","瑞芳區"
"227002","642-TC","2018/04/28 17:19:39","新北市雙溪區上林里內平林90號","121.827558333333","25.0274966666667","6502500","雙溪區"
"227010","400-TW","2018/04/28 17:19:25","新北市雙溪區三貂里政光路10號","121.85144","25.0717266666667","6502500","雙溪區"
"251009","008-UM","2018/04/28 17:19:43","新北市淡水區三民街20號","121.439026666667","25.171775","6501000","淡水區"
"251004","009-UM","2018/04/28 17:19:35","新北市淡水區中正東路二段88巷15號","121.459146666667","25.150515","6501000","淡水區"
"251007","010-UM","2018/04/28 17:19:34","新北市淡水區民生路47-4號","121.462126666667","25.1380166666667","6501000","淡水區"
"251013","KEA-2871","2018/04/28 17:19:27","新北市淡水區竹圍子8-1號","121.477143333333","25.193655","6501000","淡水區"
"251014","180-VK","2018/04/28 17:19:29","新北市淡水區番子田120-1號","121.464673333333","25.2278983333333","6501000","淡水區"
"251008","181-VK","2018/04/28 17:19:30","新北市淡水區大同路273號","121.467431666667","25.14226","6501000","淡水區"
"251015","182-VK","2018/04/28 17:19:36","新北市淡水區三空泉17-6號","121.474056666667","25.16589","6501000","淡水區"
"251010","413-VK","2018/04/28 17:19:39","新北市淡水區中正路二段397號","121.424896666667","25.1915016666667","6501000","淡水區"
"251012","441-VK","2018/04/28 17:19:37","新北市淡水區中山北路一段158號","121.444236666667","25.1779583333333","6501000","淡水區"
"251016","442-VK","2018/04/28 17:19:34","新北市淡水區鄒厝崙5-1號","121.470733333333","25.1871483333333","6501000","淡水區"
"251005","443-VK","2018/04/28 17:19:34","新北市淡水區鄧公路19-1號","121.450265","25.169965","6501000","淡水區"
"251006","561-UM","2018/04/28 17:19:37","新北市淡水區大智街10號","121.441666666667","25.174575","6501000","淡水區"
"251011","650-BX","2018/04/28 17:19:35","新北市淡水區坪頂路131號","121.465443333333","25.16131","6501000","淡水區"
"251002","672-BX","2018/04/28 17:19:35","新北市淡水區中正路二段31號","121.41924","25.18178","6501000","淡水區"
"251003","766-UM","2018/04/28 17:19:38","新北市淡水區中正路一段64號","121.425366666667","25.1769333333333","6501000","淡水區"
"207003","550-UM","2018/04/28 17:19:34","新北市萬里區龜吼里美崙路53號","121.68742","25.1836916666667","6502800","萬里區"
"252002","178-VK","2018/04/28 17:19:35","新北市三芝區忠孝街1-14號","121.505426666667","25.2539483333333","6502100","三芝區"
"252001","292-VK","2018/04/28 17:19:24","新北市三芝區長安街119號","121.498046666667","25.2596733333333","6502100","三芝區"
"237012","275-BY","2018/04/28 17:19:38","新北市三峽區中山路459巷137號","121.349925","24.933955","6500900","三峽區"
"242034","AAC-296","2018/04/28 17:19:37","新北市新莊區瓊林路50-1號","121.44619","25.028745","6500500","新莊區"
"242058","986-R7","2018/04/28 17:19:24","新北市新莊區中正路400號","121.441858333333","25.0344616666667","6500500","新莊區"
"242053","751-BX","2018/04/28 17:19:32","新北市新莊區環河路636-1號","121.43664","25.01076","6500500","新莊區"
"242025","705-TV","2018/04/28 17:19:30","新北市新莊區中港一街56號","121.45029","25.045485","6500500","新莊區"
"242027","615-BX","2018/04/28 17:19:28","新北市新莊區中港路280號","121.453056666667","25.04411","6500500","新莊區"
"242029","612-BX","2018/04/28 17:19:42","新北市新莊區幸福路602-1號","121.452206666667","25.049245","6500500","新莊區"
"242042","566-BX","2018/04/28 17:19:27","新北市新莊區中正路400號","121.441528333333","25.033845","6500500","新莊區"
"242046","497-BY","2018/04/28 17:19:37","新北市新莊區新樹路65-7號","121.439325","25.0306116666667","6500500","新莊區"
"242056","440-UM","2018/04/28 17:19:33","新北市新莊區中環路一段252號","121.442416666667","25.031775","6500500","新莊區"
"242007","413-TV","2018/04/28 17:19:29","新北市新莊區中港路286號","121.453056666667","25.0444","6500500","新莊區"
"242044","400-BY","2018/04/28 17:19:41","新北市新莊區民安路56號","121.423178333333","25.0274416666667","6500500","新莊區"
"242023","362-BY","2018/04/28 17:19:39","新北市新莊區中港一街147號","121.44775","25.0450283333333","6500500","新莊區"
"242061","353-BY","2018/04/28 17:19:43","新北市新莊區中正路473-1號","121.441925","25.0331033333333","6500500","新莊區"
"242009","132-UY","2018/04/28 17:19:35","新北市新莊區中原路656號","121.443955","25.05439","6500500","新莊區"
"242039","133-UY","2018/04/28 17:19:37","新北市新莊區民安路304號","121.428263333333","25.021955","6500500","新莊區"
"242031","135-UY","2018/04/28 17:19:30","新北市新莊區新泰路255巷83號","121.442318333333","25.0388233333333","6500500","新莊區"
"242048","172-VK","2018/04/28 17:19:25","新北市新莊區龍安路252號","121.421148333333","25.0195716666667","6500500","新莊區"
"242017","175-VK","2018/04/28 17:19:23","新北市新莊區中港一街147號","121.44776","25.0450666666667","6500500","新莊區"
"242004","176-VK","2018/04/28 17:19:40","新北市新莊區新泰路502巷2號","121.442683333333","25.04631","6500500","新莊區"
"242015","346-TH","2018/04/28 17:19:26","新北市新莊區新泰路277巷54號","121.443273333333","25.040105","6500500","新莊區"
"242021","348-TH","2018/04/28 17:19:36","新北市新莊區明中街47巷2號","121.457295","25.0393483333333","6500500","新莊區"
"242036","349-TH","2018/04/28 17:19:37","新北市新莊區新樹路52-3號","121.437618333333","25.0272183333333","6500500","新莊區"
"242013","351-TH","2018/04/28 17:19:42","新北市新莊區新泰路357巷3弄57號","121.442351666667","25.0397483333333","6500500","新莊區"
"238023","601-UM","2018/04/28 17:19:45","新北市樹林區中正路433號","121.415031666667","25.0085233333333","6500700","樹林區"
"238019","599-UM","2018/04/28 17:19:33","新北市樹林區太平路13號","121.419041666667","24.9836616666667","6500700","樹林區"
"238018","571-TV","2018/04/28 17:19:24","新北市樹林區鎮前街269巷1號","121.420291666667","24.9857683333333","6500700","樹林區"
"238024","5061-A6","2018/04/28 17:19:36","新北市樹林區保安街一段48巷19號","121.426405","24.994875","6500700","樹林區"
"238022","KEA-2213","2018/04/28 17:19:38","新北市樹林區忠孝街12號","121.423353333333","24.98257","6500700","樹林區"
"238021","KEA-2539","2018/04/28 17:19:37","新北市樹林區西圳街一段165巷3號","121.395353333333","24.9622283333333","6500700","樹林區"
"238017","283-BY","2018/04/28 17:19:26","新北市樹林區光武街7-3號","121.415766666667","25.0053583333333","6500700","樹林區"
"238014","282-BY","2018/04/28 17:19:26","新北市樹林區長壽街70巷31弄14號","121.421513333333","24.9947766666667","6500700","樹林區"
"238020","268-VK","2018/04/28 17:19:27","新北市樹林區中正路22-1號","121.42779","24.9993933333333","6500700","樹林區"
"238026","172-UY","2018/04/28 17:19:43","新北市樹林區味王街46巷32號","121.402936666667","24.9737633333333","6500700","樹林區"
"238016","169-UY","2018/04/28 17:19:34","新北市樹林區中山路一段308號","121.420143333333","24.9863683333333","6500700","樹林區"
"239006","891-R6","2018/04/28 17:19:27","新北市鶯歌區德昌街5-1號","121.333726666667","24.9605533333333","6500800","鶯歌區"
"239008","527-UM","2018/04/28 17:19:37","新北市鶯歌區西湖街289巷5號","121.339601666667","24.9688366666667","6500800","鶯歌區"
"239005","526-UM","2018/04/28 17:19:24","新北市鶯歌區福德四街6號","121.3297","24.9679933333333","6500800","鶯歌區"
"239001","417-VK","2018/04/28 17:19:22","新北市鶯歌區尖山路173巷31號","121.345353333333","24.946635","6500800","鶯歌區"
"239003","360-BY","2018/04/28 17:19:45","新北市鶯歌區德昌街98號","121.332353333333","24.96026","6500800","鶯歌區"
"239002","359-BY","2018/04/28 17:19:28","新北市鶯歌區南雅路52號","121.348388333333","24.9541166666667","6500800","鶯歌區"
"239004","193-VK","2018/04/28 17:19:29","新北市鶯歌區文化路256巷15弄31號","121.35222","24.9468883333333","6500800","鶯歌區"
"242002","KEA-2550","2018/04/28 17:19:41","新北市新莊區瓊林路50-12號","121.44604","25.028785","6500500","新莊區"
"242051","281-VK","2018/04/28 17:19:33","新北市新莊區瓊林南路46-2號","121.435925","25.0177633333333","6500500","新莊區"
"242019","280-VK","2018/04/28 17:19:33","新北市新莊區新泰路500號","121.442461666667","25.0458933333333","6500500","新莊區"
