"lineid","car","time","location","longitude","latitude","cityid","cityname"
"234067","553-UM","2018/04/28 17:49:37","新北市永和區福和路1號","121.526363333333","25.0096733333333","6500400","永和區"
"234026","9371-KE","2018/04/28 17:49:45","新北市永和區中山路一段17巷4弄14號","121.513173333333","25.0102383333333","6500400","永和區"
"249005","172-UM","2018/04/28 17:49:43","新北市八里區荖阡里41-1號","121.402328333333","25.1340233333333","6502300","八里區"
"249001","173-UM","2018/04/28 17:49:43","新北市八里區龍米路二段129巷1號","121.445728333333","25.1470483333333","6502300","八里區"
"249004","303-UY","2018/04/28 17:49:45","新北市八里區中華路一段81巷24號","121.419605","25.1535333333333","6502300","八里區"
"249002","305-UY","2018/04/28 17:49:30","新北市八里區龍形五街35-1號","121.44915","25.1329183333333","6502300","八里區"
"249003","593-UM","2018/04/28 17:49:35","新北市八里區中山路二段77號","121.406248333333","25.15299","6502300","八里區"
"232011","375-UM","2018/04/28 17:49:36","新北市坪林區北宜路八段176號","121.707638333333","24.9345333333333","6502000","坪林區"
"244013","069-UM","2018/04/28 17:49:36","新北市林口區中正路451號","121.38469","25.07776","6501700","林口區"
"244007","080-UY","2018/04/28 17:49:47","新北市林口區林口路170號","121.387726666667","25.0825183333333","6501700","林口區"
"244019","742-UY","2018/04/28 17:49:29","新北市林口區文化一路一段89-5號","121.371793333333","25.0704533333333","6501700","林口區"
"244023","483-VK","2018/04/28 17:49:40","新北市林口區東湖路86號","121.386476666667","25.0739566666667","6501700","林口區"
"244017","485-VK","2018/04/28 17:49:27","新北市林口區文化二路一段260巷1-1號","121.371243333333","25.0733266666667","6501700","林口區"
"244009","656-BX","2018/04/28 17:49:27","新北市林口區林口路297巷7號","121.385613333333","25.084605","6501700","林口區"
"244011","701-TV","2018/04/28 17:49:38","新北市林口區佳林路253號","121.382926666667","25.0761366666667","6501700","林口區"
"244025","837-TS","2018/04/28 17:49:36","新北市林口區忠孝三路1-1號","121.361433333333","25.0690133333333","6501700","林口區"
"244021","838-TS","2018/04/28 17:49:45","新北市林口區仁愛路一段145號","121.398748333333","25.07168","6501700","林口區"
"243013","646-TV","2018/04/28 17:49:35","新北市泰山區大科路45-17號","121.404426666667","25.0551983333333","6501600","泰山區"
"222002","659-BX","2018/04/28 17:49:27","新北市深坑區平埔街22巷17弄1號","121.614855","25.00087","6501800","深坑區"
"231046","107-UY","2018/04/28 17:49:28","新北市新店區康雅崙路31號","121.538291666667","24.92577","6500600","新店區"
"241024","065-VK","2018/04/28 17:49:29","新北市三重區後竹圍街205巷50號","121.484356666667","25.073095","6500200","三重區"
"241005","262-UM","2018/04/28 17:49:33","新北市三重區碧華街380號","121.491196666667","25.0844933333333","6500200","三重區"
"241016","266-UM","2018/04/28 17:49:40","新北市三重區中正北路11號","121.492498333333","25.0613633333333","6500200","三重區"
"241033","AAC-255","2018/04/28 17:49:32","新北市三重區重新路五段523號","121.471235","25.0462966666667","6500200","三重區"
"235065","098-UM","2018/04/28 17:49:26","新北市中和區員山路36巷16-3號","121.485191666667","24.9913066666667","6500300","中和區"
"235061","378-QA","2018/04/28 17:27:55","新北市中和區員山路36巷16-2號","121.485395","24.9916283333333","6500300","中和區"
"247024","893-R6","2018/04/28 17:49:43","新北市蘆洲區長樂路187號","121.461316666667","25.0887166666667","6501400","蘆洲區"
"247014","546-UM","2018/04/28 17:49:38","新北市蘆洲區保和街69巷18號","121.46963","25.0853566666667","6501400","蘆洲區"
"247022","500-BY","2018/04/28 17:49:28","新北市蘆洲區中正路284-1號","121.464981666667","25.0902433333333","6501400","蘆洲區"
"247010","341-TH","2018/04/28 17:49:37","新北市蘆洲區民族路64號","121.477308333333","25.084675","6501400","蘆洲區"
"247012","339-TH","2018/04/28 17:49:38","新北市蘆洲區復興路139號","121.477806666667","25.088645","6501400","蘆洲區"
"247004","337-TH","2018/04/28 17:49:36","新北市蘆洲區長安街267巷27號","121.457193333333","25.0830733333333","6501400","蘆洲區"
"247006","336-TH","2018/04/28 17:49:26","新北市蘆洲區九芎街90巷8號","121.465706666667","25.08031","6501400","蘆洲區"
"247008","056-VK","2018/04/28 17:49:39","新北市蘆洲區中山一路197巷4弄21號","121.47403","25.0805283333333","6501400","蘆洲區"
"247018","053-VK","2018/04/28 17:49:29","新北市蘆洲區復興路227巷2弄13號","121.480611666667","25.09028","6501400","蘆洲區"
"247002","002-UY","2018/04/28 17:49:27","新北市蘆洲區環堤大道224號","121.458048333333","25.0927333333333","6501400","蘆洲區"
"247020","001-UY","2018/04/28 17:49:10","新北市蘆洲區民義街75號","121.473278333333","25.0901766666667","6501400","蘆洲區"
"228003","097-TW","2018/04/28 17:49:42","新北市貢寮區真理里美艷山街6-2號","121.9288","25.0607866666667","6502600","貢寮區"
"228001","212-TW","2018/04/28 17:49:31","新北市貢寮區仁理村仁愛路95-1號","121.927678333333","25.0554666666667","6502600","貢寮區"
"228002","585-TW","2018/04/28 17:49:32","新北市貢寮區福隆里外隆林街15號","121.958975","25.00364","6502600","貢寮區"
"224010","AGQ-8101","2018/04/28 17:49:31","新北市瑞芳區明燈路二段66號","121.809388333333","25.1075683333333","6501200","瑞芳區"
"224006","676-BX","2018/04/28 17:49:24","新北市瑞芳區傑魚坑路183號","121.788471666667","25.1082916666667","6501200","瑞芳區"
"224002","639-TC","2018/04/28 17:49:33","新北市瑞芳區民權街3-1號","121.809396666667","25.108275","6501200","瑞芳區"
"224008","285-BY","2018/04/28 17:49:35","新北市瑞芳區明燈路一段118號","121.818631666667","25.10896","6501200","瑞芳區"
"224009","273-VK","2018/04/28 17:49:42","新北市瑞芳區山尖路86號","121.853811666667","25.1147816666667","6501200","瑞芳區"
"224005","271-BY","2018/04/28 17:49:35","新北市瑞芳區瑞芳街32-8號","121.82314","25.1210366666667","6501200","瑞芳區"
"227002","642-TC","2018/04/28 17:49:39","新北市雙溪區三貂里政光路3-1號","121.850778333333","25.0633933333333","6502500","雙溪區"
"253006","295-VK","2018/04/28 17:49:40","新北市石門區中山路37號","121.566948333333","25.2911733333333","6502200","石門區"
"222001","KEA-2212","2018/04/28 17:49:29","新北市深坑區文山路三段110號","121.60867","24.9994883333333","6501800","深坑區"
"208002","KEA-2872","2018/04/28 17:49:43","新北市金山區磺清路135號","121.639421666667","25.2276816666667","6502700","金山區"
"208003","665-BX","2018/04/28 17:49:43","新北市金山區磺清路135號","121.639418333333","25.2277083333333","6502700","金山區"
"251009","008-UM","2018/04/28 17:49:42","新北市淡水區長興街31-1號","121.444071666667","25.17131","6501000","淡水區"
"251004","009-UM","2018/04/28 17:49:36","新北市淡水區民權一街23號","121.458906666667","25.1362316666667","6501000","淡水區"
"251007","010-UM","2018/04/28 17:49:34","新北市淡水區民生路14號","121.46108","25.13792","6501000","淡水區"
"251001","011-UM","2018/04/28 17:49:32","新北市淡水區民權路92巷35-1號","121.462208333333","25.1265483333333","6501000","淡水區"
"251002","012-UM","2018/04/28 17:49:44","新北市淡水區中山路87巷1號","121.44261","25.1705066666667","6501000","淡水區"
"251013","KEA-2871","2018/04/28 17:49:47","新北市淡水區泉洲厝31號","121.479581666667","25.1910716666667","6501000","淡水區"
"251014","180-VK","2018/04/28 17:49:29","新北市淡水區公埔子16-6號","121.48103","25.2245866666667","6501000","淡水區"
"251008","181-VK","2018/04/28 17:49:30","新北市淡水區八勢路一段127號","121.467088333333","25.1570783333333","6501000","淡水區"
"251015","182-VK","2018/04/28 17:49:36","新北市淡水區糞箕湖9-1號","121.48529","25.1708766666667","6501000","淡水區"
"251010","413-VK","2018/04/28 17:49:39","新北市淡水區中正路二段96號","121.417548333333","25.1858716666667","6501000","淡水區"
"251012","441-VK","2018/04/28 17:49:37","新北市淡水區北新路二段77-10號","121.480825","25.185465","6501000","淡水區"
"251016","442-VK","2018/04/28 17:49:34","新北市淡水區埤島39-15號","121.45275","25.1958933333333","6501000","淡水區"
"251005","443-VK","2018/04/28 17:49:34","新北市淡水區學府路102巷2號","121.450405","25.1719666666667","6501000","淡水區"
"251006","561-UM","2018/04/28 17:49:30","新北市淡水區中山北路一段45巷13號","121.441005","25.1757466666667","6501000","淡水區"
"251011","650-BX","2018/04/28 17:47:54","新北市淡水區吳(仔)厝34號","121.479515","25.1493483333333","6501000","淡水區"
"251002","672-BX","2018/04/28 17:25:07","新北市淡水區中正路二段31號","121.41934","25.1816266666667","6501000","淡水區"
"251003","766-UM","2018/04/28 17:49:38","新北市淡水區大忠街5巷1號","121.44315","25.1763983333333","6501000","淡水區"
"207003","550-UM","2018/04/28 17:49:34","新北市萬里區野柳里東澳路66號","121.692823333333","25.2009666666667","6502800","萬里區"
"207004","225-TW","2018/04/28 17:49:29","新北市萬里區萬里里瑪鋉頂街61號","121.688366666667","25.1804933333333","6502800","萬里區"
"252002","178-VK","2018/04/28 17:49:35","新北市三芝區智成街33號","121.503891666667","25.2565466666667","6502100","三芝區"
"252001","292-VK","2018/04/28 17:49:26","新北市三芝區中興街一段8號","121.497443333333","25.259485","6502100","三芝區"
"237004","KEA-2597","2018/04/28 17:49:42","新北市三峽區中山路128號","121.365436666667","24.936005","6500900","三峽區"
"237011","572-TV","2018/04/28 17:49:34","新北市三峽區中正路一段27號","121.376108333333","24.9307766666667","6500900","三峽區"
"237009","210-TH","2018/04/28 17:49:39","新北市三峽區大勇路3巷31號","121.36767","24.9367816666667","6500900","三峽區"
"237012","275-BY","2018/04/28 17:49:38","新北市三峽區文化路2號","121.373418333333","24.9355416666667","6500900","三峽區"
"237008","302-VK","2018/04/28 17:49:36","新北市三峽區中園街237-1號","121.366841666667","24.919565","6500900","三峽區"
"237014","433-BY","2018/04/28 17:49:38","新北市三峽區文化路120巷3號","121.370946666667","24.93647","6500900","三峽區"
"237006","5529-G3","2018/04/28 17:49:40","新北市三峽區介壽路二段136巷83-6號","121.393546666667","24.93118","6500900","三峽區"
"237010","706-TV","2018/04/28 17:49:31","新北市三峽區中山路47號","121.368036666667","24.93446","6500900","三峽區"
"237005","AKY-6261","2018/04/28 17:49:45","新北市三峽區中山路321-2號","121.360815","24.9380566666667","6500900","三峽區"
"236070","105-UM","2018/04/28 17:49:31","新北市土城區青雲路322巷20號","121.457501666667","24.9756","6501300","土城區"
"236042","107-UM","2018/04/28 17:49:35","新北市土城區城林路6巷80號","121.43852","24.979745","6501300","土城區"
"236079","166-UM","2018/04/28 17:49:33","新北市土城區永寧路25號","121.43045","24.9636533333333","6501300","土城區"
"236030","253-BX","2018/04/28 17:49:40","新北市土城區城林路6巷80號","121.438536666667","24.9797333333333","6501300","土城區"
"236026","269-VK","2018/04/28 17:49:26","新北市土城區城林路6巷80號","121.438505","24.9794766666667","6501300","土城區"
"236014","270-VK","2018/04/28 17:49:29","新北市土城區城林路6巷80號","121.438453333333","24.9796283333333","6501300","土城區"
"236021","401-BY","2018/04/28 17:49:30","新北市土城區城林路6巷80號","121.438803333333","24.9796233333333","6501300","土城區"
"236059","912-UM","2018/04/28 17:49:40","新北市土城區中華路二段257號","121.437478333333","24.9712033333333","6501300","土城區"
"236063","915-UM","2018/04/28 17:49:30","新北市土城區城林路6巷80號","121.438503333333","24.9797166666667","6501300","土城區"
"236055","AAC-216","2018/04/28 17:49:33","新北市土城區城林路6巷80號","121.438506666667","24.9795583333333","6501300","土城區"
"242034","AAC-296","2018/04/28 17:49:37","新北市新莊區新莊路643號","121.445203333333","25.03281","6500500","新莊區"
"242058","986-R7","2018/04/28 17:49:44","新北市新莊區中正路726-5號","121.415771666667","25.0241666666667","6500500","新莊區"
"242053","751-BX","2018/04/28 17:49:32","新北市新莊區新樹路569號","121.432865","25.0070883333333","6500500","新莊區"
"242025","705-TV","2018/04/28 17:49:30","新北市三重區光復路二段170號","121.47177","25.0612233333333","6500500","新莊區"
"242027","615-BX","2018/04/28 17:49:28","新北市新莊區福壽街165號","121.458028333333","25.0535216666667","6500500","新莊區"
"242029","612-BX","2018/04/28 17:49:42","新北市新莊區新泰路312號","121.445291666667","25.0413216666667","6500500","新莊區"
"242042","566-BX","2018/04/28 17:49:27","新北市新莊區中正路612-1號","121.426095","25.0302533333333","6500500","新莊區"
"242046","497-BY","2018/04/28 17:49:37","新北市新莊區福營路127號","121.432991666667","25.0316333333333","6500500","新莊區"
"242056","440-UM","2018/04/28 17:49:33","新北市新莊區瓊林路38巷39號","121.446506666667","25.0304","6500500","新莊區"
"242007","413-TV","2018/04/28 17:49:29","新北市新莊區福樂街108巷22號","121.457815","25.0482683333333","6500500","新莊區"
"242044","400-BY","2018/04/28 17:49:41","新北市新莊區中正路857號","121.41959","25.0279233333333","6500500","新莊區"
"242023","362-BY","2018/04/28 17:49:39","新北市新莊區福樂街31號","121.457743333333","25.0456283333333","6500500","新莊區"
"242061","353-BY","2018/04/28 17:49:42","新北市新莊區新樹路583號","121.432926666667","25.006855","6500500","新莊區"
"242009","132-UY","2018/04/28 17:49:36","新北市新莊區昌明街48號","121.456025","25.0522933333333","6500500","新莊區"
"242039","133-UY","2018/04/28 17:49:37","新北市新莊區富國路204號","121.424823333333","25.0241583333333","6500500","新莊區"
"242031","135-UY","2018/04/28 17:49:30","新北市新莊區新泰路357巷1弄2號","121.442671666667","25.0413383333333","6500500","新莊區"
"242048","172-VK","2018/04/28 17:49:25","新北市新莊區萬安街60巷1號","121.420686666667","25.0235783333333","6500500","新莊區"
"242011","173-VK","2018/04/28 17:49:42","新北市新莊區中港路697號","121.45066","25.05681","6500500","新莊區"
"242017","175-VK","2018/04/28 17:49:23","新北市新莊區中港路337號","121.45219","25.0453683333333","6500500","新莊區"
"242004","176-VK","2018/04/28 17:49:40","新北市新莊區自立街259號","121.459241666667","25.045575","6500500","新莊區"
"242015","346-TH","2018/04/28 17:49:46","新北市新莊區新泰路421-5號","121.442748333333","25.0449166666667","6500500","新莊區"
"242021","348-TH","2018/04/28 17:49:36","新北市新莊區復興路一段216號","121.452921666667","25.043745","6500500","新莊區"
"242036","349-TH","2018/04/28 17:49:37","新北市新莊區後港一路105號","121.428323333333","25.0270666666667","6500500","新莊區"
"242013","351-TH","2018/04/28 17:49:42","新北市新莊區中誠街164號","121.448185","25.0474716666667","6500500","新莊區"
"238015","755-BX","2018/04/28 17:49:37","新北市樹林區長壽街70巷1弄19號","121.421166666667","24.9945483333333","6500700","樹林區"
"238023","601-UM","2018/04/28 17:49:45","新北市樹林區龍興街14巷21號","121.401925","25.0159033333333","6500700","樹林區"
"238019","599-UM","2018/04/28 17:49:42","新北市樹林區國凱街156號","121.424233333333","24.9807933333333","6500700","樹林區"
"238018","571-TV","2018/04/28 17:49:44","新北市樹林區博愛街116號","121.426638333333","24.9914516666667","6500700","樹林區"
"238022","KEA-2213","2018/04/28 17:49:38","新北市樹林區太順街62巷3弄10號","121.417233333333","24.9795333333333","6500700","樹林區"
"238021","KEA-2539","2018/04/28 17:49:37","新北市樹林區柑園街一段1-8號","121.405916666667","24.9618583333333","6500700","樹林區"
"238025","303-VK","2018/04/28 17:49:41","新北市樹林區三俊街70號","121.413286666667","25.0156883333333","6500700","樹林區"
"238017","283-BY","2018/04/28 17:49:26","新北市樹林區三德街50號","121.416056666667","25.01352","6500700","樹林區"
"238014","282-BY","2018/04/28 17:49:26","新北市樹林區大安路145巷14號","121.422496666667","24.996505","6500700","樹林區"
"238020","268-VK","2018/04/28 17:49:27","新北市樹林區三俊街223號","121.42137","25.01503","6500700","樹林區"
"238026","172-UY","2018/04/28 17:49:43","新北市樹林區中洲街46號","121.397006666667","24.9712466666667","6500700","樹林區"
"238016","169-UY","2018/04/28 17:49:15","新北市樹林區復興路282號","121.417921666667","24.988075","6500700","樹林區"
"239006","891-R6","2018/04/28 17:49:32","新北市鶯歌區鶯桃路413巷74號","121.32977","24.9631","6500800","鶯歌區"
"239008","527-UM","2018/04/28 17:49:37","新北市鶯歌區欣欣街4號","121.33572","24.9774616666667","6500800","鶯歌區"
"239005","526-UM","2018/04/28 17:49:44","新北市鶯歌區鳳吉五街37號","121.3276","24.9728033333333","6500800","鶯歌區"
"239001","417-VK","2018/04/28 17:49:42","新北市鶯歌區中正三路266-1號","121.329321666667","24.9362633333333","6500800","鶯歌區"
"239003","360-BY","2018/04/28 17:49:24","新北市鶯歌區永吉街55號","121.33541","24.9569033333333","6500800","鶯歌區"
"239002","359-BY","2018/04/28 17:49:28","新北市鶯歌區光明街90號","121.346425","24.9558383333333","6500800","鶯歌區"
"239004","193-VK","2018/04/28 17:49:29","新北市鶯歌區文化路136巷15號","121.351868333333","24.9504983333333","6500800","鶯歌區"
"221008","489-VK","2018/04/28 17:49:42","新北市汐止區康寧街753巷2弄8號","121.63925","25.0738816666667","6501100","汐止區"
"221036","130-UY","2018/04/28 17:49:30","新北市汐止區汐萬路一段39-3號","121.654875","25.0695933333333","6501100","汐止區"
"221015","131-UY","2018/04/28 17:49:39","新北市汐止區長江街286-2號","121.665473333333","25.0805783333333","6501100","汐止區"
"221010","269-BY","2018/04/28 17:49:41","新北市汐止區汐萬路二段114-1號","121.648148333333","25.0847833333333","6501100","汐止區"
"221012","278-VK","2018/04/28 17:49:33","新北市汐止區長江街256巷1號","121.664631666667","25.0799283333333","6501100","汐止區"
"221023","279-VK","2018/04/28 17:49:32","新北市汐止區康寧街591巷4號","121.634916666667","25.0705316666667","6501100","汐止區"
"221032","280-BY","2018/04/28 17:49:47","新北市汐止區民權街一段16號","121.621195","25.05346","6501100","汐止區"
"221027","281-BY","2018/04/28 17:49:31","新北市汐止區康寧街901號","121.651118333333","25.0751633333333","6501100","汐止區"
"221029","298-VK","2018/04/28 17:49:25","新北市汐止區康寧街901號","121.651615","25.0749516666667","6501100","汐止區"
"221021","299-VK","2018/04/28 17:49:28","新北市汐止區水源路一段56號","121.657261666667","25.0657516666667","6501100","汐止區"
"221031","353-TW","2018/04/28 17:49:39","新北市汐止區工建路213號","121.635675","25.0616566666667","6501100","汐止區"
"221035","622-UM","2018/04/28 17:49:36","新北市汐止區汐萬路一段160號","121.652656666667","25.0715116666667","6501100","汐止區"
"221025","623-UM","2018/04/28 17:49:41","新北市汐止區大同路二段173號","121.651695","25.064515","6501100","汐止區"
"221038","646-BX","2018/04/28 17:49:44","新北市汐止區大同路二段273號","121.652371666667","25.067595","6501100","汐止區"
"221033","647-BX","2018/04/28 17:35:00","新北市汐止區林森街129巷4號","121.624633333333","25.0408666666667","6501100","汐止區"
"221002","707-TV","2018/04/28 17:49:39","新北市汐止區汐萬路一段312號","121.650558333333","25.07544","6501100","汐止區"
"221018","753-BX","2018/04/28 17:49:42","新北市汐止區忠孝東路382巷3弄1號","121.665658333333","25.069725","6501100","汐止區"
"242002","KEA-2550","2018/04/28 17:49:41","新北市新莊區景德路83號","121.452356666667","25.0349483333333","6500500","新莊區"
"242051","281-VK","2018/04/28 17:49:32","新北市新莊區西盛街257巷19號","121.428826666667","25.0158866666667","6500500","新莊區"
"242019","280-VK","2018/04/28 17:49:32","新北市新莊區復興路二段31號","121.45425","25.0440516666667","6500500","新莊區"
