"lineid","car","time","location","longitude","latitude","cityid","cityname"
"234046","148-BY","2018/04/28 19:29:47","新北市永和區秀朗路二段245號","121.526353333333","24.99962","6500400","永和區"
"234007","207-UY","2018/04/28 19:29:45","新北市永和區永和路184-1號","121.514178333333","25.0090133333333","6500400","永和區"
"234081","298-R6","2018/04/28 19:29:49","新北市永和區福和路7巷5弄7號","121.525565","25.0083183333333","6500400","永和區"
"234038","336-UY","2018/04/28 19:29:46","新北市永和區成功路二段47巷11號","121.527416666667","25.0003483333333","6500400","永和區"
"234064","337-UY","2018/04/28 19:29:42","新北市永和區中正路368巷1弄76號","121.520035","25.00078","6500400","永和區"
"234086","338-UY","2018/04/28 19:29:37","新北市永和區林森路39巷2-1號","121.525326666667","25.0047083333333","6500400","永和區"
"234070","552-UM","2018/04/28 19:29:31","新北市永和區竹林路182號","121.520241666667","25.0096283333333","6500400","永和區"
"234067","553-UM","2018/04/28 19:29:37","新北市永和區保平路131號","121.510545","25.00625","6500400","永和區"
"234017","745-BX","2018/04/28 19:29:33","新北市永和區環河西路一段77號","121.513185","25.0180133333333","6500400","永和區"
"234030","746-BX","2018/04/28 19:29:34","新北市永和區民生路45號","121.522718333333","24.9979266666667","6500400","永和區"
"234054","KEA-2590","2018/04/28 19:29:29","新北市永和區復興街21號","121.516136666667","25.01308","6500400","永和區"
"234013","KEA-2591","2018/04/28 19:29:31","新北市永和區中山路一段184巷7號","121.508676666667","25.009195","6500400","永和區"
"234061","AAD-866","2018/04/28 19:29:44","新北市永和區中正路570號","121.517088333333","25.0062283333333","6500400","永和區"
"234042","862-TW","2018/04/28 19:29:32","新北市永和區水源街39巷28號","121.510636666667","25.0031283333333","6500400","永和區"
"234050","863-TW","2018/04/28 19:29:32","新北市永和區仁愛路88號","121.512496666667","25.0133833333333","6500400","永和區"
"234026","9371-KE","2018/04/28 19:29:45","新北市中和區安平路222號","121.513903333333","25.0002566666667","6500400","永和區"
"234011","9373-KE","2018/04/28 19:29:46","新北市永和區保福路二段102號","121.510105","25.0136233333333","6500400","永和區"
"249002","305-UY","2018/04/28 19:29:30","新北市八里區龍形一街33巷6-1號","121.449371666667","25.129585","6502300","八里區"
"249003","593-UM","2018/04/28 19:29:36","新北市八里區中山路二段500巷30號","121.397175","25.1479383333333","6502300","八里區"
"248014","025-BX","2018/04/28 19:29:35","新北市五股區民義路一段157-3號","121.43226","25.08733","6501500","五股區"
"248008","095-VK","2018/04/28 19:29:46","新北市五股區中興路一段93號","121.466686666667","25.0728583333333","6501500","五股區"
"248018","225-UY","2018/04/28 19:29:35","新北市五股區凌雲路三段66號","121.431426666667","25.11379","6501500","五股區"
"248012","247-BX","2018/04/28 19:29:38","新北市五股區成泰路二段97號","121.437921666667","25.0843466666667","6501500","五股區"
"248010","272-BY","2018/04/28 19:29:46","新北市五股區水碓一路23號","121.430585","25.0712983333333","6501500","五股區"
"248004","677-BX","2018/04/28 19:29:37","新北市五股區五福路119號","121.432065","25.0912166666667","6501500","五股區"
"248002","678-BX","2018/04/28 19:29:43","新北市五股區凌雲路一段158巷14-1號","121.447955","25.1035216666667","6501500","五股區"
"234023","9380-KE","2018/04/28 19:29:46","新北市永和區竹林路91巷15弄1號","121.520316666667","25.0123666666667","6500400","永和區"
"234077","969-R7","2018/04/28 19:29:46","新北市永和區民族街43巷10號","121.519016666667","24.9983466666667","6500400","永和區"
"234074","AAC-211","2018/04/28 19:29:37","新北市永和區永和路二段254號","121.515958333333","25.014985","6500400","永和區"
"234003","AAC-295","2018/04/28 19:29:40","新北市永和區福和路376號","121.514245","25.0077916666667","6500400","永和區"
"244023","483-VK","2018/04/28 19:29:41","新北市林口區仁愛路二段267巷3號","121.373576666667","25.07701","6501700","林口區"
"243012","AAD-798","2018/04/28 19:29:28","新北市泰山區仁義路220巷6號","121.432813333333","25.0538366666667","6501600","泰山區"
"243011","297-R6","2018/04/28 19:29:27","新北市泰山區貴子路76號","121.427065","25.0412716666667","6501600","泰山區"
"243015","380-SR","2018/04/28 19:29:43","新北市泰山區明志路二段62號","121.429071666667","25.0526316666667","6501600","泰山區"
"243014","421-VK","2018/04/28 19:29:38","新北市泰山區仁義路220巷53號","121.43209","25.0527366666667","6501600","泰山區"
"243010","KEA-2215","2018/04/28 19:29:34","新北市泰山區民生路17巷63號","121.429321666667","25.0509783333333","6501600","泰山區"
"243009","KEA-2216","2018/04/28 19:29:26","新北市泰山區半山雅3號","121.431323333333","25.0674116666667","6501600","泰山區"
"243013","646-TV","2018/04/28 19:29:35","新北市泰山區明志路三段145巷7號","121.42542","25.0399716666667","6501600","泰山區"
"243016","680-BX","2018/04/28 19:29:31","新北市泰山區明志路三段253號","121.423415","25.0373633333333","6501600","泰山區"
"222003","436-BY","2018/04/28 19:29:34","新北市深坑區深南路51-1號","121.621401666667","25.01007","6501800","深坑區"
"222002","659-BX","2018/04/28 19:29:47","新北市深坑區北深路一段210號","121.63259","25.0109183333333","6501800","深坑區"
"231041","002-UM","2018/04/28 19:29:42","新北市新店區中正路543-3號","121.533566666667","24.9873016666667","6500600","新店區"
"231040","047-UY","2018/04/28 19:29:41","新北市新店區北新路一段40號","121.540931666667","24.9660633333333","6500600","新店區"
"231044","106-UY","2018/04/28 19:29:36","新北市新店區中興路三段184號","121.544068333333","24.981465","6500600","新店區"
"231046","107-UY","2018/04/28 19:29:28","新北市新店區中正路111號","121.542515","24.9707266666667","6500600","新店區"
"231052","108-UY","2018/04/28 19:29:39","新北市新店區新烏路二段333號","121.550285","24.9105033333333","6500600","新店區"
"231048","187-VK","2018/04/28 19:29:40","新北市新店區五峰路140號","121.544825","24.9657016666667","6500600","新店區"
"231054","KEA-2219","2018/04/28 19:29:34","新北市新店區文中路40號","121.539678333333","24.95649","6500600","新店區"
"231057","256-BX","2018/04/28 19:29:47","新北市新店區花園一路三段57號","121.549648333333","24.9329966666667","6500600","新店區"
"231042","268-BY","2018/04/28 19:29:34","新北市新店區中興路一段24-2號","121.538498333333","24.9583066666667","6500600","新店區"
"231051","278-BY","2018/04/28 19:29:42","新北市新店區中央五街28號","121.529026666667","24.9746133333333","6500600","新店區"
"231050","AAD-862","2018/04/28 19:29:39","新北市新店區竹林路82號","121.554443333333","24.9505416666667","6500600","新店區"
"231059","355-BY","2018/04/28 19:29:31","新北市新店區安和路三段151號","121.516688333333","24.9856116666667","6500600","新店區"
"231058","3713-VJ","2018/04/28 19:29:30","新北市新店區寶橋路85巷23號","121.545356666667","24.976265","6500600","新店區"
"231066","4716-K9","2018/04/28 19:29:30","新北市新店區安康路三段165巷2弄4號","121.489433333333","24.9513333333333","6500600","新店區"
"231056","4715-K9","2018/04/28 19:29:37","新北市新店區安德街60巷19-1號","121.510383333333","24.9632266666667","6500600","新店區"
"231067","4772-VM","2018/04/28 19:29:41","新北市新店區精忠路10-1號","121.532746666667","24.95907","6500600","新店區"
"231065","512-UM","2018/04/28 19:29:44","新北市新店區安祥路109巷1弄49號","121.47737","24.9605816666667","6500600","新店區"
"231049","513-UM","2018/04/28 19:29:46","新北市新店區北新路三段65巷34弄15號","121.540015","24.981535","6500600","新店區"
"231063","616-UM","2018/04/28 19:29:43","新北市新店區達觀路16號","121.503121666667","24.9407083333333","6500600","新店區"
"231045","617-UM","2018/04/28 19:29:31","新北市新店區北宜路二段213號","121.55323","24.9532833333333","6500600","新店區"
"231061","619-UM","2018/04/28 19:29:31","新北市新店區安康路一段226號","121.523581666667","24.9635383333333","6500600","新店區"
"231064","719-UM","2018/04/28 19:29:33","新北市新店區安忠路57巷9弄1號","121.513498333333","24.9583116666667","6500600","新店區"
"231062","720-UM","2018/04/28 19:29:34","新北市新店區莒光路61巷1號","121.523553333333","24.958365","6500600","新店區"
"231060","897-TW","2018/04/28 19:29:33","新北市新店區安康路二段66號","121.514801666667","24.963605","6500600","新店區"
"231043","899-TW","2018/04/28 19:29:47","新北市新店區北新路二段228巷1號","121.542933333333","24.977645","6500600","新店區"
"231055","AKT-0513","2018/04/28 19:29:43","新北市新店區環河路180-3號","121.535","24.969415","6500600","新店區"
"241008","059-VK","2018/04/28 19:29:33","新北市三重區永福街135巷34號","121.47751","25.0771283333333","6500200","三重區"
"241009","060-VK","2018/04/28 19:29:33","新北市三重區溪尾街242巷54號","121.486421666667","25.081525","6500200","三重區"
"241031","061-VK","2018/04/28 19:29:42","新北市三重區集美街61號","121.48844","25.0542383333333","6500200","三重區"
"241017","063-VK","2018/04/28 19:29:37","新北市三重區中正北路25巷2號","121.493253333333","25.0626866666667","6500200","三重區"
"241028","265-UM","2018/04/28 19:29:41","新北市三重區中寮街84號","121.4932","25.0580883333333","6500200","三重區"
"241022","267-UM","2018/04/28 19:29:40","新北市三重區三民街151號","121.48425","25.064185","6500200","三重區"
"241032","269-UM","2018/04/28 19:29:39","新北市三重區三陽路106號","121.483333333333","25.0587683333333","6500200","三重區"
"241013","270-UM","2018/04/28 19:29:41","新北市三重區仁愛街110號","121.495236666667","25.0744116666667","6500200","三重區"
"241025","271-UM","2018/04/28 19:29:42","新北市三重區頂崁街210巷28弄12號","121.475683333333","25.06724","6500200","三重區"
"241007","398-BY","2018/04/28 19:29:45","新北市三重區溪尾街128號","121.489336666667","25.0794683333333","6500200","三重區"
"241035","462-BY","2018/04/28 19:29:31","新北市三重區信義西街1巷3號","121.49807","25.0649433333333","6500200","三重區"
"241020","478-VK","2018/04/28 19:29:30","新北市三重區三和路四段20巷16號","121.490413333333","25.0738033333333","6500200","三重區"
"241030","480-VK","2018/04/28 19:29:29","新北市三重區成功路41巷13號","121.490288333333","25.05153","6500200","三重區"
"241023","545-UM","2018/04/28 19:29:39","新北市三重區頂崁街99號","121.477943333333","25.0638066666667","6500200","三重區"
"241006","AAD-863","2018/04/28 19:29:37","新北市三重區車路頭街90號","121.484328333333","25.0741566666667","6500200","三重區"
"241026","887-TS","2018/04/28 19:29:33","新北市三重區文化南路65巷49號","121.498731666667","25.0608166666667","6500200","三重區"
"241029","942-UM","2018/04/28 19:29:29","新北市三重區大同南路161巷68號","121.495115","25.0550683333333","6500200","三重區"
"235064","005-UY","2018/04/28 19:29:41","新北市中和區南山路24號","121.501975","24.998195","6500300","中和區"
"235063","006-UY","2018/04/28 19:29:37","新北市中和區連城路203巷10弄4號","121.494873333333","24.9972983333333","6500300","中和區"
"235056","096-UM","2018/04/28 19:29:36","新北市中和區民富街15-2號","121.476543333333","25.00737","6500300","中和區"
"235039","097-UM","2018/04/28 19:29:41","新北市中和區秀峰街38號","121.521341666667","24.9903116666667","6500300","中和區"
"235065","098-UM","2018/04/28 19:29:26","新北市中和區中山路二段2巷13弄11號","121.50357","25.0065333333333","6500300","中和區"
"235040","150-BY","2018/04/28 19:29:36","新北市中和區景安路79巷50號","121.507843333333","24.99553","6500300","中和區"
"235058","151-BY","2018/04/28 19:29:38","新北市中和區和城路一段271巷1號","121.485441666667","24.99162","6500300","中和區"
"235055","183-VK","2018/04/28 19:29:36","新北市中和區莒光路120巷15弄1號","121.471646666667","25.00127","6500300","中和區"
"235038","185-VK","2018/04/28 19:29:43","新北市中和區自立路23號","121.522445","24.99577","6500300","中和區"
"235049","186-VK","2018/04/28 19:29:45","新北市中和區景新街273巷6號","121.509756666667","24.9937916666667","6500300","中和區"
"235067","255-BX","2018/04/28 19:29:29","新北市中和區新生街220巷15弄7號","121.482951666667","24.9980733333333","6500300","中和區"
"235044","293-VK","2018/04/28 19:29:37","新北市中和區捷運路185號","121.505463333333","24.9914866666667","6500300","中和區"
"235043","352-BY","2018/04/28 19:29:39","新北市中和區景新街149號","121.506451666667","24.9965466666667","6500300","中和區"
"235068","377-QA","2018/04/28 19:29:43","新北市中和區圓通路158巷4號","121.497843333333","24.9960633333333","6500300","中和區"
"235061","378-QA","2018/04/28 19:29:32","新北市中和區員山路352號","121.481083333333","25.0036066666667","6500300","中和區"
"235050","4979-A6","2018/04/28 19:29:33","新北市中和區中正路571巷2弄5號","121.486321666667","24.9937583333333","6500300","中和區"
"235042","551-UM","2018/04/28 19:29:39","新北市中和區中安街192號","121.51144","24.9992","6500300","中和區"
"235070","558-UM","2018/04/28 19:29:32","新北市中和區中和路72號","121.500933333333","25.0007033333333","6500300","中和區"
"235045","565-BX","2018/04/28 19:29:33","新北市中和區景新街399巷11號","121.51298","24.98991","6500300","中和區"
"235054","640-BX","2018/04/28 19:29:41","新北市中和區國光街112巷22弄5號","121.46987","25.00239","6500300","中和區"
"235060","647-TV","2018/04/28 19:29:39","新北市中和區員山路266巷25號","121.482106666667","25.00187","6500300","中和區"
"235047","732-UM","2018/04/28 19:29:34","新北市中和區景平路259巷20號","121.507645","24.9926916666667","6500300","中和區"
"235046","733-UM","2018/04/28 19:29:28","新北市中和區興南路一段105巷20弄35號","121.510578333333","24.9848316666667","6500300","中和區"
"235071","783-BX","2018/04/28 19:29:43","新北市中和區連城路469巷21弄2號","121.483823333333","24.9950533333333","6500300","中和區"
"235057","801-TS","2018/04/28 19:29:32","新北市中和區中山路三段37巷33號","121.479623333333","25.0048966666667","6500300","中和區"
"235041","802-TS","2018/04/28 19:29:32","新北市中和區中和路350巷3弄2號","121.510301666667","25.0011516666667","6500300","中和區"
"235052","805-TS","2018/04/28 19:29:38","新北市中和區華新街143巷67弄27號","121.507436666667","24.9791933333333","6500300","中和區"
"235048","896-TW","2018/04/28 19:29:42","新北市中和區忠孝街113巷1號","121.512486666667","24.98741","6500300","中和區"
"235053","900-TW","2018/04/28 19:29:47","新北市中和區華順街8號","121.467386666667","24.9987066666667","6500300","中和區"
"235066","911-UM","2018/04/28 19:29:41","新北市中和區景新街34巷2號","121.503241666667","24.9992466666667","6500300","中和區"
"235051","157-BY","2018/04/28 19:29:36","新北市中和區景新街130號","121.505238333333","24.9980683333333","6500300","中和區"
"235037","AAC-213","2018/04/28 19:29:29","新北市中和區秀朗路三段10巷19號","121.525473333333","24.99651","6500300","中和區"
"235059","AAC-215","2018/04/28 19:29:36","新北市中和區圓通路252巷18弄1號","121.492288333333","24.992655","6500300","中和區"
"220068","013-TV","2018/04/28 19:29:27","新北市板橋區翠華街6巷85號","121.48205","25.0254333333333","6500100","板橋區"
"220065","072-UY","2018/04/28 19:29:30","新北市板橋區實踐路93巷43弄11號","121.465925","25.005435","6500100","板橋區"
"220086","073-UY","2018/04/28 19:29:46","新北市板橋區中正路216巷115號","121.459495","25.0194116666667","6500100","板橋區"
"220106","075-UY","2018/04/28 19:29:32","新北市板橋區文化路二段417巷6號","121.47453","25.03324","6500100","板橋區"
"220069","AAD-861","2018/04/28 19:29:28","新北市板橋區稚暉街46巷3號","121.45638","25.0042266666667","6500100","板橋區"
"247004","337-TH","2018/04/28 19:29:42","新北市蘆洲區長安街261號","121.45879","25.0836983333333","6501400","蘆洲區"
"226004","312-R5","2018/04/28 19:29:31","新北市平溪區十分里十分街251-1號","121.777858333333","25.045055","6502400","平溪區"
"235072","251-BX","2018/04/28 19:29:35","新北市中和區連城路265巷10弄1號","121.491658333333","24.9952583333333","6500300","中和區"
"228003","097-TW","2018/04/28 19:29:42","新北市貢寮區和美里和美街22號","121.912918333333","25.082645","6502600","貢寮區"
"228001","212-TW","2018/04/28 19:29:31","新北市貢寮區真理里延平街68號","121.925386666667","25.0574333333333","6502600","貢寮區"
"228002","585-TW","2018/04/28 19:29:37","新北市貢寮區龍門里龍門街78號","121.93103","25.0268716666667","6502600","貢寮區"
"224010","AGQ-8101","2018/04/28 19:28:31","新北市瑞芳區基山街4號","121.845121666667","25.1097133333333","6501200","瑞芳區"
"224005","271-BY","2018/04/28 19:29:35","新北市瑞芳區員山子路23號","121.82138","25.1030316666667","6501200","瑞芳區"
"227002","642-TC","2018/04/28 19:29:39","新北市雙溪區雙溪里光復街22號","121.865196666667","25.0354766666667","6502500","雙溪區"
"227010","400-TW","2018/04/28 19:29:45","新北市雙溪區新基里新基北街43號","121.868175","25.039695","6502500","雙溪區"
"253005","032-BX","2018/04/28 19:29:29","新北市石門區小坑9號","121.594388333333","25.2884166666667","6502200","石門區"
"253006","295-VK","2018/04/28 19:29:40","新北市石門區楓林23-10號","121.539305","25.29091","6502200","石門區"
"222001","KEA-2212","2018/04/28 19:29:41","新北市深坑區北深路二段125-1號","121.616193333333","25.00298","6501800","深坑區"
"208002","KEA-2872","2018/04/28 19:29:43","新北市金山區仁愛路78巷2號","121.634673333333","25.22152","6502700","金山區"
"208003","665-BX","2018/04/28 19:29:43","新北市金山區中山路263巷10號","121.636343333333","25.221635","6502700","金山區"
"208001","761-BX","2018/04/28 19:29:40","新北市金山區金包里街77號","121.638196666667","25.2218983333333","6502700","金山區"
"251009","008-UM","2018/04/28 19:29:42","新北市淡水區大忠街5巷9號","121.443355","25.176555","6501000","淡水區"
"251007","010-UM","2018/04/28 19:29:34","新北市淡水區坪頂路49號","121.457783333333","25.162535","6501000","淡水區"
"251001","011-UM","2018/04/28 19:29:31","新北市淡水區民權路133號","121.45997","25.1366383333333","6501000","淡水區"
"251013","KEA-2871","2018/04/28 19:29:47","新北市淡水區頂田寮路276號","121.465485","25.2161133333333","6501000","淡水區"
"251014","180-VK","2018/04/28 19:29:29","新北市淡水區小中寮19-7號","121.484736666667","25.2296516666667","6501000","淡水區"
"251015","182-VK","2018/04/28 19:29:36","新北市淡水區北新路三段38巷5號","121.484528333333","25.1871016666667","6501000","淡水區"
"251010","413-VK","2018/04/28 19:29:39","新北市淡水區中正路二段150-6號","121.423538333333","25.1878966666667","6501000","淡水區"
"251012","441-VK","2018/04/28 19:29:37","新北市淡水區中山北路三段164號","121.445703333333","25.1966233333333","6501000","淡水區"
"251016","442-VK","2018/04/28 19:29:34","新北市淡水區下圭柔山119-51號","121.450685","25.20845","6501000","淡水區"
"251005","443-VK","2018/04/28 19:29:34","新北市淡水區水源街一段71巷12號","121.444303333333","25.1728933333333","6501000","淡水區"
"251006","561-UM","2018/04/28 19:29:49","新北市淡水區大義街25號","121.442716666667","25.17831","6501000","淡水區"
"251011","650-BX","2018/04/28 19:29:44","新北市淡水區中正東路二段161巷2弄1號","121.460826666667","25.14537","6501000","淡水區"
"251003","766-UM","2018/04/28 19:29:38","新北市淡水區中山北路二段383號","121.443985","25.1887683333333","6501000","淡水區"
"207003","550-UM","2018/04/28 19:29:44","新北市萬里區大鵬里萬里加投249號","121.644316666667","25.215575","6502800","萬里區"
"207004","225-TW","2018/04/28 19:29:29","新北市萬里區萬里里瑪鋉路121號","121.689015","25.1782033333333","6502800","萬里區"
"252002","178-VK","2018/04/28 19:29:35","新北市三芝區淡金路二段18-1號","121.502661666667","25.2595866666667","6502100","三芝區"
"252001","292-VK","2018/04/28 19:29:44","新北市三芝區長勤街63-5號","121.500066666667","25.2559883333333","6502100","三芝區"
"237004","KEA-2597","2018/04/28 19:29:42","新北市三峽區有木143號","121.438301666667","24.8524483333333","6500900","三峽區"
"237007","153-BY","2018/04/28 19:29:35","新北市三峽區二鬮路136巷18弄19號","121.358585","24.9082866666667","6500900","三峽區"
"237011","572-TV","2018/04/28 19:29:33","新北市三峽區隆恩街245號","121.357591666667","24.9410116666667","6500900","三峽區"
"237009","210-TH","2018/04/28 19:29:19","新北市三峽區民權街115號","121.369055","24.9323766666667","6500900","三峽區"
"237012","275-BY","2018/04/28 19:29:38","新北市三峽區民生街2-1號","121.376401666667","24.93692","6500900","三峽區"
"237008","302-VK","2018/04/28 19:29:36","新北市三峽區永安街140號","121.37417","24.9287716666667","6500900","三峽區"
"237014","433-BY","2018/04/28 19:29:38","新北市三峽區中山路61號","121.367441666667","24.9348533333333","6500900","三峽區"
"237006","5529-G3","2018/04/28 19:29:40","新北市三峽區中正路一段336巷15弄2號","121.369995","24.92495","6500900","三峽區"
"237005","AKY-6261","2018/04/28 19:29:45","新北市三峽區復興路367巷11號","121.363956666667","24.937795","6500900","三峽區"
"236070","105-UM","2018/04/28 19:29:31","新北市土城區裕民路185巷36弄8號","121.454428333333","24.984555","6501300","土城區"
"236079","166-UM","2018/04/28 19:29:33","新北市土城區中州路12巷28號","121.415383333333","24.9576633333333","6501300","土城區"
"236026","269-VK","2018/04/28 19:29:46","新北市土城區中央路二段61巷26號","121.443286666667","24.9786433333333","6501300","土城區"
"236021","401-BY","2018/04/28 19:29:30","新北市土城區峰廷街8號","121.468675","24.987785","6501300","土城區"
"236059","912-UM","2018/04/28 19:29:40","新北市土城區中央路二段183號","121.442056666667","24.9758083333333","6501300","土城區"
"236049","913-UM","2018/04/28 19:29:38","新北市土城區清水路209號","121.460393333333","24.9819233333333","6501300","土城區"
"236055","AAC-216","2018/04/28 19:29:33","新北市土城區學府路一段276號","121.44989","24.982985","6501300","土城區"
"242031","135-UY","2018/04/28 19:29:37","新北市新莊區新泰路225巷24號","121.445206666667","25.0391483333333","6500500","新莊區"
"242048","172-VK","2018/04/28 19:29:31","新北市新莊區後港一路13號","121.424186666667","25.026415","6500500","新莊區"
"242013","351-TH","2018/04/28 19:29:25","新北市新莊區新泰路500號","121.442381666667","25.0458766666667","6500500","新莊區"
"238023","601-UM","2018/04/28 19:29:45","新北市樹林區三福街25號","121.408625","25.016665","6500700","樹林區"
"238019","599-UM","2018/04/28 19:29:32","新北市樹林區東榮街31號","121.417658333333","24.983255","6500700","樹林區"
"238018","571-TV","2018/04/28 19:29:44","新北市樹林區八德街369號","121.416433333333","24.9716633333333","6500700","樹林區"
"238024","5061-A6","2018/04/28 19:29:44","新北市樹林區山佳街19號","121.393785","24.9727866666667","6500700","樹林區"
"238022","KEA-2213","2018/04/28 19:29:38","新北市樹林區太元街110巷2號","121.419481666667","24.9776233333333","6500700","樹林區"
"238021","KEA-2539","2018/04/28 19:29:38","新北市樹林區學士路120號","121.383733333333","24.9477283333333","6500700","樹林區"
"238025","303-VK","2018/04/28 19:29:41","新北市樹林區中山路一段125-1號","121.422763333333","24.9900283333333","6500700","樹林區"
"238017","283-BY","2018/04/28 19:29:46","新北市樹林區光華街2號","121.4136","25.0036916666667","6500700","樹林區"
"238014","282-BY","2018/04/28 19:29:46","新北市樹林區保安二街64巷5弄32號","121.42433","24.9968","6500700","樹林區"
"238020","268-VK","2018/04/28 19:29:47","新北市樹林區俊英街120號","121.427286666667","25.0055966666667","6500700","樹林區"
"238026","172-UY","2018/04/28 19:29:42","新北市樹林區佳園路二段15巷47號","121.395368333333","24.96346","6500700","樹林區"
"238016","169-UY","2018/04/28 19:29:44","新北市樹林區中山路二段214巷2-1號","121.410785","24.9822866666667","6500700","樹林區"
"239007","AAC-297","2018/04/28 19:29:29","新北市鶯歌區大湖路326巷42號","121.345848333333","24.9693816666667","6500800","鶯歌區"
"239001","417-VK","2018/04/28 19:29:42","新北市鶯歌區鶯桃路永新巷36號","121.338978333333","24.9518333333333","6500800","鶯歌區"
"239003","360-BY","2018/04/28 19:29:44","新北市鶯歌區中正一路113-1號","121.370271666667","24.9582333333333","6500800","鶯歌區"
"239002","359-BY","2018/04/28 19:29:28","新北市鶯歌區大湖路185巷22號","121.342646666667","24.9704816666667","6500800","鶯歌區"
"239004","292-BY","2018/04/28 19:29:38","新北市鶯歌區建國路512巷3號","121.340461666667","24.9510816666667","6500800","鶯歌區"
"239004","193-VK","2018/04/28 19:29:28","新北市鶯歌區二甲路65號","121.334783333333","24.9332733333333","6500800","鶯歌區"
"221008","489-VK","2018/04/28 19:29:42","新北市汐止區康寧街227號","121.623418333333","25.0667616666667","6501100","汐止區"
"221036","130-UY","2018/04/28 19:29:30","新北市汐止區康寧街901號","121.650813333333","25.0752733333333","6501100","汐止區"
"221015","131-UY","2018/04/28 19:29:39","新北市汐止區康寧街901號","121.65149","25.0749566666667","6501100","汐止區"
"221010","269-BY","2018/04/28 19:29:44","新北市汐止區連峰街1巷1號","121.646375","25.0760466666667","6501100","汐止區"
"221012","278-VK","2018/04/28 19:29:33","新北市汐止區大同路三段271號","121.673928333333","25.0755816666667","6501100","汐止區"
"221023","279-VK","2018/04/28 19:29:31","新北市汐止區康寧街680-1號","121.636475","25.0712616666667","6501100","汐止區"
"221032","280-BY","2018/04/28 19:29:47","新北市汐止區汐萬路一段256巷1號","121.651723333333","25.07485","6501100","汐止區"
"221027","281-BY","2018/04/28 19:29:31","新北市汐止區忠孝東路9號","121.658296666667","25.066025","6501100","汐止區"
"221029","298-VK","2018/04/28 19:29:45","新北市汐止區康寧街901號","121.651631666667","25.0749783333333","6501100","汐止區"
"221031","353-TW","2018/04/28 19:29:39","新北市汐止區康寧街901號","121.650803333333","25.07519","6501100","汐止區"
"221025","623-UM","2018/04/28 19:29:42","新北市汐止區新台五路二段2號","121.660065","25.0649366666667","6501100","汐止區"
"221038","646-BX","2018/04/28 19:29:44","新北市汐止區汐萬路一段160號","121.652595","25.0714516666667","6501100","汐止區"
"221033","647-BX","2018/04/28 19:29:40","新北市汐止區南勢街1巷1號","121.627056666667","25.0374466666667","6501100","汐止區"
"221002","707-TV","2018/04/28 19:29:46","新北市汐止區大同路一段337巷15弄2號","121.637538333333","25.0599233333333","6501100","汐止區"
"220079","145-BY","2018/04/28 19:29:30","新北市板橋區建國街27號","121.458085","25.0171433333333","6500100","板橋區"
"220080","200-UY","2018/04/28 19:29:39","新北市板橋區大觀路二段37巷182號","121.449713333333","25.002185","6500100","板橋區"
"242002","KEA-2550","2018/04/28 19:29:41","新北市新莊區三和路10號","121.44203","25.0358716666667","6500500","新莊區"
"220082","610-BX","2018/04/28 19:29:47","新北市板橋區金門街105號","121.433098333333","24.9922","6500100","板橋區"
"220101","245-BX","2018/04/28 19:29:36","新北市板橋區縣民大道三段133巷5號","121.477466666667","25.0234566666667","6500100","板橋區"
"220103","257-TC","2018/04/28 19:29:46","新北市板橋區文化路一段270巷3弄2號","121.467421666667","25.02088","6500100","板橋區"
"220056","276-BY","2018/04/28 19:29:31","新北市板橋區信義路1巷26弄36號","121.458658333333","24.9965466666667","6500100","板橋區"
"220072","277-BY","2018/04/28 19:29:33","新北市板橋區篤行路二段141巷28號","121.43058","24.9876866666667","6500100","板橋區"
"220094","283-UM","2018/04/28 19:29:39","新北市板橋區吳鳳路50巷39號","121.468703333333","25.0303233333333","6500100","板橋區"
"220071","283-VK","2018/04/28 19:29:41","新北市板橋區忠孝路2號","121.459553333333","25.0016216666667","6500100","板橋區"
"220053","285-VK","2018/04/28 19:29:44","新北市板橋區永豐街104號","121.476016666667","25.020575","6500100","板橋區"
"220083","286-VK","2018/04/28 19:29:45","新北市板橋區龍興街71巷35號","121.442358333333","25.0024566666667","6500100","板橋區"
"220081","287-VK","2018/04/28 19:29:43","新北市板橋區大觀路一段28巷1弄102號","121.451696666667","25.0063433333333","6500100","板橋區"
"220090","288-VK","2018/04/28 19:29:38","新北市板橋區裕民街49號","121.46129","25.02855","6500100","板橋區"
"220061","295-UM","2018/04/28 19:29:39","新北市板橋區成功路6巷15號","121.476033333333","25.01714","6500100","板橋區"
"220084","296-UM","2018/04/28 19:29:41","新北市板橋區篤行路三段24號","121.42863","24.9869483333333","6500100","板橋區"
"220075","303-R5","2018/04/28 19:29:44","新北市板橋區中正路253巷42號","121.454065","25.0177783333333","6500100","板橋區"
"220062","305-R5","2018/04/28 19:29:30","新北市板橋區三民路二段123巷29號","121.480526666667","25.015705","6500100","板橋區"
"220092","307-R5","2018/04/28 19:29:33","新北市板橋區光武街2巷23號","121.468501666667","25.02559","6500100","板橋區"
"220098","317-R6","2018/04/28 19:29:45","新北市板橋區四維路266巷5弄18號","121.46363","25.0291466666667","6500100","板橋區"
"220064","486-VK","2018/04/28 19:29:37","新北市板橋區中山路一段21-1號","121.46025","25.0084283333333","6500100","板橋區"
"220088","491-VK","2018/04/28 19:29:35","新北市板橋區雙十路二段45號","121.476538333333","25.0261016666667","6500100","板橋區"
"220035","560-BX","2018/04/28 19:29:37","新北市板橋區中正路387號","121.454315","25.02172","6500100","板橋區"
"220063","609-BX","2018/04/28 19:29:40","新北市板橋區林森街3巷1弄6號","121.482583333333","25.0235766666667","6500100","板橋區"
"220055","630-UY","2018/04/28 19:29:37","新北市板橋區重慶路290巷20號","121.462393333333","24.9987966666667","6500100","板橋區"
"220091","637-BX","2018/04/28 19:29:30","新北市板橋區文聖街149巷23弄16號","121.47927","25.0289433333333","6500100","板橋區"
"220057","686-BX","2018/04/28 19:29:45","新北市板橋區和平路188號","121.463665","24.9958583333333","6500100","板橋區"
"220077","687-BX","2018/04/28 19:29:36","新北市板橋區僑中二街116巷2號","121.445811666667","25.0065","6500100","板橋區"
"220093","689-BX","2018/04/28 19:29:32","新北市板橋區英士路49號","121.461056666667","25.02462","6500100","板橋區"
"220054","741-BX","2018/04/28 19:29:34","新北市板橋區忠孝路41-1號","121.4612","25.002035","6500100","板橋區"
"220102","KEA-2699","2018/04/28 19:29:37","新北市板橋區松柏街22巷34號","121.474966666667","25.0290316666667","6500100","板橋區"
"220067","829-TW","2018/04/28 19:29:46","新北市板橋區漢生東路338號","121.471946666667","25.0076116666667","6500100","板橋區"
"220096","830-TW","2018/04/28 19:29:33","新北市板橋區萬板路141號","121.473475","25.0235783333333","6500100","板橋區"
"220089","833-TW","2018/04/28 19:29:35","新北市板橋區民權路182號","121.45939","25.013545","6500100","板橋區"
"220074","895-R6","2018/04/28 19:29:43","新北市板橋區北門街17號","121.457008333333","25.0109083333333","6500100","板橋區"
"220073","985-R7","2018/04/28 19:29:38","新北市板橋區中正路208號","121.456078333333","25.018055","6500100","板橋區"
"220097","AAC-210","2018/04/28 19:29:45","新北市板橋區陽明街29巷45號","121.463083333333","25.02268","6500100","板橋區"
"220070","AAC-253","2018/04/28 19:29:33","新北市板橋區館前東路110-1號","121.46335","25.0076916666667","6500100","板橋區"
