"lineid","car","time","location","longitude","latitude","cityid","cityname"
"234007","207-UY","2018/04/28 20:19:45","新北市永和區保順路11號","121.504313333333","25.0097216666667","6500400","永和區"
"234081","298-R6","2018/04/28 20:19:29","新北市永和區國中路130號","121.523611666667","25.0069933333333","6500400","永和區"
"234038","336-UY","2018/04/28 20:19:46","新北市永和區成功路一段93巷11號","121.527591666667","25.0027616666667","6500400","永和區"
"234064","337-UY","2018/04/28 20:19:42","新北市永和區得和路104巷4號","121.517986666667","24.99984","6500400","永和區"
"234086","338-UY","2018/04/28 20:19:41","新北市永和區永和路二段174號","121.515415","25.013345","6500400","永和區"
"234070","552-UM","2018/04/28 20:19:31","新北市永和區永寧街113號","121.518141666667","25.0062116666667","6500400","永和區"
"234067","553-UM","2018/04/28 20:19:37","新北市永和區保平路268巷11號","121.50834","25.0054583333333","6500400","永和區"
"234017","745-BX","2018/04/28 20:19:33","新北市永和區仁愛路38號","121.514221666667","25.0134366666667","6500400","永和區"
"234030","746-BX","2018/04/28 20:19:34","新北市中和區自強路38巷3號","121.519913333333","24.995435","6500400","永和區"
"234054","KEA-2590","2018/04/28 20:19:50","新北市永和區光復街2巷26弄1號","121.517655","25.01658","6500400","永和區"
"234013","KEA-2591","2018/04/28 20:19:29","新北市永和區仁愛路282巷16號","121.503025","25.0088783333333","6500400","永和區"
"234061","AAD-866","2018/04/28 20:19:47","新北市永和區安樂路134號","121.514095","25.0002333333333","6500400","永和區"
"234042","862-TW","2018/04/28 20:19:39","新北市永和區中和路453號","121.510006666667","25.00156","6500400","永和區"
"234050","863-TW","2018/04/28 20:19:32","新北市永和區文化路224號","121.509941666667","25.01694","6500400","永和區"
"249005","172-UM","2018/04/28 20:19:33","新北市八里區下罟子2-17號","121.388391666667","25.1410983333333","6502300","八里區"
"249001","173-UM","2018/04/28 20:19:40","新北市八里區中華路二段466號","121.400836666667","25.146185","6502300","八里區"
"249004","303-UY","2018/04/28 20:19:41","新北市八里區中山路一段129巷20號","121.413653333333","25.1587833333333","6502300","八里區"
"249002","305-UY","2018/04/28 20:18:50","新北市八里區龍米路一段138巷6號","121.45327","25.1256316666667","6502300","八里區"
"249003","593-UM","2018/04/28 20:19:36","新北市八里區訊埔路20號","121.397523333333","25.14532","6502300","八里區"
"248016","026-BX","2018/04/28 20:19:37","新北市五股區天乙路34號","121.448448333333","25.1035083333333","6501500","五股區"
"248012","247-BX","2018/04/28 20:19:38","新北市五股區民義路一段208號","121.430631666667","25.0893183333333","6501500","五股區"
"248010","272-BY","2018/04/28 20:19:46","新北市五股區新五路二段24號","121.43787","25.065815","6501500","五股區"
"248004","677-BX","2018/04/28 20:19:43","新北市五股區中興路四段23號","121.438903333333","25.082645","6501500","五股區"
"248002","678-BX","2018/04/28 20:19:43","新北市五股區成泰路三段93號","121.443936666667","25.0902066666667","6501500","五股區"
"234023","9380-KE","2018/04/28 20:19:46","新北市永和區中正路688號","121.516546666667","25.0095416666667","6500400","永和區"
"234077","969-R7","2018/04/28 20:19:46","新北市永和區中正路106號","121.514466666667","24.9959283333333","6500400","永和區"
"234074","AAC-211","2018/04/28 20:19:37","新北市永和區豫溪街156號","121.522976666667","25.009775","6500400","永和區"
"234003","AAC-295","2018/04/28 20:19:39","新北市永和區自強街6巷1弄12號","121.514628333333","25.0079033333333","6500400","永和區"
"243012","AAD-798","2018/04/28 20:19:48","新北市泰山區楓江路67-5號","121.436675","25.06337","6501600","泰山區"
"243011","297-R6","2018/04/28 20:19:27","新北市泰山區壽山路134巷26號","121.418585","25.0313583333333","6501600","泰山區"
"243015","380-SR","2018/04/28 20:19:37","新北市泰山區泰林路二段128號","121.434451666667","25.0595183333333","6501600","泰山區"
"243014","421-VK","2018/04/28 20:19:38","新北市泰山區泰林路二段362號","121.428871666667","25.0636166666667","6501600","泰山區"
"243010","KEA-2215","2018/04/28 20:19:44","新北市泰山區明志路二段273巷2號","121.42703","25.0471966666667","6501600","泰山區"
"243009","KEA-2216","2018/04/28 20:19:47","新北市泰山區泰林路二段292巷5號","121.4313","25.0630633333333","6501600","泰山區"
"243013","646-TV","2018/04/28 20:19:35","新北市泰山區中央路5巷17弄1號","121.427205","25.0436916666667","6501600","泰山區"
"243016","680-BX","2018/04/28 20:19:42","新北市泰山區明志路三段217號","121.42385","25.0382366666667","6501600","泰山區"
"222003","436-BY","2018/04/28 20:19:48","新北市深坑區文化街74號","121.618176666667","25.001915","6501800","深坑區"
"222002","659-BX","2018/04/28 20:19:40","新北市深坑區萬福路75巷48號","121.598276666667","25.0099133333333","6501800","深坑區"
"231041","002-UM","2018/04/28 20:19:41","新北市新店區民權路43號","121.540223333333","24.982855","6500600","新店區"
"231040","047-UY","2018/04/28 20:19:23","新北市新店區中正路211號","121.539878333333","24.9726216666667","6500600","新店區"
"231044","106-UY","2018/04/28 20:19:36","新北市新店區北新路三段158號","121.541411666667","24.9829316666667","6500600","新店區"
"231052","108-UY","2018/04/28 20:19:39","新北市新店區松林路1號","121.547046666667","24.91219","6500600","新店區"
"231048","187-VK","2018/04/28 20:19:40","新北市新店區寶橋路97號","121.54722","24.9762283333333","6500600","新店區"
"231054","KEA-2219","2018/04/28 20:19:34","新北市新店區檳榔路109號","121.544415","24.96156","6500600","新店區"
"231057","256-BX","2018/04/28 20:19:34","新北市新店區花園十路二段7-6號","121.554106666667","24.934405","6500600","新店區"
"231042","268-BY","2018/04/28 20:19:43","新北市新店區中興路二段192號","121.548345","24.9736","6500600","新店區"
"231051","278-BY","2018/04/28 20:19:42","新北市新店區中央六街30號","121.529075","24.9750566666667","6500600","新店區"
"231050","AAD-862","2018/04/28 20:19:39","新北市新店區博愛街11巷2號","121.540956666667","24.973255","6500600","新店區"
"231059","355-BY","2018/04/28 20:19:31","新北市新店區安德街106號","121.509208333333","24.960905","6500600","新店區"
"231058","3713-VJ","2018/04/28 20:19:30","新北市新店區中正路397號","121.534451666667","24.977475","6500600","新店區"
"231066","4716-K9","2018/04/28 20:19:30","新北市新店區安民街345號","121.516836666667","24.9751316666667","6500600","新店區"
"231056","4715-K9","2018/04/28 20:19:37","新北市新店區中正路328巷2號","121.537136666667","24.9751416666667","6500600","新店區"
"231067","4772-VM","2018/04/28 20:19:41","新北市新店區安華路28-1號","121.51964","24.96092","6500600","新店區"
"231065","512-UM","2018/04/28 20:19:44","新北市新店區安祥路104-10號","121.479025","24.96208","6500600","新店區"
"231049","513-UM","2018/04/28 20:19:46","新北市新店區北新路二段21號","121.542801666667","24.971635","6500600","新店區"
"231063","616-UM","2018/04/28 20:19:43","新北市新店區薏仁坑路自強巷6號","121.496568333333","24.9584083333333","6500600","新店區"
"231045","617-UM","2018/04/28 20:19:31","新北市新店區新坡一街80-3號","121.547355","24.96422","6500600","新店區"
"231061","619-UM","2018/04/28 20:19:31","新北市新店區安興路33-1號","121.515798333333","24.9704383333333","6500600","新店區"
"231068","718-UY","2018/04/28 20:19:38","新北市新店區寶安街13號","121.542021666667","24.9817966666667","6500600","新店區"
"231064","719-UM","2018/04/28 20:19:33","新北市新店區安和路一段55號","121.517566666667","24.96612","6500600","新店區"
"231062","720-UM","2018/04/28 20:19:34","新北市新店區安康路三段180號","121.489266666667","24.9518433333333","6500600","新店區"
"231060","897-TW","2018/04/28 20:19:29","新北市新店區錦秀路11巷94弄2號","121.480185","24.9423433333333","6500600","新店區"
"231043","899-TW","2018/04/28 20:19:47","新北市新店區民族路66號","121.539415","24.9783466666667","6500600","新店區"
"231055","AKT-0513","2018/04/28 20:19:43","新北市新店區北新路一段86號","121.541498333333","24.9675383333333","6500600","新店區"
"241011","013-R5","2018/04/28 20:19:31","新北市三重區龍門路199號","121.499805","25.0733816666667","6500200","三重區"
"241008","059-VK","2018/04/28 20:19:33","新北市三重區永福街156號","121.480451666667","25.0745183333333","6500200","三重區"
"241009","060-VK","2018/04/28 20:19:33","新北市三重區三和路四段382巷2號","121.481941666667","25.0785883333333","6500200","三重區"
"241031","061-VK","2018/04/28 20:19:43","新北市三重區三寧街22號","121.489471666667","25.0598683333333","6500200","三重區"
"241015","062-VK","2018/04/28 20:19:46","新北市三重區重新路一段122號","121.500326666667","25.0630833333333","6500200","三重區"
"241017","063-VK","2018/04/28 20:19:37","新北市三重區自強路一段157號","121.49346","25.067125","6500200","三重區"
"241024","065-VK","2018/04/28 20:19:29","新北市三重區忠孝路三段15巷20號","121.480851666667","25.06758","6500200","三重區"
"241002","090-VK","2018/04/28 20:19:45","新北市三重區五華街26號","121.494718333333","25.0805566666667","6500200","三重區"
"241003","091-VK","2018/04/28 20:19:37","新北市三重區富華街85號","121.491876666667","25.0840083333333","6500200","三重區"
"241005","262-UM","2018/04/28 20:19:32","新北市三重區仁愛街508號","121.487945","25.0821216666667","6500200","三重區"
"241028","265-UM","2018/04/28 20:19:41","新北市三重區大同南路136號","121.496451666667","25.0580333333333","6500200","三重區"
"241016","266-UM","2018/04/28 20:19:40","新北市三重區大同北路97-3號","121.494335","25.0636983333333","6500200","三重區"
"241022","267-UM","2018/04/28 20:19:40","新北市三重區市前街14號","121.489136666667","25.0623783333333","6500200","三重區"
"241018","268-UM","2018/04/28 20:19:35","新北市三重區自強路一段157號","121.493448333333","25.0670883333333","6500200","三重區"
"241032","269-UM","2018/04/28 20:19:39","新北市三重區捷運路37巷18號","121.484241666667","25.0567933333333","6500200","三重區"
"241013","270-UM","2018/04/28 20:19:31","新北市三重區三和路三段167巷9號","121.492326666667","25.07419","6500200","三重區"
"241025","271-UM","2018/04/28 20:19:43","新北市三重區頂崁街210巷26號","121.476003333333","25.06796","6500200","三重區"
"241007","398-BY","2018/04/28 20:19:45","新北市三重區溪尾街108巷55號","121.487595","25.0782516666667","6500200","三重區"
"241035","462-BY","2018/04/28 20:19:31","新北市三重區文化北路18號","121.499383333333","25.0639616666667","6500200","三重區"
"241004","475-VK","2018/04/28 20:19:26","新北市三重區仁愛街390號","121.490895","25.0807916666667","6500200","三重區"
"241020","478-VK","2018/04/28 20:19:30","新北市三重區三和路四段2號","121.491773333333","25.0738466666667","6500200","三重區"
"241030","480-VK","2018/04/28 20:19:29","新北市三重區環河南路254巷53號","121.488071666667","25.0522783333333","6500200","三重區"
"241014","543-UM","2018/04/28 20:19:40","新北市三重區龍濱路149號","121.5027","25.0692166666667","6500200","三重區"
"241023","545-UM","2018/04/28 20:19:39","新北市三重區忠孝路三段99巷11號","121.480051666667","25.064605","6500200","三重區"
"241001","547-UM","2018/04/28 20:19:38","新北市三重區自強路四段31巷30號","121.490578333333","25.0771016666667","6500200","三重區"
"241019","KEA-2593","2018/04/28 20:19:32","新北市三重區忠孝路一段65號","121.490771666667","25.0720366666667","6500200","三重區"
"241026","887-TS","2018/04/28 20:19:33","新北市三重區中央南路49號","121.5014","25.06176","6500200","三重區"
"241012","941-UM","2018/04/28 20:19:35","新北市三重區河邊北街379-1號","121.501713333333","25.07644","6500200","三重區"
"241029","942-UM","2018/04/28 20:19:33","新北市三重區光明路108號","121.492645","25.0562566666667","6500200","三重區"
"235039","097-UM","2018/04/28 20:19:41","新北市中和區大勇街25巷2號","121.517138333333","24.9932483333333","6500300","中和區"
"235065","098-UM","2018/04/28 20:19:46","新北市中和區橋和路318號","121.49743","25.007015","6500300","中和區"
"235067","255-BX","2018/04/28 20:17:49","新北市五股區中直路13-7號","121.424443333333","25.1106","6500300","中和區"
"235068","377-QA","2018/04/28 20:19:39","新北市中和區勝利路35巷1弄3號","121.499076666667","25.00755","6500300","中和區"
"235050","4979-A6","2018/04/28 20:19:33","新北市中和區景平路464巷2弄1-4號","121.505865","24.9939966666667","6500300","中和區"
"235069","4980-A6","2018/04/28 20:19:29","新北市中和區板南路247-1號","121.496373333333","24.9946883333333","6500300","中和區"
"235066","911-UM","2018/04/28 20:19:41","新北市中和區南工路94巷1號","121.507226666667","25.0030633333333","6500300","中和區"
"235059","AAC-215","2018/04/28 20:19:36","新北市中和區圓通路417號","121.488793333333","24.9891583333333","6500300","中和區"
"220068","013-TV","2018/04/28 20:19:27","新北市板橋區文化路二段656號","121.479991666667","25.0377","6500100","板橋區"
"247024","893-R6","2018/04/28 20:19:29","新北市蘆洲區光榮路120巷8弄20號","121.464398333333","25.0878283333333","6501400","蘆洲區"
"247014","546-UM","2018/04/28 20:19:32","新北市蘆洲區中山二路137巷24號","121.472318333333","25.080975","6501400","蘆洲區"
"247022","500-BY","2018/04/28 20:19:41","新北市蘆洲區民族路455號","121.467333333333","25.08863","6501400","蘆洲區"
"247010","341-TH","2018/04/28 20:19:46","新北市蘆洲區信義路188巷23號","121.480133333333","25.0845916666667","6501400","蘆洲區"
"247012","339-TH","2018/04/28 20:19:38","新北市蘆洲區中興街38號","121.481335","25.0871883333333","6501400","蘆洲區"
"247004","337-TH","2018/04/28 20:19:42","新北市蘆洲區長安街222號","121.458215","25.0852866666667","6501400","蘆洲區"
"247006","336-TH","2018/04/28 20:19:47","新北市蘆洲區九芎街136號","121.465025","25.079","6501400","蘆洲區"
"247008","056-VK","2018/04/28 20:19:28","新北市蘆洲區集賢路227-2號","121.482256666667","25.08599","6501400","蘆洲區"
"247018","053-VK","2018/04/28 20:19:40","新北市蘆洲區民族路406號","121.474715","25.09164","6501400","蘆洲區"
"247016","007-UY","2018/04/28 20:19:29","新北市蘆洲區光華路186巷38號","121.46485","25.0833983333333","6501400","蘆洲區"
"247002","002-UY","2018/04/28 20:19:38","新北市蘆洲區長安街331巷40號","121.455683333333","25.0866616666667","6501400","蘆洲區"
"247020","001-UY","2018/04/28 20:19:47","新北市蘆洲區仁愛街37號","121.472253333333","25.092795","6501400","蘆洲區"
"222001","KEA-2212","2018/04/28 20:19:49","新北市深坑區北深路三段243巷12弄2號","121.599175","25.0041366666667","6501800","深坑區"
"251013","KEA-2871","2018/04/28 20:19:47","新北市淡水區相公山1-1號","121.474408333333","25.2066816666667","6501000","淡水區"
"251014","180-VK","2018/04/28 20:19:49","新北市淡水區石頭厝3號","121.458715","25.2355666666667","6501000","淡水區"
"251008","181-VK","2018/04/28 20:19:30","新北市淡水區淡海路180巷29號","121.421818333333","25.1845516666667","6501000","淡水區"
"251015","182-VK","2018/04/28 20:19:36","新北市淡水區淡金路三段401號","121.449021666667","25.2081366666667","6501000","淡水區"
"251010","413-VK","2018/04/28 20:19:39","新北市淡水區新民街一段134號","121.427498333333","25.1890033333333","6501000","淡水區"
"251012","441-VK","2018/04/28 20:19:37","新北市淡水區淡金路三段342號","121.449165","25.208735","6501000","淡水區"
"251016","442-VK","2018/04/28 20:19:34","新北市淡水區淡金路五段20號","121.453216666667","25.2324933333333","6501000","淡水區"
"251006","561-UM","2018/04/28 20:19:49","新北市淡水區淡金路一段571號","121.452783333333","25.1805633333333","6501000","淡水區"
"251003","766-UM","2018/04/28 20:19:38","新北市淡水區中山北路一段160號","121.444153333333","25.1783666666667","6501000","淡水區"
"207004","225-TW","2018/04/28 20:19:29","新北市萬里區北基里大仁路5號","121.682075","25.1752633333333","6502800","萬里區"
"252002","178-VK","2018/04/28 20:19:35","新北市三芝區中正路一段41號","121.503256666667","25.2582733333333","6502100","三芝區"
"252001","292-VK","2018/04/28 20:19:44","新北市三芝區中山路一段31號","121.500631666667","25.2580166666667","6502100","三芝區"
"237006","5529-G3","2018/04/28 20:19:40","新北市三峽區中正路二段81號","121.366526666667","24.917895","6500900","三峽區"
"236070","105-UM","2018/04/28 20:19:31","新北市土城區福安街70巷26號","121.418316666667","24.9652966666667","6501300","土城區"
"236030","253-BX","2018/04/28 20:19:40","新北市土城區學成路128巷13弄2號","121.449575","24.99015","6501300","土城區"
"236026","269-VK","2018/04/28 20:19:46","新北市土城區裕生路65號","121.447268333333","24.9850966666667","6501300","土城區"
"236014","270-VK","2018/04/28 20:19:29","新北市土城區廣明街90巷18號","121.45544","24.9944783333333","6501300","土城區"
"236059","912-UM","2018/04/28 20:19:40","新北市土城區大安路2號","121.43264","24.9656683333333","6501300","土城區"
"242034","AAC-296","2018/04/28 20:02:17","新北市新莊區建中街84號","121.447236666667","25.0367366666667","6500500","新莊區"
"242058","986-R7","2018/04/28 20:19:42","新北市新莊區龍安路266巷4號","121.421636666667","25.0190866666667","6500500","新莊區"
"242053","751-BX","2018/04/28 20:19:12","新北市新莊區民安西路261巷1號","121.426361666667","25.013135","6500500","新莊區"
"242025","705-TV","2018/04/28 20:19:43","新北市新莊區五工一路80巷1號","121.461676666667","25.0672633333333","6500500","新莊區"
"242027","615-BX","2018/04/28 20:19:37","新北市新莊區幸福路566號","121.454431666667","25.04937","6500500","新莊區"
"242029","612-BX","2018/04/28 20:19:45","新北市新莊區中華路二段201號","121.452431666667","25.0527333333333","6500500","新莊區"
"242042","566-BX","2018/04/28 20:19:46","新北市新莊區壽山路73號","121.40963","25.0326883333333","6500500","新莊區"
"242046","497-BY","2018/04/28 20:19:49","新北市新莊區中正路新生巷7弄2號","121.417258333333","25.0240783333333","6500500","新莊區"
"242056","440-UM","2018/04/28 20:19:36","新北市新莊區新莊路649巷7號","121.445088333333","25.03228","6500500","新莊區"
"242007","413-TV","2018/04/28 20:19:29","新北市新莊區福壽街112巷24號","121.459175","25.0506066666667","6500500","新莊區"
"242044","400-BY","2018/04/28 20:19:44","新北市新莊區中正路新建巷28弄85號","121.413506666667","25.021425","6500500","新莊區"
"242023","362-BY","2018/04/28 20:19:40","新北市新莊區化成路858號","121.464696666667","25.0606716666667","6500500","新莊區"
"242061","353-BY","2018/04/28 20:19:31","新北市新莊區新樹路172號","121.43466","25.021745","6500500","新莊區"
"242009","132-UY","2018/04/28 20:19:39","新北市新莊區昌隆街58巷1弄2號","121.454873333333","25.0505816666667","6500500","新莊區"
"242039","133-UY","2018/04/28 20:19:37","新北市新莊區成功街89號","121.424481666667","25.0190116666667","6500500","新莊區"
"242031","135-UY","2018/04/28 20:19:37","新北市新莊區義豐街29號","121.44114","25.0352066666667","6500500","新莊區"
"242048","172-VK","2018/04/28 20:19:31","新北市新莊區龍安路275號","121.420433333333","25.019965","6500500","新莊區"
"242011","173-VK","2018/04/28 20:19:14","新北市新莊區中信街16號","121.451048333333","25.0509216666667","6500500","新莊區"
"242017","175-VK","2018/04/28 20:19:44","新北市新莊區中港一街90號","121.449351666667","25.04535","6500500","新莊區"
"242004","176-VK","2018/04/28 20:19:33","新北市新莊區化成路746巷50號","121.467005","25.058215","6500500","新莊區"
"242015","346-TH","2018/04/28 20:19:35","新北市新莊區永樂街237巷2號","121.446333333333","25.0443666666667","6500500","新莊區"
"242021","348-TH","2018/04/28 20:19:36","新北市新莊區復興路一段13號","121.445826666667","25.0416183333333","6500500","新莊區"
"242036","349-TH","2018/04/28 20:19:44","新北市新莊區後港一路56巷24弄9號","121.426286666667","25.0252016666667","6500500","新莊區"
"242013","351-TH","2018/04/28 20:19:45","新北市新莊區中和街186巷1號","121.447556666667","25.0498316666667","6500500","新莊區"
"239002","359-BY","2018/04/28 20:19:48","新北市鶯歌區二甲路13號","121.344115","24.9352133333333","6500800","鶯歌區"
"239004","292-BY","2018/04/28 20:19:38","新北市鶯歌區環河路60-1號","121.35117","24.944215","6500800","鶯歌區"
"221008","489-VK","2018/04/28 20:19:42","新北市汐止區康寧街397號","121.629401666667","25.06787","6501100","汐止區"
"221036","130-UY","2018/04/28 20:19:47","新北市汐止區福安街57巷1號","121.663661666667","25.063875","6501100","汐止區"
"221015","131-UY","2018/04/28 20:19:38","新北市汐止區建成路142巷19弄1號","121.662221666667","25.0738383333333","6501100","汐止區"
"221010","269-BY","2018/04/28 20:19:44","新北市汐止區八連路二段610巷11號","121.627335","25.1089983333333","6501100","汐止區"
"221012","278-VK","2018/04/28 20:19:33","新北市汐止區保新街155號","121.688366666667","25.069305","6501100","汐止區"
"221023","279-VK","2018/04/28 20:19:44","新北市汐止區湖前街110巷2弄16號","121.63207","25.0718266666667","6501100","汐止區"
"221032","280-BY","2018/04/28 20:19:47","新北市汐止區弘道街53巷2號","121.618638333333","25.0484533333333","6501100","汐止區"
"221027","281-BY","2018/04/28 20:19:46","新北市汐止區水源路一段4號","121.657083333333","25.0669983333333","6501100","汐止區"
"221029","298-VK","2018/04/28 19:55:46","新北市汐止區樟樹一路139巷22號","121.641256666667","25.066185","6501100","汐止區"
"221021","299-VK","2018/04/28 20:19:28","新北市汐止區水源路一段284號","121.654295","25.0583333333333","6501100","汐止區"
"221031","353-TW","2018/04/28 20:19:39","新北市汐止區中興路150巷15-1號","121.633063333333","25.06513","6501100","汐止區"
"221035","622-UM","2018/04/28 20:19:37","新北市汐止區長江街101-5號","121.658708333333","25.0731916666667","6501100","汐止區"
"221025","623-UM","2018/04/28 20:19:41","新北市汐止區水源路二段30號","121.654786666667","25.0572816666667","6501100","汐止區"
"221038","646-BX","2018/04/28 20:19:44","新北市汐止區忠孝東路478號","121.66627","25.0736366666667","6501100","汐止區"
"221033","647-BX","2018/04/28 20:19:39","新北市汐止區東勢街60號","121.632188333333","25.040065","6501100","汐止區"
"221018","753-BX","2018/04/28 20:19:41","新北市汐止區茄苳路277號","121.672308333333","25.06798","6501100","汐止區"
"242002","KEA-2550","2018/04/28 20:19:41","新北市新莊區中正路28號","121.465055","25.0417933333333","6500500","新莊區"
"220101","245-BX","2018/04/28 20:19:36","新北市板橋區文化路二段126號","121.47016","25.0262866666667","6500100","板橋區"
"220103","257-TC","2018/04/28 20:19:45","新北市板橋區新海路97號","121.461431666667","25.0223583333333","6500100","板橋區"
"220083","286-VK","2018/04/28 20:19:45","新北市板橋區僑中二街104巷36號","121.444643333333","25.0082066666667","6500100","板橋區"
"220081","287-VK","2018/04/28 20:19:43","新北市板橋區僑中一街102巷1弄1號","121.446648333333","25.0120183333333","6500100","板橋區"
"220061","295-UM","2018/04/28 20:19:39","新北市板橋區四川路一段286巷17號","121.457853333333","25.0011716666667","6500100","板橋區"
"242051","281-VK","2018/04/28 20:19:42","新北市新莊區民安西路228號","121.42589","25.0144333333333","6500500","新莊區"
"242019","280-VK","2018/04/28 20:19:29","新北市新莊區復興路二段94號","121.456031666667","25.0442316666667","6500500","新莊區"
"220055","630-UY","2018/04/28 20:19:37","新北市板橋區仁愛路23號","121.458945","24.9994216666667","6500100","板橋區"
"220102","KEA-2699","2018/04/28 20:19:37","新北市板橋區漢生東路53巷2號","121.465836666667","25.016575","6500100","板橋區"
"220089","833-TW","2018/04/28 20:19:35","新北市板橋區四維路137巷17號","121.46434","25.0249433333333","6500100","板橋區"
"220097","AAC-210","2018/04/28 20:19:47","新北市板橋區公館街132號","121.461298333333","25.0183316666667","6500100","板橋區"
"220070","AAC-253","2018/04/28 20:19:33","新北市板橋區大觀路三段8-1號","121.43455","24.9956683333333","6500100","板橋區"
