"lineid","car","time","location","longitude","latitude","cityid","cityname"
"248004","653-BX","2018/11/08 09:19:05","新北市五股區自強路90巷26號","121.431873333333","25.0722033333333","6501500","五股區"
"244022","069-UM","2018/11/08 09:19:20","新北市林口區仁愛路二段8號","121.385913333333","25.076335","6501700","林口區"
"244006","080-UY","2018/11/08 09:19:18","新北市林口區後湖13-1號","121.38791","25.098055","6501700","林口區"
"244003","248-BX","2018/11/08 09:19:04","新北市林口區嘉寶里32-1號","121.35901","25.0980383333333","6501700","林口區"
"244018","403-UM","2018/11/08 09:19:15","新北市林口區忠孝路559號","121.372796666667","25.0683016666667","6501700","林口區"
"244012","KEA-2802","2018/11/08 09:19:14","新北市林口區麗園一街11巷3號","121.377361666667","25.0703783333333","6501700","林口區"
"244016","485-VK","2018/11/08 09:19:12","新北市林口區文化二路一段70號","121.365875","25.069205","6501700","林口區"
"244008","656-BX","2018/11/08 09:19:03","新北市林口區寶林路123號","121.382961666667","25.085425","6501700","林口區"
"244010","701-TV","2018/11/08 09:19:08","新北市林口區粉寮路一段17號","121.396373333333","25.076595","6501700","林口區"
"244024","837-TS","2018/11/08 09:19:03","新北市林口區文化三路一段555巷66號","121.36885","25.0761383333333","6501700","林口區"
"222006","289-BY","2018/11/08 09:18:58","新北市深坑區北深路一段140號","121.634473333333","25.0106983333333","6501800","深坑區"
"231069","189-VK","2018/11/08 09:19:09","新北市新店區新潭路三段215巷25號","121.508111666667","24.9041016666667","6500600","新店區"
"231008","719-UY","2018/11/08 09:19:05","新北市新店區平廣路一段63號","121.53241","24.8994633333333","6500600","新店區"
"226003","AGD-0702","2018/11/08 09:18:24","新北市平溪區嶺腳里嶺腳寮112號","121.744845","25.0335716666667","6502400","平溪區"
"223006","022-BY","2018/11/08 09:19:16","新北市石碇區石碇東街103號","121.65956","24.9904033333333","6501900","石碇區"
"223002","KEA-2673","2018/11/08 09:12:44","新北市石碇區大格門3號","121.669056666667","24.9568166666667","6501900","石碇區"
"223008","406-TH","2018/11/08 09:18:23","新北市石碇區光明路耳空龜巷12-1號","121.692716666667","25.0325133333333","6501900","石碇區"
"223004","437-BY","2018/11/08 09:19:19","新北市石碇區碇坪路二段25號","121.683575","24.9760466666667","6501900","石碇區"
"223001","592-UM","2018/11/08 09:19:08","新北市石碇區北宜路五段火燒樟巷8號","121.624821666667","24.95636","6501900","石碇區"
"223007","661-BX","2018/11/08 09:16:30","新北市石碇區光明路18-2號","121.691685","25.0372433333333","6501900","石碇區"
"223005","677-TV","2018/11/08 09:19:12","新北市石碇區大崙2-1號","121.68726","24.9766116666667","6501900","石碇區"
"252004","249-BX","2018/11/08 09:19:17","新北市三芝區興華里田心子7-2號","121.499186666667","25.2039633333333","6502100","三芝區"
"252007","AAC-283","2018/11/08 09:19:13","新北市三芝區埔坪里埔頭坑41號","121.504491666667","25.2646783333333","6502100","三芝區"
"237001","159-UY","2018/11/08 09:19:11","新北市三峽區大義路398號","121.375745","24.949495","6500900","三峽區"
"242035","AAC-296","2018/11/08 09:19:16","新北市新莊區建安街85號","121.427308333333","25.02462","6500500","新莊區"
"242057","986-R7","2018/11/08 09:19:21","新北市新莊區八德街135號","121.423908333333","25.0202616666667","6500500","新莊區"
"242055","751-BX","2018/11/08 09:18:58","新北市新莊區豐年街24號","121.44622","25.0323983333333","6500500","新莊區"
"242026","615-BX","2018/11/08 09:19:16","新北市新莊區思源路63號","121.45996","25.0403833333333","6500500","新莊區"
"242024","613-BX","2018/11/08 09:19:10","新北市新莊區化成路579巷2號","121.463998333333","25.0661383333333","6500500","新莊區"
"242028","612-BX","2018/11/08 09:19:09","新北市新莊區幸福路599號","121.453361666667","25.049255","6500500","新莊區"
"242043","566-BX","2018/11/08 09:19:08","新北市新莊區中正路929巷23號","121.411145","25.0200633333333","6500500","新莊區"
"242047","497-BY","2018/11/08 09:19:07","新北市新莊區龍安路218號","121.420131666667","25.019785","6500500","新莊區"
"242038","442-UM","2018/11/08 09:19:18","新北市新莊區瓊林路63-2號","121.438226666667","25.0209466666667","6500500","新莊區"
"242052","441-UM","2018/11/08 09:19:19","新北市新莊區西盛街325號","121.428103333333","25.0147133333333","6500500","新莊區"
"242022","362-BY","2018/11/08 09:19:21","新北市新莊區化成路213-2號","121.466076666667","25.051825","6500500","新莊區"
"242059","353-BY","2018/11/08 09:19:10","新北市新莊區瓊泰路51巷10號","121.443185","25.0280866666667","6500500","新莊區"
"242010","132-UY","2018/11/08 09:19:08","新北市新莊區中信街37巷2弄2號","121.450251666667","25.0505366666667","6500500","新莊區"
"242040","133-UY","2018/11/08 09:19:21","新北市新莊區壽山路49-7號","121.414046666667","25.0311983333333","6500500","新莊區"
"242033","135-UY","2018/11/08 09:19:06","新北市新莊區新泰路119號","121.448366666667","25.036005","6500500","新莊區"
"242049","172-VK","2018/11/08 09:19:09","新北市新莊區民安東路41號","121.429118333333","25.0208933333333","6500500","新莊區"
"242045","347-TH","2018/11/08 09:19:18","新北市新莊區中正路新生巷12號","121.416766666667","25.0238566666667","6500500","新莊區"
"242030","348-TH","2018/11/08 09:19:05","新北市新莊區中正路449號","121.443121666667","25.0341216666667","6500500","新莊區"
"242003","349-TH","2018/11/08 09:19:07","新北市新莊區化成路554巷45號","121.467611666667","25.0541883333333","6500500","新莊區"
"242020","350-TH","2018/11/08 09:19:21","新北市新莊區公園路28號","121.448601666667","25.03917","6500500","新莊區"
"242001","281-VK","2018/11/08 09:19:10","新北市新莊區中正路76號","121.458586666667","25.0378933333333","6500500","新莊區"
"242014","280-VK","2018/11/08 09:19:16","新北市新莊區中港一街153號","121.447551666667","25.0451016666667","6500500","新莊區"
