"lineid","car","time","location","longitude","latitude","cityid","cityname"
"248004","653-BX","2018/11/08 10:29:05","新北市五股區中興路三段2巷10號","121.449196666667","25.0809483333333","6501500","五股區"
"248011","655-BX","2018/11/08 10:29:07","新北市五股區中興路二段37巷26號","121.460436666667","25.0749433333333","6501500","五股區"
"244022","069-UM","2018/11/08 10:29:20","新北市林口區文化北路二段234號","121.37298","25.08555","6501700","林口區"
"244018","403-UM","2018/11/08 10:29:15","新北市林口區瑞樹坑60-2號","121.34709","25.1279883333333","6501700","林口區"
"222006","289-BY","2018/11/08 10:29:18","新北市深坑區王軍寮13號","121.6213","24.9848583333333","6501800","深坑區"
"231069","189-VK","2018/11/08 10:29:09","新北市新店區新潭路三段215巷25號","121.508128333333","24.90409","6500600","新店區"
"231008","719-UY","2018/11/08 10:29:05","新北市新店區松林路85號","121.548556666667","24.9093566666667","6500600","新店區"
"252007","AAC-283","2018/11/08 10:29:13","新北市三芝區新庄里番社后3-1號","121.501898333333","25.2672866666667","6502100","三芝區"
