"lineid","car","time","location","longitude","latitude","cityid","cityname"
"234044","148-BY","2018/11/08 12:29:07","新北市永和區福和路1號","121.52634","25.009965","6500400","永和區"
"234084","338-UY","2018/11/08 12:29:22","新北市永和區福和路1號","121.526381666667","25.00988","6500400","永和區"
"234068","553-UM","2018/11/08 12:29:20","新北市永和區福和路1號","121.525613333333","25.0095733333333","6500400","永和區"
"234015","745-BX","2018/11/08 12:29:22","新北市永和區福和路1號","121.526373333333","25.0094566666667","6500400","永和區"
"234012","KEA-2591","2018/11/08 12:29:21","新北市永和區環河東路一段108號","121.52036","25.016025","6500400","永和區"
"234025","9371-KE","2018/11/08 12:29:12","新北市永和區福和路1號","121.526841666667","25.010135","6500400","永和區"
"243001","297-R6","2018/11/08 12:12:03","新北市泰山區黎明路25號","121.422176666667","25.06114","6501600","泰山區"
"243008","KEA-2801","2018/11/08 12:10:54","新北市泰山區黎明路25號","121.42225","25.060675","6501600","泰山區"
"243004","646-TV","2018/11/08 12:29:23","新北市泰山區黎明路25號","121.422083333333","25.0607883333333","6501600","泰山區"
"235029","098-UM","2018/11/08 12:29:20","新北市中和區員山路36巷16-3號","121.485113333333","24.9912016666667","6500300","中和區"
"235018","640-BX","2018/11/08 12:29:14","新北市中和區員山路36巷16-3號","121.484925","24.9917333333333","6500300","中和區"
"223003","205-TH","2018/11/08 12:29:08","新北市石碇區碇坪路一段2號","121.651616666667","25.0061133333333","6501900","石碇區"
"228005","097-TW","2018/11/08 12:29:17","新北市貢寮區福連里蓬萊街16號","121.98562","24.9965616666667","6502600","貢寮區"
"228004","212-TW","2018/11/08 12:29:24","新北市貢寮區龍崗里嵩陽街33號","121.90399","25.017825","6502600","貢寮區"
"207001","662-BX","2018/11/08 12:29:18","新北市萬里區萬里里獅頭路15-1號","121.697425","25.1800033333333","6502800","萬里區"
"221008","489-VK","2018/11/08 12:29:22","新北市汐止區康寧街901號","121.651386666667","25.07512","6501100","汐止區"
