"lineid","car","time","location","longitude","latitude","cityid","cityname"
"234044","148-BY","2018/11/08 13:29:07","新北市永和區成功路二段6號","121.526503333333","25.00106","6500400","永和區"
"234005","207-UY","2018/11/08 13:25:24","新北市永和區中山路一段238號","121.507396666667","25.0078316666667","6500400","永和區"
"234078","298-R6","2018/11/08 13:29:09","新北市永和區林森路2號","121.526755","25.0057916666667","6500400","永和區"
"234036","336-UY","2018/11/08 13:29:20","新北市永和區民樂街33巷1號","121.527615","25.0012883333333","6500400","永和區"
"234062","337-UY","2018/11/08 13:29:09","新北市永和區得和路243巷16號","121.520613333333","25.00079","6500400","永和區"
"234084","338-UY","2018/11/08 13:29:22","新北市永和區林森路136號","121.52203","25.0029933333333","6500400","永和區"
"234068","553-UM","2018/11/08 13:29:20","新北市永和區竹林路198號","121.520255","25.0095966666667","6500400","永和區"
"234015","745-BX","2018/11/08 13:29:22","新北市永和區環河西路一段1號","121.515258333333","25.01802","6500400","永和區"
"234028","746-BX","2018/11/08 13:29:14","新北市永和區厚德街22號","121.525578333333","24.9985966666667","6500400","永和區"
"234052","KEA-2590","2018/11/08 13:29:15","新北市永和區復興街27號","121.51625","25.013145","6500400","永和區"
"234012","KEA-2591","2018/11/08 13:29:20","新北市永和區信義路8巷1號","121.514555","25.0122","6500400","永和區"
"234060","AAD-866","2018/11/08 13:29:20","新北市永和區中正路419號","121.517126666667","25.0050183333333","6500400","永和區"
"234040","862-TW","2018/11/08 13:29:08","新北市永和區中和路519巷4號","121.51095","25.0029766666667","6500400","永和區"
"234048","863-TW","2018/11/08 13:29:19","新北市永和區信義路118號","121.512406666667","25.0145666666667","6500400","永和區"
"234025","9371-KE","2018/11/08 13:29:11","新北市永和區和平街14號","121.513933333333","25.00993","6500400","永和區"
"234010","9373-KE","2018/11/08 13:29:17","新北市永和區仁愛路141巷30弄1號","121.51169","25.0116633333333","6500400","永和區"
"248015","026-BX","2018/11/08 13:29:17","新北市五股區凌雲路一段133巷13號","121.449303333333","25.10162","6501500","五股區"
"248005","077-UY","2018/11/08 13:29:17","新北市五股區四維路25號","121.467135","25.0706233333333","6501500","五股區"
"248007","095-VK","2018/11/08 13:29:25","新北市五股區四維路185巷46號","121.463361666667","25.0776783333333","6501500","五股區"
"248017","225-UY","2018/11/08 13:28:51","新北市五股區御史路285號","121.420215","25.10648","6501500","五股區"
"248009","272-BY","2018/11/08 13:29:21","新北市五股區水碓路12號","121.433845","25.0723266666667","6501500","五股區"
"248011","655-BX","2018/11/08 13:29:16","新北市五股區御成路2號","121.44196","25.0908316666667","6501500","五股區"
"248003","677-BX","2018/11/08 13:29:12","新北市五股區工商路140-2號","121.434131666667","25.0870433333333","6501500","五股區"
"248001","678-BX","2018/11/08 13:29:19","新北市五股區西雲路163號","121.446185","25.0944866666667","6501500","五股區"
"234022","9380-KE","2018/11/08 13:29:16","新北市永和區環河東路二段90號","121.52401","25.0106133333333","6500400","永和區"
"234076","969-R7","2018/11/08 13:29:08","新北市永和區民有街21巷9弄2號","121.517436666667","24.9977733333333","6500400","永和區"
"234072","AAC-211","2018/11/08 13:29:07","新北市永和區永和路二段100-1號","121.515043333333","25.0118283333333","6500400","永和區"
"234066","AAC-212","2018/11/08 13:29:25","新北市永和區保平路182號","121.510613333333","25.0065766666667","6500400","永和區"
"234001","AAC-295","2018/11/08 13:29:15","新北市永和區永和路一段136號","121.51402","25.00798","6500400","永和區"
"244003","248-BX","2018/11/08 13:29:22","新北市林口區瑞平里60-2號","121.337331666667","25.1239866666667","6501700","林口區"
"243005","AAD-798","2018/11/08 13:26:19","新北市泰山區明志路三段206巷3號","121.42328","25.0379583333333","6501600","泰山區"
"243008","KEA-2801","2018/11/08 13:29:06","新北市泰山區犁頭窠3-1號","121.422153333333","25.06043","6501600","泰山區"
"243004","646-TV","2018/11/08 13:29:10","新北市泰山區黎明路25號","121.421823333333","25.06074","6501600","泰山區"
"231002","002-UM","2018/11/08 13:29:08","新北市新店區環河路62號","121.537131666667","24.9626633333333","6500600","新店區"
"231037","0291-UT","2018/11/08 13:29:22","新北市新店區安豐路48號","121.500556666667","24.954245","6500600","新店區"
"231027","0293-UT","2018/11/08 13:29:23","新北市新店區環河路19巷36號","121.53759","24.960065","6500600","新店區"
"231028","046-UY","2018/11/08 13:29:23","新北市新店區安華路28-1號","121.51968","24.9609533333333","6500600","新店區"
"231001","047-UY","2018/11/08 13:29:14","新北市新店區環河路116號","121.53711","24.9669616666667","6500600","新店區"
"231005","106-UY","2018/11/08 13:29:23","新北市新店區北新路一段89號","121.538451666667","24.9616316666667","6500600","新店區"
"231021","108-UY","2018/11/08 13:29:19","新北市新店區永興路41號","121.543626666667","24.9378683333333","6500600","新店區"
"231010","110-UY","2018/11/08 13:29:08","新北市新店區中央路143號","121.530213333333","24.97354","6500600","新店區"
"231011","187-VK","2018/11/08 13:29:13","新北市新店區環河路1-5號","121.538263333333","24.96164","6500600","新店區"
"231031","188-VK","2018/11/08 13:29:27","新北市新店區安豐路48號","121.500475","24.9541883333333","6500600","新店區"
"231023","KEA-2219","2018/11/08 13:29:18","新北市新店區新店路13號","121.540328333333","24.9528383333333","6500600","新店區"
"231026","256-BX","2018/11/08 13:29:22","新北市新店區北新路一段51號","121.538198333333","24.959525","6500600","新店區"
"231003","268-BY","2018/11/08 13:29:11","新北市新店區安康路一段128號","121.526806666667","24.96281","6500600","新店區"
"231018","278-BY","2018/11/08 13:29:07","新北市新店區中央路238號","121.529208333333","24.9723183333333","6500600","新店區"
"231017","AAD-862","2018/11/08 13:29:12","新北市新店區北宜路二段30巷5弄20號","121.548651666667","24.9507333333333","6500600","新店區"
"231029","355-BY","2018/11/08 13:29:07","新北市新店區安忠路57巷13號","121.513321666667","24.95742","6500600","新店區"
"231038","3712-VJ","2018/11/08 13:29:21","新北市新店區安華路28-1號","121.5193","24.9606866666667","6500600","新店區"
"231025","4715-K9","2018/11/08 13:29:14","新北市新店區中央六街56號","121.527975","24.975735","6500600","新店區"
"231036","512-UM","2018/11/08 13:29:08","新北市新店區安祥路109巷151弄6號","121.47868","24.957695","6500600","新店區"
"231013","513-UM","2018/11/08 13:29:12","新北市新店區中央路216號","121.52998","24.9733233333333","6500600","新店區"
"231006","617-UM","2018/11/08 13:29:23","新北市新店區安一路一段1-1號","121.519801666667","24.962035","6500600","新店區"
"231030","619-UM","2018/11/08 13:29:23","新北市新店區安華路1-1號","121.519558333333","24.9599183333333","6500600","新店區"
"231034","641-BX","2018/11/08 13:29:08","新北市新店區安忠路205巷8號","121.509801666667","24.9552166666667","6500600","新店區"
"231035","719-UM","2018/11/08 13:29:13","新北市新店區安一路一段1-1號","121.519603333333","24.961445","6500600","新店區"
"231004","899-TW","2018/11/08 13:29:06","新北市新店區安康路一段355號","121.52013","24.963695","6500600","新店區"
"231024","AKT-0513","2018/11/08 13:29:15","新北市新店區北新路二段29巷1弄8號","121.54206","24.97228","6500600","新店區"
"235030","003-UY","2018/11/08 13:29:22","新北市中和區中山路二段120號","121.502741666667","25.0037133333333","6500300","中和區"
"235028","005-UY","2018/11/08 13:29:25","新北市中和區連城路97號","121.496506666667","24.99985","6500300","中和區"
"235027","006-UY","2018/11/08 13:29:17","新北市中和區連城路347巷1弄1號","121.488231666667","24.9958316666667","6500300","中和區"
"235020","096-UM","2018/11/08 13:29:23","新北市中和區中正路869號","121.484698333333","25.00388","6500300","中和區"
"235003","097-UM","2018/11/08 13:29:10","新北市中和區大勇街25巷2號","121.517205","24.9932433333333","6500300","中和區"
"235029","098-UM","2018/11/08 13:29:20","新北市中和區莊敬路49巷20弄22號","121.50275","25.0058416666667","6500300","中和區"
"235022","151-BY","2018/11/08 13:29:21","新北市中和區圓通路369巷165號","121.490106666667","24.982055","6500300","中和區"
"235019","183-VK","2018/11/08 13:29:23","新北市中和區莒光路90號","121.472396666667","25.0025733333333","6500300","中和區"
"235002","185-VK","2018/11/08 13:29:21","新北市中和區自立路141巷20號","121.523285","24.99346","6500300","中和區"
"235013","186-VK","2018/11/08 13:29:11","新北市中和區景安路179號","121.505118333333","24.9940016666667","6500300","中和區"
"235031","255-BX","2018/11/08 13:29:14","新北市中和區員山路148巷39-4號","121.482533333333","24.9971333333333","6500300","中和區"
"235036","301-VK","2018/11/08 13:29:13","新北市中和區中正路589巷15號","121.485638333333","24.9935883333333","6500300","中和區"
"235007","352-BY","2018/11/08 13:29:23","新北市中和區景平路279-5號","121.507513333333","24.9931483333333","6500300","中和區"
"235014","4979-A6","2018/11/08 13:29:19","新北市中和區景新街362巷5號","121.511986666667","24.990105","6500300","中和區"
"235033","4980-A6","2018/11/08 13:29:13","新北市中和區連城路127巷19-10號","121.496816666667","24.9981116666667","6500300","中和區"
"235006","551-UM","2018/11/08 13:29:05","新北市中和區自立路56巷19號","121.522596666667","24.9916066666667","6500300","中和區"
"235034","558-UM","2018/11/08 13:29:10","新北市中和區南華路30號","121.5034","24.9961416666667","6500300","中和區"
"235009","565-BX","2018/11/08 13:29:16","新北市中和區南山路236巷36弄8號","121.504178333333","24.9884883333333","6500300","中和區"
"235018","640-BX","2018/11/08 13:29:14","新北市中和區民享街112號","121.474648333333","24.99924","6500300","中和區"
"235024","647-TV","2018/11/08 13:29:11","新北市中和區員山路407號","121.48098","25.0031216666667","6500300","中和區"
"235011","732-UM","2018/11/08 13:29:21","新北市中和區南山路272號","121.507941666667","24.9879566666667","6500300","中和區"
"235035","783-BX","2018/11/08 13:29:25","新北市中和區中板路26號","121.483323333333","25.0120733333333","6500300","中和區"
"235026","800-TS","2018/11/08 13:29:16","新北市中和區景平路752號","121.496535","25.0044966666667","6500300","中和區"
"235021","801-TS","2018/11/08 13:29:13","新北市中和區民安街42巷12號","121.4798","25.0007283333333","6500300","中和區"
"235016","805-TS","2018/11/08 13:29:23","新北市中和區興南路二段94號","121.505226666667","24.98427","6500300","中和區"
"235012","896-TW","2018/11/08 13:29:14","新北市中和區中正路527號","121.487693333333","24.9935566666667","6500300","中和區"
"235017","900-TW","2018/11/08 13:29:09","新北市中和區民享街457號","121.470443333333","24.9931716666667","6500300","中和區"
"235015","157-BY","2018/11/08 13:29:11","新北市中和區興南路二段142巷18-4號","121.502801666667","24.984285","6500300","中和區"
"235001","AAC-213","2018/11/08 13:29:13","新北市中和區景德街95-1號","121.5155","24.99114","6500300","中和區"
"235023","AAC-215","2018/11/08 13:29:20","新北市中和區員山路36巷16-3號","121.485023333333","24.9913016666667","6500300","中和區"
"220013","072-UY","2018/11/08 13:29:22","新北市板橋區中山路一段143號","121.464603333333","25.0117583333333","6500100","板橋區"
"220017","AAD-861","2018/11/08 13:29:11","新北市板橋區華東街1-10號","121.44837","24.995135","6500100","板橋區"
"247015","546-UM","2018/11/08 13:29:09","新北市五股區成洲一路23號","121.450178333333","25.09599","6501400","蘆洲區"
"247009","056-VK","2018/11/08 13:29:25","新北市五股區中興路三段2巷10號","121.449165","25.081035","6501400","蘆洲區"
"247021","001-UY","2018/11/08 13:29:21","新北市五股區中興路三段2巷10號","121.449076666667","25.080845","6501400","蘆洲區"
"223003","205-TH","2018/11/08 13:29:14","新北市石碇區小粗坑(潭邊里)9-2號","121.679013333333","24.9860516666667","6501900","石碇區"
"235005","251-BX","2018/11/08 13:29:05","新北市中和區中和路324巷3弄2號","121.510026666667","25.0008766666667","6500300","中和區"
"228005","097-TW","2018/11/08 13:29:17","新北市貢寮區美豐里文秀坑8號","121.90259","25.0504333333333","6502600","貢寮區"
"228004","212-TW","2018/11/08 13:29:04","新北市貢寮區龍崗里石壁坑街17號","121.910393333333","24.9894183333333","6502600","貢寮區"
"253002","4710-YM","2018/11/08 13:29:21","新北市石門區老崩山40-2號","121.562791666667","25.2672016666667","6502200","石門區"
"253003","6232-TK","2018/11/08 13:29:14","新北市石門區內石門83-2號","121.569491666667","25.2635683333333","6502200","石門區"
"253004","6251-TK","2018/11/08 13:27:12","新北市石門區竹子湖11號","121.617933333333","25.255845","6502200","石門區"
"253001","KEC-0718","2018/11/08 13:29:07","新北市石門區海灣新城1號","121.523716666667","25.2854633333333","6502200","石門區"
"207002","749-BX","2018/11/08 13:29:19","新北市萬里區崁腳里崁腳路166號","121.645075","25.1558633333333","6502800","萬里區"
"207001","662-BX","2018/11/08 13:27:58","新北市萬里區龜吼里石角路19-1號","121.683953333333","25.1916466666667","6502800","萬里區"
"252005","AAC-283","2018/11/08 13:29:10","新北市三芝區圓山里八連溪頭2-3號","121.524035","25.2231416666667","6502100","三芝區"
"236074","166-UM","2018/11/08 13:29:22","新北市土城區城林路6巷80號","121.438776666667","24.9797366666667","6501300","土城區"
"242049","172-VK","2018/11/08 13:29:27","新北市新莊區成德街62號","121.424003333333","25.02233","6500500","新莊區"
"221032","280-BY","2018/11/08 13:29:13","新北市汐止區水源路一段56號","121.657615","25.0655766666667","6501100","汐止區"
"221033","647-BX","2018/11/08 13:29:22","新北市深坑區北深路三段286巷13號","121.59569","25.0060316666667","6501100","汐止區"
"220027","145-BY","2018/11/08 13:29:21","新北市板橋區大觀路二段111號","121.446246666667","25.001595","6500100","板橋區"
"220028","200-UY","2018/11/08 13:29:11","新北市板橋區華東街1-8號","121.448016666667","24.9947983333333","6500100","板橋區"
"220004","276-BY","2018/11/08 13:29:12","新北市板橋區華東街1-9號","121.448108333333","24.9949483333333","6500100","板橋區"
"220018","282-UM","2018/11/08 13:29:09","新北市板橋區華東街1-10號","121.448278333333","24.9949283333333","6500100","板橋區"
"220019","283-VK","2018/11/08 13:29:05","新北市板橋區華東街1-9號","121.44804","24.9949466666667","6500100","板橋區"
"220031","286-VK","2018/11/08 13:29:20","新北市板橋區華東街1-10號","121.448356666667","24.995115","6500100","板橋區"
"220023","303-R5","2018/11/08 13:29:23","新北市板橋區華東街1-10號","121.448208333333","24.995","6500100","板橋區"
"220012","486-VK","2018/11/08 13:29:12","新北市板橋區南雅南路二段122-2號","121.45163","24.998585","6500100","板橋區"
"220034","630-UY","2018/11/08 13:29:12","新北市板橋區大觀路二段266號","121.449201666667","24.9965316666667","6500100","板橋區"
"220005","686-BX","2018/11/08 13:29:08","新北市板橋區華東街1-9號","121.44816","24.9950433333333","6500100","板橋區"
"220025","687-BX","2018/11/08 13:29:17","新北市板橋區篤行路一段46號","121.431738333333","24.9937383333333","6500100","板橋區"
"220014","829-TW","2018/11/08 13:29:18","新北市板橋區民生路二段120號","121.47032","25.0198883333333","6500100","板橋區"
"220022","895-R6","2018/11/08 13:29:18","新北市板橋區華東街1-10號","121.448236666667","24.9949983333333","6500100","板橋區"
"220021","985-R7","2018/11/08 13:29:09","新北市板橋區華東街1-10號","121.448308333333","24.9949766666667","6500100","板橋區"
"220030","AAC-253","2018/11/08 13:29:08","新北市板橋區華東街1-9號","121.448216666667","24.9948816666667","6500100","板橋區"
"235032","KEA-2873","2018/11/08 13:29:00","新北市中和區圓通路282號","121.491553333333","24.990635","6500300","中和區"
"235025","KEA-2875","2018/11/08 13:29:24","新北市中和區民享街91巷2號","121.474836666667","25.0007616666667","6500300","中和區"
