"lineid","car","time","location","longitude","latitude","cityid","cityname"
"234028","746-BX","2018/11/08 15:19:14","新北市五股區凌雲路二段66號","121.440008333333","25.1062283333333","6500400","永和區"
"248007","095-VK","2018/11/08 15:19:25","新北市五股區中興路一段1巷13號","121.469736666667","25.07143","6501500","五股區"
"244003","248-BX","2018/11/08 15:19:22","新北市林口區粉寮路一段66號","121.397025","25.07869","6501700","林口區"
"243008","KEA-2801","2018/11/08 15:19:26","新北市泰山區文程路111號","121.430533333333","25.04821","6501600","泰山區"
"231002","002-UM","2018/11/08 15:19:28","新北市新店區中正路700巷1號","121.533886666667","24.9912116666667","6500600","新店區"
"231037","0291-UT","2018/11/08 15:19:22","新北市新店區安興路56號","121.516625","24.9748916666667","6500600","新店區"
"231028","046-UY","2018/11/08 15:19:23","新北市新店區僑愛二路1號","121.4999","24.945185","6500600","新店區"
"231001","047-UY","2018/11/08 15:19:15","新北市新店區北新路一段263號","121.540996666667","24.966375","6500600","新店區"
"231005","106-UY","2018/11/08 15:19:22","新北市新店區建國路189號","121.538043333333","24.97975","6500600","新店區"
"231021","108-UY","2018/11/08 15:19:19","新北市新店區湖興路128-5號","121.565091666667","24.930995","6500600","新店區"
"231011","187-VK","2018/11/08 15:19:13","新北市新店區中興路三段330號","121.542098333333","24.986425","6500600","新店區"
"231031","188-VK","2018/11/08 15:19:27","新北市新店區安泰路11巷1號","121.48553","24.9501716666667","6500600","新店區"
"231023","KEA-2219","2018/11/08 15:19:22","新北市新店區北新路一段64巷35號","121.542278333333","24.9657683333333","6500600","新店區"
"231026","256-BX","2018/11/08 15:19:26","新北市新店區中正路265巷21號","121.53775","24.9731966666667","6500600","新店區"
"231003","268-BY","2018/11/08 15:19:11","新北市新店區寶橋路230號","121.55146","24.97892","6500600","新店區"
"231018","278-BY","2018/11/08 15:19:27","新北市新店區中央七街63號","121.528058333333","24.9764833333333","6500600","新店區"
"231017","AAD-862","2018/11/08 15:19:12","新北市新店區明山路45號","121.563895","24.95575","6500600","新店區"
"231029","355-BY","2018/11/08 15:19:07","新北市新店區安康路三段716號","121.473983333333","24.9420216666667","6500600","新店區"
"231038","3712-VJ","2018/11/08 15:19:21","新北市新店區安華路28-1號","121.519653333333","24.96091","6500600","新店區"
"231025","4715-K9","2018/11/08 15:19:14","新北市新店區中央路183-1號","121.535975","24.9687583333333","6500600","新店區"
"231036","512-UM","2018/11/08 15:19:14","新北市新店區安祥路67巷2號","121.483791666667","24.9595666666667","6500600","新店區"
"231006","617-UM","2018/11/08 15:19:23","新北市新店區北新路一段2號","121.54081","24.965145","6500600","新店區"
"231030","619-UM","2018/11/08 15:19:22","新北市新店區安民街341-1號","121.516781666667","24.97492","6500600","新店區"
"231034","641-BX","2018/11/08 15:19:08","新北市新店區如意街3巷2號","121.495558333333","24.9492433333333","6500600","新店區"
"231039","718-UY","2018/11/08 15:19:20","新北市新店區寶元路一段65號","121.542263333333","24.9858033333333","6500600","新店區"
"231035","719-UM","2018/11/08 15:19:13","新北市新店區永平街23巷10號","121.516701666667","24.9829966666667","6500600","新店區"
"231004","899-TW","2018/11/08 15:19:26","新北市新店區博愛街13巷23號","121.540281666667","24.974105","6500600","新店區"
"231024","AKT-0513","2018/11/08 15:19:15","新北市新店區安康路一段140號","121.52656","24.9628716666667","6500600","新店區"
"241011","013-R5","2018/11/08 15:19:19","新北市三重區重新路四段121號","121.484783333333","25.0521716666667","6500200","三重區"
"241020","478-VK","2018/11/08 15:19:23","新北市三重區重新路四段121號","121.484891666667","25.0524066666667","6500200","三重區"
"241029","942-UM","2018/11/08 15:19:21","新北市三重區成功路112-4號","121.486358333333","25.0519833333333","6500200","三重區"
"235030","003-UY","2018/11/08 15:19:21","新北市中和區水源路116號","121.506873333333","25.00355","6500300","中和區"
"235007","352-BY","2018/11/08 15:19:23","新北市中和區南山路541號","121.50797","24.9868433333333","6500300","中和區"
"235014","4979-A6","2018/11/08 15:19:19","新北市中和區景平路464巷2弄2號","121.505758333333","24.99393","6500300","中和區"
"235033","4980-A6","2018/11/08 15:19:13","新北市中和區圓通路198巷2弄2號","121.496266666667","24.9947433333333","6500300","中和區"
"235034","558-UM","2018/11/08 15:19:09","新北市中和區錦和路85號","121.48992","24.9958333333333","6500300","中和區"
"235035","783-BX","2018/11/08 15:19:25","新北市中和區永和路341巷7號","121.483205","25.0105033333333","6500300","中和區"
"235012","896-TW","2018/11/08 15:19:14","新北市中和區興南路一段20-1號","121.511336666667","24.9911","6500300","中和區"
"235023","AAC-215","2018/11/08 15:19:20","新北市中和區錦和路408號","121.491023333333","24.989645","6500300","中和區"
"253002","4710-YM","2018/11/08 15:19:20","新北市石門區小坑9號","121.594506666667","25.2891616666667","6502200","石門區"
"253003","6232-TK","2018/11/08 15:19:14","新北市石門區小坑9號","121.594406666667","25.2883983333333","6502200","石門區"
"253004","6251-TK","2018/11/08 15:19:21","新北市石門區小坑30號","121.59821","25.26992","6502200","石門區"
"253001","KEC-0718","2018/11/08 15:19:07","新北市石門區小坑12-8號","121.595456666667","25.28498","6502200","石門區"
"207002","749-BX","2018/11/08 15:19:19","新北市萬里區崁腳里內中福路29號","121.659933333333","25.1650083333333","6502800","萬里區"
"207001","662-BX","2018/11/08 15:19:18","新北市萬里區野柳里八斗60號","121.663146666667","25.2059483333333","6502800","萬里區"
"236068","105-UM","2018/11/08 15:19:22","新北市土城區裕民路185巷36弄10號","121.454373333333","24.9845383333333","6501300","土城區"
"236040","KED-0685","2018/11/08 15:19:22","新北市土城區金城路二段227號","121.455488333333","24.982395","6501300","土城區"
"236074","166-UM","2018/11/08 15:19:24","新北市土城區中州路47號","121.412826666667","24.9579083333333","6501300","土城區"
"236029","253-BX","2018/11/08 15:19:24","新北市土城區中華路一段215號","121.442496666667","24.9843783333333","6501300","土城區"
"236024","269-VK","2018/11/08 15:19:14","新北市土城區中央路二段61巷28號","121.443441666667","24.9786566666667","6501300","土城區"
"236012","270-VK","2018/11/08 15:19:28","新北市土城區廣福街5號","121.457236666667","24.9887966666667","6501300","土城區"
"236032","271-VK","2018/11/08 15:19:24","新北市土城區國際路139巷12號","121.46849","24.9767383333333","6501300","土城區"
"236017","401-BY","2018/11/08 15:19:20","新北市土城區峰廷街3號","121.469015","24.987375","6501300","土城區"
"236057","912-UM","2018/11/08 15:19:09","新北市土城區慶安街82號","121.440456666667","24.97278","6501300","土城區"
"236045","913-UM","2018/11/08 15:19:10","新北市土城區清水路334號","121.464105","24.9855616666667","6501300","土城區"
"236060","915-UM","2018/11/08 15:19:16","新北市土城區延和路105巷3弄1號","121.467345","24.9908","6501300","土城區"
"236054","AAC-216","2018/11/08 15:19:25","新北市土城區學府路一段8號","121.459481666667","24.9884566666667","6501300","土城區"
"238002","755-BX","2018/11/08 15:19:27","新北市樹林區復興路223號","121.420066666667","24.9909683333333","6500700","樹林區"
"238010","601-UM","2018/11/08 15:19:17","新北市樹林區中正路433號","121.415013333333","25.0085083333333","6500700","樹林區"
"238006","599-UM","2018/11/08 15:19:14","新北市樹林區太平路51號","121.419265","24.9825216666667","6500700","樹林區"
"238005","571-TV","2018/11/08 15:19:14","新北市樹林區樹新路86號","121.429368333333","24.997495","6500700","樹林區"
"238011","5061-A6","2018/11/08 15:19:23","新北市樹林區太平路57號","121.419046666667","24.9821233333333","6500700","樹林區"
"238009","KEA-2213","2018/11/08 15:19:15","新北市樹林區仁愛街73巷1號","121.423598333333","24.9827833333333","6500700","樹林區"
"238008","KEA-2539","2018/11/08 15:19:21","新北市樹林區西圳街一段165巷20弄11號","121.395601666667","24.9602233333333","6500700","樹林區"
"238012","303-VK","2018/11/08 15:19:18","新北市樹林區保安二街8-1號","121.425011666667","24.994115","6500700","樹林區"
"238004","283-BY","2018/11/08 15:19:17","新北市樹林區保安街二段333巷2號","121.412331666667","25.0075383333333","6500700","樹林區"
"238001","282-BY","2018/11/08 15:19:19","新北市樹林區大安路145巷15號","121.422686666667","24.99642","6500700","樹林區"
"238013","172-UY","2018/11/08 15:19:16","新北市樹林區味王街32號","121.40454","24.9743816666667","6500700","樹林區"
"238003","169-UY","2018/11/08 15:19:19","新北市樹林區中山路二段10號","121.417588333333","24.985095","6500700","樹林區"
"220027","145-BY","2018/11/08 15:19:20","新北市八里區荖阡坑路41-3號","121.399668333333","25.13289","6500100","板橋區"
"220050","245-BX","2018/11/08 15:19:16","新北市板橋區雙十路二段47巷8弄20號","121.47402","25.0259866666667","6500100","板橋區"
"220018","282-UM","2018/11/08 15:19:29","新北市板橋區四川路二段245巷71號","121.452818333333","24.99184","6500100","板橋區"
"220031","286-VK","2018/11/08 15:19:25","新北市板橋區僑中二街104巷22號","121.445168333333","25.0080483333333","6500100","板橋區"
"220009","295-UM","2018/11/08 15:19:27","新北市板橋區四川路一段286巷11號","121.458135","25.0009816666667","6500100","板橋區"
"220012","486-VK","2018/11/08 15:19:20","新北市板橋區長安街331巷11號","121.474036666667","25.012345","6500100","板橋區"
"220038","487-VK","2018/11/08 15:19:29","新北市板橋區互助街82號","121.460546666667","25.02634","6500100","板橋區"
"220037","491-VK","2018/11/08 15:19:24","新北市板橋區懷德街127巷23弄9號","121.479385","25.0316","6500100","板橋區"
"220052","561-BX","2018/11/08 15:19:25","新北市板橋區漢生東路23巷56弄12號","121.466348333333","25.0181466666667","6500100","板橋區"
"220011","609-BX","2018/11/08 15:19:25","新北市板橋區三民路一段210號","121.479075","25.0194483333333","6500100","板橋區"
"220042","689-BX","2018/11/08 15:19:13","新北市板橋區長江路二段8號","121.464575","25.0313083333333","6500100","板橋區"
"220051","KEA-2699","2018/11/08 15:19:20","新北市板橋區文化路二段472號","121.475161666667","25.0326116666667","6500100","板橋區"
"220003","827-TW","2018/11/08 15:19:16","新北市板橋區四川路一段371號","121.45839","24.9995366666667","6500100","板橋區"
"220046","AAC-210","2018/11/08 15:19:25","新北市板橋區光正街44號","121.461808333333","25.0176583333333","6500100","板橋區"
"220030","AAC-253","2018/11/08 15:19:24","新北市板橋區大觀路三段135號","121.432296666667","24.9940233333333","6500100","板橋區"
