"lineid","car","time","location","longitude","latitude","cityid","cityname"
"234026","9371-KE","2018/11/08 17:39:29","新北市永和區永和路一段186號","121.514311666667","25.0091233333333","6500400","永和區"
"249005","172-UM","2018/11/08 17:39:13","新北市八里區荖阡坑路34-1號","121.402645","25.129615","6502300","八里區"
"249001","173-UM","2018/11/08 17:39:20","新北市八里區龍米路二段189號","121.434041666667","25.15825","6502300","八里區"
"249004","303-UY","2018/11/08 17:39:15","新北市八里區賢三街100號","121.416885","25.15781","6502300","八里區"
"249002","305-UY","2018/11/08 17:39:16","新北市八里區石壁腳19號","121.441703333333","25.13537","6502300","八里區"
"249003","593-UM","2018/11/08 17:39:21","新北市八里區中山路二段173號","121.404946666667","25.15044","6502300","八里區"
"248006","077-UY","2018/11/08 17:39:23","新北市五股區中興路二段83巷26-6號","121.460033333333","25.0753016666667","6501500","五股區"
"232011","076-UY","2018/11/08 17:39:14","新北市坪林區北宜路八段61號","121.70506","24.9353816666667","6502000","坪林區"
"244023","069-UM","2018/11/08 17:38:22","新北市林口區興林路152巷24號","121.387681666667","25.0715883333333","6501700","林口區"
"244007","080-UY","2018/11/08 17:39:12","新北市林口區文化一路二段341號","121.386366666667","25.08686","6501700","林口區"
"244019","403-UM","2018/11/08 17:39:17","新北市林口區忠孝路512巷15號","121.371283333333","25.06877","6501700","林口區"
"244013","KEA-2802","2018/11/08 17:39:24","新北市林口區中正路561號","121.380938333333","25.0769283333333","6501700","林口區"
"244017","485-VK","2018/11/08 17:39:22","新北市林口區忠孝路371-1號","121.369031666667","25.07179","6501700","林口區"
"244009","656-BX","2018/11/08 17:39:24","新北市林口區中北三街338號","121.383186666667","25.0842333333333","6501700","林口區"
"244011","701-TV","2018/11/08 17:39:21","新北市林口區佳林路154號","121.384188333333","25.07712","6501700","林口區"
"244025","837-TS","2018/11/08 17:39:17","新北市林口區文化三路一段394巷2號","121.36608","25.0730333333333","6501700","林口區"
"244021","838-TS","2018/11/08 17:39:19","新北市林口區醒吾新村13號","121.396273333333","25.0791716666667","6501700","林口區"
"231046","110-UY","2018/11/08 17:39:15","新北市新店區直潭路92號","121.530951666667","24.9376","6500600","新店區"
"241017","063-VK","2018/11/08 17:39:18","新北市三重區大同北路38號","121.495236666667","25.0626766666667","6500200","三重區"
"251014","742-BX","2018/11/08 17:39:19","新北市淡水區公埔子16-6號","121.48103","25.2245816666667","6501000","淡水區"
"241005","262-UM","2018/11/08 17:39:28","新北市三重區碧華街1號","121.483573333333","25.08103","6500200","三重區"
"241023","265-UM","2018/11/08 17:39:29","新北市三重區三民街167號","121.48346","25.0648133333333","6500200","三重區"
"241016","266-UM","2018/11/08 17:39:25","新北市三重區重新路二段21號","121.498001666667","25.0625116666667","6500200","三重區"
"241013","270-UM","2018/11/08 17:39:20","新北市三重區龍濱路198號","121.500761666667","25.0734883333333","6500200","三重區"
"241007","398-BY","2018/11/08 17:39:21","新北市三重區車路頭街163號","121.48366","25.0773183333333","6500200","三重區"
"241024","KEA-2210","2018/11/08 17:39:28","新北市三重區力行路二段9巷5號","121.482526666667","25.0720883333333","6500200","三重區"
"241014","543-UM","2018/11/08 17:39:28","新北市三重區龍濱路19號","121.502988333333","25.0678766666667","6500200","三重區"
"241019","KEA-2593","2018/11/08 17:39:25","新北市三重區六張街212號","121.488001666667","25.0684583333333","6500200","三重區"
"241012","941-UM","2018/11/08 17:39:13","新北市三重區河邊北街272號","121.501598333333","25.07667","6500200","三重區"
"241033","AAC-255","2018/11/08 17:39:20","新北市三重區光復路一段138-1號","121.471925","25.0530616666667","6500200","三重區"
"247012","KEA-2869","2018/11/08 17:39:31","新北市蘆洲區民權路36號","121.47625","25.0863316666667","6501400","蘆洲區"
"247002","893-R6","2018/11/08 17:39:23","新北市蘆洲區永平街32巷11弄25號","121.457955","25.091765","6501400","蘆洲區"
"247016","546-UM","2018/11/08 17:39:29","新北市蘆洲區中正路185巷31弄32號","121.466911666667","25.0834783333333","6501400","蘆洲區"
"247024","500-BY","2018/11/08 17:39:16","新北市蘆洲區長樂路125-1號","121.46212","25.08801","6501400","蘆洲區"
"247014","339-TH","2018/11/08 17:39:18","新北市蘆洲區中正路25號","121.4713","25.0821283333333","6501400","蘆洲區"
"247006","337-TH","2018/11/08 17:39:19","新北市蘆洲區長安街36-2號","121.463696666667","25.0795383333333","6501400","蘆洲區"
"247008","336-TH","2018/11/08 17:39:27","新北市蘆洲區民生街131巷2號","121.472608333333","25.0790216666667","6501400","蘆洲區"
"247020","057-VK","2018/11/08 17:39:12","新北市蘆洲區民族路341號","121.472656666667","25.09196","6501400","蘆洲區"
"247010","056-VK","2018/11/08 17:39:28","新北市蘆洲區集賢路412號","121.479793333333","25.0813716666667","6501400","蘆洲區"
"247018","007-UY","2018/11/08 17:39:17","新北市蘆洲區三民路98巷3號","121.472243333333","25.0870066666667","6501400","蘆洲區"
"247004","002-UY","2018/11/08 17:39:28","新北市蘆洲區永安南路二段300號","121.457536666667","25.082065","6501400","蘆洲區"
"247022","001-UY","2018/11/08 17:39:27","新北市蘆洲區中正路198-1號","121.46684","25.08843","6501400","蘆洲區"
"228003","097-TW","2018/11/08 17:39:18","新北市貢寮區仁理村仁和路204號","121.923553333333","25.0529283333333","6502600","貢寮區"
"228002","585-TW","2018/11/08 17:39:09","新北市貢寮區福隆里龜壽谷街13號","121.956853333333","25.0056816666667","6502600","貢寮區"
"224010","AGQ-8101","2018/11/08 17:39:26","新北市瑞芳區岳王路54-1號","121.808561666667","25.1112416666667","6501200","瑞芳區"
"224006","676-BX","2018/11/08 17:39:12","新北市瑞芳區中山路365號","121.796421666667","25.1101366666667","6501200","瑞芳區"
"224008","285-BY","2018/11/08 17:39:24","新北市瑞芳區瑞柑新村4號","121.82905","25.106305","6501200","瑞芳區"
"224009","273-VK","2018/11/08 17:39:29","新北市瑞芳區山尖路215-1號","121.848835","25.112485","6501200","瑞芳區"
"224005","271-BY","2018/11/08 17:39:16","新北市瑞芳區海濱路8-6號","121.832006666667","25.1261466666667","6501200","瑞芳區"
"227010","642-TC","2018/11/08 17:36:26","新北市雙溪區三貂里政光路3-1號","121.850766666667","25.0633633333333","6502500","雙溪區"
"251009","008-UM","2018/11/08 17:39:25","新北市淡水區中正路38-1號","121.443725","25.1692966666667","6501000","淡水區"
"251005","010-UM","2018/11/08 17:39:25","新北市淡水區鄧公路33巷7號","121.451718333333","25.17105","6501000","淡水區"
"251001","011-UM","2018/11/08 17:39:31","新北市淡水區民權路92巷35-1號","121.462215","25.1266466666667","6501000","淡水區"
"251013","KEA-2871","2018/11/08 17:39:25","新北市淡水區演戲埔腳7號","121.470826666667","25.1939966666667","6501000","淡水區"
"251016","179-VK","2018/11/08 17:39:24","新北市淡水區埤島39-15號","121.452763333333","25.195835","6501000","淡水區"
"251008","181-VK","2018/11/08 17:39:24","新北市淡水區八勢路一段98-2號","121.467418333333","25.1558116666667","6501000","淡水區"
"251015","182-VK","2018/11/08 17:39:17","新北市淡水區糞箕湖9-1號","121.485301666667","25.17078","6501000","淡水區"
"251010","413-VK","2018/11/08 17:39:23","新北市淡水區淡海路280巷21號","121.419758333333","25.189885","6501000","淡水區"
"251012","441-VK","2018/11/08 17:39:21","新北市淡水區北新路200巷8號","121.451756666667","25.1797983333333","6501000","淡水區"
"251007","442-VK","2018/11/08 17:39:16","新北市淡水區民生路124巷28號","121.464106666667","25.1375766666667","6501000","淡水區"
"251004","443-VK","2018/11/08 17:39:23","新北市淡水區民權一街2號","121.45936","25.13763","6501000","淡水區"
"251006","561-UM","2018/11/08 17:39:19","新北市淡水區中山北路一段119巷4號","121.4424","25.17703","6501000","淡水區"
"251011","650-BX","2018/11/08 17:39:16","新北市淡水區坪頂路762號","121.484451666667","25.15735","6501000","淡水區"
"251002","672-BX","2018/11/08 17:39:12","新北市淡水區文化路1號","121.44032","25.1723283333333","6501000","淡水區"
"251003","766-UM","2018/11/08 17:39:11","新北市淡水區中山北路一段87號","121.442253333333","25.17624","6501000","淡水區"
"207003","550-UM","2018/11/08 17:39:29","新北市萬里區龜吼里漁澳路5-1號","121.686545","25.194305","6502800","萬里區"
"207004","225-TW","2018/11/08 17:39:18","新北市萬里區中幅里中福路8-1號","121.68592","25.1648183333333","6502800","萬里區"
"252002","178-VK","2018/11/08 17:39:15","新北市三芝區中正路二段2號","121.504956666667","25.2557483333333","6502100","三芝區"
"252001","292-VK","2018/11/08 17:39:31","新北市三芝區淡金路一段83號","121.502096666667","25.2590033333333","6502100","三芝區"
"237013","252-BX","2018/11/08 17:39:22","新北市三峽區愛國路33-9號","121.374788333333","24.9330883333333","6500900","三峽區"
"237012","275-BY","2018/11/08 17:39:24","新北市三峽區中山路459巷163-3號","121.349006666667","24.9331733333333","6500900","三峽區"
"237011","KEA-2596","2018/11/08 17:39:29","新北市三峽區文化路288號","121.364955","24.9355616666667","6500900","三峽區"
"237016","649-BX","2018/11/08 17:39:16","新北市三峽區正義街43號","121.369366666667","24.91899","6500900","三峽區"
"237010","706-TV","2018/11/08 17:39:31","新北市三峽區中山路153號","121.364781666667","24.9363766666667","6500900","三峽區"
"236070","105-UM","2018/11/08 17:39:25","新北市土城區中華路二段2號","121.438908333333","24.979865","6501300","土城區"
"236078","166-UM","2018/11/08 17:39:25","新北市土城區城林路6巷80號","121.438456666667","24.979655","6501300","土城區"
"236063","915-UM","2018/11/08 17:39:16","新北市土城區城林路6巷80號","121.438466666667","24.9796333333333","6501300","土城區"
"236055","AAC-216","2018/11/08 17:39:29","新北市土城區城林路6巷80號","121.438686666667","24.979665","6501300","土城區"
"242036","AAC-296","2018/11/08 17:39:28","新北市新莊區建福路59巷45號","121.428555","25.0278316666667","6500500","新莊區"
"242058","986-R7","2018/11/08 17:39:26","新北市新莊區中正路690號","121.420066666667","25.0282383333333","6500500","新莊區"
"242056","751-BX","2018/11/08 17:39:18","新北市新莊區瓊林路13-3號","121.448933333333","25.0309966666667","6500500","新莊區"
"242027","615-BX","2018/11/08 17:39:30","新北市新莊區福壽街107號","121.457956666667","25.0507683333333","6500500","新莊區"
"242025","613-BX","2018/11/08 17:39:28","新北市新莊區思源路90號","121.460181666667","25.0454066666667","6500500","新莊區"
"242029","612-BX","2018/11/08 17:39:24","新北市新莊區復興路一段163號","121.450933333333","25.043405","6500500","新莊區"
"242044","566-BX","2018/11/08 17:39:19","新北市新莊區中正路871巷10號","121.418836666667","25.02669","6500500","新莊區"
"242048","497-BY","2018/11/08 17:39:24","新北市新莊區萬安街115號","121.420806666667","25.0226233333333","6500500","新莊區"
"242039","442-UM","2018/11/08 17:39:25","新北市新莊區民安東路4號","121.427905","25.0208833333333","6500500","新莊區"
"242053","441-UM","2018/11/08 17:39:25","新北市新莊區新樹路699巷30號","121.432638333333","25.0016116666667","6500500","新莊區"
"242011","415-TV","2018/11/08 17:39:29","新北市新莊區中港路597號","121.451433333333","25.0527866666667","6500500","新莊區"
"242009","413-TV","2018/11/08 17:39:17","新北市新莊區昌明街14巷5弄1號","121.457338333333","25.0532016666667","6500500","新莊區"
"242023","362-BY","2018/11/08 17:39:11","新北市新莊區公園路129-5號","121.457393333333","25.0407966666667","6500500","新莊區"
"242061","353-BY","2018/11/08 17:39:12","新北市新莊區瓊林南路72號","121.434305","25.0128016666667","6500500","新莊區"
"242042","133-UY","2018/11/08 17:39:26","新北市新莊區中正路514巷17號","121.433036666667","25.033015","6500500","新莊區"
"242034","135-UY","2018/11/08 17:39:17","新北市新莊區新莊路546號","121.445175","25.0328916666667","6500500","新莊區"
"242051","172-VK","2018/11/08 17:39:17","新北市新莊區西盛街201巷13號","121.429028333333","25.016915","6500500","新莊區"
"242013","173-VK","2018/11/08 17:39:24","新北市新莊區中誠街100號","121.449868333333","25.0477383333333","6500500","新莊區"
"242019","175-VK","2018/11/08 17:39:27","新北市新莊區中港路216號","121.454448333333","25.0426716666667","6500500","新莊區"
"242007","176-VK","2018/11/08 17:39:15","新北市新莊區福樂街118巷2號","121.457268333333","25.0479683333333","6500500","新莊區"
"242017","346-TH","2018/11/08 17:39:25","新北市新莊區復興路一段149巷21弄1號","121.450203333333","25.0441366666667","6500500","新莊區"
"242046","347-TH","2018/11/08 17:39:13","新北市新莊區福營路101號","121.434141666667","25.032215","6500500","新莊區"
"242031","348-TH","2018/11/08 17:39:25","新北市新莊區新泰路324號","121.445011666667","25.0417583333333","6500500","新莊區"
"242004","349-TH","2018/11/08 17:39:29","新北市新莊區自立街200號","121.456741666667","25.0454483333333","6500500","新莊區"
"242021","350-TH","2018/11/08 17:39:32","新北市新莊區中華路一段166號","121.452663333333","25.0416866666667","6500500","新莊區"
"242015","351-TH","2018/11/08 17:39:26","新北市新莊區新泰路285號","121.445623333333","25.0406366666667","6500500","新莊區"
"238015","755-BX","2018/11/08 17:39:23","新北市樹林區樹德街99號","121.420091666667","24.99236","6500700","樹林區"
"238023","601-UM","2018/11/08 17:39:16","新北市樹林區三福街68號","121.404828333333","25.0162366666667","6500700","樹林區"
"238019","599-UM","2018/11/08 17:39:13","新北市樹林區太平路127巷12號","121.41983","24.98061","6500700","樹林區"
"238018","571-TV","2018/11/08 17:39:15","新北市樹林區鎮前街18號","121.426078333333","24.9931466666667","6500700","樹林區"
"238024","5061-A6","2018/11/08 17:39:12","新北市樹林區環河路110號","121.426435","24.9776316666667","6500700","樹林區"
"238022","KEA-2213","2018/11/08 17:39:29","新北市樹林區中華路185-2號","121.420325","24.9817833333333","6500700","樹林區"
"238021","KEA-2539","2018/11/08 17:39:16","新北市樹林區佳園路二段175號","121.389701666667","24.9563033333333","6500700","樹林區"
"238025","303-VK","2018/11/08 17:39:22","新北市樹林區保安街二段261號","121.413025","25.0052866666667","6500700","樹林區"
"238017","283-BY","2018/11/08 17:39:17","新北市樹林區三德街24-2號","121.414158333333","25.01303","6500700","樹林區"
"238014","282-BY","2018/11/08 17:39:18","新北市樹林區保安街一段360巷1號","121.417913333333","24.9985916666667","6500700","樹林區"
"238026","172-UY","2018/11/08 17:39:16","新北市樹林區新興街19巷34弄32號","121.402291666667","24.9724683333333","6500700","樹林區"
"238016","169-UY","2018/11/08 17:39:10","新北市樹林區育英街119-1號","121.420048333333","24.98933","6500700","樹林區"
"239007","AAC-297","2018/11/08 17:39:15","新北市鶯歌區鶯桃路182巷24號","121.337448333333","24.9561883333333","6500800","鶯歌區"
"239006","891-R6","2018/11/08 17:39:24","新北市鶯歌區鶯桃路466號","121.332381666667","24.9655983333333","6500800","鶯歌區"
"239008","527-UM","2018/11/08 17:39:19","桃園市龜山區宏德司法新村4號","121.331083333333","24.9793483333333","6500800","鶯歌區"
"239005","526-UM","2018/11/08 17:39:25","新北市鶯歌區鳳吉四街1號","121.326073333333","24.972475","6500800","鶯歌區"
"239001","417-VK","2018/11/08 17:39:30","新北市鶯歌區中正三路208-4號","121.332118333333","24.9378733333333","6500800","鶯歌區"
"239003","360-BY","2018/11/08 17:39:12","新北市鶯歌區鶯桃路206巷46號","121.33795","24.96002","6500800","鶯歌區"
"239002","359-BY","2018/11/08 17:39:14","新北市鶯歌區南雅路485號","121.345771666667","24.953995","6500800","鶯歌區"
"239004","193-VK","2018/11/08 17:39:09","新北市鶯歌區三鶯路57號","121.357181666667","24.9423666666667","6500800","鶯歌區"
"221008","489-VK","2018/11/08 17:39:17","新北市汐止區康寧街901號","121.651313333333","25.0748733333333","6501100","汐止區"
"221010","269-BY","2018/11/08 17:39:23","新北市汐止區汐萬路一段418巷25號","121.650005","25.0789083333333","6501100","汐止區"
"221023","279-VK","2018/11/08 17:38:12","新北市汐止區汐萬路一段256巷1號","121.651708333333","25.074835","6501100","汐止區"
"221032","280-BY","2018/11/08 17:39:19","新北市汐止區康寧街901號","121.650876666667","25.0752166666667","6501100","汐止區"
"221021","299-VK","2018/11/08 17:39:12","新北市汐止區康寧街901號","121.65103","25.07513","6501100","汐止區"
"221018","753-BX","2018/11/08 17:39:16","新北市汐止區汐萬路一段160號","121.652603333333","25.07154","6501100","汐止區"
"242002","281-VK","2018/11/08 17:39:19","新北市新莊區新莊路266號","121.451801666667","25.0339066666667","6500500","新莊區"
"235061","KEA-2875","2018/11/08 17:20:43","新北市中和區員山路36巷16-2號","121.485313333333","24.9917016666667","6500300","中和區"
