"lineid","car","time","location","longitude","latitude","cityid","cityname"
"234026","9371-KE","2018/11/08 17:49:09","新北市永和區和平街95巷4弄8號","121.510926666667","25.009715","6500400","永和區"
"249005","172-UM","2018/11/08 17:49:13","新北市八里區荖阡坑路34-3號","121.402315","25.131415","6502300","八里區"
"249001","173-UM","2018/11/08 17:49:20","新北市八里區龍米路二段133號","121.445126666667","25.1476566666667","6502300","八里區"
"249004","303-UY","2018/11/08 17:49:21","新北市八里區中華路一段81巷18號","121.419563333333","25.15583","6502300","八里區"
"249002","305-UY","2018/11/08 17:49:16","新北市八里區龍形五街37巷6號","121.448948333333","25.1327566666667","6502300","八里區"
"249003","593-UM","2018/11/08 17:49:21","新北市八里區中山路二段75號","121.406325","25.1531133333333","6502300","八里區"
"248006","077-UY","2018/11/08 17:49:23","新北市五股區中興路二段83巷26-6號","121.459918333333","25.075305","6501500","五股區"
"248008","095-VK","2018/11/08 17:49:17","新北市五股區中興路二段37巷28號","121.460176666667","25.07508","6501500","五股區"
"248020","225-UY","2018/11/08 17:49:16","新北市五股區中興路二段83巷26-3號","121.460036666667","25.0755583333333","6501500","五股區"
"232011","076-UY","2018/11/08 17:49:14","新北市坪林區北宜路八段216號","121.708653333333","24.9348133333333","6502000","坪林區"
"244023","069-UM","2018/11/08 17:49:20","新北市林口區隆林街95號","121.385515","25.0750916666667","6501700","林口區"
"244007","080-UY","2018/11/08 17:49:12","新北市林口區佳林路15號","121.386986666667","25.082265","6501700","林口區"
"244019","403-UM","2018/11/08 17:49:17","新北市林口區麗園路92號","121.372165","25.068325","6501700","林口區"
"244013","KEA-2802","2018/11/08 17:49:24","新北市林口區中山路153號","121.386701666667","25.0792283333333","6501700","林口區"
"244017","485-VK","2018/11/08 17:49:17","新北市林口區公園路179-2號","121.371121666667","25.072315","6501700","林口區"
"244009","656-BX","2018/11/08 17:49:24","新北市林口區寶林路42號","121.385118333333","25.0843","6501700","林口區"
"244011","701-TV","2018/11/08 17:49:21","新北市林口區竹林路15號","121.386508333333","25.0770216666667","6501700","林口區"
"244025","837-TS","2018/11/08 17:49:17","新北市林口區忠孝三路42號","121.360116666667","25.0699783333333","6501700","林口區"
"244021","838-TS","2018/11/08 17:49:19","新北市林口區仁愛路一段211巷8號","121.398413333333","25.0740083333333","6501700","林口區"
"222003","436-BY","2018/11/08 17:49:28","新北市深坑區阿柔洋60-1號","121.608621666667","24.9985316666667","6501800","深坑區"
"231046","110-UY","2018/11/08 17:49:15","新北市新店區下石厝路29號","121.534285","24.928595","6500600","新店區"
"251014","742-BX","2018/11/08 17:49:19","新北市淡水區公埔子16-6號","121.481025","25.2246","6501000","淡水區"
"241005","262-UM","2018/11/08 17:49:28","新北市三重區仁愛街510號","121.487431666667","25.08217","6500200","三重區"
"241016","266-UM","2018/11/08 17:49:25","新北市三重區新北大道一段7號","121.489606666667","25.0612866666667","6500200","三重區"
"241024","KEA-2210","2018/11/08 17:49:28","新北市三重區國道路一段42號","121.483155","25.0729633333333","6500200","三重區"
"241033","AAC-255","2018/11/08 17:49:20","新北市三重區光復路一段7號","121.472231666667","25.0470566666667","6500200","三重區"
"235065","098-UM","2018/11/08 17:49:20","新北市中和區連城路469巷6號","121.483545","24.9955166666667","6500300","中和區"
"247012","KEA-2869","2018/11/08 17:49:13","新北市蘆洲區復興路51-2號","121.47586","25.087095","6501400","蘆洲區"
"247002","893-R6","2018/11/08 17:49:17","新北市蘆洲區永平街32巷33弄20號","121.458636666667","25.092465","6501400","蘆洲區"
"247016","546-UM","2018/11/08 17:49:29","新北市蘆洲區中正路185巷60號","121.466678333333","25.0846716666667","6501400","蘆洲區"
"247024","500-BY","2018/11/08 17:49:16","新北市蘆洲區長樂路120巷2號","121.462245","25.0897433333333","6501400","蘆洲區"
"247014","339-TH","2018/11/08 17:49:18","新北市蘆洲區保和街50-1號","121.469631666667","25.0862","6501400","蘆洲區"
"247006","337-TH","2018/11/08 17:49:25","新北市蘆洲區九芎街153巷5號","121.465211666667","25.07904","6501400","蘆洲區"
"247008","336-TH","2018/11/08 17:49:27","新北市蘆洲區中山一路229號","121.473736666667","25.0807616666667","6501400","蘆洲區"
"247020","057-VK","2018/11/08 17:49:12","新北市蘆洲區民族路359巷7號","121.472126666667","25.0912216666667","6501400","蘆洲區"
"247010","056-VK","2018/11/08 17:49:28","新北市蘆洲區民族路51號","121.478538333333","25.0853833333333","6501400","蘆洲區"
"247018","007-UY","2018/11/08 17:49:17","新北市蘆洲區復興路307巷1號","121.482001666667","25.0906366666667","6501400","蘆洲區"
"247004","002-UY","2018/11/08 17:49:27","新北市蘆洲區中原路12巷24號","121.460773333333","25.0839283333333","6501400","蘆洲區"
"247022","001-UY","2018/11/08 17:49:13","新北市蘆洲區中正路497-2號","121.461868333333","25.0965683333333","6501400","蘆洲區"
"228003","097-TW","2018/11/08 17:49:18","新北市貢寮區真理里延平街72-5號","121.925201666667","25.0582166666667","6502600","貢寮區"
"228001","212-TW","2018/11/08 17:49:25","新北市貢寮區仁理村仁愛路95-1號","121.927675","25.0554366666667","6502600","貢寮區"
"228002","585-TW","2018/11/08 17:49:28","新北市貢寮區福隆里龜壽谷街11-1號","121.954066666667","25.0070116666667","6502600","貢寮區"
"224006","676-BX","2018/11/08 17:49:12","新北市瑞芳區瑞興新村12巷1號","121.788423333333","25.1083166666667","6501200","瑞芳區"
"224008","285-BY","2018/11/08 17:49:19","新北市瑞芳區明燈路一段37號","121.822066666667","25.107195","6501200","瑞芳區"
"224009","273-VK","2018/11/08 17:49:29","新北市瑞芳區山尖路175號","121.85246","25.1121666666667","6501200","瑞芳區"
"224005","271-BY","2018/11/08 17:49:16","新北市瑞芳區海濱路29-9號","121.830805","25.1243466666667","6501200","瑞芳區"
"227010","642-TC","2018/11/08 17:36:26","新北市雙溪區三貂里政光路3-1號","121.850766666667","25.0633633333333","6502500","雙溪區"
"253006","032-BX","2018/11/08 17:49:10","新北市石門區中山路33號","121.56705","25.2910283333333","6502200","石門區"
"208002","KEA-2872","2018/11/08 17:49:28","新北市金山區磺清路135號","121.639376666667","25.2277033333333","6502700","金山區"
"251009","008-UM","2018/11/08 17:49:25","新北市淡水區長興街43-2號","121.444185","25.1716233333333","6501000","淡水區"
"251005","010-UM","2018/11/08 17:49:25","新北市淡水區學府路102巷13號","121.450803333333","25.1717966666667","6501000","淡水區"
"251001","011-UM","2018/11/08 17:49:31","新北市淡水區民權路92巷35-1號","121.462163333333","25.1266133333333","6501000","淡水區"
"251013","KEA-2871","2018/11/08 17:49:25","新北市淡水區口湖子1-3號","121.477955","25.1906216666667","6501000","淡水區"
"251016","179-VK","2018/11/08 17:49:24","新北市淡水區埤島39-15號","121.452753333333","25.1958416666667","6501000","淡水區"
"251008","181-VK","2018/11/08 17:49:24","新北市淡水區八勢路一段126號","121.46749","25.15719","6501000","淡水區"
"251015","182-VK","2018/11/08 17:49:17","新北市淡水區興福寮30號","121.491606666667","25.1642333333333","6501000","淡水區"
"251010","413-VK","2018/11/08 17:49:23","新北市淡水區淡海路280巷33弄34-2號","121.418725","25.1886116666667","6501000","淡水區"
"251012","441-VK","2018/11/08 17:49:30","新北市淡水區水頭43-1號","121.476835","25.1856766666667","6501000","淡水區"
"251007","442-VK","2018/11/08 17:49:16","新北市淡水區民生路16巷30號","121.461733333333","25.1374716666667","6501000","淡水區"
"251004","443-VK","2018/11/08 17:49:23","新北市淡水區民權一街10號","121.459316666667","25.1370183333333","6501000","淡水區"
"251006","561-UM","2018/11/08 17:49:19","新北市淡水區大信街1巷25號","121.440213333333","25.1767366666667","6501000","淡水區"
"251011","650-BX","2018/11/08 17:49:16","新北市淡水區吳(仔)厝38號","121.47956","25.1496466666667","6501000","淡水區"
"251002","672-BX","2018/11/08 17:49:12","新北市淡水區長興街4號","121.443831666667","25.1706233333333","6501000","淡水區"
"251003","766-UM","2018/11/08 17:49:11","新北市淡水區大忠街5巷2號","121.443201666667","25.1763666666667","6501000","淡水區"
"207003","550-UM","2018/11/08 17:49:25","新北市萬里區野柳里東澳路66號","121.69271","25.2009333333333","6502800","萬里區"
"207004","225-TW","2018/11/08 17:49:18","新北市萬里區萬里里瑪鋉頂街61號","121.688363333333","25.180495","6502800","萬里區"
"252002","178-VK","2018/11/08 17:49:15","新北市三芝區智成街54號","121.504351666667","25.2562016666667","6502100","三芝區"
"252001","292-VK","2018/11/08 17:49:31","新北市三芝區中興街一段28號","121.497645","25.2578616666667","6502100","三芝區"
"237004","KEA-2597","2018/11/08 17:49:20","新北市三峽區中山路120號","121.365663333333","24.9359133333333","6500900","三峽區"
"237007","153-BY","2018/11/08 17:49:20","新北市三峽區中園街127號","121.367486666667","24.923645","6500900","三峽區"
"237009","210-TH","2018/11/08 17:49:23","新北市三峽區大勇路15號","121.367225","24.936775","6500900","三峽區"
"237013","252-BX","2018/11/08 17:49:22","新北市三峽區介壽路一段57-1號","121.375598333333","24.932805","6500900","三峽區"
"237012","275-BY","2018/11/08 17:49:24","新北市三峽區文化路14號","121.373276666667","24.9357533333333","6500900","三峽區"
"237014","433-BY","2018/11/08 17:49:24","新北市三峽區文化路120巷21弄2號","121.371006666667","24.936865","6500900","三峽區"
"237006","5529-G3","2018/11/08 17:49:23","新北市三峽區介壽路二段30號","121.390905","24.9351866666667","6500900","三峽區"
"237011","KEA-2596","2018/11/08 17:49:29","新北市三峽區大同路37號","121.376698333333","24.9282966666667","6500900","三峽區"
"237016","649-BX","2018/11/08 17:49:16","新北市三峽區白雞149-2號","121.399896666667","24.90509","6500900","三峽區"
"237010","706-TV","2018/11/08 17:49:31","新北市三峽區文化路158號","121.37002","24.93609","6500900","三峽區"
"237005","AKY-6261","2018/11/08 17:49:16","新北市三峽區文化路210巷5號","121.368626666667","24.9366233333333","6500900","三峽區"
"236070","105-UM","2018/11/08 17:49:25","新北市土城區青雲路475號","121.458761666667","24.973875","6501300","土城區"
"236042","KED-0685","2018/11/08 17:49:19","新北市土城區城林路6巷80號","121.438705","24.9797416666667","6501300","土城區"
"236078","166-UM","2018/11/08 17:48:45","新北市土城區永寧路103號","121.42999","24.95507","6501300","土城區"
"236030","253-BX","2018/11/08 17:49:15","新北市土城區城林路6巷80號","121.438631666667","24.97972","6501300","土城區"
"236014","270-VK","2018/11/08 17:49:30","新北市土城區城林路6巷80號","121.438536666667","24.9796533333333","6501300","土城區"
"236021","401-BY","2018/11/08 17:49:25","新北市土城區城林路6巷80號","121.438765","24.9796816666667","6501300","土城區"
"236059","912-UM","2018/11/08 17:49:18","新北市土城區中華路二段124號","121.43773","24.973675","6501300","土城區"
"236063","915-UM","2018/11/08 17:49:16","新北市土城區城林路6巷80號","121.438495","24.9796333333333","6501300","土城區"
"236055","AAC-216","2018/11/08 17:49:29","新北市土城區城林路6巷80號","121.438713333333","24.979685","6501300","土城區"
"242036","AAC-296","2018/11/08 17:49:28","新北市新莊區建福路57號","121.426846666667","25.027345","6500500","新莊區"
"242058","986-R7","2018/11/08 17:49:26","新北市新莊區中正路726-12號","121.415288333333","25.0238666666667","6500500","新莊區"
"242056","751-BX","2018/11/08 17:49:18","新北市新莊區瓊林路40巷1號","121.447823333333","25.0302033333333","6500500","新莊區"
"242027","615-BX","2018/11/08 17:49:30","新北市新莊區福壽街167號","121.45798","25.0536416666667","6500500","新莊區"
"242025","613-BX","2018/11/08 17:49:28","新北市新莊區新北大道二段195號","121.46362","25.0608683333333","6500500","新莊區"
"242029","612-BX","2018/11/08 17:49:24","新北市新莊區復興路一段19號","121.446006666667","25.0417016666667","6500500","新莊區"
"242044","566-BX","2018/11/08 17:49:16","新北市新莊區中正路855巷21號","121.420283333333","25.02694","6500500","新莊區"
"242048","497-BY","2018/11/08 17:49:24","新北市新莊區萬安街144號","121.42012","25.0211766666667","6500500","新莊區"
"242039","442-UM","2018/11/08 17:49:25","新北市新莊區富國路204號","121.42493","25.0242916666667","6500500","新莊區"
"242053","441-UM","2018/11/08 17:49:25","新北市新莊區民安西路468-1號","121.431721666667","25.0079283333333","6500500","新莊區"
"242011","415-TV","2018/11/08 17:49:23","新北市新莊區中港路689號","121.450708333333","25.0566116666667","6500500","新莊區"
"242009","413-TV","2018/11/08 17:49:25","新北市新莊區昌明街52號","121.455863333333","25.05226","6500500","新莊區"
"242023","362-BY","2018/11/08 17:49:32","新北市新莊區福樂街35號","121.45766","25.0469983333333","6500500","新莊區"
"242061","353-BY","2018/11/08 17:49:32","新北市新莊區瓊林南路134號","121.43477","25.0082866666667","6500500","新莊區"
"242042","133-UY","2018/11/08 17:49:26","新北市泰山區貴陽街29號","121.42244","25.03331","6500500","新莊區"
"242034","135-UY","2018/11/08 17:49:17","新北市新莊區新莊路664-2號","121.442295","25.032995","6500500","新莊區"
"242051","172-VK","2018/11/08 17:49:32","新北市新莊區西盛街246巷16號","121.427395","25.0162416666667","6500500","新莊區"
"242013","173-VK","2018/11/08 17:49:24","新北市新莊區中誠街168號","121.448133333333","25.0474066666667","6500500","新莊區"
"242019","175-VK","2018/11/08 17:49:22","新北市新莊區新央街52號","121.45663","25.0400683333333","6500500","新莊區"
"242007","176-VK","2018/11/08 17:49:15","新北市新莊區福樂街156巷12弄20號","121.456798333333","25.04866","6500500","新莊區"
"242017","346-TH","2018/11/08 17:49:25","新北市新莊區永安街3號","121.45232","25.0448133333333","6500500","新莊區"
"242046","347-TH","2018/11/08 17:49:13","新北市新莊區福營路97巷9號","121.43473","25.03177","6500500","新莊區"
"242031","348-TH","2018/11/08 17:49:19","新北市新莊區新泰路340號","121.444758333333","25.0422416666667","6500500","新莊區"
"242004","349-TH","2018/11/08 17:49:29","新北市新莊區自立街231號","121.458046666667","25.0454716666667","6500500","新莊區"
"242021","350-TH","2018/11/08 17:49:12","新北市新莊區永寧街35巷1號","121.452861666667","25.039225","6500500","新莊區"
"242015","351-TH","2018/11/08 17:49:26","新北市新莊區新泰路462號","121.443355","25.044805","6500500","新莊區"
"238015","755-BX","2018/11/08 17:49:28","新北市樹林區樹德街42巷7號","121.421018333333","24.9923066666667","6500700","樹林區"
"238023","601-UM","2018/11/08 17:49:16","新北市樹林區龍興街34號","121.402778333333","25.0158183333333","6500700","樹林區"
"238019","599-UM","2018/11/08 17:49:15","新北市樹林區太平路108號","121.41848","24.9788316666667","6500700","樹林區"
"238018","571-TV","2018/11/08 17:49:15","新北市樹林區樹新路30-1號","121.427041666667","24.99456","6500700","樹林區"
"238022","KEA-2213","2018/11/08 17:49:29","新北市樹林區太順街62巷3弄32號","121.416558333333","24.9792816666667","6500700","樹林區"
"238021","KEA-2539","2018/11/08 17:49:16","新北市樹林區柑園街一段171號","121.399776666667","24.9572233333333","6500700","樹林區"
"238025","303-VK","2018/11/08 17:49:25","新北市樹林區三俊街108號","121.414778333333","25.0154983333333","6500700","樹林區"
"238017","283-BY","2018/11/08 17:49:17","新北市樹林區俊德街7號","121.414983333333","25.014735","6500700","樹林區"
"238014","282-BY","2018/11/08 17:49:18","新北市樹林區保安街一段289巷38號","121.417485","24.9969483333333","6500700","樹林區"
"238026","172-UY","2018/11/08 17:49:16","新北市樹林區新興街19巷2弄9號","121.401056666667","24.972825","6500700","樹林區"
"238016","169-UY","2018/11/08 17:49:10","新北市樹林區育英街165巷2號","121.418418333333","24.9894816666667","6500700","樹林區"
"239007","AAC-297","2018/11/08 17:49:15","新北市鶯歌區鶯桃路100號","121.339191666667","24.9542016666667","6500800","鶯歌區"
"239006","891-R6","2018/11/08 17:49:24","新北市鶯歌區永和街115巷28號","121.333345","24.969125","6500800","鶯歌區"
"239008","527-UM","2018/11/08 17:49:19","新北市鶯歌區大湖路718號","121.333223333333","24.9766566666667","6500800","鶯歌區"
"239005","526-UM","2018/11/08 17:49:26","新北市鶯歌區鳳吉五街31號","121.32738","24.9727066666667","6500800","鶯歌區"
"239001","417-VK","2018/11/08 17:49:30","新北市鶯歌區中正三路412號","121.324823333333","24.9346816666667","6500800","鶯歌區"
"239003","360-BY","2018/11/08 17:49:32","新北市鶯歌區永吉街46巷39號","121.334578333333","24.9575983333333","6500800","鶯歌區"
"239002","359-BY","2018/11/08 17:49:14","新北市鶯歌區光明街111號","121.344365","24.9557233333333","6500800","鶯歌區"
"239004","193-VK","2018/11/08 17:49:29","新北市鶯歌區文化路206號","121.352768333333","24.9495233333333","6500800","鶯歌區"
"221008","489-VK","2018/11/08 17:49:17","新北市汐止區康寧街901號","121.651333333333","25.0750116666667","6501100","汐止區"
"221036","130-UY","2018/11/08 17:49:23","新北市汐止區汐萬路一段115巷2號","121.65422","25.07093","6501100","汐止區"
"221015","131-UY","2018/11/08 17:49:19","新北市汐止區長江街213號","121.661498333333","25.07771","6501100","汐止區"
"221010","269-BY","2018/11/08 17:49:23","新北市汐止區汐萬路二段121號","121.648248333333","25.0840233333333","6501100","汐止區"
"221012","278-VK","2018/11/08 17:49:26","新北市汐止區長江街85號","121.657551666667","25.072385","6501100","汐止區"
"221023","279-VK","2018/11/08 17:48:34","新北市汐止區明峰街11號","121.635125","25.0713066666667","6501100","汐止區"
"221032","280-BY","2018/11/08 17:49:19","新北市汐止區大同路一段219巷26號","121.633125","25.05864","6501100","汐止區"
"221027","281-BY","2018/11/08 17:49:17","新北市汐止區汐萬路一段312號","121.650436666667","25.075135","6501100","汐止區"
"221021","299-VK","2018/11/08 17:49:32","新北市汐止區大同路二段341-1號","121.656176666667","25.0671966666667","6501100","汐止區"
"221031","353-TW","2018/11/08 17:49:28","新北市汐止區中興路98號","121.634611666667","25.0623316666667","6501100","汐止區"
"221035","622-UM","2018/11/08 17:49:30","新北市汐止區汐萬路一段160號","121.65257","25.0714966666667","6501100","汐止區"
"221025","623-UM","2018/11/08 17:49:27","新北市汐止區新興路32號","121.656745","25.0640433333333","6501100","汐止區"
"221038","646-BX","2018/11/08 17:49:24","新北市汐止區大同路二段187巷45號","121.652015","25.0659066666667","6501100","汐止區"
"221002","707-TV","2018/11/08 17:49:25","新北市汐止區康寧街901號","121.651448333333","25.0750416666667","6501100","汐止區"
"221018","753-BX","2018/11/08 17:49:16","新北市汐止區忠孝東路346號","121.665503333333","25.06979","6501100","汐止區"
"242002","281-VK","2018/11/08 17:49:19","新北市新莊區景德路140號","121.451106666667","25.0342016666667","6500500","新莊區"
"235061","KEA-2875","2018/11/08 17:20:43","新北市中和區員山路36巷16-2號","121.485313333333","24.9917016666667","6500300","中和區"
