"lineid","car","time","location","longitude","latitude","cityid","cityname"
"234026","9371-KE","2018/11/08 17:59:09","新北市永和區永和路一段41號","121.512815","25.0062366666667","6500400","永和區"
"249005","172-UM","2018/11/08 17:59:33","新北市八里區荖阡坑路18號","121.398368333333","25.1384233333333","6502300","八里區"
"249001","173-UM","2018/11/08 17:59:20","新北市八里區龍米路二段36號","121.448535","25.1401666666667","6502300","八里區"
"249004","303-UY","2018/11/08 17:59:15","新北市八里區中山路一段2號","121.423401666667","25.1589783333333","6502300","八里區"
"249002","305-UY","2018/11/08 17:59:16","新北市八里區龍米路一段259號","121.450683333333","25.133655","6502300","八里區"
"249003","593-UM","2018/11/08 17:59:21","新北市八里區中山路二段306號","121.404638333333","25.1500933333333","6502300","八里區"
"248016","026-BX","2018/11/08 17:59:10","新北市五股區中興路二段83巷26-6號","121.459665","25.0752666666667","6501500","五股區"
"248006","077-UY","2018/11/08 17:59:23","新北市五股區中興路二段103巷14號","121.458095","25.076695","6501500","五股區"
"248008","095-VK","2018/11/08 17:59:17","新北市五股區更洲路10號","121.4583","25.0788333333333","6501500","五股區"
"248020","225-UY","2018/11/08 17:59:16","新北市五股區中興路二段83巷26-3號","121.460076666667","25.0753933333333","6501500","五股區"
"248010","272-BY","2018/11/08 17:59:14","新北市五股區中興路二段83巷26號","121.459013333333","25.075705","6501500","五股區"
"248012","655-BX","2018/11/08 17:59:23","新北市五股區中興路二段57-6號","121.46072","25.0755966666667","6501500","五股區"
"248004","677-BX","2018/11/08 17:59:21","新北市五股區中興路二段83巷26-6號","121.459873333333","25.0751883333333","6501500","五股區"
"232011","076-UY","2018/11/08 17:59:14","新北市坪林區北宜路八段231號","121.709076666667","24.935035","6502000","坪林區"
"244023","069-UM","2018/11/08 17:59:20","新北市林口區東湖路93巷11號","121.384418333333","25.0728133333333","6501700","林口區"
"244007","080-UY","2018/11/08 17:59:12","新北市林口區竹林路273號","121.389601666667","25.0810933333333","6501700","林口區"
"244019","403-UM","2018/11/08 17:59:17","新北市林口區文化一路一段126號","121.375408333333","25.0727966666667","6501700","林口區"
"244013","KEA-2802","2018/11/08 17:59:24","新北市林口區中山路43號","121.394723333333","25.0783883333333","6501700","林口區"
"244017","485-VK","2018/11/08 17:59:16","新北市林口區忠孝路372號","121.369225","25.071405","6501700","林口區"
"244009","656-BX","2018/11/08 17:59:24","新北市林口區佳林路56巷13號","121.385406666667","25.08129","6501700","林口區"
"244011","701-TV","2018/11/08 17:59:21","新北市林口區中正路184號","121.391865","25.0775283333333","6501700","林口區"
"244025","837-TS","2018/11/08 17:59:17","新北市林口區三民路17號","121.3585","25.0665183333333","6501700","林口區"
"244021","838-TS","2018/11/08 17:59:19","新北市林口區仁愛路一段61巷17號","121.397606666667","25.0695966666667","6501700","林口區"
"243013","AAD-798","2018/11/08 17:59:22","新北市泰山區黎明路25號","121.42201","25.0608183333333","6501600","泰山區"
"222003","436-BY","2018/11/08 17:59:08","新北市深坑區炮子崙24-1號","121.606315","24.9885633333333","6501800","深坑區"
"231046","110-UY","2018/11/08 17:59:15","新北市新店區康雅崙路1號","121.540536666667","24.926215","6500600","新店區"
"231058","3713-VJ","2018/11/08 17:59:22","新北市新店區安華路28-1號","121.519215","24.9607466666667","6500600","新店區"
"231055","AKT-0513","2018/11/08 17:59:15","新北市新店區安華路3號","121.51912","24.9604283333333","6500600","新店區"
"251014","742-BX","2018/11/08 17:59:19","新北市淡水區南平6-1號","121.48151","25.2231633333333","6501000","淡水區"
"241016","266-UM","2018/11/08 17:59:25","新北市新莊區五權一路120號","121.460306666667","25.068405","6500200","三重區"
"241024","KEA-2210","2018/11/08 17:59:28","新北市三重區中正北路193巷35弄43號","121.477765","25.0712416666667","6500200","三重區"
"241033","AAC-255","2018/11/08 17:59:20","新北市三重區重新路五段599號","121.469493333333","25.04555","6500200","三重區"
"235065","098-UM","2018/11/08 17:59:20","新北市中和區中山路二段2巷81弄1號","121.501241666667","25.00755","6500300","中和區"
"235058","151-BY","2018/11/08 17:59:15","新北市中和區圓通路367巷4號","121.491383333333","24.9893366666667","6500300","中和區"
"235038","185-VK","2018/11/08 17:59:10","新北市中和區中正路501號","121.489098333333","24.9941183333333","6500300","中和區"
"235036","301-VK","2018/11/08 17:59:17","新北市中和區員山路36巷12號","121.483996666667","24.9907633333333","6500300","中和區"
"247012","KEA-2869","2018/11/08 17:59:13","新北市蘆洲區民族路167巷6號","121.47859","25.0881666666667","6501400","蘆洲區"
"235042","551-UM","2018/11/08 17:59:29","新北市中和區中正路637巷52弄1號","121.48544","24.993475","6500300","中和區"
"235070","558-UM","2018/11/08 17:59:28","新北市中和區員山路36巷16-2號","121.485221666667","24.9916","6500300","中和區"
"235054","640-BX","2018/11/08 17:59:13","新北市中和區員山路36巷16-3號","121.484908333333","24.9918116666667","6500300","中和區"
"235071","783-BX","2018/11/08 17:59:22","新北市中和區員山路36巷16-2號","121.485276666667","24.9911816666667","6500300","中和區"
"235057","801-TS","2018/11/08 17:59:16","新北市中和區員山路36巷16-3號","121.48509","24.9913333333333","6500300","中和區"
"235053","900-TW","2018/11/08 17:59:17","新北市中和區員山路36巷16-2號","121.485218333333","24.99165","6500300","中和區"
"235051","157-BY","2018/11/08 17:59:27","新北市中和區中正路637巷60弄61號","121.485408333333","24.9929766666667","6500300","中和區"
"235037","AAC-213","2018/11/08 17:59:21","新北市中和區中正路395號","121.489918333333","24.993535","6500300","中和區"
"247002","893-R6","2018/11/08 17:59:17","新北市蘆洲區永平街32巷57弄20號","121.459066666667","25.09323","6501400","蘆洲區"
"247016","546-UM","2018/11/08 17:59:29","新北市蘆洲區中正路185巷44號","121.467321666667","25.0849083333333","6501400","蘆洲區"
"247024","500-BY","2018/11/08 17:59:16","新北市蘆洲區光復路30巷35號","121.463886666667","25.0841816666667","6501400","蘆洲區"
"247014","339-TH","2018/11/08 17:59:18","新北市蘆洲區忠孝路57號","121.471326666667","25.0867216666667","6501400","蘆洲區"
"247020","057-VK","2018/11/08 17:59:12","新北市蘆洲區民權路121巷16弄2號","121.471423333333","25.08938","6501400","蘆洲區"
"228003","097-TW","2018/11/08 17:59:18","新北市貢寮區真理里美艷山街6-2號","121.92882","25.06102","6502600","貢寮區"
"228001","212-TW","2018/11/08 17:59:25","新北市貢寮區真理里新港街26巷50號","121.927796666667","25.053225","6502600","貢寮區"
"228002","585-TW","2018/11/08 17:59:28","新北市貢寮區福連里香蘭街2-1號","121.968541666667","25.023445","6502600","貢寮區"
"224006","676-BX","2018/11/08 17:59:12","新北市瑞芳區大寮路356-1號","121.784843333333","25.1032466666667","6501200","瑞芳區"
"224002","639-TC","2018/11/08 17:59:30","新北市瑞芳區三爪子坑路64-14號","121.80949","25.1058766666667","6501200","瑞芳區"
"224008","285-BY","2018/11/08 17:59:30","新北市瑞芳區明燈路一段45巷61-4號","121.821808333333","25.1051416666667","6501200","瑞芳區"
"224009","273-VK","2018/11/08 17:59:17","新北市瑞芳區金光路308號","121.851403333333","25.1076633333333","6501200","瑞芳區"
"224005","271-BY","2018/11/08 17:59:19","新北市瑞芳區深澳路10-2號","121.817423333333","25.1289233333333","6501200","瑞芳區"
"227010","642-TC","2018/11/08 17:36:26","新北市雙溪區三貂里政光路3-1號","121.850766666667","25.0633633333333","6502500","雙溪區"
"253006","032-BX","2018/11/08 17:59:30","新北市石門區大丘田45-2號","121.549765","25.2748566666667","6502200","石門區"
"253005","295-VK","2018/11/08 17:59:14","新北市石門區中山路62-11號","121.567506666667","25.2896816666667","6502200","石門區"
"208002","KEA-2872","2018/11/08 17:59:28","新北市金山區三界壇路75號","121.625488333333","25.22846","6502700","金山區"
"208003","665-BX","2018/11/08 17:59:23","新北市金山區磺港里磺港路202-1號","121.645126666667","25.2275","6502700","金山區"
"208001","761-BX","2018/11/08 17:59:23","新北市金山區磺港里社寮31號","121.639358333333","25.229155","6502700","金山區"
"251009","008-UM","2018/11/08 17:59:25","新北市淡水區大仁街6巷1號","121.442421666667","25.1745983333333","6501000","淡水區"
"251005","010-UM","2018/11/08 17:59:25","新北市淡水區英專路112號","121.445943333333","25.1721283333333","6501000","淡水區"
"251001","011-UM","2018/11/08 17:59:31","新北市淡水區民權路94巷1號","121.463076666667","25.124735","6501000","淡水區"
"251013","KEA-2871","2018/11/08 17:59:25","新北市淡水區泉洲厝31號","121.479593333333","25.19104","6501000","淡水區"
"251016","179-VK","2018/11/08 17:59:29","新北市淡水區埤島30-13號","121.44791","25.1982216666667","6501000","淡水區"
"251008","181-VK","2018/11/08 17:59:24","新北市淡水區八勢一街43-8號","121.461876666667","25.15587","6501000","淡水區"
"251015","182-VK","2018/11/08 17:59:17","新北市淡水區興福寮88巷1號","121.485335","25.1649833333333","6501000","淡水區"
"251010","413-VK","2018/11/08 17:59:23","新北市淡水區中正路一段87巷1號","121.421731666667","25.1791266666667","6501000","淡水區"
"251012","441-VK","2018/11/08 17:59:21","新北市淡水區北新路三段38巷7號","121.484545","25.1869983333333","6501000","淡水區"
"251007","442-VK","2018/11/08 17:59:16","新北市淡水區中正東路二段161巷11弄10號","121.461463333333","25.14608","6501000","淡水區"
"251004","443-VK","2018/11/08 17:59:23","新北市淡水區民權路187號","121.459398333333","25.1335366666667","6501000","淡水區"
"251006","561-UM","2018/11/08 17:59:19","新北市淡水區新生街20-5號","121.438876666667","25.1738466666667","6501000","淡水區"
"251011","650-BX","2018/11/08 17:59:16","新北市淡水區三空泉5-1號","121.477998333333","25.162015","6501000","淡水區"
"251002","672-BX","2018/11/08 17:59:26","新北市淡水區中正東路6號","121.447173333333","25.1672066666667","6501000","淡水區"
"251003","766-UM","2018/11/08 17:59:11","新北市淡水區大忠街90號","121.444915","25.1763016666667","6501000","淡水區"
"207003","550-UM","2018/11/08 17:59:25","新北市萬里區港東路野柳風景區攤販153號","121.69047","25.2052233333333","6502800","萬里區"
"207004","225-TW","2018/11/08 17:59:18","新北市萬里區中幅里中福路48號","121.683343333333","25.1740816666667","6502800","萬里區"
"252002","178-VK","2018/11/08 17:59:17","新北市三芝區中山路二段15號","121.502625","25.2556","6502100","三芝區"
"252001","292-VK","2018/11/08 17:59:31","新北市三芝區中興街二段2號","121.498346666667","25.2566466666667","6502100","三芝區"
"237004","KEA-2597","2018/11/08 17:59:20","新北市三峽區中正路二段122號","121.36631","24.917095","6500900","三峽區"
"237007","153-BY","2018/11/08 17:59:19","新北市三峽區中正路二段362號","121.365408333333","24.90998","6500900","三峽區"
"237009","210-TH","2018/11/08 17:59:23","新北市三峽區中山路106巷16號","121.366138333333","24.9361683333333","6500900","三峽區"
"237013","252-BX","2018/11/08 17:59:22","新北市三峽區介壽路一段53號","121.375603333333","24.9329083333333","6500900","三峽區"
"237012","275-BY","2018/11/08 17:59:24","新北市三峽區民生街27巷30號","121.376063333333","24.9361633333333","6500900","三峽區"
"237008","302-VK","2018/11/08 17:59:12","新北市三峽區白雞26號","121.368551666667","24.9124466666667","6500900","三峽區"
"237014","433-BY","2018/11/08 17:59:24","新北市三峽區和平街36巷7弄6號","121.37097","24.937375","6500900","三峽區"
"237006","5529-G3","2018/11/08 17:59:23","新北市三峽區介壽路二段38巷104號","121.392355","24.9334633333333","6500900","三峽區"
"237011","KEA-2596","2018/11/08 17:59:29","新北市三峽區中正路一段60-1號","121.374975","24.9301966666667","6500900","三峽區"
"237016","649-BX","2018/11/08 17:59:16","新北市三峽區詩朗139號","121.404895","24.9107316666667","6500900","三峽區"
"237010","706-TV","2018/11/08 17:59:31","新北市三峽區民權街132號","121.368596666667","24.93191","6500900","三峽區"
"237005","AKY-6261","2018/11/08 17:59:16","新北市三峽區文化路186號","121.369688333333","24.93708","6500900","三峽區"
"236070","105-UM","2018/11/08 17:59:26","新北市土城區青雲路647號","121.461736666667","24.9671066666667","6501300","土城區"
"236042","KED-0685","2018/11/08 17:59:19","新北市土城區城林路6巷80號","121.43869","24.9797283333333","6501300","土城區"
"236078","166-UM","2018/11/08 17:59:25","新北市土城區永寧路32巷10弄5號","121.428733333333","24.9610216666667","6501300","土城區"
"236030","253-BX","2018/11/08 17:59:15","新北市土城區城林路6巷80號","121.438668333333","24.97969","6501300","土城區"
"236026","269-VK","2018/11/08 17:59:26","新北市土城區承天路18號","121.43923","24.9634566666667","6501300","土城區"
"236014","270-VK","2018/11/08 17:59:30","新北市土城區城林路6巷80號","121.438555","24.979625","6501300","土城區"
"236021","401-BY","2018/11/08 17:59:25","新北市土城區城林路6巷80號","121.438465","24.97962","6501300","土城區"
"236059","912-UM","2018/11/08 17:59:18","新北市土城區中央路三段250號","121.427583333333","24.9642316666667","6501300","土城區"
"236049","913-UM","2018/11/08 17:59:18","新北市土城區城林路6巷80號","121.438628333333","24.9797483333333","6501300","土城區"
"236063","915-UM","2018/11/08 17:59:16","新北市土城區城林路6巷80號","121.438463333333","24.9796083333333","6501300","土城區"
"236055","AAC-216","2018/11/08 17:59:29","新北市土城區城林路6巷80號","121.438738333333","24.979675","6501300","土城區"
"242036","AAC-296","2018/11/08 17:59:28","新北市新莊區建福路34號","121.42636","25.0284883333333","6500500","新莊區"
"242058","986-R7","2018/11/08 17:59:26","新北市新莊區雙鳳路134巷7號","121.412671666667","25.028135","6500500","新莊區"
"242056","751-BX","2018/11/08 17:59:18","新北市新莊區瓊林路42巷26號","121.446521666667","25.0299233333333","6500500","新莊區"
"242027","615-BX","2018/11/08 17:59:30","新北市新莊區思源路375號","121.459733333333","25.0511133333333","6500500","新莊區"
"242025","613-BX","2018/11/08 17:59:28","新北市新莊區新北大道二段370號","121.462","25.0623166666667","6500500","新莊區"
"242029","612-BX","2018/11/08 17:59:24","新北市新莊區中平路110巷9號","121.445563333333","25.046055","6500500","新莊區"
"242044","566-BX","2018/11/08 17:59:16","新北市新莊區雙鳳路73巷1號","121.415023333333","25.0275716666667","6500500","新莊區"
"242048","497-BY","2018/11/08 17:59:24","新北市新莊區萬安街67巷12號","121.421836666667","25.0238183333333","6500500","新莊區"
"242039","442-UM","2018/11/08 17:59:25","新北市新莊區民安西路24巷12弄2號","121.426375","25.021065","6500500","新莊區"
"242053","441-UM","2018/11/08 17:59:26","新北市新莊區光華街44號","121.42871","25.0115316666667","6500500","新莊區"
"242011","415-TV","2018/11/08 17:59:23","新北市新莊區富貴路406號","121.45005","25.0570283333333","6500500","新莊區"
"242009","413-TV","2018/11/08 17:59:17","新北市新莊區中華路二段260號","121.452621666667","25.0532066666667","6500500","新莊區"
"242023","362-BY","2018/11/08 17:59:24","新北市新莊區福壽街67號","121.458236666667","25.0494016666667","6500500","新莊區"
"242061","353-BY","2018/11/08 17:59:32","新北市新莊區新樹路543號","121.432851666667","25.0080733333333","6500500","新莊區"
"242042","133-UY","2018/11/08 17:59:26","新北市新莊區丹鳳街36號","121.421608333333","25.0295616666667","6500500","新莊區"
"242034","135-UY","2018/11/08 17:59:17","新北市新莊區景德路384號","121.446158333333","25.0334733333333","6500500","新莊區"
"242051","172-VK","2018/11/08 17:59:17","新北市新莊區龍安路537號","121.428151666667","25.0176333333333","6500500","新莊區"
"242013","173-VK","2018/11/08 17:59:24","新北市新莊區中和街125巷7號","121.446981666667","25.048555","6500500","新莊區"
"242019","175-VK","2018/11/08 17:59:30","新北市新莊區明中街30號","121.457358333333","25.0394683333333","6500500","新莊區"
"242007","176-VK","2018/11/08 17:59:21","新北市新莊區自治街1號","121.453173333333","25.0479966666667","6500500","新莊區"
"242017","346-TH","2018/11/08 17:59:25","新北市新莊區永樂街195號","121.448256666667","25.0446","6500500","新莊區"
"242046","347-TH","2018/11/08 17:59:13","新北市新莊區福營路184號","121.431285","25.0308116666667","6500500","新莊區"
"242031","348-TH","2018/11/08 17:59:19","新北市新莊區新泰路277巷48號","121.443491666667","25.0401466666667","6500500","新莊區"
"242004","349-TH","2018/11/08 17:59:29","新北市新莊區福樂街134號","121.456585","25.0479466666667","6500500","新莊區"
"242021","350-TH","2018/11/08 17:59:32","新北市新莊區建興街41巷1號","121.450035","25.037035","6500500","新莊區"
"242015","351-TH","2018/11/08 17:59:26","新北市新莊區中平路119巷7號","121.444293333333","25.0466733333333","6500500","新莊區"
"238015","755-BX","2018/11/08 17:59:23","新北市樹林區大安路316號","121.417256666667","24.9918183333333","6500700","樹林區"
"238023","601-UM","2018/11/08 17:59:18","新北市樹林區龍興街44號","121.402881666667","25.015535","6500700","樹林區"
"238019","599-UM","2018/11/08 17:59:13","新北市樹林區忠孝街51號","121.424005","24.9815983333333","6500700","樹林區"
"238018","571-TV","2018/11/08 17:59:15","新北市樹林區樹新路110號","121.429815","24.99806","6500700","樹林區"
"238022","KEA-2213","2018/11/08 17:59:29","新北市樹林區太平路150巷11號","121.418013333333","24.977775","6500700","樹林區"
"238021","KEA-2539","2018/11/08 17:59:16","新北市樹林區田尾街82號","121.40909","24.958055","6500700","樹林區"
"238025","303-VK","2018/11/08 17:59:22","新北市樹林區俊興街209-6號","121.417485","25.01458","6500700","樹林區"
"238017","283-BY","2018/11/08 17:59:17","新北市樹林區三俊街2號","121.410703333333","25.015155","6500700","樹林區"
"238014","282-BY","2018/11/08 17:59:18","新北市樹林區大安路127號","121.42219","24.99752","6500700","樹林區"
"238026","172-UY","2018/11/08 17:59:16","新北市樹林區八德街598巷1號","121.397438333333","24.970565","6500700","樹林區"
"238016","169-UY","2018/11/08 17:59:10","新北市樹林區啟智街173巷10號","121.416033333333","24.9872266666667","6500700","樹林區"
"239007","AAC-297","2018/11/08 17:59:15","新北市鶯歌區鶯桃路47號","121.3421","24.9518","6500800","鶯歌區"
"239006","891-R6","2018/11/08 17:59:24","新北市鶯歌區鶯桃路413巷74號","121.329805","24.9630866666667","6500800","鶯歌區"
"239008","527-UM","2018/11/08 17:59:19","新北市鶯歌區香賓街11巷2號","121.336813333333","24.9794983333333","6500800","鶯歌區"
"239005","526-UM","2018/11/08 17:59:25","新北市鶯歌區鶯桃路668巷74-1號","121.330566666667","24.9721883333333","6500800","鶯歌區"
"239001","417-VK","2018/11/08 17:59:30","新北市鶯歌區中正三路225號","121.334958333333","24.939045","6500800","鶯歌區"
"239003","360-BY","2018/11/08 17:59:12","新北市鶯歌區鶯桃路213-1號","121.336861666667","24.959165","6500800","鶯歌區"
"239002","359-BY","2018/11/08 17:59:14","新北市鶯歌區育才街36號","121.348126666667","24.9552516666667","6500800","鶯歌區"
"221008","489-VK","2018/11/08 17:59:17","新北市汐止區明峰街23號","121.634451666667","25.0713533333333","6501100","汐止區"
"221036","130-UY","2018/11/08 17:59:23","新北市汐止區大同路三段62巷1號","121.667826666667","25.0769516666667","6501100","汐止區"
"221015","131-UY","2018/11/08 17:59:19","新北市汐止區長江街287號","121.665288333333","25.0812166666667","6501100","汐止區"
"221010","269-BY","2018/11/08 17:59:23","新北市汐止區汐萬路二段245巷54號","121.645136666667","25.08776","6501100","汐止區"
"221012","278-VK","2018/11/08 17:59:26","新北市汐止區長興街二段32號","121.673333333333","25.0814083333333","6501100","汐止區"
"221023","279-VK","2018/11/08 17:58:52","新北市汐止區明峰街133號","121.629945","25.0708266666667","6501100","汐止區"
"221032","280-BY","2018/11/08 17:59:19","新北市汐止區橫科路73巷20弄6號","121.619691666667","25.0514366666667","6501100","汐止區"
"221027","281-BY","2018/11/08 17:59:17","新北市汐止區大同路二段374號","121.657828333333","25.067105","6501100","汐止區"
"221029","298-VK","2018/11/08 17:59:22","新北市汐止區樟樹二路329號","121.641393333333","25.070385","6501100","汐止區"
"221021","299-VK","2018/11/08 17:59:32","新北市汐止區新興路14號","121.656345","25.0647316666667","6501100","汐止區"
"221031","353-TW","2018/11/08 17:59:28","新北市汐止區中興路151號","121.631306666667","25.06588","6501100","汐止區"
"221035","622-UM","2018/11/08 17:59:30","新北市汐止區新江北路30巷22弄5號","121.651505","25.0698733333333","6501100","汐止區"
"221025","623-UM","2018/11/08 17:59:27","新北市汐止區仁愛路45號","121.659615","25.0632766666667","6501100","汐止區"
"221038","646-BX","2018/11/08 17:59:24","新北市汐止區連興街128巷7弄12號","121.65353","25.0612266666667","6501100","汐止區"
"221033","647-BX","2018/11/08 17:59:20","新北市汐止區合順街17號","121.620011666667","25.043135","6501100","汐止區"
"221002","707-TV","2018/11/08 17:59:25","新北市汐止區工建路207號","121.635796666667","25.06175","6501100","汐止區"
"221018","753-BX","2018/11/08 17:59:16","新北市汐止區招商街11巷1號","121.666578333333","25.0687983333333","6501100","汐止區"
"242002","281-VK","2018/11/08 17:59:19","新北市新莊區中正路153-3號","121.455828333333","25.0367783333333","6500500","新莊區"
"235061","KEA-2875","2018/11/08 17:59:22","新北市中和區員山路36巷16-2號","121.485298333333","24.9917066666667","6500300","中和區"
