"lineid","car","time","location","longitude","latitude","cityid","cityname"
"234046","148-BY","2018/11/08 18:29:23","新北市永和區福和路1號","121.526323333333","25.0100366666667","6500400","永和區"
"234007","207-UY","2018/11/08 18:29:28","新北市永和區環河西路二段229巷3號","121.501495","25.0099766666667","6500400","永和區"
"234081","298-R6","2018/11/08 18:29:23","新北市永和區豫溪街217巷19號","121.524831666667","25.010185","6500400","永和區"
"234086","338-UY","2018/11/08 18:29:24","新北市永和區福和路1號","121.526275","25.009645","6500400","永和區"
"234017","745-BX","2018/11/08 18:29:19","新北市永和區福和路1號","121.52634","25.0095866666667","6500400","永和區"
"234013","KEA-2591","2018/11/08 18:29:25","新北市永和區竹林路91巷60弄70號","121.523053333333","25.01225","6500400","永和區"
"234042","862-TW","2018/11/08 18:29:19","新北市永和區中和路625號","121.512916666667","25.0047983333333","6500400","永和區"
"234026","9371-KE","2018/11/08 18:29:09","新北市永和區中正路655號","121.515018333333","25.0102033333333","6500400","永和區"
"234011","9373-KE","2018/11/08 18:29:23","新北市永和區保福路二段158巷1號","121.509048333333","25.0150283333333","6500400","永和區"
"249005","172-UM","2018/11/08 18:29:13","新北市八里區中華路三段134號","121.391805","25.1338866666667","6502300","八里區"
"249001","173-UM","2018/11/08 18:29:20","新北市八里區龍米路一段116號","121.453213333333","25.1251733333333","6502300","八里區"
"249004","303-UY","2018/11/08 18:29:15","新北市八里區忠孝路124號","121.4254","25.1604533333333","6502300","八里區"
"249002","305-UY","2018/11/08 18:29:16","新北市八里區龍形三街26號","121.447958333333","25.1316533333333","6502300","八里區"
"248016","026-BX","2018/11/08 18:29:30","新北市五股區凌雲路一段83巷13弄2號","121.449236666667","25.1009783333333","6501500","五股區"
"248006","077-UY","2018/11/08 18:29:23","新北市五股區四維路1巷1號","121.467098333333","25.070095","6501500","五股區"
"248008","095-VK","2018/11/08 18:29:18","新北市五股區四維路185巷42弄1號","121.463645","25.0768166666667","6501500","五股區"
"248020","225-UY","2018/11/08 18:29:16","新北市五股區天乙路114號","121.446971666667","25.1132766666667","6501500","五股區"
"248010","272-BY","2018/11/08 18:29:14","新北市五股區水碓路14號","121.433745","25.0723816666667","6501500","五股區"
"248012","655-BX","2018/11/08 18:29:34","新北市五股區御成路128號","121.441381666667","25.0940533333333","6501500","五股區"
"248004","677-BX","2018/11/08 18:29:21","新北市五股區工商路150號","121.433163333333","25.0874033333333","6501500","五股區"
"248002","678-BX","2018/11/08 18:29:24","新北市五股區西雲路116-6號","121.44476","25.0936566666667","6501500","五股區"
"232011","076-UY","2018/11/08 18:29:14","新北市坪林區坪雙路一段41號","121.711635","24.9424483333333","6502000","坪林區"
"244023","069-UM","2018/11/08 18:29:29","新北市林口區文化一路二段2號","121.380171666667","25.0767116666667","6501700","林口區"
"244007","080-UY","2018/11/08 18:29:32","新北市林口區後湖3-4號","121.389045","25.0979616666667","6501700","林口區"
"244019","403-UM","2018/11/08 18:29:17","新北市林口區忠孝路646巷12號","121.37904","25.0678916666667","6501700","林口區"
"244013","KEA-2802","2018/11/08 18:29:25","新北市林口區佳林路104號","121.385153333333","25.0790983333333","6501700","林口區"
"244017","485-VK","2018/11/08 18:29:16","新北市林口區八德路78號","121.36555","25.0656233333333","6501700","林口區"
"244009","656-BX","2018/11/08 18:29:24","新北市林口區文林一街115巷20號","121.378875","25.0876866666667","6501700","林口區"
"244011","701-TV","2018/11/08 18:29:21","新北市林口區中山路144號","121.391531666667","25.0786833333333","6501700","林口區"
"244025","837-TS","2018/11/08 18:29:17","新北市林口區南勢六街79號","121.354736666667","25.0724533333333","6501700","林口區"
"244021","838-TS","2018/11/08 18:29:19","新北市林口區自強三街7號","121.397448333333","25.0779133333333","6501700","林口區"
"243013","AAD-798","2018/11/08 18:24:46","新北市泰山區明志路三段206巷1號","121.423321666667","25.0378966666667","6501600","泰山區"
"243012","646-TV","2018/11/08 18:29:31","新北市泰山區泰林路二段408號","121.427636666667","25.0643533333333","6501600","泰山區"
"222003","436-BY","2018/11/08 18:29:28","新北市深坑區翠谷街22號","121.62696","25.00882","6501800","深坑區"
"222002","659-BX","2018/11/08 18:29:27","新北市深坑區雲鄉路143號","121.622183333333","24.9982266666667","6501800","深坑區"
"231041","002-UM","2018/11/08 18:29:29","新北市新店區安華路28-1號","121.51976","24.961005","6500600","新店區"
"231066","0291-UT","2018/11/08 18:29:14","新北市新店區安一路一段1-1號","121.51927","24.9613116666667","6500600","新店區"
"231059","046-UY","2018/11/08 18:29:12","新北市新店區安華路28-1號","121.519501666667","24.9608183333333","6500600","新店區"
"231040","047-UY","2018/11/08 18:29:18","新北市新店區安華路28-1號","121.519256666667","24.96091","6500600","新店區"
"231044","106-UY","2018/11/08 18:29:24","新北市新店區安華路28-1號","121.519681666667","24.9608633333333","6500600","新店區"
"231052","108-UY","2018/11/08 18:29:28","新北市新店區新烏路一段58-1號","121.545888333333","24.9499283333333","6500600","新店區"
"231046","110-UY","2018/11/08 18:29:15","新北市新店區直潭七街60號","121.532303333333","24.93979","6500600","新店區"
"231047","187-VK","2018/11/08 18:29:33","新北市新店區安一路一段1-1號","121.519506666667","24.9611633333333","6500600","新店區"
"231062","188-VK","2018/11/08 18:29:27","新北市新店區安一路一段1-1號","121.519031666667","24.961355","6500600","新店區"
"231054","KEA-2219","2018/11/08 18:29:20","新北市新店區安一路一段1-1號","121.51962","24.9612616666667","6500600","新店區"
"231057","256-BX","2018/11/08 18:29:18","新北市新店區環河路29巷1號","121.536706666667","24.9612683333333","6500600","新店區"
"231042","268-BY","2018/11/08 18:29:19","新北市新店區安華路28-1號","121.519286666667","24.9606233333333","6500600","新店區"
"231051","278-BY","2018/11/08 18:28:40","新北市新店區安一路一段1-1號","121.520045","24.9610966666667","6500600","新店區"
"231050","AAD-862","2018/11/08 18:29:15","新北市新店區安一路一段1-1號","121.519576666667","24.9614366666667","6500600","新店區"
"231060","355-BY","2018/11/08 18:29:33","新北市新店區安一路一段1-1號","121.519276666667","24.9610033333333","6500600","新店區"
"231058","3713-VJ","2018/11/08 18:29:22","新北市新店區環河路19巷7弄2號","121.537651666667","24.9605166666667","6500600","新店區"
"231056","4715-K9","2018/11/08 18:29:29","新北市新店區自立街45巷1號","121.537111666667","24.9799266666667","6500600","新店區"
"231067","4772-VM","2018/11/08 18:29:22","新北市新店區安華路28-1號","121.51921","24.9607066666667","6500600","新店區"
"231065","512-UM","2018/11/08 18:29:17","新北市新店區安一路一段1-1號","121.519313333333","24.96138","6500600","新店區"
"231049","513-UM","2018/11/08 18:29:12","新北市新店區安一路一段1-1號","121.519698333333","24.9611133333333","6500600","新店區"
"231045","617-UM","2018/11/08 18:29:29","新北市新店區安華路28-1號","121.519496666667","24.9608366666667","6500600","新店區"
"231061","619-UM","2018/11/08 18:29:26","新北市新店區安華路28-1號","121.51939","24.9607933333333","6500600","新店區"
"231063","641-BX","2018/11/08 18:29:21","新北市新店區安華路28-1號","121.519568333333","24.9605883333333","6500600","新店區"
"231064","719-UM","2018/11/08 18:29:14","新北市新店區安一路一段1-1號","121.519293333333","24.9611883333333","6500600","新店區"
"231043","899-TW","2018/11/08 18:29:25","新北市新店區安一路一段1-1號","121.519033333333","24.9609616666667","6500600","新店區"
"231055","AKT-0513","2018/11/08 18:29:15","新北市新店區中正路224號","121.540131666667","24.9726966666667","6500600","新店區"
"251014","742-BX","2018/11/08 18:29:19","新北市淡水區南平20號","121.493763333333","25.2167316666667","6501000","淡水區"
"235066","003-UY","2018/11/08 18:29:27","新北市中和區中山路二段120號","121.502895","25.0038133333333","6500300","中和區"
"235064","005-UY","2018/11/08 18:29:27","新北市中和區連城路139巷40號","121.496528333333","24.99764","6500300","中和區"
"235063","006-UY","2018/11/08 18:29:19","新北市中和區連城路389巷20號","121.486536666667","24.9951883333333","6500300","中和區"
"235056","096-UM","2018/11/08 18:29:15","新北市中和區員山路611巷1號","121.477886666667","25.0111733333333","6500300","中和區"
"235039","097-UM","2018/11/08 18:29:24","新北市中和區安平路192-1號","121.513286666667","24.9993283333333","6500300","中和區"
"235065","098-UM","2018/11/08 18:29:20","新北市中和區中山路二段64巷20號","121.50314","25.0059516666667","6500300","中和區"
"235058","151-BY","2018/11/08 18:29:16","新北市中和區圓通路369巷30弄62號","121.488703333333","24.9847933333333","6500300","中和區"
"235055","183-VK","2018/11/08 18:29:14","新北市中和區莒光路171號","121.472811666667","24.99984","6500300","中和區"
"235038","185-VK","2018/11/08 18:29:30","新北市中和區立人街1號","121.521963333333","24.9938633333333","6500300","中和區"
"235049","186-VK","2018/11/08 18:29:21","新北市中和區景安路175-1號","121.505151666667","24.9942916666667","6500300","中和區"
"235067","255-BX","2018/11/08 18:29:23","新北市中和區連城路308號","121.483685","24.996325","6500300","中和區"
"235072","301-VK","2018/11/08 18:29:17","新北市中和區連城路144巷4弄11號","121.49571","24.9987466666667","6500300","中和區"
"235043","352-BY","2018/11/08 18:29:31","新北市中和區景平路301號","121.506695","24.9931316666667","6500300","中和區"
"235050","4979-A6","2018/11/08 18:29:22","新北市中和區景新街362巷5號","121.51199","24.9901166666667","6500300","中和區"
"235069","4980-A6","2018/11/08 18:29:27","新北市中和區連城路127巷27號","121.497095","24.9975833333333","6500300","中和區"
"235042","551-UM","2018/11/08 18:29:29","新北市中和區自立路56巷21號","121.522485","24.9916216666667","6500300","中和區"
"235070","558-UM","2018/11/08 18:29:28","新北市中和區景新街160巷2號","121.505648333333","24.9972666666667","6500300","中和區"
"235045","565-BX","2018/11/08 18:29:28","新北市中和區南山路236巷24弄70號","121.504173333333","24.98864","6500300","中和區"
"235054","640-BX","2018/11/08 18:29:33","新北市中和區民享街92巷2號","121.474841666667","25.00014","6500300","中和區"
"235060","647-TV","2018/11/08 18:29:20","新北市中和區員山路453號","121.480615","25.0042533333333","6500300","中和區"
"235046","733-UM","2018/11/08 18:29:15","新北市中和區板南路100號","121.503811666667","24.9923466666667","6500300","中和區"
"235071","783-BX","2018/11/08 18:29:22","新北市中和區員山路36巷16-3號","121.48516","24.9911533333333","6500300","中和區"
"235062","800-TS","2018/11/08 18:29:20","新北市中和區景平路989巷2號","121.49563","25.0053666666667","6500300","中和區"
"235057","801-TS","2018/11/08 18:29:25","新北市中和區民安街43號","121.479866666667","25.0002516666667","6500300","中和區"
"235052","805-TS","2018/11/08 18:29:20","新北市中和區興南路二段96號","121.505213333333","24.9842233333333","6500300","中和區"
"235048","896-TW","2018/11/08 18:29:32","新北市中和區中正路73號","121.501006666667","24.9934916666667","6500300","中和區"
"235053","900-TW","2018/11/08 18:29:18","新北市中和區連城路506號","121.477566666667","24.9926083333333","6500300","中和區"
"235051","157-BY","2018/11/08 18:29:27","新北市中和區興南路二段142巷25弄34號","121.502585","24.9843266666667","6500300","中和區"
"235037","AAC-213","2018/11/08 18:29:21","新北市中和區景德街97號","121.515776666667","24.99116","6500300","中和區"
"220065","072-UY","2018/11/08 18:29:16","新北市板橋區民族路61號","121.464905","25.0087716666667","6500100","板橋區"
"220086","073-UY","2018/11/08 18:29:23","新北市板橋區南雅南路二段1-1號","121.454771666667","25.0039033333333","6500100","板橋區"
"220069","AAD-861","2018/11/08 18:29:12","新北市板橋區華東街1-10號","121.44836","24.9950883333333","6500100","板橋區"
"226004","312-R5","2018/11/08 18:29:22","新北市平溪區白石里白石腳211號","121.72808","25.022585","6502400","平溪區"
"235041","251-BX","2018/11/08 18:29:26","新北市中和區景安路78號","121.505773333333","24.9964516666667","6500300","中和區"
"228003","097-TW","2018/11/08 18:29:18","新北市貢寮區和美里和美街38號","121.912261666667","25.0892366666667","6502600","貢寮區"
"228001","212-TW","2018/11/08 18:29:34","新北市貢寮區仁理村仁和路60號","121.922995","25.049805","6502600","貢寮區"
"228002","585-TW","2018/11/08 18:29:28","新北市貢寮區福連里福連街37號","121.988875","25.010825","6502600","貢寮區"
"224006","676-BX","2018/11/08 18:29:12","新北市瑞芳區逢甲路76-1號","121.810445","25.10829","6501200","瑞芳區"
"224002","639-TC","2018/11/08 18:29:15","新北市瑞芳區三爪子坑路29巷29號","121.813716666667","25.106755","6501200","瑞芳區"
"224008","285-BY","2018/11/08 18:29:19","新北市瑞芳區岳王路1巷31號","121.805888333333","25.1104933333333","6501200","瑞芳區"
"224007","275-VK","2018/11/08 18:29:24","新北市瑞芳區大埔路國宅新村29號","121.765158333333","25.1005333333333","6501200","瑞芳區"
"224009","273-VK","2018/11/08 18:29:29","新北市瑞芳區五號路36號","121.855333333333","25.1098316666667","6501200","瑞芳區"
"224005","271-BY","2018/11/08 18:29:16","新北市瑞芳區台電新村50號","121.81186","25.127115","6501200","瑞芳區"
"227010","642-TC","2018/11/08 18:29:30","新北市雙溪區牡丹里牡丹147號","121.851433333333","25.058895","6502500","雙溪區"
"227004","400-TW","2018/11/08 18:29:13","新北市雙溪區共和里中山路59號","121.868835","25.03123","6502500","雙溪區"
"253006","032-BX","2018/11/08 18:29:30","新北市石門區公地51-3號","121.545166666667","25.2897466666667","6502200","石門區"
"253005","295-VK","2018/11/08 18:29:27","新北市石門區老崩山6-1號","121.552615","25.2912083333333","6502200","石門區"
"222001","KEA-2212","2018/11/08 18:29:16","新北市深坑區北深路一段199號","121.630898333333","25.0095533333333","6501800","深坑區"
"208002","KEA-2872","2018/11/08 18:29:28","新北市金山區民生路45號","121.641946666667","25.2209983333333","6502700","金山區"
"208003","665-BX","2018/11/08 18:29:23","新北市金山區中山路165號","121.638713333333","25.2205766666667","6502700","金山區"
"208001","761-BX","2018/11/08 18:29:23","新北市金山區金包里街舊市場1號","121.637956666667","25.2213616666667","6502700","金山區"
"251005","010-UM","2018/11/08 18:29:25","新北市淡水區中正東路35巷26號","121.44667","25.16885","6501000","淡水區"
"251001","011-UM","2018/11/08 18:29:24","新北市淡水區自強路373號","121.464583333333","25.133325","6501000","淡水區"
"251013","KEA-2871","2018/11/08 18:29:25","新北市淡水區椿子林19-1號","121.480556666667","25.2039916666667","6501000","淡水區"
"251016","179-VK","2018/11/08 18:29:24","新北市淡水區下圭柔山115-11號","121.446363333333","25.2122533333333","6501000","淡水區"
"251008","181-VK","2018/11/08 18:29:24","新北市淡水區北投子87-3號","121.468965","25.1786983333333","6501000","淡水區"
"251015","182-VK","2018/11/08 18:29:17","新北市淡水區興福寮88巷216號","121.485965","25.1665816666667","6501000","淡水區"
"251010","413-VK","2018/11/08 18:29:23","新北市淡水區沙崙路181巷1號","121.424165","25.1842233333333","6501000","淡水區"
"251012","441-VK","2018/11/08 18:29:21","新北市淡水區北新路一段129-1號","121.457533333333","25.1820966666667","6501000","淡水區"
"251004","443-VK","2018/11/08 18:29:23","新北市淡水區民族路31巷25號","121.462208333333","25.136445","6501000","淡水區"
"251006","561-UM","2018/11/08 18:29:19","新北市淡水區新生街51巷26號","121.440715","25.1756366666667","6501000","淡水區"
"251011","650-BX","2018/11/08 18:29:15","新北市淡水區中正東路34-3號","121.448676666667","25.1659933333333","6501000","淡水區"
"251002","672-BX","2018/11/08 18:29:12","新北市淡水區中正東路一段21巷12號","121.452436666667","25.16415","6501000","淡水區"
"251003","766-UM","2018/11/08 18:29:31","新北市淡水區北新路169巷35-1號","121.449565","25.180055","6501000","淡水區"
"207003","550-UM","2018/11/08 18:29:29","新北市萬里區野柳里港東路88-1號","121.688036666667","25.2038166666667","6502800","萬里區"
"207004","225-TW","2018/11/08 18:29:18","新北市萬里區萬里里瑪鋉路272-1號","121.688883333333","25.18084","6502800","萬里區"
"252002","178-VK","2018/11/08 18:29:15","新北市三芝區中山路二段39號","121.502956666667","25.25513","6502100","三芝區"
"252003","249-BX","2018/11/08 18:29:19","新北市三芝區後厝里北勢子45-33號","121.469925","25.2511033333333","6502100","三芝區"
"252001","292-VK","2018/11/08 18:29:11","新北市三芝區中興街二段2號","121.498333333333","25.2566266666667","6502100","三芝區"
"237004","KEA-2597","2018/11/08 18:29:20","新北市三峽區五寮61號","121.361148333333","24.8604683333333","6500900","三峽區"
"237007","153-BY","2018/11/08 18:29:19","新北市三峽區中正路二段451號","121.361255","24.9064083333333","6500900","三峽區"
"237009","210-TH","2018/11/08 18:29:23","新北市三峽區民權街231號","121.368001666667","24.92785","6500900","三峽區"
"237013","252-BX","2018/11/08 18:29:22","新北市三峽區光明路69巷25號","121.376723333333","24.9291933333333","6500900","三峽區"
"237012","275-BY","2018/11/08 18:29:24","新北市三峽區三樹路168巷21號","121.379345","24.940625","6500900","三峽區"
"237008","302-VK","2018/11/08 18:29:32","新北市三峽區白雞68-153號","121.39043","24.9085766666667","6500900","三峽區"
"237014","433-BY","2018/11/08 18:29:24","新北市三峽區民生街111-1號","121.373848333333","24.935385","6500900","三峽區"
"237006","5529-G3","2018/11/08 18:29:23","新北市三峽區溪東路473巷8號","121.413905","24.9283816666667","6500900","三峽區"
"237011","KEA-2596","2018/11/08 18:29:28","新北市三峽區溪東路436號","121.415591666667","24.9276533333333","6500900","三峽區"
"237016","649-BX","2018/11/08 18:29:16","新北市三峽區竹崙路131號","121.434375","24.90955","6500900","三峽區"
"237010","706-TV","2018/11/08 18:29:31","新北市三峽區復興路485號","121.361313333333","24.9384266666667","6500900","三峽區"
"237005","AKY-6261","2018/11/08 18:29:16","新北市三峽區秀川街78號","121.37078","24.9336266666667","6500900","三峽區"
"236070","105-UM","2018/11/08 18:29:25","新北市土城區永豐路255巷23弄2號","121.475261666667","24.9732616666667","6501300","土城區"
"236042","KED-0685","2018/11/08 18:29:19","新北市土城區裕民路61巷6號","121.449511666667","24.9880483333333","6501300","土城區"
"236078","166-UM","2018/11/08 18:29:25","新北市土城區大暖路29號","121.423005","24.9608383333333","6501300","土城區"
"236030","253-BX","2018/11/08 18:29:20","新北市土城區水源街81巷7號","121.439398333333","24.9758416666667","6501300","土城區"
"236026","269-VK","2018/11/08 18:29:28","新北市土城區南天母路135巷14號","121.448221666667","24.9545866666667","6501300","土城區"
"236014","270-VK","2018/11/08 18:29:30","新北市土城區立清街69號","121.460358333333","24.987295","6501300","土城區"
"236038","271-VK","2018/11/08 18:29:18","新北市土城區明德路一段309號","121.45965","24.97715","6501300","土城區"
"236021","401-BY","2018/11/08 18:29:25","新北市土城區永豐路202巷14號","121.466361666667","24.9835583333333","6501300","土城區"
"236059","912-UM","2018/11/08 18:29:18","新北市土城區中央路四段208號","121.41599","24.9574633333333","6501300","土城區"
"236049","913-UM","2018/11/08 18:29:32","新北市土城區青雲路449-1號","121.458761666667","24.9746933333333","6501300","土城區"
"236063","915-UM","2018/11/08 18:29:16","新北市土城區延壽路115巷1號","121.469088333333","24.9940683333333","6501300","土城區"
"236055","AAC-216","2018/11/08 18:29:29","新北市土城區中華路二段1號","121.439645","24.9790216666667","6501300","土城區"
"242058","986-R7","2018/11/08 18:29:26","桃園市龜山區萬壽路一段78號","121.408283333333","25.0190966666667","6500500","新莊區"
"242025","613-BX","2018/11/08 18:29:28","新北市新莊區中央路230號","121.454776666667","25.059705","6500500","新莊區"
"242044","566-BX","2018/11/08 18:29:16","新北市新莊區中正路新旺巷38號","121.416418333333","25.0225433333333","6500500","新莊區"
"242053","441-UM","2018/11/08 18:29:25","新北市樹林區環河路2-2號","121.425758333333","24.97708","6500500","新莊區"
"242011","415-TV","2018/11/08 18:29:23","新北市新莊區中港路615巷7號","121.450788333333","25.0533233333333","6500500","新莊區"
"242061","353-BY","2018/11/08 18:29:31","新北市新莊區富國路176巷1號","121.424243333333","25.024395","6500500","新莊區"
"242042","133-UY","2018/11/08 18:29:26","新北市新莊區天祥街53號","121.414993333333","25.0303833333333","6500500","新莊區"
"242051","172-VK","2018/11/08 18:29:17","新北市板橋區金門街215巷90號","121.433763333333","24.9859916666667","6500500","新莊區"
"242007","176-VK","2018/11/08 18:29:15","新北市新莊區環漢路二段630號","121.443785","25.02508","6500500","新莊區"
"242046","347-TH","2018/11/08 18:29:33","新北市新莊區中正路803巷1號","121.421641666667","25.0281066666667","6500500","新莊區"
"242004","349-TH","2018/11/08 18:29:09","新北市新莊區三和路12-21號","121.442226666667","25.038275","6500500","新莊區"
"242015","351-TH","2018/11/08 18:29:26","新北市新莊區新泰路357巷3號","121.442181666667","25.041545","6500500","新莊區"
"238015","755-BX","2018/11/08 18:29:23","新北市樹林區備內街3號","121.413063333333","24.9868333333333","6500700","樹林區"
"238023","601-UM","2018/11/08 18:29:16","新北市樹林區三福街114號","121.406501666667","25.0163183333333","6500700","樹林區"
"238019","599-UM","2018/11/08 18:29:33","新北市樹林區中華路190-16號","121.411743333333","24.9806033333333","6500700","樹林區"
"238018","571-TV","2018/11/08 18:29:26","新北市樹林區樹新路50巷20號","121.429523333333","24.99676","6500700","樹林區"
"238024","5061-A6","2018/11/08 18:29:12","新北市樹林區中山路一段149-3號","121.422111666667","24.98916","6500700","樹林區"
"238025","303-VK","2018/11/08 18:29:22","新北市樹林區保安街一段55號","121.423523333333","24.99485","6500700","樹林區"
"238017","283-BY","2018/11/08 18:29:17","新北市樹林區光榮街53號","121.412031666667","25.0036583333333","6500700","樹林區"
"238026","172-UY","2018/11/08 18:29:16","新北市樹林區八德街624號","121.397041666667","24.9697033333333","6500700","樹林區"
"238016","169-UY","2018/11/08 18:29:10","新北市樹林區啟智街173巷10號","121.415968333333","24.9871683333333","6500700","樹林區"
"239007","AAC-297","2018/11/08 18:29:15","新北市鶯歌區國慶街26號","121.349271666667","24.9558883333333","6500800","鶯歌區"
"239006","891-R6","2018/11/08 18:29:23","新北市鶯歌區鶯桃路242巷13號","121.336538333333","24.960035","6500800","鶯歌區"
"239008","527-UM","2018/11/08 18:29:19","新北市鶯歌區朝陽街2號","121.336216666667","24.976615","6500800","鶯歌區"
"239005","526-UM","2018/11/08 18:29:25","新北市鶯歌區鶯桃路668巷23號","121.328961666667","24.97023","6500800","鶯歌區"
"239001","417-VK","2018/11/08 18:29:30","新北市鶯歌區國中街195號","121.33826","24.9391783333333","6500800","鶯歌區"
"239003","360-BY","2018/11/08 18:29:24","新北市鶯歌區永和街69號","121.332985","24.967735","6500800","鶯歌區"
"239002","359-BY","2018/11/08 18:29:14","新北市鶯歌區中正一路214號","121.353425","24.9569083333333","6500800","鶯歌區"
"239004","193-VK","2018/11/08 18:29:29","新北市鶯歌區尖山路174巷35弄3號","121.344346666667","24.9484983333333","6500800","鶯歌區"
"221008","489-VK","2018/11/08 18:29:17","新北市汐止區康寧街901號","121.651385","25.075","6501100","汐止區"
"221036","130-UY","2018/11/08 18:29:23","新北市汐止區忠孝東路473巷22號","121.665305","25.07351","6501100","汐止區"
"221015","131-UY","2018/11/08 18:29:25","新北市汐止區長江街367-1號","121.668035","25.0826466666667","6501100","汐止區"
"221010","269-BY","2018/11/08 18:29:23","新北市汐止區汐萬路三段252巷14號","121.644716666667","25.1048816666667","6501100","汐止區"
"221012","278-VK","2018/11/08 18:29:26","新北市汐止區保長路53號","121.673733333333","25.07885","6501100","汐止區"
"221023","279-VK","2018/11/08 18:28:52","新北市汐止區康寧街474巷7-2號","121.632325","25.0679366666667","6501100","汐止區"
"221032","280-BY","2018/11/08 18:29:19","新北市汐止區民權街二段102號","121.61866","25.0468416666667","6501100","汐止區"
"221027","281-BY","2018/11/08 18:29:17","新北市汐止區和平街40號","121.662598333333","25.070825","6501100","汐止區"
"221029","298-VK","2018/11/08 18:29:22","新北市汐止區樟樹一路272-6號","121.642723333333","25.0688166666667","6501100","汐止區"
"221021","299-VK","2018/11/08 18:29:32","新北市汐止區新台五路一段146號","121.65331","25.062005","6501100","汐止區"
"221031","353-TW","2018/11/08 18:29:28","新北市汐止區大同路一段403巷1號","121.641436666667","25.0602133333333","6501100","汐止區"
"221035","622-UM","2018/11/08 18:29:30","新北市汐止區大同路二段49號","121.648406666667","25.0629516666667","6501100","汐止區"
"221025","623-UM","2018/11/08 18:29:27","新北市汐止區仁愛路120號","121.66289","25.063695","6501100","汐止區"
"221038","646-BX","2018/11/08 18:29:24","新北市汐止區大同路二段430號","121.659131666667","25.067115","6501100","汐止區"
"221033","647-BX","2018/11/08 18:29:20","新北市汐止區宜興街1號","121.62083","25.0411916666667","6501100","汐止區"
"221002","707-TV","2018/11/08 18:29:25","新北市汐止區福德一路147號","121.636745","25.0667133333333","6501100","汐止區"
"221018","753-BX","2018/11/08 18:29:25","新北市汐止區茄苳路220號","121.670811666667","25.0687466666667","6501100","汐止區"
"220080","200-UY","2018/11/08 18:29:24","新北市板橋區華東街1-10號","121.448221666667","24.9950133333333","6500100","板橋區"
"220056","276-BY","2018/11/08 18:29:19","新北市板橋區華東街1-9號","121.448126666667","24.994935","6500100","板橋區"
"220071","283-VK","2018/11/08 18:29:26","新北市板橋區華東街1-9號","121.448071666667","24.9949283333333","6500100","板橋區"
"220083","286-VK","2018/11/08 18:29:12","新北市板橋區華東街1-10號","121.448331666667","24.9950966666667","6500100","板橋區"
"220081","287-VK","2018/11/08 18:29:29","新北市板橋區華東街1-10號","121.448256666667","24.99503","6500100","板橋區"
"220084","296-UM","2018/11/08 18:29:22","新北市板橋區華東街1-9號","121.448153333333","24.99493","6500100","板橋區"
"220075","303-R5","2018/11/08 18:29:32","新北市板橋區華東街1-9號","121.448201666667","24.9949366666667","6500100","板橋區"
"220064","486-VK","2018/11/08 18:29:13","新北市板橋區南雅南路二段120-2號","121.45255","24.99987","6500100","板橋區"
"220035","560-BX","2018/11/08 18:29:26","新北市板橋區南雅西路一段19巷6號","121.453925","25.0038733333333","6500100","板橋區"
"220057","686-BX","2018/11/08 18:29:18","新北市板橋區華東街1-10號","121.448313333333","24.99493","6500100","板橋區"
"220077","687-BX","2018/11/08 18:29:21","新北市板橋區華東街1-10號","121.448258333333","24.99493","6500100","板橋區"
"220054","741-BX","2018/11/08 18:29:17","新北市板橋區華東街1-9號","121.4481","24.99492","6500100","板橋區"
"220074","895-R6","2018/11/08 18:29:19","新北市板橋區華東街1-9號","121.448173333333","24.995","6500100","板橋區"
"220073","985-R7","2018/11/08 18:29:16","新北市板橋區華東街1-10號","121.448271666667","24.994975","6500100","板橋區"
"220082","AAC-253","2018/11/08 18:29:14","新北市板橋區華東街1-10號","121.448285","24.9948966666667","6500100","板橋區"
"235068","KEA-2873","2018/11/08 18:29:14","新北市中和區錦和路203巷13號","121.49143","24.9905516666667","6500300","中和區"
"235061","KEA-2875","2018/11/08 18:29:22","新北市中和區國光街52號","121.470821666667","25.0002683333333","6500300","中和區"
