"lineid","car","time","location","longitude","latitude","cityid","cityname"
"234046","148-BY","2018/11/08 18:49:23","新北市永和區秀朗路二段128號","121.524906666667","25.0014866666667","6500400","永和區"
"234007","207-UY","2018/11/08 18:49:28","新北市永和區文化路146號","121.512565","25.0152733333333","6500400","永和區"
"234081","298-R6","2018/11/08 18:49:23","新北市永和區永亨路90號","121.522778333333","25.00513","6500400","永和區"
"234038","336-UY","2018/11/08 18:49:27","新北市永和區成功路一段127號","121.526891666667","25.0018383333333","6500400","永和區"
"234064","337-UY","2018/11/08 18:49:11","新北市永和區福和路1號","121.525676666667","25.0093966666667","6500400","永和區"
"234086","338-UY","2018/11/08 18:49:24","新北市永和區中正路164號","121.515103333333","24.99672","6500400","永和區"
"234070","553-UM","2018/11/08 18:49:16","新北市永和區竹林路94-1號","121.51943","25.0121716666667","6500400","永和區"
"234017","745-BX","2018/11/08 18:49:19","新北市永和區永和路二段299號","121.515996666667","25.016125","6500400","永和區"
"234030","746-BX","2018/11/08 18:49:22","新北市永和區得和路321號","121.523403333333","24.9996733333333","6500400","永和區"
"234054","KEA-2590","2018/11/08 18:49:22","新北市永和區豫溪街191巷1弄2號","121.523208333333","25.010365","6500400","永和區"
"234013","KEA-2591","2018/11/08 18:49:25","新北市永和區仁愛路202巷26號","121.508941666667","25.0129633333333","6500400","永和區"
"234061","AAD-866","2018/11/08 18:49:21","新北市永和區福和路309巷1號","121.516295","25.00706","6500400","永和區"
"234042","862-TW","2018/11/08 18:49:19","新北市永和區永貞路267號","121.511771666667","25.004795","6500400","永和區"
"234026","9371-KE","2018/11/08 18:49:29","新北市永和區保順路11號","121.504791666667","25.0096216666667","6500400","永和區"
"234011","9373-KE","2018/11/08 18:49:23","新北市永和區文化路128號","121.513028333333","25.0153433333333","6500400","永和區"
"249005","172-UM","2018/11/08 18:49:13","新北市八里區長道坑15號","121.394621666667","25.1184116666667","6502300","八里區"
"249001","173-UM","2018/11/08 18:49:20","新北市八里區龍米路二段30號","121.448573333333","25.1399266666667","6502300","八里區"
"248016","026-BX","2018/11/08 18:49:30","新北市五股區凌雲路一段149巷42號","121.448576666667","25.1009433333333","6501500","五股區"
"248006","077-UY","2018/11/08 18:49:23","新北市五股區四維路38號","121.467261666667","25.0715783333333","6501500","五股區"
"248008","095-VK","2018/11/08 18:49:21","新北市五股區中興路一段139號","121.465366666667","25.0734966666667","6501500","五股區"
"248020","225-UY","2018/11/08 18:49:16","新北市五股區凌雲路三段100號","121.426578333333","25.1225483333333","6501500","五股區"
"248010","272-BY","2018/11/08 18:49:21","新北市五股區水碓九路58號","121.428908333333","25.0720283333333","6501500","五股區"
"248012","655-BX","2018/11/08 18:49:23","新北市五股區成泰路二段147巷5-12號","121.437361666667","25.0887616666667","6501500","五股區"
"248004","677-BX","2018/11/08 18:49:21","新北市五股區民義路二段50-5號","121.411038333333","25.103865","6501500","五股區"
"248002","678-BX","2018/11/08 18:49:23","新北市五股區成泰路三段435巷8號","121.449678333333","25.0979333333333","6501500","五股區"
"234023","9380-KE","2018/11/08 18:49:18","新北市永和區竹林路119巷45號","121.521905","25.0118283333333","6500400","永和區"
"234077","969-R7","2018/11/08 18:49:30","新北市永和區中正路42巷16號","121.51354","24.9941166666667","6500400","永和區"
"234067","AAC-212","2018/11/08 18:49:14","新北市永和區中和路625號","121.513006666667","25.0049183333333","6500400","永和區"
"234003","AAC-295","2018/11/08 18:49:27","新北市永和區豫溪街50號","121.515805","25.009855","6500400","永和區"
"232011","076-UY","2018/11/08 18:49:34","新北市坪林區坪林街90號","121.711898333333","24.9366066666667","6502000","坪林區"
"244023","069-UM","2018/11/08 18:49:20","新北市林口區文化三路二段77巷39號","121.373101666667","25.0802066666667","6501700","林口區"
"244007","080-UY","2018/11/08 18:49:32","新北市林口區太平嶺5-10號","121.37919","25.1139033333333","6501700","林口區"
"244019","403-UM","2018/11/08 18:49:17","新北市林口區麗園二街10-5號","121.378118333333","25.0695383333333","6501700","林口區"
"244013","KEA-2802","2018/11/08 18:49:24","新北市林口區麗園一街6巷6-2號","121.375403333333","25.0704366666667","6501700","林口區"
"244017","485-VK","2018/11/08 18:49:16","新北市林口區文化二路一段68巷2號","121.366136666667","25.06871","6501700","林口區"
"244009","656-BX","2018/11/08 18:49:24","新北市林口區竹林路330巷4號","121.391475","25.0831466666667","6501700","林口區"
"244011","701-TV","2018/11/08 18:49:21","新北市林口區中正路57巷7弄4號","121.39544","25.0766066666667","6501700","林口區"
"244025","837-TS","2018/11/08 18:49:17","新北市林口區南勢街256號","121.358348333333","25.07584","6501700","林口區"
"244021","838-TS","2018/11/08 18:49:19","新北市林口區工六路100號","121.401305","25.0765333333333","6501700","林口區"
"243013","AAD-798","2018/11/08 18:24:46","新北市泰山區明志路三段206巷1號","121.423321666667","25.0378966666667","6501600","泰山區"
"243009","297-R6","2018/11/08 18:49:22","新北市泰山區黎明路25號","121.421856666667","25.0607433333333","6501600","泰山區"
"243016","KEA-2801","2018/11/08 18:49:13","新北市泰山區明志路一段508號","121.430358333333","25.0541666666667","6501600","泰山區"
"243012","646-TV","2018/11/08 18:49:31","新北市泰山區泰林路二段73巷27號","121.43446","25.0578483333333","6501600","泰山區"
"243014","680-BX","2018/11/08 18:49:30","新北市泰山區犁頭窠3-1號","121.421966666667","25.060545","6501600","泰山區"
"222003","436-BY","2018/11/08 18:49:28","新北市深坑區深南路51-1號","121.62132","25.0101433333333","6501800","深坑區"
"222002","659-BX","2018/11/08 18:49:27","新北市深坑區文山路一段69號","121.626981666667","25.0018483333333","6501800","深坑區"
"231041","002-UM","2018/11/08 18:49:29","新北市新店區安一路一段1-1號","121.519688333333","24.96148","6500600","新店區"
"231066","0291-UT","2018/11/08 18:49:14","新北市新店區安一路一段1-1號","121.519331666667","24.96134","6500600","新店區"
"231059","046-UY","2018/11/08 18:49:32","新北市新店區安華路28-1號","121.519606666667","24.9607366666667","6500600","新店區"
"231040","047-UY","2018/11/08 18:49:18","新北市新店區力行路15號","121.537056666667","24.9656616666667","6500600","新店區"
"231044","106-UY","2018/11/08 18:49:24","新北市新店區中興路三段6號","121.546638333333","24.9768683333333","6500600","新店區"
"231052","108-UY","2018/11/08 18:49:28","新北市新店區湖子內路59-2號","121.540926666667","24.929565","6500600","新店區"
"231046","110-UY","2018/11/08 18:49:15","新北市新店區直潭二街1號","121.53551","24.94319","6500600","新店區"
"231047","187-VK","2018/11/08 18:49:33","新北市新店區光明街127號","121.539205","24.9618833333333","6500600","新店區"
"231062","188-VK","2018/11/08 18:49:26","新北市新店區安一路一段1-1號","121.519096666667","24.9612016666667","6500600","新店區"
"231054","KEA-2219","2018/11/08 18:49:20","新北市新店區北新路一段91號","121.538865","24.961835","6500600","新店區"
"231042","268-BY","2018/11/08 18:49:18","新北市新店區安康路一段79巷1號","121.529826666667","24.9612483333333","6500600","新店區"
"231051","278-BY","2018/11/08 18:49:20","新北市新店區中央路57號","121.532661666667","24.9774283333333","6500600","新店區"
"231050","AAD-862","2018/11/08 18:49:14","新北市新店區安康路一段75號","121.530193333333","24.961065","6500600","新店區"
"231060","355-BY","2018/11/08 18:49:13","新北市新店區安一路一段1-1號","121.519231666667","24.9610083333333","6500600","新店區"
"231058","3713-VJ","2018/11/08 18:49:22","新北市新店區能仁街16號","121.540608333333","24.9554616666667","6500600","新店區"
"231056","4715-K9","2018/11/08 18:49:29","新北市新店區大同街44號","121.538648333333","24.9808616666667","6500600","新店區"
"231067","4772-VM","2018/11/08 18:49:22","新北市新店區安華路28-1號","121.519215","24.9606983333333","6500600","新店區"
"231065","512-UM","2018/11/08 18:49:17","新北市新店區車子路10-4號","121.505066666667","24.9545433333333","6500600","新店區"
"231049","513-UM","2018/11/08 18:49:32","新北市新店區中央路151號","121.529291666667","24.9720733333333","6500600","新店區"
"231045","617-UM","2018/11/08 18:49:29","新北市新店區安康路一段355號","121.51996","24.963565","6500600","新店區"
"231061","619-UM","2018/11/08 18:49:26","新北市新店區安華路28-1號","121.519661666667","24.9607266666667","6500600","新店區"
"231063","641-BX","2018/11/08 18:49:21","新北市新店區安華路28-1號","121.519481666667","24.960655","6500600","新店區"
"231064","719-UM","2018/11/08 18:49:14","新北市新店區安一路一段1-1號","121.519436666667","24.9610716666667","6500600","新店區"
"231043","899-TW","2018/11/08 18:49:25","新北市新店區安康路一段355號","121.519833333333","24.9628333333333","6500600","新店區"
"231055","AKT-0513","2018/11/08 18:49:15","新北市新店區新生街21號","121.539763333333","24.966495","6500600","新店區"
"251014","742-BX","2018/11/08 18:49:23","新北市淡水區崙頂4-1號","121.493596666667","25.22408","6501000","淡水區"
"235066","003-UY","2018/11/08 18:49:27","新北市中和區水源路29巷2號","121.504088333333","25.00373","6500300","中和區"
"235064","005-UY","2018/11/08 18:49:27","新北市中和區景平路511號","121.499298333333","24.99875","6500300","中和區"
"235063","006-UY","2018/11/08 18:49:19","新北市中和區錦和路95號","121.490015","24.9955616666667","6500300","中和區"
"235056","096-UM","2018/11/08 18:49:15","新北市中和區員山路516號","121.478941666667","25.009365","6500300","中和區"
"235039","097-UM","2018/11/08 18:49:24","新北市中和區安樂路217巷53號","121.513121666667","24.9975866666667","6500300","中和區"
"235065","098-UM","2018/11/08 18:49:20","新北市中和區中山路二段2巷45弄36號","121.501446666667","25.0068933333333","6500300","中和區"
"235058","151-BY","2018/11/08 18:49:15","新北市中和區連城路534巷2號","121.475318333333","24.9914116666667","6500300","中和區"
"235055","183-VK","2018/11/08 18:49:14","新北市中和區民生街59號","121.46936","25.0050416666667","6500300","中和區"
"235038","185-VK","2018/11/08 18:49:30","新北市中和區大勇街31巷1號","121.517493333333","24.9941416666667","6500300","中和區"
"235049","186-VK","2018/11/08 18:49:21","新北市中和區景安路132巷37號","121.50394","24.9943716666667","6500300","中和區"
"235067","255-BX","2018/11/08 18:49:23","新北市中和區中正路861巷1號","121.484605","25.003335","6500300","中和區"
"235044","293-VK","2018/11/08 18:49:30","新北市中和區中興街156號","121.499855","24.9918066666667","6500300","中和區"
"235072","301-VK","2018/11/08 18:49:17","新北市中和區中山路二段151號","121.501735","25.0028433333333","6500300","中和區"
"235043","352-BY","2018/11/08 18:49:11","新北市中和區成功路139號","121.52587","24.9905633333333","6500300","中和區"
"235050","4979-A6","2018/11/08 18:49:33","新北市中和區忠孝街62巷4號","121.51208","24.9837416666667","6500300","中和區"
"235069","4980-A6","2018/11/08 18:49:27","新北市中和區中和路135號","121.501816666667","24.9999216666667","6500300","中和區"
"235042","551-UM","2018/11/08 18:49:29","新北市中和區秀朗路三段70巷37號","121.525348333333","24.9943166666667","6500300","中和區"
"235070","558-UM","2018/11/08 18:49:28","新北市中和區南山路7號","121.502095","24.9995016666667","6500300","中和區"
"235045","565-BX","2018/11/08 18:49:28","新北市中和區興南路一段86號","121.509905","24.989425","6500300","中和區"
"235054","640-BX","2018/11/08 18:49:33","新北市中和區民享街40-2號","121.47396","25.0028166666667","6500300","中和區"
"235060","647-TV","2018/11/08 18:49:20","新北市中和區中山路三段152-3號","121.473338333333","25.0064066666667","6500300","中和區"
"235047","732-UM","2018/11/08 18:49:15","新北市中和區興南路二段92號","121.505275","24.98449","6500300","中和區"
"235046","733-UM","2018/11/08 18:49:15","新北市中和區仁愛街36巷44號","121.511316666667","24.9863383333333","6500300","中和區"
"235071","783-BX","2018/11/08 18:49:22","新北市中和區員山路36巷16-3號","121.48518","24.99116","6500300","中和區"
"235062","800-TS","2018/11/08 18:49:15","新北市中和區中山路二段312巷45弄1號","121.494826666667","25.0044516666667","6500300","中和區"
"235057","801-TS","2018/11/08 18:49:28","新北市中和區民安街38號","121.480068333333","25.0004466666667","6500300","中和區"
"235052","805-TS","2018/11/08 18:49:20","新北市中和區興南路二段399巷98弄70號","121.497936666667","24.9763633333333","6500300","中和區"
"235048","896-TW","2018/11/08 18:49:12","新北市中和區華新街47號","121.50781","24.9845833333333","6500300","中和區"
"235053","900-TW","2018/11/08 18:49:18","新北市中和區華福街42巷6-3號","121.46636","24.9962083333333","6500300","中和區"
"235051","157-BY","2018/11/08 18:49:29","新北市中和區忠孝街27號","121.51038","24.98305","6500300","中和區"
"235037","AAC-213","2018/11/08 18:49:33","新北市中和區秀朗路三段128巷7弄2號","121.524543333333","24.9930233333333","6500300","中和區"
"235059","AAC-215","2018/11/08 18:49:19","新北市中和區圓通路393巷9號","121.489868333333","24.9886383333333","6500300","中和區"
"220068","013-TV","2018/11/08 18:47:48","新北市板橋區三民路一段129-2號","121.479353333333","25.020745","6500100","板橋區"
"220065","072-UY","2018/11/08 18:49:16","新北市板橋區民族路151巷52號","121.47015","25.0083883333333","6500100","板橋區"
"220086","073-UY","2018/11/08 18:49:23","新北市板橋區大智街40-2號","121.454923333333","25.0151766666667","6500100","板橋區"
"220106","075-UY","2018/11/08 18:49:13","新北市板橋區民生路二段161巷9號","121.4703","25.0196933333333","6500100","板橋區"
"220069","AAD-861","2018/11/08 18:49:11","新北市板橋區大華街9號","121.459068333333","25.0062533333333","6500100","板橋區"
"226004","312-R5","2018/11/08 18:48:22","新北市平溪區平溪里三坑路38號","121.733981666667","25.03142","6502400","平溪區"
"235041","251-BX","2018/11/08 18:49:26","新北市中和區中安街218號","121.51197","24.9989583333333","6500300","中和區"
"228003","097-TW","2018/11/08 18:49:18","新北市貢寮區和美里龍洞街42號","121.912845","25.1130083333333","6502600","貢寮區"
"228001","212-TW","2018/11/08 18:49:25","新北市貢寮區仁理村研海街12-1號","121.92375","25.0516366666667","6502600","貢寮區"
"228002","585-TW","2018/11/08 18:49:28","新北市貢寮區福隆里東興街6-11號","121.95075","25.0210366666667","6502600","貢寮區"
"224010","AGQ-8101","2018/11/08 18:45:06","新北市瑞芳區崙頂路3號","121.84655","25.106925","6501200","瑞芳區"
"224006","676-BX","2018/11/08 18:49:28","新北市瑞芳區民生街18號","121.80585","25.1075616666667","6501200","瑞芳區"
"224002","639-TC","2018/11/08 18:49:15","新北市瑞芳區傑魚坑路311-1號","121.794275","25.1074533333333","6501200","瑞芳區"
"224008","285-BY","2018/11/08 18:49:19","新北市瑞芳區逢甲路321號","121.801125","25.111765","6501200","瑞芳區"
"224007","275-VK","2018/11/08 18:49:23","新北市瑞芳區大埔路東泰新村4號","121.761261666667","25.1012233333333","6501200","瑞芳區"
"224009","273-VK","2018/11/08 18:49:29","新北市瑞芳區祈堂路53-1號","121.85959","25.1104316666667","6501200","瑞芳區"
"224005","271-BY","2018/11/08 18:49:16","新北市瑞芳區濱二路71-1號","121.829016666667","25.12058","6501200","瑞芳區"
"227010","642-TC","2018/11/08 18:49:30","新北市雙溪區牡丹里聖南35號","121.853358333333","25.0559383333333","6502500","雙溪區"
"227004","400-TW","2018/11/08 18:49:13","新北市雙溪區平林里梅竹蹊28號","121.861631666667","25.0360066666667","6502500","雙溪區"
"253006","032-BX","2018/11/08 18:49:10","新北市石門區下員坑16號","121.510605","25.283785","6502200","石門區"
"253005","295-VK","2018/11/08 18:49:14","新北市石門區中山路28-3號","121.565778333333","25.2898266666667","6502200","石門區"
"222001","KEA-2212","2018/11/08 18:49:16","新北市深坑區松柏街38號","121.638725","25.01145","6501800","深坑區"
"208002","KEA-2872","2018/11/08 18:49:28","新北市金山區信義路66號","121.635651666667","25.2189083333333","6502700","金山區"
"208003","665-BX","2018/11/08 18:49:23","新北市金山區中山路393號","121.633405","25.2252666666667","6502700","金山區"
"208001","761-BX","2018/11/08 18:49:23","新北市金山區文化三路64號","121.634178333333","25.2255833333333","6502700","金山區"
"251001","011-UM","2018/11/08 18:49:31","新北市淡水區自強路84號","121.462751666667","25.1281883333333","6501000","淡水區"
"251013","KEA-2871","2018/11/08 18:49:25","新北市淡水區安子內5-1號","121.48355","25.215165","6501000","淡水區"
"251016","179-VK","2018/11/08 18:49:24","新北市淡水區下圭柔山71-3號","121.44703","25.2061766666667","6501000","淡水區"
"251008","181-VK","2018/11/08 18:49:23","新北市淡水區下圭柔山91-4號","121.429478333333","25.2086283333333","6501000","淡水區"
"251015","182-VK","2018/11/08 18:49:17","新北市淡水區興福寮66巷245號","121.487676666667","25.1620716666667","6501000","淡水區"
"251010","413-VK","2018/11/08 18:49:23","新北市淡水區沙崙路10號","121.4211","25.18093","6501000","淡水區"
"251012","441-VK","2018/11/08 18:49:21","新北市淡水區新興街21號","121.442801666667","25.1803216666667","6501000","淡水區"
"251007","442-VK","2018/11/08 18:49:16","新北市淡水區中正東路二段161巷8弄13號","121.461663333333","25.14529","6501000","淡水區"
"251004","443-VK","2018/11/08 18:49:23","新北市淡水區中正東路二段161巷11弄10號","121.461556666667","25.14585","6501000","淡水區"
"251011","650-BX","2018/11/08 18:49:15","新北市淡水區學府路17號","121.447531666667","25.1681866666667","6501000","淡水區"
"251002","672-BX","2018/11/08 18:49:32","新北市淡水區學府路65號","121.44836","25.16959","6501000","淡水區"
"251003","766-UM","2018/11/08 18:49:31","新北市淡水區北新路65號","121.446195","25.1783583333333","6501000","淡水區"
"207003","550-UM","2018/11/08 18:49:25","新北市萬里區大鵬里頂社1號","121.657096666667","25.2097033333333","6502800","萬里區"
"207004","225-TW","2018/11/08 18:49:18","新北市萬里區萬里里獅頭路23號","121.693195","25.1782483333333","6502800","萬里區"
"252002","178-VK","2018/11/08 18:48:55","新北市三芝區中正路一段112號","121.504841666667","25.2563383333333","6502100","三芝區"
"252003","249-BX","2018/11/08 18:49:14","新北市三芝區後厝里大片頭108號","121.458451666667","25.2426383333333","6502100","三芝區"
"252001","292-VK","2018/11/08 18:49:31","新北市三芝區中正路三段9號","121.502916666667","25.2539283333333","6502100","三芝區"
"237004","KEA-2597","2018/11/08 18:49:20","新北市三峽區有木314號","121.422056666667","24.8646333333333","6500900","三峽區"
"237007","153-BY","2018/11/08 18:49:18","新北市三峽區中正路二段340號","121.365931666667","24.910375","6500900","三峽區"
"237009","210-TH","2018/11/08 18:49:03","新北市三峽區民權街156號","121.368471666667","24.9314683333333","6500900","三峽區"
"237013","252-BX","2018/11/08 18:49:22","新北市三峽區光明路69巷25號","121.376688333333","24.9291283333333","6500900","三峽區"
"237012","275-BY","2018/11/08 18:49:24","新北市樹林區佳園路三段620號","121.379293333333","24.9434683333333","6500900","三峽區"
"237008","302-VK","2018/11/08 18:49:32","新北市三峽區白雞33-61號","121.370933333333","24.913135","6500900","三峽區"
"237014","433-BY","2018/11/08 18:49:24","新北市三峽區復興路480巷52號","121.361916666667","24.9412616666667","6500900","三峽區"
"237006","5529-G3","2018/11/08 18:49:23","新北市三峽區溪東路233巷4弄19號","121.407248333333","24.9337483333333","6500900","三峽區"
"237011","KEA-2596","2018/11/08 18:49:28","新北市三峽區橫溪路140號","121.399213333333","24.9352183333333","6500900","三峽區"
"237016","649-BX","2018/11/08 18:49:16","新北市三峽區建安22號","121.446045","24.927495","6500900","三峽區"
"237010","706-TV","2018/11/08 18:49:31","新北市三峽區復興路449號","121.362596666667","24.938535","6500900","三峽區"
"237005","AKY-6261","2018/11/08 18:49:16","新北市三峽區中山路167號","121.36455","24.9364833333333","6500900","三峽區"
"236070","105-UM","2018/11/08 18:49:25","新北市土城區青雲路33號","121.460443333333","24.9881733333333","6501300","土城區"
"236042","KED-0685","2018/11/08 18:49:19","新北市土城區裕民路92巷23弄8號","121.449846666667","24.98599","6501300","土城區"
"236078","166-UM","2018/11/08 18:49:25","新北市土城區中央路四段67巷60號","121.418161666667","24.9566116666667","6501300","土城區"
"236030","253-BX","2018/11/08 18:49:15","新北市土城區忠義路36巷16號","121.4399","24.969835","6501300","土城區"
"236026","269-VK","2018/11/08 18:49:30","新北市土城區興城路48號","121.441315","24.972625","6501300","土城區"
"236014","270-VK","2018/11/08 18:49:30","新北市土城區清水路235巷5弄2號","121.460718333333","24.9838133333333","6501300","土城區"
"236038","271-VK","2018/11/08 18:49:32","新北市土城區明德路一段235巷16-1號","121.463195","24.977785","6501300","土城區"
"236021","401-BY","2018/11/08 18:49:25","新北市土城區延吉街251號","121.46767","24.9848516666667","6501300","土城區"
"236059","912-UM","2018/11/08 18:49:18","新北市土城區金城路二段14號","121.449398333333","24.9773416666667","6501300","土城區"
"236049","913-UM","2018/11/08 18:49:23","新北市土城區青雲路47-4號","121.459593333333","24.98709","6501300","土城區"
"236063","915-UM","2018/11/08 18:49:16","新北市土城區金城路三段207巷6弄16號","121.470788333333","24.9902416666667","6501300","土城區"
"236055","AAC-216","2018/11/08 18:49:29","新北市土城區裕民路173號","121.453135","24.9850233333333","6501300","土城區"
"242061","353-BY","2018/11/08 18:49:11","新北市新莊區中正路384號","121.44243","25.0347733333333","6500500","新莊區"
"242007","176-VK","2018/11/08 18:49:15","新北市樹林區中山路三段212號","121.382545","24.9661533333333","6500500","新莊區"
"242046","347-TH","2018/11/08 18:49:13","新北市樹林區中正路280-1號","121.415713333333","25.009395","6500500","新莊區"
"242004","349-TH","2018/11/08 18:49:29","新北市新莊區三和路12-21號","121.442263333333","25.03828","6500500","新莊區"
"238023","601-UM","2018/11/08 18:49:16","新北市樹林區工興街14巷1號","121.398973333333","25.01363","6500700","樹林區"
"238019","599-UM","2018/11/08 18:49:13","新北市樹林區東陽街3號","121.412685","24.9822666666667","6500700","樹林區"
"238022","KEA-2213","2018/11/08 18:49:28","新北市樹林區中華路379巷25號","121.413795","24.9778283333333","6500700","樹林區"
"238025","303-VK","2018/11/08 18:49:22","新北市樹林區八德街648號","121.39656","24.9691033333333","6500700","樹林區"
"238026","172-UY","2018/11/08 18:49:16","新北市樹林區信和街2巷1號","121.389755","24.9709333333333","6500700","樹林區"
"238016","169-UY","2018/11/08 18:49:30","新北市樹林區八德街1號","121.41753","24.9849833333333","6500700","樹林區"
"239007","AAC-297","2018/11/08 18:49:15","新北市鶯歌區中正一路443號","121.362415","24.9568666666667","6500800","鶯歌區"
"239008","527-UM","2018/11/08 18:49:19","新北市鶯歌區朝陽街2號","121.336203333333","24.9765966666667","6500800","鶯歌區"
"239005","526-UM","2018/11/08 18:49:25","新北市鶯歌區鳳吉三街31巷1號","121.327431666667","24.9741483333333","6500800","鶯歌區"
"239001","417-VK","2018/11/08 18:49:30","新北市鶯歌區正義新村5號","121.3432","24.9494783333333","6500800","鶯歌區"
"239003","360-BY","2018/11/08 18:49:32","新北市鶯歌區鶯桃路658巷47-2號","121.33042","24.9699933333333","6500800","鶯歌區"
"239004","193-VK","2018/11/08 18:49:29","新北市鶯歌區中正三路149號","121.336816666667","24.9401733333333","6500800","鶯歌區"
"221008","489-VK","2018/11/08 18:49:17","新北市汐止區康寧街901號","121.651405","25.075","6501100","汐止區"
"221036","130-UY","2018/11/08 18:49:22","新北市汐止區南昌街27號","121.663138333333","25.0693","6501100","汐止區"
"221015","131-UY","2018/11/08 18:49:18","新北市汐止區吉祥街3號","121.667923333333","25.0798916666667","6501100","汐止區"
"221010","269-BY","2018/11/08 18:49:22","新北市汐止區汐萬路一段256巷3號","121.653476666667","25.074635","6501100","汐止區"
"221012","278-VK","2018/11/08 18:49:26","新北市汐止區康寧街901號","121.650805","25.0752283333333","6501100","汐止區"
"221023","279-VK","2018/11/08 18:49:32","新北市汐止區汐萬路一段256巷3號","121.652488333333","25.074565","6501100","汐止區"
"221032","280-BY","2018/11/08 18:49:19","新北市汐止區民權街二段79號","121.619195","25.0479983333333","6501100","汐止區"
"221027","281-BY","2018/11/08 18:49:17","新北市汐止區康寧街901號","121.65098","25.0752133333333","6501100","汐止區"
"221029","298-VK","2018/11/08 18:49:22","新北市汐止區工建路64號","121.640561666667","25.062895","6501100","汐止區"
"221021","299-VK","2018/11/08 18:49:32","新北市汐止區大同路二段187巷35號","121.65193","25.065635","6501100","汐止區"
"221031","353-TW","2018/11/08 18:49:27","新北市汐止區福德一路300巷13號","121.630758333333","25.063825","6501100","汐止區"
"221035","622-UM","2018/11/08 18:49:30","新北市汐止區中正路310號","121.656161666667","25.0679516666667","6501100","汐止區"
"221025","623-UM","2018/11/08 18:49:27","新北市汐止區仁愛路71號","121.660995","25.0628533333333","6501100","汐止區"
"221038","646-BX","2018/11/08 18:49:24","新北市汐止區康寧街901號","121.650723333333","25.0752516666667","6501100","汐止區"
"221002","707-TV","2018/11/08 18:49:25","新北市汐止區大同路一段5號","121.621845","25.0549966666667","6501100","汐止區"
"221018","753-BX","2018/11/08 18:49:16","新北市汐止區茄苳路85號","121.666831666667","25.07062","6501100","汐止區"
"220079","145-BY","2018/11/08 18:49:32","新北市板橋區民權路202巷7弄24號","121.45909","25.01501","6500100","板橋區"
"220080","200-UY","2018/11/08 18:49:24","新北市板橋區大觀路二段166巷5號","121.440873333333","24.999275","6500100","板橋區"
"220056","276-BY","2018/11/08 18:49:19","新北市板橋區信義路69號","121.457078333333","24.99546","6500100","板橋區"
"220072","277-BY","2018/11/08 18:49:26","新北市板橋區大觀路三段36巷48號","121.434503333333","24.996935","6500100","板橋區"
"220070","282-UM","2018/11/08 18:49:26","新北市板橋區四川路一段141號","121.459983333333","25.0044016666667","6500100","板橋區"
"220094","283-UM","2018/11/08 18:49:21","新北市板橋區民生路二段161巷3號","121.470166666667","25.0198183333333","6500100","板橋區"
"220071","283-VK","2018/11/08 18:49:26","新北市板橋區忠孝路196-2號","121.4655","25.0024566666667","6500100","板橋區"
"220053","285-VK","2018/11/08 18:49:25","新北市板橋區民生路二段123號","121.470745","25.0186266666667","6500100","板橋區"
"220083","286-VK","2018/11/08 18:49:12","新北市板橋區僑中二街2號","121.447275","25.0111866666667","6500100","板橋區"
"220081","287-VK","2018/11/08 18:49:29","新北市板橋區光華街15巷12號","121.453755","25.0117966666667","6500100","板橋區"
"220090","288-VK","2018/11/08 18:49:20","新北市板橋區民生路二段120號","121.470375","25.0196066666667","6500100","板橋區"
"220061","295-UM","2018/11/08 18:49:18","新北市板橋區民生路二段56-6號","121.47093","25.0188933333333","6500100","板橋區"
"220084","296-UM","2018/11/08 18:49:23","新北市板橋區大觀路二段150巷56-1號","121.441635","25.0003916666667","6500100","板橋區"
"220075","303-R5","2018/11/08 18:49:32","新北市板橋區南雅東路100巷2號","121.45403","25.0074633333333","6500100","板橋區"
"220062","305-R5","2018/11/08 18:49:16","新北市板橋區民生路二段56-6號","121.470845","25.0185916666667","6500100","板橋區"
"220092","307-R5","2018/11/08 18:49:21","新北市板橋區民生路二段161巷3號","121.470163333333","25.0197783333333","6500100","板橋區"
"220064","486-VK","2018/11/08 18:49:13","新北市板橋區民生路二段15-1號","121.472828333333","25.0159416666667","6500100","板橋區"
"220088","491-VK","2018/11/08 18:49:19","新北市板橋區民生路二段171號","121.469828333333","25.0201533333333","6500100","板橋區"
"220035","560-BX","2018/11/08 18:49:26","新北市板橋區中正路275巷44號","121.453838333333","25.0185116666667","6500100","板橋區"
"220103","561-BX","2018/11/08 18:49:32","新北市板橋區民生路二段120號","121.47049","25.019605","6500100","板橋區"
"220063","609-BX","2018/11/08 18:49:28","新北市板橋區民生路二段121號","121.470825","25.0183583333333","6500100","板橋區"
"220057","686-BX","2018/11/08 18:49:29","新北市板橋區館前東路21號","121.460316666667","25.0071983333333","6500100","板橋區"
"220077","687-BX","2018/11/08 18:49:21","新北市板橋區龍興街101巷1號","121.444365","25.0030616666667","6500100","板橋區"
"220093","689-BX","2018/11/08 18:49:15","新北市板橋區民生路二段120號","121.47038","25.0200983333333","6500100","板橋區"
"220054","741-BX","2018/11/08 18:49:23","新北市板橋區四川路一段87巷64號","121.460738333333","25.00568","6500100","板橋區"
"220102","KEA-2699","2018/11/08 18:49:15","新北市板橋區民生路二段120號","121.470375","25.0198316666667","6500100","板橋區"
"220055","827-TW","2018/11/08 18:49:29","新北市板橋區新府路1-1號","121.464505","25.0119716666667","6500100","板橋區"
"220067","829-TW","2018/11/08 18:49:19","新北市板橋區三民路二段正隆巷42號","121.477018333333","25.013785","6500100","板橋區"
"220074","895-R6","2018/11/08 18:49:19","新北市板橋區林園街59號","121.453575","25.01031","6500100","板橋區"
"220073","985-R7","2018/11/08 18:49:16","新北市板橋區林園街54號","121.453891666667","25.01066","6500100","板橋區"
"220097","AAC-210","2018/11/08 18:49:14","新北市板橋區民生路二段120號","121.470646666667","25.0194666666667","6500100","板橋區"
"220082","AAC-253","2018/11/08 18:49:14","新北市板橋區篤行路三段玉平巷68弄5號","121.427761666667","24.9860333333333","6500100","板橋區"
"235068","KEA-2873","2018/11/08 18:49:14","新北市中和區中正路211巷38-4號","121.497645","24.9926616666667","6500300","中和區"
"235061","KEA-2875","2018/11/08 18:49:22","新北市中和區民享街28號","121.473956666667","25.0035366666667","6500300","中和區"
