"lineid","car","time","location","longitude","latitude","cityid","cityname"
"234046","148-BY","2018/11/08 18:59:23","新北市永和區得和路373巷31弄2號","121.525051666667","25.000415","6500400","永和區"
"234007","207-UY","2018/11/08 18:59:28","新北市永和區中山路一段64號","121.512728333333","25.01073","6500400","永和區"
"234081","298-R6","2018/11/08 18:59:26","新北市永和區永亨路83號","121.522011666667","25.0057966666667","6500400","永和區"
"234038","336-UY","2018/11/08 18:59:27","新北市永和區成功路二段199-2號","121.526638333333","24.996055","6500400","永和區"
"234064","337-UY","2018/11/08 18:59:11","新北市永和區秀朗路一段146號","121.518226666667","25.0034","6500400","永和區"
"234086","338-UY","2018/11/08 18:59:24","新北市永和區永寧街133巷1號","121.518071666667","25.0049966666667","6500400","永和區"
"234070","553-UM","2018/11/08 18:59:16","新北市永和區中興街52巷1弄36號","121.517496666667","25.01143","6500400","永和區"
"234017","745-BX","2018/11/08 18:59:19","新北市永和區永和路二段299號","121.516018333333","25.016145","6500400","永和區"
"234030","746-BX","2018/11/08 18:59:22","新北市永和區秀朗路二段289號","121.526156666667","24.9980566666667","6500400","永和區"
"234054","KEA-2590","2018/11/08 18:59:22","新北市永和區竹林路66巷2號","121.518275","25.0133383333333","6500400","永和區"
"234013","KEA-2591","2018/11/08 18:59:25","新北市永和區中山路一段56號","121.513036666667","25.0108183333333","6500400","永和區"
"234061","AAD-866","2018/11/08 18:59:21","新北市永和區福和路309巷1號","121.516336666667","25.0070283333333","6500400","永和區"
"234042","862-TW","2018/11/08 18:59:27","新北市永和區永貞路273號","121.511548333333","25.0049366666667","6500400","永和區"
"234050","863-TW","2018/11/08 18:59:18","新北市永和區保安路2號","121.51081","25.0173266666667","6500400","永和區"
"234026","9371-KE","2018/11/08 18:59:29","新北市永和區安樂路300號","121.514371666667","25.0049066666667","6500400","永和區"
"234011","9373-KE","2018/11/08 18:59:23","新北市永和區仁愛路96號","121.512323333333","25.013165","6500400","永和區"
"249005","172-UM","2018/11/08 18:59:33","新北市八里區長道坑7-3號","121.393301666667","25.1233583333333","6502300","八里區"
"249001","173-UM","2018/11/08 18:59:20","新北市八里區龍米路二段202號","121.43368","25.1584666666667","6502300","八里區"
"248016","026-BX","2018/11/08 18:59:30","新北市五股區成泰路三段543巷16號","121.450936666667","25.1022","6501500","五股區"
"248006","077-UY","2018/11/08 18:59:23","新北市五股區四維路117號","121.4675","25.0736","6501500","五股區"
"248008","095-VK","2018/11/08 18:59:17","新北市五股區中興路一段118巷6弄17號","121.466288333333","25.0748116666667","6501500","五股區"
"248020","225-UY","2018/11/08 18:59:16","新北市五股區凌雲路三段57號","121.425305","25.124995","6501500","五股區"
"248010","272-BY","2018/11/08 18:59:33","新北市五股區水碓二路1號","121.43061","25.0712133333333","6501500","五股區"
"248012","655-BX","2018/11/08 18:59:32","新北市五股區中興路四段48巷19號","121.438646666667","25.08356","6501500","五股區"
"248004","677-BX","2018/11/08 18:59:21","新北市五股區民義路二段50-5號","121.410943333333","25.1039133333333","6501500","五股區"
"248002","678-BX","2018/11/08 18:59:24","新北市五股區凌雲路一段111號","121.450033333333","25.1017683333333","6501500","五股區"
"234023","9380-KE","2018/11/08 18:59:18","新北市永和區竹林路75巷17號","121.520053333333","25.0140333333333","6500400","永和區"
"234077","969-R7","2018/11/08 18:59:30","新北市永和區智光街27號","121.518135","24.99907","6500400","永和區"
"234067","AAC-212","2018/11/08 18:59:14","新北市永和區永和路一段1號","121.512981666667","25.0050766666667","6500400","永和區"
"234003","AAC-295","2018/11/08 18:59:27","新北市永和區和平街33號","121.513056666667","25.00991","6500400","永和區"
"232011","076-UY","2018/11/08 18:59:14","新北市坪林區水聳淒坑20-2號","121.711368333333","24.93401","6502000","坪林區"
"244023","069-UM","2018/11/08 18:59:20","新北市林口區文林六街62巷22號","121.37191","25.08183","6501700","林口區"
"244019","403-UM","2018/11/08 18:59:17","新北市林口區麗園一街35號","121.377651666667","25.0687833333333","6501700","林口區"
"244013","KEA-2802","2018/11/08 18:59:24","新北市林口區麗園二街1巷9號","121.379065","25.0704716666667","6501700","林口區"
"244017","485-VK","2018/11/08 18:59:21","新北市林口區文化二路一段68巷20-3號","121.366705","25.0687733333333","6501700","林口區"
"244009","656-BX","2018/11/08 18:59:24","新北市林口區台電新村30號","121.386793333333","25.086305","6501700","林口區"
"244011","701-TV","2018/11/08 18:59:21","新北市林口區仁愛路一段285巷112號","121.395086666667","25.0756183333333","6501700","林口區"
"244025","837-TS","2018/11/08 18:59:18","新北市林口區南勢街190號","121.360861666667","25.074695","6501700","林口區"
"243010","267-VK","2018/11/08 18:59:28","新北市泰山區辭修路26巷10號","121.429213333333","25.058485","6501600","泰山區"
"243013","AAD-798","2018/11/08 18:59:20","新北市泰山區明志路三段206巷11號","121.423235","25.03756","6501600","泰山區"
"243009","297-R6","2018/11/08 18:59:22","新北市泰山區泰林路二段360號","121.428941666667","25.0635716666667","6501600","泰山區"
"243016","KEA-2801","2018/11/08 18:59:33","新北市泰山區明志路二段152-1號","121.427486666667","25.0506983333333","6501600","泰山區"
"243011","KEA-2215","2018/11/08 18:59:28","新北市泰山區明志路二段239號","121.427213333333","25.0481466666667","6501600","泰山區"
"243012","646-TV","2018/11/08 18:59:31","新北市泰山區福興三街170號","121.432396666667","25.0569583333333","6501600","泰山區"
"243014","680-BX","2018/11/08 18:59:29","新北市泰山區泰林路二段582號","121.42232","25.06362","6501600","泰山區"
"222003","436-BY","2018/11/08 18:59:28","新北市深坑區深南路51-1號","121.621408333333","25.0101233333333","6501800","深坑區"
"222002","659-BX","2018/11/08 18:59:27","新北市深坑區文山路一段31巷2號","121.62988","25.00332","6501800","深坑區"
"231041","002-UM","2018/11/08 18:59:29","新北市新店區環河路66號","121.537036666667","24.9629483333333","6500600","新店區"
"231066","0291-UT","2018/11/08 18:59:14","新北市新店區安豐路49號","121.50009","24.954045","6500600","新店區"
"231059","046-UY","2018/11/08 18:59:32","新北市新店區安華路28-1號","121.519513333333","24.9607","6500600","新店區"
"231040","047-UY","2018/11/08 18:59:18","新北市新店區中央路15號","121.533386666667","24.9783066666667","6500600","新店區"
"231044","106-UY","2018/11/08 18:59:24","新北市新店區寶中路72號","121.547798333333","24.9805916666667","6500600","新店區"
"231052","108-UY","2018/11/08 18:59:28","新北市新店區屈尺路58號","121.54741","24.92277","6500600","新店區"
"231046","110-UY","2018/11/08 18:59:30","新北市新店區直潭五街58號","121.532838333333","24.9410366666667","6500600","新店區"
"231047","187-VK","2018/11/08 18:59:33","新北市新店區德正街23巷15號","121.544793333333","24.9721633333333","6500600","新店區"
"231062","188-VK","2018/11/08 18:59:26","新北市新店區安豐路54-1號","121.49999","24.9540133333333","6500600","新店區"
"231054","KEA-2219","2018/11/08 18:59:20","新北市新店區新店路23號","121.540201666667","24.952795","6500600","新店區"
"231042","268-BY","2018/11/08 18:59:18","新北市新店區中正路80號","121.543761666667","24.970255","6500600","新店區"
"231051","278-BY","2018/11/08 18:59:20","新北市新店區百忍街22號","121.534293333333","24.9757216666667","6500600","新店區"
"231050","AAD-862","2018/11/08 18:59:14","新北市新店區北宜路二段30巷5弄18號","121.548595","24.9506933333333","6500600","新店區"
"231060","355-BY","2018/11/08 18:59:33","新北市新店區安忠路102-1號","121.51067","24.9559416666667","6500600","新店區"
"231058","3713-VJ","2018/11/08 18:59:22","新北市新店區中興路一段284號","121.545738333333","24.96891","6500600","新店區"
"231056","4715-K9","2018/11/08 18:59:29","新北市新店區建國路218號","121.537848333333","24.981145","6500600","新店區"
"231067","4772-VM","2018/11/08 18:59:22","新北市新店區安康路一段89號","121.529241666667","24.96142","6500600","新店區"
"231065","512-UM","2018/11/08 18:59:17","新北市新店區安祥路156巷39號","121.474886666667","24.9547683333333","6500600","新店區"
"231049","513-UM","2018/11/08 18:59:32","新北市新店區中正路454-5號","121.534458333333","24.9790733333333","6500600","新店區"
"231045","617-UM","2018/11/08 18:59:29","新北市新店區北新路一段2-16號","121.53853","24.959955","6500600","新店區"
"231061","619-UM","2018/11/08 18:59:26","新北市新店區安華路28-1號","121.519743333333","24.9607383333333","6500600","新店區"
"231063","641-BX","2018/11/08 18:59:21","新北市新店區安忠路97號","121.511163333333","24.95634","6500600","新店區"
"231064","719-UM","2018/11/08 18:59:34","新北市新店區安一路一段1-1號","121.51948","24.9612833333333","6500600","新店區"
"231043","899-TW","2018/11/08 18:59:25","新北市新店區北新路二段2號","121.542556666667","24.97052","6500600","新店區"
"231055","AKT-0513","2018/11/08 18:59:15","新北市新店區新生街13巷22號","121.538995","24.9662733333333","6500600","新店區"
"251014","742-BX","2018/11/08 18:59:19","新北市淡水區小中寮23-2號","121.489623333333","25.2297483333333","6501000","淡水區"
"235066","003-UY","2018/11/08 18:59:27","新北市中和區中山路二段131巷8號","121.502753333333","25.0023666666667","6500300","中和區"
"235064","005-UY","2018/11/08 18:59:27","新北市中和區泰和街44巷21號","121.49831","25.00082","6500300","中和區"
"235063","006-UY","2018/11/08 18:59:19","新北市中和區錦和路216號","121.490421666667","24.9942466666667","6500300","中和區"
"235056","096-UM","2018/11/08 18:59:15","新北市中和區員山路466巷34號","121.482351666667","25.0062983333333","6500300","中和區"
"235039","097-UM","2018/11/08 18:59:24","新北市中和區自強路50號","121.52017","24.9948866666667","6500300","中和區"
"235065","098-UM","2018/11/08 18:59:20","新北市中和區福祥路129號","121.49857","25.0071783333333","6500300","中和區"
"235058","151-BY","2018/11/08 18:59:22","新北市中和區連城路428巷11號","121.479823333333","24.9955166666667","6500300","中和區"
"235055","183-VK","2018/11/08 18:59:14","新北市中和區民德路25巷6號","121.46921","25.0027266666667","6500300","中和區"
"235038","185-VK","2018/11/08 18:59:30","新北市中和區立人街24-5號","121.518821666667","24.9941383333333","6500300","中和區"
"235049","186-VK","2018/11/08 18:59:21","新北市中和區景安路167巷17號","121.506416666667","24.9949216666667","6500300","中和區"
"235067","255-BX","2018/11/08 18:59:23","新北市中和區新生街189號","121.483823333333","25.000345","6500300","中和區"
"235044","293-VK","2018/11/08 18:59:30","新北市中和區中興街161巷10弄2號","121.501201666667","24.9909066666667","6500300","中和區"
"235072","301-VK","2018/11/08 18:59:17","新北市中和區福美路302號","121.497093333333","25.0049583333333","6500300","中和區"
"235043","352-BY","2018/11/08 18:59:31","新北市中和區成功路62號","121.526006666667","24.992185","6500300","中和區"
"235050","4979-A6","2018/11/08 18:59:22","新北市中和區忠孝街58巷9號","121.51211","24.9833216666667","6500300","中和區"
"235069","4980-A6","2018/11/08 18:59:27","新北市中和區景平路459巷2弄1號","121.50028","24.9963733333333","6500300","中和區"
"235042","551-UM","2018/11/08 18:59:29","新北市中和區秀朗路三段18號","121.526236666667","24.9963433333333","6500300","中和區"
"235070","558-UM","2018/11/08 18:59:28","新北市中和區安和路159號","121.506245","24.9971933333333","6500300","中和區"
"235045","565-BX","2018/11/08 18:59:28","新北市中和區景新街467巷20弄94號","121.514518333333","24.9874966666667","6500300","中和區"
"235054","640-BX","2018/11/08 18:59:33","新北市中和區民享街30巷1號","121.474026666667","25.0034716666667","6500300","中和區"
"235060","647-TV","2018/11/08 18:59:20","新北市中和區民治街132巷2號","121.475271666667","25.0024916666667","6500300","中和區"
"235047","732-UM","2018/11/08 18:59:13","新北市中和區興南路二段55號","121.507085","24.9853183333333","6500300","中和區"
"235046","733-UM","2018/11/08 18:59:34","新北市中和區興南路二段11號","121.508201666667","24.9861383333333","6500300","中和區"
"235071","783-BX","2018/11/08 18:59:02","新北市中和區員山路36巷16-3號","121.485186666667","24.9911583333333","6500300","中和區"
"235062","800-TS","2018/11/08 18:59:15","新北市中和區橋安街1號","121.492716666667","25.002995","6500300","中和區"
"235057","801-TS","2018/11/08 18:59:15","新北市中和區民安街65巷2號","121.478668333333","24.9995666666667","6500300","中和區"
"235052","805-TS","2018/11/08 18:59:20","新北市中和區興南路二段347號","121.500128333333","24.9800866666667","6500300","中和區"
"235048","896-TW","2018/11/08 18:59:32","新北市中和區華新街98號","121.508538333333","24.9829466666667","6500300","中和區"
"235053","900-TW","2018/11/08 18:59:18","新北市中和區民德路360號","121.466015","24.9939516666667","6500300","中和區"
"235051","157-BY","2018/11/08 18:59:27","新北市中和區忠孝街11巷2號","121.51007","24.98303","6500300","中和區"
"235037","AAC-213","2018/11/08 18:59:21","新北市中和區秀朗路三段10巷14弄41-5號","121.524113333333","24.9963516666667","6500300","中和區"
"235059","AAC-215","2018/11/08 18:59:19","新北市中和區圓通路367巷20弄23號","121.491481666667","24.9883816666667","6500300","中和區"
"220068","013-TV","2018/11/08 18:59:22","新北市板橋區中山路二段465巷78號","121.481186666667","25.02225","6500100","板橋區"
"220065","072-UY","2018/11/08 18:59:16","新北市板橋區民族路287巷5號","121.471123333333","25.0071566666667","6500100","板橋區"
"220086","073-UY","2018/11/08 18:59:23","新北市板橋區中正路248號","121.455681666667","25.0192483333333","6500100","板橋區"
"220106","075-UY","2018/11/08 18:59:13","新北市板橋區文化路二段124巷28-2號","121.471245","25.0256266666667","6500100","板橋區"
"220069","AAD-861","2018/11/08 18:59:32","新北市板橋區大華街34號","121.458675","25.005665","6500100","板橋區"
"226004","312-R5","2018/11/08 18:59:22","新北市平溪區平溪里平溪街28號","121.73876","25.025595","6502400","平溪區"
"235041","251-BX","2018/11/08 18:59:26","新北市中和區宜安路66號","121.511476666667","24.9972216666667","6500300","中和區"
"228003","097-TW","2018/11/08 18:59:18","新北市貢寮區和美里龍洞街60-1號","121.914425","25.1163883333333","6502600","貢寮區"
"228001","212-TW","2018/11/08 18:59:25","新北市貢寮區仁理村保健街71號","121.923696666667","25.05165","6502600","貢寮區"
"228002","585-TW","2018/11/08 18:59:28","新北市貢寮區福隆里東興街106巷25弄1號","121.946478333333","25.018305","6502600","貢寮區"
"224010","AGQ-8101","2018/11/08 18:59:26","新北市瑞芳區基山街51號","121.845326666667","25.108735","6501200","瑞芳區"
"224006","676-BX","2018/11/08 18:59:12","新北市瑞芳區中正路4號","121.808898333333","25.1070683333333","6501200","瑞芳區"
"224002","639-TC","2018/11/08 18:59:15","新北市瑞芳區靜安路四段10號","121.794768333333","25.0868466666667","6501200","瑞芳區"
"224008","285-BY","2018/11/08 18:59:31","新北市瑞芳區瑞芳街86號","121.802388333333","25.1101733333333","6501200","瑞芳區"
"224007","275-VK","2018/11/08 18:59:25","新北市瑞芳區瑞竹路177號","121.758956666667","25.1037566666667","6501200","瑞芳區"
"224009","273-VK","2018/11/08 18:59:29","新北市瑞芳區長仁路37號","121.86551","25.1177083333333","6501200","瑞芳區"
"224005","271-BY","2018/11/08 18:59:16","新北市瑞芳區豎崎路32-5號","121.824746666667","25.12087","6501200","瑞芳區"
"227010","642-TC","2018/11/08 18:59:10","新北市雙溪區牡丹里中正路58巷23號","121.866445","25.0415683333333","6502500","雙溪區"
"227004","400-TW","2018/11/08 18:59:33","新北市雙溪區平林里康福家園10號","121.858801666667","25.0373","6502500","雙溪區"
"253006","032-BX","2018/11/08 18:59:30","新北市石門區八甲9號","121.521665","25.2818583333333","6502200","石門區"
"253005","295-VK","2018/11/08 18:59:14","新北市石門區中央路56號","121.568233333333","25.2933","6502200","石門區"
"222001","KEA-2212","2018/11/08 18:59:16","新北市深坑區北深路一段250號","121.629746666667","25.0087416666667","6501800","深坑區"
"208002","KEA-2872","2018/11/08 18:59:28","新北市金山區仁愛路69號","121.634866666667","25.2210033333333","6502700","金山區"
"208003","665-BX","2018/11/08 18:59:23","新北市金山區中正路27號","121.635316666667","25.2221133333333","6502700","金山區"
"208001","761-BX","2018/11/08 18:59:23","新北市金山區中山路16號","121.641826666667","25.21865","6502700","金山區"
"251009","008-UM","2018/11/08 18:59:25","新北市淡水區重建街66號","121.439916666667","25.171985","6501000","淡水區"
"251001","011-UM","2018/11/08 18:59:31","新北市淡水區自強路58號","121.463218333333","25.1275083333333","6501000","淡水區"
"251013","KEA-2871","2018/11/08 18:59:25","新北市淡水區安子內12-2號","121.484115","25.21713","6501000","淡水區"
"251016","179-VK","2018/11/08 18:59:24","新北市淡水區淡金路三段329號","121.44873","25.20625","6501000","淡水區"
"251008","181-VK","2018/11/08 18:59:23","新北市淡水區下圭柔山91-3號","121.430868333333","25.209525","6501000","淡水區"
"251015","182-VK","2018/11/08 18:59:17","新北市淡水區糞箕湖62號","121.485191666667","25.1722433333333","6501000","淡水區"
"251010","413-VK","2018/11/08 18:59:23","新北市淡水區淡海路88號","121.422913333333","25.1816766666667","6501000","淡水區"
"251007","442-VK","2018/11/08 18:59:20","新北市淡水區民生路113巷1弄36號","121.463258333333","25.1386866666667","6501000","淡水區"
"251002","672-BX","2018/11/08 18:59:32","新北市淡水區中正東路49號","121.446683333333","25.1678966666667","6501000","淡水區"
"251003","766-UM","2018/11/08 18:59:11","新北市淡水區中山北路一段149巷29號","121.443106666667","25.1778366666667","6501000","淡水區"
"207003","550-UM","2018/11/08 18:59:25","新北市萬里區大鵬里頂社23號","121.657056666667","25.2104133333333","6502800","萬里區"
"207004","225-TW","2018/11/08 18:59:18","新北市萬里區萬里里獅頭路23號","121.693193333333","25.1782433333333","6502800","萬里區"
"252002","178-VK","2018/11/08 18:59:15","新北市三芝區中正路一段68號","121.503683333333","25.25785","6502100","三芝區"
"252003","249-BX","2018/11/08 18:59:14","新北市三芝區後厝里北勢子45-33號","121.469723333333","25.2507983333333","6502100","三芝區"
"252001","292-VK","2018/11/08 18:59:11","新北市三芝區中興街二段260號","121.501761666667","25.2529916666667","6502100","三芝區"
"237004","KEA-2597","2018/11/08 18:59:20","新北市三峽區有木179-2號","121.445358333333","24.8326966666667","6500900","三峽區"
"237007","153-BY","2018/11/08 18:59:18","新北市三峽區中正路二段42巷84號","121.364313333333","24.9204816666667","6500900","三峽區"
"237009","210-TH","2018/11/08 18:59:23","新北市三峽區文化路216號","121.368126666667","24.93583","6500900","三峽區"
"237013","252-BX","2018/11/08 18:59:22","新北市三峽區大同路52號","121.376766666667","24.9289416666667","6500900","三峽區"
"237012","275-BY","2018/11/08 18:59:24","新北市三峽區三樹路222巷236弄2號","121.390461666667","24.9427233333333","6500900","三峽區"
"237008","302-VK","2018/11/08 18:59:32","新北市三峽區白雞30號","121.369171666667","24.9124183333333","6500900","三峽區"
"237014","433-BY","2018/11/08 18:59:24","新北市三峽區隆恩街158巷42號","121.365566666667","24.9449883333333","6500900","三峽區"
"237006","5529-G3","2018/11/08 18:59:23","新北市三峽區溪東路205巷12號","121.404941666667","24.9338583333333","6500900","三峽區"
"237011","KEA-2596","2018/11/08 18:59:29","新北市三峽區介壽路三段233號","121.405953333333","24.9467866666667","6500900","三峽區"
"237016","649-BX","2018/11/08 18:59:16","新北市三峽區建安89-3號","121.455121666667","24.9209516666667","6500900","三峽區"
"237010","706-TV","2018/11/08 18:59:31","新北市三峽區復興路174巷4號","121.370731666667","24.9388766666667","6500900","三峽區"
"237005","AKY-6261","2018/11/08 18:59:16","新北市三峽區中山路459巷163-3號","121.348793333333","24.9331433333333","6500900","三峽區"
"236070","105-UM","2018/11/08 18:59:25","新北市土城區學士路49號","121.453173333333","24.9806383333333","6501300","土城區"
"236042","KED-0685","2018/11/08 18:59:30","新北市土城區學府路一段229巷4號","121.451408333333","24.9838266666667","6501300","土城區"
"236078","166-UM","2018/11/08 18:59:25","新北市土城區龍泉路10號","121.409506666667","24.9493983333333","6501300","土城區"
"236030","253-BX","2018/11/08 18:59:20","新北市土城區慶利街14巷2號","121.439796666667","24.9735833333333","6501300","土城區"
"236026","269-VK","2018/11/08 18:59:26","新北市土城區光明街4號","121.442001666667","24.9745283333333","6501300","土城區"
"236014","270-VK","2018/11/08 18:59:30","新北市土城區立德路105號","121.463575","24.9874583333333","6501300","土城區"
"236038","271-VK","2018/11/08 18:59:18","新北市土城區明德路一段196巷7號","121.461581666667","24.9783066666667","6501300","土城區"
"236021","401-BY","2018/11/08 18:59:32","新北市土城區德峰街41巷10號","121.467838333333","24.986185","6501300","土城區"
"236059","912-UM","2018/11/08 18:59:18","新北市土城區金城路二段240號","121.456735","24.983015","6501300","土城區"
"236049","913-UM","2018/11/08 18:59:27","新北市土城區青雲路322巷2弄2號","121.45854","24.9771533333333","6501300","土城區"
"236063","915-UM","2018/11/08 18:59:16","新北市土城區延和路41巷6弄16號","121.466606666667","24.9902933333333","6501300","土城區"
"236055","AAC-216","2018/11/08 18:59:29","新北市土城區裕民路38號","121.448035","24.9883833333333","6501300","土城區"
"242007","176-VK","2018/11/08 18:59:15","新北市樹林區育德街113號","121.389603333333","24.9682083333333","6500500","新莊區"
"242004","349-TH","2018/11/08 18:59:29","新北市新莊區三和路12-21號","121.44244","25.0382666666667","6500500","新莊區"
"238023","601-UM","2018/11/08 18:59:03","新北市樹林區大慶街63號","121.396203333333","25.0135633333333","6500700","樹林區"
"238019","599-UM","2018/11/08 18:59:20","新北市樹林區東華街3巷2號","121.41454","24.9825066666667","6500700","樹林區"
"238022","KEA-2213","2018/11/08 18:59:28","新北市樹林區東興街57巷6號","121.411578333333","24.9772333333333","6500700","樹林區"
"238021","KEA-2539","2018/11/08 18:59:29","新北市樹林區柑園街二段328巷6弄29號","121.373283333333","24.9526833333333","6500700","樹林區"
"238025","303-VK","2018/11/08 18:59:22","新北市樹林區中山路三段22號","121.395578333333","24.97292","6500700","樹林區"
"238014","282-BY","2018/11/08 18:59:18","新北市樹林區潭興街143巷13號","121.425335","24.9998266666667","6500700","樹林區"
"238026","172-UY","2018/11/08 18:59:16","新北市樹林區中和街11號","121.39203","24.9729083333333","6500700","樹林區"
"238016","169-UY","2018/11/08 18:59:30","新北市樹林區文化街25巷6號","121.418783333333","24.987315","6500700","樹林區"
"239007","AAC-297","2018/11/08 18:59:15","新北市鶯歌區中正一路303巷5號","121.355851666667","24.9584716666667","6500800","鶯歌區"
"239008","527-UM","2018/11/08 18:59:19","新北市鶯歌區國際二路66號","121.335091666667","24.97614","6500800","鶯歌區"
"239005","526-UM","2018/11/08 18:59:25","新北市鶯歌區鳳吉一街102號","121.32731","24.97457","6500800","鶯歌區"
"239001","417-VK","2018/11/08 18:59:30","新北市鶯歌區鶯桃路94巷29-2號","121.341011666667","24.9545966666667","6500800","鶯歌區"
"239003","360-BY","2018/11/08 18:59:12","新北市鶯歌區鶯桃路435號","121.332503333333","24.9652783333333","6500800","鶯歌區"
"239004","193-VK","2018/11/08 18:59:29","新北市鶯歌區中正三路247巷67弄6號","121.334095","24.9362933333333","6500800","鶯歌區"
"221008","489-VK","2018/11/08 18:59:17","新北市汐止區汐萬路一段329號","121.649965","25.075675","6501100","汐止區"
"221036","130-UY","2018/11/08 18:59:23","新北市汐止區新台五路一段131號","121.652443333333","25.0618466666667","6501100","汐止區"
"221015","131-UY","2018/11/08 18:59:18","新北市汐止區鄉長路一段55巷22號","121.664763333333","25.07635","6501100","汐止區"
"221010","269-BY","2018/11/08 18:59:22","新北市汐止區康寧街901號","121.65153","25.0749933333333","6501100","汐止區"
"221012","278-VK","2018/11/08 18:59:26","新北市汐止區康寧街901號","121.650805","25.0752433333333","6501100","汐止區"
"221023","279-VK","2018/11/08 18:58:32","新北市汐止區汐萬路一段256巷1號","121.651715","25.0748983333333","6501100","汐止區"
"221032","280-BY","2018/11/08 18:59:19","新北市汐止區橫科路407巷81弄1號","121.628248333333","25.0484466666667","6501100","汐止區"
"221027","281-BY","2018/11/08 18:59:17","新北市汐止區康寧街901號","121.650988333333","25.0751966666667","6501100","汐止區"
"221029","298-VK","2018/11/08 18:59:22","新北市汐止區樟樹一路256號","121.642421666667","25.0673216666667","6501100","汐止區"
"221021","299-VK","2018/11/08 18:59:12","新北市汐止區康寧街901號","121.651596666667","25.07496","6501100","汐止區"
"221031","353-TW","2018/11/08 18:59:27","新北市汐止區中興路181巷29弄8號","121.6299","25.0658416666667","6501100","汐止區"
"221035","622-UM","2018/11/08 18:59:30","新北市汐止區汐萬路一段284號","121.650786666667","25.074185","6501100","汐止區"
"221025","623-UM","2018/11/08 18:59:27","新北市汐止區汐萬路一段117號","121.654191666667","25.0709716666667","6501100","汐止區"
"221038","646-BX","2018/11/08 18:59:24","新北市汐止區汐萬路一段312號","121.650695","25.0752566666667","6501100","汐止區"
"221002","707-TV","2018/11/08 18:59:25","台北市南港區經貿一路57號","121.619763333333","25.0561283333333","6501100","汐止區"
"221018","753-BX","2018/11/08 18:59:15","新北市汐止區汐萬路一段121號","121.65406","25.071105","6501100","汐止區"
"220079","145-BY","2018/11/08 18:59:29","新北市板橋區民權路202巷12弄1號","121.460591666667","25.015695","6500100","板橋區"
"220080","200-UY","2018/11/08 18:59:24","新北市板橋區大觀路二段166巷5號","121.440873333333","24.999275","6500100","板橋區"
"220101","245-BX","2018/11/08 18:59:23","新北市板橋區文化路二段182巷27號","121.472438333333","25.02656","6500100","板橋區"
"220091","267-BY","2018/11/08 18:59:17","新北市板橋區莒光路165巷34號","121.47432","25.0248816666667","6500100","板橋區"
"220056","276-BY","2018/11/08 18:59:18","新北市板橋區信義路150巷38號","121.457276666667","24.99187","6500100","板橋區"
"220072","277-BY","2018/11/08 18:59:28","新北市板橋區溪北路156號","121.430533333333","24.9882083333333","6500100","板橋區"
"220070","282-UM","2018/11/08 18:59:26","新北市板橋區四川路一段489號","121.457138333333","24.9971333333333","6500100","板橋區"
"220094","283-UM","2018/11/08 18:59:21","新北市板橋區文化路二段76號","121.469523333333","25.0249233333333","6500100","板橋區"
"220071","283-VK","2018/11/08 18:59:26","新北市板橋區忠孝路154巷24號","121.464063333333","25.0019183333333","6500100","板橋區"
"220053","285-VK","2018/11/08 18:59:25","新北市板橋區中山路二段157號","121.475621666667","25.0166633333333","6500100","板橋區"
"220083","286-VK","2018/11/08 18:59:32","新北市板橋區大觀路一段38巷180號","121.44154","25.00465","6500100","板橋區"
"220081","287-VK","2018/11/08 18:59:29","新北市板橋區光華街17號","121.453896666667","25.0121283333333","6500100","板橋區"
"220090","288-VK","2018/11/08 18:59:20","新北市板橋區四維路177巷1弄2號","121.463998333333","25.026195","6500100","板橋區"
"220061","295-UM","2018/11/08 18:59:18","新北市板橋區富山街109巷70號","121.475328333333","25.0212783333333","6500100","板橋區"
"220084","296-UM","2018/11/08 18:59:22","新北市板橋區龍興街63巷4號","121.442961666667","25.0013166666667","6500100","板橋區"
"220075","303-R5","2018/11/08 18:59:32","新北市板橋區光華街2號","121.454383333333","25.0111466666667","6500100","板橋區"
"220062","305-R5","2018/11/08 18:59:16","新北市板橋區中山路二段56號","121.473843333333","25.01565","6500100","板橋區"
"220092","307-R5","2018/11/08 18:59:21","新北市板橋區漢生東路15號","121.4647","25.0173566666667","6500100","板橋區"
"220098","317-R6","2018/11/08 18:59:19","新北市板橋區民有街17號","121.466206666667","25.0249133333333","6500100","板橋區"
"220064","486-VK","2018/11/08 18:59:15","新北市板橋區縣民大道二段106號","121.466858333333","25.015395","6500100","板橋區"
"220089","487-VK","2018/11/08 18:59:27","新北市板橋區文化路二段410巷2號","121.473981666667","25.0315116666667","6500100","板橋區"
"220088","491-VK","2018/11/08 18:59:29","新北市板橋區民生路二段222號","121.469135","25.02173","6500100","板橋區"
"220035","560-BX","2018/11/08 18:59:26","新北市板橋區中正路294號","121.454918333333","25.0204633333333","6500100","板橋區"
"220103","561-BX","2018/11/08 18:59:32","新北市板橋區介壽街82號","121.469856666667","25.01874","6500100","板橋區"
"220063","609-BX","2018/11/08 18:59:28","新北市板橋區中山路二段161號","121.475826666667","25.01676","6500100","板橋區"
"220057","686-BX","2018/11/08 18:59:18","新北市板橋區重慶路175號","121.462758333333","25.0025666666667","6500100","板橋區"
"220077","687-BX","2018/11/08 18:59:23","新北市板橋區大觀路二段293號","121.442295","24.99881","6500100","板橋區"
"220093","689-BX","2018/11/08 18:59:15","新北市板橋區民生路三段66號","121.467076666667","25.025735","6500100","板橋區"
"220054","741-BX","2018/11/08 18:59:30","新北市板橋區重慶路89巷2號","121.462238333333","25.0063866666667","6500100","板橋區"
"220102","KEA-2699","2018/11/08 18:59:15","新北市板橋區萬板路710號","121.48183","25.0274233333333","6500100","板橋區"
"220055","827-TW","2018/11/08 18:59:29","新北市板橋區中山路一段158巷29號","121.46668","25.0111166666667","6500100","板橋區"
"220067","829-TW","2018/11/08 18:59:16","新北市板橋區三民路2段正泰3巷18-1號","121.477915","25.0141866666667","6500100","板橋區"
"220096","831-TW","2018/11/08 18:59:29","新北市板橋區莒光路97號","121.472433333333","25.024035","6500100","板橋區"
"220074","895-R6","2018/11/08 18:59:26","新北市板橋區中正路37號","121.456316666667","25.0131233333333","6500100","板橋區"
"220073","985-R7","2018/11/08 18:59:16","新北市板橋區民權路240號","121.458451666667","25.0144483333333","6500100","板橋區"
"220097","AAC-210","2018/11/08 18:59:14","新北市板橋區漢生東路15號","121.464706666667","25.0173183333333","6500100","板橋區"
"220082","AAC-253","2018/11/08 18:59:31","新北市板橋區滿平街123號","121.428656666667","24.9883916666667","6500100","板橋區"
"235068","KEA-2873","2018/11/08 18:59:14","新北市中和區圓通路232巷8號","121.494828333333","24.9932166666667","6500300","中和區"
"235061","KEA-2875","2018/11/08 18:59:22","新北市中和區民治街132巷10號","121.474871666667","25.0024233333333","6500300","中和區"
