"lineid","car","time","location","longitude","latitude","cityid","cityname"
"234046","148-BY","2018/11/08 19:09:23","新北市永和區永元路18巷38弄1號","121.524003333333","25.000235","6500400","永和區"
"234007","207-UY","2018/11/08 19:09:28","新北市永和區中山路一段283號","121.506991666667","25.0069683333333","6500400","永和區"
"234081","298-R6","2018/11/08 19:09:23","新北市永和區福和路57巷14弄1號","121.52271","25.0069016666667","6500400","永和區"
"234038","336-UY","2018/11/08 19:09:07","新北市永和區民樂街69巷2號","121.527396666667","24.9977033333333","6500400","永和區"
"234064","337-UY","2018/11/08 19:09:31","新北市永和區秀朗路二段17號","121.52103","25.0026933333333","6500400","永和區"
"234086","338-UY","2018/11/08 19:09:24","新北市永和區永貞路148號","121.51797","25.0044083333333","6500400","永和區"
"234070","553-UM","2018/11/08 19:09:16","新北市永和區豫溪街137巷1弄9號","121.519258333333","25.0104333333333","6500400","永和區"
"234017","745-BX","2018/11/08 19:09:19","新北市永和區文化路90巷12號","121.51386","25.0157916666667","6500400","永和區"
"234030","746-BX","2018/11/08 19:09:22","新北市永和區民生路29號","121.523003333333","24.9984233333333","6500400","永和區"
"234054","KEA-2590","2018/11/08 19:09:22","新北市永和區竹林路77號","121.519488333333","25.0128116666667","6500400","永和區"
"234013","KEA-2591","2018/11/08 19:09:25","新北市永和區永和路二段59號","121.514695","25.0109766666667","6500400","永和區"
"234061","AAD-866","2018/11/08 19:09:21","新北市永和區安樂路475號","121.514346666667","25.0055166666667","6500400","永和區"
"234042","862-TW","2018/11/08 19:09:19","新北市永和區保平路135號","121.510386666667","25.0062333333333","6500400","永和區"
"234050","863-TW","2018/11/08 19:09:18","新北市永和區保福路二段150巷18號","121.510463333333","25.0150233333333","6500400","永和區"
"234026","9371-KE","2018/11/08 19:09:29","新北市永和區安樂路198巷安和二弄2號","121.5155","25.0019116666667","6500400","永和區"
"234011","9373-KE","2018/11/08 19:09:23","新北市永和區仁愛路141巷30弄14號","121.511971666667","25.0114666666667","6500400","永和區"
"249005","172-UM","2018/11/08 19:09:33","新北市八里區中華路三段55號","121.395081666667","25.1413516666667","6502300","八里區"
"249001","173-UM","2018/11/08 19:09:20","新北市八里區龍米路二段228-1號","121.432745","25.1583583333333","6502300","八里區"
"249003","593-UM","2018/11/08 19:09:19","新北市八里區博物館路105號","121.409391666667","25.1595983333333","6502300","八里區"
"248016","026-BX","2018/11/08 19:09:30","新北市五股區成泰路三段543巷56號","121.449556666667","25.103095","6501500","五股區"
"248006","077-UY","2018/11/08 19:09:24","新北市五股區四維路90-1號","121.467476666667","25.0731816666667","6501500","五股區"
"248008","095-VK","2018/11/08 19:09:17","新北市五股區中興路二段37巷24號","121.46063","25.0750766666667","6501500","五股區"
"248020","225-UY","2018/11/08 19:09:16","新北市五股區凌雲路三段57號","121.425306666667","25.125","6501500","五股區"
"248010","272-BY","2018/11/08 19:09:14","新北市五股區水碓二路1號","121.430656666667","25.0711933333333","6501500","五股區"
"248012","655-BX","2018/11/08 19:09:23","新北市五股區中興路四段38巷11號","121.43876","25.0833566666667","6501500","五股區"
"248004","677-BX","2018/11/08 19:09:33","新北市五股區五福路2號","121.434021666667","25.0872916666667","6501500","五股區"
"248002","678-BX","2018/11/08 19:09:24","新北市五股區凌雲路一段158巷6號","121.447828333333","25.1030416666667","6501500","五股區"
"234023","9380-KE","2018/11/08 19:09:23","新北市永和區中興街10巷54號","121.516173333333","25.0110366666667","6500400","永和區"
"234077","969-R7","2018/11/08 19:09:30","新北市永和區民權路58巷3號","121.519611666667","24.9983","6500400","永和區"
"234074","AAC-211","2018/11/08 19:09:30","新北市永和區福和路85號","121.522186666667","25.0078416666667","6500400","永和區"
"234067","AAC-212","2018/11/08 19:09:14","新北市永和區保平路23號","121.512626666667","25.0074333333333","6500400","永和區"
"234003","AAC-295","2018/11/08 19:09:27","新北市永和區和平街60號","121.512308333333","25.0100966666667","6500400","永和區"
"232011","076-UY","2018/11/08 19:09:14","新北市坪林區北宜路八段558號","121.71706","24.9094333333333","6502000","坪林區"
"244023","069-UM","2018/11/08 19:09:20","新北市林口區文化三路一段617巷90號","121.370166666667","25.0779983333333","6501700","林口區"
"244019","403-UM","2018/11/08 19:09:17","新北市林口區四維路116號","121.377615","25.07793","6501700","林口區"
"244013","KEA-2802","2018/11/08 19:09:24","新北市林口區麗園一街4巷1號","121.376013333333","25.07131","6501700","林口區"
"244017","485-VK","2018/11/08 19:09:16","新北市林口區公園路84號","121.369238333333","25.0701516666667","6501700","林口區"
"244011","701-TV","2018/11/08 19:09:21","新北市林口區中正路332號","121.387388333333","25.0777466666667","6501700","林口區"
"244025","837-TS","2018/11/08 19:09:17","新北市林口區忠孝路53號","121.365408333333","25.0750116666667","6501700","林口區"
"243010","267-VK","2018/11/08 19:09:28","新北市泰山區明志路一段483巷1弄2號","121.431161666667","25.055305","6501600","泰山區"
"243013","AAD-798","2018/11/08 19:09:20","新北市泰山區明志路三段277號","121.423093333333","25.0367916666667","6501600","泰山區"
"243009","297-R6","2018/11/08 19:09:32","新北市泰山區楓江路25巷9號","121.434506666667","25.06354","6501600","泰山區"
"243016","KEA-2801","2018/11/08 19:09:13","新北市泰山區明志路二段357號","121.425373333333","25.0442666666667","6501600","泰山區"
"243007","421-VK","2018/11/08 19:09:31","新北市泰山區明志路一段485號","121.430688333333","25.0554666666667","6501600","泰山區"
"243011","KEA-2215","2018/11/08 19:09:28","新北市泰山區明志路二段318號","121.426256666667","25.046","6501600","泰山區"
"243012","646-TV","2018/11/08 19:09:31","新北市泰山區吳厝窠1號","121.42795","25.0585433333333","6501600","泰山區"
"243014","680-BX","2018/11/08 19:09:29","新北市泰山區泰林路二段308號","121.430735","25.0628416666667","6501600","泰山區"
"222003","436-BY","2018/11/08 19:09:28","新北市深坑區深南路162號","121.626133333333","25.0149533333333","6501800","深坑區"
"222002","659-BX","2018/11/08 19:09:27","新北市深坑區烏月路1號","121.633403333333","25.0081666666667","6501800","深坑區"
"231041","002-UM","2018/11/08 19:09:29","新北市新店區溪園路415號","121.524456666667","24.97864","6500600","新店區"
"231066","0291-UT","2018/11/08 19:09:14","新北市新店區安康路二段337-1號","121.498451666667","24.955965","6500600","新店區"
"231059","046-UY","2018/11/08 19:09:12","新北市新店區安康路一段351-1號","121.5195","24.9640466666667","6500600","新店區"
"231040","047-UY","2018/11/08 19:09:24","新北市新店區三民路98-3號","121.534073333333","24.9734333333333","6500600","新店區"
"231044","106-UY","2018/11/08 19:09:24","新北市新店區中興路三段182號","121.54412","24.9812633333333","6500600","新店區"
"231052","108-UY","2018/11/08 19:09:28","新北市新店區屈尺路95號","121.54561","24.9232666666667","6500600","新店區"
"231046","110-UY","2018/11/08 19:09:15","新北市新店區華潭街26巷1弄1號","121.529431666667","24.953545","6500600","新店區"
"231047","187-VK","2018/11/08 19:09:33","新北市新店區德正街27巷29弄60號","121.545778333333","24.9728633333333","6500600","新店區"
"231062","188-VK","2018/11/08 19:09:26","新北市新店區安和路二段66號","121.51816","24.9678233333333","6500600","新店區"
"231054","KEA-2219","2018/11/08 19:09:20","新北市新店區新店路143號","121.537031666667","24.9548383333333","6500600","新店區"
"231042","268-BY","2018/11/08 19:09:18","新北市新店區中興路一段193號","121.543273333333","24.9650966666667","6500600","新店區"
"231051","278-BY","2018/11/08 19:09:20","新北市新店區中正路400巷8號","121.534925","24.9777616666667","6500600","新店區"
"231050","AAD-862","2018/11/08 19:09:14","新北市新店區竹林路30巷21號","121.552075","24.950215","6500600","新店區"
"231060","355-BY","2018/11/08 19:09:13","新北市新店區車子路1-1號","121.504986666667","24.9579633333333","6500600","新店區"
"231058","3713-VJ","2018/11/08 19:09:22","新北市新店區光明街79號","121.53896","24.9606816666667","6500600","新店區"
"231056","4715-K9","2018/11/08 19:09:29","新北市新店區中正路491號","121.533735","24.98255","6500600","新店區"
"231067","4772-VM","2018/11/08 19:09:32","新北市新店區安康路一段263巷36弄1號","121.523655","24.9618433333333","6500600","新店區"
"231065","512-UM","2018/11/08 19:09:17","新北市新店區安祥路145巷16號","121.475231666667","24.9561316666667","6500600","新店區"
"231049","513-UM","2018/11/08 19:09:27","新北市新店區二十張路25巷3號","121.53902","24.98212","6500600","新店區"
"231045","617-UM","2018/11/08 19:09:29","新北市新店區北宜路一段119號","121.5403","24.9540166666667","6500600","新店區"
"231061","619-UM","2018/11/08 19:09:27","新北市新店區安康路一段355-10號","121.52038","24.9637966666667","6500600","新店區"
"231063","641-BX","2018/11/08 19:09:31","新北市新店區車子路144號","121.505248333333","24.947625","6500600","新店區"
"231064","719-UM","2018/11/08 19:09:14","新北市新店區安忠路56巷6號","121.5129","24.95941","6500600","新店區"
"231043","899-TW","2018/11/08 19:09:25","新北市新店區中興路二段252號","121.547426666667","24.9759416666667","6500600","新店區"
"231055","AKT-0513","2018/11/08 19:09:15","新北市新店區安民街65巷11號","121.515455","24.9665516666667","6500600","新店區"
"241022","060-VK","2018/11/08 19:09:30","新北市三重區三民街153-1號","121.48422","25.0645016666667","6500200","三重區"
"241026","066-VK","2018/11/08 19:09:26","新北市三重區泉州街70巷1號","121.495015","25.0548116666667","6500200","三重區"
"251014","742-BX","2018/11/08 19:09:19","新北市淡水區小中寮19-8號","121.485578333333","25.2279883333333","6501000","淡水區"
"241029","942-UM","2018/11/08 19:09:26","新北市三重區集美街222號","121.491941666667","25.0554366666667","6500200","三重區"
"235066","003-UY","2018/11/08 19:09:27","新北市中和區廣福路6號","121.505956666667","25.0031033333333","6500300","中和區"
"235064","005-UY","2018/11/08 19:09:27","新北市中和區泰和街38巷39號","121.498331666667","25.0013916666667","6500300","中和區"
"235063","006-UY","2018/11/08 19:09:19","新北市中和區中正路628號","121.485431666667","24.9958133333333","6500300","中和區"
"235056","096-UM","2018/11/08 19:09:15","新北市中和區員山路536號","121.478848333333","25.0099683333333","6500300","中和區"
"235039","097-UM","2018/11/08 19:09:24","新北市中和區秀朗路三段179號","121.524463333333","24.9907666666667","6500300","中和區"
"235065","098-UM","2018/11/08 19:09:20","新北市中和區中山路二段136巷8號","121.50197","25.0038066666667","6500300","中和區"
"235058","151-BY","2018/11/08 19:09:15","新北市中和區連城路523巷13弄18號","121.482106666667","24.99381","6500300","中和區"
"235055","183-VK","2018/11/08 19:09:14","新北市中和區德光路73號","121.469491666667","25.003705","6500300","中和區"
"235038","185-VK","2018/11/08 19:09:30","新北市中和區大仁街10巷27弄3號","121.519188333333","24.9927166666667","6500300","中和區"
"235049","186-VK","2018/11/08 19:09:31","新北市中和區明禮街20號","121.504753333333","24.99601","6500300","中和區"
"235067","255-BX","2018/11/08 19:09:23","新北市中和區新生街195號","121.483746666667","25.000135","6500300","中和區"
"235044","293-VK","2018/11/08 19:09:30","新北市中和區中興街222-6號","121.500665","24.989625","6500300","中和區"
"235072","301-VK","2018/11/08 19:09:17","新北市中和區板南路335號","121.494265","24.9977616666667","6500300","中和區"
"235043","352-BY","2018/11/08 19:09:31","新北市中和區景平路160號","121.517333333333","24.9921366666667","6500300","中和區"
"235050","4979-A6","2018/11/08 19:09:22","新北市中和區復興路54號","121.504038333333","24.9902216666667","6500300","中和區"
"235069","4980-A6","2018/11/08 19:09:27","新北市中和區中和路217巷12號","121.504453333333","25.000675","6500300","中和區"
"235042","551-UM","2018/11/08 19:09:29","新北市中和區自強路15巷10號","121.520813333333","24.99348","6500300","中和區"
"235070","558-UM","2018/11/08 19:09:28","新北市中和區中和路82號","121.501115","25.0005816666667","6500300","中和區"
"235045","565-BX","2018/11/08 19:09:28","新北市中和區景新街426號","121.513035","24.9888883333333","6500300","中和區"
"235054","640-BX","2018/11/08 19:09:13","新北市中和區民德路179號","121.468603333333","24.9993916666667","6500300","中和區"
"235060","647-TV","2018/11/08 19:09:34","新北市中和區民有街92號","121.476223333333","25.00364","6500300","中和區"
"235047","732-UM","2018/11/08 19:09:13","新北市中和區興南路二段5號","121.507978333333","24.9863","6500300","中和區"
"235046","733-UM","2018/11/08 19:09:15","新北市中和區忠孝街1巷86號","121.50817","24.9849916666667","6500300","中和區"
"235071","783-BX","2018/11/08 19:09:22","新北市中和區連城路318號","121.483418333333","24.9960733333333","6500300","中和區"
"235062","800-TS","2018/11/08 19:09:15","新北市中和區中山路二段526巷17號","121.485703333333","25.005475","6500300","中和區"
"235057","801-TS","2018/11/08 19:09:16","新北市中和區民利街68巷5弄42號","121.477205","24.9986583333333","6500300","中和區"
"235052","805-TS","2018/11/08 19:09:20","新北市中和區興南路二段242巷16號","121.502403333333","24.9832333333333","6500300","中和區"
"235048","896-TW","2018/11/08 19:09:12","新北市中和區忠孝街2-8號","121.509186666667","24.9830016666667","6500300","中和區"
"235053","900-TW","2018/11/08 19:09:18","新北市中和區華福街88號","121.467595","24.9964483333333","6500300","中和區"
"235051","157-BY","2018/11/08 19:09:27","新北市中和區興南路一段71號","121.510118333333","24.98926","6500300","中和區"
"235037","AAC-213","2018/11/08 19:09:21","新北市中和區秀朗路三段60巷26號","121.525406666667","24.9950083333333","6500300","中和區"
"235059","AAC-215","2018/11/08 19:09:19","新北市中和區圓通路296巷31弄1號","121.488528333333","24.9903816666667","6500300","中和區"
"220068","013-TV","2018/11/08 19:09:22","新北市板橋區三民路一段31巷39-1號","121.480505","25.0232466666667","6500100","板橋區"
"220065","072-UY","2018/11/08 19:09:16","新北市板橋區民族路219巷22號","121.469273333333","25.0083183333333","6500100","板橋區"
"220086","073-UY","2018/11/08 19:09:23","新北市板橋區國光路173巷10號","121.460461666667","25.0189783333333","6500100","板橋區"
"220106","075-UY","2018/11/08 19:09:33","新北市板橋區文化路二段311號","121.472061666667","25.029645","6500100","板橋區"
"220069","AAD-861","2018/11/08 19:09:32","新北市板橋區大華街71號","121.459456666667","25.003505","6500100","板橋區"
"226004","312-R5","2018/11/08 19:09:22","新北市平溪區靜安路二段530巷7號","121.744908333333","25.027275","6502400","平溪區"
"235041","251-BX","2018/11/08 19:09:27","新北市中和區中和路236號","121.507101666667","24.9996166666667","6500300","中和區"
"228003","097-TW","2018/11/08 19:09:18","新北市貢寮區和美里和美街43-1號","121.914485","25.0915833333333","6502600","貢寮區"
"228001","212-TW","2018/11/08 19:09:25","新北市貢寮區真理里新港街10號","121.925495","25.0543516666667","6502600","貢寮區"
"228002","585-TW","2018/11/08 19:09:28","新北市貢寮區龍門里復興街14號","121.926541666667","25.0260133333333","6502600","貢寮區"
"224010","AGQ-8101","2018/11/08 19:09:26","新北市瑞芳區烏勢巷134號","121.846645","25.1074266666667","6501200","瑞芳區"
"224006","676-BX","2018/11/08 19:09:12","新北市瑞芳區中山路201號","121.801446666667","25.106695","6501200","瑞芳區"
"224008","285-BY","2018/11/08 19:09:19","新北市瑞芳區明燈路三段271號","121.798788333333","25.11206","6501200","瑞芳區"
"224007","275-VK","2018/11/08 19:09:23","新北市瑞芳區頂埔巷19號","121.765795","25.1029766666667","6501200","瑞芳區"
"224009","273-VK","2018/11/08 19:09:29","新北市瑞芳區洞頂路148號","121.85972","25.1181816666667","6501200","瑞芳區"
"227010","642-TC","2018/11/08 19:09:10","新北市雙溪區牡丹里中正路23號","121.864451666667","25.037645","6502500","雙溪區"
"227004","400-TW","2018/11/08 19:09:33","新北市雙溪區平林里外平林9-5號","121.85916","25.038015","6502500","雙溪區"
"253006","032-BX","2018/11/08 19:09:30","新北市石門區海灣新城39號","121.52693","25.2846016666667","6502200","石門區"
"253005","295-VK","2018/11/08 19:09:14","新北市石門區阿里荖41-1號","121.60573","25.28062","6502200","石門區"
"222001","KEA-2212","2018/11/08 19:09:16","新北市深坑區北深路一段300號","121.624235","25.0057433333333","6501800","深坑區"
"208002","KEA-2872","2018/11/08 19:09:28","新北市金山區中正路67號","121.633918333333","25.2216833333333","6502700","金山區"
"208003","665-BX","2018/11/08 19:09:23","新北市金山區中正路52號","121.634265","25.2220033333333","6502700","金山區"
"208001","761-BX","2018/11/08 19:09:23","新北市金山區金包里街49號","121.639021666667","25.221345","6502700","金山區"
"251009","008-UM","2018/11/08 19:09:25","新北市淡水區清水街139號","121.440223333333","25.1713883333333","6501000","淡水區"
"251005","010-UM","2018/11/08 19:09:25","新北市淡水區中山路108巷16號","121.442148333333","25.1711866666667","6501000","淡水區"
"251001","011-UM","2018/11/08 19:09:31","新北市淡水區民權路92巷35-1號","121.462106666667","25.126775","6501000","淡水區"
"251013","KEA-2871","2018/11/08 19:09:25","新北市淡水區安子內12號","121.480941666667","25.2193616666667","6501000","淡水區"
"251016","179-VK","2018/11/08 19:09:24","新北市淡水區下圭柔山119-51號","121.450776666667","25.2084583333333","6501000","淡水區"
"251015","182-VK","2018/11/08 19:09:17","新北市淡水區南勢埔31號","121.483565","25.1792183333333","6501000","淡水區"
"251010","413-VK","2018/11/08 19:09:23","新北市淡水區中正路一段156巷3號","121.421156666667","25.1803133333333","6501000","淡水區"
"251007","442-VK","2018/11/08 19:09:16","新北市淡水區民生路137號","121.46554","25.1387533333333","6501000","淡水區"
"251002","672-BX","2018/11/08 19:09:32","新北市淡水區中山路95巷2號","121.442191666667","25.170575","6501000","淡水區"
"251003","766-UM","2018/11/08 19:09:31","新北市淡水區中山北路一段88號","121.44237","25.1762216666667","6501000","淡水區"
"207003","550-UM","2018/11/08 19:09:25","新北市萬里區大鵬里萬里加投24號","121.649361666667","25.208245","6502800","萬里區"
"207004","225-TW","2018/11/08 19:09:18","新北市萬里區萬里里瑪鋉下街50號","121.69157","25.1794883333333","6502800","萬里區"
"252002","178-VK","2018/11/08 19:09:15","新北市三芝區埔坪里埔頭坑84號","121.50811","25.2542533333333","6502100","三芝區"
"252003","249-BX","2018/11/08 19:09:14","新北市三芝區錫板里南勢崗7號","121.479418333333","25.2617783333333","6502100","三芝區"
"252001","292-VK","2018/11/08 19:09:31","新北市三芝區長勤街45巷1號","121.500481666667","25.2552416666667","6502100","三芝區"
"237004","KEA-2597","2018/11/08 19:09:20","新北市三峽區有木205-1號","121.439051666667","24.8514316666667","6500900","三峽區"
"237007","153-BY","2018/11/08 19:09:18","新北市三峽區二鬮路122-1號","121.359936666667","24.9083633333333","6500900","三峽區"
"237009","210-TH","2018/11/08 19:09:23","新北市三峽區文化路216號","121.36812","24.9358433333333","6500900","三峽區"
"237013","252-BX","2018/11/08 19:09:22","新北市三峽區大同路52號","121.376846666667","24.9290466666667","6500900","三峽區"
"237012","275-BY","2018/11/08 19:09:24","新北市三峽區三樹路222巷236弄23號","121.391471666667","24.94303","6500900","三峽區"
"237008","302-VK","2018/11/08 19:09:12","新北市三峽區中正路一段276號","121.371811666667","24.9264383333333","6500900","三峽區"
"237014","433-BY","2018/11/08 19:09:24","新北市三峽區隆恩街238號","121.357741666667","24.9411466666667","6500900","三峽區"
"237006","5529-G3","2018/11/08 19:09:23","新北市三峽區橫溪路95號","121.398471666667","24.9354116666667","6500900","三峽區"
"237011","KEA-2596","2018/11/08 19:09:28","新北市三峽區介壽路三段107號","121.395483333333","24.93932","6500900","三峽區"
"237016","649-BX","2018/11/08 19:09:16","新北市三峽區建安67-6號","121.447596666667","24.9267483333333","6500900","三峽區"
"237010","706-TV","2018/11/08 19:09:31","新北市三峽區國光街59號","121.374473333333","24.9380383333333","6500900","三峽區"
"237005","AKY-6261","2018/11/08 19:09:16","新北市三峽區隆恩街245號","121.357678333333","24.940855","6500900","三峽區"
"236070","105-UM","2018/11/08 19:09:25","新北市土城區裕生路84巷2號","121.447396666667","24.9853516666667","6501300","土城區"
"236078","166-UM","2018/11/08 19:09:25","新北市土城區龍泉路54號","121.413718333333","24.944085","6501300","土城區"
"236026","269-VK","2018/11/08 19:09:26","新北市土城區中正路74巷2弄1號","121.444615","24.975075","6501300","土城區"
"236014","270-VK","2018/11/08 19:09:30","新北市土城區學府路一段77號","121.456835","24.9881666666667","6501300","土城區"
"236038","271-VK","2018/11/08 19:09:18","新北市土城區清水路145號","121.458426666667","24.98179","6501300","土城區"
"236021","401-BY","2018/11/08 19:09:25","新北市土城區延峰街36巷2號","121.469535","24.984705","6501300","土城區"
"236059","912-UM","2018/11/08 19:09:18","新北市土城區忠義路47號","121.440651666667","24.969475","6501300","土城區"
"236049","913-UM","2018/11/08 19:09:17","新北市土城區明德路一段365-1號","121.453643333333","24.9791016666667","6501300","土城區"
"236055","AAC-216","2018/11/08 19:09:29","新北市土城區學府路一段167號","121.45285","24.9856633333333","6501300","土城區"
"242007","176-VK","2018/11/08 19:09:15","新北市新莊區環漢路四段2號","121.435383333333","25.0003766666667","6500500","新莊區"
"242004","349-TH","2018/11/08 19:09:29","新北市新莊區三和路12-21號","121.44226","25.0384016666667","6500500","新莊區"
"238023","601-UM","2018/11/08 19:09:28","新北市樹林區三興路50號","121.394513333333","25.014395","6500700","樹林區"
"238019","599-UM","2018/11/08 19:09:22","新北市樹林區東華街73號","121.415683333333","24.98089","6500700","樹林區"
"238022","KEA-2213","2018/11/08 19:09:28","新北市樹林區東順街90巷3弄1號","121.408051666667","24.9761933333333","6500700","樹林區"
"238021","KEA-2539","2018/11/08 19:09:29","新北市樹林區柑園街二段441號","121.363726666667","24.9465066666667","6500700","樹林區"
"238025","303-VK","2018/11/08 19:09:22","新北市樹林區民和街50號","121.384273333333","24.969315","6500700","樹林區"
"238014","282-BY","2018/11/08 19:09:17","新北市樹林區千歲街92巷7弄37號","121.427545","24.998355","6500700","樹林區"
"238026","172-UY","2018/11/08 19:09:16","新北市樹林區中山路三段160-1號","121.38927","24.9702666666667","6500700","樹林區"
"238016","169-UY","2018/11/08 19:09:30","新北市樹林區復興路335巷6弄24號","121.417465","24.9871066666667","6500700","樹林區"
"239007","AAC-297","2018/11/08 19:08:55","新北市鶯歌區中山路138巷19-3號","121.351791666667","24.9602333333333","6500800","鶯歌區"
"239006","891-R6","2018/11/08 19:09:23","新北市鶯歌區鶯桃路296巷70號","121.336593333333","24.9616466666667","6500800","鶯歌區"
"239008","527-UM","2018/11/08 19:09:19","新北市鶯歌區國際二路12巷27號","121.33837","24.974935","6500800","鶯歌區"
"239005","526-UM","2018/11/08 19:09:26","新北市鶯歌區大湖路361巷24弄28號","121.329705","24.97764","6500800","鶯歌區"
"239001","417-VK","2018/11/08 19:09:30","新北市鶯歌區鶯桃路134號","121.33809","24.9548166666667","6500800","鶯歌區"
"239003","360-BY","2018/11/08 19:09:32","新北市鶯歌區八德路7-2號","121.336108333333","24.950625","6500800","鶯歌區"
"239004","193-VK","2018/11/08 19:09:29","新北市鶯歌區中正三路268號","121.329211666667","24.936265","6500800","鶯歌區"
"221008","489-VK","2018/11/08 19:09:17","新北市汐止區康寧街480號","121.63222","25.068405","6501100","汐止區"
"221036","130-UY","2018/11/08 19:09:22","新北市汐止區汐萬路一段256巷3號","121.652491666667","25.0745766666667","6501100","汐止區"
"221015","131-UY","2018/11/08 19:09:18","新北市汐止區水源路一段3號","121.657181666667","25.067235","6501100","汐止區"
"221010","269-BY","2018/11/08 19:09:22","新北市汐止區康寧街901號","121.651375","25.0750283333333","6501100","汐止區"
"221012","278-VK","2018/11/08 19:09:26","新北市汐止區康寧街901號","121.650826666667","25.0752666666667","6501100","汐止區"
"221023","279-VK","2018/11/08 19:08:32","新北市汐止區康寧街901號","121.651693333333","25.0748833333333","6501100","汐止區"
"221032","280-BY","2018/11/08 19:09:19","新北市汐止區橫科路241-1號","121.621945","25.04928","6501100","汐止區"
"221027","281-BY","2018/11/08 19:09:17","新北市汐止區康寧街901號","121.650991666667","25.07516","6501100","汐止區"
"221029","298-VK","2018/11/08 19:09:22","新北市汐止區汐萬路一段256巷3號","121.652283333333","25.0746016666667","6501100","汐止區"
"221021","299-VK","2018/11/08 19:09:32","新北市汐止區康寧街901號","121.651546666667","25.0749966666667","6501100","汐止區"
"221031","353-TW","2018/11/08 19:09:27","新北市汐止區福德一路1-1號","121.639651666667","25.0709333333333","6501100","汐止區"
"221025","623-UM","2018/11/08 19:09:27","新北市汐止區汐萬路一段256巷3號","121.653308333333","25.0746516666667","6501100","汐止區"
"221038","646-BX","2018/11/08 19:09:24","新北市汐止區汐萬路一段312號","121.650698333333","25.0752816666667","6501100","汐止區"
"221002","707-TV","2018/11/08 19:09:25","新北市汐止區大同路一段312號","121.637298333333","25.05868","6501100","汐止區"
"220079","145-BY","2018/11/08 19:09:29","新北市板橋區民權路260巷3號","121.45813","25.0153866666667","6500100","板橋區"
"220080","200-UY","2018/11/08 19:01:44","新北市板橋區大觀路二段166巷5號","121.440873333333","24.999275","6500100","板橋區"
"220101","245-BX","2018/11/08 19:09:23","新北市板橋區萬板路13號","121.470588333333","25.02091","6500100","板橋區"
"220091","267-BY","2018/11/08 19:09:18","新北市板橋區縣民大道247巷80號","121.482131666667","25.0269333333333","6500100","板橋區"
"220056","276-BY","2018/11/08 19:09:18","新北市板橋區信義路110巷1弄1-1號","121.458006666667","24.99225","6500100","板橋區"
"220072","277-BY","2018/11/08 19:09:28","新北市板橋區金門街260巷2號","121.429786666667","24.98687","6500100","板橋區"
"220070","282-UM","2018/11/08 19:09:26","新北市板橋區忠孝路93號","121.462291666667","25.0022916666667","6500100","板橋區"
"220094","283-UM","2018/11/08 19:09:21","新北市板橋區光武街133號","121.46567","25.0290966666667","6500100","板橋區"
"220071","283-VK","2018/11/08 19:09:26","新北市板橋區重慶路327巷19弄3-2號","121.464741666667","24.9988183333333","6500100","板橋區"
"220053","285-VK","2018/11/08 19:09:25","新北市板橋區懷仁街10巷3號","121.475076666667","25.0194683333333","6500100","板橋區"
"220083","286-VK","2018/11/08 19:09:20","新北市板橋區大觀路二段174巷173弄7號","121.441465","25.00374","6500100","板橋區"
"220081","287-VK","2018/11/08 19:09:29","新北市板橋區南雅西路二段154號","121.451905","25.0133816666667","6500100","板橋區"
"220090","288-VK","2018/11/08 19:09:21","新北市板橋區裕民街33號","121.46176","25.0287883333333","6500100","板橋區"
"220061","295-UM","2018/11/08 19:09:18","新北市板橋區懷仁街87號","121.477491666667","25.018305","6500100","板橋區"
"220084","296-UM","2018/11/08 19:09:22","新北市板橋區溪崑一街30巷32號","121.429238333333","24.991465","6500100","板橋區"
"220075","303-R5","2018/11/08 19:09:32","新北市板橋區南雅南路一段5巷2號","121.455938333333","25.0055416666667","6500100","板橋區"
"220062","305-R5","2018/11/08 19:09:16","新北市板橋區三民路二段245巷53號","121.480688333333","25.01258","6500100","板橋區"
"220092","307-R5","2018/11/08 19:09:21","新北市板橋區文化路二段254號","121.471073333333","25.0283433333333","6500100","板橋區"
"220098","317-R6","2018/11/08 19:09:32","新北市板橋區自由路51巷14弄3號","121.464673333333","25.0236066666667","6500100","板橋區"
"220064","486-VK","2018/11/08 19:09:13","新北市板橋區民生路一段3號","121.476501666667","25.0117283333333","6500100","板橋區"
"220089","487-VK","2018/11/08 19:09:28","新北市板橋區文化路二段421號","121.474731666667","25.0327783333333","6500100","板橋區"
"220088","491-VK","2018/11/08 19:09:19","新北市板橋區文化路二段182巷1弄16號","121.471556666667","25.0278816666667","6500100","板橋區"
"220035","560-BX","2018/11/08 19:09:26","新北市板橋區中正路328號","121.454523333333","25.0215016666667","6500100","板橋區"
"220103","561-BX","2018/11/08 19:09:32","新北市板橋區介壽街84巷34號","121.469131666667","25.018155","6500100","板橋區"
"220063","609-BX","2018/11/08 19:09:32","新北市板橋區三民路二段212號","121.478805","25.0118533333333","6500100","板橋區"
"220057","686-BX","2018/11/08 19:09:24","新北市板橋區重慶路344號","121.464233333333","24.9971833333333","6500100","板橋區"
"220077","687-BX","2018/11/08 19:09:24","新北市板橋區大觀路二段67號","121.446651666667","25.0024416666667","6500100","板橋區"
"220093","689-BX","2018/11/08 19:09:15","新北市板橋區民生路三段139號","121.465993333333","25.0262916666667","6500100","板橋區"
"220054","741-BX","2018/11/08 19:09:17","新北市板橋區四川路一段189號","121.460931666667","25.0037883333333","6500100","板橋區"
"220102","KEA-2699","2018/11/08 19:09:16","新北市板橋區田單街44號","121.482626666667","25.02787","6500100","板橋區"
"220055","827-TW","2018/11/08 19:09:29","新北市板橋區新民街7巷12號","121.463538333333","25.0103466666667","6500100","板橋區"
"220067","829-TW","2018/11/08 19:09:21","新北市板橋區中山路二段90巷43弄2號","121.476486666667","25.01491","6500100","板橋區"
"220096","831-TW","2018/11/08 19:09:29","新北市板橋區雙十路二段4-5號","121.47696","25.0257233333333","6500100","板橋區"
"220074","895-R6","2018/11/08 19:09:19","新北市板橋區中正路自強新村91-3號","121.45483","25.0135","6500100","板橋區"
"220073","985-R7","2018/11/08 19:09:16","新北市板橋區中正路377-2號","121.454385","25.0214833333333","6500100","板橋區"
"220097","AAC-210","2018/11/08 19:09:29","新北市板橋區幸福路70巷30號","121.460178333333","25.020935","6500100","板橋區"
"220082","AAC-253","2018/11/08 19:09:14","新北市板橋區溪崑二街25號","121.428621666667","24.9912866666667","6500100","板橋區"
"235068","KEA-2873","2018/11/08 19:09:14","新北市中和區圓通路162巷35號","121.49656","24.9955683333333","6500300","中和區"
"235061","KEA-2875","2018/11/08 19:09:22","新北市中和區中山路三段63巷9號","121.47705","25.0044316666667","6500300","中和區"
