"lineid","car","time","location","longitude","latitude","cityid","cityname"
"234046","148-BY","2018/11/08 19:29:23","新北市永和區秀朗路二段233號","121.526451666667","25.0000866666667","6500400","永和區"
"234007","207-UY","2018/11/08 19:29:28","新北市永和區永和路二段2號","121.514565","25.00991","6500400","永和區"
"234081","298-R6","2018/11/08 19:29:23","新北市永和區林森路10巷10號","121.52605","25.0061433333333","6500400","永和區"
"234038","336-UY","2018/11/08 19:29:27","新北市永和區民樂街30巷1號","121.52754","25.001175","6500400","永和區"
"234064","337-UY","2018/11/08 19:29:31","新北市永和區得和路243巷27號","121.520713333333","25.0011483333333","6500400","永和區"
"234086","338-UY","2018/11/08 19:29:23","新北市永和區林森路39巷1號","121.525598333333","25.00491","6500400","永和區"
"234070","553-UM","2018/11/08 19:29:16","新北市永和區警光街5-1號","121.519755","25.0093783333333","6500400","永和區"
"234017","745-BX","2018/11/08 19:29:19","新北市永和區環河西路一段87號","121.512321666667","25.0178916666667","6500400","永和區"
"234030","746-BX","2018/11/08 19:29:22","新北市永和區民生路4號","121.52265","24.9979083333333","6500400","永和區"
"234054","KEA-2590","2018/11/08 19:29:22","新北市永和區復興街19巷5號","121.516058333333","25.01308","6500400","永和區"
"234013","KEA-2591","2018/11/08 19:29:25","新北市永和區信義路10號","121.514625","25.012115","6500400","永和區"
"234061","AAD-866","2018/11/08 19:29:33","新北市永和區中正路514號","121.517265","25.004715","6500400","永和區"
"234042","862-TW","2018/11/08 19:29:19","新北市永和區水源街39巷16號","121.51047","25.00361","6500400","永和區"
"234050","863-TW","2018/11/08 19:29:18","新北市永和區信義路109號","121.512323333333","25.0146083333333","6500400","永和區"
"234026","9371-KE","2018/11/08 19:29:29","新北市中和區安平路220號","121.513915","25.0000383333333","6500400","永和區"
"234011","9373-KE","2018/11/08 19:29:23","新北市永和區保福路二段163巷13弄16號","121.50913","25.0142833333333","6500400","永和區"
"249003","593-UM","2018/11/08 19:29:19","新北市八里區商港六路23號","121.396606666667","25.14854","6502300","八里區"
"248016","026-BX","2018/11/08 19:29:30","新北市五股區凌雲路一段41號","121.451808333333","25.10072","6501500","五股區"
"248008","095-VK","2018/11/08 19:29:17","新北市五股區中興路一段95巷9號","121.466665","25.0724666666667","6501500","五股區"
"248020","225-UY","2018/11/08 19:29:16","新北市五股區凌雲路三段45號","121.427686666667","25.1192183333333","6501500","五股區"
"248010","272-BY","2018/11/08 19:29:33","新北市五股區水碓二路1號","121.430616666667","25.07126","6501500","五股區"
"248012","655-BX","2018/11/08 19:29:26","新北市五股區成泰路二段156號","121.43844","25.0839383333333","6501500","五股區"
"248004","677-BX","2018/11/08 19:29:21","新北市五股區工商路151號","121.43499","25.0865866666667","6501500","五股區"
"248002","678-BX","2018/11/08 19:29:23","新北市五股區凌雲路一段158巷6號","121.447801666667","25.1030716666667","6501500","五股區"
"234023","9380-KE","2018/11/08 19:29:18","新北市永和區竹林路91巷43弄2號","121.521285","25.0128083333333","6500400","永和區"
"234077","969-R7","2018/11/08 19:29:30","新北市永和區民權路58巷2弄2號","121.519691666667","24.9982733333333","6500400","永和區"
"234074","AAC-211","2018/11/08 19:29:30","新北市永和區永和路二段254號","121.516183333333","25.01486","6500400","永和區"
"234067","AAC-212","2018/11/08 19:29:34","新北市永和區永貞路335號","121.509618333333","25.00704","6500400","永和區"
"234003","AAC-295","2018/11/08 19:29:27","新北市永和區福和路379號","121.514491666667","25.0074266666667","6500400","永和區"
"244023","069-UM","2018/11/08 19:29:20","新北市林口區文化北路二段234號","121.373146666667","25.0853816666667","6501700","林口區"
"244019","403-UM","2018/11/08 19:29:17","新北市林口區太平里2-3號","121.361613333333","25.1339","6501700","林口區"
"243010","267-VK","2018/11/08 19:29:28","新北市泰山區民權街41號","121.429173333333","25.0508733333333","6501600","泰山區"
"243013","AAD-798","2018/11/08 19:29:20","新北市泰山區明志路三段145巷5弄32號","121.425745","25.0406783333333","6501600","泰山區"
"243009","297-R6","2018/11/08 19:29:22","新北市五股區成泰路一段7巷27號","121.432228333333","25.06718","6501600","泰山區"
"243016","KEA-2801","2018/11/08 19:29:13","新北市泰山區明志路三段201號","121.424066666667","25.0384316666667","6501600","泰山區"
"243007","421-VK","2018/11/08 19:29:30","新北市泰山區民權街25號","121.428698333333","25.05072","6501600","泰山區"
"243011","KEA-2215","2018/11/08 19:29:28","新北市泰山區貴子路120號","121.428296666667","25.0406166666667","6501600","泰山區"
"243012","646-TV","2018/11/08 19:29:31","新北市泰山區仁愛路64號","121.43215","25.0549883333333","6501600","泰山區"
"243014","680-BX","2018/11/08 19:29:29","新北市泰山區仁愛路41號","121.432406666667","25.0551666666667","6501600","泰山區"
"222003","436-BY","2018/11/08 19:29:28","新北市深坑區深南路51-1號","121.621325","25.0097866666667","6501800","深坑區"
"222002","659-BX","2018/11/08 19:29:27","新北市深坑區北深路一段177號","121.632555","25.01085","6501800","深坑區"
"231041","002-UM","2018/11/08 19:29:29","新北市新店區中正路543-4號","121.533663333333","24.9874216666667","6500600","新店區"
"231066","0291-UT","2018/11/08 19:29:14","新北市新店區安康路三段466-2號","121.484113333333","24.9508233333333","6500600","新店區"
"231059","046-UY","2018/11/08 19:29:32","新北市新店區安和路三段7號","121.518075","24.9805633333333","6500600","新店區"
"231040","047-UY","2018/11/08 19:29:18","新北市新店區北新路一段38號","121.54097","24.9659883333333","6500600","新店區"
"231044","106-UY","2018/11/08 19:29:24","新北市新店區中興路三段186號","121.544015","24.98151","6500600","新店區"
"231052","108-UY","2018/11/08 19:29:28","新北市新店區新烏路二段300號","121.548501666667","24.913255","6500600","新店區"
"231046","110-UY","2018/11/08 19:29:34","新北市新店區北新路一段303號","121.541498333333","24.9674533333333","6500600","新店區"
"231047","187-VK","2018/11/08 19:29:26","新北市新店區五峰路77號","121.546378333333","24.9678383333333","6500600","新店區"
"231062","188-VK","2018/11/08 19:29:26","新北市新店區莒光路70號","121.522963333333","24.9551833333333","6500600","新店區"
"231054","KEA-2219","2018/11/08 19:29:20","新北市新店區文中路45號","121.539621666667","24.9566216666667","6500600","新店區"
"231057","256-BX","2018/11/08 19:29:30","新北市新店區花園一路三段42號","121.549768333333","24.9330233333333","6500600","新店區"
"231042","268-BY","2018/11/08 19:29:18","新北市新店區中興路一段72號","121.539423333333","24.9598766666667","6500600","新店區"
"231051","278-BY","2018/11/08 19:29:20","新北市新店區中央五街86號","121.526285","24.9761983333333","6500600","新店區"
"231050","AAD-862","2018/11/08 19:29:14","新北市新店區竹林路97巷5號","121.554475","24.9501816666667","6500600","新店區"
"231060","355-BY","2018/11/08 19:29:21","新北市新店區安康路二段51號","121.514386666667","24.963465","6500600","新店區"
"231058","3713-VJ","2018/11/08 19:29:22","新北市新店區寶橋路85巷68號","121.544886666667","24.976795","6500600","新店區"
"231065","512-UM","2018/11/08 19:29:17","新北市新店區安祥路109巷1弄75號","121.478473333333","24.9605833333333","6500600","新店區"
"231049","513-UM","2018/11/08 19:29:32","新北市新店區二十張路1巷3弄3號","121.54054","24.98209","6500600","新店區"
"231045","617-UM","2018/11/08 19:29:29","新北市新店區北宜路二段213號","121.553248333333","24.953385","6500600","新店區"
"231061","619-UM","2018/11/08 19:29:25","新北市新店區安康路一段275-1號","121.523976666667","24.9634566666667","6500600","新店區"
"231063","641-BX","2018/11/08 19:29:21","新北市新店區達觀路16號","121.503033333333","24.9406566666667","6500600","新店區"
"231064","719-UM","2018/11/08 19:29:34","新北市新店區安忠路38號","121.513188333333","24.959685","6500600","新店區"
"231043","899-TW","2018/11/08 19:29:25","新北市新店區北新路二段156號","121.54295","24.9754716666667","6500600","新店區"
"241028","022-UY","2018/11/08 19:29:29","新北市三重區中寮街47號","121.492775","25.0586183333333","6500200","三重區"
"241008","059-VK","2018/11/08 19:29:24","新北市三重區永福街135巷30號","121.47753","25.07713","6500200","三重區"
"241022","060-VK","2018/11/08 19:29:30","新北市三重區三民街175巷1號","121.483643333333","25.0652883333333","6500200","三重區"
"241031","061-VK","2018/11/08 19:29:20","新北市三重區集美街24-1號","121.488401666667","25.0546083333333","6500200","三重區"
"241017","063-VK","2018/11/08 19:29:18","新北市三重區中正北路25巷25弄2號","121.493241666667","25.0626183333333","6500200","三重區"
"241026","066-VK","2018/11/08 19:29:26","新北市三重區文化南路45號","121.500076666667","25.06133","6500200","三重區"
"251014","742-BX","2018/11/08 19:29:19","新北市淡水區小中寮14號","121.485655","25.230715","6501000","淡水區"
"241009","267-UM","2018/11/08 19:29:19","新北市三重區溪尾街242巷72號","121.486113333333","25.0813316666667","6500200","三重區"
"241013","270-UM","2018/11/08 19:29:31","新北市三重區仁愛街110號","121.495253333333","25.0744066666667","6500200","三重區"
"241025","271-UM","2018/11/08 19:29:17","新北市三重區頂崁街210巷28弄9號","121.475818333333","25.0671616666667","6500200","三重區"
"241007","398-BY","2018/11/08 19:29:20","新北市三重區慈愛街143號","121.489225","25.0798616666667","6500200","三重區"
"241035","KEA-2210","2018/11/08 19:29:28","新北市三重區信義西街1號","121.49809","25.064845","6500200","三重區"
"241020","478-VK","2018/11/08 19:29:34","新北市三重區三和路四段15號","121.491171666667","25.0741416666667","6500200","三重區"
"241006","AAD-863","2018/11/08 19:29:34","新北市三重區車路頭街79號","121.484391666667","25.0741066666667","6500200","三重區"
"241030","743-BX","2018/11/08 19:29:22","新北市三重區環河南路254巷25號","121.490068333333","25.0513066666667","6500200","三重區"
"241029","942-UM","2018/11/08 19:29:21","新北市三重區中正南路216號","121.493855","25.055105","6500200","三重區"
"235066","003-UY","2018/11/08 19:29:27","新北市中和區景新街48號","121.50377","24.9992466666667","6500300","中和區"
"235064","005-UY","2018/11/08 19:29:27","新北市中和區南山路81巷53號","121.503985","24.9981716666667","6500300","中和區"
"235063","006-UY","2018/11/08 19:29:19","新北市中和區連勝街149號","121.494461666667","24.99628","6500300","中和區"
"235056","096-UM","2018/11/08 19:29:15","新北市中和區民富街54號","121.476668333333","25.0071383333333","6500300","中和區"
"235039","097-UM","2018/11/08 19:29:24","新北市中和區秀峰街103巷5弄1號","121.520371666667","24.9898233333333","6500300","中和區"
"235065","098-UM","2018/11/08 19:29:19","新北市中和區中山路二段2巷45弄5號","121.502368333333","25.0065433333333","6500300","中和區"
"235058","151-BY","2018/11/08 19:29:15","新北市中和區連城路525號","121.481605","24.99517","6500300","中和區"
"235055","183-VK","2018/11/08 19:29:13","新北市中和區國光街102巷40號","121.471265","25.0005833333333","6500300","中和區"
"235038","185-VK","2018/11/08 19:29:30","新北市中和區自立路127號","121.522003333333","24.99407","6500300","中和區"
"235049","186-VK","2018/11/08 19:29:21","新北市中和區景新街285巷12號","121.510366666667","24.9935566666667","6500300","中和區"
"235067","255-BX","2018/11/08 19:29:23","新北市中和區新生街286號","121.483481666667","24.9965733333333","6500300","中和區"
"235044","293-VK","2018/11/08 19:29:30","新北市中和區捷運路185號","121.505471666667","24.9914683333333","6500300","中和區"
"235072","301-VK","2018/11/08 19:29:17","新北市中和區連城路263巷4弄12號","121.491768333333","24.9952316666667","6500300","中和區"
"235043","352-BY","2018/11/08 19:29:31","新北市中和區景安路85號","121.506415","24.9968316666667","6500300","中和區"
"235050","4979-A6","2018/11/08 19:29:22","新北市中和區圓通路141巷48弄15號","121.498195","24.9937183333333","6500300","中和區"
"235042","551-UM","2018/11/08 19:29:29","新北市中和區中和路262巷37號","121.509766666667","24.999535","6500300","中和區"
"235070","558-UM","2018/11/08 19:29:28","新北市中和區景平路626巷1號","121.50029","24.9977233333333","6500300","中和區"
"235045","565-BX","2018/11/08 19:29:28","新北市中和區景新街383巷35號","121.51294","24.99048","6500300","中和區"
"235054","640-BX","2018/11/08 19:29:33","新北市中和區國光街112巷20弄3號","121.470678333333","25.001995","6500300","中和區"
"235060","647-TV","2018/11/08 19:29:20","新北市中和區員山路314巷7弄4號","121.48215","25.0030933333333","6500300","中和區"
"235047","732-UM","2018/11/08 19:29:33","新北市中和區景平路259巷11號","121.507946666667","24.9925883333333","6500300","中和區"
"235046","733-UM","2018/11/08 19:29:34","新北市中和區忠孝街37巷49號","121.510688333333","24.9844866666667","6500300","中和區"
"235071","783-BX","2018/11/08 19:29:30","新北市中和區中正路637巷18弄3號","121.484568333333","24.9950583333333","6500300","中和區"
"235057","801-TS","2018/11/08 19:29:16","新北市中和區員山路423巷16號","121.48033","25.00278","6500300","中和區"
"235052","805-TS","2018/11/08 19:29:20","新北市中和區華新街143巷71弄35號","121.507798333333","24.9791783333333","6500300","中和區"
"235048","896-TW","2018/11/08 19:29:32","新北市中和區忠孝街113巷1號","121.512448333333","24.9873416666667","6500300","中和區"
"235053","900-TW","2018/11/08 19:29:18","新北市中和區華順街2巷8號","121.467536666667","24.999015","6500300","中和區"
"235051","157-BY","2018/11/08 19:29:27","新北市中和區景新街117號","121.50569","24.9975783333333","6500300","中和區"
"235037","AAC-213","2018/11/08 19:29:21","新北市中和區秀朗路三段10巷14弄11號","121.524803333333","24.9965483333333","6500300","中和區"
"235059","AAC-215","2018/11/08 19:29:19","新北市中和區圓通路252巷29弄10號","121.492738333333","24.9918466666667","6500300","中和區"
"220068","013-TV","2018/11/08 19:29:22","新北市板橋區翠華街6巷123號","121.481773333333","25.0245966666667","6500100","板橋區"
"220065","072-UY","2018/11/08 19:29:16","新北市板橋區國泰街111巷15號","121.466198333333","25.005975","6500100","板橋區"
"220086","073-UY","2018/11/08 19:29:23","新北市板橋區中正路236巷76號","121.458115","25.0193983333333","6500100","板橋區"
"220106","075-UY","2018/11/08 19:29:33","新北市板橋區文化路二段417巷6號","121.474491666667","25.03319","6500100","板橋區"
"220069","AAD-861","2018/11/08 19:29:32","新北市板橋區稚暉街26號","121.455463333333","25.0042066666667","6500100","板橋區"
"247004","002-UY","2018/11/08 19:29:27","新北市蘆洲區長安街158號","121.459533333333","25.08278","6501400","蘆洲區"
"226004","312-R5","2018/11/08 19:29:22","新北市平溪區十分里十分街114號","121.776926666667","25.043045","6502400","平溪區"
"235041","251-BX","2018/11/08 19:29:26","新北市中和區中和路400巷21號","121.511695","25.002245","6500300","中和區"
"228003","097-TW","2018/11/08 19:29:18","新北市貢寮區和美里和美街19-2號","121.912785","25.08261","6502600","貢寮區"
"228001","212-TW","2018/11/08 19:29:25","新北市貢寮區真理里延平街68號","121.925371666667","25.05743","6502600","貢寮區"
"228002","585-TW","2018/11/08 19:27:49","新北市貢寮區龍門里龍門街53號","121.932195","25.0270916666667","6502600","貢寮區"
"224010","AGQ-8101","2018/11/08 19:29:26","新北市瑞芳區基山街171號","121.843278333333","25.10808","6501200","瑞芳區"
"227010","642-TC","2018/11/08 19:29:30","新北市雙溪區新基里新基北街43號","121.868188333333","25.0397016666667","6502500","雙溪區"
"227004","400-TW","2018/11/08 19:29:13","新北市雙溪區雙溪里光復街20號","121.865166666667","25.0354033333333","6502500","雙溪區"
"253006","032-BX","2018/11/08 19:29:30","新北市石門區楓林28-2號","121.542008333333","25.2889983333333","6502200","石門區"
"253005","295-VK","2018/11/08 19:29:14","新北市石門區小坑9號","121.594403333333","25.288385","6502200","石門區"
"222001","KEA-2212","2018/11/08 19:29:16","新北市深坑區深坑街10號","121.61596","25.002825","6501800","深坑區"
"208002","KEA-2872","2018/11/08 19:29:28","新北市金山區中正路20號","121.636001666667","25.22227","6502700","金山區"
"208003","665-BX","2018/11/08 19:29:23","新北市金山區中山路263巷14號","121.636386666667","25.2215983333333","6502700","金山區"
"208001","761-BX","2018/11/08 19:29:23","新北市金山區中正路32號","121.635573333333","25.2222066666667","6502700","金山區"
"251009","008-UM","2018/11/08 19:29:25","新北市淡水區大忠街5巷8號","121.443321666667","25.1765066666667","6501000","淡水區"
"251005","010-UM","2018/11/08 19:29:25","新北市淡水區水源街一段71巷12號","121.444285","25.1728216666667","6501000","淡水區"
"251001","011-UM","2018/11/08 19:29:31","新北市淡水區民權路179號","121.459765","25.1352733333333","6501000","淡水區"
"251013","KEA-2871","2018/11/08 19:29:25","新北市淡水區安子內18號","121.47203","25.21882","6501000","淡水區"
"251016","179-VK","2018/11/08 19:29:24","新北市淡水區下圭柔山119-51號","121.450728333333","25.2084766666667","6501000","淡水區"
"251008","181-VK","2018/11/08 19:29:23","新北市淡水區中正路一段49號","121.424381666667","25.1775083333333","6501000","淡水區"
"251015","182-VK","2018/11/08 19:29:17","新北市淡水區北新路三段169-8號","121.491541666667","25.1903133333333","6501000","淡水區"
"251010","413-VK","2018/11/08 19:29:29","新北市淡水區淡海路252號","121.42038","25.1870316666667","6501000","淡水區"
"251012","441-VK","2018/11/08 19:29:21","新北市淡水區崁頂101號","121.434173333333","25.20373","6501000","淡水區"
"251007","442-VK","2018/11/08 19:29:16","新北市淡水區民生路117巷46號","121.46499","25.14003","6501000","淡水區"
"251006","561-UM","2018/11/08 19:29:19","新北市淡水區大義街45號","121.441698333333","25.1783283333333","6501000","淡水區"
"207003","550-UM","2018/11/08 19:29:25","新北市萬里區大鵬里萬里加投193號","121.644428333333","25.2145316666667","6502800","萬里區"
"207004","225-TW","2018/11/08 19:29:18","新北市萬里區萬里里瑪鋉頂街41號","121.689161666667","25.17877","6502800","萬里區"
"252002","178-VK","2018/11/08 19:29:15","新北市三芝區淡金路二段18-1號","121.502686666667","25.25951","6502100","三芝區"
"252001","292-VK","2018/11/08 19:29:31","新北市三芝區長勤街63-1號","121.500123333333","25.2560616666667","6502100","三芝區"
"237004","KEA-2597","2018/11/08 19:29:20","新北市三峽區有木206號","121.439068333333","24.851415","6500900","三峽區"
"237007","153-BY","2018/11/08 19:29:19","新北市三峽區二鬮路136巷22弄35號","121.357231666667","24.9103716666667","6500900","三峽區"
"237009","210-TH","2018/11/08 19:29:23","新北市三峽區中山路29號","121.368518333333","24.9344533333333","6500900","三峽區"
"237013","252-BX","2018/11/08 19:29:25","新北市三峽區介壽路一段316-2號","121.380863333333","24.9299983333333","6500900","三峽區"
"237012","275-BY","2018/11/08 19:29:24","新北市三峽區民生街1巷1-7號","121.376705","24.937045","6500900","三峽區"
"237008","302-VK","2018/11/08 19:29:12","新北市三峽區光明路106巷59號","121.375226666667","24.9267183333333","6500900","三峽區"
"237014","433-BY","2018/11/08 19:29:24","新北市三峽區中山路277巷9號","121.361746666667","24.9370466666667","6500900","三峽區"
"237006","5529-G3","2018/11/08 19:29:23","新北市三峽區中正路一段330-10號","121.369901666667","24.92457","6500900","三峽區"
"237011","KEA-2596","2018/11/08 19:29:28","新北市三峽區介壽路一段394號","121.383441666667","24.9308866666667","6500900","三峽區"
"237016","649-BX","2018/11/08 19:29:16","新北市三峽區安坑40-2號","121.454953333333","24.93227","6500900","三峽區"
"237010","706-TV","2018/11/08 19:29:31","新北市三峽區復興路77號","121.372688333333","24.93745","6500900","三峽區"
"237005","AKY-6261","2018/11/08 19:29:16","新北市三峽區中山路219巷5號","121.363168333333","24.9363866666667","6500900","三峽區"
"236070","105-UM","2018/11/08 19:29:25","新北市土城區裕民路185巷36弄10號","121.454356666667","24.9845183333333","6501300","土城區"
"236078","166-UM","2018/11/08 19:29:25","新北市土城區中州路27巷53號","121.413068333333","24.95702","6501300","土城區"
"236026","269-VK","2018/11/08 19:29:26","新北市土城區中央路二段61巷26號","121.443265","24.9786616666667","6501300","土城區"
"236038","271-VK","2018/11/08 19:29:18","新北市土城區清水路32巷18號","121.457406666667","24.9813","6501300","土城區"
"236021","401-BY","2018/11/08 19:29:25","新北市土城區峰廷街3號","121.469075","24.9872933333333","6501300","土城區"
"236049","913-UM","2018/11/08 19:29:18","新北市土城區清水路196號","121.460366666667","24.98184","6501300","土城區"
"242048","497-BY","2018/11/08 19:29:24","新北市新莊區後港一路3號","121.424115","25.0263266666667","6500500","新莊區"
"242023","362-BY","2018/11/08 19:29:33","新北市新莊區新泰路502巷12號","121.442855","25.0464133333333","6500500","新莊區"
"242007","176-VK","2018/11/08 19:29:15","新北市新莊區思源路593巷30號","121.457681666667","25.0597516666667","6500500","新莊區"
"242031","348-TH","2018/11/08 19:29:32","新北市新莊區新泰路225巷22弄5號","121.444928333333","25.0392383333333","6500500","新莊區"
"238015","755-BX","2018/11/08 19:29:18","新北市樹林區文化街91巷20號","121.415716666667","24.989185","6500700","樹林區"
"238023","601-UM","2018/11/08 19:29:16","新北市樹林區三福街73號","121.407526666667","25.0163816666667","6500700","樹林區"
"238019","599-UM","2018/11/08 19:29:33","新北市樹林區鎮前街347巷2弄2號","121.416666666667","24.9837683333333","6500700","樹林區"
"238024","5061-A6","2018/11/08 19:29:32","新北市樹林區中山路三段27號","121.401595","24.97554","6500700","樹林區"
"238022","KEA-2213","2018/11/08 19:29:28","新北市樹林區名園街45號","121.419676666667","24.978715","6500700","樹林區"
"238021","KEA-2539","2018/11/08 19:29:29","新北市樹林區學成路555號","121.380371666667","24.9461833333333","6500700","樹林區"
"238025","303-VK","2018/11/08 19:29:22","新北市樹林區中山路一段179-1號","121.421573333333","24.9882133333333","6500700","樹林區"
"238017","283-BY","2018/11/08 19:29:17","新北市樹林區光興街153-6號","121.408333333333","25.0032983333333","6500700","樹林區"
"238014","282-BY","2018/11/08 19:29:17","新北市樹林區千歲街4號","121.42497","24.9956116666667","6500700","樹林區"
"238026","172-UY","2018/11/08 19:29:16","新北市樹林區佳園路三段26號","121.38794","24.95404","6500700","樹林區"
"238016","169-UY","2018/11/08 19:29:30","新北市樹林區復興路408號","121.414433333333","24.984905","6500700","樹林區"
"239007","AAC-297","2018/11/08 19:29:35","新北市鶯歌區大湖路312-1號","121.345056666667","24.9702433333333","6500800","鶯歌區"
"239006","891-R6","2018/11/08 19:29:23","新北市鶯歌區鶯桃路91巷40弄1號","121.337553333333","24.9523483333333","6500800","鶯歌區"
"239008","527-UM","2018/11/08 19:29:19","新北市鶯歌區大湖路335號","121.34181","24.9726083333333","6500800","鶯歌區"
"239005","526-UM","2018/11/08 19:29:25","新北市鶯歌區中湖街268-1號","121.349341666667","24.9764","6500800","鶯歌區"
"239001","417-VK","2018/11/08 19:29:30","新北市鶯歌區建國路367巷1號","121.3391","24.9497033333333","6500800","鶯歌區"
"239003","360-BY","2018/11/08 19:29:31","新北市鶯歌區中正一路阿南巷501號","121.380153333333","24.9643633333333","6500800","鶯歌區"
"239004","193-VK","2018/11/08 19:29:29","新北市鶯歌區鶯華新村7號","121.330095","24.9348366666667","6500800","鶯歌區"
"221008","489-VK","2018/11/08 19:29:26","新北市汐止區康寧街253號","121.624848333333","25.066805","6501100","汐止區"
"221036","130-UY","2018/11/08 19:29:22","新北市汐止區康寧街901號","121.651648333333","25.075035","6501100","汐止區"
"221015","131-UY","2018/11/08 19:29:18","新北市汐止區康寧街901號","121.65141","25.0749816666667","6501100","汐止區"
"221010","269-BY","2018/11/08 19:29:22","新北市汐止區連峰街3巷1號","121.646403333333","25.0765416666667","6501100","汐止區"
"221012","278-VK","2018/11/08 19:29:30","新北市汐止區大同路三段184號","121.674283333333","25.07466","6501100","汐止區"
"221023","279-VK","2018/11/08 19:29:12","新北市汐止區康寧街777-1號","121.644923333333","25.0758633333333","6501100","汐止區"
"221027","281-BY","2018/11/08 19:29:17","新北市汐止區忠孝東路9號","121.65829","25.0659033333333","6501100","汐止區"
"221029","298-VK","2018/11/08 19:29:22","新北市汐止區康寧街901號","121.65156","25.07489","6501100","汐止區"
"221021","299-VK","2018/11/08 19:29:32","新北市汐止區康寧街901號","121.651485","25.0750066666667","6501100","汐止區"
"221031","353-TW","2018/11/08 19:29:17","新北市汐止區汐萬路一段121號","121.654141666667","25.0710916666667","6501100","汐止區"
"221025","623-UM","2018/11/08 19:29:27","新北市汐止區大同路二段384號","121.658223333333","25.067105","6501100","汐止區"
"221038","646-BX","2018/11/08 19:29:24","新北市汐止區大同路二段362號","121.657358333333","25.0671466666667","6501100","汐止區"
"221002","707-TV","2018/11/08 19:29:25","新北市汐止區大同路一段333號","121.63839","25.0592283333333","6501100","汐止區"
"220079","145-BY","2018/11/08 19:29:29","新北市板橋區建國街12號","121.457203333333","25.0167916666667","6500100","板橋區"
"220080","200-UY","2018/11/08 19:29:24","新北市板橋區大觀路二段37巷178號","121.4496","25.00202","6500100","板橋區"
"220101","245-BX","2018/11/08 19:29:23","新北市板橋區縣民大道三段121巷22號","121.476588333333","25.02351","6500100","板橋區"
"220091","267-BY","2018/11/08 19:29:17","新北市板橋區文聖街135巷25號","121.478985","25.0289466666667","6500100","板橋區"
"220056","276-BY","2018/11/08 19:29:31","新北市板橋區信義路1巷26弄44號","121.459115","24.9966516666667","6500100","板橋區"
"220072","277-BY","2018/11/08 19:29:26","新北市板橋區金門街253巷12號","121.432893333333","24.9882766666667","6500100","板橋區"
"220070","282-UM","2018/11/08 19:29:26","新北市板橋區四川路一段6號","121.459335","25.0068766666667","6500100","板橋區"
"220094","283-UM","2018/11/08 19:29:21","新北市板橋區吳鳳路42號","121.468396666667","25.0303766666667","6500100","板橋區"
"220071","283-VK","2018/11/08 19:29:26","新北市板橋區忠孝路2號","121.459491666667","25.00159","6500100","板橋區"
"220053","285-VK","2018/11/08 19:29:25","新北市板橋區永豐街189號","121.47613","25.0208183333333","6500100","板橋區"
"220083","286-VK","2018/11/08 19:29:32","新北市板橋區大觀路二段174巷181號","121.442113333333","25.0037983333333","6500100","板橋區"
"220081","287-VK","2018/11/08 19:29:29","新北市板橋區大觀路一段28巷1弄102號","121.45202","25.0063633333333","6500100","板橋區"
"220090","288-VK","2018/11/08 19:29:20","新北市板橋區裕民街59號","121.460903333333","25.02835","6500100","板橋區"
"220061","295-UM","2018/11/08 19:29:28","新北市板橋區中山路二段251號","121.477195","25.0177716666667","6500100","板橋區"
"220084","296-UM","2018/11/08 19:29:32","新北市板橋區滿平街84巷116號","121.42685","24.9865183333333","6500100","板橋區"
"220075","303-R5","2018/11/08 19:29:32","新北市板橋區中正路253巷62號","121.453298333333","25.0174316666667","6500100","板橋區"
"220062","305-R5","2018/11/08 19:29:15","新北市板橋區三民路二段153巷4弄1號","121.479613333333","25.0148083333333","6500100","板橋區"
"220092","307-R5","2018/11/08 19:29:21","新北市板橋區光武街2巷53號","121.46868","25.0259583333333","6500100","板橋區"
"220098","317-R6","2018/11/08 19:29:19","新北市板橋區民生路三段263巷1弄2號","121.46384","25.0292816666667","6500100","板橋區"
"220064","486-VK","2018/11/08 19:29:34","新北市板橋區中山路一段102-2號","121.462346666667","25.0103166666667","6500100","板橋區"
"220089","487-VK","2018/11/08 19:29:27","新北市板橋區文化路一段29號","121.460233333333","25.0128533333333","6500100","板橋區"
"220088","491-VK","2018/11/08 19:29:31","新北市板橋區文化路二段362號","121.472983333333","25.030545","6500100","板橋區"
"220035","560-BX","2018/11/08 19:29:34","新北市板橋區中正路375巷3號","121.454215","25.0209916666667","6500100","板橋區"
"220103","561-BX","2018/11/08 19:29:12","新北市板橋區介壽街10號","121.467238333333","25.0202383333333","6500100","板橋區"
"220063","609-BX","2018/11/08 19:29:28","新北市板橋區三民路一段31巷87弄3號","121.481476666667","25.023295","6500100","板橋區"
"220057","686-BX","2018/11/08 19:29:18","新北市板橋區和平路22-1號","121.460286666667","24.994535","6500100","板橋區"
"220077","687-BX","2018/11/08 19:29:21","新北市板橋區僑中二街116巷2號","121.44568","25.0065616666667","6500100","板橋區"
"220093","689-BX","2018/11/08 19:29:15","新北市板橋區新海路162號","121.460466666667","25.0235883333333","6500100","板橋區"
"220054","741-BX","2018/11/08 19:29:17","新北市板橋區忠孝路239巷47號","121.467605","25.0036983333333","6500100","板橋區"
"220102","KEA-2699","2018/11/08 19:29:27","新北市板橋區松柏街22巷45號","121.475108333333","25.0287166666667","6500100","板橋區"
"220055","827-TW","2018/11/08 19:29:29","新北市板橋區重慶路290巷22弄12號","121.462236666667","24.99938","6500100","板橋區"
"220067","829-TW","2018/11/08 19:29:19","新北市板橋區漢生東路330-1號","121.471851666667","25.007765","6500100","板橋區"
"220096","831-TW","2018/11/08 19:29:29","新北市板橋區雙十路二段49號","121.476631666667","25.0262833333333","6500100","板橋區"
"220074","895-R6","2018/11/08 19:29:19","新北市板橋區府中路50號","121.45711","25.0095983333333","6500100","板橋區"
"220073","985-R7","2018/11/08 19:29:16","新北市板橋區中正路261號","121.455751666667","25.0186066666667","6500100","板橋區"
"220097","AAC-210","2018/11/08 19:29:26","新北市板橋區漢生西路147號","121.46301","25.0218833333333","6500100","板橋區"
"220082","AAC-253","2018/11/08 19:29:34","新北市板橋區金門街245號","121.432051666667","24.98921","6500100","板橋區"
"235068","KEA-2873","2018/11/08 19:29:14","新北市中和區連勝街57巷20號","121.498126666667","24.9964366666667","6500300","中和區"
"235061","KEA-2875","2018/11/08 19:29:22","新北市中和區員山路143巷27弄4號","121.479236666667","24.9955766666667","6500300","中和區"
