"lineid","car","time","location","longitude","latitude","cityid","cityname"
"234046","148-BY","2018/11/08 19:49:23","新北市永和區永利路151號","121.524606666667","25.0032683333333","6500400","永和區"
"234007","207-UY","2018/11/08 19:49:28","新北市中和區南工路8號","121.50546","25.0003566666667","6500400","永和區"
"234081","298-R6","2018/11/08 19:49:23","新北市永和區永亨路98號","121.523068333333","25.0048733333333","6500400","永和區"
"234038","336-UY","2018/11/08 19:49:27","新北市永和區成功路二段131號","121.52673","24.9981366666667","6500400","永和區"
"234064","337-UY","2018/11/08 19:49:31","新北市永和區中正路368巷16號","121.518346666667","25.0007816666667","6500400","永和區"
"234086","338-UY","2018/11/08 19:49:23","新北市永和區永利路23號","121.517901666667","25.00597","6500400","永和區"
"234070","553-UM","2018/11/08 19:49:16","新北市永和區竹林路105號","121.519775","25.0118816666667","6500400","永和區"
"234017","745-BX","2018/11/08 19:49:19","新北市永和區永和路二段299號","121.516061666667","25.0161566666667","6500400","永和區"
"234030","746-BX","2018/11/08 19:49:22","新北市永和區民生路67巷34號","121.524453333333","24.9972716666667","6500400","永和區"
"234054","KEA-2590","2018/11/08 19:49:22","新北市永和區竹林路72巷2號","121.519103333333","25.0132016666667","6500400","永和區"
"234013","KEA-2591","2018/11/08 19:49:25","新北市永和區仁愛路186巷2號","121.509991666667","25.0126033333333","6500400","永和區"
"234061","AAD-866","2018/11/08 19:49:21","新北市永和區安樂路30號","121.51447","24.9966016666667","6500400","永和區"
"234042","862-TW","2018/11/08 19:49:19","新北市永和區中和路389巷20號","121.50811","25.0012316666667","6500400","永和區"
"234050","863-TW","2018/11/08 19:49:18","新北市永和區保安路144號","121.50851","25.014955","6500400","永和區"
"234026","9371-KE","2018/11/08 19:49:29","新北市永和區雙和街52巷1號","121.509065","25.0032166666667","6500400","永和區"
"234011","9373-KE","2018/11/08 19:49:23","新北市永和區仁愛路352巷96號","121.501048333333","25.0080333333333","6500400","永和區"
"249001","173-UM","2018/11/08 19:49:22","新北市八里區中華路二段252號","121.405375","25.149675","6502300","八里區"
"249004","303-UY","2018/11/08 19:49:32","新北市八里區仁愛路82號","121.41131","25.1596383333333","6502300","八里區"
"249002","305-UY","2018/11/08 19:49:16","新北市八里區頂寮五街20號","121.451325","25.1261466666667","6502300","八里區"
"249003","593-UM","2018/11/08 19:49:19","新北市八里區華峰三街78號","121.398323333333","25.14547","6502300","八里區"
"248016","026-BX","2018/11/08 19:49:30","新北市五股區成泰路三段577巷80弄7號","121.449481666667","25.1042916666667","6501500","五股區"
"248008","095-VK","2018/11/08 19:49:17","新北市五股區四維路155巷36弄16號","121.466876666667","25.075085","6501500","五股區"
"248020","225-UY","2018/11/08 19:49:16","新北市五股區中直路35號","121.41979","25.115425","6501500","五股區"
"248010","272-BY","2018/11/08 19:49:14","新北市五股區登林路貿商巷3弄15號","121.429726666667","25.0699316666667","6501500","五股區"
"248012","655-BX","2018/11/08 19:49:23","新北市五股區蓬萊路24號","121.433851666667","25.0798983333333","6501500","五股區"
"248004","677-BX","2018/11/08 19:49:21","新北市五股區成泰路一段112號","121.435561666667","25.0729116666667","6501500","五股區"
"248002","678-BX","2018/11/08 19:49:23","新北市五股區成泰路四段14號","121.453318333333","25.1068333333333","6501500","五股區"
"234077","969-R7","2018/11/08 19:49:30","新北市永和區中正路264號","121.516738333333","24.9986766666667","6500400","永和區"
"234074","AAC-211","2018/11/08 19:49:30","新北市永和區竹林路213巷26號","121.522265","25.0089233333333","6500400","永和區"
"234067","AAC-212","2018/11/08 19:49:34","新北市永和區保平路236巷24弄2號","121.508388333333","25.0070233333333","6500400","永和區"
"234003","AAC-295","2018/11/08 19:49:27","新北市永和區福和路307號","121.516176666667","25.0072683333333","6500400","永和區"
"243010","267-VK","2018/11/08 19:49:28","新北市泰山區民生路33號","121.430725","25.05218","6501600","泰山區"
"243013","AAD-798","2018/11/08 19:39:33","新北市泰山區應化街7號","121.42387","25.0437083333333","6501600","泰山區"
"243009","297-R6","2018/11/08 19:49:22","新北市泰山區美寧街68號","121.431025","25.064665","6501600","泰山區"
"243016","KEA-2801","2018/11/08 19:49:33","新北市泰山區明志路三段513號","121.421511666667","25.0320733333333","6501600","泰山區"
"243007","421-VK","2018/11/08 19:49:31","新北市泰山區明志路二段214巷9號","121.426756666667","25.0488383333333","6501600","泰山區"
"243011","KEA-2215","2018/11/08 19:49:28","新北市泰山區明志路三段196巷21弄17號","121.422691666667","25.0385016666667","6501600","泰山區"
"243012","646-TV","2018/11/08 19:49:31","新北市泰山區全興路13號","121.432381666667","25.0589666666667","6501600","泰山區"
"243014","680-BX","2018/11/08 19:49:29","新北市泰山區泰林路二段33-7號","121.435288333333","25.0565233333333","6501600","泰山區"
"222003","436-BY","2018/11/08 19:32:46","新北市深坑區深南路51-1號","121.621331666667","25.0098783333333","6501800","深坑區"
"222002","659-BX","2018/11/08 19:49:27","新北市深坑區北深路一段288號","121.628253333333","25.00773","6501800","深坑區"
"231041","002-UM","2018/11/08 19:49:29","新北市新店區中央路137號","121.530203333333","24.973605","6500600","新店區"
"231066","0291-UT","2018/11/08 19:49:14","新北市新店區安康路三段165巷2弄8號","121.48927","24.9513333333333","6500600","新店區"
"231059","046-UY","2018/11/08 19:49:32","新北市新店區安和路二段222號","121.517361666667","24.9761066666667","6500600","新店區"
"231040","047-UY","2018/11/08 19:49:18","新北市新店區中正路75巷71號","121.543088333333","24.9687933333333","6500600","新店區"
"231044","106-UY","2018/11/08 19:49:24","新北市新店區復興路31號","121.538691666667","24.9866083333333","6500600","新店區"
"231052","108-UY","2018/11/08 19:49:28","新北市新店區新烏路三段266號","121.550283333333","24.900225","6500600","新店區"
"231046","110-UY","2018/11/08 19:49:15","新北市新店區三民路159巷19弄2號","121.53275","24.974145","6500600","新店區"
"231047","187-VK","2018/11/08 19:49:33","新北市新店區五峰路61巷2號","121.547356666667","24.970105","6500600","新店區"
"231062","188-VK","2018/11/08 19:49:26","新北市新店區永業路37號","121.53256","24.9552533333333","6500600","新店區"
"231054","KEA-2219","2018/11/08 19:49:29","新北市新店區光明街51號","121.538711666667","24.9601466666667","6500600","新店區"
"231057","256-BX","2018/11/08 19:49:35","新北市新店區梅崗一路9號","121.556111666667","24.9312983333333","6500600","新店區"
"231042","268-BY","2018/11/08 19:49:19","新北市新店區中興路一段267號","121.544886666667","24.9676466666667","6500600","新店區"
"231051","278-BY","2018/11/08 19:49:20","新北市新店區中央路153號","121.529886666667","24.9730883333333","6500600","新店區"
"231050","AAD-862","2018/11/08 19:49:35","新北市新店區郵政路52號","121.555663333333","24.9515383333333","6500600","新店區"
"231060","355-BY","2018/11/08 19:49:13","新北市新店區安康路二段161號","121.510255","24.9593133333333","6500600","新店區"
"231058","3713-VJ","2018/11/08 19:49:22","新北市新店區安和路三段4巷3號","121.519016666667","24.980955","6500600","新店區"
"231056","4715-K9","2018/11/08 19:49:29","新北市新店區民權路72號","121.538178333333","24.983105","6500600","新店區"
"231067","4772-VM","2018/11/08 19:49:22","新北市新店區安康路一段61號","121.530606666667","24.9607316666667","6500600","新店區"
"231065","512-UM","2018/11/08 19:49:17","新北市新店區安祥路109巷120號","121.476491666667","24.958305","6500600","新店區"
"231049","513-UM","2018/11/08 19:49:32","新北市新店區民權路96號","121.536705","24.9829966666667","6500600","新店區"
"231045","617-UM","2018/11/08 19:49:29","新北市新店區中生路66號","121.564613333333","24.9526883333333","6500600","新店區"
"231061","619-UM","2018/11/08 19:49:26","新北市新店區安民街189號","121.516863333333","24.9710116666667","6500600","新店區"
"231063","641-BX","2018/11/08 19:49:21","新北市新店區車子路11號","121.503056666667","24.9519783333333","6500600","新店區"
"231064","719-UM","2018/11/08 19:48:46","新北市新店區安和路二段113巷3弄5號","121.517981666667","24.969945","6500600","新店區"
"231043","899-TW","2018/11/08 19:49:25","新北市新店區中正路282-1號","121.538368333333","24.9739483333333","6500600","新店區"
"241011","013-R5","2018/11/08 19:49:19","新北市三重區介壽路41號","121.498668333333","25.070045","6500200","三重區"
"241028","022-UY","2018/11/08 19:49:29","新北市三重區中正南路131號","121.493958333333","25.05701","6500200","三重區"
"241008","059-VK","2018/11/08 19:49:24","新北市三重區永福街96號","121.478888333333","25.07597","6500200","三重區"
"241022","060-VK","2018/11/08 19:49:30","新北市三重區過圳街19號","121.488658333333","25.060585","6500200","三重區"
"241031","061-VK","2018/11/08 19:49:20","新北市三重區重新路四段244巷7弄3號","121.486098333333","25.0533183333333","6500200","三重區"
"241015","062-VK","2018/11/08 19:49:30","新北市三重區重新路一段1號","121.503805","25.0642816666667","6500200","三重區"
"241017","063-VK","2018/11/08 19:49:18","新北市三重區重陽路三段5巷8弄27號","121.489568333333","25.0665516666667","6500200","三重區"
"241026","066-VK","2018/11/08 19:49:26","新北市三重區文化南路51號","121.500261666667","25.06119","6500200","三重區"
"241003","091-VK","2018/11/08 19:49:18","新北市三重區五華街93巷1號","121.491946666667","25.0836633333333","6500200","三重區"
"251014","742-BX","2018/11/08 19:49:25","新北市淡水區石頭厝14-33號","121.465365","25.23679","6501000","淡水區"
"241023","265-UM","2018/11/08 19:49:12","新北市三重區頂崁街166號","121.477538333333","25.06585","6500200","三重區"
"241016","266-UM","2018/11/08 19:49:26","新北市三重區正德街41巷4號","121.49598","25.0628633333333","6500200","三重區"
"241009","267-UM","2018/11/08 19:49:19","新北市三重區三和路四段396巷2-1號","121.481481666667","25.0791233333333","6500200","三重區"
"241018","268-UM","2018/11/08 19:49:14","新北市三重區雙園街57巷32號","121.494531666667","25.06837","6500200","三重區"
"241013","270-UM","2018/11/08 19:49:30","新北市三重區仁愛街92巷13號","121.494765","25.073815","6500200","三重區"
"241025","271-UM","2018/11/08 19:49:17","新北市三重區忠孝路三段52號","121.480658333333","25.065705","6500200","三重區"
"241007","398-BY","2018/11/08 19:49:20","新北市三重區三和路四段133-1號","121.48482","25.078015","6500200","三重區"
"241035","KEA-2210","2018/11/08 19:49:28","新北市三重區文化北路31號","121.49948","25.0640033333333","6500200","三重區"
"241004","475-VK","2018/11/08 19:49:19","新北市三重區五華街74號","121.493386666667","25.0820166666667","6500200","三重區"
"241020","478-VK","2018/11/08 19:49:15","新北市三重區後竹圍街58號","121.490621666667","25.0732916666667","6500200","三重區"
"241014","543-UM","2018/11/08 19:49:20","新北市三重區長安街77號","121.501643333333","25.0673433333333","6500200","三重區"
"241001","547-UM","2018/11/08 19:49:19","新北市三重區仁愛街327巷85號","121.494058333333","25.0805416666667","6500200","三重區"
"241019","KEA-2593","2018/11/08 19:49:31","新北市三重區自強路二段67巷23號","121.489523333333","25.07022","6500200","三重區"
"241006","AAD-863","2018/11/08 19:49:14","新北市三重區力行路二段78號","121.481628333333","25.0737533333333","6500200","三重區"
"241030","743-BX","2018/11/08 19:49:22","新北市三重區環河南路254巷42號","121.489678333333","25.0512283333333","6500200","三重區"
"241012","941-UM","2018/11/08 19:49:33","新北市三重區仁福街64巷17號","121.497806666667","25.075315","6500200","三重區"
"241029","942-UM","2018/11/08 19:49:21","新北市三重區光明路25號","121.491233333333","25.0585483333333","6500200","三重區"
"241033","AAC-255","2018/11/08 19:49:18","新北市三重區中興南街66號","121.47061","25.0439833333333","6500200","三重區"
"235066","003-UY","2018/11/08 19:49:27","新北市中和區南工路26號","121.505615","25.00089","6500300","中和區"
"235063","006-UY","2018/11/08 19:49:19","新北市中和區連城路263巷7弄2號","121.492301666667","24.9957333333333","6500300","中和區"
"235056","096-UM","2018/11/08 19:49:35","新北市中和區中山路三段114巷11號","121.475616666667","25.007565","6500300","中和區"
"235039","097-UM","2018/11/08 19:49:24","新北市中和區大勇街27巷15號","121.516805","24.9936666666667","6500300","中和區"
"235065","098-UM","2018/11/08 19:49:22","新北市中和區莊敬路31巷36-1號","121.499833333333","25.005775","6500300","中和區"
"235058","151-BY","2018/11/08 19:49:30","新北市中和區員山路225號","121.481241666667","24.99807","6500300","中和區"
"235055","183-VK","2018/11/08 19:49:13","新北市中和區德光路27巷26號","121.470968333333","25.0035616666667","6500300","中和區"
"235038","185-VK","2018/11/08 19:49:30","新北市永和區民生路42號","121.522445","24.9966366666667","6500300","中和區"
"235049","186-VK","2018/11/08 19:49:21","新北市中和區中興街47號","121.500593333333","24.9940816666667","6500300","中和區"
"235067","255-BX","2018/11/08 19:49:23","新北市中和區新生街186巷1弄2號","121.483291666667","24.9995783333333","6500300","中和區"
"235044","293-VK","2018/11/08 19:49:30","新北市中和區南山路233號","121.50361","24.9931933333333","6500300","中和區"
"235072","301-VK","2018/11/08 19:49:17","新北市中和區橋和路172號","121.494995","25.0064383333333","6500300","中和區"
"235043","352-BY","2018/11/08 19:49:31","新北市中和區興南路二段159巷7號","121.505293333333","24.9831583333333","6500300","中和區"
"235050","4979-A6","2018/11/08 19:49:33","新北市中和區景平路241巷84弄54號","121.506085","24.99235","6500300","中和區"
"235070","558-UM","2018/11/08 19:49:28","新北市中和區景平路483號","121.500273333333","24.9975233333333","6500300","中和區"
"235054","640-BX","2018/11/08 19:49:27","新北市中和區莒光路143號","121.472578333333","25.00142","6500300","中和區"
"235060","647-TV","2018/11/08 19:49:20","新北市中和區新生街32號","121.483133333333","25.0038416666667","6500300","中和區"
"235047","732-UM","2018/11/08 19:49:33","新北市中和區和平街74號","121.507726666667","24.9911316666667","6500300","中和區"
"235046","733-UM","2018/11/08 19:49:15","新北市中和區仁愛街44號","121.511091666667","24.9882033333333","6500300","中和區"
"235071","783-BX","2018/11/08 19:49:22","新北市中和區中板路16號","121.48392","25.0118283333333","6500300","中和區"
"235057","801-TS","2018/11/08 19:49:16","新北市中和區員山路150-5號","121.481425","24.9974483333333","6500300","中和區"
"235052","805-TS","2018/11/08 19:49:20","新北市中和區華新街30巷16號","121.50681","24.9844833333333","6500300","中和區"
"235048","896-TW","2018/11/08 19:49:32","新北市中和區興南路一段147號","121.50869","24.9872666666667","6500300","中和區"
"235053","900-TW","2018/11/08 19:49:18","新北市中和區國光街187號","121.467401666667","25.001735","6500300","中和區"
"235051","157-BY","2018/11/08 19:49:27","新北市中和區中興街180巷33號","121.498306666667","24.9892166666667","6500300","中和區"
"235037","AAC-213","2018/11/08 19:49:21","新北市中和區秀朗路三段173號","121.524538333333","24.991545","6500300","中和區"
"235059","AAC-215","2018/11/08 19:49:19","新北市中和區圓通路335巷71號","121.494236666667","24.9894566666667","6500300","中和區"
"220068","013-TV","2018/11/08 19:49:29","新北市板橋區中山路二段412巷9號","121.483363333333","25.0206016666667","6500100","板橋區"
"220065","072-UY","2018/11/08 19:47:36","新北市板橋區民族路268號","121.469701666667","25.0070583333333","6500100","板橋區"
"220086","073-UY","2018/11/08 19:49:23","新北市板橋區南雅西路二段7巷25號","121.451855","25.00954","6500100","板橋區"
"220106","075-UY","2018/11/08 19:49:13","新北市板橋區民治街71巷33號","121.48055","25.033315","6500100","板橋區"
"220069","AAD-861","2018/11/08 19:49:32","新北市板橋區貴興路81號","121.456706666667","25.0029533333333","6500100","板橋區"
"247002","893-R6","2018/11/08 19:49:32","新北市蘆洲區永樂街38巷69號","121.45852","25.09058","6501400","蘆洲區"
"247016","546-UM","2018/11/08 19:49:29","新北市蘆洲區中正路261號","121.467456666667","25.0872716666667","6501400","蘆洲區"
"247014","339-TH","2018/11/08 19:49:27","新北市蘆洲區復興路30號","121.472278333333","25.0850833333333","6501400","蘆洲區"
"247008","336-TH","2018/11/08 19:49:20","新北市蘆洲區中山一路49號","121.478861666667","25.081025","6501400","蘆洲區"
"247004","002-UY","2018/11/08 19:49:27","新北市蘆洲區中原路69號","121.458573333333","25.0819433333333","6501400","蘆洲區"
"226004","312-R5","2018/11/08 19:49:22","新北市平溪區靜安路三段392巷3號","121.784465","25.0495383333333","6502400","平溪區"
"235041","251-BX","2018/11/08 19:49:26","新北市中和區永貞路239巷4號","121.51296","25.00359","6500300","中和區"
"228003","097-TW","2018/11/08 19:49:18","新北市貢寮區真理里美艷山街4號","121.927523333333","25.0599816666667","6502600","貢寮區"
"228001","212-TW","2018/11/08 19:49:25","新北市貢寮區真理里新港街76號","121.927185","25.0558633333333","6502600","貢寮區"
"224010","AGQ-8101","2018/11/08 19:49:26","新北市瑞芳區基山街41號","121.84548","25.1091366666667","6501200","瑞芳區"
"224002","639-TC","2018/11/08 19:49:19","新北市瑞芳區民享新村22號","121.817076666667","25.1055966666667","6501200","瑞芳區"
"227010","642-TC","2018/11/08 19:49:30","新北市雙溪區新基里中華路76號","121.865841666667","25.03831","6502500","雙溪區"
"227004","400-TW","2018/11/08 19:49:33","新北市雙溪區雙溪里內挖路28號","121.86329","25.0365266666667","6502500","雙溪區"
"222001","KEA-2212","2018/11/08 19:49:36","新北市深坑區北深路三段71號","121.606888333333","25.0014816666667","6501800","深坑區"
"208002","KEA-2872","2018/11/08 19:49:28","新北市金山區中華路360號","121.63292","25.22388","6502700","金山區"
"208003","665-BX","2018/11/08 19:49:25","新北市金山區海興路112-1號","121.631146666667","25.238695","6502700","金山區"
"208001","761-BX","2018/11/08 19:49:23","新北市金山區重和里茅埔頭15號","121.602346666667","25.2143516666667","6502700","金山區"
"251009","008-UM","2018/11/08 19:49:25","新北市淡水區中正路32號","121.443923333333","25.1691666666667","6501000","淡水區"
"251005","010-UM","2018/11/08 19:49:25","新北市淡水區中山路108巷3號","121.44201","25.17103","6501000","淡水區"
"251001","011-UM","2018/11/08 19:49:31","新北市淡水區坪頂路33號","121.45647","25.1631016666667","6501000","淡水區"
"251013","KEA-2871","2018/11/08 19:49:25","新北市淡水區頂田寮1-3號","121.457816666667","25.21466","6501000","淡水區"
"251016","179-VK","2018/11/08 19:49:24","新北市淡水區下圭柔山121-12號","121.454698333333","25.2094816666667","6501000","淡水區"
"251008","181-VK","2018/11/08 19:49:23","新北市淡水區中正路一段62巷2號","121.425665","25.1771916666667","6501000","淡水區"
"251015","182-VK","2018/11/08 19:49:17","新北市淡水區商工路379號","121.472398333333","25.1853716666667","6501000","淡水區"
"251010","413-VK","2018/11/08 19:49:23","新北市淡水區下圭柔山91-4號","121.42978","25.20888","6501000","淡水區"
"251012","441-VK","2018/11/08 19:49:24","新北市淡水區淡金路三段70巷1號","121.448285","25.20039","6501000","淡水區"
"251007","442-VK","2018/11/08 19:49:16","新北市淡水區中正東路一段111巷2-1號","121.454285","25.1602533333333","6501000","淡水區"
"251006","561-UM","2018/11/08 19:49:19","新北市淡水區水碓街15號","121.4435","25.176955","6501000","淡水區"
"251011","650-BX","2018/11/08 19:49:26","新北市淡水區淡金路二段145號","121.45019","25.18256","6501000","淡水區"
"251003","766-UM","2018/11/08 19:49:31","新北市淡水區中山北路三段116號","121.443698333333","25.19343","6501000","淡水區"
"207003","550-UM","2018/11/08 19:49:25","新北市萬里區磺潭里公館崙5號","121.642056666667","25.2144333333333","6502800","萬里區"
"207004","225-TW","2018/11/08 19:49:18","新北市萬里區萬里里瑪鋉路238號","121.689208333333","25.1804266666667","6502800","萬里區"
"252002","178-VK","2018/11/08 19:49:15","新北市三芝區三民街33-1號","121.50467","25.2585166666667","6502100","三芝區"
"252001","292-VK","2018/11/08 19:49:31","新北市三芝區公正街66號","121.4998","25.2574733333333","6502100","三芝區"
"237004","KEA-2597","2018/11/08 19:49:20","新北市三峽區圳頭51號","121.378991666667","24.883385","6500900","三峽區"
"237009","210-TH","2018/11/08 19:49:23","新北市三峽區清水街418號","121.368818333333","24.9264716666667","6500900","三峽區"
"237013","252-BX","2018/11/08 19:49:22","新北市三峽區溪北街72號","121.397433333333","24.935725","6500900","三峽區"
"237012","275-BY","2018/11/08 19:49:24","新北市三峽區中華路5-1號","121.374491666667","24.9326933333333","6500900","三峽區"
"237008","302-VK","2018/11/08 19:49:32","新北市三峽區永安街190號","121.373271666667","24.9277583333333","6500900","三峽區"
"237014","433-BY","2018/11/08 19:49:24","新北市三峽區大利路22號","121.367038333333","24.9116416666667","6500900","三峽區"
"237006","5529-G3","2018/11/08 19:49:23","新北市三峽區中正路一段330-10號","121.369875","24.9246","6500900","三峽區"
"237011","KEA-2596","2018/11/08 19:49:28","新北市三峽區中園街237-1號","121.367125","24.9195116666667","6500900","三峽區"
"237016","649-BX","2018/11/08 19:49:16","新北市三峽區成福路3號","121.416651666667","24.928095","6500900","三峽區"
"237005","AKY-6261","2018/11/08 19:49:16","新北市三峽區長泰街20號","121.378813333333","24.93166","6500900","三峽區"
"236070","105-UM","2018/11/08 19:49:25","新北市土城區中央路二段346巷11號","121.439575","24.9722066666667","6501300","土城區"
"236042","KED-0685","2018/11/08 19:49:19","新北市土城區裕民路233巷1號","121.455001666667","24.983525","6501300","土城區"
"236078","166-UM","2018/11/08 19:49:25","新北市土城區中央路四段294號","121.414235","24.9562316666667","6501300","土城區"
"236030","253-BX","2018/11/08 19:49:15","新北市土城區中央路一段294號","121.443326666667","24.98239","6501300","土城區"
"236026","269-VK","2018/11/08 19:49:26","新北市土城區中央路二段61巷26號","121.443333333333","24.97875","6501300","土城區"
"236038","271-VK","2018/11/08 19:49:18","新北市土城區國際路158巷47號","121.468238333333","24.9753716666667","6501300","土城區"
"236021","401-BY","2018/11/08 19:49:25","新北市土城區延吉街137巷6號","121.470901666667","24.9857616666667","6501300","土城區"
"236059","912-UM","2018/11/08 19:49:18","新北市土城區中央路一段179號","121.446176666667","24.98739","6501300","土城區"
"236049","913-UM","2018/11/08 19:49:17","新北市土城區青雲路222號","121.458931666667","24.9812316666667","6501300","土城區"
"236063","915-UM","2018/11/08 19:49:16","新北市土城區金城路三段163巷16號","121.468881666667","24.9891716666667","6501300","土城區"
"236055","AAC-216","2018/11/08 19:49:30","新北市土城區延和路162號","121.46829","24.9903583333333","6501300","土城區"
"242036","AAC-296","2018/11/08 19:49:33","新北市新莊區建安街101巷4弄1號","121.42703","25.0236683333333","6500500","新莊區"
"242056","751-BX","2018/11/08 19:49:18","新北市新莊區新泰路87號","121.448743333333","25.0344733333333","6500500","新莊區"
"242029","612-BX","2018/11/08 19:49:24","新北市新莊區中平路361號","121.444678333333","25.05182","6500500","新莊區"
"242048","497-BY","2018/11/08 19:49:25","新北市新莊區建安街92巷15號","121.4258","25.0243666666667","6500500","新莊區"
"242039","442-UM","2018/11/08 19:49:17","新北市新莊區民安路299巷55弄6號","121.429348333333","25.0238533333333","6500500","新莊區"
"242023","362-BY","2018/11/08 19:49:33","新北市新莊區化成路256號","121.465653333333","25.04722","6500500","新莊區"
"242034","135-UY","2018/11/08 19:49:16","新北市新莊區建中街90巷3弄19號","121.445758333333","25.0369266666667","6500500","新莊區"
"242051","172-VK","2018/11/08 19:49:31","新北市新莊區民安路288號","121.427958333333","25.0216683333333","6500500","新莊區"
"242007","176-VK","2018/11/08 19:49:35","新北市新莊區思源路593巷6弄14號","121.458895","25.0599283333333","6500500","新莊區"
"242017","346-TH","2018/11/08 19:49:30","新北市新莊區中華路一段226號","121.452686666667","25.0429633333333","6500500","新莊區"
"242031","348-TH","2018/11/08 19:49:19","新北市新莊區公園一路15號","121.443396666667","25.0349716666667","6500500","新莊區"
"242004","349-TH","2018/11/08 19:49:29","新北市新莊區化成路63巷26弄45號","121.46178","25.04616","6500500","新莊區"
"242021","350-TH","2018/11/08 19:49:30","新北市新莊區中正路317號","121.447941666667","25.035125","6500500","新莊區"
"238015","755-BX","2018/11/08 19:49:18","新北市樹林區樹德街8號","121.423001666667","24.9914133333333","6500700","樹林區"
"238023","601-UM","2018/11/08 19:49:16","新北市樹林區中正路118號","121.424125","25.0022083333333","6500700","樹林區"
"238019","599-UM","2018/11/08 19:49:33","新北市樹林區中山路三段202-1號","121.386015","24.9684383333333","6500700","樹林區"
"238024","5061-A6","2018/11/08 19:49:32","新北市樹林區中山路三段210-2號","121.380693333333","24.96666","6500700","樹林區"
"238022","KEA-2213","2018/11/08 19:49:28","新北市樹林區國凱街32-2號","121.419676666667","24.9785516666667","6500700","樹林區"
"238021","KEA-2539","2018/11/08 19:49:29","新北市樹林區佳園路三段181巷97號","121.391595","24.9483783333333","6500700","樹林區"
"238025","303-VK","2018/11/08 19:49:22","新北市樹林區中山路二段168號","121.412248333333","24.9826266666667","6500700","樹林區"
"238017","283-BY","2018/11/08 19:49:16","新北市樹林區保安二街二段6-1號","121.416118333333","25.0009216666667","6500700","樹林區"
"238014","282-BY","2018/11/08 19:49:18","新北市樹林區千歲街70巷1弄2號","121.426758333333","24.9970883333333","6500700","樹林區"
"238026","172-UY","2018/11/08 19:49:19","新北市樹林區佳園路二段15巷9弄8號","121.394313333333","24.963375","6500700","樹林區"
"239006","891-R6","2018/11/08 19:49:23","新北市鶯歌區永昌街30號","121.343018333333","24.9500266666667","6500800","鶯歌區"
"239004","193-VK","2018/11/08 19:49:29","新北市鶯歌區二甲路83-8號","121.340173333333","24.9318983333333","6500800","鶯歌區"
"221008","489-VK","2018/11/08 19:49:17","新北市汐止區康寧街83巷24號","121.620243333333","25.0670116666667","6501100","汐止區"
"221036","130-UY","2018/11/08 19:49:22","新北市汐止區汐萬路一段125號","121.654056666667","25.07117","6501100","汐止區"
"221015","131-UY","2018/11/08 19:49:18","新北市汐止區大同路二段533號","121.661855","25.0690416666667","6501100","汐止區"
"221010","269-BY","2018/11/08 19:49:27","新北市汐止區八連路一段3號","121.648688333333","25.0801233333333","6501100","汐止區"
"221012","278-VK","2018/11/08 19:49:26","新北市汐止區保長路271巷2號","121.680925","25.0743233333333","6501100","汐止區"
"221023","279-VK","2018/11/08 19:48:52","新北市汐止區民族六街7巷1號","121.62997","25.0696433333333","6501100","汐止區"
"221032","280-BY","2018/11/08 19:49:19","新北市汐止區橫科路403巷18號","121.625041666667","25.04754","6501100","汐止區"
"221027","281-BY","2018/11/08 19:49:17","新北市汐止區中正路7號","121.663116666667","25.0700733333333","6501100","汐止區"
"221029","298-VK","2018/11/08 19:49:22","新北市汐止區康寧街901號","121.651548333333","25.0749266666667","6501100","汐止區"
"221021","299-VK","2018/11/08 19:49:32","新北市汐止區新興路85巷1號","121.657935","25.0615133333333","6501100","汐止區"
"221031","353-TW","2018/11/08 19:49:17","新北市汐止區福德三路127號","121.633731666667","25.06747","6501100","汐止區"
"221035","622-UM","2018/11/08 19:49:30","新北市汐止區長江街13巷6弄1號","121.654681666667","25.0717583333333","6501100","汐止區"
"221025","623-UM","2018/11/08 19:49:27","新北市汐止區秀峰路81巷33號","121.661326666667","25.0648616666667","6501100","汐止區"
"221038","646-BX","2018/11/08 19:49:29","新北市汐止區忠孝東路427號","121.665868333333","25.0717666666667","6501100","汐止區"
"221033","647-BX","2018/11/08 19:49:20","新北市汐止區東勢街68號","121.632826666667","25.0395716666667","6501100","汐止區"
"221002","707-TV","2018/11/08 19:49:25","新北市汐止區工建路504號","121.633195","25.058365","6501100","汐止區"
"221018","753-BX","2018/11/08 19:49:15","新北市汐止區汐萬路一段20號","121.655955","25.06762","6501100","汐止區"
"220079","145-BY","2018/11/08 19:49:29","新北市板橋區中正路183巷27號","121.454975","25.0159583333333","6500100","板橋區"
"220080","200-UY","2018/11/08 19:49:24","新北市板橋區大觀路二段37巷7號","121.447316666667","25.0028483333333","6500100","板橋區"
"220101","245-BX","2018/11/08 19:49:23","新北市板橋區縣民大道三段93巷21號","121.474801666667","25.02234","6500100","板橋區"
"220091","267-BY","2018/11/08 19:49:17","新北市板橋區民治街92-1號","121.479181666667","25.0316883333333","6500100","板橋區"
"220056","276-BY","2018/11/08 19:49:18","新北市板橋區四川路二段60號","121.452525","24.994805","6500100","板橋區"
"220072","277-BY","2018/11/08 19:49:26","新北市板橋區篤行路二段77巷12弄2號","121.432265","24.99175","6500100","板橋區"
"220070","282-UM","2018/11/08 19:49:26","新北市板橋區民族路57號","121.464663333333","25.00887","6500100","板橋區"
"220094","283-UM","2018/11/08 19:49:21","新北市板橋區長江路一段105巷1-1號","121.459358333333","25.0299583333333","6500100","板橋區"
"220071","283-VK","2018/11/08 19:49:27","新北市板橋區五權街30巷24弄1號","121.463873333333","24.9932183333333","6500100","板橋區"
"220053","285-VK","2018/11/08 19:49:25","新北市板橋區中山路二段60巷1弄6號","121.474523333333","25.0153766666667","6500100","板橋區"
"220083","286-VK","2018/11/08 19:49:32","新北市板橋區僑中二街10巷2號","121.447043333333","25.0109483333333","6500100","板橋區"
"220081","287-VK","2018/11/08 19:49:29","新北市板橋區大觀路一段28巷20號","121.449885","25.0091733333333","6500100","板橋區"
"220090","288-VK","2018/11/08 19:49:20","新北市板橋區綠堤街33-4號","121.455755","25.02646","6500100","板橋區"
"220061","295-UM","2018/11/08 19:49:18","新北市板橋區板新路202號","121.46904","25.016085","6500100","板橋區"
"220084","296-UM","2018/11/08 19:49:31","新北市板橋區溪崑二街92巷5號","121.42619","24.9896333333333","6500100","板橋區"
"242002","281-VK","2018/11/08 19:49:34","新北市新莊區新泰路2-11號","121.450113333333","25.03252","6500500","新莊區"
"220075","303-R5","2018/11/08 19:49:32","新北市板橋區金華街10巷48弄44-3號","121.458523333333","25.020065","6500100","板橋區"
"220062","305-R5","2018/11/08 19:49:35","新北市板橋區三民路二段81巷27弄31號","121.481356666667","25.0176783333333","6500100","板橋區"
"220092","307-R5","2018/11/08 19:49:21","新北市板橋區陽明街164巷34號","121.465058333333","25.0245833333333","6500100","板橋區"
"220098","317-R6","2018/11/08 19:49:19","新北市板橋區四維路269巷94弄18號","121.459346666667","25.02693","6500100","板橋區"
"220064","486-VK","2018/11/08 19:49:33","新北市板橋區館前東路154號","121.464558333333","25.0078866666667","6500100","板橋區"
"220089","487-VK","2018/11/08 19:49:27","新北市板橋區龍泉街81號","121.456675","25.025085","6500100","板橋區"
"220088","491-VK","2018/11/08 19:49:19","新北市板橋區文聖街105號","121.477738333333","25.029405","6500100","板橋區"
"220035","560-BX","2018/11/08 19:49:26","新北市板橋區金華街10巷19號","121.456496666667","25.0203533333333","6500100","板橋區"
"220103","561-BX","2018/11/08 19:49:32","新北市板橋區陽明街29巷32號","121.463651666667","25.02274","6500100","板橋區"
"220063","609-BX","2018/11/08 19:49:28","新北市板橋區三民路一段22號","121.47888","25.023375","6500100","板橋區"
"220057","686-BX","2018/11/08 19:49:18","新北市板橋區四川路二段2號","121.456553333333","24.9965666666667","6500100","板橋區"
"220077","687-BX","2018/11/08 19:49:21","新北市板橋區僑中一街126號","121.445763333333","25.0118183333333","6500100","板橋區"
"220093","689-BX","2018/11/08 19:49:35","新北市板橋區長江路二段305號","121.470875","25.0331983333333","6500100","板橋區"
"220054","741-BX","2018/11/08 19:49:17","新北市板橋區忠孝路201巷101號","121.464571666667","25.00515","6500100","板橋區"
"220102","KEA-2699","2018/11/08 19:49:22","新北市板橋區松柏街40號","121.475368333333","25.030175","6500100","板橋區"
"220055","827-TW","2018/11/08 19:49:29","新北市板橋區信義路1巷26弄50號","121.459633333333","24.9965566666667","6500100","板橋區"
"220067","829-TW","2018/11/08 19:49:15","新北市板橋區長安街142號","121.472828333333","25.01018","6500100","板橋區"
"220096","831-TW","2018/11/08 19:49:29","新北市板橋區莒光路39巷18號","121.471076666667","25.0252633333333","6500100","板橋區"
"220074","895-R6","2018/11/08 19:49:20","新北市板橋區民權路87號","121.460973333333","25.01189","6500100","板橋區"
"220073","985-R7","2018/11/08 19:49:16","新北市板橋區大仁街105號","121.45272","25.0157333333333","6500100","板橋區"
"220097","AAC-210","2018/11/08 19:49:14","新北市板橋區漢生西路58巷10號","121.463563333333","25.0189883333333","6500100","板橋區"
"220082","AAC-253","2018/11/08 19:49:14","新北市板橋區溪北路91號","121.42857","24.9893866666667","6500100","板橋區"
"235068","KEA-2873","2018/11/08 19:49:14","新北市中和區中山路二段136巷3弄8號","121.501175","25.00397","6500300","中和區"
"235061","KEA-2875","2018/11/08 19:49:22","新北市中和區員山路174巷10號","121.482096666667","24.9998566666667","6500300","中和區"
