"lineid","car","time","location","longitude","latitude","cityid","cityname"
"234030","746-BX","2018/11/08 20:49:22","新北市新店區薏仁坑路自強巷1號","121.496746666667","24.9578366666667","6500400","永和區"
"249003","593-UM","2018/11/08 20:49:19","新北市八里區中山路三段409號","121.368696666667","25.1347316666667","6502300","八里區"
"234074","AAC-211","2018/11/08 20:49:10","新北市永和區環河東路二段8號","121.522138333333","25.013365","6500400","永和區"
"222003","436-BY","2018/11/08 20:49:22","新北市深坑區文山路三段48-1號","121.609921666667","24.9985683333333","6501800","深坑區"
"222002","659-BX","2018/11/08 20:49:27","新北市深坑區北深路三段93巷49號","121.604358333333","25.00046","6501800","深坑區"
"231066","0291-UT","2018/11/08 20:49:14","新北市新店區安興路105-1號","121.514591666667","24.9778766666667","6500600","新店區"
"231059","046-UY","2018/11/08 20:49:12","新北市新店區僑愛三路2號","121.499946666667","24.9446816666667","6500600","新店區"
"231040","047-UY","2018/11/08 20:49:18","新北市新店區中正路266號","121.53901","24.9734683333333","6500600","新店區"
"231044","106-UY","2018/11/08 20:49:24","新北市新店區中正路397號","121.534441666667","24.977445","6500600","新店區"
"231052","108-UY","2018/11/08 20:49:08","新北市新店區新烏路一段245-3號","121.548106666667","24.9304283333333","6500600","新店區"
"231047","187-VK","2018/11/08 20:49:13","新北市新店區寶元路二段1巷2號","121.550751666667","24.9840566666667","6500600","新店區"
"231062","188-VK","2018/11/08 20:49:26","新北市新店區和成街17巷2號","121.487651666667","24.9466216666667","6500600","新店區"
"231054","KEA-2219","2018/11/08 20:49:20","新北市新店區北新路一段96巷23號","121.543015","24.9688083333333","6500600","新店區"
"231057","256-BX","2018/11/08 20:49:10","新北市新店區新烏路一段18號","121.546618333333","24.9512016666667","6500600","新店區"
"231042","268-BY","2018/11/08 20:49:18","新北市新店區寶高路116號","121.55456","24.976115","6500600","新店區"
"231051","278-BY","2018/11/08 20:49:20","新北市新店區溪園路247號","121.52578","24.9834633333333","6500600","新店區"
"231050","AAD-862","2018/11/08 20:49:14","新北市新店區三民路48號","121.53562","24.9718416666667","6500600","新店區"
"231060","355-BY","2018/11/08 20:49:13","新北市新店區安康路三段738號","121.47393","24.9420016666667","6500600","新店區"
"231058","3713-VJ","2018/11/08 20:49:22","新北市新店區平等街48巷1號","121.535678333333","24.9729166666667","6500600","新店區"
"231056","4715-K9","2018/11/08 20:49:09","新北市新店區薏仁坑路6-1號","121.499951666667","24.9583566666667","6500600","新店區"
"231067","4772-VM","2018/11/08 20:49:22","新北市新店區安華路28-1號","121.519916666667","24.9607083333333","6500600","新店區"
"231065","512-UM","2018/11/08 20:49:17","新北市新店區安祥路69巷15號","121.48197","24.9613816666667","6500600","新店區"
"231049","513-UM","2018/11/08 20:49:12","新北市新店區華潭街31號","121.530098333333","24.9549833333333","6500600","新店區"
"231045","617-UM","2018/11/08 20:49:09","新北市新店區北新路一段99號","121.539125","24.9620466666667","6500600","新店區"
"231061","619-UM","2018/11/08 20:49:25","新北市新店區新和街93巷2號","121.521113333333","24.9865266666667","6500600","新店區"
"231063","641-BX","2018/11/08 20:49:21","新北市新店區如意街11-1號","121.495031666667","24.9483416666667","6500600","新店區"
"231068","718-UY","2018/11/08 20:49:29","新北市新店區寶元路一段74巷1號","121.544155","24.9841266666667","6500600","新店區"
"231064","719-UM","2018/11/08 20:49:14","新北市新店區安民街365巷5號","121.516201666667","24.9756233333333","6500600","新店區"
"231043","899-TW","2018/11/08 20:49:05","新北市新店區建國路89號","121.540486666667","24.976705","6500600","新店區"
"241011","013-R5","2018/11/08 20:49:19","新北市三重區龍濱路205巷18號","121.502878333333","25.0719866666667","6500200","三重區"
"241028","022-UY","2018/11/08 20:49:09","新北市三重區中正南路54號","121.493978333333","25.0598816666667","6500200","三重區"
"241008","059-VK","2018/11/08 20:49:24","新北市三重區永福街72巷11號","121.479391666667","25.076805","6500200","三重區"
"241022","060-VK","2018/11/08 20:49:10","新北市三重區中正北路20巷12號","121.48795","25.0624316666667","6500200","三重區"
"241031","061-VK","2018/11/08 20:49:20","新北市三重區重陽路一段113巷3號","121.487536666667","25.0597966666667","6500200","三重區"
"241015","062-VK","2018/11/08 20:49:10","新北市三重區自強路一段8號","121.49891","25.068255","6500200","三重區"
"241017","063-VK","2018/11/08 20:49:17","新北市三重區民生街23號","121.49166","25.0670616666667","6500200","三重區"
"241024","065-VK","2018/11/08 20:49:10","新北市三重區後竹圍街285號","121.479051666667","25.0702316666667","6500200","三重區"
"241026","066-VK","2018/11/08 20:49:26","新北市三重區和平街3號","121.500181666667","25.0623483333333","6500200","三重區"
"241002","090-VK","2018/11/08 20:49:16","新北市三重區仁義街211巷45號","121.498128333333","25.0824733333333","6500200","三重區"
"241003","091-VK","2018/11/08 20:49:18","新北市三重區集賢路87-1號","121.49363","25.0868016666667","6500200","三重區"
"251014","742-BX","2018/11/08 20:49:19","新北市淡水區公埔子32-8號","121.461646666667","25.2323583333333","6501000","淡水區"
"241005","262-UM","2018/11/08 20:49:28","新北市三重區五華街141巷57號","121.49349","25.086565","6500200","三重區"
"241023","265-UM","2018/11/08 20:49:12","新北市三重區忠孝路三段84巷5號","121.480228333333","25.0643716666667","6500200","三重區"
"241016","266-UM","2018/11/08 20:49:24","新北市三重區正義北路204號","121.496213333333","25.0672533333333","6500200","三重區"
"241009","267-UM","2018/11/08 20:49:19","新北市三重區三和路四段398號","121.481573333333","25.0794166666667","6500200","三重區"
"241018","268-UM","2018/11/08 20:49:26","新北市三重區正義北路195號","121.49629","25.0681683333333","6500200","三重區"
"241013","270-UM","2018/11/08 20:49:10","新北市三重區仁賢街12-1號","121.495671666667","25.074865","6500200","三重區"
"241025","271-UM","2018/11/08 20:49:17","新北市三重區貴陽街14號","121.484191666667","25.0618666666667","6500200","三重區"
"241007","398-BY","2018/11/08 20:49:20","新北市三重區慈愛街8號","121.484505","25.0783933333333","6500200","三重區"
"241035","KEA-2210","2018/11/08 20:49:07","新北市三重區文化北路248號","121.497366666667","25.0698533333333","6500200","三重區"
"241004","475-VK","2018/11/08 20:49:19","新北市三重區分子尾街25號","121.489425","25.0811633333333","6500200","三重區"
"241020","478-VK","2018/11/08 20:49:15","新北市三重區忠孝路一段101號","121.489526666667","25.0721366666667","6500200","三重區"
"241014","543-UM","2018/11/08 20:49:20","新北市三重區萬全街77號","121.501526666667","25.0702883333333","6500200","三重區"
"241001","547-UM","2018/11/08 20:49:19","新北市三重區三和路四段146號","121.488418333333","25.075645","6500200","三重區"
"241019","KEA-2593","2018/11/08 20:49:08","新北市三重區三張街58號","121.491151666667","25.0710266666667","6500200","三重區"
"241006","AAD-863","2018/11/08 20:49:14","新北市三重區車路頭街135-1號","121.484271666667","25.0761716666667","6500200","三重區"
"241030","743-BX","2018/11/08 20:49:22","新北市三重區昌隆街26號","121.492021666667","25.05224","6500200","三重區"
"241012","941-UM","2018/11/08 20:49:13","新北市三重區仁信街27號","121.501273333333","25.0755333333333","6500200","三重區"
"241029","942-UM","2018/11/08 20:49:21","新北市三重區重安街18號","121.49033","25.0581516666667","6500200","三重區"
"241033","AAC-255","2018/11/08 20:49:17","新北市三重區光復路二段1號","121.472285","25.0533166666667","6500200","三重區"
"247012","KEA-2869","2018/11/08 20:49:24","新北市三重區集賢路186號","121.484201666667","25.088315","6501400","蘆洲區"
"235069","4980-A6","2018/11/08 20:49:18","新北市中和區員山路359巷1弄1號","121.48105","25.001605","6500300","中和區"
"247002","893-R6","2018/11/08 20:49:19","新北市蘆洲區長安街240號","121.457736666667","25.085685","6501400","蘆洲區"
"247016","546-UM","2018/11/08 20:49:09","新北市蘆洲區得勝街183號","121.470978333333","25.08254","6501400","蘆洲區"
"247024","500-BY","2018/11/08 20:49:17","新北市蘆洲區長樂路140號","121.462003333333","25.090125","6501400","蘆洲區"
"247014","339-TH","2018/11/08 20:49:18","新北市蘆洲區三民路95號","121.473945","25.0848666666667","6501400","蘆洲區"
"247006","337-TH","2018/11/08 20:49:15","新北市蘆洲區和平路121巷10號","121.467046666667","25.0797766666667","6501400","蘆洲區"
"247008","336-TH","2018/11/08 20:49:20","新北市蘆洲區中山一路6號","121.480703333333","25.08045","6501400","蘆洲區"
"247020","057-VK","2018/11/08 20:49:11","新北市蘆洲區仁愛街73號","121.47152","25.0937983333333","6501400","蘆洲區"
"247010","056-VK","2018/11/08 20:49:17","新北市蘆洲區三民路70號","121.475323333333","25.0836733333333","6501400","蘆洲區"
"247004","002-UY","2018/11/08 20:49:07","新北市蘆洲區長安街101號","121.461593333333","25.0808416666667","6501400","蘆洲區"
"247022","001-UY","2018/11/08 20:49:18","新北市蘆洲區水湳街36-8號","121.471293333333","25.0898533333333","6501400","蘆洲區"
"222001","KEA-2212","2018/11/08 20:49:15","新北市深坑區北深路三段165-1號","121.60206","25.0033366666667","6501800","深坑區"
"251001","011-UM","2018/11/08 20:49:11","新北市淡水區淡金路218號","121.460526666667","25.167205","6501000","淡水區"
"251013","KEA-2871","2018/11/08 20:49:25","新北市淡水區行忠路112號","121.45223","25.1988916666667","6501000","淡水區"
"251016","179-VK","2018/11/08 20:49:24","新北市淡水區興仁路165號","121.451488333333","25.22007","6501000","淡水區"
"251015","182-VK","2018/11/08 20:49:16","新北市淡水區淡金路四段542巷17號","121.45277","25.2270683333333","6501000","淡水區"
"251010","413-VK","2018/11/08 20:49:23","新北市淡水區沙崙路145號","121.423351666667","25.1831183333333","6501000","淡水區"
"251012","441-VK","2018/11/08 20:49:21","新北市淡水區淡金路四段514號","121.452068333333","25.2257633333333","6501000","淡水區"
"251007","442-VK","2018/11/08 20:49:16","新北市淡水區鄧公路29巷20號","121.452406666667","25.1700716666667","6501000","淡水區"
"251011","650-BX","2018/11/08 20:49:26","新北市淡水區新民街一段13-1號","121.433053333333","25.1845383333333","6501000","淡水區"
"251002","672-BX","2018/11/08 20:49:12","新北市淡水區中正東路6號","121.447055","25.16705","6501000","淡水區"
"251003","766-UM","2018/11/08 20:49:11","新北市淡水區中山北路一段207巷36號","121.443068333333","25.17946","6501000","淡水區"
"242029","612-BX","2018/11/08 20:49:24","新北市三重區光復路二段153號","121.472143333333","25.0596983333333","6500500","新莊區"
"242044","566-BX","2018/11/08 20:49:17","新北市新莊區裕民街85巷20號","121.419671666667","25.0231966666667","6500500","新莊區"
"242053","441-UM","2018/11/08 20:49:25","新北市新莊區中正路473-1號","121.442043333333","25.0329283333333","6500500","新莊區"
"242011","415-TV","2018/11/08 20:49:23","新北市泰山區楓江路119號","121.438701666667","25.06477","6500500","新莊區"
"242023","362-BY","2018/11/08 20:49:13","新北市新莊區頭前路179號","121.460306666667","25.05254","6500500","新莊區"
"242061","353-BY","2018/11/08 20:49:14","新北市新莊區中平路441號","121.442466666667","25.0562316666667","6500500","新莊區"
"242042","133-UY","2018/11/08 20:49:25","新北市新莊區中正路461號","121.44211","25.03381","6500500","新莊區"
"242004","349-TH","2018/11/08 20:49:09","新北市五股區新五路三段260號","121.448095","25.0903066666667","6500500","新莊區"
"221029","298-VK","2018/11/08 20:49:02","新北市汐止區樟樹二路106-1號","121.639618333333","25.06407","6501100","汐止區"
"221021","299-VK","2018/11/08 20:49:12","新北市汐止區青山路2號","121.65582","25.0627083333333","6501100","汐止區"
"221035","622-UM","2018/11/08 20:49:10","新北市汐止區康寧街901號","121.650983333333","25.0751916666667","6501100","汐止區"
"221038","646-BX","2018/11/08 20:49:24","新北市汐止區汐萬路一段256巷3號","121.652075","25.0747283333333","6501100","汐止區"
"221033","647-BX","2018/11/08 20:49:20","新北市汐止區合順街18巷8弄5號","121.62038","25.0418833333333","6501100","汐止區"
"221002","707-TV","2018/11/08 20:49:25","新北市汐止區福德二路191號","121.629891666667","25.064945","6501100","汐止區"
"221018","753-BX","2018/11/08 20:49:15","新北市汐止區茄苳路26號","121.664958333333","25.0708166666667","6501100","汐止區"
"220070","282-UM","2018/11/08 20:49:26","新北市八里區中山路三段390號","121.368451666667","25.1357316666667","6500100","板橋區"
