"lineid","car","time","location","longitude","latitude","cityid","cityname"
"231059","046-UY","2018/11/08 21:19:12","新北市新店區僑信路2巷2號","121.49984","24.9535616666667","6500600","新店區"
"231040","047-UY","2018/11/08 21:19:18","新北市新店區光明街229號","121.540181666667","24.9643783333333","6500600","新店區"
"231047","187-VK","2018/11/08 21:19:13","新北市新店區民生路158巷25號","121.52803","24.980625","6500600","新店區"
"231054","KEA-2219","2018/11/08 21:19:20","新北市新店區中央路181-3號","121.53588","24.9689783333333","6500600","新店區"
"231051","278-BY","2018/11/08 21:19:20","新北市新店區溪園路75號","121.529253333333","24.9875116666667","6500600","新店區"
"231050","AAD-862","2018/11/08 21:19:23","新北市新店區中正路183巷4號","121.54048","24.9720016666667","6500600","新店區"
"231063","641-BX","2018/11/08 21:19:21","新北市新店區吉祥街15巷1號","121.49773","24.9456216666667","6500600","新店區"
"241011","013-R5","2018/11/08 21:19:19","新北市三重區龍濱路100號","121.502253333333","25.0700566666667","6500200","三重區"
"241028","022-UY","2018/11/08 21:19:09","新北市三重區正義南路169號","121.498908333333","25.0574816666667","6500200","三重區"
"241008","059-VK","2018/11/08 21:19:24","新北市三重區自強路一段230號","121.493528333333","25.0669666666667","6500200","三重區"
"241031","061-VK","2018/11/08 21:19:20","新北市三重區五谷王南街46巷37號","121.475743333333","25.0455383333333","6500200","三重區"
"241017","063-VK","2018/11/08 21:19:17","新北市三重區中正北路25巷2號","121.493231666667","25.06268","6500200","三重區"
"241024","065-VK","2018/11/08 21:19:10","新北市三重區中正北路145巷14號","121.484153333333","25.0677583333333","6500200","三重區"
"241026","066-VK","2018/11/08 21:19:26","新北市三重區大同南路220號","121.496816666667","25.05633","6500200","三重區"
"241002","090-VK","2018/11/08 21:19:16","新北市三重區自強路五段43號","121.494245","25.0813166666667","6500200","三重區"
"241003","091-VK","2018/11/08 21:19:18","新北市三重區仁義街220巷1號","121.495315","25.0841366666667","6500200","三重區"
"251014","742-BX","2018/11/08 21:19:19","新北市淡水區六塊厝2-1號","121.45014","25.2404516666667","6501000","淡水區"
"241005","262-UM","2018/11/08 21:19:28","新北市三重區三信路186號","121.488043333333","25.0860716666667","6500200","三重區"
"241023","265-UM","2018/11/08 21:19:12","新北市三重區中正北路176巷16號","121.482708333333","25.0658733333333","6500200","三重區"
"241016","266-UM","2018/11/08 21:19:24","新北市三重區自強路一段236號","121.49321","25.0670133333333","6500200","三重區"
"241009","267-UM","2018/11/08 21:19:19","新北市三重區新北大道一段206巷46號","121.4825","25.0628383333333","6500200","三重區"
"241018","268-UM","2018/11/08 21:19:14","新北市三重區力行路一段183號","121.483833333333","25.069655","6500200","三重區"
"241032","269-UM","2018/11/08 21:19:12","新北市三重區光復路二段152號","121.472185","25.0604766666667","6500200","三重區"
"241013","270-UM","2018/11/08 21:19:10","新北市三重區仁愛街81-1號","121.495916666667","25.0731483333333","6500200","三重區"
"241025","271-UM","2018/11/08 21:19:17","新北市三重區忠孝路三段84巷1號","121.480141666667","25.0644866666667","6500200","三重區"
"241007","398-BY","2018/11/08 21:19:20","新北市三重區正義北路281-1號","121.495023333333","25.070335","6500200","三重區"
"241004","475-VK","2018/11/08 21:19:19","新北市三重區碧華街213號","121.48875","25.0826383333333","6500200","三重區"
"241014","543-UM","2018/11/08 21:19:19","新北市三重區萬全街9號","121.4993","25.0697","6500200","三重區"
"241001","547-UM","2018/11/08 21:19:19","新北市三重區仁愛街355號","121.491915","25.0799333333333","6500200","三重區"
"241019","KEA-2593","2018/11/08 21:19:28","新北市三重區重陽路三段39號","121.489425","25.0670033333333","6500200","三重區"
"241006","AAD-863","2018/11/08 21:19:14","新北市三重區新北大道一段91號","121.484805","25.0614183333333","6500200","三重區"
"241030","743-BX","2018/11/08 21:19:22","新北市三重區五谷王北街181-1號","121.47723","25.0542416666667","6500200","三重區"
"241033","AAC-255","2018/11/08 21:19:17","新北市三重區光復路二段122號","121.471615","25.0588266666667","6500200","三重區"
"247012","KEA-2869","2018/11/08 21:19:24","新北市蘆洲區集賢路224巷36號","121.481375","25.0876866666667","6501400","蘆洲區"
"247002","893-R6","2018/11/08 21:19:12","新北市蘆洲區永樂街57號","121.456658333333","25.0886016666667","6501400","蘆洲區"
"247024","500-BY","2018/11/08 21:19:17","新北市蘆洲區光明路96號","121.46309","25.0880366666667","6501400","蘆洲區"
"247014","339-TH","2018/11/08 21:19:18","新北市蘆洲區保和街50-5號","121.469798333333","25.086285","6501400","蘆洲區"
"247006","337-TH","2018/11/08 21:19:19","新北市蘆洲區中華街6號","121.463531666667","25.081695","6501400","蘆洲區"
"247008","336-TH","2018/11/08 21:19:20","新北市蘆洲區信義路75巷2號","121.476298333333","25.079965","6501400","蘆洲區"
"247020","057-VK","2018/11/08 21:19:11","新北市蘆洲區民族路422巷116號","121.47258","25.094205","6501400","蘆洲區"
"247010","056-VK","2018/11/08 21:19:17","新北市蘆洲區鷺江街23號","121.478848333333","25.08246","6501400","蘆洲區"
"247018","007-UY","2018/11/08 21:19:18","新北市蘆洲區三民路263號","121.46828","25.0894166666667","6501400","蘆洲區"
"247004","002-UY","2018/11/08 21:19:22","新北市蘆洲區長安街267巷31號","121.456965","25.08299","6501400","蘆洲區"
"247022","001-UY","2018/11/08 21:19:18","新北市蘆洲區民族路502號","121.469528333333","25.09047","6501400","蘆洲區"
"251009","008-UM","2018/11/08 21:19:24","新北市淡水區民族路112巷1號","121.462661666667","25.1352016666667","6501000","淡水區"
"251005","010-UM","2018/11/08 21:19:25","新北市淡水區水源街一段122巷37號","121.447025","25.170465","6501000","淡水區"
"251001","011-UM","2018/11/08 21:19:11","新北市淡水區濱海路一段306巷60弄33號","121.441923333333","25.19161","6501000","淡水區"
"251013","KEA-2871","2018/11/08 21:19:25","新北市淡水區行忠路328號","121.460515","25.1995966666667","6501000","淡水區"
"251016","179-VK","2018/11/08 21:19:24","新北市淡水區前洲子11號","121.441068333333","25.2194266666667","6501000","淡水區"
"251008","181-VK","2018/11/08 21:19:21","新北市淡水區水源街二段222號","121.4601","25.1764616666667","6501000","淡水區"
"251015","182-VK","2018/11/08 21:19:16","新北市淡水區淡金路四段542巷17號","121.45266","25.2270933333333","6501000","淡水區"
"251010","413-VK","2018/11/08 21:19:23","新北市淡水區中正路一段156巷51號","121.42176","25.1810166666667","6501000","淡水區"
"251012","441-VK","2018/11/08 21:19:21","新北市淡水區淡金路五段35巷46號","121.45248","25.234745","6501000","淡水區"
"251011","650-BX","2018/11/08 21:19:26","新北市淡水區新民街120巷29號","121.438888333333","25.1787883333333","6501000","淡水區"
"251003","766-UM","2018/11/08 21:19:11","新北市淡水區崁頂15-5號","121.439005","25.18588","6501000","淡水區"
"220070","282-UM","2018/11/08 21:19:26","新北市八里區荖阡坑路15-66號","121.398531666667","25.139565","6500100","板橋區"
