"lineid","car","time","location","longitude","latitude","cityid","cityname"
"232003","290-BY","2018/11/09 06:49:06","新北市坪林區國中路4號","121.713333333333","24.9382066666667","6502000","坪林區"
"232015","291-BY","2018/11/09 06:48:58","新北市坪林區水柳腳16號","121.710661666667","24.9351483333333","6502000","坪林區"
"232019","705-BZ","2018/11/09 06:49:07","新北市坪林區九芎林14-1號","121.707263333333","24.9310683333333","6502000","坪林區"
"232008","758-BX","2018/11/09 06:48:57","新北市坪林區鶯子瀨1號","121.707791666667","24.9176816666667","6502000","坪林區"
"244004","248-BX","2018/11/09 06:48:58","新北市林口區粉寮路二段28號","121.402971666667","25.0864333333333","6501700","林口區"
"235001","611-BX","2018/11/09 06:48:52","新北市中和區圓通路262號","121.493033333333","24.9909366666667","6500300","中和區"
"223006","022-BY","2018/11/09 06:48:52","新北市石碇區楓子林36-1號","121.642433333333","25.0091","6501900","石碇區"
"223002","KEA-2673","2018/11/09 06:48:50","新北市石碇區員山子1號","121.65224","24.9671416666667","6501900","石碇區"
"223003","205-TH","2018/11/09 06:49:06","新北市石碇區湳窟41號","121.663395","24.9961266666667","6501900","石碇區"
"223008","406-TH","2018/11/09 06:48:59","新北市石碇區碇坪路一段11號","121.652661666667","24.9987383333333","6501900","石碇區"
"223004","437-BY","2018/11/09 06:48:58","新北市石碇區碇坪路一段71號","121.660286666667","24.9914416666667","6501900","石碇區"
"223001","592-UM","2018/11/09 06:48:57","新北市石碇區石崁40-8號","121.659618333333","24.9963833333333","6501900","石碇區"
"223007","661-BX","2018/11/09 06:49:05","新北市石碇區雙溪36號","121.650301666667","25.0089133333333","6501900","石碇區"
"223005","677-TV","2018/11/09 06:49:06","新北市石碇區碇坪路一段148號","121.660246666667","24.991355","6501900","石碇區"
"227005","282-VK","2018/11/09 06:48:58","新北市雙溪區新基里自強路5號","121.866343333333","25.0390666666667","6502500","雙溪區"
