"lineid","car","time","location","longitude","latitude","cityid","cityname"
"248004","653-BX","2018/11/09 07:19:10","新北市五股區明德路12巷6號","121.433423333333","25.07189","6501500","五股區"
"232003","290-BY","2018/11/09 07:18:46","新北市坪林區大粗坑28號","121.707241666667","24.9653366666667","6502000","坪林區"
"232015","291-BY","2018/11/09 07:18:58","新北市坪林區嶺腳坑7號","121.692421666667","24.9444883333333","6502000","坪林區"
"232019","705-BZ","2018/11/09 07:19:07","新北市坪林區九芎坑2-2號","121.722675","24.96556","6502000","坪林區"
"232008","758-BX","2018/11/09 07:18:57","新北市坪林區石16號","121.71019","24.90858","6502000","坪林區"
"244004","248-BX","2018/11/09 07:18:58","新北市林口區頂福里71-51號","121.354513333333","25.08049","6501700","林口區"
"222005","289-BY","2018/11/09 07:19:01","新北市深坑區平埔街22巷23號","121.614486666667","25.0009766666667","6501800","深坑區"
"235001","611-BX","2018/11/09 07:19:12","新北市中和區圓通路367巷6號","121.49152","24.989255","6500300","中和區"
"226005","5620-A6","2018/11/09 07:19:00","新北市平溪區菁桐里菁桐街70號","121.721896666667","25.023575","6502400","平溪區"
"226001","7418-A5","2018/11/09 07:18:51","新北市平溪區望古里灰4-2號","121.763631666667","25.029035","6502400","平溪區"
"226006","AGD-0702","2018/11/09 07:18:59","新北市平溪區嶺腳里嶺腳寮36號","121.748463333333","25.0313266666667","6502400","平溪區"
"223006","022-BY","2018/11/09 07:19:01","新北市石碇區崩山12-1號","121.674255","24.973235","6501900","石碇區"
"223002","KEA-2673","2018/11/09 07:19:10","新北市石碇區北宜路六段十三股巷1號","121.648691666667","24.9495733333333","6501900","石碇區"
"223003","205-TH","2018/11/09 07:19:10","新北市石碇區蓬菜寮17號","121.64923","24.972065","6501900","石碇區"
"223004","437-BY","2018/11/09 07:19:10","新北市石碇區新興坑12-1號","121.653821666667","25.018745","6501900","石碇區"
"223001","592-UM","2018/11/09 07:18:57","新北市石碇區中楒子腳1-2號","121.64527","24.970675","6501900","石碇區"
"223007","661-BX","2018/11/09 07:19:05","新北市石碇區靜安路一段318號","121.6937","25.0068816666667","6501900","石碇區"
"223005","677-TV","2018/11/09 07:19:06","新北市石碇區新興坑8號","121.653708333333","25.0186783333333","6501900","石碇區"
"227005","282-VK","2018/11/09 07:18:58","新北市雙溪區新基里自強路5-1號","121.866285","25.039135","6502500","雙溪區"
"252004","249-BX","2018/11/09 07:19:01","新北市三芝區錫板里小坑子13號","121.505583333333","25.2366016666667","6502100","三芝區"
