"lineid","car","time","location","longitude","latitude","cityid","cityname"
"231007","189-VK","2018/02/20 10:09:44","新北市新店區新潭路三段215巷25號","121.508198333333","24.9041283333333","6500600","新店區"
"231009","192-VK","2018/02/20 10:09:31","新北市新店區平廣路一段55號","121.53314","24.9001666666667","6500600","新店區"
"223001","205-TH","2018/02/20 10:09:44","新北市石碇區內楒仔腳1號","121.632536666667","24.97007","6501900","石碇區"
"227006","282-VK","2018/02/20 10:09:37","新北市雙溪區長源里柑腳48號","121.798878333333","25.010165","6502500","雙溪區"
"227012","030-BX","2018/02/20 10:08:19","新北市雙溪區泰平里料角坑43號","121.7929","24.9559","6502500","雙溪區"
"252004","249-BX","2018/02/20 10:09:43","新北市三芝區福德里埔尾17號","121.50456","25.2441766666667","6502100","三芝區"
"252007","AAC-283","2018/02/20 10:09:41","新北市三芝區新庄里新庄子78-2號","121.507771666667","25.2726283333333","6502100","三芝區"
