"lineid","car","time","location","longitude","latitude","cityid","cityname"
"231007","189-VK","2018/02/20 10:19:44","新北市新店區新潭路三段210號","121.505223333333","24.9051116666667","6500600","新店區"
"231009","192-VK","2018/02/20 10:19:31","新北市新店區小坑一路21-1號","121.530158333333","24.9120866666667","6500600","新店區"
"227006","282-VK","2018/02/20 10:19:37","新北市雙溪區外柑里外柑腳17號","121.812318333333","25.0194066666667","6502500","雙溪區"
"227012","030-BX","2018/02/20 10:19:39","新北市雙溪區泰平里料角坑40號","121.793071666667","24.959635","6502500","雙溪區"
"252007","AAC-283","2018/02/20 10:19:41","新北市三芝區新庄里番社后13-1號","121.497938333333","25.268055","6502100","三芝區"
