"lineid","car","time","location","longitude","latitude","cityid","cityname"
"231007","189-VK","2018/02/20 10:39:48","新北市新店區新潭路三段76-1號","121.505015","24.9109516666667","6500600","新店區"
"231009","192-VK","2018/02/20 10:39:31","新北市新店區小坑一路22號","121.532956666667","24.9135433333333","6500600","新店區"
"227006","282-VK","2018/02/20 10:39:37","新北市雙溪區新基里新基北街72號","121.874331666667","25.04287","6502500","雙溪區"
"227012","030-BX","2018/02/20 10:39:39","新北市坪林區鷺鶿岫4-1號","121.786566666667","24.956325","6502500","雙溪區"
"239006","661-UM","2018/02/20 10:39:34","新北市鶯歌區文化路419號","121.355753333333","24.9501733333333","6500800","鶯歌區"
