"lineid","car","time","location","longitude","latitude","cityid","cityname"
"234044","148-BY","2018/02/20 12:59:30","新北市永和區得和路373巷29號","121.525056666667","25.000315","6500400","永和區"
"234066","149-BY","2018/02/20 12:59:32","新北市永和區中和路625號","121.513043333333","25.0049983333333","6500400","永和區"
"234005","207-UY","2018/02/20 12:59:42","新北市永和區中山路一段26號","121.513736666667","25.010555","6500400","永和區"
"234036","336-UY","2018/02/20 12:59:45","新北市中和區秀朗路三段38號","121.526496666667","24.99592","6500400","永和區"
"234062","337-UY","2018/02/20 12:59:46","新北市永和區秀朗路一段160號","121.518396666667","25.00341","6500400","永和區"
"234086","338-UY","2018/02/20 12:59:45","新北市永和區中正路385號","121.517326666667","25.00397","6500400","永和區"
"234068","552-UM","2018/02/20 12:59:31","新北市永和區竹林路124巷38號","121.517985","25.0115616666667","6500400","永和區"
"234015","745-BX","2018/02/20 12:59:39","新北市永和區永和路二段297號","121.516003333333","25.0160316666667","6500400","永和區"
"234028","746-BX","2018/02/20 12:59:42","新北市永和區四維街38號","121.525455","24.9981433333333","6500400","永和區"
"234052","KEA-2590","2018/02/20 12:59:47","新北市永和區竹林路66巷2號","121.518243333333","25.0134116666667","6500400","永和區"
"234012","KEA-2591","2018/02/20 12:59:37","新北市永和區信義路17巷20號","121.513288333333","25.011155","6500400","永和區"
"234060","AAD-866","2018/02/20 12:59:33","新北市永和區福和路311號","121.51617","25.0070533333333","6500400","永和區"
"234078","847-RS","2018/02/20 12:59:36","新北市永和區國中路200號","121.522363333333","25.0061566666667","6500400","永和區"
"234040","862-TW","2018/02/20 12:59:33","新北市永和區永貞路328號","121.511303333333","25.0053083333333","6500400","永和區"
"234048","863-TW","2018/02/20 12:59:50","新北市永和區文化路194號","121.510815","25.0162716666667","6500400","永和區"
"234025","9371-KE","2018/02/20 12:59:41","新北市永和區永和路一段45-1號","121.512818333333","25.00627","6500400","永和區"
"234010","9373-KE","2018/02/20 12:59:37","新北市永和區文化路113巷21弄31號","121.513718333333","25.0144366666667","6500400","永和區"
"248017","225-UY","2018/02/20 12:59:52","新北市五股區中興路二段83巷26-6號","121.46004","25.0752616666667","6501500","五股區"
"234022","9380-KE","2018/02/20 12:59:47","新北市永和區竹林路75巷47號","121.520906666667","25.0144266666667","6500400","永和區"
"234076","969-R7","2018/02/20 12:59:41","新北市永和區智光街126號","121.515053333333","24.9956316666667","6500400","永和區"
"234072","AAC-211","2018/02/20 12:59:43","新北市永和區豫溪街217巷11號","121.525031666667","25.0100583333333","6500400","永和區"
"234001","AAC-295","2018/02/20 12:59:32","新北市永和區永平路30號","121.513136666667","25.0088266666667","6500400","永和區"
"231029","001-UM","2018/02/20 12:59:31","新北市新店區安華路28-1號","121.519461666667","24.9608266666667","6500600","新店區"
"231002","002-UM","2018/02/20 12:59:45","新北市新店區安華路30巷1號","121.519465","24.9597666666667","6500600","新店區"
"231028","046-UY","2018/02/20 12:59:48","新北市新店區安華路28-1號","121.519568333333","24.9607266666667","6500600","新店區"
"231030","047-UY","2018/02/20 12:59:32","新北市新店區安華路28-1號","121.519016666667","24.9609433333333","6500600","新店區"
"231012","108-UY","2018/02/20 12:59:19","新北市新店區安華路28-1號","121.519671666667","24.9609266666667","6500600","新店區"
"231020","187-VK","2018/02/20 12:59:47","新北市新店區安華路28-1號","121.519523333333","24.9610783333333","6500600","新店區"
"231015","KEA-2219","2018/02/20 12:59:39","新北市新店區安華路28-1號","121.519873333333","24.9612683333333","6500600","新店區"
"231010","278-BY","2018/02/20 12:59:46","新北市新店區安華路28-1號","121.519646666667","24.9610983333333","6500600","新店區"
"231023","AAD-862","2018/02/20 12:59:37","新北市新店區安華路28-1號","121.519736666667","24.9611483333333","6500600","新店區"
"231027","3712-VJ","2018/02/20 12:59:41","新北市新店區安華路28-1號","121.519386666667","24.960615","6500600","新店區"
"231038","4715-K9","2018/02/20 12:59:36","新北市新店區安華路28-1號","121.519538333333","24.9605866666667","6500600","新店區"
"231036","512-UM","2018/02/20 12:59:48","新北市新店區安華路28-1號","121.51927","24.9613033333333","6500600","新店區"
"231001","619-UM","2018/02/20 12:59:42","新北市新店區安華路28-1號","121.51969","24.9608683333333","6500600","新店區"
"231042","641-BX","2018/02/20 12:59:38","新北市新店區安華路1-1號","121.519475","24.9604766666667","6500600","新店區"
"231034","645-TV","2018/02/20 12:59:47","新北市新店區安華路1-1號","121.51936","24.96052","6500600","新店區"
"231013","719-UM","2018/02/20 12:59:31","新北市新店區安華路28-1號","121.51946","24.96118","6500600","新店區"
"231032","720-UM","2018/02/20 12:59:39","新北市新店區安華路28-1號","121.519231666667","24.9612016666667","6500600","新店區"
"231005","897-TW","2018/02/20 12:59:35","新北市新店區安華路28-1號","121.519816666667","24.9606666666667","6500600","新店區"
"231004","899-TW","2018/02/20 12:59:36","新北市新店區安華路28-1號","121.51907","24.96087","6500600","新店區"
"231037","AKT-0513","2018/02/20 12:59:40","新北市新店區安華路28-1號","121.519486666667","24.96063","6500600","新店區"
"235030","003-UY","2018/02/20 12:59:40","新北市中和區圓通路189號","121.49733","24.9945516666667","6500300","中和區"
"235028","005-UY","2018/02/20 12:59:42","新北市中和區員山路36巷16-3號","121.48504","24.9912983333333","6500300","中和區"
"235027","006-UY","2018/02/20 12:59:32","新北市中和區員山路36巷16-3號","121.485085","24.991345","6500300","中和區"
"235029","098-UM","2018/02/20 12:59:40","新北市中和區景平路997巷2號","121.495756666667","25.0057616666667","6500300","中和區"
"235004","150-BY","2018/02/20 12:47:10","新北市中和區和城路一段271巷1號","121.485426666667","24.9917516666667","6500300","中和區"
"235022","151-BY","2018/02/20 12:59:32","新北市中和區錦和路350-1號","121.490528333333","24.9935183333333","6500300","中和區"
"235002","185-VK","2018/02/20 12:59:46","新北市中和區立人街8-4號","121.519583333333","24.9942883333333","6500300","中和區"
"235031","255-BX","2018/02/20 12:59:38","新北市中和區中山路二段550號","121.483833333333","25.0053866666667","6500300","中和區"
"235036","301-VK","2018/02/20 12:59:33","新北市中和區員山路36巷13號","121.483963333333","24.9911433333333","6500300","中和區"
"235007","352-BY","2018/02/20 12:59:43","新北市中和區員山路36巷16-2號","121.485098333333","24.9916283333333","6500300","中和區"
"235035","269-TV","2018/02/20 12:59:42","新北市中和區新生街188號","121.483771666667","24.99958","6500300","中和區"
"235001","611-BX","2018/02/20 12:59:37","新北市中和區中山路三段118號","121.475608333333","25.00629","6500300","中和區"
"235011","732-UM","2018/02/20 12:59:50","新北市中和區員山路36巷13號","121.484171666667","24.9910533333333","6500300","中和區"
"235026","800-TS","2018/02/20 12:59:46","新北市中和區和城路一段271巷1號","121.485455","24.9919233333333","6500300","中和區"
"235021","801-TS","2018/02/20 12:59:48","新北市中和區員山路36巷16-3號","121.484963333333","24.9916283333333","6500300","中和區"
"235016","805-TS","2018/02/20 12:51:42","新北市中和區員山路36巷16號","121.484506666667","24.9913183333333","6500300","中和區"
"235012","896-TW","2018/02/20 12:59:49","新北市中和區員山路36巷16-2號","121.485258333333","24.99167","6500300","中和區"
"235017","900-TW","2018/02/20 12:59:35","新北市中和區員山路36巷13號","121.484263333333","24.9907633333333","6500300","中和區"
"235015","157-BY","2018/02/20 12:59:46","新北市中和區員山路36巷13號","121.484343333333","24.991085","6500300","中和區"
"235005","251-BX","2018/02/20 12:59:33","新北市中和區和城路一段271巷1號","121.485476666667","24.991435","6500300","中和區"
"228005","097-TW","2018/02/20 12:59:36","新北市貢寮區福隆里東興街31-1號","121.953985","25.021085","6502600","貢寮區"
"228004","212-TW","2018/02/20 12:59:47","新北市貢寮區吉林里內寮街19號","121.887186666667","24.9884983333333","6502600","貢寮區"
"208004","AAC-292","2018/02/20 12:59:44","新北市金山區磺港里磺港路328號","121.647756666667","25.2297133333333","6502700","金山區"
"207002","749-BX","2018/02/20 12:59:38","新北市萬里區雙興里大坪路37-1號","121.627828333333","25.1703133333333","6502800","萬里區"
"207004","662-BX","2018/02/20 12:59:50","新北市萬里區萬里里獅頭路22-1號","121.69298","25.1782616666667","6502800","萬里區"
"252005","AAC-283","2018/02/20 12:59:38","新北市三芝區忠孝街1-18號","121.505596666667","25.253705","6502100","三芝區"
"236006","498-BY","2018/02/20 12:59:40","新北市土城區亞洲路30號","121.436115","24.9742516666667","6501300","土城區"
"221032","280-BY","2018/02/20 12:59:49","新北市汐止區大同路二段649號","121.664736666667","25.0715083333333","6501100","汐止區"
