"lineid","car","time","location","longitude","latitude","cityid","cityname"
"234044","148-BY","2018/02/20 13:19:50","新北市永和區得和路370號","121.52435","24.9993883333333","6500400","永和區"
"234066","149-BY","2018/02/20 13:19:32","新北市永和區保平路50巷3號","121.511196666667","25.0072966666667","6500400","永和區"
"234005","207-UY","2018/02/20 13:19:42","新北市中和區中山路二段17號","121.505086666667","25.0054583333333","6500400","永和區"
"234036","336-UY","2018/02/20 13:19:45","新北市永和區民樂街55巷2號","121.527448333333","24.9984183333333","6500400","永和區"
"234062","337-UY","2018/02/20 13:19:46","新北市永和區永元路17巷25弄2號","121.521568333333","25.0014166666667","6500400","永和區"
"234086","338-UY","2018/02/20 13:19:45","新北市永和區永利路37號","121.518695","25.0055883333333","6500400","永和區"
"234068","552-UM","2018/02/20 13:19:31","新北市永和區豫溪街55號","121.517216666667","25.009935","6500400","永和區"
"234015","745-BX","2018/02/20 13:19:39","新北市永和區環河西路一段85巷4弄20號","121.512026666667","25.01691","6500400","永和區"
"234028","746-BX","2018/02/20 13:19:42","新北市永和區四維街77號","121.525063333333","24.99809","6500400","永和區"
"234052","KEA-2590","2018/02/20 13:19:47","新北市永和區中興街25號","121.516031666667","25.0119233333333","6500400","永和區"
"234012","KEA-2591","2018/02/20 13:19:34","新北市永和區信義路69號","121.512703333333","25.012825","6500400","永和區"
"234060","AAD-866","2018/02/20 13:19:33","新北市永和區秀朗路一段175號","121.517091666667","25.003685","6500400","永和區"
"234078","847-RS","2018/02/20 13:19:36","新北市永和區福和路28號","121.523918333333","25.00835","6500400","永和區"
"234040","862-TW","2018/02/20 13:19:33","新北市永和區保平路151巷15號","121.510531666667","25.005145","6500400","永和區"
"234048","863-TW","2018/02/20 13:19:50","新北市永和區保福路二段88巷20號","121.511588333333","25.0136383333333","6500400","永和區"
"234025","9371-KE","2018/02/20 13:19:41","新北市永和區豫溪街28巷11號","121.51517","25.0093683333333","6500400","永和區"
"234010","9373-KE","2018/02/20 13:19:37","新北市永和區忠孝街34巷18號","121.514496666667","25.0168116666667","6500400","永和區"
"248017","225-UY","2018/02/20 13:19:11","新北市五股區御史路205-1號","121.43136","25.100545","6501500","五股區"
"234022","9380-KE","2018/02/20 13:19:47","新北市永和區竹林路124巷31號","121.518275","25.01115","6500400","永和區"
"234076","969-R7","2018/02/20 13:19:41","新北市永和區民有街69號","121.51785","24.9957183333333","6500400","永和區"
"234072","AAC-211","2018/02/20 13:19:43","新北市永和區竹林路87號","121.519565","25.012245","6500400","永和區"
"234001","AAC-295","2018/02/20 13:19:52","新北市永和區中山路一段102號","121.511248333333","25.01058","6500400","永和區"
"243012","AAD-798","2018/02/20 13:14:07","新北市泰山區黎明路25號","121.422101666667","25.0608133333333","6501600","泰山區"
"231029","001-UM","2018/02/20 13:19:51","新北市新店區安華路28-1號","121.519666666667","24.9609583333333","6500600","新店區"
"231002","002-UM","2018/02/20 13:19:45","新北市新店區安華路28-1號","121.519765","24.9608033333333","6500600","新店區"
"231028","046-UY","2018/02/20 13:19:48","新北市新店區安華路28-1號","121.51965","24.960945","6500600","新店區"
"231030","047-UY","2018/02/20 13:19:32","新北市新店區安華路28-1號","121.519006666667","24.960955","6500600","新店區"
"231018","107-UY","2018/02/20 13:19:51","新北市新店區環河路116號","121.53691","24.9674316666667","6500600","新店區"
"231012","108-UY","2018/02/20 13:19:39","新北市新店區安康路一段11號","121.533598333333","24.960455","6500600","新店區"
"231020","187-VK","2018/02/20 13:19:47","新北市新店區北新路一段53號","121.538216666667","24.9596566666667","6500600","新店區"
"231015","KEA-2219","2018/02/20 13:19:39","新北市新店區安康路一段223號","121.525753333333","24.9630783333333","6500600","新店區"
"231026","256-BX","2018/02/20 13:19:51","新北市新店區安華路28-1號","121.519676666667","24.96115","6500600","新店區"
"231010","278-BY","2018/02/20 13:19:46","新北市新店區安康路一段3-1號","121.534468333333","24.960735","6500600","新店區"
"231023","AAD-862","2018/02/20 13:19:37","新北市新店區安康路一段17號","121.53312","24.9603766666667","6500600","新店區"
"231027","3712-VJ","2018/02/20 13:19:41","新北市新店區環河路29巷1號","121.537061666667","24.96126","6500600","新店區"
"231025","3713-VJ","2018/02/20 13:19:35","新北市新店區安華路28-1號","121.519205","24.9606866666667","6500600","新店區"
"231024","4716-K9","2018/02/20 13:19:43","新北市新店區安康路一段52巷1號","121.529791666667","24.9612866666667","6500600","新店區"
"231038","4715-K9","2018/02/20 13:19:36","新北市新店區安華路28-1號","121.519493333333","24.9605633333333","6500600","新店區"
"231036","512-UM","2018/02/20 13:16:02","新北市新店區安康路二段362號","121.501791666667","24.9574066666667","6500600","新店區"
"231035","515-UM","2018/02/20 13:19:51","新北市新店區安華路28-1號","121.519661666667","24.9614133333333","6500600","新店區"
"231001","619-UM","2018/02/20 13:19:42","新北市新店區安華路28-1號","121.519715","24.9607533333333","6500600","新店區"
"231003","641-BX","2018/02/20 13:19:39","新北市新店區安華路28-1號","121.519585","24.96061","6500600","新店區"
"231034","645-TV","2018/02/20 13:19:47","新北市新店區安華路28-1號","121.519263333333","24.9605933333333","6500600","新店區"
"231013","719-UM","2018/02/20 13:19:51","新北市新店區安康路一段238號","121.522016666667","24.9637916666667","6500600","新店區"
"231032","720-UM","2018/02/20 13:19:39","新北市新店區安豐路54-1號","121.49979","24.9541133333333","6500600","新店區"
"231005","897-TW","2018/02/20 13:19:35","新北市新店區安康路一段355-3號","121.51971","24.9616033333333","6500600","新店區"
"231006","898-TW","2018/02/20 13:19:42","新北市新店區安華路28-1號","121.519268333333","24.9609683333333","6500600","新店區"
"231004","899-TW","2018/02/20 13:19:36","新北市新店區安華路28-1號","121.519008333333","24.9607783333333","6500600","新店區"
"231037","AKT-0513","2018/02/20 13:19:40","新北市新店區安華路1-1號","121.519488333333","24.96043","6500600","新店區"
"235030","003-UY","2018/02/20 13:19:40","新北市中和區中山路二段121號","121.502733333333","25.003585","6500300","中和區"
"235028","005-UY","2018/02/20 13:19:42","新北市中和區圓通路167巷6號","121.497965","24.99505","6500300","中和區"
"235027","006-UY","2018/02/20 13:19:45","新北市中和區中正路589巷15號","121.485738333333","24.993615","6500300","中和區"
"235020","096-UM","2018/02/20 13:19:47","新北市中和區員山路36巷13號","121.484261666667","24.991525","6500300","中和區"
"235003","097-UM","2018/02/20 13:19:41","新北市中和區景安路78號","121.505731666667","24.9964616666667","6500300","中和區"
"235029","098-UM","2018/02/20 13:19:40","新北市中和區莊敬路49巷20弄20號","121.502681666667","25.0058566666667","6500300","中和區"
"235004","150-BY","2018/02/20 13:19:30","新北市中和區景新街168-2號","121.505936666667","24.9967883333333","6500300","中和區"
"235022","151-BY","2018/02/20 13:19:52","新北市中和區圓通路419號","121.48851","24.988985","6500300","中和區"
"235019","183-VK","2018/02/20 13:19:46","新北市中和區中正路637巷52弄1號","121.485478333333","24.99339","6500300","中和區"
"235002","185-VK","2018/02/20 13:19:46","新北市中和區秀朗路三段128巷16弄2號","121.524571666667","24.9928966666667","6500300","中和區"
"235013","186-VK","2018/02/20 13:19:51","新北市中和區中正路637巷60弄61號","121.48541","24.9925416666667","6500300","中和區"
"235031","255-BX","2018/02/20 13:19:38","新北市中和區中正路799號","121.484955","25.000795","6500300","中和區"
"235036","301-VK","2018/02/20 13:19:53","新北市中和區連城路263巷4弄4號","121.49162","24.9957666666667","6500300","中和區"
"235007","352-BY","2018/02/20 13:19:43","新北市中和區景平路369號","121.504315","24.9935183333333","6500300","中和區"
"235025","378-QA","2018/02/20 13:19:49","新北市中和區國光街85巷4號","121.470331666667","25.00007","6500300","中和區"
"235035","269-TV","2018/02/20 13:19:42","新北市中和區永和路458巷1弄2號","121.484123333333","25.0126133333333","6500300","中和區"
"235014","4979-A6","2018/02/20 13:19:45","新北市中和區捷運路102號","121.505551666667","24.99148","6500300","中和區"
"235033","4980-A6","2018/02/20 13:19:35","新北市中和區連城路301號","121.489863333333","24.9962183333333","6500300","中和區"
"235006","551-UM","2018/02/20 13:19:45","新北市中和區大仁街20巷25弄29號","121.519056666667","24.9935983333333","6500300","中和區"
"235034","558-UM","2018/02/20 13:19:32","新北市中和區圓通路172號","121.497263333333","24.9945916666667","6500300","中和區"
"235009","565-BX","2018/02/20 13:19:32","新北市中和區復興路299號","121.501538333333","24.9900966666667","6500300","中和區"
"235018","640-BX","2018/02/20 13:19:52","新北市中和區民享街86巷23號","121.473355","25.0005866666667","6500300","中和區"
"235024","647-TV","2018/02/20 13:19:50","新北市中和區員山路36巷16-3號","121.48476","24.9917316666667","6500300","中和區"
"235011","732-UM","2018/02/20 13:19:50","新北市中和區南山路250巷2號","121.507678333333","24.9890433333333","6500300","中和區"
"235026","800-TS","2018/02/20 13:19:46","新北市中和區中山路二段312巷45弄25號","121.495018333333","25.0049866666667","6500300","中和區"
"235021","801-TS","2018/02/20 13:19:48","新北市中和區員山路109號","121.480853333333","24.9946483333333","6500300","中和區"
"235016","805-TS","2018/02/20 13:19:37","新北市中和區興南路二段9號","121.508011666667","24.986185","6500300","中和區"
"235012","896-TW","2018/02/20 13:19:49","新北市中和區員山路36巷16-2號","121.485255","24.991675","6500300","中和區"
"235017","900-TW","2018/02/20 13:19:35","新北市中和區員山路36巷16-2號","121.485201666667","24.9915716666667","6500300","中和區"
"235015","157-BY","2018/02/20 13:19:46","新北市中和區仁愛街95號","121.511926666667","24.9868366666667","6500300","中和區"
"235001","AAC-213","2018/02/20 13:19:43","新北市中和區景平路151巷5號","121.514155","24.991745","6500300","中和區"
"235005","251-BX","2018/02/20 13:19:33","新北市中和區景安路9號","121.50798","24.999105","6500300","中和區"
"228005","097-TW","2018/02/20 13:19:36","新北市貢寮區美豐里丹裡街36-1號","121.909965","25.0599216666667","6502600","貢寮區"
"228004","212-TW","2018/02/20 13:19:47","新北市貢寮區吉林里內寮街35-2號","121.900451666667","24.9820383333333","6502600","貢寮區"
"208004","AAC-292","2018/02/20 13:19:38","新北市金山區環金路353號","121.629973333333","25.223465","6502700","金山區"
"207002","749-BX","2018/02/20 13:19:38","新北市萬里區崁腳里崁腳路166號","121.645043333333","25.155875","6502800","萬里區"
"207001","662-BX","2018/02/20 13:19:50","新北市萬里區龜吼里玉田路62-1號","121.679895","25.19171","6502800","萬里區"
"252005","AAC-283","2018/02/20 13:19:38","新北市三芝區圓山里木屐寮38-1號","121.528601666667","25.225855","6502100","三芝區"
"236006","498-BY","2018/02/20 13:19:40","新北市土城區大安路138巷39號","121.434665","24.9720916666667","6501300","土城區"
"221032","280-BY","2018/02/20 13:19:48","新北市汐止區復興路23號","121.656243333333","25.0652516666667","6501100","汐止區"
"220028","200-UY","2018/02/20 13:19:37","新北市板橋區華東街1-9號","121.448096666667","24.9948916666667","6500100","板橋區"
