"lineid","car","time","location","longitude","latitude","cityid","cityname"
"234044","148-BY","2018/02/20 13:59:30","新北市永和區成功路一段20號","121.527013333333","25.00503","6500400","永和區"
"234066","149-BY","2018/02/20 13:59:32","新北市永和區永貞路356號","121.510315","25.0065516666667","6500400","永和區"
"234005","207-UY","2018/02/20 13:59:43","新北市中和區中和路302-1號","121.508726666667","24.9999","6500400","永和區"
"234036","336-UY","2018/02/20 13:59:45","新北市永和區成功路二段183號","121.526701666667","24.99659","6500400","永和區"
"234062","337-UY","2018/02/20 13:59:45","新北市永和區中正路368巷1弄47號","121.519195","25.0012566666667","6500400","永和區"
"234086","338-UY","2018/02/20 13:59:45","新北市永和區福和路152號","121.521743333333","25.007895","6500400","永和區"
"234068","552-UM","2018/02/20 13:59:50","新北市永和區國光路19號","121.519841666667","25.00839","6500400","永和區"
"234015","745-BX","2018/02/20 13:59:39","新北市永和區文化路170號","121.511843333333","25.0155866666667","6500400","永和區"
"234028","746-BX","2018/02/20 13:59:46","新北市永和區民生路20號","121.522488333333","24.997355","6500400","永和區"
"234052","KEA-2590","2018/02/20 13:59:47","新北市永和區竹林路39巷42弄1號","121.520115","25.0152316666667","6500400","永和區"
"234012","KEA-2591","2018/02/20 13:59:34","新北市永和區保生路55號","121.504738333333","25.0106133333333","6500400","永和區"
"234060","AAD-866","2018/02/20 13:59:53","新北市永和區中正路151巷5弄2號","121.515813333333","24.9986416666667","6500400","永和區"
"234078","847-RS","2018/02/20 13:59:36","新北市永和區永利路83-1號","121.521303333333","25.0034766666667","6500400","永和區"
"234040","862-TW","2018/02/20 13:59:53","新北市永和區中和路421巷5弄8號","121.50847","25.0009116666667","6500400","永和區"
"234048","863-TW","2018/02/20 13:59:30","新北市永和區保安路246號","121.506443333333","25.0127683333333","6500400","永和區"
"248017","225-UY","2018/02/20 13:59:32","新北市五股區民義路一段230號","121.428586666667","25.0907016666667","6501500","五股區"
"234022","9380-KE","2018/02/20 13:59:47","新北市永和區中正路702巷20弄1號","121.516461666667","25.010615","6500400","永和區"
"234076","969-R7","2018/02/20 13:59:41","新北市永和區民治街29號","121.519685","24.9977183333333","6500400","永和區"
"234072","AAC-211","2018/02/20 13:59:43","新北市永和區豫溪街207巷8號","121.523701666667","25.0098333333333","6500400","永和區"
"234001","AAC-295","2018/02/20 13:59:45","新北市永和區福和路316號","121.516043333333","25.0072916666667","6500400","永和區"
"231029","001-UM","2018/02/20 13:59:42","新北市新店區安康路二段86號","121.513938333333","24.96326","6500600","新店區"
"231002","002-UM","2018/02/20 13:59:45","新北市新店區中正路630號","121.533896666667","24.9890533333333","6500600","新店區"
"231028","046-UY","2018/02/20 13:59:48","新北市新店區安和路三段124號","121.516796666667","24.985665","6500600","新店區"
"231030","047-UY","2018/02/20 13:59:51","新北市新店區安民街65巷21-2號","121.515193333333","24.9675066666667","6500600","新店區"
"231018","107-UY","2018/02/20 13:59:51","新北市新店區中央路116號","121.53114","24.9751083333333","6500600","新店區"
"231012","108-UY","2018/02/20 13:59:44","新北市新店區五峰路97號","121.545805","24.9672133333333","6500600","新店區"
"231020","187-VK","2018/02/20 13:59:47","新北市新店區屈尺路83-2號","121.544895","24.9220666666667","6500600","新店區"
"231015","KEA-2219","2018/02/20 13:59:39","新北市新店區郵政路93號","121.554738333333","24.9515183333333","6500600","新店區"
"231026","256-BX","2018/02/20 13:59:31","新北市新店區安康路一段35-1號","121.532031666667","24.9605833333333","6500600","新店區"
"231023","AAD-862","2018/02/20 13:59:37","新北市新店區文中路40號","121.539718333333","24.9566066666667","6500600","新店區"
"231027","3712-VJ","2018/02/20 13:59:41","新北市新店區北新路一段189號","121.54011","24.96464","6500600","新店區"
"231025","3713-VJ","2018/02/20 13:59:35","新北市新店區建安街33巷28號","121.538258333333","24.97541","6500600","新店區"
"231024","4716-K9","2018/02/20 13:59:43","新北市新店區北新路一段271巷8號","121.54054","24.9668","6500600","新店區"
"231038","4715-K9","2018/02/20 13:59:36","新北市新店區溪洲路121號","121.53111","24.9628566666667","6500600","新店區"
"231036","512-UM","2018/02/20 13:59:33","新北市新店區安祥路110巷26號","121.474346666667","24.9562633333333","6500600","新店區"
"231035","515-UM","2018/02/20 13:59:51","新北市新店區安和路一段52巷2號","121.517645","24.966225","6500600","新店區"
"231001","619-UM","2018/02/20 13:59:42","新北市新店區三民路47號","121.537086666667","24.9709283333333","6500600","新店區"
"231003","641-BX","2018/02/20 13:59:38","新北市新店區北宜路一段3號","121.538476666667","24.9584383333333","6500600","新店區"
"231034","645-TV","2018/02/20 13:59:47","新北市新店區達觀路40號","121.503136666667","24.9392383333333","6500600","新店區"
"231013","719-UM","2018/02/20 13:59:31","新北市新店區明德路64號","121.541576666667","24.9794866666667","6500600","新店區"
"231032","720-UM","2018/02/20 13:59:39","新北市新店區秀山路72號","121.531345","24.96089","6500600","新店區"
"231005","897-TW","2018/02/20 13:59:35","新北市新店區中興路三段248號","121.543001666667","24.98395","6500600","新店區"
"231006","898-TW","2018/02/20 13:59:42","新北市新店區北宜路二段213號","121.553235","24.953265","6500600","新店區"
"231004","899-TW","2018/02/20 13:59:37","新北市新店區北新路二段173-1號","121.542811666667","24.9767883333333","6500600","新店區"
"231037","AKT-0513","2018/02/20 13:59:40","新北市新店區安康路三段207巷19號","121.488435","24.9508033333333","6500600","新店區"
"235030","003-UY","2018/02/20 13:59:20","新北市中和區中山路二段131巷5弄5號","121.502878333333","25.002895","6500300","中和區"
"235028","005-UY","2018/02/20 13:59:42","新北市中和區泰和街48號","121.499116666667","24.99974","6500300","中和區"
"235027","006-UY","2018/02/20 13:59:31","新北市中和區中正路558號","121.486816666667","24.9945716666667","6500300","中和區"
"235020","096-UM","2018/02/20 13:59:47","新北市中和區員山路522號","121.478996666667","25.0096783333333","6500300","中和區"
"235003","097-UM","2018/02/20 13:59:41","新北市中和區景平路64巷12號","121.522295","24.99127","6500300","中和區"
"235029","098-UM","2018/02/20 13:59:40","新北市中和區勝利路35巷2號","121.498828333333","25.0078283333333","6500300","中和區"
"235004","150-BY","2018/02/20 13:59:30","新北市中和區保健路61巷7號","121.509738333333","24.9974483333333","6500300","中和區"
"235022","151-BY","2018/02/20 13:59:32","新北市中和區員山路84號","121.480908333333","24.9942183333333","6500300","中和區"
"235019","183-VK","2018/02/20 13:59:46","新北市板橋區民族路276巷1弄25號","121.470561666667","25.00637","6500300","中和區"
"235002","185-VK","2018/02/20 13:59:46","新北市中和區大勇街32號","121.517285","24.9932016666667","6500300","中和區"
"235013","186-VK","2018/02/20 13:59:51","新北市中和區安和路109號","121.506816666667","24.9955183333333","6500300","中和區"
"235008","293-VK","2018/02/20 13:59:45","新北市中和區中興街202巷37號","121.498645","24.98955","6500300","中和區"
"235036","301-VK","2018/02/20 13:59:33","新北市中和區福美路298-1號","121.497326666667","25.0049683333333","6500300","中和區"
"235007","352-BY","2018/02/20 13:59:43","新北市中和區成功路1號","121.526456666667","24.99432","6500300","中和區"
"235032","377-QA","2018/02/20 13:59:35","新北市中和區圓通路162巷2弄1號","121.497133333333","24.9954216666667","6500300","中和區"
"235025","378-QA","2018/02/20 13:59:49","新北市中和區中山路三段63巷13弄1號","121.47721","25.0039316666667","6500300","中和區"
"235035","269-TV","2018/02/20 13:59:42","新北市中和區建一路136-1號","121.487861666667","24.999205","6500300","中和區"
"235014","4979-A6","2018/02/20 13:59:45","新北市中和區忠孝街2-11號","121.509415","24.9829066666667","6500300","中和區"
"235033","4980-A6","2018/02/20 13:59:36","新北市中和區圓通路109巷1號","121.499751666667","24.9963916666667","6500300","中和區"
"235006","551-UM","2018/02/20 13:59:45","新北市中和區秀朗路三段22巷3號","121.525991666667","24.9962583333333","6500300","中和區"
"235034","558-UM","2018/02/20 13:59:52","新北市中和區安和路215號","121.505978333333","24.999075","6500300","中和區"
"235009","565-BX","2018/02/20 13:59:52","新北市中和區景新街467巷20弄19號","121.514946666667","24.9872766666667","6500300","中和區"
"235018","640-BX","2018/02/20 13:59:32","新北市中和區中山路三段147號","121.47379","25.0060733333333","6500300","中和區"
"235024","647-TV","2018/02/20 13:59:50","新北市中和區民治街11巷1號","121.475173333333","25.00436","6500300","中和區"
"235011","732-UM","2018/02/20 13:59:30","新北市中和區興南路二段125號","121.505396666667","24.984235","6500300","中和區"
"235010","733-UM","2018/02/20 13:59:44","新北市中和區興南路二段5號","121.508041666667","24.9863916666667","6500300","中和區"
"235026","800-TS","2018/02/20 13:59:46","新北市中和區中山路二段362-3號","121.492126666667","25.0037616666667","6500300","中和區"
"235021","801-TS","2018/02/20 13:59:47","新北市中和區民利街70號","121.478585","24.9983516666667","6500300","中和區"
"235016","805-TS","2018/02/20 13:59:37","新北市中和區興南路二段114巷2號","121.504325","24.98422","6500300","中和區"
"235012","896-TW","2018/02/20 13:59:49","新北市中和區華新街57號","121.507953333333","24.984285","6500300","中和區"
"235017","900-TW","2018/02/20 13:59:35","新北市板橋區和平路174巷51號","121.465868333333","24.9935116666667","6500300","中和區"
"235015","157-BY","2018/02/20 13:59:46","新北市中和區忠孝街11巷12號","121.509893333333","24.983205","6500300","中和區"
"235001","AAC-213","2018/02/20 13:59:43","新北市中和區自立路99巷18號","121.52302","24.9946616666667","6500300","中和區"
"235023","AAC-215","2018/02/20 13:59:37","新北市中和區圓通路367巷20弄7號","121.491825","24.9884066666667","6500300","中和區"
"220016","013-TV","2018/02/20 13:59:48","新北市板橋區中山路二段465巷9號","121.48158","25.0208966666667","6500100","板橋區"
"220013","072-UY","2018/02/20 13:59:45","新北市板橋區漢生東路340巷13號","121.471331666667","25.007305","6500100","板橋區"
"220034","073-UY","2018/02/20 13:59:49","新北市板橋區中正路236巷16號","121.456478333333","25.0190783333333","6500100","板橋區"
"220105","075-UY","2018/02/20 13:59:34","新北市板橋區莊敬路66號","121.47173","25.0254266666667","6500100","板橋區"
"220017","AAD-861","2018/02/20 13:59:44","新北市板橋區華興街90號","121.456793333333","25.0054983333333","6500100","板橋區"
"220039","120-SR","2018/02/20 13:59:40","新北市板橋區四維路177巷2弄1號","121.463971666667","25.0262383333333","6500100","板橋區"
"247019","500-BY","2018/02/20 13:59:35","新北市蘆洲區民族路422巷35-1號","121.473478333333","25.0936883333333","6501400","蘆洲區"
"247007","341-TH","2018/02/20 13:59:30","新北市三重區永安北路一段5號","121.47595","25.07461","6501400","蘆洲區"
"247009","339-TH","2018/02/20 13:59:45","新北市蘆洲區中山一路40號","121.479685","25.08089","6501400","蘆洲區"
"247003","336-TH","2018/02/20 13:59:44","新北市蘆洲區中華街6號","121.463375","25.0816983333333","6501400","蘆洲區"
"247015","057-VK","2018/02/20 13:59:36","新北市蘆洲區光華路37號","121.469","25.0830833333333","6501400","蘆洲區"
"247005","056-VK","2018/02/20 13:59:48","新北市蘆洲區九芎街115號","121.46554","25.0794766666667","6501400","蘆洲區"
"247013","007-UY","2018/02/20 13:59:49","新北市蘆洲區中正路102號","121.469733333333","25.08436","6501400","蘆洲區"
"247017","001-UY","2018/02/20 13:59:42","新北市蘆洲區民族路327巷81弄1號","121.47548","25.08936","6501400","蘆洲區"
"235005","251-BX","2018/02/20 13:59:33","新北市中和區永貞路241號","121.513195","25.0037983333333","6500300","中和區"
"228005","097-TW","2018/02/20 13:59:36","新北市貢寮區美豐里雞母嶺街52-1號","121.888581666667","25.0685833333333","6502600","貢寮區"
"228004","212-TW","2018/02/20 13:59:46","新北市貢寮區龍崗里嵩陽街35-1號","121.906723333333","25.017535","6502600","貢寮區"
"208004","AAC-292","2018/02/20 13:59:39","新北市金山區重和里三重橋18號","121.589078333333","25.1884433333333","6502700","金山區"
"207002","749-BX","2018/02/20 13:59:38","新北市萬里區溪底里溪底路8號","121.621906666667","25.14792","6502800","萬里區"
"207001","662-BX","2018/02/20 13:59:50","新北市萬里區磺潭里清水18號","121.637853333333","25.1976816666667","6502800","萬里區"
"252005","AAC-283","2018/02/20 13:59:38","新北市三芝區橫山里橫山45-1號","121.534978333333","25.2572216666667","6502100","三芝區"
"236065","105-UM","2018/02/20 13:59:43","新北市土城區和平路54號","121.445165","24.96914","6501300","土城區"
"236041","107-UM","2018/02/20 13:59:45","新北市土城區中央路二段219號","121.441088333333","24.973915","6501300","土城區"
"236075","166-UM","2018/02/20 13:59:41","新北市土城區永寧路32巷10弄23號","121.428883333333","24.9610333333333","6501300","土城區"
"236029","253-BX","2018/02/20 13:59:52","新北市土城區城林路6巷80號","121.438576666667","24.9797383333333","6501300","土城區"
"236024","269-VK","2018/02/20 13:59:41","新北市土城區承天路67號","121.439486666667","24.9635716666667","6501300","土城區"
"236013","270-VK","2018/02/20 13:59:39","新北市土城區城林路6巷80號","121.43843","24.9796933333333","6501300","土城區"
"236034","271-VK","2018/02/20 13:59:38","新北市土城區城林路6巷80號","121.438406666667","24.9797316666667","6501300","土城區"
"236017","401-BY","2018/02/20 13:59:49","新北市土城區城林路6巷80號","121.438531666667","24.9797266666667","6501300","土城區"
"236006","498-BY","2018/02/20 13:59:40","新北市土城區中華路一段40號","121.446201666667","24.9891683333333","6501300","土城區"
"236057","912-UM","2018/02/20 13:59:36","新北市土城區永寧路1號","121.430433333333","24.9647733333333","6501300","土城區"
"236045","913-UM","2018/02/20 13:59:44","新北市土城區城林路6巷80號","121.438311666667","24.9797683333333","6501300","土城區"
"236061","915-UM","2018/02/20 13:59:36","新北市土城區城林路6巷80號","121.438353333333","24.9798183333333","6501300","土城區"
"236054","AAC-216","2018/02/20 13:59:36","新北市土城區城林路6巷80號","121.438336666667","24.9798016666667","6501300","土城區"
"220027","145-BY","2018/02/20 13:59:56","新北市板橋區民權路202巷7弄6號","121.459905","25.014805","6500100","板橋區"
"220028","200-UY","2018/02/20 13:59:37","新北市板橋區大觀路二段265巷1弄14號","121.443513333333","24.9985266666667","6500100","板橋區"
"220030","610-BX","2018/02/20 13:59:43","新北市板橋區滿平街135號","121.42892","24.9882133333333","6500100","板橋區"
"220050","245-BX","2018/02/20 13:59:38","新北市板橋區文化路二段182巷15號","121.472185","25.0266916666667","6500100","板橋區"
"220004","276-BY","2018/02/20 13:59:44","新北市板橋區信義路165號","121.458675","24.99236","6500100","板橋區"
"220020","277-BY","2018/02/20 13:59:34","新北市板橋區篤行路一段10號","121.432123333333","24.9955216666667","6500100","板橋區"
"220019","283-VK","2018/02/20 13:59:52","新北市板橋區忠孝路136號","121.463565","25.002355","6500100","板橋區"
"220043","285-UM","2018/02/20 13:59:39","新北市板橋區文化路二段31號","121.468878333333","25.0248","6500100","板橋區"
"220001","285-VK","2018/02/20 13:59:48","新北市板橋區中山路二段98號","121.475521666667","25.0164983333333","6500100","板橋區"
"220031","286-VK","2018/02/20 13:59:30","新北市板橋區大觀路一段38巷180號","121.441545","25.0046516666667","6500100","板橋區"
"220029","287-VK","2018/02/20 13:59:44","新北市板橋區光華街19巷31號","121.452981666667","25.0118933333333","6500100","板橋區"
"220009","295-UM","2018/02/20 13:59:49","新北市板橋區永豐街118號","121.47635","25.0207383333333","6500100","板橋區"
"220032","296-UM","2018/02/20 13:59:37","新北市板橋區大觀路二段146-2號","121.442088333333","24.9987816666667","6500100","板橋區"
"220023","303-R5","2018/02/20 13:59:42","新北市板橋區館前西路219號","121.4547","25.0085916666667","6500100","板橋區"
"220010","305-R5","2018/02/20 13:59:42","新北市板橋區三民路二段245巷4弄2號","121.480968333333","25.0121733333333","6500100","板橋區"
"220041","307-R5","2018/02/20 13:59:47","新北市板橋區文化路一段104巷17號","121.465181666667","25.018","6500100","板橋區"
"220047","317-R6","2018/02/20 13:59:40","新北市板橋區民有街34號","121.465973333333","25.025515","6500100","板橋區"
"220012","486-VK","2018/02/20 13:59:44","新北市板橋區板新路237號","121.467525","25.0158416666667","6500100","板橋區"
"220038","487-VK","2018/02/20 13:59:51","新北市板橋區文化路二段317號","121.472221666667","25.02977","6500100","板橋區"
"220037","491-VK","2018/02/20 13:59:51","新北市板橋區莊敬路40號","121.472905","25.026965","6500100","板橋區"
"220104","560-BX","2018/02/20 13:59:33","新北市板橋區中正路375巷40號","121.453673333333","25.020545","6500100","板橋區"
"220052","561-BX","2018/02/20 13:59:44","新北市板橋區縣民大道二段279號","121.469945","25.0179416666667","6500100","板橋區"
"220011","609-BX","2018/02/20 13:59:32","新北市板橋區中山路二段138號","121.476408333333","25.0169483333333","6500100","板橋區"
"220040","637-BX","2018/02/20 13:59:35","新北市板橋區雙十路二段47巷46號","121.475056666667","25.0254766666667","6500100","板橋區"
"220005","686-BX","2018/02/20 13:59:45","新北市板橋區館前東路80號","121.461721666667","25.0074116666667","6500100","板橋區"
"220025","687-BX","2018/02/20 13:59:50","新北市板橋區大觀路二段174巷163弄1號","121.441705","25.0030766666667","6500100","板橋區"
"220042","689-BX","2018/02/20 13:59:48","新北市板橋區民生路三段32-6號","121.46728","25.024785","6500100","板橋區"
"220002","741-BX","2018/02/20 13:59:50","新北市板橋區後埔街79號","121.460611666667","25.00545","6500100","板橋區"
"220051","KEA-2699","2018/02/20 13:59:51","新北市板橋區懷德街235巷3號","121.481158333333","25.0285866666667","6500100","板橋區"
"220003","827-TW","2018/02/20 13:59:38","新北市板橋區中山路一段158巷11號","121.466335","25.0115133333333","6500100","板橋區"
"220014","829-TW","2018/02/20 13:59:46","新北市板橋區三民路二段正隆巷12弄12號","121.477925","25.0133033333333","6500100","板橋區"
"220045","830-TW","2018/02/20 13:59:38","新北市板橋區莒光路99號","121.472506666667","25.0240466666667","6500100","板橋區"
"220022","895-R6","2018/02/20 13:59:45","新北市板橋區南雅南路一段131號","121.455035","25.0042433333333","6500100","板橋區"
"220046","AAC-210","2018/02/20 13:59:31","新北市板橋區陽明街162號","121.46351","25.02443","6500100","板橋區"
"220018","AAC-253","2018/02/20 13:59:36","新北市板橋區四川路一段489號","121.45714","24.9971583333333","6500100","板橋區"
