"lineid","car","time","location","longitude","latitude","cityid","cityname"
"234044","148-BY","2018/02/20 14:09:50","新北市永和區得和路326號","121.52326","24.99952","6500400","永和區"
"234066","149-BY","2018/02/20 14:09:52","新北市永和區保平路214巷1弄11號","121.509121666667","25.0057283333333","6500400","永和區"
"234005","207-UY","2018/02/20 14:09:42","新北市永和區中和路309號","121.506775","24.9996433333333","6500400","永和區"
"234036","336-UY","2018/02/20 14:09:45","新北市永和區成功路一段47巷8號","121.52754","25.004035","6500400","永和區"
"234062","337-UY","2018/02/20 14:09:45","新北市永和區永利路152號","121.522475","25.0027783333333","6500400","永和區"
"234086","338-UY","2018/02/20 14:09:52","新北市永和區福和路233號","121.518521666667","25.0074366666667","6500400","永和區"
"234068","552-UM","2018/02/20 14:09:50","新北市永和區福和路232號","121.5192","25.0076166666667","6500400","永和區"
"234015","745-BX","2018/02/20 14:09:39","新北市永和區仁愛路15號","121.514678333333","25.0134083333333","6500400","永和區"
"234028","746-BX","2018/02/20 14:09:42","新北市永和區民權路49巷5弄35號","121.521766666667","24.99792","6500400","永和區"
"234052","KEA-2590","2018/02/20 14:09:47","新北市永和區博愛街33號","121.51862","25.015875","6500400","永和區"
"234012","KEA-2591","2018/02/20 14:09:38","新北市永和區永貞路424號","121.508271666667","25.00863","6500400","永和區"
"234060","AAD-866","2018/02/20 14:09:43","新北市永和區得和路30號","121.5156","25.00026","6500400","永和區"
"234078","847-RS","2018/02/20 14:09:36","新北市永和區國中路101號","121.52423","25.0062466666667","6500400","永和區"
"234040","862-TW","2018/02/20 14:09:53","新北市永和區雙和街24號","121.50897","25.00233","6500400","永和區"
"234048","863-TW","2018/02/20 14:09:50","新北市永和區環河西路二段89號","121.506653333333","25.0149016666667","6500400","永和區"
"234025","9371-KE","2018/02/20 14:09:41","新北市永和區安樂路453號","121.514296666667","25.0049966666667","6500400","永和區"
"248017","225-UY","2018/02/20 14:09:52","新北市五股區民義路一段312-1號","121.423823333333","25.0943633333333","6501500","五股區"
"234022","9380-KE","2018/02/20 14:09:47","新北市永和區復興街2巷2號","121.515656666667","25.01271","6500400","永和區"
"234076","969-R7","2018/02/20 14:09:41","新北市永和區民族街67巷18號","121.519493333333","24.99705","6500400","永和區"
"234072","AAC-211","2018/02/20 14:09:43","新北市永和區竹林路201巷24弄4號","121.522215","25.00961","6500400","永和區"
"234001","AAC-295","2018/02/20 14:09:32","新北市永和區中正路708號","121.516038333333","25.0099633333333","6500400","永和區"
"231029","001-UM","2018/02/20 14:09:51","新北市新店區安康路二段161號","121.510255","24.9594416666667","6500600","新店區"
"231002","002-UM","2018/02/20 14:09:45","新北市新店區中正路487號","121.533785","24.98211","6500600","新店區"
"231028","046-UY","2018/02/20 14:09:48","新北市新店區安和路二段233號","121.517055","24.976255","6500600","新店區"
"231030","047-UY","2018/02/20 14:09:31","新北市新店區安民街65巷21-2號","121.515255","24.9674433333333","6500600","新店區"
"231018","107-UY","2018/02/20 14:09:31","新北市新店區中央路95巷6號","121.531556666667","24.97493","6500600","新店區"
"231012","108-UY","2018/02/20 14:09:39","新北市新店區五峰路63巷8弄44號","121.547993333333","24.9686","6500600","新店區"
"231020","187-VK","2018/02/20 14:09:47","新北市新店區屈尺路161-1號","121.542461666667","24.9231083333333","6500600","新店區"
"231015","KEA-2219","2018/02/20 14:09:39","新北市新店區中生路170巷18號","121.571986666667","24.9491066666667","6500600","新店區"
"231023","AAD-862","2018/02/20 14:09:37","新北市新店區文中路40號","121.539621666667","24.95656","6500600","新店區"
"231025","3713-VJ","2018/02/20 14:09:35","新北市新店區二十張路129巷5弄7號","121.536698333333","24.9789016666667","6500600","新店區"
"231024","4716-K9","2018/02/20 14:09:43","新北市新店區力行路96號","121.538053333333","24.9668983333333","6500600","新店區"
"231038","4715-K9","2018/02/20 14:09:36","新北市新店區溪洲路6巷28號","121.53397","24.9623483333333","6500600","新店區"
"231036","512-UM","2018/02/20 14:09:33","新北市新店區安祥路109巷1弄89號","121.478763333333","24.9603366666667","6500600","新店區"
"231035","515-UM","2018/02/20 14:09:52","新北市新店區安和路二段113巷3弄5號","121.51798","24.9699233333333","6500600","新店區"
"231001","619-UM","2018/02/20 14:09:42","新北市新店區中華路52號","121.539656666667","24.968525","6500600","新店區"
"231003","641-BX","2018/02/20 14:09:38","新北市新店區中興路一段180號","121.543236666667","24.9648916666667","6500600","新店區"
"231034","645-TV","2018/02/20 14:09:47","新北市新店區黎明路3號","121.503343333333","24.9523316666667","6500600","新店區"
"231013","719-UM","2018/02/20 14:09:51","新北市新店區北新路三段65巷34弄18號","121.540108333333","24.9816","6500600","新店區"
"231032","720-UM","2018/02/20 14:09:39","新北市新店區永業路45號","121.532315","24.9551733333333","6500600","新店區"
"231005","897-TW","2018/02/20 14:09:35","新北市新店區中興路三段238號","121.543201666667","24.98347","6500600","新店區"
"231006","898-TW","2018/02/20 14:09:42","新北市新店區北宜路二段415號","121.559961666667","24.954485","6500600","新店區"
"231004","899-TW","2018/02/20 14:09:48","新北市新店區北新路二段122號","121.54306","24.9744483333333","6500600","新店區"
"231037","AKT-0513","2018/02/20 14:09:40","新北市新店區安康路二段341巷50號","121.496651666667","24.9543216666667","6500600","新店區"
"235030","003-UY","2018/02/20 14:09:40","新北市中和區廣福路38號","121.50439","25.0021983333333","6500300","中和區"
"235028","005-UY","2018/02/20 14:09:42","新北市中和區泰和街36號","121.499266666667","25.0001433333333","6500300","中和區"
"235027","006-UY","2018/02/20 14:09:32","新北市中和區連城路301號","121.48984","24.9963033333333","6500300","中和區"
"235020","096-UM","2018/02/20 14:09:47","新北市中和區新民街112號","121.47947","25.0080516666667","6500300","中和區"
"235003","097-UM","2018/02/20 14:09:41","新北市中和區秀峰街89號","121.52123","24.9902916666667","6500300","中和區"
"235029","098-UM","2018/02/20 14:09:40","新北市中和區中山路二段116巷5弄5號","121.502208333333","25.0042066666667","6500300","中和區"
"235004","150-BY","2018/02/20 14:09:50","新北市中和區保健路46巷26弄10號","121.508155","24.9955216666667","6500300","中和區"
"235022","151-BY","2018/02/20 14:09:52","新北市中和區連城路525-7號","121.481023333333","24.9950283333333","6500300","中和區"
"235019","183-VK","2018/02/20 14:09:46","新北市中和區德光路113號","121.468145","25.0032166666667","6500300","中和區"
"235002","185-VK","2018/02/20 14:09:46","新北市中和區大仁街10巷18號","121.518646666667","24.9925566666667","6500300","中和區"
"235013","186-VK","2018/02/20 14:09:50","新北市中和區景新街237號","121.508156666667","24.994525","6500300","中和區"
"235008","293-VK","2018/02/20 14:09:45","新北市中和區中興街214號","121.499583333333","24.9900633333333","6500300","中和區"
"235036","301-VK","2018/02/20 14:09:53","新北市中和區中山路二段3巷22弄1號","121.506508333333","25.0053583333333","6500300","中和區"
"235007","352-BY","2018/02/20 14:09:43","新北市中和區景平路120號","121.519308333333","24.9917616666667","6500300","中和區"
"235032","377-QA","2018/02/20 14:09:10","新北市中和區連勝街36號","121.498093333333","24.9976716666667","6500300","中和區"
"235025","378-QA","2018/02/20 14:09:49","新北市中和區員山路144號","121.481203333333","24.9965933333333","6500300","中和區"
"235035","269-TV","2018/02/20 14:09:42","新北市中和區中正路774號","121.485281666667","25.000145","6500300","中和區"
"235014","4979-A6","2018/02/20 14:09:45","新北市中和區復興路262-1號","121.503441666667","24.9902566666667","6500300","中和區"
"235033","4980-A6","2018/02/20 14:09:36","新北市中和區中和路165巷3號","121.502878333333","25.000155","6500300","中和區"
"235006","551-UM","2018/02/20 14:09:46","新北市中和區自立路117巷3號","121.522341666667","24.9945716666667","6500300","中和區"
"235034","558-UM","2018/02/20 14:09:52","新北市中和區中和路124號","121.503241666667","24.9997266666667","6500300","中和區"
"235009","565-BX","2018/02/20 14:09:52","新北市中和區景新街467巷15弄11號","121.513616666667","24.9886916666667","6500300","中和區"
"235018","640-BX","2018/02/20 14:09:32","新北市中和區國光街107巷2弄29號","121.469366666667","24.9989633333333","6500300","中和區"
"235024","647-TV","2018/02/20 14:09:30","新北市中和區中山路三段113號","121.474655","25.006065","6500300","中和區"
"235011","732-UM","2018/02/20 14:09:50","新北市中和區興南路一段52號","121.510775","24.99077","6500300","中和區"
"235010","733-UM","2018/02/20 14:09:44","新北市中和區華新街136號","121.508023333333","24.982545","6500300","中和區"
"235026","800-TS","2018/02/20 14:09:46","新北市中和區中山路二段348巷8號","121.492973333333","25.003015","6500300","中和區"
"235021","801-TS","2018/02/20 14:09:47","新北市中和區民利街50號","121.479348333333","24.998785","6500300","中和區"
"235016","805-TS","2018/02/20 14:09:37","新北市中和區興南路二段116號","121.504615","24.98386","6500300","中和區"
"235012","896-TW","2018/02/20 14:09:49","新北市中和區工專路151號","121.508603333333","24.978945","6500300","中和區"
"235017","900-TW","2018/02/20 14:09:35","新北市中和區民德路274號","121.467583333333","24.9964883333333","6500300","中和區"
"235015","157-BY","2018/02/20 14:09:46","新北市中和區仁愛街36巷45號","121.511333333333","24.9865783333333","6500300","中和區"
"235001","AAC-213","2018/02/20 14:09:43","新北市中和區秀朗路三段60巷42號","121.524906666667","24.9949583333333","6500300","中和區"
"235023","AAC-215","2018/02/20 14:09:37","新北市中和區圓通路296巷31弄1號","121.488598333333","24.9904616666667","6500300","中和區"
"220016","013-TV","2018/02/20 14:09:51","新北市板橋區翠華街6巷52號","121.481386666667","25.0248683333333","6500100","板橋區"
"220013","072-UY","2018/02/20 14:09:41","新北市板橋區民族路151巷77號","121.469501666667","25.00872","6500100","板橋區"
"220034","073-UY","2018/02/20 14:09:46","新北市板橋區中正路216巷82號","121.458178333333","25.01901","6500100","板橋區"
"220105","075-UY","2018/02/20 14:09:53","新北市板橋區雙十路三段9號","121.471706666667","25.030325","6500100","板橋區"
"220017","AAD-861","2018/02/20 14:09:44","新北市板橋區華興街49號","121.45776","25.0046383333333","6500100","板橋區"
"220039","120-SR","2018/02/20 14:09:40","新北市板橋區裕民街41號","121.461566666667","25.0286233333333","6500100","板橋區"
"247021","893-R6","2018/02/20 14:09:51","新北市蘆洲區三民路165號","121.471371666667","25.0869483333333","6501400","蘆洲區"
"247019","500-BY","2018/02/20 14:09:38","新北市蘆洲區民族路426巷42號","121.473083333333","25.0933233333333","6501400","蘆洲區"
"247007","341-TH","2018/02/20 14:09:50","新北市蘆洲區中山一路266號","121.47178","25.079615","6501400","蘆洲區"
"247009","339-TH","2018/02/20 14:09:45","新北市蘆洲區信義路178號","121.479298333333","25.08407","6501400","蘆洲區"
"247001","337-TH","2018/02/20 14:09:38","新北市蘆洲區永平街55號","121.457718333333","25.0913933333333","6501400","蘆洲區"
"247003","336-TH","2018/02/20 14:09:44","新北市蘆洲區長安街108巷5弄1號","121.461231666667","25.0817266666667","6501400","蘆洲區"
"247015","057-VK","2018/02/20 14:09:38","新北市蘆洲區光華路46巷48號","121.467533333333","25.08469","6501400","蘆洲區"
"247005","056-VK","2018/02/20 14:09:48","新北市蘆洲區永安南路二段16巷17弄33號","121.467123333333","25.0778166666667","6501400","蘆洲區"
"247011","053-VK","2018/02/20 14:09:46","新北市蘆洲區信義路276號","121.477913333333","25.087115","6501400","蘆洲區"
"247013","007-UY","2018/02/20 14:09:46","新北市蘆洲區忠孝路98號","121.471355","25.08592","6501400","蘆洲區"
"247023","002-UY","2018/02/20 14:09:40","新北市蘆洲區光榮路68號","121.463195","25.0887066666667","6501400","蘆洲區"
"247017","001-UY","2018/02/20 14:09:42","新北市蘆洲區復興路111-7號","121.476808333333","25.0884416666667","6501400","蘆洲區"
"235005","251-BX","2018/02/20 14:09:53","新北市中和區中安街178巷3弄2號","121.510631666667","24.9991216666667","6500300","中和區"
"228005","097-TW","2018/02/20 14:09:36","新北市雙溪區三港里雙澳路100號","121.889318333333","25.05588","6502600","貢寮區"
"228004","212-TW","2018/02/20 14:09:46","新北市貢寮區雙玉里下雙溪街8號","121.916123333333","25.0159666666667","6502600","貢寮區"
"208004","AAC-292","2018/02/20 14:09:38","新北市金山區山城路8號","121.59518","25.2015766666667","6502700","金山區"
"207002","749-BX","2018/02/20 14:09:38","新北市萬里區溪底里瑞泉路20號","121.605235","25.1475233333333","6502800","萬里區"
"207001","662-BX","2018/02/20 14:09:50","新北市萬里區磺潭里清水18號","121.637835","25.1976683333333","6502800","萬里區"
"252005","AAC-283","2018/02/20 14:09:38","新北市三芝區橫山里橫山8-1號","121.536173333333","25.2623233333333","6502100","三芝區"
"236065","105-UM","2018/02/20 14:09:43","新北市土城區明德路一段385-1號","121.45273","24.979755","6501300","土城區"
"236041","107-UM","2018/02/20 14:09:45","新北市土城區裕生路81號","121.44692","24.9842116666667","6501300","土城區"
"236075","166-UM","2018/02/20 14:09:41","新北市土城區永安街15號","121.43381","24.96483","6501300","土城區"
"236029","253-BX","2018/02/20 14:09:32","新北市土城區城林路6巷80號","121.438563333333","24.9797383333333","6501300","土城區"
"236024","269-VK","2018/02/20 14:09:41","新北市土城區承天路18號","121.439463333333","24.9635483333333","6501300","土城區"
"236013","270-VK","2018/02/20 14:09:39","新北市土城區學府路一段198號","121.453031666667","24.9858766666667","6501300","土城區"
"236034","271-VK","2018/02/20 14:09:38","新北市土城區青雲路449號","121.458721666667","24.9748583333333","6501300","土城區"
"236017","401-BY","2018/02/20 14:09:48","新北市土城區城林路6巷80號","121.43846","24.9797233333333","6501300","土城區"
"236006","498-BY","2018/02/20 14:09:40","新北市土城區中華路一段100號","121.444348333333","24.9869083333333","6501300","土城區"
"236057","912-UM","2018/02/20 14:09:36","新北市土城區中央路四段38號","121.420795","24.96086","6501300","土城區"
"236045","913-UM","2018/02/20 14:09:44","新北市土城區明德路一段365-1號","121.453546666667","24.97905","6501300","土城區"
"236061","915-UM","2018/02/20 14:09:36","新北市土城區金城路二段204號","121.454998333333","24.98189","6501300","土城區"
"236054","AAC-216","2018/02/20 14:09:36","新北市土城區中華路二段82-1號","121.438791666667","24.97598","6501300","土城區"
"220027","145-BY","2018/02/20 14:09:38","新北市板橋區民權路202巷14弄1號","121.46065","25.01599","6500100","板橋區"
"220028","200-UY","2018/02/20 14:09:37","新北市板橋區大觀路二段7巷43號","121.448335","25.003365","6500100","板橋區"
"220030","610-BX","2018/02/20 14:09:43","新北市板橋區溪崑二街63號","121.427976666667","24.990325","6500100","板橋區"
"220050","245-BX","2018/02/20 14:09:38","新北市板橋區民生路二段161巷1號","121.469871666667","25.0198283333333","6500100","板橋區"
"220004","276-BY","2018/02/20 14:09:44","新北市板橋區信義路110巷2弄14號","121.457736666667","24.9927366666667","6500100","板橋區"
"220020","277-BY","2018/02/20 14:09:39","新北市板橋區金門街369巷81號","121.428486666667","24.9826783333333","6500100","板橋區"
"220019","283-VK","2018/02/20 14:09:52","新北市板橋區重慶路325號","121.46403","24.9984766666667","6500100","板橋區"
"220043","285-UM","2018/02/20 14:09:39","新北市板橋區光武街151號","121.465553333333","25.029525","6500100","板橋區"
"220001","285-VK","2018/02/20 14:09:49","新北市板橋區懷仁街14巷5號","121.475883333333","25.019715","6500100","板橋區"
"220031","286-VK","2018/02/20 14:09:30","新北市板橋區大觀路二段174巷176弄5號","121.442453333333","25.00337","6500100","板橋區"
"220029","287-VK","2018/02/20 14:09:52","新北市板橋區南雅西路二段156巷14號","121.452321666667","25.0131033333333","6500100","板橋區"
"220009","295-UM","2018/02/20 14:09:44","新北市板橋區中山路二段264號","121.47898","25.018395","6500100","板橋區"
"220032","296-UM","2018/02/20 14:09:47","新北市板橋區篤行路二段92-1號","121.431408333333","24.9916416666667","6500100","板橋區"
"220023","303-R5","2018/02/20 14:09:42","新北市板橋區大智街26號","121.455471666667","25.014965","6500100","板橋區"
"220010","305-R5","2018/02/20 14:09:44","新北市板橋區三民路二段居仁巷2弄17號","121.479735","25.012915","6500100","板橋區"
"220041","307-R5","2018/02/20 14:09:47","新北市板橋區文化路二段225巷35號","121.469446666667","25.0283616666667","6500100","板橋區"
"220047","317-R6","2018/02/20 14:09:39","新北市板橋區自由路51巷10號","121.46503","25.0234883333333","6500100","板橋區"
"220012","486-VK","2018/02/20 14:09:41","新北市板橋區民生路一段33號","121.476363333333","25.012025","6500100","板橋區"
"220038","487-VK","2018/02/20 14:09:51","新北市板橋區文化路二段389號","121.473458333333","25.0313083333333","6500100","板橋區"
"241031","AAD-800","2018/02/20 14:01:10","新北市板橋區民生路二段89-6號","121.47056","25.0193416666667","6500200","三重區"
"220037","491-VK","2018/02/20 14:09:30","新北市板橋區文化路二段182巷3弄62號","121.472676666667","25.0287533333333","6500100","板橋區"
"220104","560-BX","2018/02/20 14:09:53","新北市板橋區瑞安街31巷10號","121.456008333333","25.022615","6500100","板橋區"
"220052","561-BX","2018/02/20 14:09:24","新北市板橋區介壽街61號","121.4693","25.01956","6500100","板橋區"
"220011","609-BX","2018/02/20 14:09:32","新北市板橋區三民路二段202-5號","121.478986666667","25.0145066666667","6500100","板橋區"
"220040","637-BX","2018/02/20 14:09:43","新北市板橋區縣民大道247巷37號","121.482061666667","25.0267733333333","6500100","板橋區"
"220005","686-BX","2018/02/20 14:09:43","新北市板橋區重慶路293號","121.463255","24.9992166666667","6500100","板橋區"
"220025","687-BX","2018/02/20 14:09:37","新北市板橋區龍興街56號","121.443356666667","25.0012966666667","6500100","板橋區"
"220042","689-BX","2018/02/20 14:09:47","新北市板橋區民生路三段179號","121.465505","25.0272816666667","6500100","板橋區"
"220002","741-BX","2018/02/20 14:09:50","新北市板橋區重慶路89巷6號","121.462635","25.006465","6500100","板橋區"
"220051","KEA-2699","2018/02/20 14:09:31","新北市板橋區田單街51號","121.482675","25.0279233333333","6500100","板橋區"
"220003","827-TW","2018/02/20 14:09:38","新北市板橋區中山路一段146號","121.463871666667","25.01095","6500100","板橋區"
"220014","829-TW","2018/02/20 14:09:54","新北市板橋區民享街116巷2弄11號","121.477461666667","25.0154733333333","6500100","板橋區"
"220045","830-TW","2018/02/20 14:09:38","新北市板橋區雙十路二段47巷4號","121.476191666667","25.0261283333333","6500100","板橋區"
"220022","895-R6","2018/02/20 14:09:44","新北市板橋區林園街54號","121.453736666667","25.01067","6500100","板橋區"
"220046","AAC-210","2018/02/20 14:09:51","新北市板橋區新海路135巷2號","121.459978333333","25.022895","6500100","板橋區"
"220018","AAC-253","2018/02/20 14:09:35","新北市板橋區忠孝路102號","121.462026666667","25.0021283333333","6500100","板橋區"
