"lineid","car","time","location","longitude","latitude","cityid","cityname"
"234066","149-BY","2018/02/20 14:19:51","新北市永和區保平路292巷13弄16號","121.5066","25.0055583333333","6500400","永和區"
"234005","207-UY","2018/02/20 14:19:42","新北市永和區永貞路372號","121.50992","25.0068316666667","6500400","永和區"
"234036","336-UY","2018/02/20 14:19:45","新北市永和區成功路一段77號","121.526923333333","25.00323","6500400","永和區"
"234062","337-UY","2018/02/20 14:19:50","新北市永和區得和路108號","121.518243333333","25.0001233333333","6500400","永和區"
"234086","338-UY","2018/02/20 14:19:45","新北市永和區中正路659號","121.514708333333","25.010205","6500400","永和區"
"234068","552-UM","2018/02/20 14:19:50","新北市永和區永安街7巷7號","121.518481666667","25.0060966666667","6500400","永和區"
"234015","745-BX","2018/02/20 14:19:39","新北市永和區仁愛路89號","121.513061666667","25.01308","6500400","永和區"
"234028","746-BX","2018/02/20 14:19:42","新北市永和區民族街67巷11號","121.518993333333","24.9972183333333","6500400","永和區"
"234052","KEA-2590","2018/02/20 14:19:47","新北市永和區光復街2巷16弄1號","121.517135","25.0164","6500400","永和區"
"234060","AAD-866","2018/02/20 14:19:53","新北市永和區安樂路194巷22號","121.51638","25.0009983333333","6500400","永和區"
"234078","847-RS","2018/02/20 14:19:36","新北市永和區國中路132巷16號","121.524058333333","25.007655","6500400","永和區"
"234040","862-TW","2018/02/20 14:19:33","新北市中和區安平路186號","121.51305","24.9990366666667","6500400","永和區"
"234048","863-TW","2018/02/20 14:19:50","新北市永和區新生路2-7號","121.509471666667","25.0169416666667","6500400","永和區"
"234025","9371-KE","2018/02/20 14:19:41","新北市永和區安樂路198巷4弄2號","121.515571666667","25.0020016666667","6500400","永和區"
"234010","9373-KE","2018/02/20 14:19:37","新北市永和區仁愛路352巷112弄15號","121.501086666667","25.0085916666667","6500400","永和區"
"248017","225-UY","2018/02/20 14:18:52","新北市五股區壟路14-8號","121.415368333333","25.0864733333333","6501500","五股區"
"234022","9380-KE","2018/02/20 14:19:47","新北市永和區光復街2巷16弄39號","121.518348333333","25.0163366666667","6500400","永和區"
"234076","969-R7","2018/02/20 14:19:41","新北市永和區民族街81巷50號","121.519958333333","24.9965716666667","6500400","永和區"
"234072","AAC-211","2018/02/20 14:19:43","新北市永和區福和路14號","121.524291666667","25.0084116666667","6500400","永和區"
"234001","AAC-295","2018/02/20 14:19:52","新北市永和區自強街39號","121.516068333333","25.00809","6500400","永和區"
"231029","001-UM","2018/02/20 14:19:31","新北市新店區安康路二段161號","121.510256666667","24.9594716666667","6500600","新店區"
"231002","002-UM","2018/02/20 14:19:46","新北市新店區中央路22號","121.53333","24.9786683333333","6500600","新店區"
"231028","046-UY","2018/02/20 14:19:48","新北市新店區安和路二段27號","121.518045","24.9676583333333","6500600","新店區"
"231030","047-UY","2018/02/20 14:19:51","新北市新店區安民街42號","121.515951666667","24.9653683333333","6500600","新店區"
"231018","107-UY","2018/02/20 14:19:34","新北市新店區中央四街94號","121.525696666667","24.9761666666667","6500600","新店區"
"231012","108-UY","2018/02/20 14:19:39","新北市新店區五峰路61巷2號","121.54741","24.9700766666667","6500600","新店區"
"231020","187-VK","2018/02/20 14:19:47","新北市新店區新烏路三段69號","121.554653333333","24.9035666666667","6500600","新店區"
"231015","KEA-2219","2018/02/20 14:19:39","新北市新店區北宜路二段579巷3號","121.565075","24.9533416666667","6500600","新店區"
"231023","AAD-862","2018/02/20 14:19:37","新北市新店區光明街73號","121.53889","24.960615","6500600","新店區"
"231027","3712-VJ","2018/02/20 14:19:41","新北市新店區安和路三段4巷1-3號","121.518596666667","24.980675","6500600","新店區"
"231025","3713-VJ","2018/02/20 14:19:35","新北市新店區民族路161號","121.53788","24.9769066666667","6500600","新店區"
"231024","4716-K9","2018/02/20 14:19:43","新北市新店區力行路96號","121.53819","24.9670266666667","6500600","新店區"
"231038","4715-K9","2018/02/20 14:19:36","新北市新店區溪洲路8巷2-1號","121.533516666667","24.9614333333333","6500600","新店區"
"231036","512-UM","2018/02/20 14:19:33","新北市新店區安祥路109巷59號","121.477116666667","24.9598116666667","6500600","新店區"
"231035","515-UM","2018/02/20 14:19:51","新北市新店區碧安街36號","121.517456666667","24.9690583333333","6500600","新店區"
"231001","619-UM","2018/02/20 14:19:42","新北市新店區北新路一段90號","121.541915","24.9685916666667","6500600","新店區"
"231003","641-BX","2018/02/20 14:19:39","新北市新店區中興路一段216號","121.543818333333","24.9658166666667","6500600","新店區"
"231034","645-TV","2018/02/20 14:19:47","新北市新店區黎明路3號","121.503328333333","24.95235","6500600","新店區"
"231013","719-UM","2018/02/20 14:19:51","新北市新店區建國路196號","121.537765","24.9804466666667","6500600","新店區"
"231032","720-UM","2018/02/20 14:19:39","新北市新店區碧潭路33-3號","121.533226666667","24.9547933333333","6500600","新店區"
"231005","897-TW","2018/02/20 14:19:35","新北市新店區中興路三段137號","121.54464","24.9797733333333","6500600","新店區"
"231006","898-TW","2018/02/20 14:19:42","新北市新店區北宜路二段599號","121.568163333333","24.9556183333333","6500600","新店區"
"231004","899-TW","2018/02/20 14:19:36","新北市新店區中正路234號","121.539843333333","24.9729116666667","6500600","新店區"
"231037","AKT-0513","2018/02/20 14:19:40","新北市新店區車子路67號","121.503605","24.9513383333333","6500600","新店區"
"235030","003-UY","2018/02/20 14:19:40","新北市中和區中和路151號","121.502568333333","24.9999083333333","6500300","中和區"
"235028","005-UY","2018/02/20 14:19:42","新北市中和區中和路49號","121.500156666667","25.0013516666667","6500300","中和區"
"235027","006-UY","2018/02/20 14:19:52","新北市中和區中正路262號","121.49544","24.9943816666667","6500300","中和區"
"235020","096-UM","2018/02/20 14:19:47","新北市中和區民富街62號","121.476581666667","25.00744","6500300","中和區"
"235003","097-UM","2018/02/20 14:19:44","新北市中和區秀峰街119巷8弄7號","121.519171666667","24.989865","6500300","中和區"
"235029","098-UM","2018/02/20 14:19:40","新北市中和區中山路二段64巷14弄22號","121.503986666667","25.0060816666667","6500300","中和區"
"235004","150-BY","2018/02/20 14:19:50","新北市中和區安平路101號","121.511245","24.9972233333333","6500300","中和區"
"235022","151-BY","2018/02/20 14:19:52","新北市中和區員山路36巷16-2號","121.48527","24.99165","6500300","中和區"
"235019","183-VK","2018/02/20 14:19:46","新北市中和區中山路三段179巷5號","121.473085","25.0058766666667","6500300","中和區"
"235002","185-VK","2018/02/20 14:19:46","新北市中和區大仁街10巷9弄29號","121.519236666667","24.9929433333333","6500300","中和區"
"235013","186-VK","2018/02/20 14:19:30","新北市中和區景新街230巷2號","121.508128333333","24.99414","6500300","中和區"
"235031","255-BX","2018/02/20 14:19:40","新北市中和區新生街152號","121.48365","25.0005866666667","6500300","中和區"
"235008","293-VK","2018/02/20 14:19:45","新北市中和區中興街266巷1號","121.498413333333","24.9878033333333","6500300","中和區"
"235036","301-VK","2018/02/20 14:19:33","新北市中和區中和路115號","121.50153","25.000345","6500300","中和區"
"235007","352-BY","2018/02/20 14:19:43","新北市中和區景平路296號","121.512985","24.9928116666667","6500300","中和區"
"235032","377-QA","2018/02/20 14:19:15","新北市中和區圓通路158巷5弄1號","121.49785","24.9963583333333","6500300","中和區"
"235025","378-QA","2018/02/20 14:19:49","新北市中和區民利街70號","121.478595","24.99836","6500300","中和區"
"235035","269-TV","2018/02/20 14:19:42","新北市中和區立德街13-9號","121.489455","25.006575","6500300","中和區"
"235014","4979-A6","2018/02/20 14:19:45","新北市中和區景安路208巷21號","121.502506666667","24.991825","6500300","中和區"
"235033","4980-A6","2018/02/20 14:19:35","新北市中和區福美路269號","121.498163333333","25.0050766666667","6500300","中和區"
"235006","551-UM","2018/02/20 14:19:45","新北市永和區民有街25巷2號","121.517383333333","24.9960933333333","6500300","中和區"
"235034","558-UM","2018/02/20 14:19:52","新北市中和區連城路34號","121.49851","25.0020683333333","6500300","中和區"
"235009","565-BX","2018/02/20 14:19:52","新北市中和區景新街423巷33弄14號","121.513683333333","24.990325","6500300","中和區"
"235018","640-BX","2018/02/20 14:19:52","新北市中和區國光街109巷2弄6號","121.46947","25.0006316666667","6500300","中和區"
"235024","647-TV","2018/02/20 14:19:50","新北市中和區員山路342-1號","121.481123333333","25.00345","6500300","中和區"
"235011","732-UM","2018/02/20 14:19:50","新北市中和區景平路239巷36號","121.50833","24.992175","6500300","中和區"
"235010","733-UM","2018/02/20 14:19:47","新北市中和區忠孝街2巷8-1號","121.5101","24.9820716666667","6500300","中和區"
"235026","800-TS","2018/02/20 14:19:46","新北市中和區中山路二段488-1號","121.487506666667","25.00488","6500300","中和區"
"235021","801-TS","2018/02/20 14:19:47","新北市中和區員山路425號","121.48094","25.0034516666667","6500300","中和區"
"235016","805-TS","2018/02/20 14:19:41","新北市中和區興南路二段142巷17弄2號","121.503433333333","24.9834","6500300","中和區"
"235012","896-TW","2018/02/20 14:19:49","新北市中和區華新街109巷1弄1號","121.50882","24.9826866666667","6500300","中和區"
"235017","900-TW","2018/02/20 14:19:41","新北市中和區民德路212號","121.46823","24.99818","6500300","中和區"
"235015","157-BY","2018/02/20 14:19:46","新北市中和區興南路一段55-2號","121.510686666667","24.99004","6500300","中和區"
"235001","AAC-213","2018/02/20 14:19:42","新北市中和區秀朗路三段50巷29弄1號","121.524208333333","24.995125","6500300","中和區"
"235023","AAC-215","2018/02/20 14:19:37","新北市中和區錦和路195巷1弄2號","121.491206666667","24.9909116666667","6500300","中和區"
"220016","013-TV","2018/02/20 14:19:41","新北市板橋區翠華街6巷123號","121.481803333333","25.02457","6500100","板橋區"
"220013","072-UY","2018/02/20 14:19:41","新北市板橋區國泰街76巷34號","121.467105","25.0071633333333","6500100","板橋區"
"220034","073-UY","2018/02/20 14:19:36","新北市板橋區中正路250巷28號","121.456616666667","25.0194483333333","6500100","板橋區"
"220105","075-UY","2018/02/20 14:19:38","新北市板橋區雙十路三段68巷1號","121.470483333333","25.0321433333333","6500100","板橋區"
"220017","AAD-861","2018/02/20 14:19:44","新北市板橋區大明街20巷25-3號","121.458716666667","25.0036233333333","6500100","板橋區"
"220039","120-SR","2018/02/20 14:19:43","新北市板橋區四維路349巷15號","121.461668333333","25.0295733333333","6500100","板橋區"
"247021","893-R6","2018/02/20 14:19:51","新北市蘆洲區中正路482號","121.462988333333","25.0957133333333","6501400","蘆洲區"
"247019","500-BY","2018/02/20 14:18:55","新北市蘆洲區民族路440號","121.47319","25.0919416666667","6501400","蘆洲區"
"247007","341-TH","2018/02/20 14:19:50","新北市蘆洲區民生街15號","121.475863333333","25.0791366666667","6501400","蘆洲區"
"247009","339-TH","2018/02/20 14:19:45","新北市蘆洲區三民路26巷29號","121.476898333333","25.082865","6501400","蘆洲區"
"247001","337-TH","2018/02/20 14:19:38","新北市蘆洲區永樂街106號","121.455991666667","25.0887583333333","6501400","蘆洲區"
"247003","336-TH","2018/02/20 14:19:44","新北市蘆洲區中原路12巷24號","121.460805","25.0839866666667","6501400","蘆洲區"
"247015","057-VK","2018/02/20 14:19:15","新北市蘆洲區光華路100號","121.467355","25.0828933333333","6501400","蘆洲區"
"247005","056-VK","2018/02/20 14:19:48","新北市蘆洲區永安南路二段130號","121.462763333333","25.078475","6501400","蘆洲區"
"247011","053-VK","2018/02/20 14:19:46","新北市蘆洲區民權路3巷26號","121.47524","25.08547","6501400","蘆洲區"
"247013","007-UY","2018/02/20 14:19:46","新北市蘆洲區中山一路212號","121.473218333333","25.0806083333333","6501400","蘆洲區"
"247023","002-UY","2018/02/20 14:19:40","新北市蘆洲區長榮路711號","121.461128333333","25.0929483333333","6501400","蘆洲區"
"247017","001-UY","2018/02/20 14:19:42","新北市蘆洲區民權路75號","121.473453333333","25.0885166666667","6501400","蘆洲區"
"235005","251-BX","2018/02/20 14:19:53","新北市中和區中安街192號","121.51138","24.9992733333333","6500300","中和區"
"228005","097-TW","2018/02/20 14:19:36","新北市貢寮區美豐里土地公嶺54號","121.894933333333","25.0652033333333","6502600","貢寮區"
"228004","212-TW","2018/02/20 14:19:46","新北市貢寮區雙玉里田寮洋街39號","121.92488","25.0138233333333","6502600","貢寮區"
"208004","AAC-292","2018/02/20 14:19:38","新北市金山區重和里三重橋1-1號","121.595671666667","25.1973266666667","6502700","金山區"
"207002","749-BX","2018/02/20 14:19:38","新北市萬里區溪底里溪底路21號","121.6128","25.1492","6502800","萬里區"
"207001","662-BX","2018/02/20 14:19:50","新北市萬里區磺潭里清水18號","121.637901666667","25.1975583333333","6502800","萬里區"
"252005","AAC-283","2018/02/20 14:19:38","新北市三芝區橫山里大坑34號","121.527563333333","25.2560766666667","6502100","三芝區"
"236065","105-UM","2018/02/20 14:19:50","新北市土城區明德路一段128巷1號","121.463466666667","24.9791533333333","6501300","土城區"
"236041","107-UM","2018/02/20 14:19:45","新北市土城區裕生路21巷6弄24號","121.448513333333","24.9866133333333","6501300","土城區"
"236075","166-UM","2018/02/20 14:19:43","新北市土城區永平街2巷10號","121.426875","24.9631483333333","6501300","土城區"
"236029","253-BX","2018/02/20 14:19:52","新北市土城區順風路64號","121.440203333333","24.9773866666667","6501300","土城區"
"236024","269-VK","2018/02/20 14:19:41","新北市土城區承天路67號","121.43957","24.9634616666667","6501300","土城區"
"236013","270-VK","2018/02/20 14:19:39","新北市土城區青雲路39巷7號","121.460313333333","24.9874183333333","6501300","土城區"
"236034","271-VK","2018/02/20 14:19:38","新北市土城區青雲路451巷8弄12號","121.459531666667","24.9741816666667","6501300","土城區"
"236017","401-BY","2018/02/20 14:19:48","新北市土城區明德路一段375-1號","121.455115","24.9780683333333","6501300","土城區"
"236057","912-UM","2018/02/20 14:19:36","新北市土城區中央路四段286-1號","121.414331666667","24.95632","6501300","土城區"
"236045","913-UM","2018/02/20 14:19:44","新北市土城區青雲路322巷2弄2號","121.458491666667","24.9771666666667","6501300","土城區"
"236061","915-UM","2018/02/20 14:19:36","新北市土城區延壽路44巷15號","121.471533333333","24.9929583333333","6501300","土城區"
"236054","AAC-216","2018/02/20 14:19:36","新北市土城區中華路二段98號","121.438085","24.97443","6501300","土城區"
"220027","145-BY","2018/02/20 14:19:48","新北市板橋區民權路302巷2號","121.45733","25.01649","6500100","板橋區"
"220028","200-UY","2018/02/20 14:19:51","新北市板橋區大觀路二段19巷44號","121.448061666667","25.0030816666667","6500100","板橋區"
"220030","610-BX","2018/02/20 14:19:43","新北市板橋區金門街369巷58號","121.428018333333","24.98153","6500100","板橋區"
"220050","245-BX","2018/02/20 14:19:40","新北市板橋區莊敬路31號","121.473541666667","25.02759","6500100","板橋區"
"220004","276-BY","2018/02/20 14:19:44","新北市板橋區信義路109號","121.457625","24.9934933333333","6500100","板橋區"
"220020","277-BY","2018/02/20 14:19:34","新北市板橋區金門街337巷7弄26號","121.430653333333","24.9851816666667","6500100","板橋區"
"220019","283-VK","2018/02/20 14:19:52","新北市板橋區大豐街148號","121.460936666667","25.0008716666667","6500100","板橋區"
"220043","285-UM","2018/02/20 14:19:39","新北市板橋區吳鳳路82號","121.466975","25.031245","6500100","板橋區"
"220001","285-VK","2018/02/20 14:19:48","新北市板橋區富山街7巷5號","121.478528333333","25.02139","6500100","板橋區"
"220031","286-VK","2018/02/20 14:19:53","新北市板橋區龍興街95巷11號","121.443526666667","25.0025766666667","6500100","板橋區"
"220029","287-VK","2018/02/20 14:19:44","新北市板橋區南雅西路一段63巷2號","121.452491666667","25.0075616666667","6500100","板橋區"
"220009","295-UM","2018/02/20 14:19:44","新北市板橋區光復街23號","121.481323333333","25.0192583333333","6500100","板橋區"
"220032","296-UM","2018/02/20 14:19:37","新北市板橋區溪北路79號","121.428333333333","24.9895616666667","6500100","板橋區"
"220023","303-R5","2018/02/20 14:19:42","新北市板橋區館前西路126號","121.456556666667","25.0078","6500100","板橋區"
"220010","305-R5","2018/02/20 14:19:42","新北市板橋區三民路二段153巷7弄1號","121.480541666667","25.0150733333333","6500100","板橋區"
"220041","307-R5","2018/02/20 14:19:47","新北市板橋區光武街48巷29號","121.467798333333","25.0269766666667","6500100","板橋區"
"220047","317-R6","2018/02/20 14:19:39","新北市板橋區民有街89巷4號","121.464495","25.0274683333333","6500100","板橋區"
"220012","486-VK","2018/02/20 14:19:42","新北市板橋區縣民大道二段1號","121.462186666667","25.0118816666667","6500100","板橋區"
"220038","487-VK","2018/02/20 14:19:51","新北市板橋區文化路一段351號","121.466686666667","25.021","6500100","板橋區"
"241031","AAD-800","2018/02/20 14:01:10","新北市板橋區民生路二段89-6號","121.47056","25.0193416666667","6500200","三重區"
"220037","491-VK","2018/02/20 14:19:50","新北市板橋區雙十路二段10-3號","121.47652","25.0267916666667","6500100","板橋區"
"220104","560-BX","2018/02/20 14:19:33","新北市板橋區中正路413巷2弄2號","121.453948333333","25.0227383333333","6500100","板橋區"
"220052","561-BX","2018/02/20 14:19:44","新北市板橋區介壽街73號","121.469373333333","25.0194766666667","6500100","板橋區"
"220011","609-BX","2018/02/20 14:19:52","新北市板橋區三民路二段202-18號","121.478943333333","25.0134233333333","6500100","板橋區"
"220040","637-BX","2018/02/20 14:19:35","新北市板橋區文聖街207-2號","121.479593333333","25.0266166666667","6500100","板橋區"
"220005","686-BX","2018/02/20 14:19:43","新北市板橋區和平路153號","121.463395","24.995695","6500100","板橋區"
"220025","687-BX","2018/02/20 14:19:48","新北市板橋區大觀路二段235號","121.443795","24.9991683333333","6500100","板橋區"
"220042","689-BX","2018/02/20 14:19:47","新北市板橋區漢生西路73號","121.4629","25.0187566666667","6500100","板橋區"
"220002","741-BX","2018/02/20 14:19:50","新北市板橋區四川路一段158號","121.459985","25.0033116666667","6500100","板橋區"
"220051","KEA-2699","2018/02/20 14:19:51","新北市板橋區文聖街182號","121.479433333333","25.0267916666667","6500100","板橋區"
"220003","827-TW","2018/02/20 14:19:38","新北市板橋區民族路57號","121.46468","25.0088433333333","6500100","板橋區"
"220014","829-TW","2018/02/20 14:19:46","新北市板橋區長安街138巷1弄118號","121.474261666667","25.0104483333333","6500100","板橋區"
"220045","830-TW","2018/02/20 14:19:38","新北市板橋區大同街26巷33號","121.478621666667","25.0264283333333","6500100","板橋區"
"220022","895-R6","2018/02/20 14:19:44","新北市板橋區倉後街1-4號","121.45555","25.0089816666667","6500100","板橋區"
"220046","AAC-210","2018/02/20 14:19:51","新北市板橋區幸福路32巷3弄11號","121.460885","25.0206733333333","6500100","板橋區"
"220018","AAC-253","2018/02/20 14:19:36","新北市板橋區四川路一段281號","121.459398333333","25.0018166666667","6500100","板橋區"
