"lineid","car","time","location","longitude","latitude","cityid","cityname"
"231029","001-UM","2018/02/20 15:19:51","新北市新店區安康路三段716號","121.474001666667","24.9420116666667","6500600","新店區"
"231002","002-UM","2018/02/20 15:19:45","台北市文山區景文街146巷36號","121.532258333333","24.990715","6500600","新店區"
"231028","046-UY","2018/02/20 15:19:48","新北市新店區僑信路74巷36號","121.4988","24.9479533333333","6500600","新店區"
"231030","047-UY","2018/02/20 15:19:31","新北市新店區安和路二段207號","121.51769","24.9753166666667","6500600","新店區"
"231018","107-UY","2018/02/20 15:19:51","新北市新店區中央七街36號","121.529071666667","24.9756116666667","6500600","新店區"
"231012","108-UY","2018/02/20 15:19:43","新北市新店區寶慶街78號","121.5415","24.9867433333333","6500600","新店區"
"231020","187-VK","2018/02/20 15:19:47","新北市新店區湖興路111號","121.560531666667","24.93545","6500600","新店區"
"231026","256-BX","2018/02/20 15:19:41","新北市新店區中正路247巷4弄10號","121.53851","24.973395","6500600","新店區"
"231023","AAD-862","2018/02/20 15:19:37","新北市新店區行政街12巷2號","121.542798333333","24.9666083333333","6500600","新店區"
"231025","3713-VJ","2018/02/20 15:19:35","新北市新店區環河路103-5號","121.53146","24.9707333333333","6500600","新店區"
"231024","4716-K9","2018/02/20 15:19:23","新北市新店區中華路83巷67號","121.538208333333","24.9670433333333","6500600","新店區"
"231035","515-UM","2018/02/20 15:19:51","新北市新店區永平街23巷9號","121.516788333333","24.9829183333333","6500600","新店區"
"231001","619-UM","2018/02/20 15:19:42","新北市新店區光明街231號","121.540348333333","24.9643633333333","6500600","新店區"
"231003","641-BX","2018/02/20 15:19:38","新北市新店區寶高路120巷1-1號","121.554623333333","24.9759783333333","6500600","新店區"
"231034","645-TV","2018/02/20 15:19:47","新北市新店區如意街1巷2號","121.495773333333","24.94949","6500600","新店區"
"231039","718-UY","2018/02/20 15:19:40","新北市新店區寶元路一段65號","121.542258333333","24.9858233333333","6500600","新店區"
"231032","720-UM","2018/02/20 15:19:39","新北市新店區安康路三段109-1號","121.49104","24.9517333333333","6500600","新店區"
"231005","897-TW","2018/02/20 15:19:55","新北市新店區建國路249號","121.53754","24.98247","6500600","新店區"
"231006","898-TW","2018/02/20 15:19:42","新北市新店區中興路一段185號","121.543093333333","24.96484","6500600","新店區"
"231004","899-TW","2018/02/20 15:19:44","新北市新店區建國路30號","121.540498333333","24.9746233333333","6500600","新店區"
"231037","AKT-0513","2018/02/20 15:19:40","新北市新店區安興路91巷47號","121.511946666667","24.9745383333333","6500600","新店區"
"241013","270-UM","2018/02/20 15:19:45","新北市三重區重新路四段121號","121.484858333333","25.0525833333333","6500200","三重區"
"235030","003-UY","2018/02/20 15:19:40","新北市中和區保平路326巷29號","121.506366666667","25.00475","6500300","中和區"
"235007","352-BY","2018/02/20 15:19:43","新北市中和區興南路二段159巷12號","121.505106666667","24.983175","6500300","中和區"
"235032","377-QA","2018/02/20 15:19:35","新北市中和區中山路二段205號","121.49956","25.0025966666667","6500300","中和區"
"235014","4979-A6","2018/02/20 15:19:45","新北市中和區景平路221巷2號","121.510345","24.99242","6500300","中和區"
"235033","4980-A6","2018/02/20 15:19:36","新北市中和區中正路226號","121.496195","24.99406","6500300","中和區"
"235034","558-UM","2018/02/20 15:19:32","新北市中和區中正路296號","121.494418333333","24.9939933333333","6500300","中和區"
"235012","896-TW","2018/02/20 15:19:49","新北市中和區景新街377號","121.51229","24.9904016666667","6500300","中和區"
"235023","AAC-215","2018/02/20 15:19:37","新北市中和區圓通路435巷2-11號","121.48756","24.9866716666667","6500300","中和區"
"220013","072-UY","2018/02/20 15:19:41","新北市板橋區大觀路三段131-1號","121.435053333333","24.9922","6500100","板橋區"
"208004","AAC-292","2018/02/20 15:19:38","新北市金山區三界壇路15號","121.618186666667","25.237305","6502700","金山區"
"207002","749-BX","2018/02/20 15:19:38","新北市萬里區崁腳里內中福路31-2號","121.659936666667","25.1649983333333","6502800","萬里區"
"207001","662-BX","2018/02/20 15:19:50","新北市萬里區大鵬里萬里加投9號","121.652116666667","25.208005","6502800","萬里區"
"236065","105-UM","2018/02/20 15:19:52","新北市土城區裕民路185巷36弄2號","121.454675","24.9847166666667","6501300","土城區"
"236041","107-UM","2018/02/20 15:19:45","新北市土城區裕民路261號","121.454976666667","24.9826333333333","6501300","土城區"
"236075","166-UM","2018/02/20 15:19:41","新北市土城區溪頭路129號","121.409758333333","24.95136","6501300","土城區"
"236029","253-BX","2018/02/20 15:19:52","新北市土城區中央路一段250巷1號","121.444158333333","24.9846916666667","6501300","土城區"
"236024","269-VK","2018/02/20 15:19:41","新北市土城區員林街61巷2弄2號","121.444175","24.9777233333333","6501300","土城區"
"236013","270-VK","2018/02/20 15:19:39","新北市土城區學府路一段26號","121.458356666667","24.98859","6501300","土城區"
"236034","271-VK","2018/02/20 15:19:38","新北市土城區國際路139巷55號","121.468428333333","24.97756","6501300","土城區"
"236017","401-BY","2018/02/20 15:19:48","新北市土城區延峰街7號","121.468681666667","24.9865266666667","6501300","土城區"
"236057","912-UM","2018/02/20 15:19:36","新北市土城區中央路三段67號","121.438781666667","24.96934","6501300","土城區"
"236045","913-UM","2018/02/20 15:19:43","新北市土城區明德路一段153號","121.464951666667","24.9798933333333","6501300","土城區"
"236061","915-UM","2018/02/20 15:19:36","新北市土城區延平街36號","121.46809","24.9918966666667","6501300","土城區"
"236054","AAC-216","2018/02/20 15:19:56","新北市土城區學府路一段170號","121.453925","24.9865133333333","6501300","土城區"
"220050","245-BX","2018/02/20 15:19:38","新北市板橋區莊敬路75巷35號","121.473988333333","25.0261416666667","6500100","板橋區"
"220031","286-VK","2018/02/20 15:19:50","新北市板橋區僑中二街98號","121.446071666667","25.008425","6500100","板橋區"
"220029","287-VK","2018/02/20 15:19:44","新北市板橋區僑中一街70號","121.447575","25.0115383333333","6500100","板橋區"
"220009","295-UM","2018/02/20 15:19:44","新北市板橋區四川路一段284號","121.458713333333","25.000825","6500100","板橋區"
"220041","307-R5","2018/02/20 15:19:47","新北市板橋區文化路一段45巷20號","121.460393333333","25.0141333333333","6500100","板橋區"
"220038","487-VK","2018/02/20 15:19:51","新北市板橋區互助街30號","121.462251666667","25.0271916666667","6500100","板橋區"
"241031","AAD-800","2018/02/20 15:15:07","新北市板橋區民生路二段89-6號","121.470543333333","25.0192916666667","6500200","三重區"
"220052","561-BX","2018/02/20 15:19:44","新北市板橋區新海路135巷1號","121.460626666667","25.023385","6500100","板橋區"
"220011","609-BX","2018/02/20 15:19:52","新北市板橋區中山路二段87號","121.47402","25.015815","6500100","板橋區"
"220025","687-BX","2018/02/20 15:19:37","新北市板橋區板城路399號","121.451076666667","24.9995733333333","6500100","板橋區"
"220042","689-BX","2018/02/20 15:19:47","新北市板橋區民生路三段252號","121.464395","25.0312516666667","6500100","板橋區"
"220051","KEA-2699","2018/02/20 15:19:50","新北市板橋區文化路一段280-1號","121.467091666667","25.0211566666667","6500100","板橋區"
"220003","827-TW","2018/02/20 15:19:38","新北市板橋區仁愛路64號","121.459861666667","24.9992916666667","6500100","板橋區"
"220046","AAC-210","2018/02/20 15:19:51","新北市板橋區文化路一段101巷13號","121.460783333333","25.0146116666667","6500100","板橋區"
"220018","AAC-253","2018/02/20 15:19:42","新北市板橋區四川路二段245巷10-1號","121.450588333333","24.99322","6500100","板橋區"
