"lineid","car","time","location","longitude","latitude","cityid","cityname"
"231030","047-UY","2018/02/20 15:49:51","新北市新店區永安街32號","121.517766666667","24.9866366666667","6500600","新店區"
"231018","107-UY","2018/02/20 15:49:51","新北市新店區復興路131-2號","121.531551666667","24.988755","6500600","新店區"
"231012","108-UY","2018/02/20 15:49:39","新北市新店區文化路15號","121.543053333333","24.9795083333333","6500600","新店區"
"231020","187-VK","2018/02/20 15:49:47","新北市新店區新烏路一段85巷6-6號","121.549656666667","24.9427283333333","6500600","新店區"
"231015","KEA-2219","2018/02/20 15:49:39","新北市新店區北新路一段72號","121.541325","24.9670283333333","6500600","新店區"
"231026","256-BX","2018/02/20 15:49:41","新北市新店區中正路444號","121.534085","24.9785266666667","6500600","新店區"
"231046","278-BY","2018/02/20 15:49:41","新北市新店區安華路28-1號","121.519608333333","24.961095","6500600","新店區"
"231023","AAD-862","2018/02/20 15:49:48","新北市新店區大新街9巷17號","121.544171666667","24.9673816666667","6500600","新店區"
"231038","4715-K9","2018/02/20 15:49:36","新北市新店區安康路二段242巷6號","121.50885","24.9596","6500600","新店區"
"231036","512-UM","2018/02/20 15:49:53","新北市新店區安祥路67巷2號","121.48381","24.95955","6500600","新店區"
"231035","515-UM","2018/02/20 15:49:50","新北市新店區安和路二段227號","121.51711","24.9760933333333","6500600","新店區"
"231003","641-BX","2018/02/20 15:49:38","新北市新店區寶興路60巷4號","121.549808333333","24.9718716666667","6500600","新店區"
"231034","645-TV","2018/02/20 15:49:47","新北市新店區玫瑰路57巷2號","121.495766666667","24.94609","6500600","新店區"
"231013","719-UM","2018/02/20 15:49:42","新北市新店區永業路81巷3弄26號","121.530578333333","24.949855","6500600","新店區"
"231032","720-UM","2018/02/20 15:49:39","新北市新店區雙城路31號","121.492765","24.949615","6500600","新店區"
"231037","AKT-0513","2018/02/20 15:49:40","新北市新店區安民街65巷17-1號","121.515476666667","24.9668883333333","6500600","新店區"
"241011","013-R5","2018/02/20 15:49:44","新北市三重區文化北路224-2號","121.497675","25.06913","6500200","三重區"
"241028","022-UY","2018/02/20 15:49:37","新北市三重區中正南路43號","121.493896666667","25.059725","6500200","三重區"
"241008","059-VK","2018/02/20 15:49:41","新北市三重區重新路四段121號","121.484985","25.0518616666667","6500200","三重區"
"241015","062-VK","2018/02/20 15:49:54","新北市三重區重新路四段121號","121.485153333333","25.0519933333333","6500200","三重區"
"241017","063-VK","2018/02/20 15:49:53","新北市三重區大仁街36巷2號","121.491413333333","25.0642083333333","6500200","三重區"
"241005","262-UM","2018/02/20 15:49:52","新北市三重區長元街105號","121.504665","25.06704","6500200","三重區"
"241016","265-UM","2018/02/20 15:49:53","新北市三重區重新路四段121號","121.485155","25.05204","6500200","三重區"
"241022","267-UM","2018/02/20 15:49:36","新北市三重區成功路108巷8號","121.485546666667","25.05038","6500200","三重區"
"241013","270-UM","2018/02/20 15:49:45","新北市三重區安興街15號","121.495968333333","25.0703233333333","6500200","三重區"
"241007","398-BY","2018/02/20 15:49:47","新北市三重區忠孝路二段1號","121.487173333333","25.0715383333333","6500200","三重區"
"241020","413-TH","2018/02/20 15:49:44","新北市三重區忠孝路二段52號","121.485001666667","25.07048","6500200","三重區"
"241024","478-VK","2018/02/20 15:49:36","新北市三重區忠孝路三段99巷4號","121.480115","25.0640616666667","6500200","三重區"
"241014","543-UM","2018/02/20 15:49:51","新北市三重區重新路四段121號","121.485061666667","25.0520133333333","6500200","三重區"
"241023","545-UM","2018/02/20 15:49:48","新北市三重區忠孝路三段84巷16-1號","121.480763333333","25.06471","6500200","三重區"
"241001","547-UM","2018/02/20 15:49:34","新北市三重區重新路四段121號","121.484465","25.0522766666667","6500200","三重區"
"241006","AAD-863","2018/02/20 15:49:38","新北市三重區重新路四段121號","121.48492","25.0518833333333","6500200","三重區"
"241012","941-UM","2018/02/20 15:49:50","新北市三重區文化北路83巷2-2號","121.49841","25.06699","6500200","三重區"
"241029","942-UM","2018/02/20 15:49:38","新北市三重區大同南路242號","121.496916666667","25.0559333333333","6500200","三重區"
"241033","AAC-255","2018/02/20 15:49:36","新北市三重區光復路一段62號","121.471955","25.0489766666667","6500200","三重區"
"235033","4980-A6","2018/02/20 15:49:35","新北市中和區中正路637巷48號","121.485406666667","24.9941833333333","6500300","中和區"
"235062","800-TS","2018/02/20 15:21:29","新北市中和區員山路36巷16-3號","121.484858333333","24.9916133333333","6500300","中和區"
"235023","AAC-215","2018/02/20 15:49:37","新北市中和區員山路59號","121.480931666667","24.9933166666667","6500300","中和區"
"224007","273-VK","2018/02/20 15:49:44","新北市瑞芳區大寮路356-1號","121.784805","25.1031","6501200","瑞芳區"
"227003","642-TC","2018/02/20 15:49:46","新北市雙溪區平林里外平林44號","121.852906666667","25.0363316666667","6502500","雙溪區"
"227009","400-TW","2018/02/20 15:49:52","新北市雙溪區雙溪里中正路50號","121.865303333333","25.0396266666667","6502500","雙溪區"
"208004","AAC-292","2018/02/20 15:49:52","新北市金山區南勢30-1號","121.626776666667","25.2190233333333","6502700","金山區"
"251013","179-VK","2018/02/20 15:49:45","新北市淡水區沙崙路224號","121.425316666667","25.1844533333333","6501000","淡水區"
"236065","105-UM","2018/02/20 15:49:43","新北市土城區中山路74號","121.432853333333","24.9707883333333","6501300","土城區"
"236075","166-UM","2018/02/20 15:49:50","新北市土城區中山路37-1號","121.419895","24.96272","6501300","土城區"
"236024","269-VK","2018/02/20 15:49:41","新北市土城區中央路一段211巷5號","121.446058333333","24.9865483333333","6501300","土城區"
"236013","270-VK","2018/02/20 15:49:39","新北市土城區廣明街66號","121.455091666667","24.99368","6501300","土城區"
"236017","401-BY","2018/02/20 15:49:48","新北市土城區延吉街111巷12弄26號","121.471461666667","24.985305","6501300","土城區"
"236057","912-UM","2018/02/20 15:49:36","新北市土城區中央路一段359號","121.443123333333","24.98107","6501300","土城區"
"236061","915-UM","2018/02/20 15:49:36","新北市土城區延和路12巷13號","121.464465","24.9873566666667","6501300","土城區"
"236054","AAC-216","2018/02/20 15:49:36","新北市土城區中華路一段236號","121.439823333333","24.97984","6501300","土城區"
"241031","AAD-800","2018/02/20 15:43:31","新北市板橋區民生路二段89-6號","121.470473333333","25.01926","6500200","三重區"
