"lineid","car","time","location","longitude","latitude","cityid","cityname"
"231030","047-UY","2018/02/20 15:59:51","新北市新店區永平街4號","121.517488333333","24.9835233333333","6500600","新店區"
"231018","107-UY","2018/02/20 15:59:51","新北市新店區中正路663巷7弄15號","121.532908333333","24.9900883333333","6500600","新店區"
"231012","108-UY","2018/02/20 15:59:38","新北市新店區溪園路405號","121.524126666667","24.9782","6500600","新店區"
"231020","187-VK","2018/02/20 15:59:47","新北市新店區北宜路一段140巷13號","121.540076666667","24.9543416666667","6500600","新店區"
"231015","KEA-2219","2018/02/20 15:59:39","新北市新店區三民路21巷2號","121.538908333333","24.97117","6500600","新店區"
"231046","278-BY","2018/02/20 15:59:41","新北市新店區安華路28-1號","121.519683333333","24.961045","6500600","新店區"
"231038","4715-K9","2018/02/20 15:59:36","新北市新店區安康路二段197巷13號","121.509366666667","24.958425","6500600","新店區"
"231036","512-UM","2018/02/20 15:59:33","新北市新店區安祥路69巷89弄13號","121.483243333333","24.959855","6500600","新店區"
"231035","515-UM","2018/02/20 15:59:51","新北市新店區安民街65巷21-2號","121.515245","24.9675016666667","6500600","新店區"
"231003","641-BX","2018/02/20 15:59:18","新北市新店區寶興路61巷32號","121.551943333333","24.9723033333333","6500600","新店區"
"231034","645-TV","2018/02/20 15:59:47","新北市新店區吉祥街9巷1號","121.497508333333","24.94699","6500600","新店區"
"231013","719-UM","2018/02/20 15:59:42","新北市新店區柴埕路38-8號","121.513238333333","24.96493","6500600","新店區"
"231037","AKT-0513","2018/02/20 15:59:40","新北市新店區薏仁坑路6號","121.500415","24.9579883333333","6500600","新店區"
"241011","013-R5","2018/02/20 15:59:53","新北市三重區文化北路105號","121.497926666667","25.0684483333333","6500200","三重區"
"241028","022-UY","2018/02/20 15:59:37","新北市三重區電信街47號","121.496665","25.0583716666667","6500200","三重區"
"241008","059-VK","2018/02/20 15:59:41","新北市三重區忠孝路三段48號","121.480746666667","25.065885","6500200","三重區"
"241031","061-VK","2018/02/20 15:59:53","新北市三重區重新路四段121號","121.484701666667","25.05214","6500200","三重區"
"241015","062-VK","2018/02/20 15:59:54","新北市三重區重新路四段121號","121.48517","25.0520233333333","6500200","三重區"
"241017","063-VK","2018/02/20 15:59:53","新北市三重區大仁街46號","121.4915","25.0645516666667","6500200","三重區"
"241026","066-VK","2018/02/20 15:59:49","新北市三重區重新路三段32號","121.494611666667","25.061405","6500200","三重區"
"241002","090-VK","2018/02/20 15:59:45","新北市三重區仁義街91號","121.499786666667","25.0794616666667","6500200","三重區"
"241005","262-UM","2018/02/20 15:59:52","新北市三重區五華街243號","121.489146666667","25.08618","6500200","三重區"
"241016","265-UM","2018/02/20 15:59:53","新北市三重區重新路四段121號","121.485141666667","25.052035","6500200","三重區"
"241022","267-UM","2018/02/20 15:59:36","新北市三重區中正北路176巷16號","121.482723333333","25.0658033333333","6500200","三重區"
"241018","268-UM","2018/02/20 15:59:54","新北市三重區大仁街18-1號","121.4913","25.0635366666667","6500200","三重區"
"241013","270-UM","2018/02/20 15:59:45","新北市三重區文化北路149-1號","121.497531666667","25.069475","6500200","三重區"
"241025","271-UM","2018/02/20 15:59:45","新北市三重區三民街150號","121.482398333333","25.06546","6500200","三重區"
"241007","398-BY","2018/02/20 15:59:54","新北市三重區三和路四段115號","121.485463333333","25.077395","6500200","三重區"
"241020","413-TH","2018/02/20 15:59:44","新北市三重區車路頭街4巷21號","121.483286666667","25.0700483333333","6500200","三重區"
"241024","478-VK","2018/02/20 15:59:36","新北市三重區中正北路145巷5弄2號","121.484346666667","25.067625","6500200","三重區"
"241014","543-UM","2018/02/20 15:59:51","新北市三重區重新路四段121號","121.485095","25.0521033333333","6500200","三重區"
"241023","545-UM","2018/02/20 15:59:51","新北市三重區中正北路117號","121.483565","25.0669333333333","6500200","三重區"
"241001","547-UM","2018/02/20 15:59:54","新北市三重區忠孝路一段183號","121.487266666667","25.07159","6500200","三重區"
"241006","AAD-863","2018/02/20 15:59:38","新北市三重區重新路四段121號","121.48433","25.0521","6500200","三重區"
"241012","941-UM","2018/02/20 15:59:50","新北市三重區文化北路132巷49號","121.497406666667","25.06646","6500200","三重區"
"241029","942-UM","2018/02/20 15:59:38","新北市三重區大同南路212巷27號","121.497578333333","25.05664","6500200","三重區"
"241033","AAC-255","2018/02/20 15:59:36","新北市三重區重新路五段507號","121.472413333333","25.04655","6500200","三重區"
"224007","273-VK","2018/02/20 15:59:44","新北市瑞芳區粗坑口路1巷4-3號","121.763215","25.0953","6501200","瑞芳區"
"224005","271-BY","2018/02/20 15:59:38","新北市瑞芳區三爪子坑路230號","121.805733333333","25.10573","6501200","瑞芳區"
"227003","642-TC","2018/02/20 15:59:55","新北市雙溪區平林里外平林71號","121.842458333333","25.0349783333333","6502500","雙溪區"
"227009","400-TW","2018/02/20 15:59:52","新北市雙溪區三貂里政光路42-2號","121.874721666667","25.051605","6502500","雙溪區"
"208004","AAC-292","2018/02/20 15:59:43","新北市金山區南勢18號","121.633673333333","25.2166116666667","6502700","金山區"
"251013","179-VK","2018/02/20 15:59:45","新北市淡水區中山北路三段163號","121.445328333333","25.196545","6501000","淡水區"
"251008","181-VK","2018/02/20 15:59:52","新北市淡水區中正路一段106號","121.42386","25.1779466666667","6501000","淡水區"
"236065","105-UM","2018/02/20 15:59:43","新北市土城區福安街100-8號","121.417396666667","24.9644483333333","6501300","土城區"
"236075","166-UM","2018/02/20 15:59:41","新北市土城區德安街4巷2號","121.422246666667","24.9648383333333","6501300","土城區"
"236017","401-BY","2018/02/20 15:59:48","新北市土城區延吉街55號","121.472306666667","24.987515","6501300","土城區"
"236057","912-UM","2018/02/20 15:59:36","新北市土城區中央路二段237號","121.440253333333","24.9720566666667","6501300","土城區"
"241031","AAD-800","2018/02/20 15:54:41","新北市板橋區民生路二段89-6號","121.47045","25.0193333333333","6500200","三重區"
