"lineid","car","time","location","longitude","latitude","cityid","cityname"
"231018","107-UY","2018/02/20 16:29:51","新北市新店區溪園路35號","121.530435","24.9884083333333","6500600","新店區"
"231046","278-BY","2018/02/20 16:29:41","新北市新店區灣潭路3-2號","121.538278333333","24.950805","6500600","新店區"
"241011","013-R5","2018/02/20 16:29:44","新北市三重區仁愛街43巷22號","121.497658333333","25.0718983333333","6500200","三重區"
"241028","022-UY","2018/02/20 16:29:37","新北市三重區中正南路63號","121.49419","25.05922","6500200","三重區"
"241008","059-VK","2018/02/20 16:29:41","新北市三重區永福街122-2號","121.47905","25.0753466666667","6500200","三重區"
"241009","060-VK","2018/02/20 16:29:41","新北市三重區三和路四段191巷59號","121.483853333333","25.07963","6500200","三重區"
"241031","061-VK","2018/02/20 16:29:53","新北市三重區重陽路一段68號","121.48657","25.058535","6500200","三重區"
"241015","062-VK","2018/02/20 16:29:34","新北市三重區福德北路40號","121.501848333333","25.065255","6500200","三重區"
"241017","063-VK","2018/02/20 16:29:53","新北市三重區大同北路83號","121.494936666667","25.06362","6500200","三重區"
"241026","066-VK","2018/02/20 16:29:49","新北市三重區光興街3號","121.500173333333","25.0603883333333","6500200","三重區"
"241002","090-VK","2018/02/20 16:29:45","新北市三重區五華街42-1號","121.494396666667","25.0810366666667","6500200","三重區"
"241003","156-TC","2018/02/20 16:29:49","新北市三重區仁義街230巷1號","121.494435","25.0849683333333","6500200","三重區"
"241005","262-UM","2018/02/20 16:29:52","新北市三重區溪尾街260號","121.487425","25.0828966666667","6500200","三重區"
"241016","265-UM","2018/02/20 16:29:53","新北市三重區自強路一段160巷2弄55號","121.494336666667","25.0657283333333","6500200","三重區"
"241022","267-UM","2018/02/20 16:29:55","新北市三重區新北大道一段86巷19號","121.485995","25.0622216666667","6500200","三重區"
"241018","268-UM","2018/02/20 16:29:54","新北市三重區正義北路364巷31號","121.49293","25.0709583333333","6500200","三重區"
"241032","269-UM","2018/02/20 16:29:35","新北市三重區三陽路100巷3弄13號","121.483013333333","25.05812","6500200","三重區"
"241013","270-UM","2018/02/20 16:29:45","新北市三重區三和路三段83巷34號","121.495718333333","25.0725983333333","6500200","三重區"
"241025","271-UM","2018/02/20 16:29:41","新北市三重區中正北路560巷100弄2號","121.472428333333","25.0681916666667","6500200","三重區"
"241007","398-BY","2018/02/20 16:29:34","新北市三重區三和路四段167巷165號","121.488408333333","25.0804333333333","6500200","三重區"
"241020","413-TH","2018/02/20 16:29:44","新北市三重區車路頭街37巷34號","121.484851666667","25.0719383333333","6500200","三重區"
"241004","475-VK","2018/02/20 16:29:43","新北市三重區仁愛街377巷19號","121.492446666667","25.0808816666667","6500200","三重區"
"241024","478-VK","2018/02/20 16:29:36","新北市三重區中正北路315巷16弄9號","121.475521666667","25.0716533333333","6500200","三重區"
"241030","480-VK","2018/02/20 16:29:47","新北市三重區成功路78號","121.488241666667","25.05112","6500200","三重區"
"241014","543-UM","2018/02/20 16:29:51","新北市三重區河邊北街72-6號","121.50442","25.0684566666667","6500200","三重區"
"241023","545-UM","2018/02/20 16:29:48","新北市三重區忠孝路三段50巷82號","121.483018333333","25.0645","6500200","三重區"
"241001","547-UM","2018/02/20 16:29:54","新北市三重區福隆路93號","121.492256666667","25.07822","6500200","三重區"
"241019","KEA-2593","2018/02/20 16:29:39","新北市三重區重陽路三段140號","121.48908","25.067275","6500200","三重區"
"241006","AAD-863","2018/02/20 16:29:38","新北市三重區力行路二段136巷11弄24號","121.481813333333","25.0764933333333","6500200","三重區"
"241012","941-UM","2018/02/20 16:29:30","新北市三重區河邊北街200號","121.502205","25.074545","6500200","三重區"
"241029","942-UM","2018/02/20 16:29:38","新北市三重區集美街126巷12號","121.489418333333","25.053695","6500200","三重區"
"241033","AAC-255","2018/02/20 16:29:56","新北市三重區重新路五段317巷3弄1號","121.477403333333","25.0494516666667","6500200","三重區"
"247006","056-VK","2018/02/20 16:29:39","新北市五股區中興路三段163號","121.449125","25.0807","6501400","蘆洲區"
"224008","275-VK","2018/02/20 16:29:41","新北市瑞芳區逢甲路17號","121.80939","25.1083766666667","6501200","瑞芳區"
"224007","273-VK","2018/02/20 16:29:44","新北市瑞芳區瑞竹路36巷41號","121.764193333333","25.1043466666667","6501200","瑞芳區"
"224005","271-BY","2018/02/20 16:29:38","新北市瑞芳區瑞芳街32-10號","121.822533333333","25.1208216666667","6501200","瑞芳區"
"227003","642-TC","2018/02/20 16:29:46","新北市雙溪區上林里內平林120-2號","121.82445","25.0262633333333","6502500","雙溪區"
"227009","400-TW","2018/02/20 16:29:51","新北市雙溪區三港里雙澳路33-3號","121.87035","25.0493833333333","6502500","雙溪區"
"251013","179-VK","2018/02/20 16:29:25","新北市淡水區大溪8號","121.495715","25.1903716666667","6501000","淡水區"
"251014","180-VK","2018/02/20 16:29:44","新北市淡水區中正路二段31號","121.419368333333","25.1815866666667","6501000","淡水區"
"251008","181-VK","2018/02/20 16:29:52","新北市淡水區大同路8號","121.462175","25.14078","6501000","淡水區"
"251011","650-BX","2018/02/20 16:29:48","新北市淡水區中正路一段102號","121.423945","25.1778283333333","6501000","淡水區"
"241031","AAD-800","2018/02/20 16:24:37","新北市板橋區民生路二段89-6號","121.470443333333","25.01927","6500200","三重區"
