"lineid","car","time","location","longitude","latitude","cityid","cityname"
"249005","172-UM","2018/02/20 17:29:42","新北市八里區荖阡坑路30號","121.405095","25.1295783333333","6502300","八里區"
"249001","173-UM","2018/02/20 17:29:42","新北市八里區中華路一段259號","121.418636666667","25.1563933333333","6502300","八里區"
"249004","303-UY","2018/02/20 17:29:52","新北市八里區賢三街170號","121.414488333333","25.1567283333333","6502300","八里區"
"249002","305-UY","2018/02/20 17:29:51","新北市八里區龍米路二段67號","121.448001666667","25.1408016666667","6502300","八里區"
"249003","593-UM","2018/02/20 17:29:42","新北市八里區中山路二段315號","121.400718333333","25.1477366666667","6502300","八里區"
"232011","375-UM","2018/02/20 17:29:49","新北市坪林區北宜路八段558號","121.718005","24.9097183333333","6502000","坪林區"
"244013","069-UM","2018/02/20 17:29:50","新北市林口區中正路559號","121.38109","25.0768883333333","6501700","林口區"
"244007","080-UY","2018/02/20 17:29:44","新北市林口區文化一路二段303號","121.385748333333","25.0857316666667","6501700","林口區"
"244019","402-UM","2018/02/20 17:29:36","新北市林口區文化二路一段380號","121.374331666667","25.0764083333333","6501700","林口區"
"244023","483-VK","2018/02/20 17:29:46","新北市林口區東明一街95巷12號","121.391058333333","25.07087","6501700","林口區"
"244017","485-VK","2018/02/20 17:29:48","新北市林口區文化一路二段186號","121.382363333333","25.0799833333333","6501700","林口區"
"244009","657-BX","2018/02/20 17:29:47","新北市林口區中北一街47-1號","121.385895","25.0874916666667","6501700","林口區"
"244025","837-TS","2018/02/20 17:29:41","新北市林口區忠孝路53號","121.365425","25.0750816666667","6501700","林口區"
"244021","838-TS","2018/02/20 17:29:54","新北市林口區醒吾新村13號","121.396248333333","25.0792166666667","6501700","林口區"
"231046","278-BY","2018/02/20 17:29:41","新北市新店區直潭路92號","121.5309","24.93761","6500600","新店區"
"241015","062-VK","2018/02/20 17:29:54","新北市三重區開元街30號","121.503665","25.0658316666667","6500200","三重區"
"241017","063-VK","2018/02/20 17:29:53","新北市三重區中正北路21-1號","121.49277","25.0619766666667","6500200","三重區"
"241026","066-VK","2018/02/20 17:29:49","新北市三重區環河南路118號","121.498241666667","25.055865","6500200","三重區"
"241003","156-TC","2018/02/20 17:29:49","新北市三重區碧華街367號","121.492403333333","25.085245","6500200","三重區"
"241005","262-UM","2018/02/20 17:29:52","新北市三重區永安北路二段5巷37號","121.482775","25.0812116666667","6500200","三重區"
"241016","265-UM","2018/02/20 17:29:33","新北市三重區信義西街41號","121.495271666667","25.0639766666667","6500200","三重區"
"241032","269-UM","2018/02/20 17:29:55","新北市三重區名源街46號","121.482381666667","25.0594166666667","6500200","三重區"
"241013","270-UM","2018/02/20 17:29:44","新北市三重區仁福街64巷39號","121.497523333333","25.076045","6500200","三重區"
"241025","271-UM","2018/02/20 17:29:41","新北市三重區中正北路283號","121.474796666667","25.0710783333333","6500200","三重區"
"241007","398-BY","2018/02/20 17:29:54","新北市三重區三和路四段145巷93號","121.48666","25.0789366666667","6500200","三重區"
"241020","413-TH","2018/02/20 17:29:44","新北市三重區忠孝路一段133號","121.488556666667","25.0720466666667","6500200","三重區"
"241024","478-VK","2018/02/20 17:29:36","新北市三重區大勇街32號","121.481741666667","25.0717833333333","6500200","三重區"
"241030","480-VK","2018/02/20 17:29:47","新北市三重區中正南路269號","121.492951666667","25.0525183333333","6500200","三重區"
"241014","543-UM","2018/02/20 17:29:51","新北市三重區安和路15號","121.501223333333","25.0684166666667","6500200","三重區"
"241023","545-UM","2018/02/20 17:29:48","新北市三重區三民街146巷14號","121.481713333333","25.0645516666667","6500200","三重區"
"241019","KEA-2593","2018/02/20 17:29:43","新北市三重區自強路二段26巷6號","121.489273333333","25.0690966666667","6500200","三重區"
"241012","941-UM","2018/02/20 17:29:50","新北市三重區仁興街33巷1號","121.499285","25.075325","6500200","三重區"
"241033","AAC-255","2018/02/20 17:29:56","新北市三重區興德路133號","121.470048333333","25.052725","6500200","三重區"
"247022","893-R6","2018/02/20 17:29:54","新北市蘆洲區三民路296號","121.46681","25.0904833333333","6501400","蘆洲區"
"247020","500-BY","2018/02/20 17:29:42","新北市蘆洲區仁愛街111-1號","121.47047","25.09448","6501400","蘆洲區"
"247008","341-TH","2018/02/20 17:29:57","新北市蘆洲區信義路34巷44號","121.475023333333","25.078205","6501400","蘆洲區"
"247010","339-TH","2018/02/20 17:29:45","新北市蘆洲區信義路181號","121.479771666667","25.0824433333333","6501400","蘆洲區"
"247002","337-TH","2018/02/20 17:29:39","新北市蘆洲區永樂街38巷67弄16號","121.457828333333","25.0909266666667","6501400","蘆洲區"
"247004","336-TH","2018/02/20 17:29:40","新北市蘆洲區長安街233巷11號","121.458885","25.0826116666667","6501400","蘆洲區"
"247016","057-VK","2018/02/20 17:29:39","新北市蘆洲區光華路22巷26號","121.468718333333","25.0843633333333","6501400","蘆洲區"
"247006","056-VK","2018/02/20 17:29:39","新北市蘆洲區光華路185-1號","121.464943333333","25.0811266666667","6501400","蘆洲區"
"247012","053-VK","2018/02/20 17:29:58","新北市蘆洲區民族路80號","121.477691666667","25.0847833333333","6501400","蘆洲區"
"247014","007-UY","2018/02/20 17:29:49","新北市蘆洲區三民路105號","121.472758333333","25.0855133333333","6501400","蘆洲區"
"247024","002-UY","2018/02/20 17:29:55","新北市蘆洲區三民路581號","121.461716666667","25.0929866666667","6501400","蘆洲區"
"247018","001-UY","2018/02/20 17:29:46","新北市蘆洲區民權路136-2號","121.473171666667","25.0888833333333","6501400","蘆洲區"
"228003","097-TW","2018/02/20 17:29:54","新北市貢寮區仁理村研海街62-2號","121.925485","25.045695","6502600","貢寮區"
"228001","212-TW","2018/02/20 17:29:46","新北市貢寮區仁理村仁愛路60號","121.925556666667","25.053405","6502600","貢寮區"
"228002","585-TW","2018/02/20 17:28:54","新北市貢寮區福隆里興隆街23號","121.942761666667","25.01649","6502600","貢寮區"
"224010","AGQ-8101","2018/02/20 17:29:43","新北市瑞芳區逢甲路111-2號","121.807743333333","25.1092283333333","6501200","瑞芳區"
"224006","676-BX","2018/02/20 17:29:47","新北市瑞芳區傑魚坑路165號","121.789798333333","25.109425","6501200","瑞芳區"
"224009","285-BY","2018/02/20 17:29:50","新北市瑞芳區汽車路18號","121.845301666667","25.1100483333333","6501200","瑞芳區"
"224008","275-VK","2018/02/20 17:29:41","新北市瑞芳區侯硐路178號","121.829146666667","25.0869216666667","6501200","瑞芳區"
"224005","271-BY","2018/02/20 17:29:58","新北市瑞芳區海濱路8-6號","121.831651666667","25.126125","6501200","瑞芳區"
"227003","642-TC","2018/02/20 17:29:46","新北市雙溪區平林里梅竹蹊59號","121.850516666667","25.0319","6502500","雙溪區"
"227009","400-TW","2018/02/20 17:29:51","新北市雙溪區三貂里十三層5-3號","121.8531","25.077365","6502500","雙溪區"
"251009","008-UM","2018/02/20 17:29:57","新北市淡水區新生街90巷4號","121.439588333333","25.1744816666667","6501000","淡水區"
"251004","009-UM","2018/02/20 17:29:47","新北市淡水區中正東路二段121號","121.459683333333","25.149925","6501000","淡水區"
"251013","179-VK","2018/02/20 17:29:45","新北市淡水區大竹圍5號","121.466571666667","25.1951983333333","6501000","淡水區"
"251014","180-VK","2018/02/20 17:29:41","新北市淡水區公埔子20-2號","121.469853333333","25.22908","6501000","淡水區"
"251008","181-VK","2018/02/20 17:29:52","新北市淡水區大同路100巷11號","121.462868333333","25.1396366666667","6501000","淡水區"
"251015","182-VK","2018/02/20 17:29:37","新北市淡水區三空泉15號","121.47274","25.1634933333333","6501000","淡水區"
"251010","413-VK","2018/02/20 17:29:49","新北市淡水區中正路二段211號","121.426213333333","25.1891166666667","6501000","淡水區"
"251012","441-VK","2018/02/20 17:29:53","新北市淡水區北新路111號","121.448226666667","25.178425","6501000","淡水區"
"251016","442-VK","2018/02/20 17:29:48","新北市淡水區埤島63-3號","121.460416666667","25.1916533333333","6501000","淡水區"
"251005","443-VK","2018/02/20 17:29:45","新北市淡水區鄧公路31巷5號","121.451516666667","25.1707833333333","6501000","淡水區"
"251001","559-UM","2018/02/20 17:29:39","新北市淡水區民權路92巷35-1號","121.462218333333","25.1266933333333","6501000","淡水區"
"251006","561-UM","2018/02/20 17:29:40","新北市淡水區大仁街56號","121.442826666667","25.1758483333333","6501000","淡水區"
"251007","577-R6","2018/02/20 17:29:55","新北市淡水區民生路47-4號","121.462068333333","25.1379866666667","6501000","淡水區"
"251011","650-BX","2018/02/20 17:29:48","新北市淡水區坪頂路718號","121.482533333333","25.15844","6501000","淡水區"
"251002","672-BX","2018/02/20 17:29:51","新北市淡水區中正路437號","121.432061666667","25.1747183333333","6501000","淡水區"
"251003","766-UM","2018/02/20 17:29:44","新北市淡水區真理街4號","121.438373333333","25.172935","6501000","淡水區"
"207003","225-TW","2018/02/20 17:29:44","新北市萬里區龜吼里翡翠路17號","121.683385","25.18723","6502800","萬里區"
"252002","178-VK","2018/02/20 17:29:45","新北市三芝區忠孝街1-14號","121.505461666667","25.2539866666667","6502100","三芝區"
"252001","292-VK","2018/02/20 17:29:49","新北市三芝區長安街119號","121.498046666667","25.2596233333333","6502100","三芝區"
"237011","KEA-2596","2018/02/20 17:29:45","新北市三峽區中山路107巷83-1號","121.350573333333","24.934245","6500900","三峽區"
"242029","986-R7","2018/02/20 17:29:41","新北市新莊區思源路163號","121.459795","25.044745","6500500","新莊區"
"242051","751-BX","2018/02/20 17:29:44","新北市新莊區新樹路266-6號","121.43259","25.01373","6500500","新莊區"
"242025","615-BX","2018/02/20 17:29:39","新北市新莊區中港路266號","121.453191666667","25.0438633333333","6500500","新莊區"
"242027","612-BX","2018/02/20 17:29:51","新北市新莊區思源路289號","121.459865","25.0483483333333","6500500","新莊區"
"242039","566-BX","2018/02/20 17:29:55","新北市新莊區民安東路2號","121.427786666667","25.0209216666667","6500500","新莊區"
"242044","497-BY","2018/02/20 17:29:38","新北市新莊區富國路75號","121.420011666667","25.0259866666667","6500500","新莊區"
"242009","441-UM","2018/02/20 17:29:45","新北市新莊區中原路236號","121.452838333333","25.0544933333333","6500500","新莊區"
"242054","440-UM","2018/02/20 17:29:50","新北市新莊區瓊林南路317號","121.434531666667","25.0055466666667","6500500","新莊區"
"242034","415-TV","2018/02/20 17:29:52","新北市新莊區新莊路378號","121.449173333333","25.0334666666667","6500500","新莊區"
"242005","413-TV","2018/02/20 17:29:47","新北市新莊區中華路二段20-1號","121.453438333333","25.0446433333333","6500500","新莊區"
"242042","400-BY","2018/02/20 17:29:40","新北市新莊區中正路514巷19號","121.432981666667","25.03301","6500500","新莊區"
"242061","362-BY","2018/02/20 17:29:53","新北市新莊區瓊林南路7號","121.438301666667","25.02056","6500500","新莊區"
"242058","353-BY","2018/02/20 17:29:48","新北市新莊區中正路530號","121.430971666667","25.03161","6500500","新莊區"
"242007","132-UY","2018/02/20 17:29:38","新北市新莊區自強街30號","121.454786666667","25.0461883333333","6500500","新莊區"
"242037","133-UY","2018/02/20 17:29:48","新北市新莊區建國一路288巷47號","121.434153333333","25.0257816666667","6500500","新莊區"
"242021","135-UY","2018/02/20 17:29:55","新北市新莊區中華路一段29號","121.451916666667","25.037255","6500500","新莊區"
"242046","172-VK","2018/02/20 17:29:53","新北市新莊區新樹路51號","121.440156666667","25.0319816666667","6500500","新莊區"
"242015","175-VK","2018/02/20 17:29:24","新北市新莊區新泰路208號","121.446771666667","25.0387","6500500","新莊區"
"242002","176-VK","2018/02/20 17:29:41","新北市新莊區新莊路154號","121.455261666667","25.0354383333333","6500500","新莊區"
"242013","346-TH","2018/02/20 17:29:40","新北市新莊區中誠街14號","121.451971666667","25.0482783333333","6500500","新莊區"
"242019","348-TH","2018/02/20 17:29:53","新北市新莊區中港路77號","121.45545","25.0389116666667","6500500","新莊區"
"242056","349-TH","2018/02/20 17:29:49","新北市新莊區新泰路18號","121.449648333333","25.0331583333333","6500500","新莊區"
"242017","350-TH","2018/02/20 17:29:43","新北市新莊區德豐街4號","121.451641666667","25.0439383333333","6500500","新莊區"
"242011","351-TH","2018/02/20 17:29:35","新北市新莊區中港路404號","121.45223","25.050045","6500500","新莊區"
"238015","755-BX","2018/02/20 17:29:38","新北市樹林區大安路269號","121.418983333333","24.9936733333333","6500700","樹林區"
"238023","601-UM","2018/02/20 17:29:44","新北市樹林區中正路433號","121.414961666667","25.0085366666667","6500700","樹林區"
"238019","599-UM","2018/02/20 17:29:46","新北市樹林區太平路56巷1號","121.419028333333","24.981845","6500700","樹林區"
"238018","571-TV","2018/02/20 17:29:49","新北市樹林區鎮前街181號","121.421768333333","24.9869233333333","6500700","樹林區"
"238024","5061-A6","2018/02/20 17:29:55","新北市樹林區樹新路1號","121.42658","24.9937616666667","6500700","樹林區"
"238021","KEA-2217","2018/02/20 17:29:41","新北市樹林區柑園街一段116巷10號","121.39941","24.9603616666667","6500700","樹林區"
"238022","KEA-2213","2018/02/20 17:29:46","新北市樹林區和平街43號","121.423181666667","24.98183","6500700","樹林區"
"238025","303-VK","2018/02/20 17:29:52","新北市樹林區保安街一段227號","121.42026","24.9965016666667","6500700","樹林區"
"238017","283-BY","2018/02/20 17:29:40","新北市樹林區光武街32巷16號","121.416966666667","25.005365","6500700","樹林區"
"238014","282-BY","2018/02/20 17:29:53","新北市樹林區大安路208號","121.420241666667","24.9954933333333","6500700","樹林區"
"238020","268-VK","2018/02/20 17:29:44","新北市樹林區俊英街48-2號","121.428601666667","25.0031266666667","6500700","樹林區"
"238026","172-UY","2018/02/20 17:29:55","新北市樹林區中山路二段249巷2號","121.40192","24.9757666666667","6500700","樹林區"
"238016","169-UY","2018/02/20 17:29:43","新北市樹林區長壽街28巷4弄2號","121.42326","24.9943633333333","6500700","樹林區"
"239007","AAC-297","2018/02/20 17:29:50","新北市鶯歌區行政路97號","121.354048333333","24.9562716666667","6500800","鶯歌區"
"239006","891-R6","2018/02/20 17:29:46","新北市鶯歌區鶯桃路472巷55號","121.333223333333","24.96601","6500800","鶯歌區"
"239008","527-UM","2018/02/20 17:29:48","新北市鶯歌區大湖路768號","121.331746666667","24.977475","6500800","鶯歌區"
"239001","417-VK","2018/02/20 17:29:47","新北市鶯歌區高職西街81號","121.33597","24.9416","6500800","鶯歌區"
"239003","360-BY","2018/02/20 17:29:45","新北市鶯歌區鶯桃路289-1號","121.33478","24.9602833333333","6500800","鶯歌區"
"239004","193-VK","2018/02/20 17:29:47","新北市鶯歌區三鶯路21號","121.35612","24.9415933333333","6500800","鶯歌區"
"221033","647-BX","2018/02/20 17:29:36","新北市汐止區新台五路一段129號","121.652383333333","25.0617533333333","6501100","汐止區"
"242048","281-VK","2018/02/20 17:29:52","新北市新莊區四維路210號","121.421303333333","25.0201716666667","6500500","新莊區"
"241031","AAD-800","2018/02/20 17:23:49","新北市板橋區民生路二段89-6號","121.470588333333","25.0192716666667","6500200","三重區"
"242032","280-VK","2018/02/20 17:29:54","新北市新莊區新泰路462號","121.443341666667","25.0448966666667","6500500","新莊區"
