"lineid","car","time","location","longitude","latitude","cityid","cityname"
"234046","148-BY","2018/02/20 18:29:55","新北市永和區福和路1號","121.525685","25.009415","6500400","永和區"
"234007","207-UY","2018/02/20 18:29:39","新北市永和區環河西路二段223號","121.501053333333","25.01031","6500400","永和區"
"234081","298-R6","2018/02/20 18:29:50","新北市永和區福和路1號","121.52642","25.0099666666667","6500400","永和區"
"234086","338-UY","2018/02/20 18:29:46","新北市永和區環河東路二段92號","121.524505","25.0105416666667","6500400","永和區"
"234042","862-TW","2018/02/20 18:29:37","新北市永和區永貞路267號","121.511826666667","25.0048066666667","6500400","永和區"
"234026","9371-KE","2018/02/20 18:29:54","新北市永和區豫溪街52巷25號","121.51574","25.0089","6500400","永和區"
"234011","9373-KE","2018/02/20 18:29:37","新北市永和區信義路126-1號","121.51241","25.0151616666667","6500400","永和區"
"249005","172-UM","2018/02/20 18:29:41","新北市八里區中華路三段62號","121.394131666667","25.1404583333333","6502300","八里區"
"249001","173-UM","2018/02/20 18:29:42","新北市八里區龍米路一段98號","121.453325","25.1245283333333","6502300","八里區"
"249004","303-UY","2018/02/20 18:29:52","新北市八里區忠四街43號","121.424965","25.1611883333333","6502300","八里區"
"249002","305-UY","2018/02/20 18:29:51","新北市八里區龍形三街26號","121.447875","25.1317733333333","6502300","八里區"
"248014","025-BX","2018/02/20 18:29:50","新北市五股區明德路7巷23號","121.43492","25.0707966666667","6501500","五股區"
"248016","026-BX","2018/02/20 18:29:41","新北市五股區凌雲路一段83巷22弄1號","121.449855","25.1007666666667","6501500","五股區"
"248006","077-UY","2018/02/20 18:29:44","新北市五股區四維路38號","121.467413333333","25.0715633333333","6501500","五股區"
"248008","095-VK","2018/02/20 18:29:49","新北市五股區四維路185巷41號","121.463838333333","25.0777183333333","6501500","五股區"
"248020","225-UY","2018/02/20 18:29:40","新北市五股區孝義路55巷1號","121.45277","25.112095","6501500","五股區"
"248012","247-BX","2018/02/20 18:29:37","新北市五股區御成路145號","121.440928333333","25.0943066666667","6501500","五股區"
"248004","677-BX","2018/02/20 18:29:55","新北市五股區工商路130號","121.436023333333","25.0860383333333","6501500","五股區"
"248010","682-TV","2018/02/20 18:29:58","新北市五股區水碓路22巷12號","121.433838333333","25.0729733333333","6501500","五股區"
"244013","069-UM","2018/02/20 18:29:50","新北市林口區中山路260號","121.384936666667","25.0798683333333","6501700","林口區"
"244007","080-UY","2018/02/20 18:29:44","新北市林口區湖北里61號","121.382876666667","25.1076","6501700","林口區"
"244019","402-UM","2018/02/20 18:29:36","新北市林口區忠孝路569巷6號","121.373923333333","25.0684933333333","6501700","林口區"
"244023","483-VK","2018/02/20 18:29:46","新北市林口區四維路156-2號","121.38115","25.075525","6501700","林口區"
"244017","485-VK","2018/02/20 18:29:47","新北市林口區八德路78號","121.365611666667","25.0656183333333","6501700","林口區"
"244009","657-BX","2018/02/20 18:29:47","新北市林口區文化三路二段315號","121.379503333333","25.0872316666667","6501700","林口區"
"244011","701-TV","2018/02/20 18:29:56","新北市林口區仁愛路一段266號","121.393875","25.076025","6501700","林口區"
"244025","837-TS","2018/02/20 18:29:41","新北市林口區南勢四街192號","121.356425","25.0729433333333","6501700","林口區"
"244021","838-TS","2018/02/20 18:29:54","新北市林口區自強六街10號","121.399836666667","25.0766466666667","6501700","林口區"
"243012","AAD-798","2018/02/20 18:29:59","新北市泰山區忠孝街14-1號","121.427641666667","25.064975","6501600","泰山區"
"243013","646-TV","2018/02/20 18:29:54","新北市泰山區明志路三段206巷3號","121.423256666667","25.0379466666667","6501600","泰山區"
"222003","436-BY","2018/02/20 18:29:52","新北市深坑區烏月路56-1號","121.631221666667","25.0057533333333","6501800","深坑區"
"222002","659-BX","2018/02/20 18:29:48","新北市深坑區雲鄉路182號","121.622195","24.9983266666667","6501800","深坑區"
"231060","001-UM","2018/02/20 18:29:49","新北市新店區安華路28-1號","121.519511666667","24.9608966666667","6500600","新店區"
"231041","002-UM","2018/02/20 18:29:44","新北市新店區安華路28-1號","121.519771666667","24.9605966666667","6500600","新店區"
"231059","046-UY","2018/02/20 18:29:40","新北市新店區安華路28-1號","121.519723333333","24.96099","6500600","新店區"
"231061","047-UY","2018/02/20 18:29:41","新北市新店區安華路28-1號","121.519245","24.960915","6500600","新店區"
"231051","107-UY","2018/02/20 18:29:52","新北市新店區安康路一段94號","121.527746666667","24.9621333333333","6500600","新店區"
"231048","108-UY","2018/02/20 18:29:43","新北市新店區安華路28-1號","121.519443333333","24.9609833333333","6500600","新店區"
"231053","187-VK","2018/02/20 18:29:54","新北市新店區新烏路一段50-2號","121.545741666667","24.9492733333333","6500600","新店區"
"231050","KEA-2219","2018/02/20 18:29:38","新北市新店區安華路28-1號","121.519883333333","24.9612083333333","6500600","新店區"
"231057","256-BX","2018/02/20 18:29:49","新北市新店區環河路1-2號","121.538138333333","24.9615533333333","6500600","新店區"
"231046","278-BY","2018/02/20 18:29:41","新北市新店區直潭七街60號","121.532306666667","24.939685","6500600","新店區"
"231058","3712-VJ","2018/02/20 18:29:53","新北市新店區新店後街58號","121.537753333333","24.953985","6500600","新店區"
"231056","3713-VJ","2018/02/20 18:29:40","新北市新店區中央路2號","121.533876666667","24.9787633333333","6500600","新店區"
"231055","4716-K9","2018/02/20 18:29:39","新北市新店區中正路128巷15號","121.542735","24.9722616666667","6500600","新店區"
"231067","4772-VM","2018/02/20 18:29:53","新北市新店區安華路1-1號","121.519181666667","24.96053","6500600","新店區"
"231065","512-UM","2018/02/20 18:29:47","新北市新店區安華路28-1號","121.519205","24.9612633333333","6500600","新店區"
"231064","515-UM","2018/02/20 18:29:48","新北市新店區安華路28-1號","121.519656666667","24.9608633333333","6500600","新店區"
"231040","619-UM","2018/02/20 18:29:44","新北市新店區安華路28-1號","121.519503333333","24.9607433333333","6500600","新店區"
"231042","641-BX","2018/02/20 18:29:46","新北市新店區安華路28-1號","121.519651666667","24.9605683333333","6500600","新店區"
"231063","645-TV","2018/02/20 18:29:42","新北市新店區安華路28-1號","121.519313333333","24.9606116666667","6500600","新店區"
"231049","719-UM","2018/02/20 18:29:58","新北市新店區安華路28-1號","121.519535","24.961265","6500600","新店區"
"231062","720-UM","2018/02/20 18:29:47","新北市新店區安華路28-1號","121.51921","24.96114","6500600","新店區"
"231044","897-TW","2018/02/20 18:29:54","新北市新店區安華路28-1號","121.51966","24.960895","6500600","新店區"
"231045","898-TW","2018/02/20 18:24:11","新北市新店區安華路28-1號","121.51937","24.9609316666667","6500600","新店區"
"231043","899-TW","2018/02/20 18:29:49","新北市新店區安華路28-1號","121.519261666667","24.9608066666667","6500600","新店區"
"231066","AKT-0513","2018/02/20 18:29:59","新北市新店區安華路28-1號","121.519431666667","24.9605783333333","6500600","新店區"
"241011","013-R5","2018/02/20 18:29:44","新北市三重區龍濱路199號","121.501855","25.0715916666667","6500200","三重區"
"235066","003-UY","2018/02/20 18:29:48","新北市中和區中山路二段120號","121.502673333333","25.0036966666667","6500300","中和區"
"235064","005-UY","2018/02/20 18:29:54","新北市中和區圓通路124號","121.49867","24.9958466666667","6500300","中和區"
"235063","006-UY","2018/02/20 18:29:53","新北市中和區連城路347巷16弄24號","121.487393333333","24.9951333333333","6500300","中和區"
"235056","096-UM","2018/02/20 18:29:43","新北市中和區員山路611巷5弄3號","121.477993333333","25.011175","6500300","中和區"
"235039","097-UM","2018/02/20 18:29:44","新北市中和區宜安路66號","121.511443333333","24.9970183333333","6500300","中和區"
"235065","098-UM","2018/02/20 18:29:40","新北市中和區莊敬路49巷10弄12號","121.502023333333","25.0053683333333","6500300","中和區"
"235058","151-BY","2018/02/20 18:29:54","新北市中和區圓通路369巷30弄50號","121.488401666667","24.9840616666667","6500300","中和區"
"235055","183-VK","2018/02/20 18:29:35","新北市中和區莒光路127號","121.47261","25.0019666666667","6500300","中和區"
"235049","186-VK","2018/02/20 18:29:39","新北市中和區景平路502號","121.504335","24.99363","6500300","中和區"
"235067","255-BX","2018/02/20 18:29:44","新北市中和區新生街274號","121.483695","24.9969566666667","6500300","中和區"
"235044","293-VK","2018/02/20 18:29:46","新北市中和區復興路301巷27號","121.502053333333","24.98963","6500300","中和區"
"235072","301-VK","2018/02/20 18:29:42","新北市中和區連城路6號","121.499118333333","25.00229","6500300","中和區"
"235043","352-BY","2018/02/20 18:29:49","新北市中和區景平路293號","121.5071","24.9930633333333","6500300","中和區"
"235061","378-QA","2018/02/20 18:29:56","新北市中和區民享街97巷2號","121.475015","24.9993533333333","6500300","中和區"
"235050","4979-A6","2018/02/20 18:29:57","新北市中和區景新街362巷10號","121.511878333333","24.9901483333333","6500300","中和區"
"235069","4980-A6","2018/02/20 18:29:37","新北市中和區連城路127巷25號","121.49706","24.9977333333333","6500300","中和區"
"235042","551-UM","2018/02/20 18:29:55","新北市中和區自立路56巷17號","121.522723333333","24.9916683333333","6500300","中和區"
"235070","558-UM","2018/02/20 18:29:45","新北市中和區景平路429-3號","121.501286666667","24.9956116666667","6500300","中和區"
"235045","565-BX","2018/02/20 18:29:48","新北市中和區南山路236巷24弄23號","121.5049","24.98872","6500300","中和區"
"235054","640-BX","2018/02/20 18:29:46","新北市中和區民享街89巷1號","121.474555","25.0016366666667","6500300","中和區"
"235060","647-TV","2018/02/20 18:29:50","新北市中和區員山路437-3號","121.480611666667","25.0039933333333","6500300","中和區"
"235047","732-UM","2018/02/20 18:29:52","新北市中和區南山路318號","121.507843333333","24.986645","6500300","中和區"
"235046","733-UM","2018/02/20 18:29:48","新北市中和區南山路291號","121.504375","24.9920366666667","6500300","中和區"
"235062","800-TS","2018/02/20 18:29:44","新北市中和區景平路720號","121.496741666667","25.002995","6500300","中和區"
"235057","801-TS","2018/02/20 18:29:47","新北市中和區民享街97巷15號","121.475576666667","24.9999533333333","6500300","中和區"
"235052","805-TS","2018/02/20 18:29:54","新北市中和區興南路二段131號","121.503773333333","24.9823716666667","6500300","中和區"
"235048","896-TW","2018/02/20 18:29:53","新北市中和區南山路231號","121.503476666667","24.993205","6500300","中和區"
"235053","900-TW","2018/02/20 18:29:48","新北市中和區民享街457號","121.470406666667","24.9931533333333","6500300","中和區"
"235038","911-UM","2018/02/20 18:29:39","新北市永和區民有街75巷10弄16號","121.518935","24.9960183333333","6500300","中和區"
"235051","157-BY","2018/02/20 18:29:39","新北市中和區興南路二段142巷12-3號","121.503151666667","24.98391","6500300","中和區"
"235037","AAC-213","2018/02/20 18:29:46","新北市中和區景平路151巷47號","121.514711666667","24.99043","6500300","中和區"
"235059","AAC-215","2018/02/20 18:29:42","新北市中和區員山路36巷16-3號","121.485051666667","24.99133","6500300","中和區"
"220065","072-UY","2018/02/20 18:29:43","新北市板橋區華東街1-9號","121.448146666667","24.9949383333333","6500100","板橋區"
"220086","073-UY","2018/02/20 18:29:56","新北市板橋區南雅西路一段110號","121.452526666667","25.0059216666667","6500100","板橋區"
"247008","341-TH","2018/02/20 18:29:57","新北市八里區下罟子30-35號","121.367806666667","25.1352133333333","6501400","蘆洲區"
"226004","312-R5","2018/02/20 18:29:48","新北市平溪區靜安路二段294巷18號","121.734658333333","25.0236766666667","6502400","平溪區"
"235041","251-BX","2018/02/20 18:29:46","新北市中和區景新街170號","121.505905","24.99657","6500300","中和區"
"228003","097-TW","2018/02/20 18:29:54","新北市貢寮區和美里和美街44號","121.914816666667","25.0922333333333","6502600","貢寮區"
"228001","212-TW","2018/02/20 18:29:46","新北市貢寮區仁理村仁和路92號","121.922816666667","25.05047","6502600","貢寮區"
"228002","585-TW","2018/02/20 18:29:54","新北市貢寮區福連里福連街34號","121.98851","25.0114166666667","6502600","貢寮區"
"224010","AGQ-8101","2018/02/20 18:29:43","新北市瑞芳區基山街149號","121.84408","25.1079766666667","6501200","瑞芳區"
"224006","676-BX","2018/02/20 18:29:47","新北市瑞芳區明燈路三段36-1號","121.807736666667","25.1077983333333","6501200","瑞芳區"
"224002","640-TC","2018/02/20 18:29:45","新北市瑞芳區三爪子坑路29巷65號","121.813971666667","25.1061733333333","6501200","瑞芳區"
"224009","285-BY","2018/02/20 18:29:50","新北市瑞芳區祈堂路229號","121.856496666667","25.1091116666667","6501200","瑞芳區"
"224008","275-VK","2018/02/20 18:29:55","新北市瑞芳區逢甲路29號","121.809235","25.1088433333333","6501200","瑞芳區"
"224007","273-VK","2018/02/20 18:29:55","新北市瑞芳區大埔路有勝二村11號","121.764036666667","25.0999966666667","6501200","瑞芳區"
"224005","271-BY","2018/02/20 18:29:38","新北市瑞芳區建基新村5-1號","121.811946666667","25.1313566666667","6501200","瑞芳區"
"227003","642-TC","2018/02/20 18:29:46","新北市雙溪區魚行里坤溪15-1號","121.873115","25.0241816666667","6502500","雙溪區"
"227009","400-TW","2018/02/20 18:29:43","新北市雙溪區牡丹里牡丹113號","121.850981666667","25.0597816666667","6502500","雙溪區"
"253005","032-BX","2018/02/20 18:29:50","新北市石門區老崩山10-7號","121.552571666667","25.2909583333333","6502200","石門區"
"253006","295-VK","2018/02/20 18:29:41","新北市石門區公地16號","121.545753333333","25.2902416666667","6502200","石門區"
"222001","KEA-2212","2018/02/20 18:29:43","新北市深坑區北深路一段232號","121.630306666667","25.0090266666667","6501800","深坑區"
"208002","KEA-2872","2018/02/20 18:29:53","新北市金山區民生路45號","121.64205","25.221075","6502700","金山區"
"208003","665-BX","2018/02/20 18:29:56","新北市金山區中山路233號","121.637443333333","25.2217583333333","6502700","金山區"
"208001","761-BX","2018/02/20 18:29:50","新北市金山區溫泉路21巷1號","121.637773333333","25.2228533333333","6502700","金山區"
"251004","009-UM","2018/02/20 18:21:07","新北市淡水區民族路31巷14號","121.462695","25.1361283333333","6501000","淡水區"
"251013","179-VK","2018/02/20 18:29:45","新北市淡水區椿子林8號","121.486813333333","25.2033416666667","6501000","淡水區"
"251014","180-VK","2018/02/20 18:29:43","新北市淡水區南平26-2號","121.493496666667","25.21465","6501000","淡水區"
"251008","181-VK","2018/02/20 18:29:52","新北市淡水區北投子93-2號","121.465461666667","25.1762016666667","6501000","淡水區"
"251015","182-VK","2018/02/20 18:29:57","新北市淡水區興福寮88巷228號","121.486163333333","25.16647","6501000","淡水區"
"251010","413-VK","2018/02/20 18:29:49","新北市淡水區沙崙路181巷1號","121.424153333333","25.1842233333333","6501000","淡水區"
"251012","441-VK","2018/02/20 18:29:33","新北市淡水區北新路一段31號","121.454463333333","25.1810883333333","6501000","淡水區"
"251016","442-VK","2018/02/20 18:29:48","新北市淡水區下圭柔山106號","121.443526666667","25.2093233333333","6501000","淡水區"
"251001","559-UM","2018/02/20 18:29:39","新北市淡水區自強路122-3號","121.464816666667","25.1333666666667","6501000","淡水區"
"251006","561-UM","2018/02/20 18:29:40","新北市淡水區中山北路一段151號","121.443043333333","25.1773083333333","6501000","淡水區"
"251011","650-BX","2018/02/20 18:29:48","新北市淡水區學府路32巷95號","121.448191666667","25.1675533333333","6501000","淡水區"
"251002","672-BX","2018/02/20 18:29:51","新北市淡水區中正東路一段21巷33號","121.452571666667","25.1642966666667","6501000","淡水區"
"251003","766-UM","2018/02/20 18:29:44","新北市淡水區北新路169巷47號","121.449008333333","25.180635","6501000","淡水區"
"207003","225-TW","2018/02/20 18:29:44","新北市萬里區野柳里港東路73號","121.688255","25.2050533333333","6502800","萬里區"
"252002","178-VK","2018/02/20 18:29:45","新北市三芝區中山路二段29號","121.502736666667","25.2553433333333","6502100","三芝區"
"252003","249-BX","2018/02/20 18:29:38","新北市三芝區後厝里北勢子41-2號","121.472066666667","25.2527","6502100","三芝區"
"252001","292-VK","2018/02/20 18:29:49","新北市三芝區中興街二段2號","121.498426666667","25.2566666666667","6502100","三芝區"
"237004","KEA-2597","2018/02/20 18:29:48","新北市三峽區五寮6號","121.376425","24.8720383333333","6500900","三峽區"
"237007","153-BY","2018/02/20 18:29:54","新北市三峽區中正路三段70巷41號","121.355088333333","24.9048266666667","6500900","三峽區"
"237009","210-TH","2018/02/20 18:29:54","新北市三峽區民族街178-1號","121.368506666667","24.927965","6500900","三峽區"
"237013","252-BX","2018/02/20 18:29:52","新北市三峽區永安街9巷21號","121.37578","24.9292433333333","6500900","三峽區"
"237012","275-BY","2018/02/20 18:29:54","新北市三峽區三樹路112號","121.378306666667","24.93925","6500900","三峽區"
"237008","302-VK","2018/02/20 18:29:45","新北市三峽區白雞68-119號","121.391691666667","24.9081383333333","6500900","三峽區"
"237014","433-BY","2018/02/20 18:29:50","新北市三峽區和平街65-4號","121.369958333333","24.9367383333333","6500900","三峽區"
"237006","5529-G3","2018/02/20 18:29:40","新北市三峽區隆恩街232號","121.35801","24.941245","6500900","三峽區"
"237011","KEA-2596","2018/02/20 18:29:45","新北市三峽區溪東路215號","121.4061","24.9328583333333","6500900","三峽區"
"237015","649-BX","2018/02/20 18:29:38","新北市三峽區紫微南路39號","121.420921666667","24.9138883333333","6500900","三峽區"
"237010","706-TV","2018/02/20 18:29:46","新北市三峽區中山路237號","121.362725","24.9372233333333","6500900","三峽區"
"237005","AKY-6261","2018/02/20 18:29:46","新北市三峽區大同路3-1號","121.377755","24.929075","6500900","三峽區"
"236070","105-UM","2018/02/20 18:29:53","新北市土城區永豐路255巷21弄1號","121.47507","24.9737916666667","6501300","土城區"
"236043","107-UM","2018/02/20 18:29:58","新北市土城區裕民路67巷4弄10號","121.450081666667","24.9877","6501300","土城區"
"236079","166-UM","2018/02/20 18:29:37","新北市土城區大暖路9號","121.422621666667","24.9612933333333","6501300","土城區"
"236031","253-BX","2018/02/20 18:29:57","新北市土城區水源街83號","121.439625","24.97651","6501300","土城區"
"236026","269-VK","2018/02/20 18:29:39","新北市土城區南天母路137-2號","121.447716666667","24.954005","6501300","土城區"
"236015","270-VK","2018/02/20 18:29:48","新北市土城區立清街69號","121.460333333333","24.9873266666667","6501300","土城區"
"236038","271-VK","2018/02/20 18:29:53","新北市土城區明德路一段315號","121.459415","24.9771383333333","6501300","土城區"
"236023","401-BY","2018/02/20 18:29:55","新北市土城區永豐路202巷3-1號","121.466551666667","24.9832066666667","6501300","土城區"
"236059","912-UM","2018/02/20 18:29:52","新北市土城區信義路2號","121.412875","24.954385","6501300","土城區"
"236049","913-UM","2018/02/20 18:29:47","新北市土城區青雲路459號","121.458693333333","24.9744116666667","6501300","土城區"
"236063","915-UM","2018/02/20 18:29:36","新北市土城區延壽路77巷6弄10號","121.468476666667","24.992985","6501300","土城區"
"236055","AAC-216","2018/02/20 18:29:57","新北市土城區中華路二段1號","121.439716666667","24.9792083333333","6501300","土城區"
"242051","751-BX","2018/02/20 18:29:43","新北市新莊區民安西路41號","121.427545","25.0208116666667","6500500","新莊區"
"242044","497-BY","2018/02/20 18:29:51","新北市新莊區中正路新旺巷8號","121.415816666667","25.0233616666667","6500500","新莊區"
"242054","440-UM","2018/02/20 18:29:39","新北市新莊區大安路10巷5號","121.430831666667","25.0064883333333","6500500","新莊區"
"242042","400-BY","2018/02/20 18:29:40","新北市新莊區天祥街82巷7號","121.415686666667","25.0297833333333","6500500","新莊區"
"242061","362-BY","2018/02/20 18:29:52","新北市新莊區民安路179號","121.425826666667","25.023215","6500500","新莊區"
"242058","353-BY","2018/02/20 18:29:47","新北市新莊區中正路897-10號","121.411608333333","25.0216116666667","6500500","新莊區"
"242007","132-UY","2018/02/20 18:29:58","新北市新莊區自強街59巷11號","121.454151666667","25.0471416666667","6500500","新莊區"
"242037","133-UY","2018/02/20 18:29:48","新北市新莊區福營路377號","121.423315","25.02714","6500500","新莊區"
"242046","172-VK","2018/02/20 18:29:33","新北市新莊區中正路747號","121.422358333333","25.02878","6500500","新莊區"
"242056","349-TH","2018/02/20 18:29:59","新北市新莊區豐年街76號","121.446448333333","25.031285","6500500","新莊區"
"242011","351-TH","2018/02/20 18:29:55","新北市新莊區中榮街75-2號","121.445801666667","25.0528283333333","6500500","新莊區"
"238015","755-BX","2018/02/20 18:29:38","新北市樹林區文化街112巷6號","121.417115","24.9901983333333","6500700","樹林區"
"238023","601-UM","2018/02/20 18:29:55","新北市樹林區忠信街18號","121.407936666667","25.01545","6500700","樹林區"
"238018","571-TV","2018/02/20 18:29:43","新北市樹林區中山路三段198號","121.387051666667","24.968895","6500700","樹林區"
"238024","5061-A6","2018/02/20 18:29:55","新北市樹林區中山路一段157號","121.422008333333","24.9887533333333","6500700","樹林區"
"238021","KEA-2217","2018/02/20 18:29:41","新北市樹林區西圳街二段30號","121.388553333333","24.9617533333333","6500700","樹林區"
"238025","303-VK","2018/02/20 18:29:52","新北市樹林區大安路84-4號","121.420458333333","24.9957183333333","6500700","樹林區"
"238017","283-BY","2018/02/20 18:29:40","新北市樹林區光榮街3巷9弄2號","121.412591666667","25.0039166666667","6500700","樹林區"
"238020","268-VK","2018/02/20 18:29:44","新北市樹林區三俊街45號","121.412688333333","25.015635","6500700","樹林區"
"238026","172-UY","2018/02/20 18:29:55","新北市樹林區佳園路一段82-1號","121.393345","24.96963","6500700","樹林區"
"239007","AAC-297","2018/02/20 18:29:50","新北市鶯歌區尖山埔路1-1號","121.34974","24.9510966666667","6500800","鶯歌區"
"239001","417-VK","2018/02/20 18:29:47","新北市鶯歌區國中街106號","121.340223333333","24.94042","6500800","鶯歌區"
"239003","360-BY","2018/02/20 18:29:45","新北市鶯歌區福安街13巷1號","121.335536666667","24.965295","6500800","鶯歌區"
"239004","193-VK","2018/02/20 18:29:47","新北市鶯歌區尖山路242號","121.342916666667","24.9466816666667","6500800","鶯歌區"
"221008","489-VK","2018/02/20 18:29:46","新北市汐止區康寧街901號","121.651365","25.0750216666667","6501100","汐止區"
"221036","130-UY","2018/02/20 18:29:56","新北市汐止區大同路三段119號","121.668746666667","25.0776666666667","6501100","汐止區"
"221015","131-UY","2018/02/20 18:29:57","新北市汐止區鄉友街5號","121.668098333333","25.0807116666667","6501100","汐止區"
"221010","269-BY","2018/02/20 18:29:55","新北市汐止區汐萬路35號","121.644165","25.0915783333333","6501100","汐止區"
"221012","278-VK","2018/02/20 18:29:48","新北市汐止區保長路51巷3號","121.673455","25.0788883333333","6501100","汐止區"
"221023","279-VK","2018/02/20 18:29:50","新北市汐止區康寧街476號","121.63209","25.0683683333333","6501100","汐止區"
"221032","280-BY","2018/02/20 18:29:43","新北市汐止區民權街二段109巷34號","121.619956666667","25.046195","6501100","汐止區"
"221027","281-BY","2018/02/20 18:29:40","新北市汐止區和平街37號","121.662348333333","25.0706883333333","6501100","汐止區"
"221029","298-VK","2018/02/20 18:29:39","新北市汐止區樟樹一路272-4號","121.642725","25.068715","6501100","汐止區"
"221021","299-VK","2018/02/20 18:29:56","新北市汐止區復興路53巷2號","121.656891666667","25.0626166666667","6501100","汐止區"
"221031","353-TW","2018/02/20 18:29:55","新北市汐止區新台五路一段35號","121.636626666667","25.055845","6501100","汐止區"
"221035","622-UM","2018/02/20 18:29:51","新北市汐止區大同路二段112號","121.650468333333","25.0635366666667","6501100","汐止區"
"221025","623-UM","2018/02/20 18:29:54","新北市汐止區仁愛路124號","121.662978333333","25.0637933333333","6501100","汐止區"
"221038","646-BX","2018/02/20 18:29:48","新北市汐止區大同路二段389號","121.657725","25.0672733333333","6501100","汐止區"
"221033","647-BX","2018/02/20 18:29:36","新北市汐止區宜興街14號","121.62134","25.04151","6501100","汐止區"
"221002","707-TV","2018/02/20 18:29:43","新北市汐止區福德一路153號","121.636518333333","25.06661","6501100","汐止區"
"221018","753-BX","2018/02/20 18:29:55","新北市汐止區茄苳路211號","121.670628333333","25.069095","6501100","汐止區"
"220079","145-BY","2018/02/20 18:29:49","新北市板橋區華東街1-8號","121.447515","24.9949966666667","6500100","板橋區"
"220082","610-BX","2018/02/20 18:29:52","新北市板橋區華東街1-9號","121.448255","24.9949116666667","6500100","板橋區"
"220056","276-BY","2018/02/20 18:29:39","新北市板橋區華東街1-9號","121.448215","24.994805","6500100","板橋區"
"220081","287-VK","2018/02/20 18:29:45","新北市板橋區華東街1-10號","121.448288333333","24.99497","6500100","板橋區"
"220084","296-UM","2018/02/20 18:29:41","新北市板橋區華東街1-9號","121.448126666667","24.9949583333333","6500100","板橋區"
"242048","281-VK","2018/02/20 18:29:52","新北市新莊區民安路49號","121.423938333333","25.0262133333333","6500500","新莊區"
"220075","303-R5","2018/02/20 18:29:56","新北市板橋區華東街1-10號","121.448293333333","24.9948816666667","6500100","板橋區"
"241031","AAD-800","2018/02/20 18:29:54","新北市板橋區民生路二段89-6號","121.47043","25.0192183333333","6500200","三重區"
"242032","280-VK","2018/02/20 18:29:58","新北市新莊區新泰路255巷82號","121.442781666667","25.0395416666667","6500500","新莊區"
"220035","560-BX","2018/02/20 18:29:47","新北市板橋區南雅西路一段39巷29號","121.452905","25.00394","6500100","板橋區"
"220077","687-BX","2018/02/20 18:29:43","新北市板橋區華東街1-9號","121.448203333333","24.9948983333333","6500100","板橋區"
"220074","895-R6","2018/02/20 18:29:54","新北市板橋區華東街1-9號","121.448113333333","24.9949783333333","6500100","板橋區"
"220073","985-R7","2018/02/20 18:29:56","新北市板橋區華東街1-10號","121.448278333333","24.99498","6500100","板橋區"
"220070","AAC-253","2018/02/20 18:29:57","新北市板橋區華東街1-9號","121.448273333333","24.9948716666667","6500100","板橋區"
