"lineid","car","time","location","longitude","latitude","cityid","cityname"
"234046","148-BY","2018/02/20 19:29:15","新北市永和區秀朗路二段235號","121.526428333333","25.000035","6500400","永和區"
"234067","149-BY","2018/02/20 19:29:19","新北市永和區永貞路360巷8號","121.51061","25.0069083333333","6500400","永和區"
"234007","207-UY","2018/02/20 19:29:19","新北市永和區永和路一段222號","121.514401666667","25.009695","6500400","永和區"
"234081","298-R6","2018/02/20 19:29:10","新北市永和區林森路10巷35號","121.525778333333","25.0063933333333","6500400","永和區"
"234038","336-UY","2018/02/20 19:29:11","新北市永和區民樂街38號","121.527518333333","25.0007383333333","6500400","永和區"
"234064","337-UY","2018/02/20 19:29:24","新北市永和區得和路243巷28弄1號","121.520823333333","25.00132","6500400","永和區"
"234086","338-UY","2018/02/20 19:29:26","新北市永和區林森路29巷2號","121.526123333333","25.0051233333333","6500400","永和區"
"234070","552-UM","2018/02/20 19:29:24","新北市永和區警光街2號","121.520185","25.0096116666667","6500400","永和區"
"234017","745-BX","2018/02/20 19:29:27","新北市永和區環河西路一段87號","121.512325","25.0179966666667","6500400","永和區"
"234030","746-BX","2018/02/20 19:29:24","新北市永和區民權路1巷38號","121.522108333333","24.9981366666667","6500400","永和區"
"234054","KEA-2590","2018/02/20 19:29:11","新北市永和區復興街7號","121.51587","25.01292","6500400","永和區"
"234013","KEA-2591","2018/02/20 19:29:18","新北市永和區永和路二段28號","121.514798333333","25.01046","6500400","永和區"
"234061","AAD-866","2018/02/20 19:29:18","新北市永和區中正路471號","121.517038333333","25.0061416666667","6500400","永和區"
"234042","862-TW","2018/02/20 19:29:17","新北市永和區中和路519巷7號","121.510755","25.0029833333333","6500400","永和區"
"234050","863-TW","2018/02/20 19:29:18","新北市永和區仁愛路88號","121.512606666667","25.013245","6500400","永和區"
"234026","9371-KE","2018/02/20 19:29:14","新北市中和區中安街166號","121.510886666667","25.0000266666667","6500400","永和區"
"234011","9373-KE","2018/02/20 19:29:16","新北市永和區保福路二段163巷13弄16號","121.509195","25.0142783333333","6500400","永和區"
"249003","593-UM","2018/02/20 19:29:24","新北市八里區中山路二段500巷58號","121.395691666667","25.1490133333333","6502300","八里區"
"248014","025-BX","2018/02/20 19:29:10","新北市五股區民義路一段157號","121.432596666667","25.0874983333333","6501500","五股區"
"248008","095-VK","2018/02/20 19:29:29","新北市五股區中興路一段95巷20號","121.466535","25.0722333333333","6501500","五股區"
"248020","225-UY","2018/02/20 19:29:19","新北市五股區凌雲路三段82-1號","121.431688333333","25.1172966666667","6501500","五股區"
"248012","247-BX","2018/02/20 19:29:18","新北市五股區成泰路二段87號","121.438271666667","25.0840466666667","6501500","五股區"
"248004","677-BX","2018/02/20 19:29:15","新北市五股區五福路97號","121.432235","25.0905033333333","6501500","五股區"
"248002","678-BX","2018/02/20 19:18:33","新北市五股區凌雲路一段158巷14-3號","121.447981666667","25.1032783333333","6501500","五股區"
"248010","682-TV","2018/02/20 19:29:17","新北市五股區水碓一路23號","121.430578333333","25.07129","6501500","五股區"
"234023","9380-KE","2018/02/20 19:29:27","新北市永和區竹林路91巷21弄11號","121.520856666667","25.0125266666667","6500400","永和區"
"234077","969-R7","2018/02/20 19:29:09","新北市永和區民族街43巷10號","121.519025","24.99838","6500400","永和區"
"234074","AAC-211","2018/02/20 19:29:15","新北市永和區永和路二段254號","121.516255","25.014865","6500400","永和區"
"234003","AAC-295","2018/02/20 19:29:19","新北市永和區中山路一段9號","121.514073333333","25.0104516666667","6500400","永和區"
"244013","069-UM","2018/02/20 19:29:10","新北市林口區麗園一街4巷2號","121.376173333333","25.070845","6501700","林口區"
"244019","402-UM","2018/02/20 19:29:16","新北市林口區麗園二街12巷4-2號","121.378378333333","25.0684666666667","6501700","林口區"
"244023","483-VK","2018/02/20 19:29:26","新北市林口區民有街66號","121.37292","25.0772016666667","6501700","林口區"
"244009","657-BX","2018/02/20 19:29:27","新北市林口區台電新村162號","121.388745","25.0877416666667","6501700","林口區"
"244011","701-TV","2018/02/20 19:29:16","新北市林口區中正路264巷15號","121.388773333333","25.0782183333333","6501700","林口區"
"243012","AAD-798","2018/02/20 19:29:19","新北市泰山區仁義路222號","121.432825","25.0535083333333","6501600","泰山區"
"243011","297-R6","2018/02/20 19:29:15","新北市泰山區貴子路76號","121.427115","25.04133","6501600","泰山區"
"243015","380-SR","2018/02/20 19:29:16","新北市泰山區明志路二段6號","121.430113333333","25.0537316666667","6501600","泰山區"
"243014","421-VK","2018/02/20 19:29:17","新北市泰山區中港西路422號","121.433751666667","25.0538816666667","6501600","泰山區"
"243010","KEA-2215","2018/02/20 19:29:21","新北市泰山區民生路17巷34號","121.429335","25.0517133333333","6501600","泰山區"
"243009","KEA-2216","2018/02/20 19:29:24","新北市泰山區半山雅5號","121.431261666667","25.0673466666667","6501600","泰山區"
"243013","646-TV","2018/02/20 19:29:14","新北市泰山區明志路三段145巷36弄2號","121.42654","25.0393716666667","6501600","泰山區"
"243016","680-BX","2018/02/20 19:29:19","新北市泰山區工專路63號","121.422243333333","25.0405166666667","6501600","泰山區"
"222003","436-BY","2018/02/20 19:29:13","新北市深坑區深南路88巷1號","121.621068333333","25.0113966666667","6501800","深坑區"
"222002","659-BX","2018/02/20 19:29:28","新北市深坑區北深路一段177號","121.63255","25.0108933333333","6501800","深坑區"
"231060","001-UM","2018/02/20 19:29:09","新北市新店區安光路2號","121.514288333333","24.9634616666667","6500600","新店區"
"231041","002-UM","2018/02/20 19:29:24","新北市新店區中正路707號","121.533888333333","24.990965","6500600","新店區"
"231059","046-UY","2018/02/20 19:29:20","新北市新店區安和路三段122號","121.516878333333","24.9855683333333","6500600","新店區"
"231061","047-UY","2018/02/20 19:29:21","新北市新店區安民街80號","121.516588333333","24.9670233333333","6500600","新店區"
"231051","107-UY","2018/02/20 19:29:12","新北市新店區中央路133巷27弄38號","121.532395","24.9740683333333","6500600","新店區"
"231048","108-UY","2018/02/20 19:29:23","新北市新店區中興路一段282-5號","121.546186666667","24.96822","6500600","新店區"
"231053","187-VK","2018/02/20 19:29:13","新北市新店區新烏路二段212-1號","121.547536666667","24.9162233333333","6500600","新店區"
"231050","KEA-2219","2018/02/20 19:29:18","新北市新店區北宜路二段277號","121.555043333333","24.9537333333333","6500600","新店區"
"231057","256-BX","2018/02/20 19:29:26","新北市新店區花園一路二段11-2號","121.550418333333","24.93349","6500600","新店區"
"231046","278-BY","2018/02/20 19:29:21","新北市新店區光明街133號","121.539313333333","24.9619916666667","6500600","新店區"
"231054","AAD-862","2018/02/20 19:29:30","新北市新店區文中路40號","121.5397","24.9565366666667","6500600","新店區"
"231058","3712-VJ","2018/02/20 19:29:13","新北市新店區寶橋路85巷35號","121.545175","24.976195","6500600","新店區"
"231055","4716-K9","2018/02/20 19:29:19","新北市新店區力行路96號","121.53818","24.9670183333333","6500600","新店區"
"231067","4772-VM","2018/02/20 19:29:13","新北市新店區安康路一段355-4號","121.517386666667","24.9638766666667","6500600","新店區"
"231065","512-UM","2018/02/20 19:29:06","新北市新店區安祥路109巷1弄91號","121.4788","24.960285","6500600","新店區"
"231064","515-UM","2018/02/20 19:29:08","新北市新店區安忠路36號","121.514333333333","24.9613766666667","6500600","新店區"
"231040","619-UM","2018/02/20 19:29:23","新北市新店區北新路一段259號","121.540946666667","24.96625","6500600","新店區"
"231042","641-BX","2018/02/20 19:29:26","新北市新店區中興路一段198號","121.543576666667","24.9652233333333","6500600","新店區"
"231063","645-TV","2018/02/20 19:29:22","新北市新店區達觀路16號","121.503073333333","24.94077","6500600","新店區"
"231049","719-UM","2018/02/20 19:29:17","新北市新店區二十張路1巷2弄3號","121.540098333333","24.9819816666667","6500600","新店區"
"231062","720-UM","2018/02/20 19:29:27","新北市新店區秀山路72號","121.531208333333","24.96097","6500600","新店區"
"231044","897-TW","2018/02/20 19:29:14","新北市新店區中興路三段128號","121.544921666667","24.9796416666667","6500600","新店區"
"231045","898-TW","2018/02/20 19:29:09","新北市新店區北宜路二段209號","121.553196666667","24.95327","6500600","新店區"
"231043","899-TW","2018/02/20 19:29:29","新北市新店區北新路二段150號","121.542993333333","24.9750466666667","6500600","新店區"
"231066","AKT-0513","2018/02/20 19:29:18","新北市新店區安康路二段341巷38號","121.496545","24.9543316666667","6500600","新店區"
"241011","013-R5","2018/02/20 19:29:24","新北市三重區龍濱路285號","121.501128333333","25.0733366666667","6500200","三重區"
"241028","022-UY","2018/02/20 19:29:18","新北市三重區中寮街47號","121.492778333333","25.0586433333333","6500200","三重區"
"241008","059-VK","2018/02/20 19:29:18","新北市三重區永福街135巷34號","121.47747","25.0770833333333","6500200","三重區"
"241009","060-VK","2018/02/20 19:29:20","新北市三重區溪尾街242巷33號","121.4868","25.0816766666667","6500200","三重區"
"241031","061-VK","2018/02/20 19:29:13","新北市三重區集美街65-1號","121.488445","25.05417","6500200","三重區"
"241017","063-VK","2018/02/20 19:29:23","新北市三重區中正北路25巷14號","121.493421666667","25.062935","6500200","三重區"
"241026","066-VK","2018/02/20 19:29:09","新北市三重區文化南路47巷37號","121.499221666667","25.0611","6500200","三重區"
"241022","267-UM","2018/02/20 19:28:58","新北市三重區三民街128-3號","121.483275","25.0648416666667","6500200","三重區"
"241032","269-UM","2018/02/20 19:29:11","新北市三重區三陽路25號","121.485585","25.058785","6500200","三重區"
"241025","271-UM","2018/02/20 19:29:21","新北市三重區頂崁街210巷28弄3號","121.47584","25.067635","6500200","三重區"
"241007","398-BY","2018/02/20 19:29:14","新北市三重區慈愛街90號","121.488711666667","25.07998","6500200","三重區"
"241020","413-TH","2018/02/20 19:29:23","新北市三重區三和路四段16號","121.490985","25.07409","6500200","三重區"
"241035","462-BY","2018/02/20 19:29:13","新北市三重區信義西街1號","121.498121666667","25.0648066666667","6500200","三重區"
"241030","480-VK","2018/02/20 19:29:27","新北市三重區成功路41巷13號","121.49032","25.0515433333333","6500200","三重區"
"241023","545-UM","2018/02/20 19:29:28","新北市三重區頂崁街99號","121.477983333333","25.06381","6500200","三重區"
"241019","KEA-2593","2018/02/20 19:29:19","新北市三重區力行路一段89巷11號","121.486828333333","25.068445","6500200","三重區"
"241006","AAD-863","2018/02/20 19:29:18","新北市三重區自強路三段75號","121.486938333333","25.073885","6500200","三重區"
"241029","942-UM","2018/02/20 19:29:15","新北市三重區環河南路220-8號","121.493343333333","25.0526683333333","6500200","三重區"
"235066","003-UY","2018/02/20 19:29:28","新北市中和區景新街70號","121.504305","24.9989716666667","6500300","中和區"
"235064","005-UY","2018/02/20 19:29:14","新北市中和區南山路75號","121.502023333333","24.9981066666667","6500300","中和區"
"235063","006-UY","2018/02/20 19:29:13","新北市中和區連城路164號","121.49413","24.9976766666667","6500300","中和區"
"235056","096-UM","2018/02/20 19:29:22","新北市中和區中山路三段106號","121.476843333333","25.0062","6500300","中和區"
"235039","097-UM","2018/02/20 19:29:20","新北市中和區秀峰街87號","121.521311666667","24.99025","6500300","中和區"
"235065","098-UM","2018/02/20 19:29:20","新北市中和區中山路二段2巷7弄2號","121.504203333333","25.00659","6500300","中和區"
"235040","150-BY","2018/02/20 19:28:45","新北市中和區保健路46巷8號","121.509445","24.9967216666667","6500300","中和區"
"235058","151-BY","2018/02/20 19:29:14","新北市中和區連城路469巷11號","121.48365","24.99553","6500300","中和區"
"235055","183-VK","2018/02/20 19:29:15","新北市中和區莒光路120巷19弄1-4號","121.471726666667","25.0008133333333","6500300","中和區"
"235049","186-VK","2018/02/20 19:29:19","新北市中和區景新街285巷10號","121.510243333333","24.9934983333333","6500300","中和區"
"235067","255-BX","2018/02/20 19:29:24","新北市中和區連城路340巷10弄23號","121.483276666667","24.9965833333333","6500300","中和區"
"235044","293-VK","2018/02/20 19:29:26","新北市中和區捷運路157號","121.506393333333","24.99116","6500300","中和區"
"235043","352-BY","2018/02/20 19:29:09","新北市中和區景新街137號","121.506218333333","24.9971766666667","6500300","中和區"
"235061","378-QA","2018/02/20 19:29:16","新北市中和區員山路154號","121.481375","24.9993366666667","6500300","中和區"
"235071","269-TV","2018/02/20 19:29:25","新北市中和區連城路469巷21弄22號","121.484118333333","24.9950566666667","6500300","中和區"
"235050","4979-A6","2018/02/20 19:29:17","新北市中和區中正路571巷1弄9號","121.487043333333","24.9937616666667","6500300","中和區"
"235042","551-UM","2018/02/20 19:29:15","新北市中和區中安街124號","121.51109","25.000545","6500300","中和區"
"235070","558-UM","2018/02/20 19:29:24","新北市中和區中和路64號","121.500805","25.0008116666667","6500300","中和區"
"235045","565-BX","2018/02/20 19:29:08","新北市中和區景新街399巷6號","121.512925","24.98984","6500300","中和區"
"235054","640-BX","2018/02/20 19:29:23","新北市中和區國光街112巷11弄1號","121.469688333333","25.0016416666667","6500300","中和區"
"235060","647-TV","2018/02/20 19:29:10","新北市中和區新生街118巷14號","121.48297","25.0017866666667","6500300","中和區"
"235047","732-UM","2018/02/20 19:29:11","新北市中和區景平路369號","121.504305","24.99317","6500300","中和區"
"235046","733-UM","2018/02/20 19:29:08","新北市中和區忠孝街37巷67號","121.510526666667","24.984765","6500300","中和區"
"235057","801-TS","2018/02/20 19:29:27","新北市中和區員山路423巷28號","121.480256666667","25.002595","6500300","中和區"
"235052","805-TS","2018/02/20 19:29:15","新北市中和區華新街143巷67弄35號","121.507616666667","24.9793416666667","6500300","中和區"
"235048","896-TW","2018/02/20 19:29:14","新北市中和區忠孝街2-8號","121.509203333333","24.9829916666667","6500300","中和區"
"235053","900-TW","2018/02/20 19:29:27","新北市中和區華安街17巷8號","121.466998333333","24.9982383333333","6500300","中和區"
"235038","911-UM","2018/02/20 19:29:14","新北市中和區立人街7號","121.521713333333","24.9940633333333","6500300","中和區"
"235051","157-BY","2018/02/20 19:29:19","新北市中和區景平路398-1號","121.509713333333","24.993235","6500300","中和區"
"235037","AAC-213","2018/02/20 19:29:26","新北市中和區秀朗路三段10巷14弄16號","121.524973333333","24.996605","6500300","中和區"
"235059","AAC-215","2018/02/20 19:29:22","新北市中和區圓通路252巷6號","121.492971666667","24.9917316666667","6500300","中和區"
"220068","013-TV","2018/02/20 19:29:11","新北市板橋區翠華街6巷123號","121.481808333333","25.0246116666667","6500100","板橋區"
"220065","072-UY","2018/02/20 19:29:23","新北市板橋區國泰街75巷28弄52號","121.467716666667","25.004845","6500100","板橋區"
"220086","073-UY","2018/02/20 19:29:16","新北市板橋區中正路216巷10號","121.456378333333","25.0183933333333","6500100","板橋區"
"220106","075-UY","2018/02/20 19:29:24","新北市板橋區江寧路三段79巷2號","121.472358333333","25.0324383333333","6500100","板橋區"
"220069","AAD-861","2018/02/20 19:29:13","新北市板橋區大明街20巷29弄3號","121.458446666667","25.0035033333333","6500100","板橋區"
"220090","120-SR","2018/02/20 19:29:23","新北市板橋區裕民街94巷3弄1號","121.459945","25.0285016666667","6500100","板橋區"
"247008","341-TH","2018/02/20 19:29:11","新北市蘆洲區中山一路237號","121.473448333333","25.0806466666667","6501400","蘆洲區"
"247004","336-TH","2018/02/20 19:29:19","新北市蘆洲區長安街239號","121.45922","25.0831133333333","6501400","蘆洲區"
"226004","312-R5","2018/02/20 19:29:08","新北市平溪區靜安路三段369號","121.780738333333","25.0457133333333","6502400","平溪區"
"235041","251-BX","2018/02/20 19:29:26","新北市中和區中和路350巷6-1號","121.510683333333","25.0005566666667","6500300","中和區"
"228003","097-TW","2018/02/20 19:29:14","新北市貢寮區和美里和美街19-2號","121.912803333333","25.08258","6502600","貢寮區"
"228001","212-TW","2018/02/20 19:29:26","新北市貢寮區真理里延平街68號","121.925325","25.0574166666667","6502600","貢寮區"
"228002","585-TW","2018/02/20 19:29:14","新北市貢寮區龍門里龍門街2-1號","121.932653333333","25.0254416666667","6502600","貢寮區"
"224006","676-BX","2018/02/20 19:29:08","新北市瑞芳區三爪子坑路196號","121.80634","25.1052783333333","6501200","瑞芳區"
"224002","640-TC","2018/02/20 19:29:25","新北市瑞芳區三爪子坑路13巷3號","121.81406","25.1073633333333","6501200","瑞芳區"
"224008","275-VK","2018/02/20 19:29:21","新北市瑞芳區一坑路189號","121.801838333333","25.1090533333333","6501200","瑞芳區"
"224005","271-BY","2018/02/20 19:29:18","新北市瑞芳區員山子路3-1號","121.819193333333","25.104625","6501200","瑞芳區"
"227003","642-TC","2018/02/20 19:29:26","新北市雙溪區雙溪里光復街3號","121.865188333333","25.0354916666667","6502500","雙溪區"
"227009","400-TW","2018/02/20 19:29:23","新北市雙溪區新基里新基北街43號","121.868125","25.0396983333333","6502500","雙溪區"
"253005","032-BX","2018/02/20 19:29:10","新北市石門區小坑9號","121.593775","25.2885083333333","6502200","石門區"
"253006","295-VK","2018/02/20 19:29:21","新北市石門區楓林37-8號","121.541566666667","25.28854","6502200","石門區"
"222001","KEA-2212","2018/02/20 19:29:23","新北市深坑區北深路二段121號","121.616656666667","25.0030983333333","6501800","深坑區"
"208002","KEA-2872","2018/02/20 19:29:13","新北市金山區仁愛路87巷1號","121.63459","25.2214966666667","6502700","金山區"
"208003","665-BX","2018/02/20 19:29:16","新北市金山區中山路263巷14號","121.636366666667","25.221575","6502700","金山區"
"208001","761-BX","2018/02/20 19:29:11","新北市金山區金包里街97號","121.637781666667","25.222255","6502700","金山區"
"251009","008-UM","2018/02/20 19:29:17","新北市淡水區大忠街5巷8號","121.443341666667","25.1765266666667","6501000","淡水區"
"251013","179-VK","2018/02/20 19:29:25","新北市淡水區頂田寮路558號","121.469076666667","25.2169533333333","6501000","淡水區"
"251014","180-VK","2018/02/20 19:29:20","新北市淡水區小中寮19-7號","121.484733333333","25.22963","6501000","淡水區"
"251015","182-VK","2018/02/20 19:29:17","新北市淡水區北新路三段122號","121.487446666667","25.189105","6501000","淡水區"
"251010","413-VK","2018/02/20 19:29:29","新北市淡水區中正路二段150號","121.422878333333","25.1876983333333","6501000","淡水區"
"251012","441-VK","2018/02/20 19:29:13","新北市淡水區中山北路三段164號","121.44571","25.1965566666667","6501000","淡水區"
"251016","442-VK","2018/02/20 19:29:28","新北市淡水區淡金路三段350巷18號","121.450801666667","25.2083733333333","6501000","淡水區"
"251005","443-VK","2018/02/20 19:29:20","新北市淡水區水源街一段71巷18號","121.4444","25.1729483333333","6501000","淡水區"
"251001","559-UM","2018/02/20 19:29:19","新北市淡水區民權路139-1號","121.460111666667","25.1364716666667","6501000","淡水區"
"251006","561-UM","2018/02/20 19:29:20","新北市淡水區大義街32號","121.442415","25.1783183333333","6501000","淡水區"
"251007","577-R6","2018/02/20 19:29:15","新北市淡水區坪頂路42號","121.457608333333","25.16242","6501000","淡水區"
"251011","650-BX","2018/02/20 19:29:14","新北市淡水區中正東路二段161巷11弄14號","121.460491666667","25.1464316666667","6501000","淡水區"
"251003","766-UM","2018/02/20 19:29:23","新北市淡水區中山北路二段181號","121.444266666667","25.1849216666667","6501000","淡水區"
"207003","225-TW","2018/02/20 19:29:24","新北市萬里區大鵬里萬里加投158號","121.643906666667","25.2150883333333","6502800","萬里區"
"252002","178-VK","2018/02/20 19:29:25","新北市三芝區淡金路二段18-1號","121.502643333333","25.259535","6502100","三芝區"
"252001","292-VK","2018/02/20 19:29:09","新北市三芝區長勤街46號","121.500481666667","25.25553","6502100","三芝區"
"237004","KEA-2597","2018/02/20 19:29:28","新北市三峽區有木205-1號","121.43902","24.8516183333333","6500900","三峽區"
"237007","153-BY","2018/02/20 19:29:14","新北市三峽區二鬮路122-1號","121.359926666667","24.908465","6500900","三峽區"
"237009","210-TH","2018/02/20 19:29:14","新北市三峽區中園街67號","121.36813","24.9256733333333","6500900","三峽區"
"237013","252-BX","2018/02/20 19:29:11","新北市三峽區介壽路一段276巷88弄23號","121.37878","24.928445","6500900","三峽區"
"237012","275-BY","2018/02/20 19:29:14","新北市三峽區三樹路98巷175號","121.384493333333","24.9399633333333","6500900","三峽區"
"237008","302-VK","2018/02/20 19:29:25","新北市三峽區永安街183號","121.373136666667","24.9267433333333","6500900","三峽區"
"237014","433-BY","2018/02/20 19:29:10","新北市三峽區中園街18號","121.368088333333","24.9271433333333","6500900","三峽區"
"237006","5529-G3","2018/02/20 19:29:20","新北市三峽區溪東路233巷47弄2號","121.410628333333","24.9346266666667","6500900","三峽區"
"237011","KEA-2596","2018/02/20 19:29:25","新北市三峽區中山路61號","121.36753","24.9347733333333","6500900","三峽區"
"237015","649-BX","2018/02/20 19:29:18","新北市三峽區安坑27-2號","121.446068333333","24.9282433333333","6500900","三峽區"
"237010","706-TV","2018/02/20 19:29:26","新北市三峽區復興路77號","121.372658333333","24.9374733333333","6500900","三峽區"
"237005","AKY-6261","2018/02/20 19:29:26","新北市三峽區復興路367巷1弄5號","121.36379","24.9382033333333","6500900","三峽區"
"236070","105-UM","2018/02/20 19:29:13","新北市土城區裕民路185巷36弄10號","121.454306666667","24.984505","6501300","土城區"
"236079","166-UM","2018/02/20 19:29:17","新北市土城區中州路27巷78號","121.412605","24.956335","6501300","土城區"
"236026","269-VK","2018/02/20 19:29:20","新北市土城區中央路二段61巷20號","121.443151666667","24.9788266666667","6501300","土城區"
"236023","401-BY","2018/02/20 19:29:27","新北市土城區峰廷街3號","121.469111666667","24.9873566666667","6501300","土城區"
"236059","912-UM","2018/02/20 19:29:12","新北市土城區中央路二段61巷20號","121.44313","24.9787983333333","6501300","土城區"
"236049","913-UM","2018/02/20 19:29:27","新北市土城區清水路209號","121.460258333333","24.9818383333333","6501300","土城區"
"238015","755-BX","2018/02/20 19:29:18","新北市樹林區復興路386號","121.415068333333","24.9854216666667","6500700","樹林區"
"238019","599-UM","2018/02/20 19:29:26","新北市樹林區鎮前街349號","121.416391666667","24.9841483333333","6500700","樹林區"
"238018","571-TV","2018/02/20 19:29:23","新北市樹林區中華路225號","121.418828333333","24.9809633333333","6500700","樹林區"
"238024","5061-A6","2018/02/20 19:29:20","新北市樹林區中山路三段155巷10號","121.395906666667","24.9725716666667","6500700","樹林區"
"238021","KEA-2217","2018/02/20 19:29:10","新北市樹林區學府路212號","121.377728333333","24.9502","6500700","樹林區"
"238022","KEA-2213","2018/02/20 19:29:26","新北市樹林區國凱街45號","121.420678333333","24.9790783333333","6500700","樹林區"
"238025","303-VK","2018/02/20 19:29:12","新北市樹林區中山路一段71號","121.423685","24.9917166666667","6500700","樹林區"
"238017","283-BY","2018/02/20 19:29:20","新北市樹林區光興街157巷2號","121.407818333333","25.0040883333333","6500700","樹林區"
"238014","282-BY","2018/02/20 19:29:25","新北市樹林區千歲街17號","121.424896666667","24.9956416666667","6500700","樹林區"
"238020","268-VK","2018/02/20 19:29:24","新北市樹林區俊英街111巷1-10號","121.423928333333","25.009405","6500700","樹林區"
"238026","172-UY","2018/02/20 19:29:15","新北市樹林區佳園路一段41巷1號","121.393686666667","24.9711366666667","6500700","樹林區"
"238016","169-UY","2018/02/20 19:29:22","新北市樹林區復興路472號","121.413385","24.983425","6500700","樹林區"
"239007","AAC-297","2018/02/20 19:29:10","新北市鶯歌區中正一路333-1號","121.356545","24.9578166666667","6500800","鶯歌區"
"239006","891-R6","2018/02/20 19:29:06","新北市鶯歌區鶯桃路91巷20弄1號","121.338518333333","24.9529216666667","6500800","鶯歌區"
"239008","527-UM","2018/02/20 19:29:08","新北市鶯歌區國際二路10巷14號","121.33829","24.97432","6500800","鶯歌區"
"239001","417-VK","2018/02/20 19:29:07","新北市鶯歌區永智街43巷23號","121.337178333333","24.9538266666667","6500800","鶯歌區"
"239003","360-BY","2018/02/20 19:29:24","新北市鶯歌區中正二路155-6號","121.345165","24.9497083333333","6500800","鶯歌區"
"239004","193-VK","2018/02/20 19:29:27","新北市鶯歌區二甲路35-1號","121.340546666667","24.93698","6500800","鶯歌區"
"221008","489-VK","2018/02/20 19:29:15","新北市汐止區康寧街145號","121.622078333333","25.0666366666667","6501100","汐止區"
"221036","130-UY","2018/02/20 19:29:16","新北市汐止區康寧街901號","121.651581666667","25.074985","6501100","汐止區"
"221015","131-UY","2018/02/20 19:29:16","新北市汐止區康寧街901號","121.651428333333","25.074955","6501100","汐止區"
"221010","269-BY","2018/02/20 19:29:15","新北市汐止區連峰街5巷2號","121.64652","25.0768666666667","6501100","汐止區"
"221012","278-VK","2018/02/20 19:29:08","新北市汐止區大同路三段271號","121.674066666667","25.075625","6501100","汐止區"
"221023","279-VK","2018/02/20 19:29:10","新北市汐止區康寧街598號","121.63565","25.0704483333333","6501100","汐止區"
"221027","281-BY","2018/02/20 19:29:21","新北市汐止區水源路一段9號","121.657223333333","25.066925","6501100","汐止區"
"221029","298-VK","2018/02/20 19:29:18","新北市汐止區康寧街901號","121.651578333333","25.0748916666667","6501100","汐止區"
"221031","353-TW","2018/02/20 19:29:15","新北市汐止區康寧街901號","121.650805","25.0752516666667","6501100","汐止區"
"221025","623-UM","2018/02/20 19:29:14","新北市汐止區新台五路二段28號","121.66075","25.065255","6501100","汐止區"
"221038","646-BX","2018/02/20 19:29:28","新北市汐止區汐萬路一段22號","121.655885","25.0677866666667","6501100","汐止區"
"221033","647-BX","2018/02/20 19:29:16","新北市汐止區南勢街1巷1號","121.627066666667","25.0374383333333","6501100","汐止區"
"221002","707-TV","2018/02/20 19:29:23","新北市汐止區大同路一段337巷16弄1號","121.637958333333","25.0601116666667","6501100","汐止區"
"220079","145-BY","2018/02/20 19:29:29","新北市板橋區建國街23號","121.457996666667","25.0169366666667","6500100","板橋區"
"220080","200-UY","2018/02/20 19:29:28","新北市板橋區大觀路二段3巷68號","121.44942","25.0033616666667","6500100","板橋區"
"220082","610-BX","2018/02/20 19:29:17","新北市板橋區金門街111-3號","121.43315","24.9920733333333","6500100","板橋區"
"220101","245-BX","2018/02/20 19:29:12","新北市板橋區縣民大道三段121巷1號","121.476945","25.02283","6500100","板橋區"
"220056","276-BY","2018/02/20 19:29:28","新北市板橋區信義路1巷26弄19號","121.45814","24.9969","6500100","板橋區"
"220072","277-BY","2018/02/20 19:29:19","新北市板橋區篤行路二段141巷8號","121.430161666667","24.98799","6500100","板橋區"
"220071","283-VK","2018/02/20 19:29:21","新北市板橋區忠孝路48巷4弄85號","121.460338333333","25.00067","6500100","板橋區"
"220094","285-UM","2018/02/20 19:29:25","新北市板橋區吳鳳路50巷21弄2號","121.468428333333","25.0304","6500100","板橋區"
"220053","285-VK","2018/02/20 19:29:17","新北市板橋區永豐街185號","121.476071666667","25.0207366666667","6500100","板橋區"
"220083","286-VK","2018/02/20 19:29:09","新北市板橋區龍興街73巷53號","121.441723333333","25.0029983333333","6500100","板橋區"
"220081","287-VK","2018/02/20 19:29:25","新北市板橋區南雅西路一段5巷1號","121.454586666667","25.0043633333333","6500100","板橋區"
"220061","295-UM","2018/02/20 19:29:11","新北市板橋區中山路二段211巷1號","121.476425","25.0172966666667","6500100","板橋區"
"220084","296-UM","2018/02/20 19:29:21","新北市板橋區滿平街136巷1弄1號","121.428643333333","24.987905","6500100","板橋區"
"220075","303-R5","2018/02/20 19:29:16","新北市板橋區中正路253巷5號","121.455365","25.01816","6500100","板橋區"
"220062","305-R5","2018/02/20 19:29:26","新北市板橋區三民路二段81巷29號","121.48061","25.016855","6500100","板橋區"
"220092","307-R5","2018/02/20 19:29:25","新北市板橋區光武街4巷9號","121.468165","25.0254633333333","6500100","板橋區"
"220098","317-R6","2018/02/20 19:29:14","新北市板橋區四維路266巷5弄5號","121.46365","25.02869","6500100","板橋區"
"220064","486-VK","2018/02/20 19:29:17","新北市板橋區中山路一段13號","121.46016","25.0082383333333","6500100","板橋區"
"220089","487-VK","2018/02/20 19:29:16","新北市板橋區文化路一段99號","121.461346666667","25.014375","6500100","板橋區"
"241031","AAD-800","2018/02/20 19:04:50","新北市板橋區民生路二段89-6號","121.470476666667","25.0192516666667","6500200","三重區"
"220088","491-VK","2018/02/20 19:29:23","新北市板橋區雙十路二段157號","121.474528333333","25.02837","6500100","板橋區"
"220035","560-BX","2018/02/20 19:29:07","新北市板橋區中正路413巷2弄27號","121.452898333333","25.0233083333333","6500100","板橋區"
"220103","561-BX","2018/02/20 19:29:24","新北市板橋區介壽街3號","121.46714","25.0204683333333","6500100","板橋區"
"220063","609-BX","2018/02/20 19:29:10","新北市板橋區萬安街53巷6號","121.483545","25.0238583333333","6500100","板橋區"
"220091","637-BX","2018/02/20 19:29:08","新北市板橋區文聖街135巷23號","121.478903333333","25.02896","6500100","板橋區"
"220057","686-BX","2018/02/20 19:29:27","新北市板橋區和平路61號","121.461185","24.994595","6500100","板橋區"
"220077","687-BX","2018/02/20 19:29:23","新北市板橋區僑中二街116巷2號","121.445821666667","25.0065483333333","6500100","板橋區"
"220093","689-BX","2018/02/20 19:29:27","新北市板橋區英士路62號","121.460791666667","25.02467","6500100","板橋區"
"220054","741-BX","2018/02/20 19:29:18","新北市板橋區忠孝路203號","121.465166666667","25.0026716666667","6500100","板橋區"
"220102","KEA-2699","2018/02/20 19:29:14","新北市板橋區雙十路二段112號","121.474601666667","25.028845","6500100","板橋區"
"220055","827-TW","2018/02/20 19:29:25","新北市板橋區重慶路290巷22弄4號","121.46231","24.999095","6500100","板橋區"
"220067","829-TW","2018/02/20 19:29:15","新北市板橋區漢生東路313巷2弄20號","121.472351666667","25.0078483333333","6500100","板橋區"
"220096","830-TW","2018/02/20 19:29:17","新北市板橋區大同街8巷53號","121.477556666667","25.0264566666667","6500100","板橋區"
"220074","895-R6","2018/02/20 19:29:27","新北市板橋區中正路自強新村3號","121.455438333333","25.013935","6500100","板橋區"
"220073","985-R7","2018/02/20 19:29:16","新北市板橋區中正路235號","121.455986666667","25.01803","6500100","板橋區"
"220097","AAC-210","2018/02/20 19:29:10","新北市板橋區新海路135巷1號","121.460563333333","25.0234633333333","6500100","板橋區"
"220070","AAC-253","2018/02/20 19:29:16","新北市板橋區民族路61號","121.464968333333","25.008695","6500100","板橋區"
