"lineid","car","time","location","longitude","latitude","cityid","cityname"
"234046","148-BY","2018/02/20 19:59:15","新北市永和區成功路一段107號","121.526905","25.00239","6500400","永和區"
"234067","149-BY","2018/02/20 19:59:18","新北市永和區中山路一段277號","121.506928333333","25.0070733333333","6500400","永和區"
"234007","207-UY","2018/02/20 19:59:19","新北市永和區保生路22巷8號","121.507281666667","25.0078183333333","6500400","永和區"
"234081","298-R6","2018/02/20 19:59:10","新北市永和區永亨路98號","121.522908333333","25.0048383333333","6500400","永和區"
"234038","336-UY","2018/02/20 19:59:27","新北市永和區成功路二段126號","121.526616666667","24.9976733333333","6500400","永和區"
"234064","337-UY","2018/02/20 19:59:24","新北市永和區中正路368巷1弄20號","121.518976666667","25.000975","6500400","永和區"
"234086","338-UY","2018/02/20 19:59:26","新北市永和區福和路158號","121.521518333333","25.0078816666667","6500400","永和區"
"234070","552-UM","2018/02/20 19:59:23","新北市永和區國光路39-1號","121.519071666667","25.00827","6500400","永和區"
"234017","745-BX","2018/02/20 19:59:29","新北市永和區文化路115號","121.512725","25.0152116666667","6500400","永和區"
"234030","746-BX","2018/02/20 19:59:15","新北市永和區民權路49巷5弄6號","121.520683333333","24.9975283333333","6500400","永和區"
"234054","KEA-2590","2018/02/20 19:59:10","新北市永和區環河東路一段122號","121.52065","25.0154516666667","6500400","永和區"
"234013","KEA-2591","2018/02/20 19:59:18","新北市永和區保生路55號","121.504645","25.0105933333333","6500400","永和區"
"234061","AAD-866","2018/02/20 19:59:31","新北市永和區得和路47號","121.516638333333","25.0002216666667","6500400","永和區"
"234042","862-TW","2018/02/20 19:59:17","新北市永和區中和路335巷18弄15號","121.507886666667","25.0004083333333","6500400","永和區"
"234050","863-TW","2018/02/20 19:59:23","新北市永和區保安路151號","121.506975","25.013065","6500400","永和區"
"234026","9371-KE","2018/02/20 19:59:14","新北市永和區水源街21巷14弄1號","121.511608333333","25.003825","6500400","永和區"
"234011","9373-KE","2018/02/20 19:59:16","新北市永和區仁愛路352巷92弄6號","121.501316666667","25.0079833333333","6500400","永和區"
"249005","172-UM","2018/02/20 19:59:22","新北市八里區楓林路3-1號","121.382823333333","25.130105","6502300","八里區"
"249001","173-UM","2018/02/20 19:59:32","新北市八里區中華路二段312號","121.40373","25.148355","6502300","八里區"
"249004","303-UY","2018/02/20 19:59:27","新北市八里區仁愛路129號","121.410053333333","25.1588383333333","6502300","八里區"
"249002","305-UY","2018/02/20 19:59:11","新北市八里區頂寮二街21號","121.450505","25.1247383333333","6502300","八里區"
"249003","593-UM","2018/02/20 19:59:24","新北市八里區中華路二段560巷3號","121.398486666667","25.1451016666667","6502300","八里區"
"248014","025-BX","2018/02/20 19:59:30","新北市五股區五福路20號","121.434326666667","25.0888716666667","6501500","五股區"
"248016","026-BX","2018/02/20 19:59:21","新北市五股區成泰路三段601巷17-1號","121.451756666667","25.1033116666667","6501500","五股區"
"248008","095-VK","2018/02/20 19:59:09","新北市五股區四維路30巷12號","121.467878333333","25.0715","6501500","五股區"
"248020","225-UY","2018/02/20 19:59:19","新北市五股區中直路10號","121.427106666667","25.1114383333333","6501500","五股區"
"248012","247-BX","2018/02/20 19:59:21","新北市五股區民義路一段65號","121.435915","25.0849383333333","6501500","五股區"
"248004","677-BX","2018/02/20 19:59:15","新北市五股區成泰路一段187號","121.43505","25.0763216666667","6501500","五股區"
"248002","678-BX","2018/02/20 19:59:13","新北市五股區凌雲路一段22巷5號","121.452348333333","25.1009683333333","6501500","五股區"
"248010","682-TV","2018/02/20 19:59:18","新北市五股區登林路貿商巷1弄8號","121.42916","25.07004","6501500","五股區"
"234077","969-R7","2018/02/20 19:59:29","新北市永和區中正路198號","121.515711666667","24.99721","6500400","永和區"
"234074","AAC-211","2018/02/20 19:59:32","新北市永和區豫溪街162巷2號","121.52359","25.0095866666667","6500400","永和區"
"234003","AAC-295","2018/02/20 19:59:19","新北市永和區永和路二段28號","121.514615","25.0103633333333","6500400","永和區"
"244011","701-TV","2018/02/20 19:59:16","新北市林口區後坑1-7號","121.355923333333","25.13153","6501700","林口區"
"243012","AAD-798","2018/02/20 19:59:19","新北市泰山區全興路13號","121.432296666667","25.058985","6501600","泰山區"
"243011","297-R6","2018/02/20 19:59:15","新北市泰山區明志路三段196巷37號","121.421966666667","25.0397183333333","6501600","泰山區"
"243015","380-SR","2018/02/20 19:59:16","新北市泰山區明志路二段237巷6號","121.427501666667","25.0479816666667","6501600","泰山區"
"243014","421-VK","2018/02/20 19:59:17","新北市泰山區泰林路二段105號","121.434563333333","25.05908","6501600","泰山區"
"243010","KEA-2215","2018/02/20 19:59:17","新北市泰山區中華街3號","121.427973333333","25.0523533333333","6501600","泰山區"
"243009","KEA-2216","2018/02/20 19:59:24","新北市泰山區泰林路二段164巷37號","121.434231666667","25.0612916666667","6501600","泰山區"
"243013","646-TV","2018/02/20 19:59:29","新北市泰山區應化街13號","121.423813333333","25.0437","6501600","泰山區"
"243016","680-BX","2018/02/20 19:59:19","新北市泰山區貴鳳街2號","121.421153333333","25.0312233333333","6501600","泰山區"
"222003","436-BY","2018/02/20 19:59:29","新北市深坑區埔新街14號","121.62077","25.00396","6501800","深坑區"
"222002","659-BX","2018/02/20 19:59:28","新北市深坑區北深路二段55巷12弄12號","121.618701666667","25.0033","6501800","深坑區"
"231060","001-UM","2018/02/20 19:59:09","新北市新店區安康路二段458號","121.494375","24.9542233333333","6500600","新店區"
"231041","002-UM","2018/02/20 19:59:24","新北市新店區三民路191號","121.535505","24.9755983333333","6500600","新店區"
"231059","046-UY","2018/02/20 19:59:19","新北市新店區安康路二段149號","121.511113333333","24.959815","6500600","新店區"
"231061","047-UY","2018/02/20 19:59:21","新北市新店區安民街172號","121.51688","24.970735","6500600","新店區"
"231051","107-UY","2018/02/20 19:59:32","新北市新店區中央三街40號","121.527925","24.9743","6500600","新店區"
"231048","108-UY","2018/02/20 19:59:23","新北市新店區寶橋路160號","121.549065","24.9770316666667","6500600","新店區"
"231053","187-VK","2018/02/20 19:59:13","新北市新店區新烏路三段141號","121.551176666667","24.9018983333333","6500600","新店區"
"231050","KEA-2219","2018/02/20 19:59:18","新北市新店區北新路一段339號","121.541846666667","24.9687466666667","6500600","新店區"
"231057","256-BX","2018/02/20 19:59:26","新北市新店區花園二路一段11號","121.555578333333","24.9324983333333","6500600","新店區"
"231054","AAD-862","2018/02/20 19:59:10","新北市新店區光明街172號","121.539553333333","24.9619933333333","6500600","新店區"
"231056","3713-VJ","2018/02/20 19:59:20","新北市新店區明德路26巷3號","121.542118333333","24.9777116666667","6500600","新店區"
"231055","4716-K9","2018/02/20 19:59:19","新北市新店區力行路96號","121.538101666667","24.96684","6500600","新店區"
"231067","4772-VM","2018/02/20 19:59:13","新北市新店區秀山路11巷18弄1號","121.531601666667","24.9589933333333","6500600","新店區"
"231065","512-UM","2018/02/20 19:59:26","新北市新店區安祥路106-19號","121.476181666667","24.960445","6500600","新店區"
"231064","515-UM","2018/02/20 19:59:28","新北市新店區安和路二段77號","121.518381666667","24.9687983333333","6500600","新店區"
"231040","619-UM","2018/02/20 19:59:23","新北市新店區中正路96號","121.543461666667","24.97039","6500600","新店區"
"231042","641-BX","2018/02/20 19:59:26","新北市新店區中興路二段89號","121.54703","24.9714033333333","6500600","新店區"
"231063","645-TV","2018/02/20 19:59:22","新北市新店區黎明路56巷1號","121.502303333333","24.94779","6500600","新店區"
"231068","718-UY","2018/02/20 19:59:15","新北市新店區安華路28-1號","121.519326666667","24.9611283333333","6500600","新店區"
"231049","719-UM","2018/02/20 19:59:17","新北市新店區明德路42號","121.541416666667","24.9781566666667","6500600","新店區"
"231062","720-UM","2018/02/20 19:59:27","新北市新店區華城路36巷1號","121.527966666667","24.955355","6500600","新店區"
"231044","897-TW","2018/02/20 19:59:14","新北市新店區寶慶街71號","121.541825","24.9866383333333","6500600","新店區"
"231045","898-TW","2018/02/20 19:59:29","新北市新店區北宜路二段82-13號","121.554705","24.95355","6500600","新店區"
"231043","899-TW","2018/02/20 19:59:29","新北市新店區中正路263-5號","121.538166666667","24.9737933333333","6500600","新店區"
"231066","AKT-0513","2018/02/20 19:59:25","新北市新店區柴埕路60巷1-1號","121.510101666667","24.963675","6500600","新店區"
"241028","022-UY","2018/02/20 19:59:18","新北市三重區中正南路1號","121.493328333333","25.0605566666667","6500200","三重區"
"241008","059-VK","2018/02/20 19:59:18","新北市三重區力行路二段136巷49弄3號","121.479606666667","25.075285","6500200","三重區"
"241009","060-VK","2018/02/20 19:59:20","新北市三重區三和路四段390巷35號","121.480405","25.0786416666667","6500200","三重區"
"241031","061-VK","2018/02/20 19:59:13","新北市三重區重新路四段184巷16號","121.487026666667","25.0549516666667","6500200","三重區"
"241015","062-VK","2018/02/20 19:59:23","新北市三重區三和路二段27號","121.501051666667","25.0670016666667","6500200","三重區"
"241017","063-VK","2018/02/20 19:59:12","新北市三重區自強路一段310號","121.491248333333","25.0684883333333","6500200","三重區"
"241026","066-VK","2018/02/20 19:59:29","新北市三重區中央南路8號","121.50146","25.0630433333333","6500200","三重區"
"241002","090-VK","2018/02/20 19:59:25","新北市三重區仁忠街101號","121.49234","25.0799483333333","6500200","三重區"
"241003","156-TC","2018/02/20 19:59:29","新北市三重區仁愛街445巷53號","121.49127","25.08318","6500200","三重區"
"241005","262-UM","2018/02/20 19:59:11","新北市三重區溪尾街326號","121.488021666667","25.0847116666667","6500200","三重區"
"241016","265-UM","2018/02/20 19:59:13","新北市三重區正義北路36巷23號","121.496533333333","25.06338","6500200","三重區"
"241022","267-UM","2018/02/20 19:59:18","新北市三重區過圳街31巷2號","121.489016666667","25.0606166666667","6500200","三重區"
"241018","268-UM","2018/02/20 19:59:13","新北市三重區自強路一段169號","121.493185","25.0674616666667","6500200","三重區"
"241032","269-UM","2018/02/20 19:59:11","新北市三重區朝陽街55號","121.483501666667","25.0575","6500200","三重區"
"241013","270-UM","2018/02/20 19:59:28","新北市三重區三和路三段125巷31號","121.493793333333","25.073585","6500200","三重區"
"241025","271-UM","2018/02/20 19:59:21","新北市三重區頂崁街210巷16號","121.476483333333","25.06778","6500200","三重區"
"241007","398-BY","2018/02/20 19:59:14","新北市三重區慈愛街76號","121.487778333333","25.0797","6500200","三重區"
"241020","413-TH","2018/02/20 19:59:15","新北市三重區忠孝路一段87號","121.489835","25.0721183333333","6500200","三重區"
"241035","462-BY","2018/02/20 19:59:13","新北市三重區大榮街9號","121.498245","25.0631783333333","6500200","三重區"
"241004","475-VK","2018/02/20 19:59:19","新北市三重區五華街74號","121.493475","25.0819416666667","6500200","三重區"
"241024","478-VK","2018/02/20 19:59:16","新北市三重區大勇街54號","121.48073","25.07156","6500200","三重區"
"241030","480-VK","2018/02/20 19:59:27","新北市三重區重新路四段244巷10號","121.486288333333","25.0534933333333","6500200","三重區"
"241014","543-UM","2018/02/20 19:59:26","新北市三重區三和路二段115號","121.499215","25.06874","6500200","三重區"
"241023","545-UM","2018/02/20 19:59:28","新北市三重區頂崁街166號","121.477611666667","25.0657416666667","6500200","三重區"
"241001","547-UM","2018/02/20 19:59:21","新北市三重區仁愛街269巷37號","121.494048333333","25.0792783333333","6500200","三重區"
"241019","KEA-2593","2018/02/20 19:59:19","新北市三重區三張街106號","121.487778333333","25.0697733333333","6500200","三重區"
"241006","AAD-863","2018/02/20 19:59:18","新北市三重區力行路二段80號","121.481895","25.07388","6500200","三重區"
"241012","941-UM","2018/02/20 19:59:10","新北市三重區仁厚街54號","121.500343333333","25.0765733333333","6500200","三重區"
"241029","942-UM","2018/02/20 19:59:15","新北市三重區重安街1號","121.489935","25.0583733333333","6500200","三重區"
"241033","AAC-255","2018/02/20 19:59:15","新北市三重區中興北街61號","121.469556666667","25.04744","6500200","三重區"
"235066","003-UY","2018/02/20 19:59:28","新北市中和區中山路二段68號","121.503901666667","25.0045783333333","6500300","中和區"
"235056","096-UM","2018/02/20 19:59:22","新北市中和區中山路三段166號","121.473001666667","25.006545","6500300","中和區"
"235039","097-UM","2018/02/20 19:59:19","新北市中和區大勇街25巷38弄1號","121.51582","24.99371","6500300","中和區"
"235065","098-UM","2018/02/20 19:59:20","新北市中和區永和路39巷2號","121.498068333333","25.0050266666667","6500300","中和區"
"235040","150-BY","2018/02/20 19:59:25","新北市中和區景安路79巷19弄7-1號","121.507296666667","24.9971216666667","6500300","中和區"
"235058","151-BY","2018/02/20 19:59:24","新北市中和區員山路150巷2弄53號","121.481973333333","24.99737","6500300","中和區"
"235055","183-VK","2018/02/20 19:59:15","新北市中和區德光路38號","121.470236666667","25.0049133333333","6500300","中和區"
"235049","186-VK","2018/02/20 19:59:19","新北市中和區景平路522號","121.503115","24.9940983333333","6500300","中和區"
"235067","255-BX","2018/02/20 19:59:24","新北市中和區新生街220巷29弄2號","121.482416666667","24.9985133333333","6500300","中和區"
"235044","293-VK","2018/02/20 19:59:26","新北市中和區中正路87號","121.500536666667","24.993535","6500300","中和區"
"235043","352-BY","2018/02/20 19:59:29","新北市中和區興南路二段159巷12號","121.505068333333","24.9830933333333","6500300","中和區"
"235068","377-QA","2018/02/20 19:59:17","新北市中和區福美路301巷37號","121.497826666667","25.0035616666667","6500300","中和區"
"235061","378-QA","2018/02/20 19:59:16","新北市中和區民樂路18號","121.482311666667","25.00101","6500300","中和區"
"235050","4979-A6","2018/02/20 19:59:17","新北市中和區景平路155巷2弄1號","121.51344","24.9918633333333","6500300","中和區"
"235069","4980-A6","2018/02/20 19:59:18","新北市中和區景新街34巷2弄5號","121.502943333333","24.999105","6500300","中和區"
"235070","558-UM","2018/02/20 19:59:24","新北市中和區圓通路123號","121.499273333333","24.996205","6500300","中和區"
"235054","640-BX","2018/02/20 19:59:23","新北市中和區莒光路153號","121.472606666667","25.0009133333333","6500300","中和區"
"235046","733-UM","2018/02/20 19:59:27","新北市中和區興南路一段105巷20弄2號","121.510336666667","24.9858433333333","6500300","中和區"
"235026","800-TS","2018/02/20 19:56:29","新北市中和區員山路36巷16-2號","121.48502","24.9920116666667","6500300","中和區"
"235057","801-TS","2018/02/20 19:59:27","新北市中和區中正路804號","121.48517","25.0019833333333","6500300","中和區"
"235052","805-TS","2018/02/20 19:59:14","新北市中和區華新街30巷20弄1號","121.506455","24.9839366666667","6500300","中和區"
"235048","896-TW","2018/02/20 19:59:13","新北市新店區安和路三段165號","121.516276666667","24.9859366666667","6500300","中和區"
"235053","900-TW","2018/02/20 19:59:27","新北市中和區民德路79號","121.468885","25.0012516666667","6500300","中和區"
"235051","157-BY","2018/02/20 19:59:19","新北市中和區復興路301巷16號","121.5015","24.9895266666667","6500300","中和區"
"235037","AAC-213","2018/02/20 19:59:26","新北市中和區自立路16-1號","121.522018333333","24.9937","6500300","中和區"
"235059","AAC-215","2018/02/20 19:59:22","新北市中和區圓通路337號","121.491901666667","24.9905066666667","6500300","中和區"
"220068","013-TV","2018/02/20 19:59:31","新北市板橋區光復街192巷16弄26號","121.486325","25.0193116666667","6500100","板橋區"
"220065","072-UY","2018/02/20 19:59:23","新北市板橋區長安街31號","121.466848333333","25.0088133333333","6500100","板橋區"
"220106","075-UY","2018/02/20 19:59:17","新北市板橋區民治街82巷25號","121.478671666667","25.0325916666667","6500100","板橋區"
"220069","AAD-861","2018/02/20 19:59:12","新北市板橋區大明街13號","121.458913333333","25.002535","6500100","板橋區"
"220090","120-SR","2018/02/20 19:59:23","新北市板橋區綠堤街33-4號","121.45574","25.02642","6500100","板橋區"
"247020","500-BY","2018/02/20 19:59:13","新北市蘆洲區民義街66號","121.472976666667","25.0897566666667","6501400","蘆洲區"
"247008","341-TH","2018/02/20 19:59:31","新北市蘆洲區信義路113巷1弄20號","121.47748","25.08035","6501400","蘆洲區"
"247010","339-TH","2018/02/20 19:59:28","新北市三重區集賢路188號","121.48398","25.0880683333333","6501400","蘆洲區"
"247002","337-TH","2018/02/20 19:59:18","新北市蘆洲區長安街274巷3號","121.457735","25.08708","6501400","蘆洲區"
"247004","336-TH","2018/02/20 19:59:20","新北市蘆洲區永康街39號","121.457306666667","25.0852733333333","6501400","蘆洲區"
"247016","057-VK","2018/02/20 19:59:16","新北市蘆洲區中正路83號","121.470025","25.0835766666667","6501400","蘆洲區"
"247006","056-VK","2018/02/20 19:59:27","新北市蘆洲區九芎街101號","121.465996666667","25.0795866666667","6501400","蘆洲區"
"247014","007-UY","2018/02/20 19:59:24","新北市蘆洲區成功路129號","121.472361666667","25.0822466666667","6501400","蘆洲區"
"247024","002-UY","2018/02/20 19:59:13","新北市蘆洲區光榮路120巷8弄29號","121.465428333333","25.087575","6501400","蘆洲區"
"226004","312-R5","2018/02/20 19:59:28","新北市平溪區靜安路二段565號","121.749365","25.0239833333333","6502400","平溪區"
"235041","251-BX","2018/02/20 19:59:26","新北市中和區中安街108號","121.511623333333","25.0009183333333","6500300","中和區"
"228003","097-TW","2018/02/20 19:59:14","新北市貢寮區仁理村仁和路222號","121.92386","25.053555","6502600","貢寮區"
"227003","642-TC","2018/02/20 19:59:26","新北市雙溪區雙溪里長安街16號","121.865105","25.034535","6502500","雙溪區"
"227009","400-TW","2018/02/20 19:59:23","新北市雙溪區新基里新基南街24號","121.866236666667","25.038235","6502500","雙溪區"
"222001","KEA-2212","2018/02/20 19:59:23","新北市深坑區北深路三段145號","121.603321666667","25.0029216666667","6501800","深坑區"
"208002","KEA-2872","2018/02/20 19:59:13","新北市萬里區大鵬里萬里加投214號","121.642715","25.2163066666667","6502700","金山區"
"208003","665-BX","2018/02/20 19:59:16","新北市金山區香園15號","121.634183333333","25.253115","6502700","金山區"
"208001","761-BX","2018/02/20 19:59:31","新北市金山區南勢湖39號","121.611841666667","25.2177983333333","6502700","金山區"
"251009","008-UM","2018/02/20 19:59:17","新北市淡水區英專路28巷2弄4號","121.445835","25.16987","6501000","淡水區"
"251004","009-UM","2018/02/20 19:59:12","新北市淡水區民權路177巷9號","121.460773333333","25.1353516666667","6501000","淡水區"
"251013","179-VK","2018/02/20 19:59:25","新北市淡水區奎柔山路63號","121.451753333333","25.20616","6501000","淡水區"
"251014","180-VK","2018/02/20 19:59:20","新北市淡水區石頭厝14-53號","121.464135","25.23665","6501000","淡水區"
"251008","181-VK","2018/02/20 19:59:12","新北市淡水區淡海路63巷3號","121.422636666667","25.1806483333333","6501000","淡水區"
"251015","182-VK","2018/02/20 19:59:17","新北市淡水區埤島77-5號","121.450605","25.1920333333333","6501000","淡水區"
"251010","413-VK","2018/02/20 19:59:09","新北市淡水區崁頂76-1號","121.43088","25.203515","6501000","淡水區"
"251012","441-VK","2018/02/20 19:59:13","新北市淡水區下圭柔山100-10號","121.44002","25.2118083333333","6501000","淡水區"
"251016","442-VK","2018/02/20 19:59:27","新北市淡水區淡金路四段180號","121.451663333333","25.2213666666667","6501000","淡水區"
"251005","443-VK","2018/02/20 19:59:20","新北市淡水區學府路136巷51號","121.452253333333","25.17267","6501000","淡水區"
"251006","561-UM","2018/02/20 19:59:20","新北市淡水區水碓街34號","121.4443","25.1773466666667","6501000","淡水區"
"251011","650-BX","2018/02/20 19:59:14","新北市淡水區崁頂55-1號","121.442355","25.1969516666667","6501000","淡水區"
"251002","672-BX","2018/02/20 19:59:11","新北市淡水區淡海路100號","121.422641666667","25.1823583333333","6501000","淡水區"
"207003","225-TW","2018/02/20 19:59:24","新北市萬里區磺潭里公館崙5號","121.641896666667","25.214245","6502800","萬里區"
"252002","178-VK","2018/02/20 19:59:25","新北市三芝區三民街39巷5號","121.505415","25.2576766666667","6502100","三芝區"
"252001","292-VK","2018/02/20 19:59:29","新北市三芝區公正街66號","121.49976","25.2574366666667","6502100","三芝區"
"237004","KEA-2597","2018/02/20 19:59:28","新北市三峽區添福2號","121.371956666667","24.9060316666667","6500900","三峽區"
"237007","153-BY","2018/02/20 19:59:14","新北市三峽區二鬮路57-1號","121.361015","24.9092316666667","6500900","三峽區"
"237009","210-TH","2018/02/20 19:59:14","新北市三峽區民權街147號","121.36879","24.9316233333333","6500900","三峽區"
"237013","252-BX","2018/02/20 19:59:31","新北市三峽區溪北街1號","121.395901666667","24.936365","6500900","三峽區"
"237012","275-BY","2018/02/20 19:59:14","新北市三峽區中華路3巷6-1號","121.374975","24.9312633333333","6500900","三峽區"
"237008","302-VK","2018/02/20 19:59:25","新北市三峽區安溪路345號","121.370018333333","24.926395","6500900","三峽區"
"237014","433-BY","2018/02/20 19:59:10","新北市三峽區正義街123號","121.368598333333","24.9170783333333","6500900","三峽區"
"237006","5529-G3","2018/02/20 19:59:20","新北市三峽區正義街59巷9號","121.37017","24.9185366666667","6500900","三峽區"
"237015","649-BX","2018/02/20 19:59:18","新北市三峽區溪東路54號","121.401246666667","24.93469","6500900","三峽區"
"237005","AKY-6261","2018/02/20 19:59:26","新北市三峽區民生街1巷19-1號","121.37863","24.9364916666667","6500900","三峽區"
"236070","105-UM","2018/02/20 19:59:13","新北市土城區承天路71巷4弄5號","121.441205","24.9636116666667","6501300","土城區"
"236043","107-UM","2018/02/20 19:59:11","新北市土城區學府路一段150號","121.454641666667","24.9869383333333","6501300","土城區"
"236079","166-UM","2018/02/20 19:59:17","新北市土城區三民路23巷8弄2號","121.419786666667","24.9633966666667","6501300","土城區"
"236031","253-BX","2018/02/20 19:59:15","新北市土城區中央路一段250巷1號","121.444173333333","24.9846666666667","6501300","土城區"
"236026","269-VK","2018/02/20 19:59:19","新北市土城區中央路一段264-2號","121.443855","24.9835516666667","6501300","土城區"
"236015","270-VK","2018/02/20 19:59:28","新北市土城區廣福街123號","121.456275","24.9929066666667","6501300","土城區"
"236038","271-VK","2018/02/20 19:59:28","新北市土城區國際路60號","121.466541666667","24.977585","6501300","土城區"
"236023","401-BY","2018/02/20 19:59:27","新北市土城區延吉街165巷9號","121.470293333333","24.9852483333333","6501300","土城區"
"236059","912-UM","2018/02/20 19:59:20","新北市土城區中央路一段237號","121.445513333333","24.98616","6501300","土城區"
"236049","913-UM","2018/02/20 19:59:27","新北市土城區金城路三段190號","121.468371666667","24.9879266666667","6501300","土城區"
"236063","915-UM","2018/02/20 19:59:16","新北市土城區金城路三段149巷4弄8號","121.468625","24.9890266666667","6501300","土城區"
"236055","AAC-216","2018/02/20 19:59:17","新北市土城區延和路19號","121.464406666667","24.9882883333333","6501300","土城區"
"242029","986-R7","2018/02/20 19:59:21","新北市新莊區中平路348號","121.44532","25.0529583333333","6500500","新莊區"
"242025","615-BX","2018/02/20 19:59:19","新北市新莊區五工二路94巷12號","121.460036666667","25.0669766666667","6500500","新莊區"
"242023","613-BX","2018/02/20 19:59:25","新北市新莊區化成路179號","121.465696666667","25.049875","6500500","新莊區"
"242027","612-BX","2018/02/20 19:58:55","新北市新莊區幸福路902號","121.443056666667","25.0492616666667","6500500","新莊區"
"242039","566-BX","2018/02/20 19:59:15","新北市新莊區民安路299巷2號","121.429471666667","25.022655","6500500","新莊區"
"242044","497-BY","2018/02/20 19:59:27","新北市新莊區中正路746巷25號","121.410688333333","25.02415","6500500","新莊區"
"242009","441-UM","2018/02/20 19:59:05","新北市新莊區幸福路796號","121.446508333333","25.0491416666667","6500500","新莊區"
"242054","440-UM","2018/02/20 19:59:26","新北市新莊區西盛街431號","121.427198333333","25.0120516666667","6500500","新莊區"
"242034","415-TV","2018/02/20 19:59:32","新北市新莊區建中街109號","121.446191666667","25.0365083333333","6500500","新莊區"
"242005","413-TV","2018/02/20 19:59:20","新北市新莊區化成路352巷29號","121.467075","25.0492416666667","6500500","新莊區"
"242042","400-BY","2018/02/20 19:59:27","新北市新莊區青山路一段179號","121.400415","25.0302383333333","6500500","新莊區"
"242061","362-BY","2018/02/20 19:59:27","新北市新莊區瓊林路35號","121.445275","25.0285883333333","6500500","新莊區"
"242058","353-BY","2018/02/20 19:59:27","新北市新莊區八德街97號","121.42434","25.0213016666667","6500500","新莊區"
"242007","132-UY","2018/02/20 19:59:22","新北市新莊區思源路593巷2號","121.459425","25.0596366666667","6500500","新莊區"
"242037","133-UY","2018/02/20 19:59:28","新北市新莊區建安街71巷17號","121.42819","25.0245083333333","6500500","新莊區"
"242021","135-UY","2018/02/20 19:59:14","新北市新莊區建中街48巷10弄12號","121.44861","25.03838","6500500","新莊區"
"242046","172-VK","2018/02/20 19:59:24","新北市新莊區裕民街19巷4號","121.419673333333","25.0252716666667","6500500","新莊區"
"242015","175-VK","2018/02/20 19:59:24","新北市新莊區中平路6巷26號","121.445226666667","25.042645","6500500","新莊區"
"242002","176-VK","2018/02/20 19:59:21","新北市新莊區新豐街8號","121.448883333333","25.0346833333333","6500500","新莊區"
"242013","346-TH","2018/02/20 19:59:19","新北市新莊區中港路417巷16號","121.451711666667","25.04758","6500500","新莊區"
"242019","348-TH","2018/02/20 19:59:13","新北市新莊區民生街28號","121.45623","25.0422366666667","6500500","新莊區"
"242056","349-TH","2018/02/20 19:59:19","新北市新莊區中正路347巷15號","121.447318333333","25.0343883333333","6500500","新莊區"
"242017","350-TH","2018/02/20 19:59:24","新北市新莊區中安街33號","121.452571666667","25.0460066666667","6500500","新莊區"
"242011","351-TH","2018/02/20 19:59:15","新北市新莊區中港路531巷90號","121.450126666667","25.0518216666667","6500500","新莊區"
"238015","755-BX","2018/02/20 19:59:18","新北市樹林區中山路二段219號","121.402785","24.9763666666667","6500700","樹林區"
"238021","KEA-2217","2018/02/20 19:59:30","新北市樹林區佳園路三段101巷101號","121.396","24.9500333333333","6500700","樹林區"
"238017","283-BY","2018/02/20 19:59:20","新北市樹林區保安街二段45巷40-5號","121.413878333333","25.0002383333333","6500700","樹林區"
"238026","172-UY","2018/02/20 19:59:23","新北市樹林區柑園街一段357號","121.38888","24.9559966666667","6500700","樹林區"
"239007","AAC-297","2018/02/20 19:59:30","新北市鶯歌區大湖路83號","121.342311666667","24.96295","6500800","鶯歌區"
"239006","891-R6","2018/02/20 19:59:26","新北市鶯歌區文化路249號","121.35365","24.9532366666667","6500800","鶯歌區"
"221008","489-VK","2018/02/20 19:59:30","台北市內湖區康樂街138號","121.619416666667","25.072395","6501100","汐止區"
"221036","130-UY","2018/02/20 19:59:16","新北市汐止區新台五路二段85巷19號","121.663983333333","25.06742","6501100","汐止區"
"221015","131-UY","2018/02/20 19:59:16","新北市汐止區大同路三段41號","121.666738333333","25.0764333333333","6501100","汐止區"
"221010","269-BY","2018/02/20 19:59:15","新北市汐止區連峰街227號","121.645018333333","25.0810883333333","6501100","汐止區"
"221012","278-VK","2018/02/20 19:59:27","新北市汐止區大同路三段334號","121.679455","25.0710916666667","6501100","汐止區"
"221023","279-VK","2018/02/20 19:59:09","新北市汐止區明峰街281號","121.626611666667","25.068675","6501100","汐止區"
"221032","280-BY","2018/02/20 19:59:23","新北市汐止區橫科路4巷1弄10號","121.617906666667","25.0507983333333","6501100","汐止區"
"221027","281-BY","2018/02/20 19:59:10","新北市汐止區中正路75號","121.661675","25.069515","6501100","汐止區"
"221029","298-VK","2018/02/20 19:57:09","新北市汐止區樟樹一路137巷26號","121.640788333333","25.06587","6501100","汐止區"
"221031","353-TW","2018/02/20 19:59:15","新北市汐止區福德一路176巷14號","121.635263333333","25.06658","6501100","汐止區"
"221035","622-UM","2018/02/20 19:59:11","新北市汐止區長江街35號","121.655626666667","25.0713916666667","6501100","汐止區"
"221025","623-UM","2018/02/20 19:59:14","新北市汐止區秀峰路107號","121.660253333333","25.06341","6501100","汐止區"
"221038","646-BX","2018/02/20 19:59:28","新北市汐止區忠孝東路480號","121.666328333333","25.0737783333333","6501100","汐止區"
"221033","647-BX","2018/02/20 19:59:16","新北市汐止區東勢街201巷129弄2號","121.633395","25.0429566666667","6501100","汐止區"
"221018","753-BX","2018/02/20 19:59:14","新北市汐止區茄福街128巷3弄1號","121.672018333333","25.06414","6501100","汐止區"
"220079","145-BY","2018/02/20 19:59:28","新北市板橋區南雅西路二段175巷11號","121.451663333333","25.01208","6500100","板橋區"
"220080","200-UY","2018/02/20 19:59:17","新北市板橋區大觀路二段79巷2弄16號","121.447395","25.0016333333333","6500100","板橋區"
"220082","610-BX","2018/02/20 19:59:29","新北市板橋區篤行路二段6-3號","121.431785","24.993075","6500100","板橋區"
"220101","245-BX","2018/02/20 19:59:12","新北市板橋區縣民大道三段31號","121.473786666667","25.020715","6500100","板橋區"
"220072","277-BY","2018/02/20 19:59:25","新北市板橋區篤行路二段1巷2-3號","121.432246666667","24.9931183333333","6500100","板橋區"
"220071","283-VK","2018/02/20 19:59:21","新北市板橋區五權街30巷24弄2號","121.464006666667","24.9933766666667","6500100","板橋區"
"220094","285-UM","2018/02/20 19:59:25","新北市板橋區雨農路17巷1號","121.462156666667","25.0245983333333","6500100","板橋區"
"220053","285-VK","2018/02/20 19:59:27","新北市板橋區永豐街50-2號","121.47474","25.0197683333333","6500100","板橋區"
"220083","286-VK","2018/02/20 19:59:29","新北市板橋區僑中二街10巷16號","121.446398333333","25.0110366666667","6500100","板橋區"
"220081","287-VK","2018/02/20 19:59:25","新北市板橋區大觀路一段28巷101號","121.449968333333","25.01197","6500100","板橋區"
"220061","295-UM","2018/02/20 19:59:17","新北市板橋區觀光街55號","121.470455","25.016335","6500100","板橋區"
"220084","296-UM","2018/02/20 19:59:26","新北市板橋區滿平街84巷45弄3號","121.4271","24.98843","6500100","板橋區"
"242048","281-VK","2018/02/20 19:59:12","新北市新莊區民安路207巷17號","121.426783333333","25.0230983333333","6500500","新莊區"
"220075","303-R5","2018/02/20 19:59:16","新北市板橋區金華街10巷48弄56號","121.459158333333","25.0201283333333","6500100","板橋區"
"220062","305-R5","2018/02/20 19:59:25","新北市板橋區民治街71巷60弄4號","121.481665","25.0330683333333","6500100","板橋區"
"220092","307-R5","2018/02/20 19:59:25","新北市板橋區四維路259巷91號","121.459843333333","25.0261916666667","6500100","板橋區"
"220098","317-R6","2018/02/20 19:59:14","新北市板橋區新海路135巷2號","121.459903333333","25.0232483333333","6500100","板橋區"
"220064","486-VK","2018/02/20 19:59:21","新北市板橋區區運路8號","121.46517","25.0090683333333","6500100","板橋區"
"220089","487-VK","2018/02/20 19:59:16","新北市板橋區龍泉街99-4號","121.457051666667","25.0245466666667","6500100","板橋區"
"241031","AAD-800","2018/02/20 19:47:39","新北市板橋區民生路二段89-6號","121.470508333333","25.019315","6500200","三重區"
"242032","280-VK","2018/02/20 19:59:14","新北市新莊區忠孝街57-1號","121.443961666667","25.0371866666667","6500500","新莊區"
"220088","491-VK","2018/02/20 19:59:29","新北市板橋區民治街108號","121.478416666667","25.0313283333333","6500100","板橋區"
"220035","560-BX","2018/02/20 19:59:27","新北市板橋區新生街87巷32號","121.456533333333","25.0221716666667","6500100","板橋區"
"220103","561-BX","2018/02/20 19:59:24","新北市板橋區陽明街29巷1弄5號","121.46485","25.0214466666667","6500100","板橋區"
"220091","637-BX","2018/02/20 19:59:28","新北市板橋區文聖街89巷30號","121.478316666667","25.0303416666667","6500100","板橋區"
"220093","689-BX","2018/02/20 19:59:27","新北市板橋區長江路二段305號","121.470893333333","25.033285","6500100","板橋區"
"220054","741-BX","2018/02/20 19:59:28","新北市板橋區忠孝路忠義巷3弄12號","121.465401666667","25.0039233333333","6500100","板橋區"
"220102","KEA-2699","2018/02/20 19:59:14","新北市板橋區仁化街42巷7號","121.475466666667","25.0313883333333","6500100","板橋區"
"220055","827-TW","2018/02/20 19:59:25","新北市板橋區仁愛路62巷17弄1號","121.460058333333","24.998245","6500100","板橋區"
"220067","829-TW","2018/02/20 19:59:33","新北市板橋區漢生東路193巷52號","121.47278","25.011725","6500100","板橋區"
"220096","830-TW","2018/02/20 19:59:28","新北市板橋區莒光路2巷33號","121.469143333333","25.0238816666667","6500100","板橋區"
"220074","895-R6","2018/02/20 19:59:14","新北市板橋區府中路29-2號","121.458501666667","25.0080116666667","6500100","板橋區"
"220073","985-R7","2018/02/20 19:59:16","新北市板橋區南雅西路二段78-2號","121.452685","25.01056","6500100","板橋區"
"220097","AAC-210","2018/02/20 19:59:30","新北市板橋區文化路一段285巷1號","121.464418333333","25.0188316666667","6500100","板橋區"
"220070","AAC-253","2018/02/20 19:59:16","新北市板橋區德興街13號","121.453441666667","24.9943966666667","6500100","板橋區"
