"lineid","car","time","location","longitude","latitude","cityid","cityname"
"234054","KEA-2590","2018/02/20 21:09:30","新北市八里區下罟子17號","121.380511666667","25.143505","6500400","永和區"
"234077","969-R7","2018/02/20 21:09:28","新北市八里區荖阡坑路24-11號","121.398471666667","25.138045","6500400","永和區"
"222003","436-BY","2018/02/20 21:09:29","新北市深坑區深南路88巷1號","121.62104","25.0116816666667","6501800","深坑區"
"231060","001-UM","2018/02/20 21:09:29","新北市新店區安康路二段389號","121.494556666667","24.95431","6500600","新店區"
"231059","046-UY","2018/02/20 21:09:19","新北市新店區僑義路10號","121.500411666667","24.95083","6500600","新店區"
"231061","047-UY","2018/02/20 21:09:21","新北市新店區永平街60號","121.516176666667","24.98474","6500600","新店區"
"231051","107-UY","2018/02/20 21:09:12","新北市新店區中正路700巷1號","121.533908333333","24.9911333333333","6500600","新店區"
"231048","108-UY","2018/02/20 21:09:23","新北市新店區寶強路9號","121.542988333333","24.9791416666667","6500600","新店區"
"231053","187-VK","2018/02/20 21:09:33","新北市新店區環河路29巷1號","121.535823333333","24.9611583333333","6500600","新店區"
"231050","KEA-2219","2018/02/20 21:09:18","新北市新店區中華路83巷4弄11號","121.538345","24.9684533333333","6500600","新店區"
"231054","AAD-862","2018/02/20 21:09:30","新北市新店區大新街7巷10號","121.54369","24.9681916666667","6500600","新店區"
"231067","4772-VM","2018/02/20 21:09:33","新北市新店區薏仁坑路自強巷6號","121.496753333333","24.9584116666667","6500600","新店區"
"231065","512-UM","2018/02/20 21:09:26","新北市新店區安祥路69巷89弄27號","121.482486666667","24.96066","6500600","新店區"
"231064","515-UM","2018/02/20 21:09:28","新北市新店區薏仁坑路自強巷1號","121.497438333333","24.9576716666667","6500600","新店區"
"231040","619-UM","2018/02/20 21:09:23","新北市新店區北新路一段100號","121.542158333333","24.9694033333333","6500600","新店區"
"231063","645-TV","2018/02/20 21:09:22","新北市新店區玫瑰路58巷3號","121.495356666667","24.94657","6500600","新店區"
"231066","AKT-0513","2018/02/20 21:09:18","新北市新店區安豐路48號","121.500778333333","24.95402","6500600","新店區"
"241011","013-R5","2018/02/20 21:09:34","新北市三重區龍濱路120-3號","121.501931666667","25.0711116666667","6500200","三重區"
"241028","022-UY","2018/02/20 21:09:18","新北市三重區正義南路60-1號","121.49831","25.0605766666667","6500200","三重區"
"241008","059-VK","2018/02/20 21:09:18","新北市三重區自強路一段64號","121.49725","25.06667","6500200","三重區"
"241009","060-VK","2018/02/20 21:09:20","新北市三重區忠孝路二段122號","121.483033333333","25.068795","6500200","三重區"
"241031","061-VK","2018/02/20 21:09:33","新北市三重區後埔街69-1號","121.476605","25.047805","6500200","三重區"
"241015","062-VK","2018/02/20 21:09:23","新北市三重區福德北路34號","121.502176666667","25.06515","6500200","三重區"
"241017","063-VK","2018/02/20 21:09:12","新北市三重區國隆路31號","121.49246","25.0645666666667","6500200","三重區"
"241026","066-VK","2018/02/20 21:09:29","新北市三重區文化南路42號","121.500383333333","25.0602166666667","6500200","三重區"
"241002","090-VK","2018/02/20 21:09:25","新北市三重區五華街1巷1號","121.495918333333","25.079825","6500200","三重區"
"241003","156-TC","2018/02/20 21:09:29","新北市三重區進安街198號","121.494021666667","25.0860083333333","6500200","三重區"
"241005","262-UM","2018/02/20 21:09:32","新北市三重區三信路186號","121.487911666667","25.0861266666667","6500200","三重區"
"241016","265-UM","2018/02/20 21:09:12","新北市三重區信義西街138號","121.495525","25.06453","6500200","三重區"
"241022","267-UM","2018/02/20 21:09:18","新北市三重區中正北路64巷24號","121.486111666667","25.0636533333333","6500200","三重區"
"241018","268-UM","2018/02/20 21:09:13","新北市三重區六張街39號","121.49423","25.070525","6500200","三重區"
"241032","269-UM","2018/02/20 21:09:30","新北市三重區光復路二段143巷16號","121.47397","25.06153","6500200","三重區"
"241013","270-UM","2018/02/20 21:09:28","新北市三重區仁愛街141巷13號","121.496048333333","25.075305","6500200","三重區"
"241025","271-UM","2018/02/20 21:09:21","新北市三重區忠孝路三段40巷16弄10號","121.482305","25.06685","6500200","三重區"
"241007","398-BY","2018/02/20 21:09:14","新北市三重區三和路四段145巷81號","121.486435","25.0785766666667","6500200","三重區"
"241020","413-TH","2018/02/20 21:09:15","新北市三重區忠孝路二段34號","121.485926666667","25.071","6500200","三重區"
"241004","475-VK","2018/02/20 21:09:19","新北市三重區仁愛街418號","121.490503333333","25.08134","6500200","三重區"
"241024","478-VK","2018/02/20 21:09:16","新北市三重區大勇街82巷15弄30號","121.481051666667","25.07198","6500200","三重區"
"241030","480-VK","2018/02/20 21:09:27","新北市三重區五谷王北街20巷15弄1號","121.475053333333","25.0484633333333","6500200","三重區"
"241014","543-UM","2018/02/20 21:09:26","新北市三重區長安街82-1號","121.501373333333","25.067705","6500200","三重區"
"241023","545-UM","2018/02/20 21:09:28","新北市三重區忠孝路三段50巷41弄64號","121.482445","25.0637666666667","6500200","三重區"
"241001","547-UM","2018/02/20 21:09:20","新北市三重區自強路三段87巷9號","121.487808333333","25.07479","6500200","三重區"
"241019","KEA-2593","2018/02/20 21:09:19","新北市三重區忠孝路一段2號","121.492516666667","25.0717283333333","6500200","三重區"
"241006","AAD-863","2018/02/20 21:09:18","新北市三重區中正北路2號","121.489295","25.0632283333333","6500200","三重區"
"241012","941-UM","2018/02/20 21:09:30","新北市三重區河邊北街228號","121.50218","25.07521","6500200","三重區"
"241029","942-UM","2018/02/20 21:09:15","新北市三重區正義南路107號","121.498136666667","25.05854","6500200","三重區"
"241033","AAC-255","2018/02/20 21:09:15","新北市三重區光復路二段170號","121.471965","25.0611466666667","6500200","三重區"
"247022","893-R6","2018/02/20 21:09:14","新北市蘆洲區民族路544號","121.467905","25.0891116666667","6501400","蘆洲區"
"247020","500-BY","2018/02/20 21:09:13","新北市蘆洲區民族路446-5號","121.472651666667","25.092165","6501400","蘆洲區"
"247008","341-TH","2018/02/20 21:09:31","新北市蘆洲區民生街95號","121.473868333333","25.0786733333333","6501400","蘆洲區"
"247010","339-TH","2018/02/20 21:09:28","新北市蘆洲區鷺江街38號","121.477315","25.0829966666667","6501400","蘆洲區"
"247002","337-TH","2018/02/20 21:09:27","新北市蘆洲區永樂街38巷42弄6號","121.458918333333","25.0899","6501400","蘆洲區"
"247004","336-TH","2018/02/20 21:09:19","新北市蘆洲區中原路93號","121.45748","25.0814233333333","6501400","蘆洲區"
"247016","057-VK","2018/02/20 21:09:16","新北市蘆洲區和平路136-2號","121.46708","25.0807283333333","6501400","蘆洲區"
"247006","056-VK","2018/02/20 21:09:26","新北市蘆洲區和平路97巷13號","121.467695","25.0786166666667","6501400","蘆洲區"
"247012","053-VK","2018/02/20 21:09:29","新北市蘆洲區民權路5號","121.47668","25.085695","6501400","蘆洲區"
"247014","007-UY","2018/02/20 21:09:23","新北市蘆洲區中央路155號","121.472666666667","25.084665","6501400","蘆洲區"
"247024","002-UY","2018/02/20 21:09:13","新北市蘆洲區長興路50巷1號","121.463773333333","25.0837716666667","6501400","蘆洲區"
"251009","008-UM","2018/02/20 21:09:17","新北市淡水區民族路112巷40號","121.462016666667","25.1343616666667","6501000","淡水區"
"251004","009-UM","2018/02/20 21:08:21","新北市淡水區大同路113巷6號","121.463595","25.1414166666667","6501000","淡水區"
"251013","179-VK","2018/02/20 21:09:24","新北市淡水區行忠路328號","121.460506666667","25.1995966666667","6501000","淡水區"
"251014","180-VK","2018/02/20 21:09:20","新北市淡水區溪口2號","121.449018333333","25.237675","6501000","淡水區"
"251015","182-VK","2018/02/20 21:09:17","新北市淡水區淡金路四段542巷50號","121.454536666667","25.2268916666667","6501000","淡水區"
"251010","413-VK","2018/02/20 21:09:29","新北市淡水區中正路一段63巷7弄2號","121.423065","25.1772783333333","6501000","淡水區"
"251012","441-VK","2018/02/20 21:09:13","新北市淡水區淡金路五段172號","121.457023333333","25.2400316666667","6501000","淡水區"
"251016","442-VK","2018/02/20 21:09:27","新北市淡水區前洲子2號","121.444725","25.216725","6501000","淡水區"
"251005","443-VK","2018/02/20 21:09:20","新北市淡水區中正東路35巷28號","121.446878333333","25.1688683333333","6501000","淡水區"
"251001","559-UM","2018/02/20 21:09:19","新北市淡水區新市一路三段101巷16弄3號","121.446555","25.1839083333333","6501000","淡水區"
"251011","650-BX","2018/02/20 21:09:14","新北市淡水區新民街120巷45弄24號","121.437761666667","25.17971","6501000","淡水區"
"251002","672-BX","2018/02/20 21:09:30","新北市淡水區英專路151號","121.448481666667","25.1747716666667","6501000","淡水區"
"251003","766-UM","2018/02/20 21:09:23","新北市淡水區新春街119號","121.441606666667","25.1821716666667","6501000","淡水區"
"221038","646-BX","2018/02/20 20:54:56","新北市汐止區汐萬路一段256巷1號","121.652025","25.0747116666667","6501100","汐止區"
"241031","AAD-800","2018/02/20 21:08:55","新北市板橋區民生路二段89-6號","121.470433333333","25.01933","6500200","三重區"
"220070","AAC-253","2018/02/20 21:09:16","新北市五股區凌雲路三段24巷21-26號","121.433306666667","25.10759","6500100","板橋區"
