"lineid","car","time","location","longitude","latitude","cityid","cityname"
"234077","969-R7","2018/02/20 21:39:29","新北市永和區福和路1號","121.526528333333","25.009745","6500400","永和區"
"243003","297-R6","2018/02/20 21:22:05","新北市泰山區黎明路25號","121.421858333333","25.0607583333333","6501600","泰山區"
"243008","680-BX","2018/02/20 21:25:09","新北市泰山區犁頭窠3-1號","121.422181666667","25.0605733333333","6501600","泰山區"
"231063","645-TV","2018/02/20 21:39:21","新北市新店區富貴街9巷2號","121.494135","24.9492166666667","6500600","新店區"
"241005","262-UM","2018/02/20 21:39:32","新北市三重區碧華街1號","121.4836","25.08095","6500200","三重區"
"235010","733-UM","2018/02/20 21:35:38","新北市中和區員山路36巷13號","121.484196666667","24.9908033333333","6500300","中和區"
"247008","341-TH","2018/02/20 21:37:31","新北市五股區中直路17-4號","121.422408333333","25.1114816666667","6501400","蘆洲區"
"251009","008-UM","2018/02/20 21:39:17","新北市淡水區民族路29巷2弄2號","121.462733333333","25.13736","6501000","淡水區"
"251004","009-UM","2018/02/20 21:39:21","新北市淡水區民生路5號","121.460438333333","25.1380116666667","6501000","淡水區"
"251014","180-VK","2018/02/20 21:39:20","新北市淡水區淡金路五段47號","121.454296666667","25.233455","6501000","淡水區"
"251010","413-VK","2018/02/20 21:39:29","新北市淡水區沙崙路242號","121.426066666667","25.1845983333333","6501000","淡水區"
"251012","441-VK","2018/02/20 21:39:33","新北市淡水區淡金路四段546號","121.451758333333","25.227","6501000","淡水區"
"251016","442-VK","2018/02/20 21:39:27","新北市淡水區崁頂59號","121.440903333333","25.1997733333333","6501000","淡水區"
"251005","443-VK","2018/02/20 21:39:24","新北市淡水區水源街一段70-1號","121.445193333333","25.1722283333333","6501000","淡水區"
"251001","559-UM","2018/02/20 21:39:19","新北市淡水區新市二路三段152號","121.435371666667","25.1942083333333","6501000","淡水區"
"251006","561-UM","2018/02/20 21:39:20","新北市淡水區中正路5巷31號","121.442231666667","25.1689233333333","6501000","淡水區"
"251011","650-BX","2018/02/20 21:39:30","新北市淡水區新民街322巷2號","121.435355","25.183525","6501000","淡水區"
"251002","672-BX","2018/02/20 21:39:16","新北市淡水區學府路155號","121.44576","25.1742383333333","6501000","淡水區"
"251003","766-UM","2018/02/20 21:39:23","新北市淡水區新春街65巷12號","121.438076666667","25.182345","6501000","淡水區"
"241031","AAD-800","2018/02/20 21:33:32","新北市板橋區民生路二段89-6號","121.470453333333","25.0192166666667","6500200","三重區"
"220070","AAC-253","2018/02/20 21:39:16","新北市板橋區華東街1-9號","121.448273333333","24.994845","6500100","板橋區"
