"lineid","car","time","location","longitude","latitude","cityid","cityname"
"248005","653-BX","2018/07/09 08:38:50","新北市五股區明德路12巷6號","121.433351666667","25.0718016666667","6501500","五股區"
"232001","290-BY","2018/07/09 08:39:18","新北市坪林區九芎坑15號","121.737206666667","24.949555","6502000","坪林區"
"232012","291-BY","2018/07/09 08:39:27","新北市坪林區金瓜寮24-2號","121.68021","24.9079883333333","6502000","坪林區"
"232017","705-BZ","2018/07/09 08:39:26","新北市坪林區中心崙6號","121.781321666667","24.947525","6502000","坪林區"
"232005","758-BX","2018/07/09 08:39:33","新北市坪林區鶯子瀨12-1號","121.713105","24.9108633333333","6502000","坪林區"
"244006","080-UY","2018/07/09 08:39:15","新北市林口區林口路270號","121.386285","25.084565","6501700","林口區"
"244001","248-BX","2018/07/09 08:38:37","新北市林口區寶斗厝坑61-1號","121.336191666667","25.1136466666667","6501700","林口區"
"244018","403-UM","2018/07/09 08:39:28","新北市林口區文化一路一段135巷30號","121.372936666667","25.0726233333333","6501700","林口區"
"244012","742-UY","2018/07/09 08:39:19","新北市林口區林口路68巷18弄7號","121.391761666667","25.0797833333333","6501700","林口區"
"244008","410-SL","2018/07/09 08:39:20","新北市林口區中北三街337號","121.383205","25.08433","6501700","林口區"
"244022","483-VK","2018/07/09 08:39:16","新北市林口區興林路221巷27號","121.38976","25.0717366666667","6501700","林口區"
"244016","485-VK","2018/07/09 08:39:15","新北市林口區公園路167號","121.37082","25.071915","6501700","林口區"
"244010","657-BX","2018/07/09 08:39:38","新北市林口區中正路79號","121.394978333333","25.0772933333333","6501700","林口區"
"244024","837-TS","2018/07/09 08:39:36","新北市林口區文化北路一段192-100號","121.35766","25.07067","6501700","林口區"
"244020","838-TS","2018/07/09 08:39:36","新北市林口區自強一街38號","121.399031666667","25.07771","6501700","林口區"
"222005","289-BY","2018/07/09 08:39:07","台北市南港區舊莊街一段290巷49號","121.623535","25.0187866666667","6501800","深坑區"
"231007","189-VK","2018/07/09 08:39:19","新北市新店區新潭路二段120號","121.513641666667","24.923205","6500600","新店區"
"231008","192-VK","2018/07/09 08:39:28","新北市新店區新烏路三段165巷1號","121.553825","24.90128","6500600","新店區"
"235001","611-BX","2018/07/09 08:39:22","新北市中和區員山路425號","121.480945","25.0035266666667","6500300","中和區"
"226005","5620-A6","2018/07/09 08:39:29","新北市平溪區南山里南山坪115-1號","121.782483333333","25.0437533333333","6502400","平溪區"
"226001","7418-A5","2018/07/09 08:39:35","新北市平溪區東勢里火燒寮36-1號","121.768798333333","24.98581","6502400","平溪區"
"226003","AGD-0702","2018/07/09 08:39:32","新北市平溪區新寮里新寮路2號","121.792476666667","25.05901","6502400","平溪區"
"223006","022-BY","2018/07/09 08:33:36","新北市深坑區昇高坑路51-1號","121.63035","24.994015","6501900","石碇區"
"223002","KEA-2673","2018/07/09 08:39:32","新北市石碇區溪邊寮2-2號","121.65768","24.9766616666667","6501900","石碇區"
"223001","205-TH","2018/07/09 08:39:29","新北市石碇區北宜路六段小金瓜寮巷2-1號","121.655655","24.9357666666667","6501900","石碇區"
"223008","406-TH","2018/07/09 08:39:19","新北市石碇區碇南路二段松柏崎巷35號","121.677896666667","25.0217783333333","6501900","石碇區"
"223001","592-UM","2018/07/09 08:39:17","新北市石碇區北宜路六段直潭巷26號","121.659941666667","24.93408","6501900","石碇區"
"223004","660-BX","2018/07/09 08:39:33","新北市石碇區崩山15號","121.674481666667","24.9712483333333","6501900","石碇區"
"223007","661-BX","2018/07/09 08:39:24","新北市石碇區碇南路二段松柏崎巷8號","121.675046666667","25.019505","6501900","石碇區"
"223005","677-TV","2018/07/09 08:39:23","新北市石碇區崩山22號","121.677188333333","24.9719733333333","6501900","石碇區"
"227005","282-VK","2018/07/09 08:39:18","新北市雙溪區外柑里四分子4號","121.842273333333","25.000465","6502500","雙溪區"
"252006","073-UM","2018/07/09 08:39:32","新北市三芝區後厝里北勢子22-16號","121.473021666667","25.2533033333333","6502100","三芝區"
"252004","249-BX","2018/07/09 08:39:22","新北市三芝區興華里楓子林38號","121.4905","25.2079316666667","6502100","三芝區"
"237001","159-UY","2018/07/09 08:39:17","新北市三峽區大觀路24號","121.375088333333","24.9448633333333","6500900","三峽區"
"236007","165-UM","2018/07/09 08:39:21","新北市土城區石門路95號","121.469213333333","24.9592","6501300","土城區"
"236001","339-SR","2018/07/09 08:39:29","新北市土城區中央路三段281巷11弄3號","121.426576666667","24.96282","6501300","土城區"
"236005","498-BY","2018/07/09 08:39:28","新北市土城區永和街2巷14號","121.434268333333","24.9645833333333","6501300","土城區"
"242033","AAC-296","2018/07/09 08:39:25","新北市新莊區新泰路49號","121.44946","25.0337766666667","6500500","新莊區"
"242057","986-R7","2018/07/09 08:39:16","新北市新莊區中正路742-1號","121.413598333333","25.02289","6500500","新莊區"
"242022","705-TV","2018/07/09 08:39:24","新北市新莊區化成路354號","121.465871666667","25.0491933333333","6500500","新莊區"
"242026","615-BX","2018/07/09 08:39:28","新北市新莊區幸福路761號","121.447955","25.0491333333333","6500500","新莊區"
"242024","613-BX","2018/07/09 08:39:31","新北市新莊區五工二路92號","121.459378333333","25.0667283333333","6500500","新莊區"
"242028","612-BX","2018/07/09 08:39:30","新北市新莊區中平路288-17號","121.444938333333","25.05127","6500500","新莊區"
"242040","566-BX","2018/07/09 08:39:30","新北市新莊區天祥街121巷15號","121.414311666667","25.0291183333333","6500500","新莊區"
"242045","497-BY","2018/07/09 08:39:32","新北市新莊區福營路302號","121.422423333333","25.0275183333333","6500500","新莊區"
"242052","442-UM","2018/07/09 08:39:22","新北市新莊區光華街62號","121.428381666667","25.0119683333333","6500500","新莊區"
"242049","441-UM","2018/07/09 08:39:28","新北市新莊區民本街22號","121.428168333333","25.0197066666667","6500500","新莊區"
"242035","415-TV","2018/07/09 08:39:28","新北市新莊區後港一路49巷3弄9號","121.425251666667","25.0266516666667","6500500","新莊區"
"242043","400-BY","2018/07/09 08:39:32","新北市新莊區鳳山街56巷29號","121.413661666667","25.0266216666667","6500500","新莊區"
"242059","353-BY","2018/07/09 08:39:23","新北市新莊區新樹路77號","121.437763333333","25.0275416666667","6500500","新莊區"
"242008","132-UY","2018/07/09 08:39:18","新北市新莊區中華路二段260號","121.452576666667","25.05318","6500500","新莊區"
"242038","133-UY","2018/07/09 08:39:32","新北市新莊區民安路292號","121.428036666667","25.0217116666667","6500500","新莊區"
"242030","135-UY","2018/07/09 08:39:30","新北市新莊區新泰路255巷40號","121.444486666667","25.0397266666667","6500500","新莊區"
"242047","172-VK","2018/07/09 08:39:26","新北市新莊區民安路98巷27號","121.423356666667","25.0251683333333","6500500","新莊區"
"242010","173-VK","2018/07/09 08:39:22","新北市新莊區中榮街33號","121.45017","25.0526316666667","6500500","新莊區"
"242016","175-VK","2018/07/09 08:39:34","新北市新莊區中港路352號","121.45182","25.0467883333333","6500500","新莊區"
"242003","176-VK","2018/07/09 08:39:32","新北市新莊區思源路42巷3-1號","121.460771666667","25.0434666666667","6500500","新莊區"
"242014","346-TH","2018/07/09 08:39:34","新北市新莊區中和街60巷1號","121.448003333333","25.0448466666667","6500500","新莊區"
"242006","347-TH","2018/07/09 08:39:33","新北市新莊區思源路593巷6弄21號","121.45799","25.05979","6500500","新莊區"
"242001","349-TH","2018/07/09 08:39:28","新北市新莊區碧江街33號","121.45203","25.0329966666667","6500500","新莊區"
"242018","350-TH","2018/07/09 08:39:34","新北市新莊區明智街15號","121.4543","25.0413516666667","6500500","新莊區"
"242012","351-TH","2018/07/09 08:39:29","新北市新莊區中泰街62巷4號","121.450223333333","25.047105","6500500","新莊區"
"242020","281-VK","2018/07/09 08:39:19","新北市新莊區新興街64號","121.450823333333","25.037685","6500500","新莊區"
"242055","280-VK","2018/07/09 08:39:33","新北市新莊區泰豐街1巷12號","121.448098333333","25.0311266666667","6500500","新莊區"
