"lineid","car","time","location","longitude","latitude","cityid","cityname"
"248005","653-BX","2018/07/09 09:19:24","新北市五股區水碓三路63號","121.430373333333","25.07157","6501500","五股區"
"232005","758-BX","2018/07/09 09:19:33","新北市坪林區北宜路八段558號","121.716255","24.9091566666667","6502000","坪林區"
"244006","080-UY","2018/07/09 09:19:15","新北市林口區中華路96號","121.385023333333","25.0903416666667","6501700","林口區"
"244018","403-UM","2018/07/09 09:19:28","新北市林口區忠孝路586巷8號","121.375148333333","25.0675833333333","6501700","林口區"
"244012","742-UY","2018/07/09 09:19:19","新北市林口區麗園一街6巷4-2號","121.375491666667","25.0698833333333","6501700","林口區"
"244008","410-SL","2018/07/09 09:19:20","新北市林口區民生路102-2號","121.377578333333","25.088365","6501700","林口區"
"244022","483-VK","2018/07/09 09:19:16","新北市林口區仁愛路二段125號","121.383466666667","25.0748283333333","6501700","林口區"
"244016","485-VK","2018/07/09 09:19:35","新北市林口區八德路78號","121.365463333333","25.065585","6501700","林口區"
"244010","657-BX","2018/07/09 09:19:38","新北市林口區中正路39號","121.395855","25.07725","6501700","林口區"
"244024","837-TS","2018/07/09 09:19:16","新北市林口區民族路86-99號","121.366073333333","25.0756366666667","6501700","林口區"
"222005","289-BY","2018/07/09 09:04:18","新北市深坑區土庫尖路75-1號","121.631126666667","25.01826","6501800","深坑區"
"231007","189-VK","2018/07/09 09:19:19","新北市新店區新潭路三段215巷25號","121.508091666667","24.9040933333333","6500600","新店區"
"231008","192-VK","2018/07/09 09:19:28","新北市新店區廣興路111巷2號","121.536693333333","24.91198","6500600","新店區"
"235001","611-BX","2018/07/09 09:19:22","新北市中和區民享街52號","121.47406","25.0025283333333","6500300","中和區"
"226003","AGD-0702","2018/07/09 09:19:32","新北市平溪區嶺腳里嶺腳寮85號","121.749186666667","25.0353383333333","6502400","平溪區"
"223001","205-TH","2018/07/09 09:19:29","新北市石碇區北宜路五段坑內巷3號","121.635915","24.9527133333333","6501900","石碇區"
"223008","406-TH","2018/07/09 09:19:35","新北市石碇區光明路32號","121.695506666667","25.0222266666667","6501900","石碇區"
"223001","592-UM","2018/07/09 09:19:37","新北市石碇區北宜路五段坑內巷1號","121.636548333333","24.9530516666667","6501900","石碇區"
"223004","660-BX","2018/07/09 09:19:33","新北市石碇區磨石坑13號","121.68889","24.97299","6501900","石碇區"
"223007","661-BX","2018/07/09 09:19:25","新北市石碇區光明路32號","121.695373333333","25.0219016666667","6501900","石碇區"
"223005","677-TV","2018/07/09 09:19:34","新北市石碇區華梵路2號","121.691436666667","24.9772233333333","6501900","石碇區"
"227005","282-VK","2018/07/09 09:08:57","新北市雙溪區泰平里料角坑19號","121.8123","24.9722383333333","6502500","雙溪區"
"252006","073-UM","2018/07/09 09:19:32","新北市三芝區埔坪里埔頭坑41號","121.504368333333","25.26456","6502100","三芝區"
"252004","249-BX","2018/07/09 09:19:22","新北市三芝區店子里店子59號","121.502686666667","25.2056466666667","6502100","三芝區"
"237001","159-UY","2018/07/09 09:19:17","新北市三峽區復興路555號","121.35659","24.9405466666667","6500900","三峽區"
"236007","165-UM","2018/07/09 09:19:21","新北市土城區中興路1號","121.425135","24.9630283333333","6501300","土城區"
"236001","339-SR","2018/07/09 09:19:29","新北市土城區中央路二段278巷7-3號","121.440088333333","24.9748116666667","6501300","土城區"
"236005","498-BY","2018/07/09 09:19:30","新北市土城區中央路三段126巷36弄7號","121.434616666667","24.968005","6501300","土城區"
"242033","AAC-296","2018/07/09 09:19:24","新北市新莊區忠孝街49-1號","121.444008333333","25.03709","6500500","新莊區"
"242057","986-R7","2018/07/09 09:19:36","新北市新莊區龍安路266巷3號","121.421708333333","25.0191033333333","6500500","新莊區"
"242022","705-TV","2018/07/09 09:19:24","新北市新莊區化成路416號","121.465986666667","25.050915","6500500","新莊區"
"242026","615-BX","2018/07/09 09:19:29","新北市新莊區思源路70號","121.459968333333","25.0446033333333","6500500","新莊區"
"242024","613-BX","2018/07/09 09:19:31","新北市新莊區五工三路62巷26號","121.460221666667","25.065285","6500500","新莊區"
"242028","612-BX","2018/07/09 09:19:32","新北市新莊區中華路二段41號","121.453348333333","25.0466533333333","6500500","新莊區"
"242040","566-BX","2018/07/09 09:19:34","新北市新莊區中正路694巷34號","121.418083333333","25.0289216666667","6500500","新莊區"
"242045","497-BY","2018/07/09 09:19:32","新北市新莊區裕民街90巷20號","121.417911666667","25.02377","6500500","新莊區"
"242052","442-UM","2018/07/09 09:19:29","新北市新莊區西盛街390號","121.427658333333","25.0129516666667","6500500","新莊區"
"242049","441-UM","2018/07/09 09:19:28","新北市新莊區民安西路90-2號","121.42695","25.0190416666667","6500500","新莊區"
"242035","415-TV","2018/07/09 09:19:28","新北市新莊區後港一路56巷24弄10號","121.42625","25.025285","6500500","新莊區"
"242043","400-BY","2018/07/09 09:19:24","新北市新莊區中正路895-26號","121.412255","25.0218566666667","6500500","新莊區"
"242059","353-BY","2018/07/09 09:19:28","新北市新莊區瓊泰路4號","121.44498","25.0287083333333","6500500","新莊區"
"242008","132-UY","2018/07/09 09:19:18","新北市新莊區幸福路64巷4弄5號","121.457335","25.0500016666667","6500500","新莊區"
"242038","133-UY","2018/07/09 09:19:32","新北市新莊區成功街6巷1號","121.425733333333","25.0217066666667","6500500","新莊區"
"242030","135-UY","2018/07/09 09:19:37","新北市新莊區公園一路96號","121.443403333333","25.0372683333333","6500500","新莊區"
"242047","172-VK","2018/07/09 09:19:26","新北市新莊區四維路198號","121.421585","25.020515","6500500","新莊區"
"242010","173-VK","2018/07/09 09:19:22","新北市新莊區中信街21號","121.450985","25.0506733333333","6500500","新莊區"
"242003","176-VK","2018/07/09 09:19:32","新北市新莊區化成路554巷27號","121.467175","25.0540133333333","6500500","新莊區"
"242001","349-TH","2018/07/09 09:19:28","新北市新莊區中正路56巷9號","121.46122","25.0410466666667","6500500","新莊區"
"242018","350-TH","2018/07/09 09:19:25","新北市新莊區環漢路三段1號","121.44316","25.0242516666667","6500500","新莊區"
"242012","351-TH","2018/07/09 09:19:26","新北市新莊區中和街145號","121.447348333333","25.0491983333333","6500500","新莊區"
"242020","281-VK","2018/07/09 09:19:19","新北市新莊區公園路12號","121.447858333333","25.038885","6500500","新莊區"
"242055","280-VK","2018/07/09 09:19:22","新北市新莊區豐年街28巷1弄11號","121.446143333333","25.0318633333333","6500500","新莊區"
