"lineid","car","time","location","longitude","latitude","cityid","cityname"
"248005","653-BX","2018/07/09 09:39:24","新北市五股區成泰路一段87號","121.434115","25.0688083333333","6501500","五股區"
"244018","403-UM","2018/07/09 09:39:28","新北市林口區麗園二街23巷88號","121.380666666667","25.07024","6501700","林口區"
"244012","742-UY","2018/07/09 09:39:19","新北市林口區麗園一街4巷2號","121.376423333333","25.0706966666667","6501700","林口區"
"244008","410-SL","2018/07/09 09:39:20","新北市林口區竹林路326巷1號","121.391271666667","25.0826116666667","6501700","林口區"
"244022","483-VK","2018/07/09 09:39:36","新北市林口區信義路128號","121.380376666667","25.079505","6501700","林口區"
"244016","485-VK","2018/07/09 09:39:35","新北市林口區文化二路一段20巷25弄4號","121.365993333333","25.067835","6501700","林口區"
"244010","657-BX","2018/07/09 09:39:18","新北市林口區竹林路56號","121.387465","25.078075","6501700","林口區"
"222005","289-BY","2018/07/09 09:39:27","新北市深坑區北深路一段274號","121.62899","25.00863","6501800","深坑區"
"231007","189-VK","2018/07/09 09:39:19","新北市新店區新潭路三段215巷25號","121.508123333333","24.9040983333333","6500600","新店區"
"231008","192-VK","2018/07/09 09:39:28","新北市新店區平廣路一段151號","121.522155","24.891245","6500600","新店區"
"235001","611-BX","2018/07/09 09:39:22","新北市中和區連城路607號","121.478228333333","24.9931383333333","6500300","中和區"
"223001","205-TH","2018/07/09 09:39:29","新北市石碇區北宜路五段火燒樟巷9號","121.626545","24.9546033333333","6501900","石碇區"
"223008","406-TH","2018/07/09 09:34:55","新北市石碇區南勢坑2-2號","121.698361666667","24.988885","6501900","石碇區"
"223001","592-UM","2018/07/09 09:39:16","新北市石碇區北宜路四段8號","121.614788333333","24.96131","6501900","石碇區"
"223007","661-BX","2018/07/09 09:36:44","新北市石碇區南勢坑4-1號","121.698021666667","24.9831766666667","6501900","石碇區"
"227005","282-VK","2018/07/09 09:39:17","新北市雙溪區泰平里烏山路59號","121.83128","24.9309633333333","6502500","雙溪區"
"252006","178-VK","2018/07/09 09:39:23","新北市三芝區光明街1號","121.518623333333","25.2631333333333","6502100","三芝區"
"252004","249-BX","2018/07/09 09:39:22","新北市三芝區福德里大水堀21號","121.512185","25.21994","6502100","三芝區"
"237001","159-UY","2018/07/09 09:39:37","新北市三峽區學府路8號","121.371905","24.9474416666667","6500900","三峽區"
"236001","339-SR","2018/07/09 09:39:29","新北市土城區學府路一段154號","121.454515","24.9868083333333","6501300","土城區"
"236005","498-BY","2018/07/09 09:39:28","新北市土城區忠承路19號","121.44129","24.9675066666667","6501300","土城區"
"242033","AAC-296","2018/07/09 09:39:24","新北市新莊區中正路350號","121.444163333333","25.03436","6500500","新莊區"
"242057","986-R7","2018/07/09 09:39:36","新北市新莊區四維路147號","121.422653333333","25.0221583333333","6500500","新莊區"
"242024","613-BX","2018/07/09 09:39:31","新北市新莊區中原路247號","121.449146666667","25.0543066666667","6500500","新莊區"
"242052","442-UM","2018/07/09 09:39:21","新北市新莊區民安西路189巷10弄24-1號","121.426526666667","25.0150866666667","6500500","新莊區"
"242049","441-UM","2018/07/09 09:39:28","新北市板橋區溪城路90-2號","121.429096666667","24.9799266666667","6500500","新莊區"
"242035","415-TV","2018/07/09 09:39:28","新北市新莊區中正路563號","121.434905","25.032605","6500500","新莊區"
"242043","400-BY","2018/07/09 09:39:24","新北市新莊區中正路新生巷85弄1號","121.417091666667","25.0217566666667","6500500","新莊區"
"242059","353-BY","2018/07/09 09:39:28","新北市新莊區新樹路234巷12號","121.432123333333","25.0196066666667","6500500","新莊區"
"242038","133-UY","2018/07/09 09:39:32","新北市新莊區瓊林北路15號","121.4392","25.0221083333333","6500500","新莊區"
"242030","135-UY","2018/07/09 09:39:30","新北市新莊區三和路17-16號","121.439046666667","25.0376566666667","6500500","新莊區"
"242047","172-VK","2018/07/09 09:39:26","新北市新莊區中正路715-1號","121.424655","25.0295333333333","6500500","新莊區"
"242003","176-VK","2018/07/09 09:39:32","新北市新莊區化成路766號","121.465253333333","25.0587716666667","6500500","新莊區"
"242001","349-TH","2018/07/09 09:39:28","新北市新莊區中港路五守新村1巷15號","121.455223333333","25.0378783333333","6500500","新莊區"
"242055","280-VK","2018/07/09 09:39:36","新北市新莊區瓊泰路95號","121.443196666667","25.0298033333333","6500500","新莊區"
