"lineid","car","time","location","longitude","latitude","cityid","cityname"
"234044","148-BY","2018/07/09 12:59:35","新北市永和區得和路373巷31弄8號","121.524636666667","25.000735","6500400","永和區"
"234070","149-BY","2018/07/09 12:59:44","新北市永和區四維街62號","121.52438","24.9983366666667","6500400","永和區"
"234005","207-UY","2018/07/09 12:59:41","新北市永和區永和路二段100號","121.515088333333","25.011915","6500400","永和區"
"234078","298-R6","2018/07/09 12:59:49","新北市永和區永亨路81號","121.521723333333","25.00573","6500400","永和區"
"234036","336-UY","2018/07/09 12:59:47","新北市中和區秀朗路三段38號","121.526476666667","24.9959716666667","6500400","永和區"
"234062","337-UY","2018/07/09 12:59:48","新北市永和區秀朗路一段166號","121.518508333333","25.00337","6500400","永和區"
"234068","552-UM","2018/07/09 12:59:53","新北市永和區中興街84巷8號","121.518566666667","25.0116883333333","6500400","永和區"
"234084","553-UM","2018/07/09 12:59:24","新北市永和區永寧街129巷2號","121.51805","25.0053283333333","6500400","永和區"
"234015","745-BX","2018/07/09 12:59:48","新北市永和區永和路二段299號","121.516065","25.01608","6500400","永和區"
"234028","746-BX","2018/07/09 12:59:38","新北市永和區秀朗路二段274號","121.526095","24.9979866666667","6500400","永和區"
"234052","KEA-2590","2018/07/09 12:59:37","新北市永和區竹林路66巷15-7號","121.518335","25.0132683333333","6500400","永和區"
"234012","KEA-2591","2018/07/09 12:59:45","新北市永和區信義路17巷6號","121.513938333333","25.01183","6500400","永和區"
"234060","AAD-866","2018/07/09 12:59:46","新北市永和區福和路309巷1號","121.516291666667","25.007035","6500400","永和區"
"234048","863-TW","2018/07/09 12:59:47","新北市永和區文化路194號","121.51076","25.0162566666667","6500400","永和區"
"234025","9371-KE","2018/07/09 12:59:43","新北市永和區水源街2巷5-1號","121.512296666667","25.0054716666667","6500400","永和區"
"234010","9373-KE","2018/07/09 12:59:46","新北市永和區仁愛路40巷9弄3號","121.51381","25.0139433333333","6500400","永和區"
"248005","077-UY","2018/07/09 12:59:34","新北市五股區中興路二段37巷28號","121.460133333333","25.0750533333333","6501500","五股區"
"248007","095-VK","2018/07/09 12:59:51","新北市五股區更洲路18號","121.458241666667","25.0789016666667","6501500","五股區"
"248019","225-UY","2018/07/09 12:59:46","新北市五股區中興路二段83巷26-6號","121.460006666667","25.07518","6501500","五股區"
"248013","261-SL","2018/07/09 12:59:44","新北市五股區中興路二段182巷3號","121.456583333333","25.0780183333333","6501500","五股區"
"248003","677-BX","2018/07/09 12:59:34","新北市五股區中興路二段163號","121.457598333333","25.0777083333333","6501500","五股區"
"248001","678-BX","2018/07/09 12:59:42","新北市五股區中興路二段37巷28號","121.460005","25.074845","6501500","五股區"
"248009","682-TV","2018/07/09 12:59:36","新北市五股區中興路二段37巷26號","121.4603","25.0751433333333","6501500","五股區"
"234022","9380-KE","2018/07/09 12:59:45","新北市永和區竹林路91巷70號","121.522023333333","25.0136783333333","6500400","永和區"
"234076","969-R7","2018/07/09 12:59:35","新北市永和區民享街17號","121.515478333333","24.99515","6500400","永和區"
"234072","AAC-211","2018/07/09 12:59:36","新北市永和區環河東路二段98號","121.524111666667","25.01034","6500400","永和區"
"234066","AAC-212","2018/07/09 12:59:41","新北市永和區自由街58號","121.513703333333","25.00586","6500400","永和區"
"234001","AAC-295","2018/07/09 12:59:53","新北市永和區永平路20號","121.513446666667","25.0087983333333","6500400","永和區"
"244001","248-BX","2018/07/09 12:59:37","新北市林口區中山路164號","121.390436666667","25.0788166666667","6501700","林口區"
"243005","AAD-798","2018/07/09 12:59:45","新北市泰山區黎明路25號","121.422066666667","25.0607766666667","6501600","泰山區"
"231002","002-UM","2018/07/09 12:59:40","新北市新店區安華路28-1號","121.519598333333","24.960985","6500600","新店區"
"231028","046-UY","2018/07/09 12:59:53","新北市新店區安華路28-1號","121.519545","24.9608216666667","6500600","新店區"
"231001","047-UY","2018/07/09 12:59:38","新北市新店區安華路28-1號","121.519276666667","24.9608833333333","6500600","新店區"
"231005","106-UY","2018/07/09 12:59:34","新北市新店區安華路28-1號","121.519553333333","24.96076","6500600","新店區"
"231036","110-UY","2018/07/09 12:59:35","新北市新店區安華路28-1號","121.519545","24.960785","6500600","新店區"
"231011","187-VK","2018/07/09 12:59:46","新北市新店區安一路一段1-1號","121.519543333333","24.9611933333333","6500600","新店區"
"231010","188-VK","2018/07/09 12:59:49","新北市新店區安一路一段1-1號","121.519458333333","24.9614683333333","6500600","新店區"
"231023","KEA-2219","2018/07/09 12:59:43","新北市新店區安華路30巷1號","121.519438333333","24.95968","6500600","新店區"
"231003","268-BY","2018/07/09 12:59:37","新北市新店區安華路28-1號","121.519383333333","24.96071","6500600","新店區"
"231018","278-BY","2018/07/09 12:59:49","新北市新店區安一路一段1-1號","121.519703333333","24.9612983333333","6500600","新店區"
"231014","AAD-862","2018/07/09 12:59:36","新北市新店區安一路一段1-1號","121.519628333333","24.96121","6500600","新店區"
"231037","4716-K9","2018/07/09 12:59:48","新北市新店區安華路28-1號","121.51975","24.96098","6500600","新店區"
"231025","4715-K9","2018/07/09 12:59:36","新北市新店區安華路28-1號","121.519461666667","24.9605383333333","6500600","新店區"
"231013","513-UM","2018/07/09 12:59:37","新北市新店區安一路一段1-1號","121.519595","24.9611666666667","6500600","新店區"
"231030","619-UM","2018/07/09 12:59:34","新北市新店區安一路一段1-1號","121.51951","24.961125","6500600","新店區"
"231035","719-UM","2018/07/09 12:59:41","新北市新店區安一路一段1-1號","121.519515","24.961365","6500600","新店區"
"231031","720-UM","2018/07/09 12:59:38","新北市新店區安一路一段1-1號","121.519351666667","24.961245","6500600","新店區"
"231029","897-TW","2018/07/09 12:59:38","新北市新店區安華路28-1號","121.519521666667","24.9608066666667","6500600","新店區"
"231006","898-TW","2018/07/09 12:59:49","新北市新店區安華路28-1號","121.519385","24.9609316666667","6500600","新店區"
"231004","899-TW","2018/07/09 12:59:33","新北市新店區安華路28-1號","121.519288333333","24.960865","6500600","新店區"
"235028","005-UY","2018/07/09 12:59:53","新北市中和區員山路36巷16-3號","121.485076666667","24.9913216666667","6500300","中和區"
"235027","006-UY","2018/07/09 12:59:33","新北市中和區員山路36巷16-3號","121.484971666667","24.9914966666667","6500300","中和區"
"235020","096-UM","2018/07/09 12:59:47","新北市中和區員山路36巷16號","121.484278333333","24.99168","6500300","中和區"
"235029","098-UM","2018/07/09 12:59:44","新北市中和區橋和路328號","121.498141666667","25.00749","6500300","中和區"
"235004","150-BY","2018/07/09 12:59:41","新北市中和區和城路一段271巷1號","121.485395","24.9917483333333","6500300","中和區"
"235022","151-BY","2018/07/09 12:59:33","新北市中和區錦和路350-1號","121.490405","24.9935216666667","6500300","中和區"
"235002","185-VK","2018/07/09 12:59:52","新北市中和區成功路50號","121.52608","24.9927","6500300","中和區"
"235031","255-BX","2018/07/09 12:59:42","新北市中和區新生街13巷1-1號","121.48341","25.0043233333333","6500300","中和區"
"235034","558-UM","2018/07/09 12:59:38","新北市中和區員山路36巷16-3號","121.484965","24.99177","6500300","中和區"
"235054","640-BX","2018/07/09 12:59:43","新北市中和區中正路589巷9號","121.48575","24.99403","6500300","中和區"
"235011","732-UM","2018/07/09 12:59:36","新北市中和區員山路36巷13號","121.484158333333","24.9910716666667","6500300","中和區"
"235005","802-TS","2018/07/09 12:59:43","新北市中和區員山路36巷16-2號","121.485186666667","24.9916933333333","6500300","中和區"
"235016","805-TS","2018/07/09 12:59:38","新北市中和區員山路36巷16號","121.484408333333","24.991515","6500300","中和區"
"235012","896-TW","2018/07/09 12:59:49","新北市中和區員山路36巷16-3號","121.484951666667","24.9919516666667","6500300","中和區"
"235017","900-TW","2018/07/09 12:59:44","新北市中和區員山路36巷13號","121.484158333333","24.9907","6500300","中和區"
"235015","157-BY","2018/07/09 12:59:40","新北市中和區中正路637巷52弄1號","121.485493333333","24.9935116666667","6500300","中和區"
"253004","8270-PC","2018/07/09 12:59:41","新北市石門區中山路64-1號","121.567538333333","25.2905583333333","6502200","石門區"
"207002","749-BX","2018/07/09 12:59:38","新北市萬里區雙興里大坪路23號","121.633388333333","25.1685616666667","6502800","萬里區"
"252005","073-UM","2018/07/09 12:59:32","新北市三芝區忠孝街41號","121.506091666667","25.2558433333333","6502100","三芝區"
"207001","662-BX","2018/07/09 12:59:31","新北市萬里區萬里里獅頭路22-1號","121.693025","25.178165","6502800","萬里區"
"236005","498-BY","2018/07/09 12:59:48","新北市土城區亞洲路32巷1號","121.435821666667","24.9743933333333","6501300","土城區"
"239007","292-BY","2018/07/09 12:57:24","新北市鶯歌區鶯桃路206巷24弄25號","121.338336666667","24.959325","6500800","鶯歌區"
"221023","279-VK","2018/07/09 12:59:45","新北市汐止區福德一路8號","121.639","25.069725","6501100","汐止區"
"221032","280-BY","2018/07/09 12:59:43","新北市汐止區大同路二段527號","121.661676666667","25.06891","6501100","汐止區"
"235032","KEA-2873","2018/07/09 12:59:35","新北市中和區員山路36巷16-3號","121.484983333333","24.99128","6500300","中和區"
"235025","KEA-2875","2018/07/09 12:34:35","新北市中和區和城路一段271巷1號","121.485611666667","24.9918933333333","6500300","中和區"
