"lineid","car","time","location","longitude","latitude","cityid","cityname"
"234044","148-BY","2018/07/09 13:09:35","新北市永和區得和路373巷31弄11號","121.524538333333","25.00057","6500400","永和區"
"234070","149-BY","2018/07/09 13:09:44","新北市永和區得和路108號","121.518283333333","25.0001033333333","6500400","永和區"
"234005","207-UY","2018/07/09 13:09:41","新北市永和區中山路一段132-1號","121.5104","25.0099383333333","6500400","永和區"
"234078","298-R6","2018/07/09 13:09:48","新北市永和區福和路57巷14弄1號","121.522708333333","25.0069283333333","6500400","永和區"
"234036","336-UY","2018/07/09 13:09:47","新北市永和區民樂街71巷1號","121.527393333333","24.99753","6500400","永和區"
"234062","337-UY","2018/07/09 13:09:46","新北市永和區秀朗路二段46號","121.521358333333","25.0023766666667","6500400","永和區"
"234068","552-UM","2018/07/09 13:09:33","新北市永和區豫溪街137巷1弄23號","121.51847","25.010405","6500400","永和區"
"234084","553-UM","2018/07/09 13:09:44","新北市永和區永貞路57號","121.519226666667","25.0043916666667","6500400","永和區"
"234015","745-BX","2018/07/09 13:09:48","新北市永和區文化路90巷8號","121.51387","25.0157366666667","6500400","永和區"
"234028","746-BX","2018/07/09 13:09:37","新北市永和區民生路23號","121.522861666667","24.9987983333333","6500400","永和區"
"234052","KEA-2590","2018/07/09 13:09:44","新北市永和區中興街133巷6號","121.518751666667","25.012685","6500400","永和區"
"234012","KEA-2591","2018/07/09 13:09:45","新北市永和區保福路二段55號","121.510946666667","25.0120966666667","6500400","永和區"
"234060","AAD-866","2018/07/09 13:09:46","新北市永和區安樂路320號","121.514421666667","25.005555","6500400","永和區"
"234040","862-TW","2018/07/09 13:09:38","新北市永和區保平路113號","121.510983333333","25.0066116666667","6500400","永和區"
"234048","863-TW","2018/07/09 13:09:47","新北市永和區文化路135巷9號","121.510791666667","25.01452","6500400","永和區"
"234025","9371-KE","2018/07/09 13:09:42","新北市永和區永和路一段72巷4號","121.513446666667","25.006115","6500400","永和區"
"234010","9373-KE","2018/07/09 13:09:45","新北市永和區仁愛路23號","121.514368333333","25.0133266666667","6500400","永和區"
"248015","026-BX","2018/07/09 13:09:41","新北市五股區成泰路三段221巷8號","121.44592","25.093295","6501500","五股區"
"248005","077-UY","2018/07/09 13:09:34","新北市五股區中興路二段95號","121.460381666667","25.077465","6501500","五股區"
"248007","095-VK","2018/07/09 13:09:31","新北市五股區更洲路32巷15弄5號","121.458453333333","25.0803783333333","6501500","五股區"
"248019","225-UY","2018/07/09 13:09:46","新北市五股區成泰路三段643號","121.452836666667","25.1049233333333","6501500","五股區"
"248011","247-BX","2018/07/09 13:09:34","新北市五股區中興路三段188號","121.444711666667","25.08114","6501500","五股區"
"248013","261-SL","2018/07/09 13:09:44","新北市五股區成泰路一段189巷18-2號","121.433571666667","25.0764666666667","6501500","五股區"
"248003","677-BX","2018/07/09 13:09:54","新北市五股區中興路四段56號","121.437825","25.0831666666667","6501500","五股區"
"248001","678-BX","2018/07/09 13:09:42","新北市五股區芳洲路49號","121.441778333333","25.0838483333333","6501500","五股區"
"248009","682-TV","2018/07/09 13:09:36","新北市五股區成泰路一段188號","121.435463333333","25.0776016666667","6501500","五股區"
"234022","9380-KE","2018/07/09 13:09:45","新北市永和區中興街63號","121.516678333333","25.0116683333333","6500400","永和區"
"234076","969-R7","2018/07/09 13:09:35","新北市永和區中正路164號","121.515016666667","24.9966416666667","6500400","永和區"
"234072","AAC-211","2018/07/09 13:09:36","新北市永和區竹林路211號","121.520616666667","25.0088266666667","6500400","永和區"
"234066","AAC-212","2018/07/09 13:09:35","新北市永和區保平路23號","121.512665","25.00737","6500400","永和區"
"234001","AAC-295","2018/07/09 13:09:33","新北市永和區中山路一段142號","121.510118333333","25.00971","6500400","永和區"
"244001","248-BX","2018/07/09 13:09:37","新北市林口區頂福里6鄰32號","121.363236666667","25.0955833333333","6501700","林口區"
"243005","AAD-798","2018/07/09 13:09:45","新北市泰山區南林路93號","121.415526666667","25.0511383333333","6501600","泰山區"
"231002","002-UM","2018/07/09 13:09:40","新北市新店區安華路28-1號","121.519695","24.9608716666667","6500600","新店區"
"231027","0291-UT","2018/07/09 13:09:37","新北市新店區安華路1-1號","121.519348333333","24.9605233333333","6500600","新店區"
"231028","046-UY","2018/07/09 13:09:33","新北市新店區安華路28-1號","121.519558333333","24.960915","6500600","新店區"
"231001","047-UY","2018/07/09 13:09:38","新北市新店區安華路28-1號","121.51932","24.9608366666667","6500600","新店區"
"231005","106-UY","2018/07/09 13:09:35","新北市新店區安華路28-1號","121.519596666667","24.960845","6500600","新店區"
"231036","110-UY","2018/07/09 13:09:55","新北市新店區安華路28-1號","121.51963","24.9608383333333","6500600","新店區"
"231011","187-VK","2018/07/09 13:09:46","新北市新店區安一路一段1-1號","121.519553333333","24.9612716666667","6500600","新店區"
"231010","188-VK","2018/07/09 13:09:49","新北市新店區安一路一段1-1號","121.519448333333","24.9612883333333","6500600","新店區"
"231023","KEA-2219","2018/07/09 13:09:43","新北市新店區安一路一段1-1號","121.519703333333","24.9613183333333","6500600","新店區"
"231003","268-BY","2018/07/09 13:09:37","新北市新店區安華路28-1號","121.519366666667","24.9606133333333","6500600","新店區"
"231018","278-BY","2018/07/09 13:09:29","新北市新店區安一路一段1-1號","121.519736666667","24.9612033333333","6500600","新店區"
"231014","AAD-862","2018/07/09 13:09:36","新北市新店區安一路一段1-1號","121.519901666667","24.9611466666667","6500600","新店區"
"231037","4716-K9","2018/07/09 13:09:48","新北市新店區安華路28-1號","121.51984","24.9609983333333","6500600","新店區"
"231025","4715-K9","2018/07/09 13:09:36","新北市新店區安華路28-1號","121.519601666667","24.9607316666667","6500600","新店區"
"231013","513-UM","2018/07/09 13:09:37","新北市新店區安一路一段1-1號","121.51959","24.961185","6500600","新店區"
"231030","619-UM","2018/07/09 13:09:34","新北市新店區安一路一段1-1號","121.519483333333","24.9610833333333","6500600","新店區"
"231035","719-UM","2018/07/09 13:09:41","新北市新店區安一路一段1-1號","121.519521666667","24.9613716666667","6500600","新店區"
"231019","719-UY","2018/07/09 13:09:33","新北市新店區安一路一段1-1號","121.519488333333","24.9614866666667","6500600","新店區"
"231031","720-UM","2018/07/09 13:09:38","新北市新店區安一路一段1-1號","121.519163333333","24.96127","6500600","新店區"
"231029","897-TW","2018/07/09 13:09:38","新北市新店區安華路28-1號","121.519566666667","24.9607083333333","6500600","新店區"
"231006","898-TW","2018/07/09 13:09:49","新北市新店區安華路28-1號","121.519383333333","24.960925","6500600","新店區"
"231004","899-TW","2018/07/09 13:09:53","新北市新店區安華路28-1號","121.519275","24.960875","6500600","新店區"
"231024","AKT-0513","2018/07/09 13:09:33","新北市新店區安華路28-1號","121.519425","24.9605783333333","6500600","新店區"
"235030","003-UY","2018/07/09 13:09:53","新北市中和區中山路二段201號","121.499845","25.00263","6500300","中和區"
"235028","005-UY","2018/07/09 13:09:53","新北市中和區中正路173號","121.497615","24.993625","6500300","中和區"
"235027","006-UY","2018/07/09 13:09:53","新北市中和區員山路36巷16-3號","121.48499","24.9914016666667","6500300","中和區"
"235020","096-UM","2018/07/09 13:09:47","新北市中和區員山路36巷16號","121.484378333333","24.991455","6500300","中和區"
"235003","097-UM","2018/07/09 13:09:36","新北市中和區錦和路350-1號","121.490441666667","24.99357","6500300","中和區"
"235029","098-UM","2018/07/09 13:09:44","新北市中和區莊敬路49巷20弄24號","121.502841666667","25.00576","6500300","中和區"
"235004","150-BY","2018/07/09 13:09:41","新北市中和區中正路271-2號","121.495756666667","24.9935233333333","6500300","中和區"
"235022","151-BY","2018/07/09 13:09:53","新北市中和區圓通路367巷33弄6-1號","121.492845","24.98573","6500300","中和區"
"235002","185-VK","2018/07/09 13:09:32","新北市中和區大勇街31巷1號","121.517445","24.994075","6500300","中和區"
"235031","255-BX","2018/07/09 13:09:42","新北市中和區新生街177巷14號","121.484185","25.0002066666667","6500300","中和區"
"235007","352-BY","2018/07/09 13:09:44","新北市中和區員山路36巷16-2號","121.485213333333","24.991655","6500300","中和區"
"235006","KEA-2878","2018/07/09 13:09:44","新北市中和區景新街246號","121.509391666667","24.99354","6500300","中和區"
"235014","4979-A6","2018/07/09 13:09:41","新北市中和區錦和路350-1號","121.490576666667","24.99357","6500300","中和區"
"235034","558-UM","2018/07/09 13:09:38","新北市中和區中正路291號","121.493593333333","24.9938","6500300","中和區"
"235009","565-BX","2018/07/09 13:09:47","新北市中和區員山路36巷13號","121.484183333333","24.99112","6500300","中和區"
"235054","640-BX","2018/07/09 13:09:44","新北市中和區國光街6巷2號","121.472003333333","25.0002666666667","6500300","中和區"
"235011","732-UM","2018/07/09 13:09:36","新北市中和區中正路752號","121.485358333333","24.99866","6500300","中和區"
"235035","783-BX","2018/07/09 13:09:43","新北市中和區中山路二段480號","121.487706666667","25.00481","6500300","中和區"
"235026","800-TS","2018/07/09 13:09:46","新北市中和區錦和路45號","121.487811666667","25.0006466666667","6500300","中和區"
"235005","802-TS","2018/07/09 13:09:43","新北市中和區中正路637巷52弄1號","121.485573333333","24.9935366666667","6500300","中和區"
"235016","805-TS","2018/07/09 13:09:38","新北市中和區中正路271-1號","121.495701666667","24.9935866666667","6500300","中和區"
"235012","896-TW","2018/07/09 13:09:49","新北市中和區員山路36巷16-3號","121.484948333333","24.99193","6500300","中和區"
"235017","900-TW","2018/07/09 13:09:44","新北市中和區員山路36巷16-2號","121.485155","24.9915716666667","6500300","中和區"
"235015","157-BY","2018/07/09 13:09:40","新北市中和區捷運路10-2號","121.509296666667","24.989905","6500300","中和區"
"235023","AAC-215","2018/07/09 13:09:43","新北市中和區員山路36巷16-3號","121.485013333333","24.991295","6500300","中和區"
"253001","6251-TK","2018/07/09 13:09:47","新北市石門區楓林6-1號","121.537728333333","25.295385","6502200","石門區"
"253002","637-UY","2018/07/09 13:09:48","新北市石門區老崩山36號","121.55705","25.2737133333333","6502200","石門區"
"253004","8270-PC","2018/07/09 13:09:41","新北市石門區阿里荖28-1號","121.607155","25.28074","6502200","石門區"
"207002","749-BX","2018/07/09 13:09:45","新北市萬里區雙興里大坪路1號","121.638475","25.16718","6502800","萬里區"
"252005","073-UM","2018/07/09 13:09:32","新北市三芝區八賢里八連溪25號","121.511625","25.2396116666667","6502100","三芝區"
"207001","662-BX","2018/07/09 13:09:52","新北市萬里區萬里里獅頭路22-1號","121.692835","25.1781616666667","6502800","萬里區"
"236005","498-BY","2018/07/09 13:09:48","新北市土城區亞洲路58巷3弄8號","121.434695","24.9736016666667","6501300","土城區"
"239007","292-BY","2018/07/09 12:57:24","新北市鶯歌區鶯桃路206巷24弄25號","121.338336666667","24.959325","6500800","鶯歌區"
"221023","279-VK","2018/07/09 13:09:45","新北市汐止區福德一路1-1號","121.639713333333","25.071315","6501100","汐止區"
"221032","280-BY","2018/07/09 13:09:43","新北市汐止區建成路57巷14號","121.662398333333","25.0729733333333","6501100","汐止區"
"235032","KEA-2873","2018/07/09 13:09:35","新北市中和區員山路36巷16-3號","121.485066666667","24.99131","6500300","中和區"
"235025","KEA-2875","2018/07/09 13:09:25","新北市中和區連城路607號","121.478321666667","24.9930966666667","6500300","中和區"
