"lineid","car","time","location","longitude","latitude","cityid","cityname"
"234044","148-BY","2018/07/09 13:29:35","新北市永和區秀朗路二段259號","121.526263333333","24.9991683333333","6500400","永和區"
"234070","149-BY","2018/07/09 13:29:44","新北市永和區民治街74號","121.5177","24.998175","6500400","永和區"
"234005","207-UY","2018/07/09 13:29:41","新北市永和區永貞路389巷9號","121.507823333333","25.0082433333333","6500400","永和區"
"234078","298-R6","2018/07/09 13:29:48","新北市永和區環河東路三段52巷2弄2號","121.526558333333","25.0061616666667","6500400","永和區"
"234036","336-UY","2018/07/09 13:29:47","新北市永和區民樂街37巷1號","121.527583333333","25.0007183333333","6500400","永和區"
"234062","337-UY","2018/07/09 13:29:46","新北市永和區永元路17巷25弄7號","121.520893333333","25.0015083333333","6500400","永和區"
"234068","552-UM","2018/07/09 13:29:33","新北市永和區警光街5-1號","121.519758333333","25.009445","6500400","永和區"
"234084","553-UM","2018/07/09 13:29:44","新北市永和區林森路49號","121.524598333333","25.0043133333333","6500400","永和區"
"234015","745-BX","2018/07/09 13:29:48","新北市永和區環河西路一段51巷1號","121.514205","25.01809","6500400","永和區"
"234028","746-BX","2018/07/09 13:29:37","新北市永和區四維街82號","121.523258333333","24.9983466666667","6500400","永和區"
"234052","KEA-2590","2018/07/09 13:29:49","新北市永和區復興街19巷6號","121.516186666667","25.0132016666667","6500400","永和區"
"234012","KEA-2591","2018/07/09 13:29:45","新北市永和區中山路一段211號","121.508871666667","25.0083933333333","6500400","永和區"
"234060","AAD-866","2018/07/09 13:29:46","新北市永和區中正路439號","121.517096666667","25.005205","6500400","永和區"
"234040","862-TW","2018/07/09 13:29:54","新北市永和區中和路597巷4號","121.512153333333","25.0045133333333","6500400","永和區"
"234048","863-TW","2018/07/09 13:29:47","新北市永和區信義路113號","121.512338333333","25.0147166666667","6500400","永和區"
"234025","9371-KE","2018/07/09 13:29:42","新北市永和區中正路657號","121.514848333333","25.0101916666667","6500400","永和區"
"234010","9373-KE","2018/07/09 13:29:45","新北市永和區仁愛路141巷5弄6號","121.511901666667","25.0121016666667","6500400","永和區"
"248015","026-BX","2018/07/09 13:29:54","新北市五股區凌雲路一段83巷22弄1號","121.449868333333","25.1007966666667","6501500","五股區"
"248005","077-UY","2018/07/09 13:29:54","新北市五股區四維路60號","121.467368333333","25.0722166666667","6501500","五股區"
"248007","095-VK","2018/07/09 13:29:51","新北市五股區四維路185巷42弄1號","121.463361666667","25.0768866666667","6501500","五股區"
"248019","225-UY","2018/07/09 13:29:46","新北市五股區天乙路116號","121.447046666667","25.1138183333333","6501500","五股區"
"248011","247-BX","2018/07/09 13:29:34","新北市五股區御成路150號","121.44079","25.094555","6501500","五股區"
"248013","261-SL","2018/07/09 13:29:44","新北市五股區明德路2號","121.435511666667","25.0712683333333","6501500","五股區"
"248003","677-BX","2018/07/09 13:29:34","新北市五股區工商路140號","121.43514","25.08651","6501500","五股區"
"248001","678-BX","2018/07/09 13:29:42","新北市五股區西雲路152號","121.446285","25.094385","6501500","五股區"
"248009","682-TV","2018/07/09 13:29:37","新北市五股區自強路85號","121.432556666667","25.0718333333333","6501500","五股區"
"234022","9380-KE","2018/07/09 13:29:45","新北市永和區竹林路89號","121.519708333333","25.012265","6500400","永和區"
"234076","969-R7","2018/07/09 13:29:35","新北市永和區中正路286巷7號","121.517671666667","24.9986416666667","6500400","永和區"
"234072","AAC-211","2018/07/09 13:29:36","新北市永和區永和路二段103號","121.514905","25.0117683333333","6500400","永和區"
"234066","AAC-212","2018/07/09 13:29:35","新北市永和區保平路174巷16號","121.510445","25.0072033333333","6500400","永和區"
"234001","AAC-295","2018/07/09 13:29:53","新北市永和區保福路一段47巷25號","121.511646666667","25.0088333333333","6500400","永和區"
"244001","248-BX","2018/07/09 13:29:37","新北市林口區寶斗厝坑58-1號","121.335568333333","25.12266","6501700","林口區"
"243005","AAD-798","2018/07/09 13:25:04","新北市泰山區明志路三段206巷3號","121.423308333333","25.0379183333333","6501600","泰山區"
"243004","646-TV","2018/07/09 13:29:49","新北市泰山區黎明路25號","121.422078333333","25.0606783333333","6501600","泰山區"
"231002","002-UM","2018/07/09 13:29:40","新北市新店區環河路64號","121.537028333333","24.9627166666667","6500600","新店區"
"231027","0291-UT","2018/07/09 13:29:37","新北市新店區環河路19巷13號","121.537575","24.960455","6500600","新店區"
"231028","046-UY","2018/07/09 13:29:33","新北市新店區安華路28-1號","121.51966","24.9607966666667","6500600","新店區"
"231001","047-UY","2018/07/09 13:29:39","新北市新店區環河路116號","121.537025","24.9672183333333","6500600","新店區"
"231005","106-UY","2018/07/09 13:29:34","新北市新店區北新路一段91號","121.538798333333","24.9617916666667","6500600","新店區"
"231036","110-UY","2018/07/09 13:29:35","新北市新店區建業路47號","121.478605","24.9549366666667","6500600","新店區"
"231011","187-VK","2018/07/09 13:29:46","新北市新店區北新路二段84號","121.542983333333","24.972855","6500600","新店區"
"231010","188-VK","2018/07/09 13:29:49","新北市新店區中央路11號","121.53339","24.9784866666667","6500600","新店區"
"231023","KEA-2219","2018/07/09 13:29:43","新北市新店區新店路13號","121.54035","24.95286","6500600","新店區"
"231026","256-BX","2018/07/09 13:29:39","新北市新店區安康路一段3-1號","121.533986666667","24.960655","6500600","新店區"
"231003","268-BY","2018/07/09 13:29:37","新北市新店區大新街18號","121.542975","24.968555","6500600","新店區"
"231018","278-BY","2018/07/09 13:29:49","新北市新店區中央路63號","121.5326","24.9769983333333","6500600","新店區"
"231014","AAD-862","2018/07/09 13:29:36","新北市新店區北宜路二段30巷5弄12號","121.54844","24.95069","6500600","新店區"
"231038","3712-VJ","2018/07/09 13:29:46","新北市新店區安華路28-1號","121.519226666667","24.9606666666667","6500600","新店區"
"231037","4716-K9","2018/07/09 13:29:48","新北市新店區安康路二段380號","121.500468333333","24.957445","6500600","新店區"
"231025","4715-K9","2018/07/09 13:29:36","新北市新店區中央六街56號","121.527908333333","24.9757916666667","6500600","新店區"
"231013","513-UM","2018/07/09 13:29:37","新北市新店區安康路一段222-1號","121.522873333333","24.9636766666667","6500600","新店區"
"231034","616-UM","2018/07/09 13:29:41","新北市新店區安忠路205巷8號","121.509211666667","24.9548683333333","6500600","新店區"
"231030","619-UM","2018/07/09 13:29:34","新北市新店區安華路28-1號","121.519611666667","24.9609183333333","6500600","新店區"
"231035","719-UM","2018/07/09 13:29:41","新北市新店區安一路一段1-1號","121.519655","24.9613933333333","6500600","新店區"
"231019","719-UY","2018/07/09 13:29:33","新北市新店區光明街25號","121.538405","24.9595983333333","6500600","新店區"
"231031","720-UM","2018/07/09 13:29:38","新北市新店區安豐路56-1號","121.499288333333","24.9543583333333","6500600","新店區"
"231029","897-TW","2018/07/09 13:29:38","新北市新店區安華路16號","121.516111666667","24.9580116666667","6500600","新店區"
"231006","898-TW","2018/07/09 13:29:49","新北市新店區安康路一段17號","121.533131666667","24.960365","6500600","新店區"
"231004","899-TW","2018/07/09 13:29:53","新北市新店區安康路一段160號","121.526171666667","24.9630216666667","6500600","新店區"
"231024","AKT-0513","2018/07/09 13:29:34","新北市新店區中正路211號","121.539828333333","24.97268","6500600","新店區"
"235030","003-UY","2018/07/09 13:29:53","新北市中和區中山路二段119號","121.502838333333","25.003675","6500300","中和區"
"235028","005-UY","2018/07/09 13:29:34","新北市中和區連城路139巷63號","121.496951666667","24.997115","6500300","中和區"
"235027","006-UY","2018/07/09 13:29:33","新北市中和區連城路347巷2弄3-3號","121.48806","24.9958033333333","6500300","中和區"
"235020","096-UM","2018/07/09 13:29:48","新北市中和區新民街97號","121.480648333333","25.00827","6500300","中和區"
"235003","097-UM","2018/07/09 13:29:36","新北市中和區景平路172號","121.517016666667","24.9926183333333","6500300","中和區"
"235029","098-UM","2018/07/09 13:29:44","新北市中和區中山路二段64巷8號","121.503533333333","25.00513","6500300","中和區"
"235004","150-BY","2018/07/09 13:29:41","新北市中和區安平路59號","121.509648333333","24.9951616666667","6500300","中和區"
"235022","151-BY","2018/07/09 13:29:33","新北市中和區圓通路369巷76號","121.490078333333","24.9818783333333","6500300","中和區"
"235019","183-VK","2018/07/09 13:29:37","新北市中和區民享街245號","121.471978333333","24.996225","6500300","中和區"
"235002","185-VK","2018/07/09 13:29:52","新北市中和區秀朗路三段128巷17弄18號","121.523303333333","24.9934566666667","6500300","中和區"
"235013","186-VK","2018/07/09 13:29:49","新北市中和區景安路117號","121.50582","24.996475","6500300","中和區"
"235031","255-BX","2018/07/09 13:29:42","新北市中和區新生街220巷4號","121.483001666667","24.9985833333333","6500300","中和區"
"235008","293-VK","2018/07/09 13:29:45","新北市中和區復興路305號","121.501393333333","24.99015","6500300","中和區"
"235036","301-VK","2018/07/09 13:29:38","新北市中和區連城路261號","121.492571666667","24.99666","6500300","中和區"
"235007","352-BY","2018/07/09 13:29:44","新北市中和區景平路311號","121.50638","24.99308","6500300","中和區"
"235006","KEA-2878","2018/07/09 13:29:44","新北市中和區自立路56巷17號","121.52275","24.991685","6500300","中和區"
"235014","4979-A6","2018/07/09 13:29:41","新北市中和區景新街410巷18弄16號","121.511928333333","24.9896566666667","6500300","中和區"
"235033","4980-A6","2018/07/09 13:29:49","新北市中和區連城路127巷6弄1號","121.496546666667","24.9985066666667","6500300","中和區"
"235034","558-UM","2018/07/09 13:29:38","新北市中和區景平路566號","121.501971666667","24.995385","6500300","中和區"
"235009","565-BX","2018/07/09 13:29:52","新北市中和區南山路236巷24弄21號","121.504886666667","24.9889033333333","6500300","中和區"
"235054","640-BX","2018/07/09 13:29:44","新北市中和區民享街89巷5號","121.47468","25.0017083333333","6500300","中和區"
"235024","647-TV","2018/07/09 13:29:36","新北市中和區員山路283號","121.481166666667","24.9997466666667","6500300","中和區"
"235011","732-UM","2018/07/09 13:29:37","新北市中和區南山路300號","121.507895","24.98713","6500300","中和區"
"235035","783-BX","2018/07/09 13:29:43","新北市中和區中板路18巷3弄26號","121.483383333333","25.0133733333333","6500300","中和區"
"235026","800-TS","2018/07/09 13:29:46","新北市中和區景平路732號","121.496741666667","25.00395","6500300","中和區"
"235021","801-TS","2018/07/09 13:29:50","新北市中和區民安街42巷2號","121.479953333333","25.0006433333333","6500300","中和區"
"235005","802-TS","2018/07/09 13:29:43","新北市中和區中和路322號","121.509813333333","25.0006916666667","6500300","中和區"
"235016","805-TS","2018/07/09 13:29:52","新北市中和區興南路二段104號","121.504845","24.9840066666667","6500300","中和區"
"235012","896-TW","2018/07/09 13:29:49","新北市中和區中正路589巷15號","121.485668333333","24.993505","6500300","中和區"
"235017","900-TW","2018/07/09 13:29:44","新北市中和區民享街457號","121.470325","24.9932333333333","6500300","中和區"
"235015","157-BY","2018/07/09 13:29:39","新北市中和區興南路二段142巷35弄1號","121.50251","24.9844783333333","6500300","中和區"
"235001","AAC-213","2018/07/09 13:29:41","新北市中和區景德街128號","121.514471666667","24.9910866666667","6500300","中和區"
"235023","AAC-215","2018/07/09 13:29:43","新北市中和區員山路36巷16-3號","121.484983333333","24.9913183333333","6500300","中和區"
"220013","072-UY","2018/07/09 13:29:44","新北市板橋區華興街91巷4號","121.456438333333","25.0051033333333","6500100","板橋區"
"220017","AAD-861","2018/07/09 13:29:48","新北市板橋區華東街1-10號","121.448353333333","24.9950966666667","6500100","板橋區"
"247007","056-VK","2018/07/09 13:29:37","新北市五股區中興路三段192號","121.442733333333","25.0819833333333","6501400","蘆洲區"
"247019","001-UY","2018/07/09 13:29:44","新北市五股區中興路三段163號","121.449355","25.0805383333333","6501400","蘆洲區"
"253001","6251-TK","2018/07/09 13:29:47","新北市三芝區新庄里新庄子71-3號","121.512521666667","25.276675","6502200","石門區"
"253002","637-UY","2018/07/09 13:29:48","新北市石門區老崩山40-2號","121.56244","25.26738","6502200","石門區"
"253004","8270-PC","2018/07/09 13:29:20","新北市石門區竹子湖14號","121.61602","25.255915","6502200","石門區"
"207002","749-BX","2018/07/09 13:29:37","新北市萬里區崁腳里崁腳路166號","121.645113333333","25.155915","6502800","萬里區"
"252005","073-UM","2018/07/09 13:29:51","新北市三芝區圓山里八連溪頭8-1號","121.528343333333","25.2206516666667","6502100","三芝區"
"207001","662-BX","2018/07/09 13:29:31","新北市萬里區龜吼里光宇大道2號","121.6795","25.1909066666667","6502800","萬里區"
"236074","166-UM","2018/07/09 13:29:42","新北市土城區城林路6巷80號","121.438621666667","24.9797116666667","6501300","土城區"
"236005","498-BY","2018/07/09 13:29:48","新北市土城區亞洲路11巷1弄35號","121.436151666667","24.9719666666667","6501300","土城區"
"242038","133-UY","2018/07/09 13:29:42","新北市新莊區立信三街49號","121.443711666667","25.05106","6500500","新莊區"
"242001","233-RS","2018/07/09 13:29:39","新北市新莊區自立街168號","121.455631666667","25.0453633333333","6500500","新莊區"
"239007","292-BY","2018/07/09 13:29:47","新北市鶯歌區鶯桃路206巷24弄30-1號","121.338366666667","24.9592566666667","6500800","鶯歌區"
"221023","279-VK","2018/07/09 13:29:45","新北市汐止區福德一路226巷1號","121.633691666667","25.0652716666667","6501100","汐止區"
"221032","280-BY","2018/07/09 13:29:43","新北市汐止區龍安路32號","121.654953333333","25.063975","6501100","汐止區"
"220027","145-BY","2018/07/09 13:29:46","新北市板橋區華東街1-9號","121.448213333333","24.9949416666667","6500100","板橋區"
"220028","200-UY","2018/07/09 13:29:34","新北市板橋區華東街1-9號","121.448156666667","24.9949133333333","6500100","板橋區"
"220030","610-BX","2018/07/09 13:29:48","新北市板橋區華東街1-10號","121.448286666667","24.9949133333333","6500100","板橋區"
"220019","283-VK","2018/07/09 13:29:45","新北市板橋區華東街1-9號","121.448108333333","24.9948633333333","6500100","板橋區"
"220031","286-VK","2018/07/09 13:29:49","新北市板橋區華東街1-10號","121.448398333333","24.9950766666667","6500100","板橋區"
"220029","287-VK","2018/07/09 13:29:45","新北市板橋區華東街1-10號","121.448235","24.99503","6500100","板橋區"
"220032","296-UM","2018/07/09 13:29:44","新北市板橋區華東街1-9號","121.448145","24.9949633333333","6500100","板橋區"
"220023","303-R5","2018/07/09 13:29:36","新北市板橋區華東街1-10號","121.448265","24.9949333333333","6500100","板橋區"
"220010","305-R5","2018/07/09 13:29:40","新北市板橋區民生路二段120號","121.470351666667","25.01974","6500100","板橋區"
"220012","486-VK","2018/07/09 13:29:41","新北市板橋區華東街1-10號","121.448408333333","24.9949616666667","6500100","板橋區"
"220104","560-BX","2018/07/09 13:29:36","新北市板橋區南雅東路27號","121.454738333333","25.0060116666667","6500100","板橋區"
"220005","686-BX","2018/07/09 13:29:51","新北市板橋區華東街1-9號","121.448225","24.9948866666667","6500100","板橋區"
"220025","806-UM","2018/07/09 13:29:46","新北市板橋區大觀路三段52號","121.43228","24.9959166666667","6500100","板橋區"
"220014","829-TW","2018/07/09 13:29:37","新北市板橋區民生路二段161巷5號","121.470241666667","25.0197116666667","6500100","板橋區"
"220022","895-R6","2018/07/09 13:29:46","新北市板橋區四川路二段130巷27號","121.449478333333","24.994285","6500100","板橋區"
"220021","985-R7","2018/07/09 13:29:51","新北市板橋區華東街1-10號","121.448281666667","24.9949933333333","6500100","板橋區"
"235032","KEA-2873","2018/07/09 13:29:35","新北市中和區中正路213號","121.496948333333","24.9935333333333","6500300","中和區"
"235025","KEA-2875","2018/07/09 13:29:25","新北市中和區民治街29巷2弄6號","121.475555","25.00066","6500300","中和區"
