"lineid","car","time","location","longitude","latitude","cityid","cityname"
"234044","148-BY","2018/07/09 14:09:35","新北市永和區得和路394號","121.525356666667","24.9992133333333","6500400","永和區"
"234070","149-BY","2018/07/09 14:09:44","新北市八里區中山路三段382號","121.36854","25.135835","6500400","永和區"
"234005","207-UY","2018/07/09 14:09:41","新北市中和區中和路302號","121.508871666667","24.99988","6500400","永和區"
"234078","298-R6","2018/07/09 14:09:48","新北市永和區國中路42號","121.524688333333","25.0057716666667","6500400","永和區"
"234036","336-UY","2018/07/09 14:09:47","新北市永和區秀朗路二段181巷25號","121.52663","25.0014966666667","6500400","永和區"
"234062","337-UY","2018/07/09 14:09:45","新北市永和區永利路152號","121.522508333333","25.0027933333333","6500400","永和區"
"234068","552-UM","2018/07/09 14:09:53","新北市永和區福和路189號","121.519735","25.0075716666667","6500400","永和區"
"234084","553-UM","2018/07/09 14:09:44","新北市永和區中正路610號","121.517038333333","25.0072266666667","6500400","永和區"
"234015","745-BX","2018/07/09 14:09:48","新北市永和區文化路9巷2號","121.515275","25.0150016666667","6500400","永和區"
"234028","746-BX","2018/07/09 14:09:37","新北市永和區民生路22巷19號","121.521523333333","24.997085","6500400","永和區"
"234052","KEA-2590","2018/07/09 14:09:37","新北市永和區竹林路39巷46號","121.520241666667","25.0152016666667","6500400","永和區"
"234012","KEA-2591","2018/07/09 14:09:51","新北市永和區永貞路423號","121.50715","25.0095366666667","6500400","永和區"
"234060","AAD-866","2018/07/09 14:09:26","新北市永和區安樂路100巷11號","121.514408333333","24.9992683333333","6500400","永和區"
"234040","862-TW","2018/07/09 14:09:55","新北市永和區雙和街64巷22弄5-1號","121.509855","25.00292","6500400","永和區"
"234048","863-TW","2018/07/09 14:09:47","新北市永和區環河西路二段149號","121.505708333333","25.0141083333333","6500400","永和區"
"234025","9371-KE","2018/07/09 14:09:42","新北市永和區安樂路272巷25號","121.515265","25.0042433333333","6500400","永和區"
"234010","9373-KE","2018/07/09 14:09:45","新北市永和區仁愛路352巷92弄2號","121.50113","25.007865","6500400","永和區"
"248015","026-BX","2018/07/09 14:09:34","新北市五股區成泰路三段543巷34號","121.45051","25.1025583333333","6501500","五股區"
"248007","095-VK","2018/07/09 14:09:51","新北市五股區中興路二段15號","121.46294","25.074335","6501500","五股區"
"248019","225-UY","2018/07/09 14:02:39","新北市五股區凌雲路三段57號","121.425295","25.12502","6501500","五股區"
"248011","247-BX","2018/07/09 14:09:49","新北市五股區工商路20號","121.439788333333","25.0833383333333","6501500","五股區"
"248003","677-BX","2018/07/09 14:09:54","新北市五股區六合街3號","121.431765","25.0885016666667","6501500","五股區"
"248001","678-BX","2018/07/09 14:09:42","新北市五股區成泰路三段577巷77號","121.449701666667","25.103655","6501500","五股區"
"248009","682-TV","2018/07/09 14:09:36","新北市五股區自強路90巷72號","121.430703333333","25.0712566666667","6501500","五股區"
"234022","9380-KE","2018/07/09 14:09:45","新北市永和區中正路700號","121.51632","25.00984","6500400","永和區"
"234076","969-R7","2018/07/09 14:09:55","新北市永和區民有街75巷10弄24號","121.519376666667","24.9960066666667","6500400","永和區"
"234072","AAC-211","2018/07/09 14:09:36","新北市永和區竹林路201巷24弄8號","121.52243","25.0096216666667","6500400","永和區"
"234066","AAC-212","2018/07/09 14:09:37","新北市永和區保平路214巷9號","121.508896666667","25.0066533333333","6500400","永和區"
"234001","AAC-295","2018/07/09 14:09:53","新北市永和區中正路696-1號","121.516451666667","25.00982","6500400","永和區"
"244001","248-BX","2018/07/09 14:09:37","新北市林口區太平里8-6號","121.362475","25.1346316666667","6501700","林口區"
"243002","267-VK","2018/07/09 14:09:37","新北市泰山區明志路一段483巷1弄2號","121.431141666667","25.0553433333333","6501600","泰山區"
"243005","AAD-798","2018/07/09 14:09:54","新北市泰山區明志路三段231巷4弄3號","121.424366666667","25.037575","6501600","泰山區"
"243001","297-R6","2018/07/09 14:09:51","新北市泰山區楓樹街15巷17號","121.434656666667","25.0628583333333","6501600","泰山區"
"243008","380-SR","2018/07/09 14:09:40","新北市泰山區明志路二段333號","121.42584","25.0447716666667","6501600","泰山區"
"243007","421-VK","2018/07/09 14:09:54","新北市泰山區明志路二段6號","121.429946666667","25.0538866666667","6501600","泰山區"
"243003","KEA-2215","2018/07/09 14:09:38","新北市泰山區明志路二段332號","121.426191666667","25.0456","6501600","泰山區"
"243004","646-TV","2018/07/09 14:09:49","新北市泰山區明志路一段395號","121.430813333333","25.0574083333333","6501600","泰山區"
"243006","680-BX","2018/07/09 14:09:36","新北市泰山區泰林路二段483號","121.42502","25.063865","6501600","泰山區"
"231002","002-UM","2018/07/09 14:09:43","新北市新店區中正路542-10號","121.533685","24.9848533333333","6500600","新店區"
"231027","0291-UT","2018/07/09 14:09:37","新北市新店區光明街138巷13弄9號","121.540146666667","24.96147","6500600","新店區"
"231028","046-UY","2018/07/09 14:09:33","新北市新店區安和路三段83號","121.517795","24.9838","6500600","新店區"
"231001","047-UY","2018/07/09 14:09:38","新北市新店區中華路40號","121.539925","24.9681066666667","6500600","新店區"
"231005","106-UY","2018/07/09 14:09:54","新北市新店區中興路三段293號","121.542201666667","24.9849516666667","6500600","新店區"
"231036","110-UY","2018/07/09 14:09:55","新北市新店區安祥路109巷3弄32號","121.476305","24.9602916666667","6500600","新店區"
"231011","187-VK","2018/07/09 14:09:46","新北市新店區中興路一段264號","121.544806666667","24.9672433333333","6500600","新店區"
"231010","188-VK","2018/07/09 14:09:49","新北市新店區安華路3號","121.519241666667","24.95981","6500600","新店區"
"231023","KEA-2219","2018/07/09 14:09:43","新北市新店區文中路40號","121.539673333333","24.9565516666667","6500600","新店區"
"231003","268-BY","2018/07/09 14:09:37","新北市新店區北宜路一段3號","121.538383333333","24.9585966666667","6500600","新店區"
"231018","278-BY","2018/07/09 14:09:49","新北市新店區中央五街44號","121.52816","24.97509","6500600","新店區"
"231014","AAD-862","2018/07/09 14:09:36","新北市新店區北宜路二段392巷4號","121.565488333333","24.95338","6500600","新店區"
"231038","3712-VJ","2018/07/09 14:09:46","新北市新店區安康路一段299-3號","121.5209","24.9638366666667","6500600","新店區"
"231037","4716-K9","2018/07/09 14:09:48","新北市新店區安康路三段165巷2弄7號","121.489106666667","24.9512883333333","6500600","新店區"
"231025","4715-K9","2018/07/09 14:09:36","新北市新店區二十張路105巷16號","121.536788333333","24.979095","6500600","新店區"
"231013","513-UM","2018/07/09 14:09:37","新北市新店區二十張路1巷3弄3號","121.540545","24.9822266666667","6500600","新店區"
"231034","616-UM","2018/07/09 14:09:41","新北市新店區車子路11號","121.502925","24.9517066666667","6500600","新店區"
"231030","619-UM","2018/07/09 14:09:54","新北市新店區安興路7-1號","121.51504","24.9686083333333","6500600","新店區"
"231035","719-UM","2018/07/09 14:09:41","新北市新店區安和路一段52巷2-1號","121.517661666667","24.9662616666667","6500600","新店區"
"231019","719-UY","2018/07/09 14:09:53","新北市新店區自強路74巷8號","121.545361666667","24.9251083333333","6500600","新店區"
"231031","720-UM","2018/07/09 14:09:38","新北市新店區碧潭路44號","121.53436","24.95662","6500600","新店區"
"231029","897-TW","2018/07/09 14:09:38","新北市新店區安康路二段107巷1號","121.512656666667","24.962085","6500600","新店區"
"231006","898-TW","2018/07/09 14:09:49","新北市新店區北宜路二段150-2號","121.55799","24.9540116666667","6500600","新店區"
"231004","899-TW","2018/07/09 14:09:37","新北市新店區北新路二段172號","121.542943333333","24.9758416666667","6500600","新店區"
"231024","AKT-0513","2018/07/09 14:09:34","新北市新店區光華街29號","121.51549","24.9697283333333","6500600","新店區"
"235030","003-UY","2018/07/09 14:09:34","新北市中和區光華街47號","121.505528333333","25.0037466666667","6500300","中和區"
"235028","005-UY","2018/07/09 14:09:33","新北市中和區中和路26巷17號","121.499271666667","25.0014416666667","6500300","中和區"
"235027","006-UY","2018/07/09 14:09:33","新北市中和區連城路249巷19弄2號","121.493925","24.9962316666667","6500300","中和區"
"235020","096-UM","2018/07/09 14:09:51","新北市中和區中正路1186號","121.480651666667","25.010035","6500300","中和區"
"235003","097-UM","2018/07/09 14:09:36","新北市中和區秀峰街58號","121.520841666667","24.9903766666667","6500300","中和區"
"235029","098-UM","2018/07/09 14:09:44","新北市中和區中山路二段136巷6弄10號","121.502136666667","25.0042533333333","6500300","中和區"
"235004","150-BY","2018/07/09 14:09:41","新北市中和區宜安路117號","121.510045","24.9978433333333","6500300","中和區"
"235022","151-BY","2018/07/09 14:09:33","新北市中和區員山路143巷7-3號","121.480435","24.9960733333333","6500300","中和區"
"235019","183-VK","2018/07/09 14:09:42","新北市中和區民德路2號","121.468675","25.00343","6500300","中和區"
"235002","185-VK","2018/07/09 14:09:52","新北市中和區大仁街10巷9弄29號","121.51925","24.99287","6500300","中和區"
"235013","186-VK","2018/07/09 14:09:49","新北市中和區景新街235號","121.508048333333","24.99454","6500300","中和區"
"235031","255-BX","2018/07/09 14:09:42","新北市中和區中正路711號","121.484653333333","24.9986233333333","6500300","中和區"
"235008","293-VK","2018/07/09 14:09:45","新北市中和區中興街204號","121.49997","24.9902233333333","6500300","中和區"
"235036","301-VK","2018/07/09 14:09:54","新北市中和區景平路681號","121.496493333333","25.0029316666667","6500300","中和區"
"235007","352-BY","2018/07/09 14:09:44","新北市中和區景平路136號","121.518671666667","24.991835","6500300","中和區"
"235006","KEA-2878","2018/07/09 14:09:44","新北市中和區自強路7巷16號","121.520415","24.9935","6500300","中和區"
"235014","4979-A6","2018/07/09 14:09:41","新北市中和區復興路6號","121.506198333333","24.9898466666667","6500300","中和區"
"235033","4980-A6","2018/07/09 14:09:49","新北市中和區中和路217巷1弄9號","121.503706666667","25.0004333333333","6500300","中和區"
"235034","558-UM","2018/07/09 14:09:38","新北市中和區中和路102-1號","121.502353333333","24.999525","6500300","中和區"
"235009","565-BX","2018/07/09 14:09:47","新北市中和區景新街467巷15弄11號","121.513753333333","24.9887416666667","6500300","中和區"
"235054","640-BX","2018/07/09 14:09:44","新北市中和區國光街107巷2弄29號","121.469305","24.9989533333333","6500300","中和區"
"235024","647-TV","2018/07/09 14:09:36","新北市中和區民享街32巷2號","121.47394","25.0033166666667","6500300","中和區"
"235011","732-UM","2018/07/09 14:09:49","新北市中和區興南路一段50號","121.510943333333","24.9906216666667","6500300","中和區"
"235010","733-UM","2018/07/09 14:09:46","新北市中和區忠孝街1巷50號","121.508416666667","24.984385","6500300","中和區"
"235035","783-BX","2018/07/09 14:09:43","新北市中和區立德街98巷83號","121.488331666667","25.0086833333333","6500300","中和區"
"235026","800-TS","2018/07/09 14:09:46","新北市中和區永和路220巷32號","121.494018333333","25.0120083333333","6500300","中和區"
"235021","801-TS","2018/07/09 14:09:50","新北市中和區民利街50號","121.479333333333","24.9987933333333","6500300","中和區"
"235005","802-TS","2018/07/09 14:09:43","新北市中和區中安街178巷2號","121.51092","24.9995133333333","6500300","中和區"
"235016","805-TS","2018/07/09 14:09:38","新北市中和區興南路二段128巷7弄1-2號","121.503481666667","24.984205","6500300","中和區"
"235012","896-TW","2018/07/09 14:09:52","新北市中和區工專路147號","121.508498333333","24.9788083333333","6500300","中和區"
"235017","900-TW","2018/07/09 14:09:44","新北市中和區華福街71巷32號","121.4677","24.9969266666667","6500300","中和區"
"235015","157-BY","2018/07/09 14:09:39","新北市中和區興南路一段71號","121.510183333333","24.9893116666667","6500300","中和區"
"235001","AAC-213","2018/07/09 14:09:41","新北市中和區秀朗路三段60巷42號","121.524961666667","24.9948966666667","6500300","中和區"
"235023","AAC-215","2018/07/09 14:09:43","新北市中和區圓通路294巷17-5號","121.488696666667","24.9904133333333","6500300","中和區"
"220016","013-TV","2018/07/09 14:09:52","新北市板橋區三民路一段1巷49-1號","121.48089","25.02484","6500100","板橋區"
"220003","015-TV","2018/07/09 14:09:40","新北市板橋區新民街7巷4號","121.463668333333","25.0100216666667","6500100","板橋區"
"220013","072-UY","2018/07/09 14:09:44","新北市板橋區民族路219巷20號","121.46933","25.0080466666667","6500100","板橋區"
"220105","075-UY","2018/07/09 14:09:46","新北市板橋區雙十路三段9號","121.471628333333","25.0303233333333","6500100","板橋區"
"220017","AAD-861","2018/07/09 14:09:48","新北市板橋區貴興路8號","121.457701666667","25.004415","6500100","板橋區"
"247023","893-R6","2018/07/09 14:09:40","新北市蘆洲區光榮路112號","121.46441","25.0892766666667","6501400","蘆洲區"
"247021","500-BY","2018/07/09 14:09:46","新北市蘆洲區三民路193號","121.470573333333","25.0877166666667","6501400","蘆洲區"
"247009","341-TH","2018/07/09 14:09:40","新北市蘆洲區信義路168號","121.47925","25.083785","6501400","蘆洲區"
"247011","339-TH","2018/07/09 14:09:51","新北市蘆洲區信義路347號","121.477726666667","25.08724","6501400","蘆洲區"
"247003","337-TH","2018/07/09 14:09:49","新北市蘆洲區長安街102巷20號","121.462625","25.08191","6501400","蘆洲區"
"247005","336-TH","2018/07/09 14:09:39","新北市蘆洲區九芎街10號","121.46756","25.078675","6501400","蘆洲區"
"247017","057-VK","2018/07/09 14:09:38","新北市蘆洲區民族路215號","121.477608333333","25.0893116666667","6501400","蘆洲區"
"247007","056-VK","2018/07/09 14:09:37","新北市蘆洲區永安南路一段142巷66號","121.47168","25.07768","6501400","蘆洲區"
"247015","007-UY","2018/07/09 14:09:36","新北市蘆洲區光華路46巷36號","121.467868333333","25.0842333333333","6501400","蘆洲區"
"247001","002-UY","2018/07/09 14:08:36","新北市蘆洲區永平街32巷13號","121.458991666667","25.091375","6501400","蘆洲區"
"247019","001-UY","2018/07/09 14:09:44","新北市蘆洲區民族路426巷42號","121.472963333333","25.093335","6501400","蘆洲區"
"227005","282-VK","2018/07/09 14:05:58","新北市雙溪區三貂里政光路3-1號","121.850725","25.063125","6502500","雙溪區"
"253001","6251-TK","2018/07/09 14:09:47","新北市石門區八甲73號","121.529745","25.2631066666667","6502200","石門區"
"253002","637-UY","2018/07/09 14:09:48","新北市石門區七股33-1號","121.552715","25.26124","6502200","石門區"
"253004","8270-PC","2018/07/09 14:09:41","新北市石門區阿里磅90號","121.589555","25.25987","6502200","石門區"
"207002","749-BX","2018/07/09 14:09:38","新北市萬里區溪底里瑞泉路3號","121.609105","25.143715","6502800","萬里區"
"252005","073-UM","2018/07/09 14:09:32","新北市三芝區橫山里橫山33號","121.541456666667","25.25845","6502100","三芝區"
"207001","662-BX","2018/07/09 14:09:51","新北市萬里區磺潭里清水18號","121.637781666667","25.1976783333333","6502800","萬里區"
"236064","105-UM","2018/07/09 14:09:41","新北市土城區明德路一段152號","121.463241666667","24.9786133333333","6501300","土城區"
"236040","107-UM","2018/07/09 14:09:44","新北市土城區中華路一段301號","121.439973333333","24.9797166666667","6501300","土城區"
"236074","166-UM","2018/07/09 14:09:50","新北市土城區永安街85號","121.431006666667","24.9638216666667","6501300","土城區"
"236029","253-BX","2018/07/09 14:09:49","新北市土城區城林路6巷80號","121.438583333333","24.979755","6501300","土城區"
"236024","269-VK","2018/07/09 14:09:45","新北市土城區承天路67號","121.439518333333","24.9635416666667","6501300","土城區"
"236032","271-VK","2018/07/09 14:09:36","新北市土城區青雲路449-1號","121.45868","24.97478","6501300","土城區"
"236016","401-BY","2018/07/09 14:09:54","新北市土城區城林路6巷80號","121.438506666667","24.97978","6501300","土城區"
"236005","498-BY","2018/07/09 14:09:48","新北市土城區中央路一段21號","121.44844","24.9910216666667","6501300","土城區"
"236012","752-BX","2018/07/09 14:09:46","新北市土城區中央路二段252號","121.441758333333","24.9745933333333","6501300","土城區"
"236057","912-UM","2018/07/09 14:09:49","新北市土城區中央路四段168號","121.416846666667","24.95805","6501300","土城區"
"236045","913-UM","2018/07/09 14:09:44","新北市土城區明德路一段385-1號","121.452491666667","24.9796416666667","6501300","土城區"
"236060","915-UM","2018/07/09 14:09:39","新北市土城區金城路二段390號","121.463616666667","24.985615","6501300","土城區"
"236054","AAC-216","2018/07/09 14:09:42","新北市土城區中華路二段102號","121.43806","24.9743466666667","6501300","土城區"
"242038","133-UY","2018/07/09 14:09:42","新北市樹林區中山路三段214號","121.379858333333","24.9675716666667","6500500","新莊區"
"242001","233-RS","2018/07/09 14:09:39","新北市新莊區自強街37巷14弄1號","121.453963333333","25.046605","6500500","新莊區"
"239007","292-BY","2018/07/09 14:09:48","新北市鶯歌區永吉街7巷1號","121.336696666667","24.958505","6500800","鶯歌區"
"220027","145-BY","2018/07/09 14:09:46","新北市板橋區民權路260巷1弄8號","121.458203333333","25.015865","6500100","板橋區"
"220028","200-UY","2018/07/09 14:09:43","新北市板橋區大觀路二段7巷30號","121.448076666667","25.003315","6500100","板橋區"
"220030","610-BX","2018/07/09 14:09:53","新北市板橋區溪崑二街17-3號","121.428836666667","24.9916966666667","6500100","板橋區"
"220050","245-BX","2018/07/09 14:09:46","新北市板橋區莒光路200巷21號","121.473173333333","25.0221083333333","6500100","板橋區"
"220004","276-BY","2018/07/09 14:09:45","新北市板橋區信義路74巷3弄1號","121.457058333333","24.9930516666667","6500100","板橋區"
"220019","283-VK","2018/07/09 14:09:51","新北市板橋區忠孝路98號","121.462068333333","25.00158","6500100","板橋區"
"220043","285-UM","2018/07/09 14:09:51","新北市板橋區光武街134號","121.465395","25.0298883333333","6500100","板橋區"
"220001","285-VK","2018/07/09 14:09:41","新北市板橋區永豐街46號","121.474648333333","25.01953","6500100","板橋區"
"220031","286-VK","2018/07/09 14:09:55","新北市板橋區大觀路二段174巷166弄18號","121.442476666667","25.003005","6500100","板橋區"
"220029","287-VK","2018/07/09 14:09:45","新北市板橋區南雅西路二段40號","121.452836666667","25.010035","6500100","板橋區"
"220039","288-VK","2018/07/09 14:09:43","新北市板橋區裕民街45巷2號","121.461478333333","25.0284916666667","6500100","板橋區"
"220009","293-UM","2018/07/09 14:09:36","新北市板橋區三民路二段21巷8號","121.479863333333","25.0181666666667","6500100","板橋區"
"220032","296-UM","2018/07/09 14:09:44","新北市板橋區溪崑二街22巷26號","121.428303333333","24.991905","6500100","板橋區"
"220023","303-R5","2018/07/09 14:09:36","新北市板橋區倉後街3號","121.455453333333","25.00953","6500100","板橋區"
"220010","305-R5","2018/07/09 14:09:40","新北市板橋區三民路二段居仁巷2弄23號","121.479925","25.0130533333333","6500100","板橋區"
"220041","307-R5","2018/07/09 14:09:34","新北市板橋區文化路二段225巷60弄13號","121.469178333333","25.0288116666667","6500100","板橋區"
"220047","317-R6","2018/07/09 14:09:40","新北市板橋區自由路51巷12號","121.464823333333","25.0235416666667","6500100","板橋區"
"220012","486-VK","2018/07/09 14:09:41","新北市板橋區民生路一段33號","121.476146666667","25.0119483333333","6500100","板橋區"
"220037","491-VK","2018/07/09 14:09:52","新北市板橋區莊敬路56號","121.472736666667","25.026915","6500100","板橋區"
"220104","560-BX","2018/07/09 14:09:36","新北市板橋區中正路401號","121.454171666667","25.02211","6500100","板橋區"
"220052","561-BX","2018/07/09 14:09:40","新北市板橋區文化路一段188巷9弄110號","121.468526666667","25.01942","6500100","板橋區"
"220020","568-UM","2018/07/09 14:09:48","新北市板橋區金門街369巷54號","121.428323333333","24.982195","6500100","板橋區"
"220011","609-BX","2018/07/09 14:09:50","新北市板橋區三民路二段87號","121.479291666667","25.0165333333333","6500100","板橋區"
"220034","630-UY","2018/07/09 14:09:46","新北市板橋區中正路216巷60號","121.457595","25.0188883333333","6500100","板橋區"
"220040","637-BX","2018/07/09 14:09:51","新北市板橋區縣民大道247巷37號","121.481995","25.0267816666667","6500100","板橋區"
"220005","686-BX","2018/07/09 14:09:52","新北市板橋區重慶路308巷20號","121.463476666667","24.99749","6500100","板橋區"
"220042","689-BX","2018/07/09 14:09:53","新北市板橋區民生路三段161號","121.465678333333","25.0268766666667","6500100","板橋區"
"220002","741-BX","2018/07/09 14:09:49","新北市板橋區重慶路89巷10號","121.46296","25.006405","6500100","板橋區"
"220051","KEA-2699","2018/07/09 14:09:50","新北市板橋區田單街51號","121.482606666667","25.028015","6500100","板橋區"
"220025","806-UM","2018/07/09 14:09:46","新北市板橋區僑中二街152號","121.444715","25.0043716666667","6500100","板橋區"
"220014","829-TW","2018/07/09 14:09:37","新北市板橋區中山路二段90巷43弄2號","121.476596666667","25.0148133333333","6500100","板橋區"
"220045","830-TW","2018/07/09 14:09:50","新北市板橋區雙十路二段47巷2號","121.476313333333","25.0262516666667","6500100","板橋區"
"220038","833-TW","2018/07/09 14:09:36","新北市板橋區文化路二段336號","121.47282","25.0303083333333","6500100","板橋區"
"220022","895-R6","2018/07/09 14:09:46","新北市板橋區文昌街4號","121.456095","25.01026","6500100","板橋區"
"220021","985-R7","2018/07/09 14:09:53","新北市板橋區民權路226號","121.458556666667","25.0143283333333","6500100","板橋區"
"220046","AAC-210","2018/07/09 14:09:45","新北市板橋區新海路135巷29號","121.460043333333","25.022855","6500100","板橋區"
"220018","AAC-253","2018/07/09 14:09:45","新北市板橋區四川路一段240號","121.459231666667","25.0015716666667","6500100","板橋區"
"235032","KEA-2873","2018/07/09 14:09:35","新北市中和區景平路493巷12弄13號","121.498681666667","24.996995","6500300","中和區"
"235025","KEA-2875","2018/07/09 14:09:55","新北市中和區員山路318號","121.481333333333","25.0029016666667","6500300","中和區"
