"lineid","car","time","location","longitude","latitude","cityid","cityname"
"234070","149-BY","2018/07/09 14:59:44","新北市永和區福和路1號","121.526168333333","25.00961","6500400","永和區"
"234025","9371-KE","2018/07/09 14:59:42","新北市永和區水源街33巷2號","121.510756666667","25.004155","6500400","永和區"
"248015","026-BX","2018/07/09 14:59:54","新北市五股區天乙路67號","121.448113333333","25.1046433333333","6501500","五股區"
"248007","095-VK","2018/07/09 14:59:51","新北市五股區四維路30巷15號","121.468143333333","25.07153","6501500","五股區"
"248019","225-UY","2018/07/09 14:59:37","新北市五股區中直路26-3號","121.425736666667","25.1115333333333","6501500","五股區"
"248011","247-BX","2018/07/09 14:59:34","新北市五股區六合街97號","121.429855","25.0900866666667","6501500","五股區"
"248013","261-SL","2018/07/09 14:59:51","新北市五股區五福路6巷23號","121.43549","25.0885233333333","6501500","五股區"
"248003","677-BX","2018/07/09 14:59:54","新北市五股區成泰路一段8巷2號","121.43472","25.0668983333333","6501500","五股區"
"248001","678-BX","2018/07/09 14:59:47","新北市五股區成泰路三段43-1號","121.44226","25.088775","6501500","五股區"
"248009","682-TV","2018/07/09 14:59:57","新北市五股區成泰路一段2-8號","121.434171666667","25.0670983333333","6501500","五股區"
"244001","248-BX","2018/07/09 14:59:37","新北市林口區瑞平里33-1號","121.348748333333","25.1284966666667","6501700","林口區"
"243002","267-VK","2018/07/09 14:59:37","新北市泰山區明志路二段254巷18號","121.426083333333","25.0477933333333","6501600","泰山區"
"243005","AAD-798","2018/07/09 14:59:33","新北市泰山區中央路5巷36號","121.427721666667","25.0430583333333","6501600","泰山區"
"243001","297-R6","2018/07/09 14:59:31","新北市泰山區泰林路二段116巷1弄3號","121.434766666667","25.0594366666667","6501600","泰山區"
"243008","380-SR","2018/07/09 14:59:40","新北市泰山區明志路3段87-1號","121.425116666667","25.0413383333333","6501600","泰山區"
"243007","421-VK","2018/07/09 14:59:52","新北市泰山區同義街47巷28號","121.4326","25.0562566666667","6501600","泰山區"
"243003","KEA-2215","2018/07/09 14:59:38","新北市新莊區壽山路160巷4號","121.41724","25.0315616666667","6501600","泰山區"
"243004","646-TV","2018/07/09 14:59:49","新北市泰山區明志路一段128號","121.43334","25.0634516666667","6501600","泰山區"
"243006","680-BX","2018/07/09 14:59:56","新北市泰山區明志路一段149號","121.433373333333","25.0627783333333","6501600","泰山區"
"231002","002-UM","2018/07/09 14:59:40","新北市新店區民權路42-1號","121.54029","24.9828916666667","6500600","新店區"
"231028","046-UY","2018/07/09 14:59:53","新北市新店區安豐路27號","121.501343333333","24.9569733333333","6500600","新店區"
"231001","047-UY","2018/07/09 14:59:38","新北市新店區中正路255號","121.53884","24.9734966666667","6500600","新店區"
"231005","106-UY","2018/07/09 14:59:54","新北市新店區復興路27號","121.53896","24.9867133333333","6500600","新店區"
"231036","110-UY","2018/07/09 14:59:55","新北市新店區安祥路102巷30弄23號","121.484733333333","24.96329","6500600","新店區"
"231011","187-VK","2018/07/09 14:59:46","新北市新店區中興路三段6號","121.54665","24.9770533333333","6500600","新店區"
"231023","KEA-2219","2018/07/09 14:59:43","新北市新店區檳榔路109號","121.544438333333","24.9616","6500600","新店區"
"231026","256-BX","2018/07/09 14:59:51","新北市新店區博愛街13巷1號","121.54105","24.9733383333333","6500600","新店區"
"231003","268-BY","2018/07/09 14:59:37","新北市新店區中興路一段298號","121.5462","24.9693433333333","6500600","新店區"
"231018","278-BY","2018/07/09 14:59:49","新北市新店區中央六街9號","121.530163333333","24.974565","6500600","新店區"
"231014","AAD-862","2018/07/09 14:59:36","新北市新店區銀河路88號","121.580646666667","24.9595616666667","6500600","新店區"
"231038","3712-VJ","2018/07/09 14:59:46","新北市新店區安華路28-1號","121.519505","24.9608116666667","6500600","新店區"
"231037","4716-K9","2018/07/09 14:59:48","新北市新店區薏仁坑路自強巷6號","121.496786666667","24.958535","6500600","新店區"
"231025","4715-K9","2018/07/09 14:59:36","新北市新店區大同街25號","121.538806666667","24.9806066666667","6500600","新店區"
"231034","616-UM","2018/07/09 14:59:41","新北市新店區玫瑰路4-1號","121.49364","24.9514233333333","6500600","新店區"
"231030","619-UM","2018/07/09 14:59:54","新北市新店區安民街325號","121.51741","24.9745766666667","6500600","新店區"
"231039","718-UY","2018/07/09 14:59:41","新北市新店區寶安街16巷1號","121.542105","24.981705","6500600","新店區"
"231035","719-UM","2018/07/09 14:59:41","新北市新店區安業街1號","121.516681666667","24.97888","6500600","新店區"
"231019","719-UY","2018/07/09 14:59:53","新北市新店區新烏路二段313號","121.548916666667","24.9124633333333","6500600","新店區"
"231031","720-UM","2018/07/09 14:59:44","新北市新店區安泰路60巷9號","121.483903333333","24.94673","6500600","新店區"
"231029","897-TW","2018/07/09 14:59:38","新北市新店區錦秀路29號","121.479321666667","24.944045","6500600","新店區"
"231006","898-TW","2018/07/09 14:59:49","新北市新店區新坡一街80-3號","121.547778333333","24.9643033333333","6500600","新店區"
"231004","899-TW","2018/07/09 14:59:53","新北市新店區民族路26號","121.540705","24.9787816666667","6500600","新店區"
"231024","AKT-0513","2018/07/09 14:59:54","新北市新店區中華路83巷21號","121.538741666667","24.9680916666667","6500600","新店區"
"235030","003-UY","2018/07/09 14:59:53","新北市中和區中山路二段65號","121.504033333333","25.0046316666667","6500300","中和區"
"235020","096-UM","2018/07/09 14:59:46","新北市板橋區漢生東路342號","121.471935","25.0074883333333","6500300","中和區"
"235003","097-UM","2018/07/09 14:59:45","新北市中和區宜安路52巷3號","121.512111666667","24.996925","6500300","中和區"
"235029","098-UM","2018/07/09 14:59:43","新北市中和區永和路69-6號","121.49649","25.0060983333333","6500300","中和區"
"235004","150-BY","2018/07/09 14:59:41","新北市中和區保健路26巷3號","121.50858","24.997675","6500300","中和區"
"235022","151-BY","2018/07/09 14:59:53","新北市中和區員山路159號","121.481173333333","24.9965183333333","6500300","中和區"
"235031","255-BX","2018/07/09 14:59:42","新北市五股區五工一路101號","121.458871666667","25.069215","6500300","中和區"
"235008","293-VK","2018/07/09 14:59:45","新北市中和區中正路63號","121.501401666667","24.9934883333333","6500300","中和區"
"235007","352-BY","2018/07/09 14:59:44","新北市中和區華新街147號","121.506281666667","24.9816783333333","6500300","中和區"
"235014","4979-A6","2018/07/09 14:59:41","新北市中和區景平路155巷2弄2號","121.513268333333","24.9919316666667","6500300","中和區"
"235033","4980-A6","2018/07/09 14:59:09","新北市中和區景平路634-2號","121.500861666667","24.9983333333333","6500300","中和區"
"235034","558-UM","2018/07/09 14:59:38","新北市中和區圓通路109號","121.499401666667","24.9965466666667","6500300","中和區"
"235054","640-BX","2018/07/09 14:59:44","新北市中和區莒光路44號","121.47219","25.0036816666667","6500300","中和區"
"235010","733-UM","2018/07/09 14:59:46","新北市中和區興南路一段93巷48號","121.51049","24.9862833333333","6500300","中和區"
"235035","783-BX","2018/07/09 14:59:43","新北市中和區建康路53號","121.48705","25.000195","6500300","中和區"
"235026","800-TS","2018/07/09 14:58:45","新北市中和區中正路525號","121.487985","24.9927933333333","6500300","中和區"
"235016","805-TS","2018/07/09 14:59:38","新北市中和區忠孝街79號","121.512156666667","24.98517","6500300","中和區"
"235012","896-TW","2018/07/09 14:59:49","新北市中和區忠孝街1巷2-1號","121.509135","24.983115","6500300","中和區"
"235017","900-TW","2018/07/09 14:59:44","新北市土城區延壽路111巷2-1號","121.469175","24.9937316666667","6500300","中和區"
"235015","157-BY","2018/07/09 14:59:39","新北市中和區中興街118巷8號","121.499865","24.9934616666667","6500300","中和區"
"235001","AAC-213","2018/07/09 14:59:41","新北市中和區自立路18號","121.522171666667","24.9934583333333","6500300","中和區"
"235023","AAC-215","2018/07/09 14:59:43","新北市中和區圓通路365號","121.491386666667","24.9896933333333","6500300","中和區"
"220016","013-TV","2018/07/09 14:59:52","新北市板橋區中山路二段318巷2弄24號","121.480853333333","25.0192016666667","6500100","板橋區"
"220003","015-TV","2018/07/09 14:59:52","新北市板橋區忠孝路48巷11弄17-2號","121.462163333333","24.9998716666667","6500100","板橋區"
"220013","072-UY","2018/07/09 14:59:44","新北市板橋區民族路57號","121.46499","25.0091116666667","6500100","板橋區"
"220105","075-UY","2018/07/09 14:59:46","新北市板橋區民治街71巷27號","121.480538333333","25.0328316666667","6500100","板橋區"
"220017","AAD-861","2018/07/09 14:59:48","新北市板橋區貴興路119巷2號","121.455586666667","25.0021733333333","6500100","板橋區"
"247021","500-BY","2018/07/09 14:59:54","新北市蘆洲區中正路501號","121.461786666667","25.0967666666667","6501400","蘆洲區"
"247001","002-UY","2018/07/09 14:56:52","新北市蘆洲區長安街248號","121.45755","25.0861583333333","6501400","蘆洲區"
"253001","6251-TK","2018/07/09 14:59:47","新北市石門區老崩山10-1號","121.55286","25.2911583333333","6502200","石門區"
"253002","637-UY","2018/07/09 14:59:47","新北市石門區楓林37-2號","121.540076666667","25.2878016666667","6502200","石門區"
"253004","8270-PC","2018/07/09 14:59:48","新北市石門區茂林社區51號","121.592386666667","25.2703283333333","6502200","石門區"
"207002","749-BX","2018/07/09 14:59:38","新北市萬里區崁腳里崁腳路60-1號","121.648255","25.16021","6502800","萬里區"
"207001","662-BX","2018/07/09 14:59:51","新北市萬里區雙興里太和路28-2號","121.653928333333","25.175345","6502800","萬里區"
"236064","105-UM","2018/07/09 14:59:41","新北市土城區中央路一段291巷14號","121.444986666667","24.983725","6501300","土城區"
"236040","107-UM","2018/07/09 14:59:44","新北市土城區裕民路181號","121.4534","24.9846066666667","6501300","土城區"
"236074","166-UM","2018/07/09 14:59:42","新北市土城區中央路四段125巷2弄17-1號","121.416393333333","24.9568016666667","6501300","土城區"
"236029","253-BX","2018/07/09 14:59:49","新北市土城區中央路二段14巷12-31號","121.44243","24.9807516666667","6501300","土城區"
"236024","269-VK","2018/07/09 14:59:48","新北市土城區中正路74巷6弄6號","121.44458","24.9749283333333","6501300","土城區"
"236032","271-VK","2018/07/09 14:59:56","新北市土城區仁愛路8-2號","121.46002","24.980865","6501300","土城區"
"236016","401-BY","2018/07/09 14:59:54","新北市土城區明峰街50號","121.467718333333","24.9864566666667","6501300","土城區"
"236012","752-BX","2018/07/09 14:59:09","新北市土城區立德路45號","121.462678333333","24.9880966666667","6501300","土城區"
"236057","912-UM","2018/07/09 14:59:49","新北市土城區金城路二段188號","121.45333","24.9805866666667","6501300","土城區"
"236045","913-UM","2018/07/09 14:59:44","新北市土城區青雲路311號","121.458976666667","24.979085","6501300","土城區"
"236060","915-UM","2018/07/09 14:59:40","新北市土城區金城路三段93巷26號","121.46679","24.9886933333333","6501300","土城區"
"236054","AAC-216","2018/07/09 14:59:44","新北市土城區學成路97-2號","121.450445","24.9886733333333","6501300","土城區"
"242001","233-RS","2018/07/09 14:59:39","新北市新莊區環河路636-7號","121.437135","25.0108333333333","6500500","新莊區"
"238018","571-TV","2018/07/09 14:59:52","新北市樹林區八德街1172號","121.39032","24.9682933333333","6500700","樹林區"
"238009","KEA-2213","2018/07/09 14:59:34","新北市樹林區育德街78-1號","121.387996666667","24.9681433333333","6500700","樹林區"
"238008","KEA-2539","2018/07/09 14:59:39","新北市樹林區育德街78-1號","121.388431666667","24.9681116666667","6500700","樹林區"
"238001","283-BY","2018/07/09 14:59:41","新北市樹林區育德街78號","121.387423333333","24.968325","6500700","樹林區"
"238013","172-UY","2018/07/09 14:59:56","新北市樹林區八德街1014號","121.391323333333","24.968485","6500700","樹林區"
"221032","280-BY","2018/07/09 14:59:43","新北市汐止區中興路181號","121.630245","25.06684","6501100","汐止區"
"220027","145-BY","2018/07/09 14:59:46","新北市板橋區中正路170號","121.456445","25.0172083333333","6500100","板橋區"
"220028","200-UY","2018/07/09 14:59:54","新北市板橋區大觀路二段153巷24號","121.446813333333","25.0001416666667","6500100","板橋區"
"220030","610-BX","2018/07/09 14:59:48","新北市板橋區溪北路54號","121.427648333333","24.989825","6500100","板橋區"
"220050","245-BX","2018/07/09 14:59:40","新北市板橋區莒光路180巷4號","121.473825","25.0228383333333","6500100","板橋區"
"220043","285-UM","2018/07/09 14:59:51","新北市板橋區文德路36號","121.462193333333","25.0242233333333","6500100","板橋區"
"220001","285-VK","2018/07/09 14:59:52","新北市板橋區民享街6號","121.475801666667","25.0149183333333","6500100","板橋區"
"220031","286-VK","2018/07/09 14:59:49","新北市板橋區僑中二街102巷51號","121.444158333333","25.00848","6500100","板橋區"
"220029","287-VK","2018/07/09 14:59:46","新北市板橋區僑中一街124巷20弄41號","121.447813333333","25.0138883333333","6500100","板橋區"
"220039","288-VK","2018/07/09 14:59:43","新北市板橋區龍泉街90巷3號","121.456138333333","25.024895","6500100","板橋區"
"220009","293-UM","2018/07/09 14:59:56","新北市板橋區民生路二段89-1號","121.471241666667","25.018035","6500100","板橋區"
"220032","296-UM","2018/07/09 14:59:44","新北市板橋區溪崑二街122號","121.42605","24.9881383333333","6500100","板橋區"
"220023","303-R5","2018/07/09 14:59:36","新北市板橋區金華街10巷48弄85號","121.46001","25.0204","6500100","板橋區"
"220010","305-R5","2018/07/09 14:59:40","新北市板橋區萬安街85巷1弄11號","121.484416666667","25.0249916666667","6500100","板橋區"
"220041","307-R5","2018/07/09 14:59:54","新北市板橋區四維路259巷57號","121.461243333333","25.0270466666667","6500100","板橋區"
"220047","317-R6","2018/07/09 14:59:40","新北市板橋區新海路72巷48號","121.462106666667","25.0229866666667","6500100","板橋區"
"220012","486-VK","2018/07/09 14:59:41","新北市板橋區實踐路110號","121.464185","25.004485","6500100","板橋區"
"220037","491-VK","2018/07/09 14:59:52","新北市板橋區仁化街90號","121.47643","25.0320683333333","6500100","板橋區"
"220104","560-BX","2018/07/09 14:59:36","新北市板橋區新生街87巷22號","121.457105","25.0220283333333","6500100","板橋區"
"220052","561-BX","2018/07/09 14:59:40","新北市板橋區自由路40號","121.465625","25.0231783333333","6500100","板橋區"
"220011","609-BX","2018/07/09 14:59:50","新北市板橋區林森街3巷1弄6號","121.482673333333","25.0236283333333","6500100","板橋區"
"220040","637-BX","2018/07/09 14:59:46","新北市板橋區文聖街101巷13號","121.478228333333","25.0297383333333","6500100","板橋區"
"220005","686-BX","2018/07/09 14:59:51","新北市板橋區四川路二段2號","121.456693333333","24.9966183333333","6500100","板橋區"
"220042","689-BX","2018/07/09 14:59:47","新北市板橋區長江路二段124號","121.465631666667","25.031605","6500100","板橋區"
"220002","741-BX","2018/07/09 14:59:49","新北市板橋區國泰街75巷28弄84-3號","121.4672","25.0041766666667","6500100","板橋區"
"220051","KEA-2699","2018/07/09 14:59:50","新北市板橋區仁化街42巷11號","121.475506666667","25.0311916666667","6500100","板橋區"
"220025","806-UM","2018/07/09 14:59:54","新北市板橋區僑中一街146號","121.445088333333","25.0117533333333","6500100","板橋區"
"220014","829-TW","2018/07/09 14:59:53","新北市板橋區漢生東路163號","121.469308333333","25.0125233333333","6500100","板橋區"
"220045","830-TW","2018/07/09 14:59:50","新北市板橋區莒光路15巷7號","121.469963333333","25.0252516666667","6500100","板橋區"
"220038","833-TW","2018/07/09 14:59:56","新北市板橋區龍泉街106-4號","121.456818333333","25.02472","6500100","板橋區"
"220022","895-R6","2018/07/09 14:59:46","新北市板橋區南雅南路一段1巷1弄19號","121.45707","25.005985","6500100","板橋區"
"220021","985-R7","2018/07/09 14:59:56","新北市板橋區館前西路166-1號","121.452355","25.0086","6500100","板橋區"
"220046","AAC-210","2018/07/09 14:59:45","新北市板橋區光正街43號","121.461833333333","25.0172383333333","6500100","板橋區"
"220018","AAC-253","2018/07/09 14:59:45","新北市板橋區民族路105號","121.466715","25.008175","6500100","板橋區"
"235032","KEA-2873","2018/07/09 14:59:35","新北市中和區福祥路77號","121.499125","25.0054966666667","6500300","中和區"
