"lineid","car","time","location","longitude","latitude","cityid","cityname"
"234042","862-TW","2018/07/09 16:31:13","新北市永和區福和路1號","121.526478333333","25.009725","6500400","永和區"
"249005","172-UM","2018/07/09 16:39:26","新北市八里區仁愛路10號","121.413325","25.1623633333333","6502300","八里區"
"249003","759-BX","2018/07/09 16:39:24","新北市八里區挖子尾街16號","121.415243333333","25.1643","6502300","八里區"
"244019","403-UM","2018/07/09 16:39:23","新北市林口區粉寮69號","121.405113333333","25.09087","6501700","林口區"
"231046","188-VK","2018/07/09 16:39:20","新北市新店區灣潭路15-2號","121.542758333333","24.9437666666667","6500600","新店區"
"241011","013-R5","2018/07/09 16:39:23","新北市三重區仁愛街49號","121.496643333333","25.0717033333333","6500200","三重區"
"241028","022-UY","2018/07/09 16:39:13","新北市三重區中正南路5號","121.493473333333","25.0603866666667","6500200","三重區"
"241008","059-VK","2018/07/09 16:39:24","新北市三重區永安北路一段27巷18號","121.477106666667","25.0755383333333","6500200","三重區"
"241031","061-VK","2018/07/09 16:39:19","新北市三重區重新路四段41巷4號","121.487793333333","25.0578016666667","6500200","三重區"
"241015","062-VK","2018/07/09 16:39:24","新北市三重區文化北路37-2號","121.498941666667","25.065125","6500200","三重區"
"241017","063-VK","2018/07/09 16:39:22","新北市三重區中正北路25巷2號","121.49325","25.062695","6500200","三重區"
"241024","065-VK","2018/07/09 16:38:59","新北市三重區中正北路315巷6弄56號","121.475621666667","25.0724433333333","6500200","三重區"
"241026","066-VK","2018/07/09 16:39:20","新北市三重區福德南路53號","121.503031666667","25.06173","6500200","三重區"
"241002","090-VK","2018/07/09 16:39:20","新北市三重區自強路五段105號","121.495691666667","25.0823266666667","6500200","三重區"
"241003","091-VK","2018/07/09 16:39:23","新北市三重區五華街71巷15號","121.492951666667","25.0830433333333","6500200","三重區"
"241032","742-BX","2018/07/09 16:39:15","新北市三重區三民街26號","121.485585","25.061035","6500200","三重區"
"241005","262-UM","2018/07/09 16:39:16","新北市三重區仁華街118巷49號","121.48582","25.0840583333333","6500200","三重區"
"241016","266-UM","2018/07/09 16:39:19","新北市三重區大智街13號","121.494573333333","25.0652116666667","6500200","三重區"
"241009","267-UM","2018/07/09 16:39:25","新北市三重區三和路四段203巷49號","121.48325","25.0797166666667","6500200","三重區"
"241018","268-UM","2018/07/09 16:39:26","新北市三重區正義北路338巷48號","121.493221666667","25.070375","6500200","三重區"
"241013","270-UM","2018/07/09 16:39:16","新北市三重區仁愛街75號","121.496175","25.0729683333333","6500200","三重區"
"241025","271-UM","2018/07/09 16:39:22","新北市三重區中正北路430-5號","121.474498333333","25.0706133333333","6500200","三重區"
"241007","398-BY","2018/07/09 16:39:21","新北市三重區三和路四段167巷47號","121.485273333333","25.079415","6500200","三重區"
"241020","413-TH","2018/07/09 16:39:23","新北市三重區後竹圍街207號","121.484968333333","25.0717366666667","6500200","三重區"
"241004","475-VK","2018/07/09 16:39:15","新北市三重區五福街30號","121.492471666667","25.0811716666667","6500200","三重區"
"241030","480-VK","2018/07/09 16:39:20","新北市三重區環河南路286號","121.488968333333","25.0489783333333","6500200","三重區"
"241014","543-UM","2018/07/09 16:39:18","新北市三重區龍濱路19號","121.503071666667","25.0678066666667","6500200","三重區"
"241023","545-UM","2018/07/09 16:39:21","新北市三重區洛陽街45巷34號","121.482768333333","25.0643166666667","6500200","三重區"
"241001","547-UM","2018/07/09 16:39:20","新北市三重區仁愛街208號","121.493643333333","25.0776516666667","6500200","三重區"
"241019","KEA-2593","2018/07/09 16:39:09","新北市三重區重陽路三段49號","121.489595","25.067215","6500200","三重區"
"241006","AAD-863","2018/07/09 16:39:08","新北市三重區車路頭街134號","121.483816666667","25.0754416666667","6500200","三重區"
"241022","887-TS","2018/07/09 16:39:11","新北市三重區三民街86號","121.485375","25.0627716666667","6500200","三重區"
"241012","941-UM","2018/07/09 16:39:09","新北市三重區仁興街3巷29號","121.50074","25.0740383333333","6500200","三重區"
"241029","942-UM","2018/07/09 16:39:24","新北市三重區集美街149號","121.490646666667","25.0532333333333","6500200","三重區"
"241033","AAC-255","2018/07/09 16:39:08","新北市三重區光復路一段138-1號","121.472096666667","25.0527633333333","6500200","三重區"
"247010","341-TH","2018/07/09 16:39:09","新北市五股區中興路三段2巷10號","121.448465","25.0811966666667","6501400","蘆洲區"
"247008","056-VK","2018/07/09 16:39:11","新北市五股區中興路三段173號","121.444653333333","25.0809083333333","6501400","蘆洲區"
"228002","663-BX","2018/07/09 16:39:28","新北市貢寮區貢寮里朝陽街24號","121.911358333333","25.02158","6502600","貢寮區"
"224008","285-BY","2018/07/09 16:39:14","新北市瑞芳區中山路203號","121.801395","25.1066416666667","6501200","瑞芳區"
"224007","275-VK","2018/07/09 16:39:14","新北市瑞芳區瑞竹路132號","121.761573333333","25.1039933333333","6501200","瑞芳區"
"224009","273-VK","2018/07/09 16:39:16","新北市瑞芳區大寮路356-1號","121.784361666667","25.1035116666667","6501200","瑞芳區"
"224005","271-BY","2018/07/09 16:39:24","新北市瑞芳區洞頂路210-4號","121.861345","25.1246166666667","6501200","瑞芳區"
"227008","642-TC","2018/07/09 16:39:20","新北市雙溪區牡丹里中正路67號","121.864733333333","25.0438616666667","6502500","雙溪區"
"227001","400-TW","2018/07/09 16:39:09","新北市雙溪區外柑里外柑腳56號","121.807985","25.0178516666667","6502500","雙溪區"
"251013","KEA-2871","2018/07/09 16:39:26","新北市淡水區楓樹湖6-6號","121.498035","25.1870366666667","6501000","淡水區"
"251016","179-VK","2018/07/09 16:39:11","新北市淡水區新春街174號","121.443216666667","25.180965","6501000","淡水區"
"251014","180-VK","2018/07/09 16:39:26","新北市淡水區淡金路三段288號","121.448878333333","25.2074283333333","6501000","淡水區"
"251008","181-VK","2018/07/09 16:39:09","新北市淡水區民生路169號","121.46978","25.1421083333333","6501000","淡水區"
"252002","178-VK","2018/07/09 16:39:22","新北市三芝區芝柏路95號","121.510746666667","25.2575666666667","6502100","三芝區"
"238006","599-UM","2018/07/09 16:39:10","新北市樹林區中山路三段125-9號","121.3976","24.97372","6500700","樹林區"
"238022","KEA-2213","2018/07/09 16:39:14","新北市樹林區育德街78-1號","121.387751666667","24.9680316666667","6500700","樹林區"
"238012","303-VK","2018/07/09 16:39:18","新北市樹林區中正路22-1號","121.427798333333","24.9992983333333","6500700","樹林區"
"238001","283-BY","2018/07/09 16:39:21","新北市樹林區三多路123號","121.414705","25.007865","6500700","樹林區"
"238001","282-BY","2018/07/09 16:39:16","新北市樹林區中正路22-1號","121.427775","24.9995316666667","6500700","樹林區"
"238007","268-VK","2018/07/09 16:39:14","新北市樹林區千歲街186號","121.42942","25.0009233333333","6500700","樹林區"
