"lineid","car","time","location","longitude","latitude","cityid","cityname"
"249005","172-UM","2018/07/09 17:29:26","新北市八里區荖阡坑路69號","121.406381666667","25.1271033333333","6502300","八里區"
"249001","173-UM","2018/07/09 17:29:11","新北市八里區大崁腳41號","121.425445","25.1592483333333","6502300","八里區"
"249004","303-UY","2018/07/09 17:29:24","新北市八里區民有街78號","121.414995","25.1561966666667","6502300","八里區"
"249002","305-UY","2018/07/09 17:29:25","新北市八里區龍米路一段386巷1-1號","121.45148","25.1322183333333","6502300","八里區"
"249003","759-BX","2018/07/09 17:29:24","新北市八里區中山路二段315號","121.400643333333","25.1478","6502300","八里區"
"244007","080-UY","2018/07/09 17:29:24","新北市林口區湖子22-1號","121.385925","25.092705","6501700","林口區"
"244019","403-UM","2018/07/09 17:29:23","新北市林口區公園路128號","121.371075","25.0714666666667","6501700","林口區"
"244013","742-UY","2018/07/09 17:29:17","新北市林口區粉寮69號","121.404811666667","25.0908233333333","6501700","林口區"
"244009","410-SL","2018/07/09 17:29:23","新北市林口區中北三街140號","121.383643333333","25.0836716666667","6501700","林口區"
"244023","483-VK","2018/07/09 17:29:24","新北市林口區東明三街368號","121.391881666667","25.070565","6501700","林口區"
"244017","485-VK","2018/07/09 17:29:15","新北市林口區文化一路二段40號","121.380546666667","25.0773133333333","6501700","林口區"
"244011","657-BX","2018/07/09 17:29:18","新北市林口區中正路346號","121.386603333333","25.077765","6501700","林口區"
"244025","837-TS","2018/07/09 17:29:28","新北市林口區民族路157號","121.36708","25.0764533333333","6501700","林口區"
"244021","838-TS","2018/07/09 17:29:14","新北市林口區粉寮路二段30號","121.403028333333","25.08642","6501700","林口區"
"231046","188-VK","2018/07/09 17:29:20","新北市新店區直潭路92號","121.53092","24.937595","6500600","新店區"
"241011","013-R5","2018/07/09 17:29:23","新北市三重區龍濱路183號","121.502131666667","25.0706916666667","6500200","三重區"
"241015","062-VK","2018/07/09 17:29:23","新北市三重區長元街65巷16弄15號","121.503561666667","25.06619","6500200","三重區"
"241017","063-VK","2018/07/09 17:29:22","新北市三重區大同北路34巷48號","121.493691666667","25.0620433333333","6500200","三重區"
"241024","065-VK","2018/07/09 17:29:19","新北市三重區中正北路191巷3弄16號","121.478253333333","25.0696983333333","6500200","三重區"
"241003","091-VK","2018/07/09 17:29:23","新北市三重區碧華街285號","121.490156666667","25.0837116666667","6500200","三重區"
"241032","742-BX","2018/07/09 17:29:14","新北市三重區中華路2巷14號","121.482571666667","25.06012","6500200","三重區"
"241005","262-UM","2018/07/09 17:29:16","新北市三重區仁華街28巷15號","121.483266666667","25.0827966666667","6500200","三重區"
"241016","266-UM","2018/07/09 17:29:18","新北市三重區信義西街41號","121.49532","25.064035","6500200","三重區"
"241009","267-UM","2018/07/09 17:29:24","新北市三重區車路頭街135-1號","121.48426","25.0759083333333","6500200","三重區"
"241018","268-UM","2018/07/09 17:29:26","新北市三重區國隆路8巷1號","121.493298333333","25.0637716666667","6500200","三重區"
"241013","270-UM","2018/07/09 17:29:16","新北市三重區仁愛街141巷6號","121.495651666667","25.0753716666667","6500200","三重區"
"241025","271-UM","2018/07/09 17:29:22","新北市三重區三民街330號","121.476376666667","25.0697533333333","6500200","三重區"
"241007","398-BY","2018/07/09 17:29:21","新北市三重區三和路四段145巷126號","121.48754","25.0792616666667","6500200","三重區"
"241020","413-TH","2018/07/09 17:29:23","新北市三重區永德街1號","121.489536666667","25.07237","6500200","三重區"
"241030","480-VK","2018/07/09 17:29:20","新北市三重區集美街196號","121.490781666667","25.0535783333333","6500200","三重區"
"241014","543-UM","2018/07/09 17:29:18","新北市三重區安和路15號","121.501163333333","25.0684283333333","6500200","三重區"
"241023","545-UM","2018/07/09 17:29:21","新北市三重區三民街146巷3弄2號","121.481636666667","25.06469","6500200","三重區"
"241019","KEA-2593","2018/07/09 17:29:09","新北市三重區自強路二段26巷40號","121.488321666667","25.0688916666667","6500200","三重區"
"241006","AAD-863","2018/07/09 17:29:08","新北市蘆洲區永安南路一段282號","121.468793333333","25.0762116666667","6500200","三重區"
"241022","887-TS","2018/07/09 17:29:11","新北市三重區重陽路二段34巷4號","121.486615","25.0630116666667","6500200","三重區"
"241012","941-UM","2018/07/09 17:29:28","新北市三重區仁興街18-3號","121.499365","25.0749433333333","6500200","三重區"
"241029","942-UM","2018/07/09 17:29:24","新北市三重區中華路16號","121.48341","25.0604916666667","6500200","三重區"
"241033","AAC-255","2018/07/09 17:29:08","新北市三重區興德路129號","121.470371666667","25.05297","6500200","三重區"
"235064","005-UY","2018/07/09 17:29:15","新北市中和區員山路36巷16-3號","121.485015","24.9911683333333","6500300","中和區"
"247024","893-R6","2018/07/09 17:29:12","新北市蘆洲區長興路331號","121.46071","25.0904166666667","6501400","蘆洲區"
"247014","546-UM","2018/07/09 17:29:21","新北市蘆洲區復興路50號","121.472773333333","25.0854466666667","6501400","蘆洲區"
"247022","500-BY","2018/07/09 17:29:14","新北市蘆洲區三民路277號","121.467753333333","25.089925","6501400","蘆洲區"
"247010","341-TH","2018/07/09 17:29:29","新北市蘆洲區中山一路120巷29號","121.478245","25.0821466666667","6501400","蘆洲區"
"247012","339-TH","2018/07/09 17:29:20","新北市蘆洲區民族路38號","121.476596666667","25.0843766666667","6501400","蘆洲區"
"247004","337-TH","2018/07/09 17:29:14","新北市蘆洲區長安街233巷15號","121.458708333333","25.0825916666667","6501400","蘆洲區"
"247006","336-TH","2018/07/09 17:29:25","新北市蘆洲區長安街68巷32號","121.464285","25.0811983333333","6501400","蘆洲區"
"247018","057-VK","2018/07/09 17:29:15","新北市蘆洲區民權路81號","121.473288333333","25.0886433333333","6501400","蘆洲區"
"247008","056-VK","2018/07/09 17:29:11","新北市蘆洲區信義路34巷35號","121.475018333333","25.0783866666667","6501400","蘆洲區"
"247016","007-UY","2018/07/09 17:29:23","新北市蘆洲區光華路22巷6號","121.469366666667","25.0837483333333","6501400","蘆洲區"
"247002","002-UY","2018/07/09 17:24:55","新北市蘆洲區永樂街38巷28號","121.458363333333","25.089505","6501400","蘆洲區"
"247020","001-UY","2018/07/09 17:29:26","新北市蘆洲區仁愛街74號","121.470838333333","25.0943033333333","6501400","蘆洲區"
"228003","097-TW","2018/07/09 17:29:16","新北市貢寮區仁理村研海街21號","121.92701","25.0393266666667","6502600","貢寮區"
"228002","663-BX","2018/07/09 17:29:25","新北市貢寮區福隆里福隆街14號","121.944946666667","25.0162866666667","6502600","貢寮區"
"228001","670-TC","2018/07/09 17:29:21","新北市貢寮區仁理村仁愛路23號","121.924643333333","25.0532833333333","6502600","貢寮區"
"224006","676-BX","2018/07/09 17:29:27","新北市瑞芳區傑魚坑路73號","121.793093333333","25.1105066666667","6501200","瑞芳區"
"224008","285-BY","2018/07/09 17:29:14","新北市瑞芳區侯硐路214號","121.830496666667","25.0882016666667","6501200","瑞芳區"
"224009","273-VK","2018/07/09 17:29:24","新北市瑞芳區汽車路34號","121.845953333333","25.1101466666667","6501200","瑞芳區"
"224005","271-BY","2018/07/09 17:29:04","新北市瑞芳區洞頂路138-1號","121.862238333333","25.1245566666667","6501200","瑞芳區"
"227008","642-TC","2018/07/09 17:29:20","新北市雙溪區三貂里定福路1-2號","121.850771666667","25.0634233333333","6502500","雙溪區"
"227001","400-TW","2018/07/09 17:29:29","新北市雙溪區平林里外平林45-3號","121.851706666667","25.0358283333333","6502500","雙溪區"
"251015","008-UM","2018/07/09 17:29:24","新北市淡水區三空泉16-10號","121.471985","25.1649633333333","6501000","淡水區"
"251004","009-UM","2018/07/09 17:18:57","新北市淡水區中正東路二段88巷15號","121.459031666667","25.1504483333333","6501000","淡水區"
"251013","KEA-2871","2018/07/09 17:29:25","新北市淡水區大竹圍5號","121.466578333333","25.1952283333333","6501000","淡水區"
"251016","179-VK","2018/07/09 17:29:11","新北市淡水區社厝坑6-1號","121.469596666667","25.1911766666667","6501000","淡水區"
"251014","180-VK","2018/07/09 17:29:26","新北市淡水區水碓24號","121.47772","25.2252116666667","6501000","淡水區"
"251008","181-VK","2018/07/09 17:29:09","新北市淡水區大同路124巷17號","121.463581666667","25.1398016666667","6501000","淡水區"
"251010","413-VK","2018/07/09 17:29:07","新北市淡水區中正路二段206號","121.42629","25.1891233333333","6501000","淡水區"
"251012","441-VK","2018/07/09 17:29:20","新北市淡水區北新路111號","121.447975","25.178425","6501000","淡水區"
"251007","442-VK","2018/07/09 17:29:14","新北市淡水區民生路47-4號","121.462055","25.137965","6501000","淡水區"
"251005","443-VK","2018/07/09 17:29:27","新北市淡水區鄧公路31巷16號","121.451861666667","25.17063","6501000","淡水區"
"251006","561-UM","2018/07/09 17:29:22","新北市淡水區大仁街13號","121.442353333333","25.1750133333333","6501000","淡水區"
"251009","575-R6","2018/07/09 17:29:21","新北市淡水區新生街30巷40號","121.439521666667","25.1732383333333","6501000","淡水區"
"251011","650-BX","2018/07/09 17:29:25","新北市淡水區坪頂路718號","121.482528333333","25.15848","6501000","淡水區"
"251002","672-BX","2018/07/09 17:29:28","新北市淡水區中正路437號","121.432028333333","25.174725","6501000","淡水區"
"251003","766-UM","2018/07/09 17:29:24","新北市淡水區文化路63號","121.43816","25.1728566666667","6501000","淡水區"
"207003","550-UM","2018/07/09 17:29:17","新北市萬里區龜吼里翡翠路17號","121.683403333333","25.18723","6502800","萬里區"
"207004","225-TW","2018/07/09 17:29:17","新北市萬里區萬里里景美路15-1號","121.68665","25.173375","6502800","萬里區"
"252002","178-VK","2018/07/09 17:29:21","新北市三芝區忠孝街1-14號","121.505521666667","25.253945","6502100","三芝區"
"252001","292-VK","2018/07/09 17:29:25","新北市三芝區淡金路一段3號","121.498108333333","25.2596433333333","6502100","三芝區"
"237015","649-BX","2018/07/09 17:29:28","新北市三峽區中山路321-2號","121.360848333333","24.9380066666667","6500900","三峽區"
"242034","AAC-296","2018/07/09 17:29:14","新北市新莊區新莊路471號","121.449156666667","25.0334","6500500","新莊區"
"242058","986-R7","2018/07/09 17:29:22","新北市新莊區中正路530號","121.430958333333","25.0316066666667","6500500","新莊區"
"242023","705-TV","2018/07/09 17:29:10","新北市新莊區公園路148號","121.453103333333","25.0401166666667","6500500","新莊區"
"242027","615-BX","2018/07/09 17:29:11","新北市新莊區思源路31號","121.460091666667","25.039475","6500500","新莊區"
"242025","613-BX","2018/07/09 17:29:13","新北市新莊區復興路二段31號","121.454273333333","25.04412","6500500","新莊區"
"242029","612-BX","2018/07/09 17:29:12","新北市新莊區復興路二段172號","121.45825","25.0443066666667","6500500","新莊區"
"242042","566-BX","2018/07/09 17:29:28","新北市新莊區新樹路113巷32號","121.438705","25.0267033333333","6500500","新莊區"
"242046","497-BY","2018/07/09 17:29:25","新北市新莊區新樹路47號","121.4402","25.03205","6500500","新莊區"
"242053","442-UM","2018/07/09 17:29:17","新北市新莊區環河路658-8號","121.436195","25.0077633333333","6500500","新莊區"
"242050","441-UM","2018/07/09 17:29:18","新北市新莊區新樹路445號","121.433003333333","25.0136416666667","6500500","新莊區"
"242036","415-TV","2018/07/09 17:29:29","新北市新莊區建國二路1號","121.434876666667","25.0236516666667","6500500","新莊區"
"242044","400-BY","2018/07/09 17:29:16","新北市新莊區富國路62號","121.419586666667","25.0259616666667","6500500","新莊區"
"242060","353-BY","2018/07/09 17:29:15","新北市新莊區瓊林路59-20號","121.440181666667","25.0218366666667","6500500","新莊區"
"242009","132-UY","2018/07/09 17:29:26","新北市新莊區中原路230號","121.452946666667","25.05464","6500500","新莊區"
"242039","133-UY","2018/07/09 17:29:12","新北市新莊區民安東路45號","121.429288333333","25.0209933333333","6500500","新莊區"
"242031","135-UY","2018/07/09 17:29:16","新北市新莊區新泰路401巷29-1號","121.44241","25.0438616666667","6500500","新莊區"
"242048","172-VK","2018/07/09 17:29:23","新北市新莊區龍安路252-2號","121.421213333333","25.0195366666667","6500500","新莊區"
"242017","175-VK","2018/07/09 17:29:27","新北市新莊區復興路一段187號","121.45168","25.043645","6500500","新莊區"
"242003","176-VK","2018/07/09 17:29:18","新北市新莊區中港路286號","121.453003333333","25.0442833333333","6500500","新莊區"
"242015","346-TH","2018/07/09 17:29:27","新北市新莊區新泰路187號","121.44738","25.0377316666667","6500500","新莊區"
"242007","347-TH","2018/07/09 17:29:17","新北市新莊區自強街1號","121.454725","25.04554","6500500","新莊區"
"242002","349-TH","2018/07/09 17:29:14","新北市新莊區新莊路211號","121.455295","25.0354616666667","6500500","新莊區"
"242019","350-TH","2018/07/09 17:29:27","新北市新莊區中港路50號","121.455393333333","25.0384616666667","6500500","新莊區"
"242013","351-TH","2018/07/09 17:29:27","新北市新莊區中誠街18號","121.451925","25.0482533333333","6500500","新莊區"
"238015","755-BX","2018/07/09 17:29:29","新北市樹林區大安路267號","121.41903","24.9936633333333","6500700","樹林區"
"238023","601-UM","2018/07/09 17:29:30","新北市樹林區三福街4-1號","121.408863333333","25.01684","6500700","樹林區"
"238019","599-UM","2018/07/09 17:29:26","新北市樹林區太平路57號","121.419056666667","24.982175","6500700","樹林區"
"238018","571-TV","2018/07/09 17:29:13","新北市樹林區立仁街1號","121.422838333333","24.9879316666667","6500700","樹林區"
"238024","5061-A6","2018/07/09 17:29:22","新北市樹林區鎮前街57號","121.425095","24.991345","6500700","樹林區"
"238022","KEA-2213","2018/07/09 17:29:14","新北市樹林區中華路187巷21號","121.420938333333","24.9808583333333","6500700","樹林區"
"238021","KEA-2539","2018/07/09 17:29:09","新北市樹林區民權街7號","121.395901666667","24.9572583333333","6500700","樹林區"
"238025","303-VK","2018/07/09 17:29:18","新北市樹林區保安街二段2-6號","121.416366666667","25.0001533333333","6500700","樹林區"
"238017","283-BY","2018/07/09 17:29:21","新北市樹林區三德街30巷16弄32號","121.41341","25.0125533333333","6500700","樹林區"
"238014","282-BY","2018/07/09 17:29:16","新北市樹林區長壽街57號","121.419906666667","24.99578","6500700","樹林區"
"238020","268-VK","2018/07/09 17:29:14","新北市樹林區千歲街103號","121.428655","25.0009766666667","6500700","樹林區"
"238026","172-UY","2018/07/09 17:29:16","新北市樹林區中山路三段85號","121.400323333333","24.9746033333333","6500700","樹林區"
"238016","169-UY","2018/07/09 17:28:49","新北市樹林區長壽街4號","121.42381","24.9932866666667","6500700","樹林區"
"239007","AAC-297","2018/07/09 17:29:13","新北市鶯歌區行政路91號","121.35426","24.956375","6500800","鶯歌區"
"239006","891-R6","2018/07/09 17:29:10","新北市鶯歌區鳳鳴路105號","121.33439","24.9663533333333","6500800","鶯歌區"
"239008","527-UM","2018/07/09 17:29:18","新北市鶯歌區大湖路590巷11號","121.336091666667","24.9742266666667","6500800","鶯歌區"
"239001","417-VK","2018/07/09 17:29:07","新北市鶯歌區尖山路231號","121.340263333333","24.9438666666667","6500800","鶯歌區"
"239003","360-BY","2018/07/09 17:29:19","新北市鶯歌區德昌街50號","121.333091666667","24.95984","6500800","鶯歌區"
"239002","359-BY","2018/07/09 17:29:16","新北市鶯歌區建國路216號","121.349043333333","24.9536766666667","6500800","鶯歌區"
"239004","193-VK","2018/07/09 17:29:18","新北市鶯歌區三鶯路2號","121.35667","24.94106","6500800","鶯歌區"
"221008","489-VK","2018/07/09 17:29:11","新北市汐止區康寧街901號","121.65135","25.0751533333333","6501100","汐止區"
"221010","269-BY","2018/07/09 17:29:24","新北市汐止區汐萬路一段256巷3號","121.652176666667","25.0748533333333","6501100","汐止區"
"221033","647-BX","2018/07/09 17:29:17","新北市汐止區新江北路17號","121.652856666667","25.0704816666667","6501100","汐止區"
"242021","281-VK","2018/07/09 17:29:24","新北市新莊區中正路134號","121.452745","25.0362033333333","6500500","新莊區"
"242056","280-VK","2018/07/09 17:29:28","新北市新莊區新泰路16號","121.449698333333","25.0330883333333","6500500","新莊區"
