"lineid","car","time","location","longitude","latitude","cityid","cityname"
"234046","148-BY","2018/07/09 19:19:25","新北市永和區秀朗路二段148巷6號","121.525388333333","25.0012083333333","6500400","永和區"
"234007","207-UY","2018/07/09 19:19:27","新北市永和區中山路一段230號","121.50797","25.008015","6500400","永和區"
"234081","298-R6","2018/07/09 19:19:24","新北市永和區福和路59號","121.522966666667","25.0076983333333","6500400","永和區"
"234038","336-UY","2018/07/09 19:19:22","新北市永和區民樂街59巷5號","121.527913333333","24.998325","6500400","永和區"
"234064","337-UY","2018/07/09 19:19:29","新北市永和區永元路17巷8號","121.52161","25.0005116666667","6500400","永和區"
"234070","552-UM","2018/07/09 19:19:25","新北市永和區豫溪街86號","121.518426666667","25.0099966666667","6500400","永和區"
"234086","553-UM","2018/07/09 19:19:16","新北市永和區永利路69號","121.519486666667","25.0049783333333","6500400","永和區"
"234017","745-BX","2018/07/09 19:19:16","新北市永和區文化路144巷27號","121.512535","25.0167216666667","6500400","永和區"
"234030","746-BX","2018/07/09 19:19:27","新北市永和區厚德街68號","121.523888333333","24.99889","6500400","永和區"
"234054","KEA-2590","2018/07/09 19:19:23","新北市永和區中興街31號","121.516136666667","25.011875","6500400","永和區"
"234013","KEA-2591","2018/07/09 19:19:14","新北市永和區仁愛路121號","121.511981666667","25.0131183333333","6500400","永和區"
"234061","AAD-866","2018/07/09 19:19:26","新北市永和區秀朗路一段167號","121.516783333333","25.0040666666667","6500400","永和區"
"234042","862-TW","2018/07/09 19:19:14","新北市永和區保平路151巷2弄6-3號","121.509568333333","25.0053","6500400","永和區"
"234050","863-TW","2018/07/09 19:19:19","新北市永和區保福路二段92號","121.51041","25.0134116666667","6500400","永和區"
"234026","9371-KE","2018/07/09 19:19:11","新北市永和區安樂路144巷29號","121.515153333333","24.9997616666667","6500400","永和區"
"234011","9373-KE","2018/07/09 19:19:23","新北市永和區信義路25巷53號","121.512273333333","25.0115816666667","6500400","永和區"
"249005","172-UM","2018/07/09 19:19:26","新北市八里區中華路三段103號","121.39291","25.1382433333333","6502300","八里區"
"249001","173-UM","2018/07/09 19:19:30","新北市八里區中山路一段217巷38號","121.41151","25.15589","6502300","八里區"
"249003","759-BX","2018/07/09 19:19:24","新北市八里區中山路二段468號","121.3989","25.1472616666667","6502300","八里區"
"248008","095-VK","2018/07/09 19:19:27","新北市五股區中興路二段83巷26-6號","121.460091666667","25.0752066666667","6501500","五股區"
"248018","225-UY","2018/07/09 19:19:16","新北市五股區民義路一段222號","121.429353333333","25.0904983333333","6501500","五股區"
"248012","247-BX","2018/07/09 19:19:13","新北市五股區中興路四段48巷16號","121.438625","25.083435","6501500","五股區"
"248004","677-BX","2018/07/09 19:19:22","新北市五股區五福路59號","121.43277","25.08995","6501500","五股區"
"248002","678-BX","2018/07/09 19:19:31","新北市五股區凌雲路一段158巷14-1號","121.447788333333","25.10347","6501500","五股區"
"248010","682-TV","2018/07/09 19:19:26","新北市五股區水碓一路23號","121.430598333333","25.071305","6501500","五股區"
"234023","9380-KE","2018/07/09 19:19:19","新北市永和區竹林路118號","121.519655","25.0113083333333","6500400","永和區"
"234077","969-R7","2018/07/09 19:19:22","新北市永和區民權路34號","121.520135","24.998875","6500400","永和區"
"234074","AAC-211","2018/07/09 19:19:29","新北市永和區竹林路87號","121.51962","25.01226","6500400","永和區"
"234067","AAC-212","2018/07/09 19:19:28","新北市永和區保平路50巷6號","121.511198333333","25.00732","6500400","永和區"
"234003","AAC-295","2018/07/09 19:19:21","新北市永和區中山路一段144號","121.509976666667","25.00962","6500400","永和區"
"244019","403-UM","2018/07/09 19:19:23","新北市林口區四維路130號","121.379186666667","25.077085","6501700","林口區"
"244023","483-VK","2018/07/09 19:19:23","新北市林口區文化三路一段555巷50號","121.36974","25.07693","6501700","林口區"
"244017","485-VK","2018/07/09 19:19:15","新北市林口區文化北路二段70號","121.370321666667","25.0821716666667","6501700","林口區"
"244011","657-BX","2018/07/09 19:19:18","新北市林口區竹林路63號","121.387711666667","25.0784766666667","6501700","林口區"
"244025","837-TS","2018/07/09 19:19:28","新北市林口區文化北路一段542巷13弄85號","121.370003333333","25.07941","6501700","林口區"
"243010","267-VK","2018/07/09 19:19:15","新北市泰山區明志路一段456號","121.430705","25.0556433333333","6501600","泰山區"
"243013","AAD-798","2018/07/09 19:19:22","新北市泰山區明志路三段145巷2弄15號","121.425051666667","25.0393966666667","6501600","泰山區"
"243009","297-R6","2018/07/09 19:19:17","新北市泰山區和平街15號","121.434393333333","25.06465","6501600","泰山區"
"243016","380-SR","2018/07/09 19:19:13","新北市泰山區明志路三段133號","121.42507","25.0404316666667","6501600","泰山區"
"243015","421-VK","2018/07/09 19:19:29","新北市泰山區公園路36號","121.428913333333","25.0543583333333","6501600","泰山區"
"243011","KEA-2215","2018/07/09 19:19:28","新北市泰山區中央路36巷5號","121.426153333333","25.04284","6501600","泰山區"
"243012","646-TV","2018/07/09 19:19:15","新北市泰山區仁愛路41號","121.43224","25.0551633333333","6501600","泰山區"
"243014","680-BX","2018/07/09 19:19:21","新北市泰山區泰林路二段156號","121.433976666667","25.0601933333333","6501600","泰山區"
"222002","016-RS","2018/07/09 19:19:29","新北市深坑區紅葉街10巷3號","121.633025","25.0118066666667","6501800","深坑區"
"222003","436-BY","2018/07/09 19:19:25","新北市深坑區深南路204號","121.626603333333","25.016045","6501800","深坑區"
"231041","002-UM","2018/07/09 19:19:24","新北市新店區溪園路203號","121.526625","24.984215","6500600","新店區"
"231059","046-UY","2018/07/09 19:19:17","新北市新店區安和路二段155號","121.518946666667","24.9743316666667","6500600","新店區"
"231040","047-UY","2018/07/09 19:19:25","新北市新店區三民路45號","121.53708","24.970865","6500600","新店區"
"231044","106-UY","2018/07/09 19:19:28","新北市新店區寶慶街71號","121.541893333333","24.9866266666667","6500600","新店區"
"231065","110-UY","2018/07/09 19:19:27","新北市新店區安祥路110巷27號","121.473573333333","24.95646","6500600","新店區"
"231047","187-VK","2018/07/09 19:19:17","新北市新店區中興路二段57巷14號","121.545855","24.9707816666667","6500600","新店區"
"231046","188-VK","2018/07/09 19:19:19","新北市新店區華城路12-1號","121.529206666667","24.957875","6500600","新店區"
"231054","KEA-2219","2018/07/09 19:19:12","新北市新店區國校路47號","121.537965","24.9549433333333","6500600","新店區"
"231042","268-BY","2018/07/09 19:19:21","新北市新店區中興路一段115號","121.541358333333","24.9627433333333","6500600","新店區"
"231051","278-BY","2018/07/09 19:19:18","新北市新店區中央路133巷4號","121.530541666667","24.9736733333333","6500600","新店區"
"231050","AAD-862","2018/07/09 19:19:19","新北市新店區竹林路25巷10號","121.55234","24.9514083333333","6500600","新店區"
"231058","3713-VJ","2018/07/09 19:19:27","新北市新店區北新路二段53號","121.542863333333","24.9731083333333","6500600","新店區"
"231066","4716-K9","2018/07/09 19:19:28","新北市新店區安康路三段359巷12弄27號","121.484","24.949285","6500600","新店區"
"231056","4715-K9","2018/07/09 19:19:16","新北市新店區二十張路46巷37弄37號","121.53587","24.98151","6500600","新店區"
"231067","4772-VM","2018/07/09 19:19:18","新北市新店區安康路一段263巷33號","121.523975","24.9613733333333","6500600","新店區"
"231049","513-UM","2018/07/09 19:19:23","新北市新店區明德路111號","121.541525","24.97949","6500600","新店區"
"231063","616-UM","2018/07/09 19:19:23","新北市新店區達觀路14巷3號","121.50325","24.941755","6500600","新店區"
"231045","617-UM","2018/07/09 19:19:23","新北市新店區北宜路二段10號","121.54781","24.95179","6500600","新店區"
"231061","619-UM","2018/07/09 19:19:08","新北市新店區安康路一段70號","121.528478333333","24.9617866666667","6500600","新店區"
"231064","719-UM","2018/07/09 19:19:22","新北市新店區安忠路57巷2號","121.513361666667","24.95927","6500600","新店區"
"231052","719-UY","2018/07/09 19:19:18","新北市新店區自強路107號","121.54619","24.9233216666667","6500600","新店區"
"231062","720-UM","2018/07/09 19:19:28","新北市新店區莒光路38巷3號","121.522326666667","24.958895","6500600","新店區"
"231060","897-TW","2018/07/09 19:19:17","新北市新店區安康路二段138號","121.51249","24.9618316666667","6500600","新店區"
"231043","899-TW","2018/07/09 19:19:23","新北市新店區北新路二段106號","121.542931666667","24.9739466666667","6500600","新店區"
"231055","AKT-0513","2018/07/09 19:19:22","新北市新店區薏仁坑路自強巷1號","121.49689","24.95777","6500600","新店區"
"241035","060-VK","2018/07/09 19:19:26","新北市三重區大智街23號","121.494196666667","25.0659083333333","6500200","三重區"
"241031","061-VK","2018/07/09 19:19:19","新北市三重區重新路四段97-1號","121.485775","25.0548216666667","6500200","三重區"
"241017","063-VK","2018/07/09 19:19:22","新北市三重區大同北路158-1號","121.492186666667","25.0655883333333","6500200","三重區"
"241026","066-VK","2018/07/09 19:19:20","新北市三重區光興街61號","121.498726666667","25.0603533333333","6500200","三重區"
"241032","742-BX","2018/07/09 19:19:14","新北市三重區新生街78號","121.484138333333","25.05935","6500200","三重區"
"241009","267-UM","2018/07/09 19:19:24","新北市三重區仁美街115號","121.485826666667","25.0810833333333","6500200","三重區"
"241007","398-BY","2018/07/09 19:19:21","新北市三重區慈愛街50號","121.485903333333","25.07912","6500200","三重區"
"241020","413-TH","2018/07/09 19:19:23","新北市三重區大智街167號","121.489796666667","25.0724516666667","6500200","三重區"
"241030","480-VK","2018/07/09 19:19:20","新北市三重區成功路41巷72號","121.491428333333","25.0532866666667","6500200","三重區"
"241006","AAD-863","2018/07/09 19:19:28","新北市三重區車路頭街153號","121.483765","25.0770583333333","6500200","三重區"
"241022","887-TS","2018/07/09 19:19:16","新北市三重區中正北路122號","121.48548","25.0653","6500200","三重區"
"241029","942-UM","2018/07/09 19:19:24","新北市三重區集美街236號","121.49231","25.0557533333333","6500200","三重區"
"235066","003-UY","2018/07/09 19:19:23","新北市中和區中和路135號","121.501791666667","24.9998883333333","6500300","中和區"
"235064","005-UY","2018/07/09 19:19:29","新北市中和區中和路26巷9號","121.499435","25.0015266666667","6500300","中和區"
"235063","006-UY","2018/07/09 19:19:15","新北市中和區連勝街123巷10號","121.494653333333","24.9952716666667","6500300","中和區"
"235056","096-UM","2018/07/09 19:19:23","新北市中和區員山路540號","121.478563333333","25.0101","6500300","中和區"
"235039","097-UM","2018/07/09 19:19:17","新北市中和區秀峰街107號","121.520546666667","24.9904416666667","6500300","中和區"
"235065","098-UM","2018/07/09 19:19:23","新北市中和區中山路二段64巷14弄20號","121.504088333333","25.005955","6500300","中和區"
"235040","150-BY","2018/07/09 19:19:30","新北市中和區保健路50巷1-2號","121.510333333333","24.996785","6500300","中和區"
"235058","151-BY","2018/07/09 19:19:23","新北市中和區連城路469巷44弄19號","121.482326666667","24.994705","6500300","中和區"
"235055","183-VK","2018/07/09 19:19:28","新北市中和區德光路29號","121.470721666667","25.0042283333333","6500300","中和區"
"235038","185-VK","2018/07/09 19:19:28","新北市中和區大仁街20巷42號","121.5197","24.993285","6500300","中和區"
"235049","186-VK","2018/07/09 19:19:25","新北市中和區景新街237號","121.508188333333","24.9945466666667","6500300","中和區"
"235067","255-BX","2018/07/09 19:19:13","新北市中和區新生街146號","121.483498333333","25.0007033333333","6500300","中和區"
"235044","293-VK","2018/07/09 19:19:12","新北市中和區復興路304號","121.501316666667","24.9903466666667","6500300","中和區"
"235072","301-VK","2018/07/09 19:19:17","新北市中和區板南路335號","121.494328333333","24.9978333333333","6500300","中和區"
"235043","352-BY","2018/07/09 19:19:19","新北市中和區景平路203號","121.511046666667","24.992715","6500300","中和區"
"235042","KEA-2878","2018/07/09 19:19:25","新北市中和區自立路113號","121.52223","24.994545","6500300","中和區"
"235050","4979-A6","2018/07/09 19:19:22","新北市中和區景安路208巷42號","121.502411666667","24.9920516666667","6500300","中和區"
"235069","4980-A6","2018/07/09 19:19:22","新北市中和區中山路二段181巷20號","121.501041666667","25.0020666666667","6500300","中和區"
"235070","558-UM","2018/07/09 19:19:20","新北市中和區連城路55號","121.497795","25.0016133333333","6500300","中和區"
"235045","565-BX","2018/07/09 19:19:22","新北市中和區景新街423巷35弄21號","121.513808333333","24.9905433333333","6500300","中和區"
"235054","640-BX","2018/07/09 19:19:28","新北市中和區國光街109巷29號","121.46937","24.9993166666667","6500300","中和區"
"235060","647-TV","2018/07/09 19:16:52","新北市中和區民有街61號","121.476278333333","25.003465","6500300","中和區"
"235047","732-UM","2018/07/09 19:19:24","新北市中和區和平街54巷8弄1號","121.508966666667","24.9913516666667","6500300","中和區"
"235046","733-UM","2018/07/09 19:19:10","新北市中和區華新街119號","121.507053333333","24.9820383333333","6500300","中和區"
"235071","783-BX","2018/07/09 19:19:15","新北市中和區中正路637巷52弄1號","121.485423333333","24.9939633333333","6500300","中和區"
"235057","801-TS","2018/07/09 19:19:23","新北市中和區員山路325-3號","121.481248333333","25.0008333333333","6500300","中和區"
"235041","802-TS","2018/07/09 19:19:17","新北市中和區景安路17號","121.507825","24.9989616666667","6500300","中和區"
"235052","805-TS","2018/07/09 19:19:17","新北市中和區華新街232巷9-4號","121.505906666667","24.9818266666667","6500300","中和區"
"235048","896-TW","2018/07/09 19:19:13","新北市中和區忠孝街39-5號","121.511853333333","24.9839883333333","6500300","中和區"
"235053","900-TW","2018/07/09 19:19:31","新北市中和區華安街32巷3-3號","121.467348333333","24.9975233333333","6500300","中和區"
"235051","157-BY","2018/07/09 19:19:31","新北市中和區和平街2巷4弄9號","121.510221666667","24.990945","6500300","中和區"
"235059","AAC-215","2018/07/09 19:19:21","新北市中和區錦和路195巷1弄4號","121.491183333333","24.990935","6500300","中和區"
"220068","013-TV","2018/07/09 19:19:29","新北市板橋區翠華街6巷59號","121.481276666667","25.0250066666667","6500100","板橋區"
"220065","072-UY","2018/07/09 19:19:26","新北市板橋區民族路170巷4號","121.467345","25.007705","6500100","板橋區"
"220106","075-UY","2018/07/09 19:19:16","新北市板橋區雙十路三段15號","121.470993333333","25.0311166666667","6500100","板橋區"
"220069","AAD-861","2018/07/09 19:19:28","新北市板橋區華興街46號","121.458401666667","25.0046966666667","6500100","板橋區"
"226004","312-R5","2018/07/09 19:19:16","新北市平溪區靜安路二段565號","121.749266666667","25.0239533333333","6502400","平溪區"
"228003","097-TW","2018/07/09 19:19:15","新北市貢寮區和美里和美街22-1號","121.91275","25.0826466666667","6502600","貢寮區"
"228002","663-BX","2018/07/09 19:19:25","新北市貢寮區雙玉里田寮洋街22號","121.929355","25.0215016666667","6502600","貢寮區"
"228001","670-TC","2018/07/09 19:19:20","新北市貢寮區真理里新港街10號","121.925503333333","25.0543883333333","6502600","貢寮區"
"224010","AGQ-8101","2018/07/09 19:13:03","新北市瑞芳區烏勢巷145號","121.84725","25.10811","6501200","瑞芳區"
"224006","676-BX","2018/07/09 19:19:28","新北市瑞芳區中山路238號","121.800118333333","25.1071216666667","6501200","瑞芳區"
"224008","702-BZ","2018/07/09 19:19:31","新北市瑞芳區逢甲路189號","121.804716666667","25.1105633333333","6501200","瑞芳區"
"227008","642-TC","2018/07/09 19:19:20","新北市雙溪區新基里新基北街40號","121.868543333333","25.0380716666667","6502500","雙溪區"
"227001","400-TW","2018/07/09 19:19:29","新北市雙溪區平林里梅竹蹊66-1號","121.860173333333","25.0358383333333","6502500","雙溪區"
"253005","032-BX","2018/07/09 19:19:22","新北市石門區阿里荖5號","121.611338333333","25.2794516666667","6502200","石門區"
"253006","295-VK","2018/07/09 19:19:24","新北市石門區崁子腳46號","121.534065","25.288265","6502200","石門區"
"222001","KEA-2212","2018/07/09 19:19:26","新北市深坑區北深路二段82號","121.617546666667","25.0034866666667","6501800","深坑區"
"208002","KEA-2872","2018/07/09 19:19:20","新北市金山區中正路73號","121.633813333333","25.2217633333333","6502700","金山區"
"208003","665-BX","2018/07/09 19:19:12","新北市金山區中正路118號","121.632568333333","25.221625","6502700","金山區"
"208001","761-BX","2018/07/09 19:19:13","新北市金山區金包里街40號","121.639573333333","25.2210183333333","6502700","金山區"
"251015","008-UM","2018/07/09 19:19:24","新北市淡水區山子邊5-2號","121.48351","25.1843416666667","6501000","淡水區"
"251004","009-UM","2018/07/09 19:19:10","新北市淡水區下圭柔山90-8號","121.43131","25.210325","6501000","淡水區"
"251013","KEA-2871","2018/07/09 19:19:25","新北市淡水區安子內12號","121.48092","25.2194416666667","6501000","淡水區"
"251016","179-VK","2018/07/09 19:19:11","新北市淡水區下圭柔山119-51號","121.450726666667","25.208495","6501000","淡水區"
"251014","180-VK","2018/07/09 19:19:26","新北市淡水區小中寮19-7號","121.484761666667","25.2296033333333","6501000","淡水區"
"251010","413-VK","2018/07/09 19:19:27","新北市淡水區沙崙路30號","121.421511666667","25.18137","6501000","淡水區"
"251007","442-VK","2018/07/09 19:19:14","新北市淡水區民生路188號","121.465551666667","25.1385583333333","6501000","淡水區"
"251005","443-VK","2018/07/09 19:19:07","新北市淡水區水源街一段27巷1號","121.443195","25.172535","6501000","淡水區"
"251001","559-UM","2018/07/09 19:19:23","新北市淡水區自強路201巷43號","121.462115","25.126885","6501000","淡水區"
"251006","561-UM","2018/07/09 19:19:21","新北市淡水區大信街33號","121.442003333333","25.1773616666667","6501000","淡水區"
"251009","575-R6","2018/07/09 19:19:21","新北市淡水區中山路129巷23號","121.441616666667","25.1704283333333","6501000","淡水區"
"251003","766-UM","2018/07/09 19:19:24","新北市淡水區中山北路一段196號","121.444516666667","25.179335","6501000","淡水區"
"207003","550-UM","2018/07/09 19:19:16","新北市萬里區大鵬里萬里加投79-3號","121.647331666667","25.212365","6502800","萬里區"
"207004","225-TW","2018/07/09 19:19:16","新北市萬里區萬里里成功新村51號","121.688045","25.17459","6502800","萬里區"
"252002","178-VK","2018/07/09 19:19:21","新北市三芝區淡金路二段18-1號","121.502588333333","25.259515","6502100","三芝區"
"252001","292-VK","2018/07/09 19:19:25","新北市三芝區長勤街9巷11弄3號","121.501865","25.2547116666667","6502100","三芝區"
"237004","KEA-2597","2018/07/09 19:19:28","新北市三峽區有木206號","121.439095","24.8515066666667","6500900","三峽區"
"237007","153-BY","2018/07/09 19:19:13","新北市三峽區麻園24-11號","121.363018333333","24.9184966666667","6500900","三峽區"
"237009","210-TH","2018/07/09 19:19:12","新北市三峽區文化路68號","121.372265","24.9361766666667","6500900","三峽區"
"237013","252-BX","2018/07/09 19:19:28","新北市三峽區大同路5巷11-1號","121.378118333333","24.9287333333333","6500900","三峽區"
"237012","275-BY","2018/07/09 19:19:26","新北市三峽區三樹路222巷196-1號","121.38891","24.9426566666667","6500900","三峽區"
"237008","302-VK","2018/07/09 19:19:19","新北市三峽區大同路119巷8號","121.374345","24.92645","6500900","三峽區"
"237006","5529-G3","2018/07/09 19:19:11","新北市三峽區橫溪路99巷20-1號","121.400893333333","24.93602","6500900","三峽區"
"237011","KEA-2596","2018/07/09 19:19:28","新北市三峽區介壽路一段422號","121.384648333333","24.9314816666667","6500900","三峽區"
"237015","649-BX","2018/07/09 19:19:27","新北市三峽區建安71-3號","121.448073333333","24.926555","6500900","三峽區"
"237010","706-TV","2018/07/09 19:19:18","新北市三峽區復興路47號","121.373443333333","24.9370066666667","6500900","三峽區"
"237005","AKY-6261","2018/07/09 19:19:13","新北市三峽區中山路459巷24號","121.357461666667","24.93855","6500900","三峽區"
"236069","105-UM","2018/07/09 19:19:25","新北市土城區學成路147號","121.448668333333","24.989505","6501300","土城區"
"236042","107-UM","2018/07/09 19:19:22","新北市土城區學府路一段239號","121.450358333333","24.9833833333333","6501300","土城區"
"236078","166-UM","2018/07/09 19:19:25","新北市土城區龍泉路43號","121.416651666667","24.9434083333333","6501300","土城區"
"236026","269-VK","2018/07/09 19:19:20","新北市土城區中正路67巷26號","121.444406666667","24.976625","6501300","土城區"
"236020","401-BY","2018/07/09 19:19:19","新北市土城區峰廷街3號","121.469311666667","24.987475","6501300","土城區"
"236014","752-BX","2018/07/09 19:19:17","新北市土城區學府路一段25號","121.458446666667","24.9883416666667","6501300","土城區"
"236059","912-UM","2018/07/09 19:19:13","新北市土城區中央路二段364號","121.439883333333","24.97159","6501300","土城區"
"236048","913-UM","2018/07/09 19:19:10","新北市土城區明德路一段365-1號","121.453666666667","24.979105","6501300","土城區"
"242002","349-TH","2018/07/09 19:19:14","新北市新莊區瓊林南路77-41號","121.437731666667","25.0125733333333","6500500","新莊區"
"238015","755-BX","2018/07/09 19:19:16","新北市樹林區備內街26號","121.412776666667","24.9870433333333","6500700","樹林區"
"238023","601-UM","2018/07/09 19:19:16","桃園市龜山區萬壽路一段791-1號","121.392183333333","25.01403","6500700","樹林區"
"238019","599-UM","2018/07/09 19:19:22","新北市樹林區鎮前街413號","121.41506","24.983305","6500700","樹林區"
"238018","571-TV","2018/07/09 19:19:13","新北市樹林區中華路172-3號","121.413883333333","24.9804033333333","6500700","樹林區"
"238024","5061-A6","2018/07/09 19:19:22","新北市樹林區福德街36-2號","121.400358333333","24.97519","6500700","樹林區"
"238022","KEA-2213","2018/07/09 19:18:54","新北市樹林區中華路267號","121.417813333333","24.9804266666667","6500700","樹林區"
"238021","KEA-2539","2018/07/09 19:19:29","新北市樹林區柑園街二段382巷14號","121.368061666667","24.94988","6500700","樹林區"
"238025","303-VK","2018/07/09 19:19:18","新北市樹林區中山路三段125-5號","121.398408333333","24.9739866666667","6500700","樹林區"
"238017","283-BY","2018/07/09 19:19:21","新北市樹林區光興街196號","121.40797","25.00471","6500700","樹林區"
"238014","282-BY","2018/07/09 19:19:15","新北市樹林區中正路21號","121.427645","24.9993433333333","6500700","樹林區"
"238020","268-VK","2018/07/09 19:19:14","新北市樹林區俊英街125巷8號","121.423656666667","25.0108616666667","6500700","樹林區"
"238026","172-UY","2018/07/09 19:19:16","新北市樹林區佳園路二段143號","121.39012","24.9576666666667","6500700","樹林區"
"238016","169-UY","2018/07/09 19:19:29","新北市樹林區復興路464巷42-1號","121.412765","24.98353","6500700","樹林區"
"239007","AAC-297","2018/07/09 19:19:13","新北市鶯歌區中正一路339號","121.357491666667","24.9571966666667","6500800","鶯歌區"
"239006","891-R6","2018/07/09 19:19:09","新北市鶯歌區鶯桃路294-1號","121.33491","24.9603766666667","6500800","鶯歌區"
"239008","527-UM","2018/07/09 19:19:18","新北市鶯歌區國際二路6巷18號","121.339058333333","24.9739166666667","6500800","鶯歌區"
"239001","417-VK","2018/07/09 19:19:27","新北市鶯歌區永安街23號","121.337846666667","24.9556683333333","6500800","鶯歌區"
"239003","360-BY","2018/07/09 19:19:19","新北市鶯歌區中正二路11號","121.351501666667","24.9515733333333","6500800","鶯歌區"
"239004","193-VK","2018/07/09 19:19:18","新北市鶯歌區中正三路鄭厝巷65-3號","121.331925","24.9331983333333","6500800","鶯歌區"
"221008","489-VK","2018/07/09 19:19:11","新北市汐止區康寧街310號","121.626825","25.0672266666667","6501100","汐止區"
"221036","130-UY","2018/07/09 19:19:14","新北市汐止區汐萬路一段244-1號","121.651503333333","25.0731783333333","6501100","汐止區"
"221015","131-UY","2018/07/09 19:19:31","新北市汐止區康寧街901號","121.650746666667","25.07536","6501100","汐止區"
"221010","269-BY","2018/07/09 19:19:25","新北市汐止區康寧街901號","121.65142","25.0750066666667","6501100","汐止區"
"221012","278-VK","2018/07/09 19:19:22","新北市汐止區汐萬路一段312號","121.65046","25.0751633333333","6501100","汐止區"
"221023","279-VK","2018/07/09 19:19:21","新北市汐止區康寧街901號","121.650993333333","25.0752266666667","6501100","汐止區"
"221027","281-BY","2018/07/09 19:19:19","新北市汐止區汐萬路一段312號","121.650575","25.075405","6501100","汐止區"
"221029","298-VK","2018/07/09 19:19:17","新北市汐止區康寧街901號","121.651498333333","25.07489","6501100","汐止區"
"221021","299-VK","2018/07/09 19:19:20","新北市汐止區康寧街901號","121.6515","25.075055","6501100","汐止區"
"221031","353-TW","2018/07/09 19:19:12","新北市汐止區汐萬路一段256巷3號","121.653385","25.0746866666667","6501100","汐止區"
"221025","623-UM","2018/07/09 19:19:11","新北市汐止區康寧街901號","121.651343333333","25.07506","6501100","汐止區"
"221038","646-BX","2018/07/09 19:19:16","新北市汐止區汐萬路一段312號","121.65066","25.0752866666667","6501100","汐止區"
"221033","647-BX","2018/07/09 19:19:17","新北市汐止區南勢街1巷1號","121.627093333333","25.03745","6501100","汐止區"
"221002","707-TV","2018/07/09 19:19:27","新北市汐止區大同路一段344號","121.638051666667","25.0590783333333","6501100","汐止區"
"220079","145-BY","2018/07/09 19:19:31","新北市板橋區民權路202巷17弄16號","121.460126666667","25.0166683333333","6500100","板橋區"
"220080","200-UY","2018/07/09 19:19:20","新北市板橋區大觀路二段19巷95號","121.449683333333","25.0027783333333","6500100","板橋區"
"220082","610-BX","2018/07/09 19:19:28","新北市板橋區金門街328-1號","121.428356666667","24.98476","6500100","板橋區"
"220056","276-BY","2018/07/09 19:19:26","新北市板橋區信義路142號","121.458758333333","24.9920666666667","6500100","板橋區"
"220071","283-VK","2018/07/09 19:19:11","新北市板橋區忠孝路48巷7弄2號","121.46108","25.0003083333333","6500100","板橋區"
"220094","285-UM","2018/07/09 19:19:27","新北市板橋區吳鳳路82號","121.466921666667","25.031285","6500100","板橋區"
"220053","285-VK","2018/07/09 19:19:25","新北市板橋區富山街16號","121.478415","25.021825","6500100","板橋區"
"220083","286-VK","2018/07/09 19:19:32","新北市板橋區龍興街73巷18號","121.44321","25.0024266666667","6500100","板橋區"
"220081","287-VK","2018/07/09 19:19:09","新北市板橋區南雅東路29巷11號","121.453503333333","25.0054966666667","6500100","板橋區"
"220090","288-VK","2018/07/09 19:19:18","新北市板橋區長江路一段106巷13弄33號","121.4613","25.02981","6500100","板橋區"
"220061","293-UM","2018/07/09 19:19:24","新北市板橋區中山路二段309巷12號","121.478566666667","25.0189966666667","6500100","板橋區"
"220084","296-UM","2018/07/09 19:19:19","新北市板橋區滿平街110巷20號","121.427751666667","24.9880183333333","6500100","板橋區"
"220075","303-R5","2018/07/09 19:19:18","新北市板橋區中正路275巷29號","121.45375","25.0182116666667","6500100","板橋區"
"220062","305-R5","2018/07/09 19:19:15","新北市板橋區三民路二段153巷7弄1號","121.4806","25.0150516666667","6500100","板橋區"
"220092","307-R5","2018/07/09 19:19:30","新北市板橋區光武街48巷13號","121.46741","25.02671","6500100","板橋區"
"220098","317-R6","2018/07/09 19:19:26","新北市板橋區民有街90號","121.4649","25.027465","6500100","板橋區"
"220064","486-VK","2018/07/09 19:19:24","新北市板橋區中山路一段48號","121.460775","25.0090133333333","6500100","板橋區"
"220088","491-VK","2018/07/09 19:19:16","新北市板橋區雙十路一段3號","121.478055","25.024065","6500100","板橋區"
"220035","560-BX","2018/07/09 19:19:19","新北市板橋區瑞安街29號","121.455581666667","25.02294","6500100","板橋區"
"220103","561-BX","2018/07/09 19:19:32","新北市板橋區介壽街25號","121.468153333333","25.02001","6500100","板橋區"
"220072","568-UM","2018/07/09 19:19:31","新北市板橋區金門街337巷6弄2號","121.429453333333","24.9855033333333","6500100","板橋區"
"220063","609-BX","2018/07/09 19:19:29","新北市板橋區三民路二段38號","121.479215","25.0177583333333","6500100","板橋區"
"220086","630-UY","2018/07/09 19:19:25","新北市板橋區國光路31巷17號","121.456805","25.0184416666667","6500100","板橋區"
"220091","637-BX","2018/07/09 19:19:17","新北市板橋區萬板路408號","121.47892","25.0255233333333","6500100","板橋區"
"220057","686-BX","2018/07/09 19:19:17","新北市板橋區和平路153號","121.463251666667","24.995645","6500100","板橋區"
"220093","689-BX","2018/07/09 19:19:28","新北市板橋區文化路一段273號","121.464711666667","25.018435","6500100","板橋區"
"220054","741-BX","2018/07/09 19:19:24","新北市板橋區四川路一段195號","121.46076","25.0037116666667","6500100","板橋區"
"220102","KEA-2699","2018/07/09 19:19:27","新北市板橋區田單街11號","121.482066666667","25.029235","6500100","板橋區"
"220077","806-UM","2018/07/09 19:19:29","新北市板橋區僑中二街10巷1號","121.446853333333","25.0109583333333","6500100","板橋區"
"220055","827-TW","2018/07/09 19:19:27","新北市板橋區新民街13號","121.464018333333","25.0098883333333","6500100","板橋區"
"220067","829-TW","2018/07/09 19:19:22","新北市板橋區長安街138巷1弄56號","121.474046666667","25.0101666666667","6500100","板橋區"
"220096","830-TW","2018/07/09 19:19:30","新北市板橋區大同街26巷33號","121.478565","25.02634","6500100","板橋區"
"220089","833-TW","2018/07/09 19:19:29","新北市板橋區文化路一段479巷44號","121.46781","25.0228816666667","6500100","板橋區"
"220074","895-R6","2018/07/09 19:19:22","新北市板橋區中正路自強新村91-1號","121.454831666667","25.01313","6500100","板橋區"
"220073","985-R7","2018/07/09 19:19:15","新北市板橋區新生街37號","121.456725","25.0211216666667","6500100","板橋區"
"220097","AAC-210","2018/07/09 19:19:17","新北市板橋區幸福路60巷20號","121.460528333333","25.0213566666667","6500100","板橋區"
"220070","AAC-253","2018/07/09 19:19:21","新北市板橋區忠孝路96號","121.461873333333","25.0020266666667","6500100","板橋區"
"235068","KEA-2873","2018/07/09 19:19:20","新北市中和區景平路545巷1弄18號","121.498803333333","24.9986916666667","6500300","中和區"
"235061","KEA-2875","2018/07/09 19:19:25","新北市中和區員山路343號","121.481276666667","25.0016466666667","6500300","中和區"
