"lineid","car","time","location","longitude","latitude","cityid","cityname"
"234046","148-BY","2018/07/09 19:29:25","新北市永和區永元路31號","121.522138333333","25.00087","6500400","永和區"
"234007","207-UY","2018/07/09 19:29:27","新北市永和區永和路一段118號","121.514006666667","25.0078716666667","6500400","永和區"
"234081","298-R6","2018/07/09 19:29:24","新北市永和區林森路10巷18弄2號","121.525961666667","25.00626","6500400","永和區"
"234038","336-UY","2018/07/09 19:29:22","新北市永和區成功路二段47巷11號","121.527446666667","25.0001733333333","6500400","永和區"
"234064","337-UY","2018/07/09 19:29:29","新北市永和區永元路17巷25弄7號","121.520888333333","25.0015166666667","6500400","永和區"
"234070","552-UM","2018/07/09 19:29:25","新北市永和區警光街5-1號","121.519753333333","25.009515","6500400","永和區"
"234086","553-UM","2018/07/09 19:29:11","新北市永和區林森路65號","121.52413","25.00404","6500400","永和區"
"234017","745-BX","2018/07/09 19:29:16","新北市永和區環河西路一段87號","121.512321666667","25.0179416666667","6500400","永和區"
"234030","746-BX","2018/07/09 19:29:23","新北市永和區民生路4號","121.522638333333","24.9979483333333","6500400","永和區"
"234054","KEA-2590","2018/07/09 19:29:23","新北市永和區復興街21號","121.516108333333","25.013085","6500400","永和區"
"234013","KEA-2591","2018/07/09 19:29:14","新北市永和區永和路二段105號","121.514991666667","25.011875","6500400","永和區"
"234061","AAD-866","2018/07/09 19:29:26","新北市永和區中正路606號","121.517075","25.0070266666667","6500400","永和區"
"234042","862-TW","2018/07/09 19:29:14","新北市永和區水源街39巷20號","121.510628333333","25.003485","6500400","永和區"
"234050","863-TW","2018/07/09 19:29:19","新北市永和區信義路98號","121.512478333333","25.0138166666667","6500400","永和區"
"234026","9371-KE","2018/07/09 19:29:31","新北市中和區安樂路215-1號","121.514201666667","24.998865","6500400","永和區"
"234011","9373-KE","2018/07/09 19:29:23","新北市永和區保福路二段163巷13弄16號","121.509136666667","25.014305","6500400","永和區"
"249002","305-UY","2018/07/09 19:29:24","新北市八里區龍形一街33巷6-1號","121.449356666667","25.12951","6502300","八里區"
"249003","759-BX","2018/07/09 19:29:24","新北市八里區商港六路23號","121.39668","25.1485766666667","6502300","八里區"
"248008","095-VK","2018/07/09 19:29:27","新北市五股區中興路一段90號","121.46659","25.0732516666667","6501500","五股區"
"248018","225-UY","2018/07/09 19:29:16","新北市五股區壟路8-2號","121.416385","25.089845","6501500","五股區"
"248012","247-BX","2018/07/09 19:29:23","新北市五股區成泰路二段97號","121.438018333333","25.084275","6501500","五股區"
"248014","261-SL","2018/07/09 19:29:29","新北市五股區民義路一段183巷5號","121.430755","25.0871916666667","6501500","五股區"
"248004","677-BX","2018/07/09 19:29:22","新北市五股區五福路39號","121.433445","25.0895883333333","6501500","五股區"
"248002","678-BX","2018/07/09 19:29:11","新北市五股區凌雲路一段158巷13號","121.447758333333","25.103455","6501500","五股區"
"248010","682-TV","2018/07/09 19:29:26","新北市五股區水碓一路23號","121.430606666667","25.0713266666667","6501500","五股區"
"234023","9380-KE","2018/07/09 19:29:19","新北市永和區竹林路91巷21弄9號","121.520818333333","25.01253","6500400","永和區"
"234077","969-R7","2018/07/09 19:29:22","新北市永和區民治街59巷1號","121.518646666667","24.9977983333333","6500400","永和區"
"234074","AAC-211","2018/07/09 19:29:29","新北市永和區環河東路一段108號","121.52016","25.0160183333333","6500400","永和區"
"234067","AAC-212","2018/07/09 19:29:28","新北市永和區永貞路345號","121.509335","25.00738","6500400","永和區"
"234003","AAC-295","2018/07/09 19:29:27","新北市永和區福和路385號","121.514168333333","25.0076266666667","6500400","永和區"
"244019","403-UM","2018/07/09 19:29:03","新北市林口區寶林路70號","121.371143333333","25.0930083333333","6501700","林口區"
"244023","483-VK","2018/07/09 19:29:23","新北市林口區仁愛路二段267巷1號","121.37347","25.0772683333333","6501700","林口區"
"243010","267-VK","2018/07/09 19:29:15","新北市泰山區明志路二段66號","121.428945","25.052565","6501600","泰山區"
"243013","AAD-798","2018/07/09 19:29:16","新北市泰山區明志路三段145巷30號","121.426123333333","25.0395883333333","6501600","泰山區"
"243009","297-R6","2018/07/09 19:29:17","新北市泰山區半山雅3號","121.431403333333","25.0673566666667","6501600","泰山區"
"243016","380-SR","2018/07/09 19:29:13","新北市泰山區明志路三段168號","121.424268333333","25.0395433333333","6501600","泰山區"
"243015","421-VK","2018/07/09 19:29:29","新北市泰山區明志路二段136巷1-1號","121.427325","25.0511866666667","6501600","泰山區"
"243011","KEA-2215","2018/07/09 19:29:16","新北市泰山區貴子路19-1號","121.428073333333","25.040755","6501600","泰山區"
"243012","646-TV","2018/07/09 19:29:18","新北市泰山區仁愛路18號","121.4313","25.0544083333333","6501600","泰山區"
"243014","680-BX","2018/07/09 19:29:21","新北市泰山區仁愛路6巷7號","121.43126","25.0537866666667","6501600","泰山區"
"222002","016-RS","2018/07/09 19:29:29","新北市深坑區北深路一段177號","121.632576666667","25.010885","6501800","深坑區"
"222003","436-BY","2018/07/09 19:29:25","新北市深坑區深南路88巷1號","121.620961666667","25.0115733333333","6501800","深坑區"
"231041","002-UM","2018/07/09 19:29:24","新北市新店區中正路602號","121.533931666667","24.9880816666667","6500600","新店區"
"231059","046-UY","2018/07/09 19:29:16","新北市新店區安和路三段7號","121.518081666667","24.980555","6500600","新店區"
"231040","047-UY","2018/07/09 19:29:25","新北市新店區北新路一段295號","121.541211666667","24.96734","6500600","新店區"
"231044","106-UY","2018/07/09 19:29:28","新北市新店區中興路三段141號","121.544545","24.9798683333333","6500600","新店區"
"231065","110-UY","2018/07/09 19:29:27","新北市新店區安祥路109巷3弄6號","121.475316666667","24.9594983333333","6500600","新店區"
"231047","187-VK","2018/07/09 19:29:17","新北市新店區五峰路119號","121.545043333333","24.9665133333333","6500600","新店區"
"231046","188-VK","2018/07/09 19:29:19","新北市新店區光明街123號","121.539041666667","24.96178","6500600","新店區"
"231054","KEA-2219","2018/07/09 19:29:12","新北市新店區文中路40號","121.539618333333","24.95658","6500600","新店區"
"231057","256-BX","2018/07/09 19:29:18","新北市新店區花園一路二段26號","121.550776666667","24.9332783333333","6500600","新店區"
"231042","268-BY","2018/07/09 19:29:21","新北市新店區中興路一段24-2號","121.53859","24.95834","6500600","新店區"
"231051","278-BY","2018/07/09 19:29:16","新北市新店區中央五街66號","121.527376666667","24.9756016666667","6500600","新店區"
"231050","AAD-862","2018/07/09 19:29:19","新北市新店區竹林路157號","121.556066666667","24.9482533333333","6500600","新店區"
"231058","3713-VJ","2018/07/09 19:29:27","新北市新店區寶橋路85巷23號","121.545273333333","24.976205","6500600","新店區"
"231066","4716-K9","2018/07/09 19:29:28","新北市新店區安康路三段355巷10號","121.48479","24.9502466666667","6500600","新店區"
"231056","4715-K9","2018/07/09 19:29:16","新北市新店區溪園路401號","121.523773333333","24.978065","6500600","新店區"
"231067","4772-VM","2018/07/09 19:29:18","新北市新店區安康路一段195巷9號","121.526528333333","24.9623066666667","6500600","新店區"
"231049","513-UM","2018/07/09 19:29:23","新北市新店區二十張路1巷3弄1號","121.540401666667","24.98212","6500600","新店區"
"231063","616-UM","2018/07/09 19:29:23","新北市新店區達觀路16號","121.503321666667","24.940495","6500600","新店區"
"231045","617-UM","2018/07/09 19:29:23","新北市新店區北宜路二段207號","121.553081666667","24.9533866666667","6500600","新店區"
"231061","619-UM","2018/07/09 19:29:28","新北市新店區安康路一段285號","121.52334","24.9636033333333","6500600","新店區"
"231064","719-UM","2018/07/09 19:29:22","新北市新店區安忠路38號","121.513186666667","24.9596483333333","6500600","新店區"
"231052","719-UY","2018/07/09 19:29:18","新北市新店區自強路237號","121.54717","24.9187033333333","6500600","新店區"
"231062","720-UM","2018/07/09 19:29:28","新北市新店區安康路一段133號","121.527943333333","24.9618933333333","6500600","新店區"
"231060","897-TW","2018/07/09 19:29:17","新北市新店區安康路二段1-3號","121.5167","24.9637533333333","6500600","新店區"
"231043","899-TW","2018/07/09 19:29:12","新北市新店區北新路二段189號","121.542728333333","24.9778983333333","6500600","新店區"
"231055","AKT-0513","2018/07/09 19:29:22","新北市新店區環河路121號","121.529295","24.9717883333333","6500600","新店區"
"241028","022-UY","2018/07/09 19:29:13","新北市三重區中寮街70號","121.493021666667","25.0582333333333","6500200","三重區"
"241008","059-VK","2018/07/09 19:29:27","新北市三重區永福街135巷32弄11號","121.476973333333","25.0771116666667","6500200","三重區"
"241035","060-VK","2018/07/09 19:29:26","新北市三重區信義西街1號","121.498136666667","25.0648816666667","6500200","三重區"
"241031","061-VK","2018/07/09 19:29:19","新北市三重區集美街100號","121.488551666667","25.0541516666667","6500200","三重區"
"241017","063-VK","2018/07/09 19:29:22","新北市三重區大智街45-1號","121.493471666667","25.0664583333333","6500200","三重區"
"241026","066-VK","2018/07/09 19:29:20","新北市三重區光興街3號","121.500183333333","25.0605066666667","6500200","三重區"
"241032","742-BX","2018/07/09 19:29:14","新北市三重區三陽路39號","121.485173333333","25.0587866666667","6500200","三重區"
"241009","267-UM","2018/07/09 19:29:24","新北市三重區溪尾街242巷57號","121.486301666667","25.0815216666667","6500200","三重區"
"241013","270-UM","2018/07/09 19:29:14","新北市三重區仁愛街118號","121.495153333333","25.074615","6500200","三重區"
"241025","271-UM","2018/07/09 19:29:12","新北市三重區頂崁街210巷28弄1號","121.475826666667","25.06769","6500200","三重區"
"241007","398-BY","2018/07/09 19:29:21","新北市三重區溪尾街128號","121.489325","25.0794816666667","6500200","三重區"
"241020","413-TH","2018/07/09 19:29:23","新北市三重區三和路四段20巷21號","121.490343333333","25.0738483333333","6500200","三重區"
"241030","480-VK","2018/07/09 19:29:20","新北市三重區成功路41巷10號","121.490196666667","25.0516666666667","6500200","三重區"
"241006","AAD-863","2018/07/09 19:29:28","新北市三重區後竹圍街175巷31號","121.485938333333","25.0733316666667","6500200","三重區"
"241022","887-TS","2018/07/09 19:28:36","新北市三重區三民街82號","121.485756666667","25.0628516666667","6500200","三重區"
"241029","942-UM","2018/07/09 19:29:24","新北市三重區中正南路262號","121.493295","25.05279","6500200","三重區"
"235066","003-UY","2018/07/09 19:29:23","新北市中和區景新街43號","121.504078333333","24.9991266666667","6500300","中和區"
"235064","005-UY","2018/07/09 19:29:15","新北市中和區中和路139號","121.502078333333","24.99976","6500300","中和區"
"235063","006-UY","2018/07/09 19:29:15","新北市中和區連城路164號","121.494083333333","24.9976266666667","6500300","中和區"
"235056","096-UM","2018/07/09 19:29:23","新北市中和區中山路二段678號","121.479981666667","25.0062083333333","6500300","中和區"
"235039","097-UM","2018/07/09 19:29:17","新北市中和區秀峰街119巷8弄1號","121.519408333333","24.9897983333333","6500300","中和區"
"235065","098-UM","2018/07/09 19:29:23","新北市中和區莊敬路4號","121.499521666667","25.0042566666667","6500300","中和區"
"235040","150-BY","2018/07/09 19:29:30","新北市中和區景安路79巷37弄25號","121.50765","24.996555","6500300","中和區"
"235058","151-BY","2018/07/09 19:29:23","新北市中和區中正路637巷60弄61號","121.48542","24.9929666666667","6500300","中和區"
"235055","183-VK","2018/07/09 19:29:28","新北市中和區莒光路120巷54號","121.47166","25.000995","6500300","中和區"
"235038","185-VK","2018/07/09 19:29:28","新北市中和區立人街33-3號","121.520908333333","24.9941666666667","6500300","中和區"
"235049","186-VK","2018/07/09 19:29:25","新北市中和區景新街283號","121.509635","24.9933466666667","6500300","中和區"
"235067","255-BX","2018/07/09 19:29:13","新北市中和區連城路322號","121.483393333333","24.9960316666667","6500300","中和區"
"235044","293-VK","2018/07/09 19:29:33","新北市中和區捷運路189號","121.505391666667","24.9913883333333","6500300","中和區"
"235072","301-VK","2018/07/09 19:29:17","新北市中和區連城路263巷4弄12號","121.491771666667","24.9952316666667","6500300","中和區"
"235043","352-BY","2018/07/09 19:29:19","新北市中和區南山路84號","121.502706666667","24.9951083333333","6500300","中和區"
"235042","KEA-2878","2018/07/09 19:29:25","新北市中和區大勇街60巷14弄1號","121.51882","24.9945333333333","6500300","中和區"
"235050","4979-A6","2018/07/09 19:29:22","新北市中和區中正路161巷2號","121.498438333333","24.9936533333333","6500300","中和區"
"235069","4980-A6","2018/07/09 19:29:18","新北市中和區景平路736巷3弄4號","121.497311666667","25.00368","6500300","中和區"
"235070","558-UM","2018/07/09 19:29:20","新北市中和區中和路60號","121.500681666667","25.000835","6500300","中和區"
"235045","565-BX","2018/07/09 19:29:22","新北市中和區景新街399巷8號","121.512956666667","24.9898633333333","6500300","中和區"
"235054","640-BX","2018/07/09 19:29:28","新北市中和區國光街112巷23弄1號","121.469683333333","25.0022716666667","6500300","中和區"
"235060","647-TV","2018/07/09 19:29:12","新北市中和區新生街118巷14號","121.482941666667","25.0018","6500300","中和區"
"235047","732-UM","2018/07/09 19:29:26","新北市中和區景平路241巷64弄1號","121.507635","24.9924316666667","6500300","中和區"
"235046","733-UM","2018/07/09 19:29:30","新北市中和區忠孝街37巷30號","121.510868333333","24.98428","6500300","中和區"
"235071","783-BX","2018/07/09 19:29:15","新北市中和區中正路637巷18弄20號","121.484275","24.9950866666667","6500300","中和區"
"235057","801-TS","2018/07/09 19:29:23","新北市中和區中山路三段37巷37號","121.479643333333","25.00483","6500300","中和區"
"235041","802-TS","2018/07/09 19:29:17","新北市中和區中安街122號","121.511128333333","25.0005983333333","6500300","中和區"
"235052","805-TS","2018/07/09 19:29:17","新北市中和區華新街143巷67弄33號","121.507483333333","24.979285","6500300","中和區"
"235048","896-TW","2018/07/09 19:29:13","新北市中和區景新街487號","121.513636666667","24.9874033333333","6500300","中和區"
"235053","900-TW","2018/07/09 19:29:11","新北市中和區華順街20號","121.467075","24.9986916666667","6500300","中和區"
"235051","157-BY","2018/07/09 19:29:11","新北市中和區景新街208號","121.506591666667","24.9955383333333","6500300","中和區"
"235059","AAC-215","2018/07/09 19:29:21","新北市中和區圓通路252巷12號","121.49255","24.9920733333333","6500300","中和區"
"220068","013-TV","2018/07/09 19:29:13","新北市板橋區林森街1巷1號","121.482086666667","25.0241333333333","6500100","板橋區"
"220065","072-UY","2018/07/09 19:29:26","新北市板橋區國泰街75巷28弄56號","121.46764","25.0046816666667","6500100","板橋區"
"220106","075-UY","2018/07/09 19:29:16","新北市板橋區文化路二段417巷1號","121.473748333333","25.03341","6500100","板橋區"
"220069","AAD-861","2018/07/09 19:29:15","新北市板橋區稚暉街39號","121.45719","25.0041183333333","6500100","板橋區"
"226004","312-R5","2018/07/09 19:29:16","新北市平溪區十分里十分街98號","121.777126666667","25.0425166666667","6502400","平溪區"
"228003","097-TW","2018/07/09 19:29:15","新北市貢寮區和美里和美街22-1號","121.912775","25.08264","6502600","貢寮區"
"228002","663-BX","2018/07/09 19:29:25","新北市貢寮區龍門里龍門街62-5號","121.93165","25.0271216666667","6502600","貢寮區"
"228001","670-TC","2018/07/09 19:29:20","新北市貢寮區真理里大澳街60號","121.925436666667","25.05708","6502600","貢寮區"
"224010","AGQ-8101","2018/07/09 19:29:23","新北市瑞芳區基山街139號","121.843908333333","25.1083183333333","6501200","瑞芳區"
"224002","639-TC","2018/07/09 19:29:29","新北市瑞芳區三爪子坑路63號","121.812658333333","25.107325","6501200","瑞芳區"
"224008","702-BZ","2018/07/09 19:29:25","新北市瑞芳區逢甲路321號","121.801128333333","25.1117516666667","6501200","瑞芳區"
"227008","642-TC","2018/07/09 19:29:20","新北市雙溪區新基里新基北街43號","121.868175","25.0397316666667","6502500","雙溪區"
"227001","400-TW","2018/07/09 19:29:29","新北市雙溪區雙溪里光復街14號","121.865066666667","25.03542","6502500","雙溪區"
"253005","032-BX","2018/07/09 19:29:22","新北市石門區小坑12-8號","121.595235","25.2852516666667","6502200","石門區"
"253006","295-VK","2018/07/09 19:29:24","新北市石門區崁子腳27號","121.535853333333","25.2915133333333","6502200","石門區"
"222001","KEA-2212","2018/07/09 19:29:26","新北市深坑區北深路二段121號","121.61674","25.00304","6501800","深坑區"
"208002","KEA-2872","2018/07/09 19:29:20","新北市金山區中華路133號","121.633061666667","25.2210016666667","6502700","金山區"
"208003","665-BX","2018/07/09 19:29:11","新北市金山區中山路128號","121.6391","25.2201016666667","6502700","金山區"
"208001","761-BX","2018/07/09 19:29:14","新北市金山區金包里街98號","121.63841","25.22184","6502700","金山區"
"251015","008-UM","2018/07/09 19:29:24","新北市淡水區山子頂24號","121.492291666667","25.1880966666667","6501000","淡水區"
"251004","009-UM","2018/07/09 19:29:30","新北市淡水區淡金路二段30號","121.452135","25.1809933333333","6501000","淡水區"
"251013","KEA-2871","2018/07/09 19:29:26","新北市淡水區安子內18號","121.473588333333","25.2185183333333","6501000","淡水區"
"251016","179-VK","2018/07/09 19:29:31","新北市淡水區下圭柔山119-51號","121.45072","25.2084783333333","6501000","淡水區"
"251014","180-VK","2018/07/09 19:29:26","新北市淡水區小中寮15-2號","121.484995","25.2300116666667","6501000","淡水區"
"251008","181-VK","2018/07/09 19:29:29","新北市淡水區中正路一段49號","121.424393333333","25.17753","6501000","淡水區"
"251010","413-VK","2018/07/09 19:29:27","新北市淡水區中正路二段142號","121.421898333333","25.1874683333333","6501000","淡水區"
"251012","441-VK","2018/07/09 19:29:19","新北市淡水區崁頂111號","121.432891666667","25.2044566666667","6501000","淡水區"
"251007","442-VK","2018/07/09 19:29:14","新北市淡水區中正東路二段143巷8弄2號","121.461346666667","25.14758","6501000","淡水區"
"251005","443-VK","2018/07/09 19:29:27","新北市淡水區水源街一段71巷18號","121.444411666667","25.17298","6501000","淡水區"
"251001","559-UM","2018/07/09 19:29:23","新北市淡水區民權路141-1號","121.460005","25.1363533333333","6501000","淡水區"
"251006","561-UM","2018/07/09 19:29:21","新北市淡水區大義街40號","121.44199","25.178335","6501000","淡水區"
"251009","575-R6","2018/07/09 19:29:21","新北市淡水區大忠街5巷1號","121.44317","25.1764816666667","6501000","淡水區"
"251003","766-UM","2018/07/09 19:29:24","新北市淡水區中山北路三段136號","121.44455","25.1947566666667","6501000","淡水區"
"207003","550-UM","2018/07/09 19:29:16","新北市萬里區大鵬里萬里加投193號","121.64437","25.2145483333333","6502800","萬里區"
"207004","225-TW","2018/07/09 19:29:16","新北市萬里區萬里里瑪鋉路127-8號","121.688846666667","25.1777733333333","6502800","萬里區"
"252002","178-VK","2018/07/09 19:29:21","新北市三芝區淡金路二段18-1號","121.502648333333","25.2595016666667","6502100","三芝區"
"252001","292-VK","2018/07/09 19:29:25","新北市三芝區長勤街63-1號","121.500066666667","25.25614","6502100","三芝區"
"237004","KEA-2597","2018/07/09 19:29:28","新北市三峽區有木205號","121.439016666667","24.8520516666667","6500900","三峽區"
"237007","153-BY","2018/07/09 19:29:13","新北市三峽區二鬮路136巷2弄37號","121.359503333333","24.90912","6500900","三峽區"
"237009","210-TH","2018/07/09 19:29:13","新北市三峽區信義街2號","121.370766666667","24.9361033333333","6500900","三峽區"
"237013","252-BX","2018/07/09 19:29:27","新北市三峽區介壽路一段276巷88弄23號","121.378821666667","24.9285233333333","6500900","三峽區"
"237012","275-BY","2018/07/09 19:29:26","新北市三峽區三樹路112號","121.378293333333","24.9392666666667","6500900","三峽區"
"237008","302-VK","2018/07/09 19:29:19","新北市三峽區中正路一段112-1號","121.374056666667","24.929475","6500900","三峽區"
"237006","5529-G3","2018/07/09 19:29:11","新北市三峽區介壽路一段422號","121.38462","24.931385","6500900","三峽區"
"237011","KEA-2596","2018/07/09 19:29:28","新北市三峽區中正路一段182號","121.372566666667","24.9283816666667","6500900","三峽區"
"237015","649-BX","2018/07/09 19:29:27","新北市三峽區成福路261號","121.427961666667","24.9234966666667","6500900","三峽區"
"237010","706-TV","2018/07/09 19:29:18","新北市三峽區復興路183號","121.368871666667","24.9388083333333","6500900","三峽區"
"237005","AKY-6261","2018/07/09 19:29:32","新北市三峽區復興路367巷1弄1號","121.363611666667","24.938105","6500900","三峽區"
"236069","105-UM","2018/07/09 19:29:27","新北市土城區學府路一段155巷2號","121.453355","24.9856866666667","6501300","土城區"
"236042","107-UM","2018/07/09 19:29:22","新北市土城區學府路一段239號","121.450356666667","24.9834016666667","6501300","土城區"
"236078","166-UM","2018/07/09 19:29:22","新北市土城區中央路四段323號","121.410523333333","24.95108","6501300","土城區"
"236026","269-VK","2018/07/09 19:29:20","新北市土城區中央路二段61巷26號","121.443311666667","24.97864","6501300","土城區"
"236020","401-BY","2018/07/09 19:29:19","新北市土城區明峰街83號","121.468923333333","24.9873166666667","6501300","土城區"
"236059","912-UM","2018/07/09 19:29:13","新北市土城區光明街3號","121.442","24.9747883333333","6501300","土城區"
"236048","913-UM","2018/07/09 19:29:31","新北市土城區清水路200號","121.460416666667","24.9818433333333","6501300","土城區"
"242031","135-UY","2018/07/09 19:29:29","新北市新莊區新泰路225巷22弄5號","121.444903333333","25.0392566666667","6500500","新莊區"
"242048","172-VK","2018/07/09 19:29:23","新北市新莊區後港一路3號","121.424128333333","25.0263483333333","6500500","新莊區"
"242003","176-VK","2018/07/09 19:29:15","新北市新莊區化成路11巷85號","121.462335","25.0434933333333","6500500","新莊區"
"242002","349-TH","2018/07/09 19:29:14","新北市新莊區瓊林南路77-41號","121.437731666667","25.012575","6500500","新莊區"
"242013","351-TH","2018/07/09 19:29:09","新北市新莊區中和街59巷22號","121.446518333333","25.0467383333333","6500500","新莊區"
"238015","755-BX","2018/07/09 19:29:16","新北市樹林區復興路335巷3號","121.418011666667","24.9880833333333","6500700","樹林區"
"238023","601-UM","2018/07/09 19:29:16","新北市樹林區中正路859-1號","121.408888333333","25.0179783333333","6500700","樹林區"
"238019","599-UM","2018/07/09 19:29:22","新北市樹林區八德街29號","121.418255","24.9839916666667","6500700","樹林區"
"238018","571-TV","2018/07/09 19:29:13","新北市樹林區中華路29號","121.423996666667","24.9835733333333","6500700","樹林區"
"238024","5061-A6","2018/07/09 19:29:02","新北市樹林區中山路三段135號","121.396315","24.9731816666667","6500700","樹林區"
"238022","KEA-2213","2018/07/09 19:29:13","新北市樹林區名園街11號","121.419265","24.9795283333333","6500700","樹林區"
"238021","KEA-2539","2018/07/09 19:29:29","新北市三峽區大義路380號","121.376798333333","24.9484783333333","6500700","樹林區"
"238025","303-VK","2018/07/09 19:29:18","新北市樹林區中山路二段46-2號","121.416723333333","24.9846583333333","6500700","樹林區"
"238017","283-BY","2018/07/09 19:29:21","新北市樹林區光興街16號","121.412486666667","25.002915","6500700","樹林區"
"238014","282-BY","2018/07/09 19:29:15","新北市樹林區千歲街4號","121.425076666667","24.9956066666667","6500700","樹林區"
"238020","268-VK","2018/07/09 19:29:13","新北市樹林區俊英街121巷13號","121.423853333333","25.0101516666667","6500700","樹林區"
"238026","172-UY","2018/07/09 19:29:16","新北市樹林區佳園路三段36號","121.387948333333","24.9537583333333","6500700","樹林區"
"238016","169-UY","2018/07/09 19:29:29","新北市樹林區東和街10號","121.404808333333","24.9803433333333","6500700","樹林區"
"239007","AAC-297","2018/07/09 19:29:33","新北市鶯歌區中山路138巷7號","121.350755","24.9589083333333","6500800","鶯歌區"
"239006","891-R6","2018/07/09 19:29:30","新北市鶯歌區鶯桃路91巷42弄2號","121.336941666667","24.9521233333333","6500800","鶯歌區"
"239008","527-UM","2018/07/09 19:29:18","新北市鶯歌區大湖路530巷2-2號","121.338056666667","24.9721533333333","6500800","鶯歌區"
"239001","417-VK","2018/07/09 19:29:27","新北市鶯歌區永智街23號","121.336743333333","24.9546133333333","6500800","鶯歌區"
"239003","360-BY","2018/07/09 19:29:19","新北市鶯歌區中山路201號","121.346943333333","24.9569833333333","6500800","鶯歌區"
"239004","193-VK","2018/07/09 19:29:18","新北市鶯歌區國中街201號","121.33809","24.9389983333333","6500800","鶯歌區"
"221008","489-VK","2018/07/09 19:29:11","新北市汐止區康寧街235號","121.624086666667","25.066765","6501100","汐止區"
"221036","130-UY","2018/07/09 19:29:14","新北市汐止區康寧街901號","121.650745","25.075315","6501100","汐止區"
"221015","131-UY","2018/07/09 19:29:31","新北市汐止區康寧街901號","121.65162","25.0749816666667","6501100","汐止區"
"221010","269-BY","2018/07/09 19:29:25","新北市汐止區連峰街7號","121.646498333333","25.0771466666667","6501100","汐止區"
"221012","278-VK","2018/07/09 19:29:22","新北市汐止區大同路三段271號","121.674015","25.0755816666667","6501100","汐止區"
"221023","279-VK","2018/07/09 19:29:21","新北市汐止區伯爵街2巷5號","121.642248333333","25.0754466666667","6501100","汐止區"
"221027","281-BY","2018/07/09 19:29:19","新北市汐止區忠孝東路9號","121.658306666667","25.0659583333333","6501100","汐止區"
"221029","298-VK","2018/07/09 19:29:17","新北市汐止區康寧街901號","121.651501666667","25.0749333333333","6501100","汐止區"
"221021","299-VK","2018/07/09 19:29:20","新北市汐止區康寧街901號","121.651438333333","25.0750616666667","6501100","汐止區"
"221031","353-TW","2018/07/09 19:29:12","新北市汐止區康寧街901號","121.650858333333","25.075295","6501100","汐止區"
"221025","623-UM","2018/07/09 19:29:11","新北市汐止區秀峰路9號","121.659245","25.066715","6501100","汐止區"
"221038","646-BX","2018/07/09 19:29:16","新北市汐止區汐萬路一段39-3號","121.655023333333","25.0692666666667","6501100","汐止區"
"221033","647-BX","2018/07/09 19:29:17","新北市汐止區南勢街1巷1號","121.627041666667","25.0374516666667","6501100","汐止區"
"221002","707-TV","2018/07/09 19:29:27","新北市汐止區中興路21號","121.636891666667","25.059415","6501100","汐止區"
"220079","145-BY","2018/07/09 19:29:27","新北市板橋區民權路259號","121.457113333333","25.01605","6500100","板橋區"
"220080","200-UY","2018/07/09 19:29:20","新北市板橋區大觀路二段3巷83號","121.45","25.0033066666667","6500100","板橋區"
"220082","610-BX","2018/07/09 19:29:19","新北市板橋區金門街46號","121.432973333333","24.99323","6500100","板橋區"
"220056","276-BY","2018/07/09 19:29:20","新北市板橋區國慶路49巷17號","121.459695","24.9963216666667","6500100","板橋區"
"220071","283-VK","2018/07/09 19:29:31","新北市板橋區忠孝路2號","121.459525","25.001555","6500100","板橋區"
"220094","285-UM","2018/07/09 19:29:27","新北市板橋區吳鳳路38號","121.468476666667","25.0303783333333","6500100","板橋區"
"220053","285-VK","2018/07/09 19:29:25","新北市板橋區永豐街102號","121.475946666667","25.0205833333333","6500100","板橋區"
"220083","286-VK","2018/07/09 19:29:22","新北市板橋區龍興街71巷13-2號","121.443223333333","25.00208","6500100","板橋區"
"220081","287-VK","2018/07/09 19:29:29","新北市板橋區大觀路一段28巷1弄102號","121.451848333333","25.0063716666667","6500100","板橋區"
"220090","288-VK","2018/07/09 19:29:30","新北市板橋區長江路一段106巷12弄9號","121.459828333333","25.0287166666667","6500100","板橋區"
"220061","293-UM","2018/07/09 19:29:24","新北市板橋區中山路二段84-7號","121.474973333333","25.01628","6500100","板橋區"
"220084","296-UM","2018/07/09 19:29:19","新北市板橋區滿平街84巷110弄26號","121.42582","24.9857766666667","6500100","板橋區"
"220075","303-R5","2018/07/09 19:29:18","新北市板橋區中正路253巷72弄1-5號","121.452716666667","25.017275","6500100","板橋區"
"220062","305-R5","2018/07/09 19:29:25","新北市板橋區三民路二段95巷24號","121.480561666667","25.0162083333333","6500100","板橋區"
"220092","307-R5","2018/07/09 19:29:19","新北市板橋區松江街18號","121.46918","25.0264316666667","6500100","板橋區"
"220098","317-R6","2018/07/09 19:29:26","新北市板橋區民生路三段263巷7號","121.463505","25.029045","6500100","板橋區"
"220064","486-VK","2018/07/09 19:29:24","新北市板橋區中山路一段100號","121.4622","25.010325","6500100","板橋區"
"220088","491-VK","2018/07/09 19:29:16","新北市板橋區文化路二段318號","121.472516666667","25.02966","6500100","板橋區"
"220035","560-BX","2018/07/09 19:29:19","新北市板橋區中正路431號","121.454136666667","25.023165","6500100","板橋區"
"220103","561-BX","2018/07/09 19:29:32","新北市板橋區文化路一段220號","121.466726666667","25.02063","6500100","板橋區"
"220072","568-UM","2018/07/09 19:29:22","新北市板橋區篤行路二段143號","121.429965","24.9881216666667","6500100","板橋區"
"220063","609-BX","2018/07/09 19:29:29","新北市板橋區三民路一段31巷89弄4號","121.481571666667","25.023415","6500100","板橋區"
"220086","630-UY","2018/07/09 19:29:25","新北市板橋區中正路236巷18號","121.456576666667","25.0190883333333","6500100","板橋區"
"220091","637-BX","2018/07/09 19:29:24","新北市板橋區文聖街149巷23弄16號","121.479281666667","25.0288783333333","6500100","板橋區"
"220057","686-BX","2018/07/09 19:29:17","新北市板橋區和平路185巷1號","121.463928333333","24.996365","6500100","板橋區"
"220093","689-BX","2018/07/09 19:29:29","新北市板橋區英士路49-1號","121.46115","25.02451","6500100","板橋區"
"220054","741-BX","2018/07/09 19:29:24","新北市板橋區光明街104號","121.462873333333","25.0029816666667","6500100","板橋區"
"220102","KEA-2699","2018/07/09 19:29:27","新北市板橋區松柏街1巷17號","121.473225","25.0299466666667","6500100","板橋區"
"220077","806-UM","2018/07/09 19:29:25","新北市板橋區僑中二街114巷1號","121.44569","25.00664","6500100","板橋區"
"220055","827-TW","2018/07/09 19:29:26","新北市板橋區重慶路278巷1號","121.462795","24.99965","6500100","板橋區"
"220067","829-TW","2018/07/09 19:29:16","新北市板橋區漢生東路338號","121.471833333333","25.0077","6500100","板橋區"
"220096","830-TW","2018/07/09 19:29:30","新北市板橋區雙十路二段55號","121.476501666667","25.0264616666667","6500100","板橋區"
"220089","833-TW","2018/07/09 19:29:29","新北市板橋區民權路170巷2號","121.459805","25.0129816666667","6500100","板橋區"
"220074","895-R6","2018/07/09 19:29:22","新北市板橋區中正路1巷18-1號","121.455136666667","25.0115866666667","6500100","板橋區"
"220073","985-R7","2018/07/09 19:29:21","新北市板橋區中正路212號","121.455995","25.0182283333333","6500100","板橋區"
"220097","AAC-210","2018/07/09 19:29:17","新北市板橋區漢生西路151巷1號","121.463","25.02221","6500100","板橋區"
"220070","AAC-253","2018/07/09 19:29:21","新北市板橋區四川路一段6號","121.459353333333","25.0068783333333","6500100","板橋區"
"235068","KEA-2873","2018/07/09 19:29:20","新北市中和區連勝街57巷11號","121.49794","24.9968416666667","6500300","中和區"
"235061","KEA-2875","2018/07/09 19:29:25","新北市中和區民利街41號","121.479715","24.99894","6500300","中和區"
