"lineid","car","time","location","longitude","latitude","cityid","cityname"
"234077","969-R7","2018/07/09 21:09:21","新北市八里區中山路三段409號","121.368746666667","25.1343166666667","6500400","永和區"
"222002","016-RS","2018/07/09 21:09:29","新北市深坑區深南路88巷1號","121.62094","25.0117","6501800","深坑區"
"231059","046-UY","2018/07/09 21:09:16","新北市新店區僑信路25號","121.499446666667","24.9511916666667","6500600","新店區"
"231040","047-UY","2018/07/09 21:09:25","新北市新店區北新路一段351號","121.541966666667","24.9692416666667","6500600","新店區"
"231065","110-UY","2018/07/09 21:09:27","新北市新店區安祥路69巷52弄1號","121.48187","24.95985","6500600","新店區"
"231047","187-VK","2018/07/09 21:09:17","新北市新店區中興路三段156號","121.544548333333","24.9806483333333","6500600","新店區"
"231054","KEA-2219","2018/07/09 21:09:32","新北市新店區大新街7巷36號","121.544151666667","24.9678666666667","6500600","新店區"
"231042","268-BY","2018/07/09 21:09:21","新北市新店區寶興路62巷4號","121.549948333333","24.9717516666667","6500600","新店區"
"231051","278-BY","2018/07/09 21:09:16","新北市新店區中正路700巷26號","121.535403333333","24.9911083333333","6500600","新店區"
"231050","AAD-862","2018/07/09 21:09:19","新北市新店區中華路83巷2弄2號","121.539111666667","24.9686083333333","6500600","新店區"
"231066","4716-K9","2018/07/09 21:09:28","新北市新店區薏仁坑路自強巷1號","121.496895","24.95809","6500600","新店區"
"231067","4772-VM","2018/07/09 21:09:18","新北市新店區安德街130巷11號","121.508208333333","24.9607483333333","6500600","新店區"
"231063","616-UM","2018/07/09 21:09:23","新北市新店區玫瑰路60巷1號","121.495626666667","24.94629","6500600","新店區"
"231061","619-UM","2018/07/09 21:09:28","新北市新店區永安街28-2號","121.517515","24.9865016666667","6500600","新店區"
"231062","720-UM","2018/07/09 21:09:27","新北市新店區雙城路60巷13號","121.491941666667","24.9476233333333","6500600","新店區"
"231060","897-TW","2018/07/09 21:09:17","新北市新店區安康路二段345號","121.496083333333","24.9549716666667","6500600","新店區"
"241011","013-R5","2018/07/09 21:09:23","新北市三重區龍濱路231號","121.501593333333","25.072225","6500200","三重區"
"241028","022-UY","2018/07/09 21:09:33","新北市三重區正義南路60-1號","121.498323333333","25.0605733333333","6500200","三重區"
"241008","059-VK","2018/07/09 21:09:27","新北市三重區三和路三段8號","121.497028333333","25.0701466666667","6500200","三重區"
"241031","061-VK","2018/07/09 21:09:19","新北市三重區重新路五段283號","121.478958333333","25.0490716666667","6500200","三重區"
"241015","062-VK","2018/07/09 21:09:30","新北市三重區長元街96-5號","121.502673333333","25.0666233333333","6500200","三重區"
"241017","063-VK","2018/07/09 21:09:22","新北市三重區國隆路31號","121.492231666667","25.0644883333333","6500200","三重區"
"241024","065-VK","2018/07/09 21:09:19","新北市三重區大勇街82巷15弄30號","121.48119","25.072","6500200","三重區"
"241026","066-VK","2018/07/09 21:09:20","新北市三重區環河南路118號","121.497983333333","25.056055","6500200","三重區"
"241002","090-VK","2018/07/09 21:09:20","新北市三重區五華街1巷84號","121.49705","25.080505","6500200","三重區"
"241003","091-VK","2018/07/09 21:09:30","新北市三重區仁義街417號","121.494186666667","25.0861283333333","6500200","三重區"
"241032","742-BX","2018/07/09 21:09:14","新北市三重區疏洪西路246號","121.475685","25.0616066666667","6500200","三重區"
"241005","262-UM","2018/07/09 21:09:16","新北市三重區五華街213號","121.489528333333","25.0858216666667","6500200","三重區"
"241016","266-UM","2018/07/09 21:09:18","新北市三重區信義西街90號","121.496665","25.0642783333333","6500200","三重區"
"241009","267-UM","2018/07/09 21:09:24","新北市三重區忠孝路二段121號","121.483028333333","25.069","6500200","三重區"
"241018","268-UM","2018/07/09 21:09:28","新北市三重區正義北路302巷38號","121.494145","25.069495","6500200","三重區"
"241013","270-UM","2018/07/09 21:09:34","新北市三重區仁愛街88號","121.495505","25.07384","6500200","三重區"
"241025","271-UM","2018/07/09 21:09:32","新北市三重區忠孝路三段40巷16弄10號","121.482296666667","25.06691","6500200","三重區"
"241007","398-BY","2018/07/09 21:09:21","新北市三重區三和路四段145巷85號","121.486446666667","25.07864","6500200","三重區"
"241020","413-TH","2018/07/09 21:09:23","新北市三重區忠孝路二段34號","121.485956666667","25.070985","6500200","三重區"
"241004","475-VK","2018/07/09 21:09:28","新北市三重區仁愛街418號","121.490423333333","25.08137","6500200","三重區"
"241030","480-VK","2018/07/09 21:09:20","新北市三重區五谷王北街20巷15弄1號","121.475061666667","25.0484316666667","6500200","三重區"
"241014","543-UM","2018/07/09 21:09:18","新北市三重區三和路二段37-8號","121.501313333333","25.0675733333333","6500200","三重區"
"241023","545-UM","2018/07/09 21:09:21","新北市三重區忠孝路三段84巷63號","121.482321666667","25.0636616666667","6500200","三重區"
"241001","547-UM","2018/07/09 21:09:30","新北市三重區自強路三段93號","121.487405","25.0749483333333","6500200","三重區"
"241019","KEA-2593","2018/07/09 21:09:29","新北市三重區自強路二段74巷21號","121.487988333333","25.069875","6500200","三重區"
"241006","AAD-863","2018/07/09 21:09:28","新北市三重區民生街76號","121.490248333333","25.06476","6500200","三重區"
"241022","887-TS","2018/07/09 21:09:16","新北市三重區中正北路64巷20號","121.4862","25.0638683333333","6500200","三重區"
"241012","941-UM","2018/07/09 21:09:28","新北市三重區仁信街27號","121.50127","25.0755316666667","6500200","三重區"
"241029","942-UM","2018/07/09 21:09:23","新北市三重區正義南路111號","121.498246666667","25.0585066666667","6500200","三重區"
"241033","AAC-255","2018/07/09 21:09:20","新北市三重區重光街72-1號","121.466331666667","25.0632483333333","6500200","三重區"
"247024","893-R6","2018/07/09 21:09:14","新北市蘆洲區長興路50巷1號","121.463773333333","25.0837883333333","6501400","蘆洲區"
"247014","546-UM","2018/07/09 21:09:21","新北市蘆洲區中央路155號","121.472653333333","25.0846883333333","6501400","蘆洲區"
"247022","500-BY","2018/07/09 21:09:26","新北市蘆洲區民族路538號","121.468008333333","25.0892433333333","6501400","蘆洲區"
"247010","341-TH","2018/07/09 21:09:14","新北市蘆洲區三民路26巷26弄1號","121.477751666667","25.083035","6501400","蘆洲區"
"247012","339-TH","2018/07/09 21:09:20","新北市蘆洲區民權路6-1號","121.476928333333","25.0855683333333","6501400","蘆洲區"
"247004","337-TH","2018/07/09 21:09:23","新北市蘆洲區永安南路二段276號","121.458173333333","25.08082","6501400","蘆洲區"
"247006","336-TH","2018/07/09 21:09:33","新北市蘆洲區永安南路二段16巷18號","121.467963333333","25.07779","6501400","蘆洲區"
"247018","057-VK","2018/07/09 21:09:14","新北市蘆洲區民族路408巷5弄4號","121.474565","25.0921833333333","6501400","蘆洲區"
"247008","056-VK","2018/07/09 21:09:24","新北市蘆洲區民生街26號","121.474956666667","25.0789416666667","6501400","蘆洲區"
"247016","007-UY","2018/07/09 21:09:23","新北市蘆洲區光華路162巷8弄2號","121.465265","25.0826366666667","6501400","蘆洲區"
"247002","002-UY","2018/07/09 21:09:28","新北市蘆洲區長榮路309-1號","121.459071666667","25.0899566666667","6501400","蘆洲區"
"247020","001-UY","2018/07/09 21:09:16","新北市蘆洲區民族路484號","121.471158333333","25.0914416666667","6501400","蘆洲區"
"251015","008-UM","2018/07/09 21:09:24","新北市淡水區淡金路四段542巷59號","121.454763333333","25.2269316666667","6501000","淡水區"
"251013","KEA-2871","2018/07/09 21:09:25","新北市淡水區中洲(子)6號","121.470228333333","25.20106","6501000","淡水區"
"251016","179-VK","2018/07/09 21:09:31","新北市淡水區前洲子2號","121.444961666667","25.2169666666667","6501000","淡水區"
"251014","180-VK","2018/07/09 21:09:25","新北市淡水區六塊厝2-6號","121.449538333333","25.241875","6501000","淡水區"
"251010","413-VK","2018/07/09 21:09:27","新北市淡水區中正路一段63巷7弄2號","121.423041666667","25.1772683333333","6501000","淡水區"
"251012","441-VK","2018/07/09 21:09:19","新北市淡水區淡金路五段172號","121.456905","25.2400483333333","6501000","淡水區"
"251007","442-VK","2018/07/09 21:09:14","新北市淡水區仁愛街1號","121.44583","25.17042","6501000","淡水區"
"251005","443-VK","2018/07/09 21:09:27","新北市淡水區博愛街22號","121.446141666667","25.16969","6501000","淡水區"
"251001","559-UM","2018/07/09 21:09:23","新北市淡水區新市一路三段101巷16弄3號","121.446571666667","25.184055","6501000","淡水區"
"251009","575-R6","2018/07/09 21:09:21","新北市淡水區民族路112巷34號","121.46195","25.134545","6501000","淡水區"
"251011","650-BX","2018/07/09 21:09:27","新北市淡水區新民街180巷7弄25號","121.436963333333","25.17994","6501000","淡水區"
"251002","672-BX","2018/07/09 21:09:27","新北市淡水區水源街一段145號","121.447373333333","25.17181","6501000","淡水區"
"251003","766-UM","2018/07/09 21:09:24","新北市淡水區新春街120號","121.439891666667","25.1822683333333","6501000","淡水區"
"242009","132-UY","2018/07/09 21:09:23","新北市新莊區幸福路10號","121.459228333333","25.0496333333333","6500500","新莊區"
"221036","130-UY","2018/07/09 21:09:34","新北市汐止區汐萬路一段256巷3號","121.653371666667","25.0746966666667","6501100","汐止區"
"221029","298-VK","2018/07/09 21:09:16","新北市汐止區康寧街901號","121.651641666667","25.0748583333333","6501100","汐止區"
"220070","AAC-253","2018/07/09 21:09:21","新北市林口區太平里180號","121.368315","25.1346883333333","6500100","板橋區"
