"lineid","car","time","location","longitude","latitude","cityid","cityname"
"241002","090-VK","2018/07/09 22:09:20","新北市八里區荖阡坑路20-9號","121.398428333333","25.1376316666667","6500200","三重區"
"241006","AAD-863","2018/07/09 22:09:27","新北市五股區中興路三段2巷10號","121.449023333333","25.0809066666667","6500200","三重區"
"235010","733-UM","2018/07/09 21:42:21","新北市中和區員山路36巷13號","121.48421","24.9908133333333","6500300","中和區"
"251015","008-UM","2018/07/09 22:09:24","新北市淡水區下圭柔山90-8號","121.4313","25.210215","6501000","淡水區"
"251004","009-UM","2018/07/09 22:09:23","新北市淡水區民族路33號","121.462363333333","25.1357583333333","6501000","淡水區"
"251008","181-VK","2018/07/09 22:09:19","新北市淡水區學府路104號","121.449936666667","25.171825","6501000","淡水區"
"251010","413-VK","2018/07/09 22:09:26","新北市淡水區沙崙路200號","121.424681666667","25.1838983333333","6501000","淡水區"
"251007","442-VK","2018/07/09 22:09:14","新北市淡水區北新路188號","121.449595","25.1788783333333","6501000","淡水區"
"251005","443-VK","2018/07/09 22:09:27","新北市淡水區忠愛街4號","121.45941","25.1713633333333","6501000","淡水區"
"251001","559-UM","2018/07/09 22:09:23","新北市淡水區後洲路一段62號","121.429488333333","25.2017583333333","6501000","淡水區"
"251011","650-BX","2018/07/09 22:09:26","新北市淡水區水碓街7號","121.443188333333","25.177205","6501000","淡水區"
