"lineid","car","time","location","longitude","latitude","cityid","cityname"
"234066","AAC-212","2018/07/09 22:13:43","新北市永和區福和路1號","121.526461666667","25.0095933333333","6500400","永和區"
"241002","090-VK","2018/07/09 22:29:20","新北市五股區中興路三段163號","121.449105","25.0807166666667","6500200","三重區"
"241006","AAD-863","2018/07/09 22:29:27","新北市五股區中興路三段2巷10號","121.448833333333","25.081115","6500200","三重區"
"247005","336-TH","2018/07/09 22:29:33","新北市五股區中興路三段163號","121.449311666667","25.08039","6501400","蘆洲區"
"251015","008-UM","2018/07/09 22:15:16","新北市淡水區下圭柔山91-3號","121.431026666667","25.2095016666667","6501000","淡水區"
"251004","009-UM","2018/07/09 22:29:23","新北市淡水區民族路33號","121.46221","25.135775","6501000","淡水區"
"251008","181-VK","2018/07/09 22:29:19","新北市淡水區學府路104號","121.449936666667","25.1718883333333","6501000","淡水區"
"251010","413-VK","2018/07/09 22:29:26","新北市淡水區沙崙路200號","121.424706666667","25.1839133333333","6501000","淡水區"
"251007","442-VK","2018/07/09 22:29:14","新北市淡水區北新路186-3號","121.449613333333","25.17876","6501000","淡水區"
"251001","559-UM","2018/07/09 22:29:23","新北市淡水區下圭柔山90-8號","121.431191666667","25.2103066666667","6501000","淡水區"
"251011","650-BX","2018/07/09 22:29:26","新北市淡水區水碓街7號","121.443196666667","25.17717","6501000","淡水區"
