"lineid","car","time","location","longitude","latitude","cityid","cityname"
"243001","297-R6","2018/10/30 21:11:44","新北市泰山區黎明路25號","121.42184","25.06083","6501600","泰山區"
"243006","680-BX","2018/10/30 21:05:21","新北市泰山區黎明路25號","121.422223333333","25.0607316666667","6501600","泰山區"
"231063","641-BX","2018/10/30 21:32:59","新北市新店區如意街28號","121.493705","24.94833","6500600","新店區"
"241017","063-VK","2018/10/30 21:32:58","新北市三重區新北大道一段3-1號","121.490086666667","25.061385","6500200","三重區"
"241024","065-VK","2018/10/30 21:33:12","新北市三重區忠孝路三段49號","121.481173333333","25.0667083333333","6500200","三重區"
"241005","262-UM","2018/10/30 21:33:04","新北市三重區碧華街3號","121.483603333333","25.081185","6500200","三重區"
"241013","270-UM","2018/10/30 21:32:57","新北市三重區環河南路290號","121.48887","25.0479333333333","6500200","三重區"
"241007","398-BY","2018/10/30 21:32:55","新北市三重區新北大道一段3-1號","121.490338333333","25.0614316666667","6500200","三重區"
"247012","KEA-2869","2018/10/30 21:32:54","新北市蘆洲區長安街375巷35號","121.455461666667","25.0879883333333","6501400","蘆洲區"
"251005","010-UM","2018/10/30 21:33:02","新北市淡水區水源街一段34巷9號","121.443206666667","25.17183","6501000","淡水區"
"251001","011-UM","2018/10/30 21:32:53","新北市淡水區新市二路三段22號","121.433068333333","25.192995","6501000","淡水區"
"251013","KEA-2871","2018/10/30 21:32:59","新北市淡水區埤島58-9號","121.457135","25.1952483333333","6501000","淡水區"
"251016","179-VK","2018/10/30 21:33:12","新北市淡水區牛埔子10-1號","121.449876666667","25.2184383333333","6501000","淡水區"
"251014","180-VK","2018/10/30 21:33:10","新北市淡水區溪口29號","121.454383333333","25.23621","6501000","淡水區"
"251008","181-VK","2018/10/30 21:33:09","新北市淡水區水源街二段118號","121.452771666667","25.174615","6501000","淡水區"
"251015","182-VK","2018/10/30 21:33:02","新北市淡水區淡金路三段194號","121.448811666667","25.2034566666667","6501000","淡水區"
"251010","413-VK","2018/10/30 21:33:04","新北市淡水區淡海路111號","121.421968333333","25.18251","6501000","淡水區"
"251012","441-VK","2018/10/30 21:33:04","新北市淡水區淡金路四段567號","121.451528333333","25.2304233333333","6501000","淡水區"
"251007","442-VK","2018/10/30 21:32:56","新北市淡水區水源街二段194號","121.456903333333","25.1760966666667","6501000","淡水區"
"251004","443-VK","2018/10/30 21:32:55","新北市淡水區民生路11號","121.460573333333","25.137825","6501000","淡水區"
"251006","561-UM","2018/10/30 21:33:06","新北市淡水區公明街58號","121.443486666667","25.1686416666667","6501000","淡水區"
"251009","575-R6","2018/10/30 21:33:09","新北市淡水區民族路29巷3弄19號","121.464076666667","25.1371733333333","6501000","淡水區"
"251011","650-BX","2018/10/30 21:33:01","新北市淡水區新民街180-8號","121.436593333333","25.1790816666667","6501000","淡水區"
"251003","766-UM","2018/10/30 21:33:09","新北市淡水區新春街65巷12號","121.437973333333","25.1823966666667","6501000","淡水區"
"220070","AAC-253","2018/10/30 21:32:58","新北市板橋區華東街1-9號","121.448241666667","24.9948466666667","6500100","板橋區"
