"lineid","car","time","location","longitude","latitude","cityid","cityname"
"234040","862-TW","2018/10/30 21:43:31","新北市永和區福和路1號","121.526341666667","25.0097316666667","6500400","永和區"
"247012","KEA-2869","2018/10/30 21:49:14","新北市八里區中山路三段382號","121.368605","25.135855","6501400","蘆洲區"
"235010","733-UM","2018/10/30 21:43:00","新北市中和區員山路36巷13號","121.484163333333","24.9908283333333","6500300","中和區"
"251005","010-UM","2018/10/30 21:49:02","新北市淡水區鄧公路30巷6號","121.452818333333","25.1698116666667","6501000","淡水區"
"251001","011-UM","2018/10/30 21:49:13","新北市淡水區崁頂二路250號","121.435775","25.1968433333333","6501000","淡水區"
"251002","012-UM","2018/10/30 21:49:14","新北市淡水區學府路211-2號","121.447255","25.17641","6501000","淡水區"
"251008","181-VK","2018/10/30 21:48:58","新北市淡水區學府路96號","121.44965","25.1715466666667","6501000","淡水區"
"251010","413-VK","2018/10/30 21:49:04","新北市淡水區中正路二段211號","121.42623","25.189135","6501000","淡水區"
"251012","441-VK","2018/10/30 21:49:04","新北市淡水區淡金路三段254號","121.448968333333","25.2063183333333","6501000","淡水區"
"251007","442-VK","2018/10/30 21:48:56","新北市淡水區水源街二段177巷78號","121.452485","25.1775283333333","6501000","淡水區"
"251004","443-VK","2018/10/30 21:48:54","新北市淡水區自強路201巷39號","121.462175","25.1267666666667","6501000","淡水區"
"251006","561-UM","2018/10/30 21:49:06","新北市淡水區中正路11巷3號","121.437831666667","25.1707583333333","6501000","淡水區"
"251009","575-R6","2018/10/30 21:49:09","新北市淡水區民族路35巷46號","121.465405","25.137355","6501000","淡水區"
"251011","650-BX","2018/10/30 21:49:01","新北市淡水區新民街322巷5弄6號","121.436415","25.1828833333333","6501000","淡水區"
"251003","766-UM","2018/10/30 21:49:09","新北市淡水區新春街88號","121.438786666667","25.18231","6501000","淡水區"
"220070","AAC-253","2018/10/30 21:45:19","新北市板橋區華東街1-9號","121.448236666667","24.9948433333333","6500100","板橋區"
