"lineid","car","time","location","longitude","latitude","cityid","cityname"
"248005","653-BX","2018/02/22 09:19:21","新北市五股區明德路6號","121.433881666667","25.0712416666667","6501500","五股區"
"244012","069-UM","2018/02/22 09:19:28","新北市林口區中正路451號","121.384575","25.0776866666667","6501700","林口區"
"244006","080-UY","2018/02/22 09:19:18","新北市林口區湖子11號","121.387093333333","25.0890683333333","6501700","林口區"
"244003","248-BX","2018/02/22 09:19:08","新北市林口區湖南里70-9號","121.375641666667","25.0898383333333","6501700","林口區"
"244018","402-UM","2018/02/22 09:19:15","新北市林口區忠孝路581巷7號","121.374921666667","25.0689083333333","6501700","林口區"
"244022","483-VK","2018/02/22 09:19:26","新北市林口區仁愛路二段8號","121.385871666667","25.0763666666667","6501700","林口區"
"244016","485-VK","2018/02/22 09:19:13","新北市林口區文化二路一段20巷25弄61號","121.366081666667","25.0676966666667","6501700","林口區"
"244009","657-BX","2018/02/22 09:19:15","新北市林口區竹林路278巷2號","121.3904","25.0817266666667","6501700","林口區"
"244010","701-TV","2018/02/22 09:19:25","新北市林口區仁愛路一段356號","121.390363333333","25.0765933333333","6501700","林口區"
"222006","289-BY","2018/02/22 09:19:28","新北市深坑區北深路一段234號","121.630083333333","25.0088183333333","6501800","深坑區"
"231069","189-VK","2018/02/22 09:18:11","新北市新店區新潭路三段215巷25號","121.508128333333","24.9040716666667","6500600","新店區"
"231008","192-VK","2018/02/22 09:19:13","新北市新店區廣興路60巷1-1號","121.539376666667","24.9142483333333","6500600","新店區"
"223001","205-TH","2018/02/22 09:19:09","新北市石碇區北宜路四段26號","121.623156666667","24.9579166666667","6501900","石碇區"
"223008","406-TH","2018/02/22 09:19:18","新北市石碇區光明路28號","121.695251666667","25.0238016666667","6501900","石碇區"
"223001","592-UM","2018/02/22 09:19:26","新北市石碇區北宜路四段25號","121.623061666667","24.957915","6501900","石碇區"
"223004","660-BX","2018/02/22 09:19:25","新北市石碇區碇坪路二段22號","121.687221666667","24.9740183333333","6501900","石碇區"
"223007","661-BX","2018/02/22 09:19:15","新北市石碇區光明路28號","121.695311666667","25.0237616666667","6501900","石碇區"
"223005","677-TV","2018/02/22 09:19:16","新北市石碇區大崙15號","121.687871666667","24.9795833333333","6501900","石碇區"
"252004","249-BX","2018/02/22 09:19:29","新北市三芝區店子里店子52號","121.502838333333","25.2060933333333","6502100","三芝區"
"252007","AAC-283","2018/02/22 09:19:28","新北市三芝區古庄里山豬堀14-2號","121.492228333333","25.2600133333333","6502100","三芝區"
"237001","159-UY","2018/02/22 09:19:19","新北市三峽區隆恩街245號","121.357743333333","24.94094","6500900","三峽區"
"236009","165-UM","2018/02/22 09:19:26","新北市土城區中山路55號","121.423006666667","24.96341","6501300","土城區"
"236005","498-BY","2018/02/22 09:19:18","新北市土城區中央路三段126巷32號","121.43439","24.9676166666667","6501300","土城區"
"242028","986-R7","2018/02/22 09:19:19","新北市新莊區昌隆街15號","121.454248333333","25.0512533333333","6500500","新莊區"
"242049","751-BX","2018/02/22 09:19:23","新北市新莊區民安西路189巷28號","121.427191666667","25.0152883333333","6500500","新莊區"
"242022","705-TV","2018/02/22 09:19:15","新北市新莊區化成路940號","121.464843333333","25.0628566666667","6500500","新莊區"
"242024","615-BX","2018/02/22 09:19:15","新北市新莊區五工三路62巷14號","121.459881666667","25.0649716666667","6500500","新莊區"
"242026","612-BX","2018/02/22 09:19:23","新北市新莊區幸福路14號","121.459148333333","25.0494833333333","6500500","新莊區"
"242038","566-BX","2018/02/22 09:19:16","新北市新莊區民安路201號","121.426295","25.0224033333333","6500500","新莊區"
"242043","497-BY","2018/02/22 09:19:09","新北市新莊區中正路929巷7弄23號","121.411761666667","25.0198783333333","6500500","新莊區"
"242052","440-UM","2018/02/22 09:19:10","新北市新莊區民安西路229巷9號","121.426715","25.0143083333333","6500500","新莊區"
"242033","415-TV","2018/02/22 09:19:24","新北市新莊區建中街116巷3弄2號","121.445546666667","25.0371883333333","6500500","新莊區"
"242003","413-TV","2018/02/22 09:19:24","新北市新莊區頭興街112號","121.462385","25.0536683333333","6500500","新莊區"
"242040","400-BY","2018/02/22 09:19:27","新北市新莊區天祥街47巷12號","121.416216666667","25.0281316666667","6500500","新莊區"
"242059","362-BY","2018/02/22 09:19:18","新北市新莊區新樹路255-2號","121.434721666667","25.0218116666667","6500500","新莊區"
"242057","353-BY","2018/02/22 09:19:25","新北市新莊區八德街160號","121.42355","25.0197716666667","6500500","新莊區"
"242006","132-UY","2018/02/22 09:19:10","新北市新莊區思源路287巷2弄12號","121.45937","25.0485666666667","6500500","新莊區"
"242035","133-UY","2018/02/22 09:19:25","新北市新莊區建安街26巷2號","121.428871666667","25.02601","6500500","新莊區"
"242020","135-UY","2018/02/22 09:19:22","新北市新莊區公園路22號","121.44839","25.0390666666667","6500500","新莊區"
"242045","172-VK","2018/02/22 09:19:24","新北市新莊區裕民街90巷16號","121.418171666667","25.023755","6500500","新莊區"
"242014","175-VK","2018/02/22 09:19:12","新北市新莊區中平路82巷7號","121.445281666667","25.0450033333333","6500500","新莊區"
"242001","176-VK","2018/02/22 09:19:22","新北市新莊區中正路82-1號","121.45694","25.0378366666667","6500500","新莊區"
"242001","233-RS","2018/02/22 09:11:16","新北市新莊區環河路48-7號","121.436905","25.00982","6500500","新莊區"
"242012","346-TH","2018/02/22 09:19:25","新北市新莊區中和街175巷11號","121.447208333333","25.0506283333333","6500500","新莊區"
"242018","348-TH","2018/02/22 09:19:30","新北市新莊區銘德街49巷17號","121.457428333333","25.042715","6500500","新莊區"
"242055","349-TH","2018/02/22 09:19:10","新北市新莊區景德路382號","121.446293333333","25.03358","6500500","新莊區"
"242016","350-TH","2018/02/22 09:17:41","新北市新莊區瓊林路59-13號","121.442115","25.025165","6500500","新莊區"
"242010","351-TH","2018/02/22 09:19:17","新北市新莊區中榮街82號","121.448076666667","25.052585","6500500","新莊區"
"242047","281-VK","2018/02/22 09:19:22","新北市新莊區四維路152巷14號","121.422133333333","25.0230233333333","6500500","新莊區"
"242030","280-VK","2018/02/22 09:19:24","新北市新莊區公園一路35號","121.443281666667","25.0354783333333","6500500","新莊區"
