"lineid","car","time","location","longitude","latitude","cityid","cityname"
"248005","653-BX","2018/02/22 10:17:27","新北市五股區成泰路二段252號","121.44059","25.0871683333333","6501500","五股區"
"244022","483-VK","2018/02/22 10:17:26","新北市林口區文化三路二段1-1號","121.372463333333","25.0784516666667","6501700","林口區"
"222006","289-BY","2018/02/22 10:17:08","新北市深坑區大崙尾11號","121.614295","24.9794833333333","6501800","深坑區"
"231069","189-VK","2018/02/22 10:17:11","新北市新店區新潭路三段130-1號","121.510025","24.9099516666667","6500600","新店區"
"231008","192-VK","2018/02/22 10:17:13","新北市新店區小坑一路22號","121.531533333333","24.9134716666667","6500600","新店區"
"252007","AAC-283","2018/02/22 10:17:28","新北市三芝區古庄里茂興店74號","121.493058333333","25.2667716666667","6502100","三芝區"
"237001","159-UY","2018/02/22 10:17:19","新北市三峽區國學街24號","121.373143333333","24.941975","6500900","三峽區"
"236003","339-SR","2018/02/22 10:17:20","新北市土城區中華路二段196號","121.437518333333","24.9703316666667","6501300","土城區"
