"lineid","car","time","location","longitude","latitude","cityid","cityname"
"248005","653-BX","2018/02/22 10:27:27","新北市五股區中興路二段37巷24號","121.46062","25.0751216666667","6501500","五股區"
"244022","483-VK","2018/02/22 10:27:26","新北市林口區文化北路二段234號","121.372946666667","25.08559","6501700","林口區"
"222006","289-BY","2018/02/22 10:27:28","新北市深坑區向天湖12號","121.619673333333","24.9906116666667","6501800","深坑區"
"231069","189-VK","2018/02/22 10:27:11","新北市新店區新潭路三段116號","121.50684","24.90983","6500600","新店區"
"231008","192-VK","2018/02/22 10:26:33","新北市新店區小坑一路97巷1號","121.528231666667","24.905165","6500600","新店區"
"252007","AAC-283","2018/02/22 10:27:28","新北市三芝區新庄里番社后24-2號","121.501323333333","25.2717383333333","6502100","三芝區"
