"lineid","car","time","location","longitude","latitude","cityid","cityname"
"244019","402-UM","2018/02/22 10:49:17","新北市林口區粉寮69號","121.405088333333","25.090805","6501700","林口區"
"222006","289-BY","2018/02/22 10:49:08","新北市深坑區阿柔洋63-2號","121.60644","24.9953083333333","6501800","深坑區"
"231069","189-VK","2018/02/22 10:49:31","新北市新店區新潭路二段62巷51號","121.523158333333","24.9262716666667","6500600","新店區"
"231008","192-VK","2018/02/22 10:49:13","新北市新店區新烏路二段300號","121.548445","24.912965","6500600","新店區"
"235028","005-UY","2018/02/22 10:45:43","新北市中和區員山路36巷16-3號","121.484811666667","24.9917366666667","6500300","中和區"
"242001","233-RS","2018/02/22 10:49:18","新北市新莊區環河路48-7號","121.437098333333","25.0100983333333","6500500","新莊區"
