"lineid","car","time","location","longitude","latitude","cityid","cityname"
"234044","148-BY","2018/02/22 12:39:44","新北市永和區永元路68號","121.522535","25.0015666666667","6500400","永和區"
"234066","149-BY","2018/02/22 12:39:30","新北市永和區中正路399號","121.517256666667","25.0043416666667","6500400","永和區"
"234005","207-UY","2018/02/22 12:39:30","新北市永和區福和路1號","121.525538333333","25.0095033333333","6500400","永和區"
"234078","298-R6","2018/02/22 12:39:39","新北市永和區林森路68號","121.52384","25.00398","6500400","永和區"
"234036","336-UY","2018/02/22 12:39:31","新北市永和區福和路1號","121.526223333333","25.0099083333333","6500400","永和區"
"234084","338-UY","2018/02/22 12:39:30","新北市中和區安平路38號","121.509768333333","24.9949033333333","6500400","永和區"
"234068","552-UM","2018/02/22 12:39:33","新北市永和區福和路1號","121.52562","25.0092933333333","6500400","永和區"
"234028","746-BX","2018/02/22 12:39:44","新北市永和區環河東路二段92號","121.524436666667","25.0106116666667","6500400","永和區"
"234012","KEA-2591","2018/02/22 12:39:44","新北市永和區保福路二段109巷2號","121.510193333333","25.01345","6500400","永和區"
"234060","AAD-866","2018/02/22 12:39:36","新北市永和區福和路1號","121.525871666667","25.0093066666667","6500400","永和區"
"234040","862-TW","2018/02/22 12:39:46","新北市永和區永和路一段70號","121.512978333333","25.0062083333333","6500400","永和區"
"234048","863-TW","2018/02/22 12:39:35","新北市永和區福和路1號","121.52649","25.0098383333333","6500400","永和區"
"234025","9371-KE","2018/02/22 12:39:42","新北市永和區福和路1號","121.526343333333","25.009665","6500400","永和區"
"234010","9373-KE","2018/02/22 12:39:29","新北市永和區環河西路一段95巷2號","121.512113333333","25.018005","6500400","永和區"
"248015","026-BX","2018/02/22 12:36:21","新北市五股區中興路二段83巷26-6號","121.459983333333","25.075225","6501500","五股區"
"234022","9380-KE","2018/02/22 12:39:35","新北市永和區福和路1號","121.526513333333","25.0098266666667","6500400","永和區"
"234076","969-R7","2018/02/22 12:39:31","新北市永和區中正路70號","121.513616666667","24.9950033333333","6500400","永和區"
"234001","AAC-295","2018/02/22 12:39:36","新北市永和區福和路1號","121.526356666667","25.0097383333333","6500400","永和區"
"231017","KEA-2219","2018/02/22 12:39:31","新北市新店區安華路28-1號","121.519726666667","24.961135","6500600","新店區"
"231001","619-UM","2018/02/22 12:39:29","新北市新店區安華路28-1號","121.519745","24.9607633333333","6500600","新店區"
"231013","719-UM","2018/02/22 12:39:33","新北市新店區安華路28-1號","121.519435","24.96121","6500600","新店區"
"235028","005-UY","2018/02/22 12:39:41","新北市中和區員山路36巷16-3號","121.485093333333","24.99127","6500300","中和區"
"235031","255-BX","2018/02/22 12:39:27","新北市中和區新生街114巷1號","121.48344","25.002275","6500300","中和區"
"235006","551-UM","2018/02/22 12:39:44","新北市中和區員山路36巷16-8號","121.485441666667","24.99232","6500300","中和區"
"235001","611-BX","2018/02/22 12:39:35","新北市中和區員山路127號","121.48102","24.9956","6500300","中和區"
"235002","911-UM","2018/02/22 12:39:26","新北市中和區和城路一段271巷1號","121.48582","24.991995","6500300","中和區"
"228005","097-TW","2018/02/22 12:39:34","新北市貢寮區福連里蓬萊街16號","121.985713333333","24.99654","6502600","貢寮區"
"228004","212-TW","2018/02/22 12:39:44","新北市貢寮區吉林里枋腳街6-2號","121.88764","25.0057516666667","6502600","貢寮區"
"208004","AAC-292","2018/02/22 12:39:30","新北市金山區磺清路135號","121.63943","25.227875","6502700","金山區"
"207002","749-BX","2018/02/22 12:39:26","新北市萬里區雙興里太和路7-2號","121.658565","25.1740666666667","6502800","萬里區"
