"lineid","car","time","location","longitude","latitude","cityid","cityname"
"234044","148-BY","2018/02/22 13:49:44","新北市永和區永利路358號","121.526183333333","25.0033416666667","6500400","永和區"
"234066","149-BY","2018/02/22 13:49:50","新北市永和區保平路236巷24弄2號","121.508406666667","25.007025","6500400","永和區"
"234005","207-UY","2018/02/22 13:49:50","新北市永和區永和路一段42號","121.51315","25.0055016666667","6500400","永和區"
"234078","298-R6","2018/02/22 13:49:40","新北市永和區林森路80號","121.523478333333","25.0037516666667","6500400","永和區"
"234036","336-UY","2018/02/22 13:49:51","新北市永和區環河東路四段22號","121.528666666667","24.9995366666667","6500400","永和區"
"234062","337-UY","2018/02/22 13:49:49","新北市永和區中正路368巷24號","121.518703333333","25.0007183333333","6500400","永和區"
"234084","338-UY","2018/02/22 13:49:50","新北市永和區永亨路140號","121.525008333333","25.0039","6500400","永和區"
"234068","552-UM","2018/02/22 13:49:53","新北市永和區竹林路81號","121.519516666667","25.0125466666667","6500400","永和區"
"234015","745-BX","2018/02/22 13:49:53","新北市永和區永和路二段264號","121.515956666667","25.0151416666667","6500400","永和區"
"234028","746-BX","2018/02/22 13:49:44","新北市永和區民生路67巷22號","121.52378","24.9970766666667","6500400","永和區"
"234052","KEA-2590","2018/02/22 13:49:54","新北市永和區竹林路39巷28弄3號","121.519386666667","25.0147633333333","6500400","永和區"
"234012","KEA-2591","2018/02/22 13:49:44","新北市永和區仁愛路240號","121.508328333333","25.0115983333333","6500400","永和區"
"234060","AAD-866","2018/02/22 13:49:49","新北市永和區中正路240號","121.516436666667","24.998215","6500400","永和區"
"234040","862-TW","2018/02/22 13:49:45","新北市永和區中和路389巷8號","121.508086666667","25.0009233333333","6500400","永和區"
"234048","863-TW","2018/02/22 13:49:35","新北市永和區保安路144號","121.508505","25.0149083333333","6500400","永和區"
"234010","9373-KE","2018/02/22 13:49:49","新北市永和區保福路二段163巷14號","121.508825","25.0146416666667","6500400","永和區"
"248015","026-BX","2018/02/22 13:49:42","新北市五股區凌雲路一段131號","121.449443333333","25.10193","6501500","五股區"
"248005","077-UY","2018/02/22 13:49:54","新北市五股區四維路112號","121.467866666667","25.0738316666667","6501500","五股區"
"248007","095-VK","2018/02/22 13:49:42","新北市五股區中興路一段151巷1弄2號","121.465021666667","25.0730916666667","6501500","五股區"
"248017","225-UY","2018/02/22 13:49:41","新北市五股區民義路二段22巷20號","121.423266666667","25.0976816666667","6501500","五股區"
"248011","247-BX","2018/02/22 13:49:54","新北市五股區成泰路二段195巷1號","121.440425","25.0873616666667","6501500","五股區"
"248003","677-BX","2018/02/22 13:49:54","新北市五股區民義路二段40號","121.417861666667","25.0983583333333","6501500","五股區"
"248009","682-TV","2018/02/22 13:49:42","新北市五股區水碓九路16號","121.427968333333","25.07147","6501500","五股區"
"234022","9380-KE","2018/02/22 13:49:56","新北市永和區中正路654巷28號","121.51771","25.008535","6500400","永和區"
"234076","969-R7","2018/02/22 13:49:51","新北市永和區民族街27巷17號","121.519803333333","24.999485","6500400","永和區"
"234072","AAC-211","2018/02/22 13:49:51","新北市永和區竹林路179巷42號","121.52226","25.0102233333333","6500400","永和區"
"234001","AAC-295","2018/02/22 13:49:36","新北市永和區福和路362號","121.514578333333","25.0075316666667","6500400","永和區"
"244003","248-BX","2018/02/22 13:49:37","新北市林口區瑞樹坑34-8號","121.35151","25.129605","6501700","林口區"
"243007","380-SR","2018/02/22 13:49:38","新北市泰山區美寧街54號","121.430473333333","25.064515","6501600","泰山區"
"243004","539-UM","2018/02/22 13:49:45","新北市泰山區福興三街13號","121.434433333333","25.0577766666667","6501600","泰山區"
"243002","KEA-2215","2018/02/22 13:49:28","新北市泰山區明志路一段482號","121.430633333333","25.0548166666667","6501600","泰山區"
"243001","KEA-2216","2018/02/22 13:49:48","新北市泰山區黎明路25號","121.421941666667","25.0608866666667","6501600","泰山區"
"243005","646-TV","2018/02/22 13:49:51","新北市泰山區明志路三段206巷3號","121.423278333333","25.0379033333333","6501600","泰山區"
"243008","680-BX","2018/02/22 13:49:47","新北市泰山區明志路二段1號","121.430225","25.0538033333333","6501600","泰山區"
"231002","002-UM","2018/02/22 13:49:41","新北市新店區溪園路245-2號","121.526093333333","24.98386","6500600","新店區"
"231025","0293-UT","2018/02/22 13:49:39","新北市新店區中正路275巷27號","121.536951666667","24.9731716666667","6500600","新店區"
"231028","046-UY","2018/02/22 13:49:53","新北市新店區安和路三段31號","121.517688333333","24.9815416666667","6500600","新店區"
"231030","047-UY","2018/02/22 13:49:49","新北市新店區安康路一段222號","121.523703333333","24.9635666666667","6500600","新店區"
"231029","106-UY","2018/02/22 13:49:42","新北市新店區安康路二段125-1號","121.512395","24.96088","6500600","新店區"
"231018","107-UY","2018/02/22 13:49:50","新北市新店區中正路402號","121.53462","24.9774716666667","6500600","新店區"
"231011","108-UY","2018/02/22 13:49:38","新北市新店區德正街27巷29弄13號","121.54512","24.9718483333333","6500600","新店區"
"231021","187-VK","2018/02/22 13:49:56","新北市新店區新烏路二段50巷27號","121.547163333333","24.92677","6500600","新店區"
"231017","KEA-2219","2018/02/22 13:49:51","新北市新店區竹林路30巷1號","121.552316666667","24.9512583333333","6500600","新店區"
"231026","256-BX","2018/02/22 13:49:48","新北市新店區三民路159巷19弄11號","121.532723333333","24.9739216666667","6500600","新店區"
"231010","278-BY","2018/02/22 13:49:49","新北市新店區三民路60巷5號","121.53536","24.972495","6500600","新店區"
"231023","AAD-862","2018/02/22 13:49:45","新北市新店區國校路55號","121.538223333333","24.9545633333333","6500600","新店區"
"231027","3712-VJ","2018/02/22 13:49:38","新北市新店區中興路一段24號","121.5387","24.9583233333333","6500600","新店區"
"231024","4716-K9","2018/02/22 13:49:41","新北市新店區中華路47巷9號","121.539656666667","24.9673383333333","6500600","新店區"
"231038","4715-K9","2018/02/22 13:49:55","新北市新店區安康路一段247-1號","121.52491","24.963265","6500600","新店區"
"231036","512-UM","2018/02/22 13:49:48","新北市新店區安祥路110巷2號","121.47482","24.9570683333333","6500600","新店區"
"231035","515-UM","2018/02/22 13:49:54","新北市新店區安忠路57巷26弄1號","121.513156666667","24.9586183333333","6500600","新店區"
"231001","619-UM","2018/02/22 13:49:48","新北市新店區三民路80號","121.534685","24.972475","6500600","新店區"
"231003","641-BX","2018/02/22 13:49:45","新北市新店區中興路一段103巷2號","121.541088333333","24.9623683333333","6500600","新店區"
"231034","645-TV","2018/02/22 13:49:51","新北市新店區達觀路16號","121.503175","24.9406833333333","6500600","新店區"
"231013","719-UM","2018/02/22 13:49:53","新北市新店區二十張路25巷18弄9號","121.539326666667","24.98155","6500600","新店區"
"231031","720-UM","2018/02/22 13:49:37","新北市新店區華城路18-1號","121.52914","24.9571916666667","6500600","新店區"
"231005","897-TW","2018/02/22 13:49:40","新北市新店區寶中路137號","121.54994","24.9792383333333","6500600","新店區"
"231006","898-TW","2018/02/22 13:49:46","新北市新店區北宜路一段206號","121.543673333333","24.9530333333333","6500600","新店區"
"231004","899-TW","2018/02/22 13:49:38","新北市新店區寶橋路132號","121.547175","24.976135","6500600","新店區"
"231037","AKT-0513","2018/02/22 13:49:49","新北市新店區安康路三段355巷31號","121.484978333333","24.949855","6500600","新店區"
"235030","003-UY","2018/02/22 13:49:45","新北市中和區水源路7巷4號","121.50409","25.0036566666667","6500300","中和區"
"235028","005-UY","2018/02/22 13:49:41","新北市中和區連城路75巷13號","121.498543333333","24.9983833333333","6500300","中和區"
"235027","006-UY","2018/02/22 13:49:49","新北市中和區連城路319巷11弄8號","121.489453333333","24.994975","6500300","中和區"
"235020","096-UM","2018/02/22 13:49:38","新北市中和區立德街329號","121.481541666667","25.0104183333333","6500300","中和區"
"235003","097-UM","2018/02/22 13:49:49","新北市中和區大勇街25巷13弄2號","121.516046666667","24.9935033333333","6500300","中和區"
"235029","098-UM","2018/02/22 13:49:44","新北市中和區中山路二段2巷45弄12號","121.501953333333","25.0067883333333","6500300","中和區"
"235004","150-BY","2018/02/22 13:49:41","新北市中和區保健路48巷61號","121.509305","24.9959366666667","6500300","中和區"
"235022","151-BY","2018/02/22 13:49:46","新北市中和區連城路384號","121.480571666667","24.9950483333333","6500300","中和區"
"235019","183-VK","2018/02/22 13:49:42","新北市中和區民德路25巷7弄10號","121.469616666667","25.0033733333333","6500300","中和區"
"235013","186-VK","2018/02/22 13:49:46","新北市中和區景安路132巷36-1號","121.50385","24.994455","6500300","中和區"
"235031","255-BX","2018/02/22 13:49:47","新北市中和區新生街242巷1弄7號","121.483431666667","24.997555","6500300","中和區"
"235008","293-VK","2018/02/22 13:49:47","新北市中和區中興街121號","121.499911666667","24.9918433333333","6500300","中和區"
"235036","301-VK","2018/02/22 13:49:53","新北市中和區中山路二段47號","121.504461666667","25.0049333333333","6500300","中和區"
"235007","352-BY","2018/02/22 13:49:41","新北市中和區景平路1號","121.525776666667","24.99002","6500300","中和區"
"235032","377-QA","2018/02/22 13:49:50","新北市中和區圓通路186號","121.49663","24.99438","6500300","中和區"
"235025","378-QA","2018/02/22 13:49:38","新北市中和區民治街132巷9號","121.474866666667","25.0022416666667","6500300","中和區"
"235035","269-TV","2018/02/22 13:49:52","新北市中和區中山路二段486號","121.487606666667","25.00515","6500300","中和區"
"235014","4979-A6","2018/02/22 13:49:54","新北市中和區忠孝街62巷9弄10號","121.513123333333","24.9839666666667","6500300","中和區"
"235033","4980-A6","2018/02/22 13:49:47","新北市中和區南山路81巷20號","121.50258","24.9980083333333","6500300","中和區"
"235006","551-UM","2018/02/22 13:48:04","新北市中和區成功路137號","121.526753333333","24.9899416666667","6500300","中和區"
"235034","558-UM","2018/02/22 13:49:41","新北市中和區圓通路55號","121.50068","24.9974983333333","6500300","中和區"
"235009","565-BX","2018/02/22 13:49:40","新北市中和區景安路198號","121.50427","24.99135","6500300","中和區"
"235018","640-BX","2018/02/22 13:49:38","新北市中和區民享街68巷13號","121.473708333333","25.0017166666667","6500300","中和區"
"235024","647-TV","2018/02/22 13:49:56","新北市中和區中山路三段33號","121.478946666667","25.00586","6500300","中和區"
"235011","732-UM","2018/02/22 13:49:34","新北市中和區興南路二段113巷8號","121.505763333333","24.9842083333333","6500300","中和區"
"235010","733-UM","2018/02/22 13:49:47","新北市中和區仁愛街36巷40號","121.511361666667","24.9864866666667","6500300","中和區"
"235026","800-TS","2018/02/22 13:49:37","新北市中和區景平路677巷2弄10號","121.49623","25.00316","6500300","中和區"
"235021","801-TS","2018/02/22 13:49:43","新北市中和區民安街22巷16號","121.479696666667","25.00139","6500300","中和區"
"235016","805-TS","2018/02/22 13:48:13","新北市中和區興南路三段91巷2號","121.490685","24.9735716666667","6500300","中和區"
"235012","896-TW","2018/02/22 13:49:34","新北市中和區南山路242巷1號","121.507413333333","24.9894283333333","6500300","中和區"
"235017","900-TW","2018/02/22 13:49:39","新北市中和區華福街44號","121.466483333333","24.9965766666667","6500300","中和區"
"235002","911-UM","2018/02/22 13:49:46","新北市中和區大勇街31巷6弄1號","121.517326666667","24.99455","6500300","中和區"
"235015","157-BY","2018/02/22 13:49:54","新北市中和區工專路165-1號","121.508846666667","24.979055","6500300","中和區"
"235001","AAC-213","2018/02/22 13:49:38","新北市中和區秀朗路三段128巷2號","121.524653333333","24.9924083333333","6500300","中和區"
"235023","AAC-215","2018/02/22 13:49:38","新北市中和區圓通路385號","121.490238333333","24.9893016666667","6500300","中和區"
"220016","013-TV","2018/02/22 13:49:51","新北市板橋區富山街109巷8號","121.476005","25.0217583333333","6500100","板橋區"
"220013","072-UY","2018/02/22 13:49:46","新北市板橋區漢生東路280號","121.471025","25.0093066666667","6500100","板橋區"
"220034","073-UY","2018/02/22 13:49:40","新北市板橋區大智街71巷5弄2號","121.453176666667","25.01479","6500100","板橋區"
"220105","075-UY","2018/02/22 13:49:37","新北市板橋區民生路二段161巷9號","121.470245","25.0196583333333","6500100","板橋區"
"220017","AAD-861","2018/02/22 13:49:45","新北市板橋區大華街20號","121.458863333333","25.0062066666667","6500100","板橋區"
"247003","336-TH","2018/02/22 13:49:57","新北市蘆洲區中原路26號","121.460158333333","25.0828066666667","6501400","蘆洲區"
"247005","056-VK","2018/02/22 13:49:46","新北市蘆洲區中山二路256號","121.469285","25.078985","6501400","蘆洲區"
"247007","053-VK","2018/02/22 13:49:35","新北市蘆洲區中山一路6號","121.48086","25.0802016666667","6501400","蘆洲區"
"235005","251-BX","2018/02/22 13:49:41","新北市永和區中和路603號","121.512381666667","25.0041283333333","6500300","中和區"
"228005","097-TW","2018/02/22 13:49:34","新北市雙溪區三港里雙澳路100號","121.889168333333","25.05588","6502600","貢寮區"
"228004","212-TW","2018/02/22 13:44:04","新北市貢寮區龍崗里嵩陽街10號","121.901805","25.0104366666667","6502600","貢寮區"
"253003","6232-TK","2018/02/22 13:49:54","新北市石門區尖子鹿8-1號","121.575168333333","25.27989","6502200","石門區"
"253001","6251-TK","2018/02/22 13:49:38","新北市石門區八甲58-2號","121.522063333333","25.27424","6502200","石門區"
"253002","637-UY","2018/02/22 13:49:49","新北市石門區九芎林36-1號","121.566003333333","25.252435","6502200","石門區"
"253004","8270-PC","2018/02/22 13:49:44","新北市石門區阿里荖58號","121.606768333333","25.272955","6502200","石門區"
"208004","AAC-292","2018/02/22 13:49:50","新北市金山區重和里三重橋11號","121.592361666667","25.19287","6502700","金山區"
"207002","749-BX","2018/02/22 13:49:46","新北市萬里區崁腳里崁腳路166號","121.645155","25.1557833333333","6502800","萬里區"
"252005","073-UM","2018/02/22 13:49:41","新北市三芝區圓山里內柑宅25-1號","121.537311666667","25.2240733333333","6502100","三芝區"
"207001","662-BX","2018/02/22 13:49:41","新北市萬里區磺潭里清水18號","121.637766666667","25.1981116666667","6502800","萬里區"
"236066","105-UM","2018/02/22 13:49:52","新北市土城區城林路6巷80號","121.438375","24.9796816666667","6501300","土城區"
"236040","107-UM","2018/02/22 13:49:44","新北市土城區城林路6巷80號","121.438391666667","24.9797816666667","6501300","土城區"
"236076","166-UM","2018/02/22 13:49:42","新北市土城區中華路二段82號","121.43884","24.9762133333333","6501300","土城區"
"236024","269-VK","2018/02/22 13:49:54","新北市土城區中華路二段119號","121.439135","24.9767066666667","6501300","土城區"
"236012","270-VK","2018/02/22 13:49:46","新北市土城區城林路6巷80號","121.438473333333","24.9796583333333","6501300","土城區"
"236033","271-VK","2018/02/22 13:49:45","新北市土城區城林路6巷80號","121.438396666667","24.9798183333333","6501300","土城區"
"236018","401-BY","2018/02/22 13:49:39","新北市土城區城林路6巷80號","121.438606666667","24.979715","6501300","土城區"
"236005","498-BY","2018/02/22 13:49:38","新北市土城區慶祥街1巷12號","121.437316666667","24.974365","6501300","土城區"
"236056","912-UM","2018/02/22 13:49:39","新北市土城區城林路6巷80號","121.438375","24.9796066666667","6501300","土城區"
"236047","913-UM","2018/02/22 13:49:46","新北市土城區城林路6巷80號","121.438355","24.9797433333333","6501300","土城區"
"236060","915-UM","2018/02/22 13:49:44","新北市土城區城林路6巷80號","121.438355","24.9797533333333","6501300","土城區"
"236052","AAC-216","2018/02/22 13:49:38","新北市土城區城林路6巷80號","121.438685","24.9796516666667","6501300","土城區"
"242001","233-RS","2018/02/22 13:49:39","新北市新莊區利濟街18號","121.453368333333","25.0335116666667","6500500","新莊區"
"220027","145-BY","2018/02/22 13:49:36","新北市板橋區中正路191號","121.456431666667","25.0169983333333","6500100","板橋區"
"220028","200-UY","2018/02/22 13:49:47","新北市板橋區大觀路二段265巷72弄7號","121.442158333333","24.9968866666667","6500100","板橋區"
"220030","610-BX","2018/02/22 13:49:38","新北市板橋區篤行路三段玉平巷68弄2號","121.427976666667","24.9861633333333","6500100","板橋區"
"220050","245-BX","2018/02/22 13:49:50","新北市板橋區民生路二段161巷1號","121.47011","25.0198866666667","6500100","板橋區"
"220045","267-BY","2018/02/22 13:49:54","新北市板橋區民生路二段161巷1號","121.469991666667","25.0200283333333","6500100","板橋區"
"220004","276-BY","2018/02/22 13:49:57","新北市板橋區四川路二段79號","121.453105","24.9949216666667","6500100","板橋區"
"220019","283-VK","2018/02/22 13:49:53","新北市板橋區忠孝路176巷7號","121.464793333333","25.001855","6500100","板橋區"
"220043","285-UM","2018/02/22 13:49:53","新北市板橋區民生路二段161巷3號","121.470131666667","25.0197933333333","6500100","板橋區"
"220001","285-VK","2018/02/22 13:49:53","新北市板橋區民生路二段80號","121.471951666667","25.01844","6500100","板橋區"
"220031","286-VK","2018/02/22 13:49:45","新北市板橋區大觀路二段22巷34號","121.445015","25.0036183333333","6500100","板橋區"
"220029","287-VK","2018/02/22 13:49:40","新北市板橋區光華街7號","121.454145","25.0115083333333","6500100","板橋區"
"220009","293-UM","2018/02/22 13:49:51","新北市板橋區太和街4巷4號","121.47408","25.0198083333333","6500100","板橋區"
"220032","296-UM","2018/02/22 13:49:50","新北市板橋區大觀路二段150巷62-1號","121.441611666667","25.000695","6500100","板橋區"
"220023","303-R5","2018/02/22 13:49:42","新北市板橋區南雅西路一段174巷1弄16-1號","121.45294","25.0073366666667","6500100","板橋區"
"220010","305-R5","2018/02/22 13:49:39","新北市板橋區中山路二段25號","121.472496666667","25.0152466666667","6500100","板橋區"
"220041","307-R5","2018/02/22 13:49:38","新北市板橋區民生路二段120號","121.47056","25.0195416666667","6500100","板橋區"
"220047","317-R6","2018/02/22 13:49:36","新北市板橋區民生路二段120號","121.47056","25.0194416666667","6500100","板橋區"
"220012","486-VK","2018/02/22 13:49:52","新北市板橋區民生路二段36-1號","121.472146666667","25.0167533333333","6500100","板橋區"
"220037","491-VK","2018/02/22 13:49:54","新北市板橋區民生路二段161巷1號","121.47011","25.02004","6500100","板橋區"
"220104","560-BX","2018/02/22 13:49:45","新北市板橋區中正路325巷47號","121.453065","25.0187083333333","6500100","板橋區"
"220052","561-BX","2018/02/22 13:49:39","新北市板橋區介壽街119號","121.470591666667","25.01873","6500100","板橋區"
"220011","609-BX","2018/02/22 13:49:52","新北市板橋區民生路二段120號","121.47061","25.0194433333333","6500100","板橋區"
"220040","637-BX","2018/02/22 13:49:50","新北市板橋區民生路二段161巷1號","121.470251666667","25.02005","6500100","板橋區"
"220005","686-BX","2018/02/22 13:49:39","新北市板橋區華東街11號","121.451466666667","24.9984516666667","6500100","板橋區"
"220025","687-BX","2018/02/22 13:49:47","新北市板橋區金門街99號","121.433223333333","24.99238","6500100","板橋區"
"220042","689-BX","2018/02/22 13:49:38","新北市板橋區民生路二段161巷1號","121.470283333333","25.0200383333333","6500100","板橋區"
"220002","741-BX","2018/02/22 13:49:43","新北市板橋區館前東路9號","121.459876666667","25.007155","6500100","板橋區"
"220051","KEA-2699","2018/02/22 13:49:35","新北市板橋區民生路二段161巷1號","121.470183333333","25.0198933333333","6500100","板橋區"
"220003","827-TW","2018/02/22 13:49:45","新北市板橋區中山路一段160-6號","121.466161666667","25.0122266666667","6500100","板橋區"
"220014","829-TW","2018/02/22 13:49:49","新北市板橋區三民路二段正隆巷56號","121.476718333333","25.01424","6500100","板橋區"
"220038","833-TW","2018/02/22 13:49:41","新北市板橋區民生路二段120號","121.4705","25.01948","6500100","板橋區"
"220022","895-R6","2018/02/22 13:49:39","新北市板橋區南門街14號","121.457346666667","25.0088266666667","6500100","板橋區"
"220021","985-R7","2018/02/22 13:49:54","新北市板橋區南門街4號","121.457431666667","25.0093066666667","6500100","板橋區"
"220046","AAC-210","2018/02/22 13:37:03","新北市板橋區民生路二段161巷9號","121.470335","25.0195866666667","6500100","板橋區"
"220018","AAC-253","2018/02/22 13:49:49","新北市板橋區四川路一段101號","121.459733333333","25.0052983333333","6500100","板橋區"
