"lineid","car","time","location","longitude","latitude","cityid","cityname"
"234044","148-BY","2018/02/22 14:09:44","新北市永和區成功路一段20號","121.527048333333","25.0050133333333","6500400","永和區"
"234066","149-BY","2018/02/22 14:09:50","新北市永和區保平路236巷6號","121.508713333333","25.0061266666667","6500400","永和區"
"234005","207-UY","2018/02/22 14:09:50","新北市中和區中和路296-1號","121.508786666667","24.9997283333333","6500400","永和區"
"234078","298-R6","2018/02/22 14:09:47","新北市永和區永亨路107號","121.523336666667","25.0048816666667","6500400","永和區"
"234036","336-UY","2018/02/22 14:09:43","新北市永和區成功路二段142號","121.526571666667","24.99719","6500400","永和區"
"234062","337-UY","2018/02/22 14:09:42","新北市永和區永利路152號","121.522455","25.0028266666667","6500400","永和區"
"234084","338-UY","2018/02/22 14:09:50","新北市永和區福和路130號","121.521885","25.008005","6500400","永和區"
"234068","552-UM","2018/02/22 14:09:32","新北市永和區福和路258號","121.518301666667","25.0075166666667","6500400","永和區"
"234015","745-BX","2018/02/22 14:09:33","新北市永和區永和路二段243號","121.515823333333","25.0148233333333","6500400","永和區"
"234028","746-BX","2018/02/22 14:09:49","新北市永和區民權路49巷7號","121.520495","24.99726","6500400","永和區"
"234052","KEA-2590","2018/02/22 14:09:34","新北市永和區環河東路一段124號","121.520681666667","25.0154516666667","6500400","永和區"
"234012","KEA-2591","2018/02/22 14:09:44","新北市永和區仁愛路273號","121.50606","25.0098483333333","6500400","永和區"
"234060","AAD-866","2018/02/22 14:09:16","新北市永和區中正路129巷3號","121.515633333333","24.9980416666667","6500400","永和區"
"234040","862-TW","2018/02/22 14:09:45","新北市永和區雙和街15號","121.509531666667","25.0019","6500400","永和區"
"234048","863-TW","2018/02/22 14:09:35","新北市永和區新生路249巷5號","121.505931666667","25.0133216666667","6500400","永和區"
"234025","9371-KE","2018/02/22 14:09:42","新北市永和區安樂路272巷9弄7號","121.515133333333","25.0045566666667","6500400","永和區"
"234010","9373-KE","2018/02/22 14:09:49","新北市永和區仁愛路352巷112弄7號","121.500835","25.0084866666667","6500400","永和區"
"248015","026-BX","2018/02/22 14:09:42","新北市五股區成泰路三段543巷52-1號","121.449721666667","25.1030216666667","6501500","五股區"
"248007","095-VK","2018/02/22 14:09:42","新北市五股區中興路一段118巷8號","121.465966666667","25.0739566666667","6501500","五股區"
"248017","225-UY","2018/02/22 14:09:41","新北市五股區民義路一段222號","121.429278333333","25.0903533333333","6501500","五股區"
"248011","247-BX","2018/02/22 14:09:35","新北市五股區工商路36巷16號","121.439798333333","25.0842383333333","6501500","五股區"
"248003","677-BX","2018/02/22 14:09:34","新北市五股區民義路一段226號","121.428655","25.0906516666667","6501500","五股區"
"248009","682-TV","2018/02/22 14:09:41","新北市五股區自強路90巷72號","121.4308","25.07139","6501500","五股區"
"234022","9380-KE","2018/02/22 14:09:35","新北市永和區光復街2巷16弄50號","121.51837","25.0163033333333","6500400","永和區"
"234076","969-R7","2018/02/22 14:09:31","新北市永和區民族街67巷7號","121.518801666667","24.9972183333333","6500400","永和區"
"234072","AAC-211","2018/02/22 14:09:51","新北市永和區竹林路201巷24弄4號","121.522236666667","25.0095983333333","6500400","永和區"
"234001","AAC-295","2018/02/22 14:09:36","新北市永和區永和路一段153號","121.514203333333","25.0093083333333","6500400","永和區"
"243001","267-VK","2018/02/22 14:09:51","新北市泰山區明志路一段122巷31號","121.43257","25.0637316666667","6501600","泰山區"
"243003","297-R6","2018/02/22 14:09:44","新北市泰山區明志路二段368號","121.425443333333","25.0449516666667","6501600","泰山區"
"243007","380-SR","2018/02/22 14:09:38","新北市泰山區明志路一段431號","121.43076","25.0565933333333","6501600","泰山區"
"243006","421-VK","2018/02/22 14:09:37","新北市泰山區泰林路二段440號","121.42644","25.0641666666667","6501600","泰山區"
"243004","539-UM","2018/02/22 14:09:45","新北市泰山區辭修路36巷8弄1號","121.427846666667","25.0585516666667","6501600","泰山區"
"243002","KEA-2215","2018/02/22 14:09:48","新北市泰山區明志路一段473-1號","121.431113333333","25.055705","6501600","泰山區"
"243001","KEA-2216","2018/02/22 14:09:48","新北市泰山區明志路一段122巷27號","121.432625","25.063565","6501600","泰山區"
"243005","646-TV","2018/02/22 14:09:31","新北市泰山區台麗街13巷1號","121.424528333333","25.038255","6501600","泰山區"
"243008","680-BX","2018/02/22 14:09:47","新北市泰山區明志路二段325號","121.425725","25.0450466666667","6501600","泰山區"
"231002","002-UM","2018/02/22 14:09:41","新北市新店區中正路487號","121.533798333333","24.9821466666667","6500600","新店區"
"231025","0293-UT","2018/02/22 14:09:39","新北市新店區中華路83巷67號","121.538188333333","24.96705","6500600","新店區"
"231028","046-UY","2018/02/22 14:09:33","新北市新店區安業街10號","121.516088333333","24.97855","6500600","新店區"
"231030","047-UY","2018/02/22 14:09:49","新北市新店區安民街65巷21-2號","121.515245","24.96748","6500600","新店區"
"231029","106-UY","2018/02/22 14:09:46","新北市新店區安康路二段117-1號","121.512483333333","24.9615133333333","6500600","新店區"
"231018","107-UY","2018/02/22 14:09:49","新北市新店區中央路196號","121.530823333333","24.97458","6500600","新店區"
"231011","108-UY","2018/02/22 14:09:38","新北市新店區中興路一段266號","121.544796666667","24.9672716666667","6500600","新店區"
"231021","187-VK","2018/02/22 14:09:36","新北市新店區新烏路二段390號","121.551438333333","24.909355","6500600","新店區"
"231017","KEA-2219","2018/02/22 14:09:51","新北市新店區郵政路4巷59號","121.555663333333","24.95185","6500600","新店區"
"231023","AAD-862","2018/02/22 14:09:45","新北市新店區文中路34號","121.538998333333","24.9569466666667","6500600","新店區"
"231027","3712-VJ","2018/02/22 14:09:38","新北市新店區光明街83號","121.538996666667","24.960795","6500600","新店區"
"231024","4716-K9","2018/02/22 14:09:48","新北市新店區力行路14巷12號","121.53924","24.9652233333333","6500600","新店區"
"231038","4715-K9","2018/02/22 14:09:35","新北市新店區溪洲路6巷22號","121.533771666667","24.9627833333333","6500600","新店區"
"231036","512-UM","2018/02/22 14:09:40","新北市新店區安祥路109巷1弄51號","121.477381666667","24.96062","6500600","新店區"
"231035","515-UM","2018/02/22 14:09:44","新北市新店區光華街8巷12號","121.518081666667","24.969385","6500600","新店區"
"231001","619-UM","2018/02/22 14:09:29","新北市新店區中華路70巷2號","121.539","24.969275","6500600","新店區"
"231003","641-BX","2018/02/22 14:09:44","新北市新店區中興路一段168號","121.542871666667","24.964365","6500600","新店區"
"231034","645-TV","2018/02/22 14:09:31","新北市新店區黎明路3號","121.503316666667","24.9523133333333","6500600","新店區"
"231013","719-UM","2018/02/22 14:09:33","新北市新店區二十張路1巷2弄3號","121.54012","24.9819716666667","6500600","新店區"
"231031","720-UM","2018/02/22 14:09:37","新北市新店區安康路一段23號","121.533265","24.9600533333333","6500600","新店區"
"231005","897-TW","2018/02/22 14:09:40","新北市新店區中興路三段304號","121.542335","24.9852533333333","6500600","新店區"
"231006","898-TW","2018/02/22 14:09:40","新北市新店區北宜路二段168號","121.558148333333","24.9540616666667","6500600","新店區"
"231004","899-TW","2018/02/22 14:09:38","新北市新店區民族路1號","121.542411666667","24.97859","6500600","新店區"
"231037","AKT-0513","2018/02/22 14:09:49","新北市新店區安康路二段341巷8號","121.496618333333","24.9548916666667","6500600","新店區"
"235030","003-UY","2018/02/22 14:09:44","新北市中和區廣福路4號","121.506021666667","25.0031316666667","6500300","中和區"
"235028","005-UY","2018/02/22 14:09:41","新北市中和區泰和街38巷34號","121.498478333333","25.001365","6500300","中和區"
"235027","006-UY","2018/02/22 14:09:49","新北市中和區連城路249巷21弄1號","121.493945","24.9961533333333","6500300","中和區"
"235020","096-UM","2018/02/22 14:09:38","新北市中和區員山路516號","121.479185","25.009395","6500300","中和區"
"235003","097-UM","2018/02/22 14:09:29","新北市中和區景平路3號","121.523688333333","24.990245","6500300","中和區"
"235029","098-UM","2018/02/22 14:09:44","新北市中和區中山路二段116巷3弄9號","121.502216666667","25.0040183333333","6500300","中和區"
"235004","150-BY","2018/02/22 14:09:41","新北市中和區保健路67巷3弄4號","121.509818333333","24.9975566666667","6500300","中和區"
"235022","151-BY","2018/02/22 14:09:45","新北市中和區連城路428巷11號","121.4798","24.9954783333333","6500300","中和區"
"235019","183-VK","2018/02/22 14:09:42","新北市中和區德光路111號","121.468205","25.003185","6500300","中和區"
"235013","186-VK","2018/02/22 14:09:46","新北市中和區明禮街5號","121.505165","24.9957583333333","6500300","中和區"
"235031","255-BX","2018/02/22 14:09:47","新北市中和區連城路459號","121.484371666667","24.9962333333333","6500300","中和區"
"235008","293-VK","2018/02/22 14:09:47","新北市中和區中興街235巷1號","121.500683333333","24.9895366666667","6500300","中和區"
"235036","301-VK","2018/02/22 14:09:42","新北市中和區中山路二段259號","121.497148333333","25.00233","6500300","中和區"
"235007","352-BY","2018/02/22 14:09:48","新北市中和區景平路16號","121.523781666667","24.9905933333333","6500300","中和區"
"235032","377-QA","2018/02/22 14:06:50","新北市中和區景平路545巷8號","121.498113333333","24.9991733333333","6500300","中和區"
"235025","378-QA","2018/02/22 14:09:38","新北市中和區員山路146-3號","121.481291666667","24.9969616666667","6500300","中和區"
"235035","269-TV","2018/02/22 14:09:32","新北市中和區立德街98巷79號","121.488225","25.0089233333333","6500300","中和區"
"235014","4979-A6","2018/02/22 14:09:34","新北市中和區南山路322號","121.507943333333","24.986625","6500300","中和區"
"235033","4980-A6","2018/02/22 14:09:47","新北市中和區中和路217巷6號","121.504115","25.0003983333333","6500300","中和區"
"235006","551-UM","2018/02/22 14:09:44","新北市新店區安康路二段320巷15弄2號","121.50387","24.95953","6500300","中和區"
"235034","558-UM","2018/02/22 14:09:40","新北市中和區中和路122號","121.503196666667","24.9996933333333","6500300","中和區"
"235009","565-BX","2018/02/22 14:09:40","新北市中和區景新街467巷35弄1號","121.514633333333","24.9890866666667","6500300","中和區"
"235018","640-BX","2018/02/22 14:09:38","新北市中和區國光街107巷4弄4-3號","121.470331666667","24.9996766666667","6500300","中和區"
"235024","647-TV","2018/02/22 14:09:36","新北市中和區民治街23巷2號","121.475426666667","25.0020566666667","6500300","中和區"
"235011","732-UM","2018/02/22 14:09:34","新北市中和區華新街30巷27號","121.506821666667","24.9839833333333","6500300","中和區"
"235010","733-UM","2018/02/22 14:09:47","新北市中和區忠孝街1巷42號","121.508631666667","24.9839866666667","6500300","中和區"
"235026","800-TS","2018/02/22 14:09:37","新北市中和區中山路二段366巷24號","121.491746666667","25.00464","6500300","中和區"
"235021","801-TS","2018/02/22 14:09:43","新北市中和區民利街58巷5弄11號","121.478208333333","24.9991066666667","6500300","中和區"
"235016","805-TS","2018/02/22 14:09:33","新北市中和區興南路二段131-10號","121.50407","24.9807833333333","6500300","中和區"
"235012","896-TW","2018/02/22 14:09:34","新北市中和區工專路147號","121.50853","24.9788916666667","6500300","中和區"
"235017","900-TW","2018/02/22 14:09:39","新北市中和區華福街75號","121.467288333333","24.9965566666667","6500300","中和區"
"235002","911-UM","2018/02/22 14:09:46","新北市中和區大仁街10巷27弄3號","121.519183333333","24.9927066666667","6500300","中和區"
"235015","157-BY","2018/02/22 14:09:37","新北市中和區仁愛街36巷42號","121.511381666667","24.986375","6500300","中和區"
"235001","AAC-213","2018/02/22 14:09:38","新北市中和區秀朗路三段60巷9號","121.525746666667","24.9950483333333","6500300","中和區"
"235023","AAC-215","2018/02/22 14:09:38","新北市中和區圓通路294巷17-5號","121.488613333333","24.9904466666667","6500300","中和區"
"220016","013-TV","2018/02/22 14:09:42","新北市板橋區中山路二段443巷2號","121.481038333333","25.020545","6500100","板橋區"
"220013","072-UY","2018/02/22 14:09:46","新北市板橋區民族路219巷7號","121.46932","25.007985","6500100","板橋區"
"220034","073-UY","2018/02/22 14:09:39","新北市板橋區中正路236巷92號","121.4585","25.0195016666667","6500100","板橋區"
"220105","075-UY","2018/02/22 14:09:37","新北市板橋區雙十路三段9號","121.471488333333","25.0300533333333","6500100","板橋區"
"220017","AAD-861","2018/02/22 14:09:45","新北市板橋區東興街91號","121.457703333333","25.00519","6500100","板橋區"
"247021","893-R6","2018/02/22 14:09:43","新北市蘆洲區三民路193號","121.470441666667","25.087765","6501400","蘆洲區"
"247011","546-UM","2018/02/22 14:09:45","新北市蘆洲區信義路329號","121.478225","25.0866716666667","6501400","蘆洲區"
"247019","500-BY","2018/02/22 14:09:30","新北市蘆洲區民族路422巷116號","121.472446666667","25.0942966666667","6501400","蘆洲區"
"247009","339-TH","2018/02/22 14:09:49","新北市蘆洲區信義路176號","121.479343333333","25.0840033333333","6501400","蘆洲區"
"247001","337-TH","2018/02/22 14:09:46","新北市蘆洲區永平街59號","121.457585","25.0914333333333","6501400","蘆洲區"
"247003","336-TH","2018/02/22 14:09:37","新北市蘆洲區中華街13號","121.463776666667","25.0816616666667","6501400","蘆洲區"
"247015","057-VK","2018/02/22 14:09:37","新北市蘆洲區中正路185巷32號","121.467793333333","25.0851466666667","6501400","蘆洲區"
"247005","056-VK","2018/02/22 14:09:46","新北市蘆洲區九芎街62號","121.466905","25.0790066666667","6501400","蘆洲區"
"247007","053-VK","2018/02/22 14:09:35","新北市五股區國道路三段22號","121.46837","25.0752933333333","6501400","蘆洲區"
"247013","007-UY","2018/02/22 14:09:41","新北市蘆洲區保和街69巷31號","121.469818333333","25.085245","6501400","蘆洲區"
"247023","002-UY","2018/02/22 14:09:47","新北市蘆洲區光榮路68號","121.463223333333","25.0886916666667","6501400","蘆洲區"
"247017","001-UY","2018/02/22 14:09:50","新北市蘆洲區民族路227巷24弄1號","121.47646","25.0888483333333","6501400","蘆洲區"
"235005","251-BX","2018/02/22 14:09:41","新北市中和區中安街54號","121.51295","25.0022633333333","6500300","中和區"
"228005","097-TW","2018/02/22 14:09:34","新北市雙溪區三港里雙澳路100號","121.889211666667","25.0558033333333","6502600","貢寮區"
"228004","212-TW","2018/02/22 14:09:44","新北市貢寮區雙玉里下雙溪街10-3號","121.915095","25.0139216666667","6502600","貢寮區"
"253003","6232-TK","2018/02/22 14:09:34","新北市石門區阿里磅9號","121.583465","25.2680266666667","6502200","石門區"
"253001","6251-TK","2018/02/22 14:09:38","新北市石門區八甲74號","121.52985","25.26444","6502200","石門區"
"253002","637-UY","2018/02/22 14:09:49","新北市石門區七股30號","121.55188","25.263935","6502200","石門區"
"253004","8270-PC","2018/02/22 14:09:45","新北市石門區小坑37-1號","121.597281666667","25.2667916666667","6502200","石門區"
"208004","AAC-292","2018/02/22 14:09:50","新北市金山區重和里六股林口81號","121.599738333333","25.2153983333333","6502700","金山區"
"207002","749-BX","2018/02/22 14:09:25","新北市萬里區溪底里瑞泉路1號","121.610375","25.1451133333333","6502800","萬里區"
"252005","073-UM","2018/02/22 14:09:41","新北市三芝區橫山里橫山52號","121.533505","25.2562266666667","6502100","三芝區"
"207001","662-BX","2018/02/22 14:09:41","新北市萬里區磺潭里清水18號","121.637945","25.1980283333333","6502800","萬里區"
"236066","105-UM","2018/02/22 14:09:52","新北市土城區金城路一段131號","121.444968333333","24.9737","6501300","土城區"
"236040","107-UM","2018/02/22 14:09:44","新北市土城區城林路6巷80號","121.438211666667","24.9794816666667","6501300","土城區"
"236076","166-UM","2018/02/22 14:09:42","新北市土城區永寧路32巷42弄2號","121.4281","24.9608833333333","6501300","土城區"
"236028","253-BX","2018/02/22 14:09:38","新北市土城區城林路6巷80號","121.438405","24.979685","6501300","土城區"
"236024","269-VK","2018/02/22 14:09:34","新北市土城區承天路18號","121.439246666667","24.9635433333333","6501300","土城區"
"236012","270-VK","2018/02/22 14:09:46","新北市土城區明德路二段131號","121.449551666667","24.9822683333333","6501300","土城區"
"236033","271-VK","2018/02/22 14:09:44","新北市土城區青雲路453號","121.458768333333","24.9746416666667","6501300","土城區"
"236018","401-BY","2018/02/22 14:09:39","新北市土城區城林路6巷80號","121.438538333333","24.9797216666667","6501300","土城區"
"236005","498-BY","2018/02/22 14:09:38","新北市土城區中央路三段85-4號","121.437988333333","24.96806","6501300","土城區"
"236056","912-UM","2018/02/22 14:09:39","新北市土城區中央路四段48號","121.420395","24.9605383333333","6501300","土城區"
"236047","913-UM","2018/02/22 14:09:46","新北市土城區明德路一段365-1號","121.453558333333","24.979025","6501300","土城區"
"236060","915-UM","2018/02/22 14:09:44","新北市土城區金城路二段396號","121.463845","24.98569","6501300","土城區"
"236052","AAC-216","2018/02/22 14:09:38","新北市土城區中華路二段104號","121.43803","24.97429","6501300","土城區"
"242001","233-RS","2018/02/22 14:09:39","新北市新莊區碧江街27號","121.453795","25.0336266666667","6500500","新莊區"
"220027","145-BY","2018/02/22 14:09:37","新北市板橋區民權路202巷10弄1號","121.460443333333","25.0153016666667","6500100","板橋區"
"220028","200-UY","2018/02/22 14:09:37","新北市板橋區大觀路二段37巷89-1號","121.450233333333","25.0018333333333","6500100","板橋區"
"220030","610-BX","2018/02/22 14:09:38","新北市板橋區溪崑二街41號","121.428381666667","24.9910183333333","6500100","板橋區"
"220050","245-BX","2018/02/22 14:09:50","新北市板橋區莊敬路221號","121.471833333333","25.022035","6500100","板橋區"
"220045","267-BY","2018/02/22 14:09:34","新北市板橋區莒光路165巷4-4號","121.474085","25.0240033333333","6500100","板橋區"
"220004","276-BY","2018/02/22 14:09:45","新北市土城區廣福街120號","121.456563333333","24.9927166666667","6500100","板橋區"
"220019","283-VK","2018/02/22 14:09:40","新北市板橋區重慶路353巷1號","121.46448","24.9979333333333","6500100","板橋區"
"220043","285-UM","2018/02/22 14:09:39","新北市板橋區光武街125巷1號","121.466131666667","25.0285133333333","6500100","板橋區"
"220001","285-VK","2018/02/22 14:09:35","新北市板橋區懷仁街14巷27號","121.475536666667","25.0194916666667","6500100","板橋區"
"220031","286-VK","2018/02/22 14:09:45","新北市板橋區龍興街97巷5號","121.443915","25.00272","6500100","板橋區"
"220029","287-VK","2018/02/22 14:09:39","新北市板橋區南雅西路二段156巷5號","121.452165","25.013385","6500100","板橋區"
"220009","293-UM","2018/02/22 14:09:31","新北市板橋區中山路二段248號","121.478608333333","25.0182116666667","6500100","板橋區"
"220032","296-UM","2018/02/22 14:09:30","新北市板橋區篤行路一段8號","121.431781666667","24.9953783333333","6500100","板橋區"
"220023","303-R5","2018/02/22 14:09:44","新北市板橋區大智街25巷12號","121.4547","25.014765","6500100","板橋區"
"220010","305-R5","2018/02/22 14:09:39","新北市板橋區三民路二段居仁巷1-2號","121.479403333333","25.0132766666667","6500100","板橋區"
"220041","307-R5","2018/02/22 14:09:47","新北市板橋區文化路二段225巷37號","121.469321666667","25.0282783333333","6500100","板橋區"
"220047","317-R6","2018/02/22 14:09:36","新北市板橋區自由路51巷14弄3號","121.464721666667","25.023665","6500100","板橋區"
"220012","486-VK","2018/02/22 14:09:32","新北市板橋區板新路101號","121.472568333333","25.0142633333333","6500100","板橋區"
"220037","491-VK","2018/02/22 14:09:34","新北市板橋區莊敬路38號","121.472756666667","25.0271066666667","6500100","板橋區"
"220104","560-BX","2018/02/22 14:09:45","新北市板橋區中正路379巷1弄19號","121.45309","25.02183","6500100","板橋區"
"220052","561-BX","2018/02/22 14:09:41","新北市板橋區文化路一段188巷7弄42號","121.468168333333","25.0192933333333","6500100","板橋區"
"220011","609-BX","2018/02/22 14:09:36","新北市板橋區中山路二段311號","121.478898333333","25.0184316666667","6500100","板橋區"
"220040","637-BX","2018/02/22 14:09:50","新北市板橋區萬板路476號","121.479928333333","25.0259916666667","6500100","板橋區"
"220005","686-BX","2018/02/22 14:09:42","新北市板橋區重慶路221號","121.463018333333","25.0010916666667","6500100","板橋區"
"220025","687-BX","2018/02/22 14:09:47","新北市板橋區龍興街73巷2號","121.443943333333","25.0020716666667","6500100","板橋區"
"220042","689-BX","2018/02/22 14:08:58","新北市板橋區民生路三段283號","121.464133333333","25.0301666666667","6500100","板橋區"
"220002","741-BX","2018/02/22 14:09:43","新北市板橋區重慶路93巷47號","121.463371666667","25.0059766666667","6500100","板橋區"
"220051","KEA-2699","2018/02/22 14:09:35","新北市板橋區田單街51號","121.482628333333","25.0279266666667","6500100","板橋區"
"220003","827-TW","2018/02/22 14:09:46","新北市板橋區新民街9號","121.463725","25.0097833333333","6500100","板橋區"
"220014","829-TW","2018/02/22 14:09:43","新北市板橋區中山路二段90巷43弄12號","121.47674","25.0150616666667","6500100","板橋區"
"220039","830-TW","2018/02/22 14:09:39","新北市板橋區四維路291巷1號","121.46199","25.0281783333333","6500100","板橋區"
"220038","833-TW","2018/02/22 14:09:41","新北市板橋區文化路二段435號","121.474996666667","25.0329483333333","6500100","板橋區"
"220022","895-R6","2018/02/22 14:09:44","新北市板橋區林園街44號","121.453688333333","25.010375","6500100","板橋區"
"220021","985-R7","2018/02/22 14:09:36","新北市板橋區中正路79號","121.456325","25.014145","6500100","板橋區"
"220018","AAC-253","2018/02/22 14:09:49","新北市板橋區四川路一段285號","121.459273333333","25.001565","6500100","板橋區"
