"lineid","car","time","location","longitude","latitude","cityid","cityname"
"248007","095-VK","2018/02/22 15:09:21","新北市五股區中興路一段3號","121.469691666667","25.0721933333333","6501500","五股區"
"248017","225-UY","2018/02/22 15:09:09","新北市五股區登林路120-1號","121.412326666667","25.07708","6501500","五股區"
"248003","677-BX","2018/02/22 15:09:19","新北市五股區成泰路一段76號","121.435676666667","25.0702066666667","6501500","五股區"
"244003","248-BX","2018/02/22 15:09:09","新北市林口區竹林路266號","121.38965","25.0807916666667","6501700","林口區"
"243001","267-VK","2018/02/22 15:09:28","新北市泰山區泰林路二段306巷12號","121.431263333333","25.0635866666667","6501600","泰山區"
"243003","297-R6","2018/02/22 15:09:13","新北市泰山區德安街4號","121.419045","25.0320183333333","6501600","泰山區"
"243007","380-SR","2018/02/22 15:09:18","新北市泰山區同義街47巷7弄14號","121.432371666667","25.056635","6501600","泰山區"
"243006","421-VK","2018/02/22 15:09:17","新北市泰山區橫窠雅24-1號","121.410028333333","25.0709666666667","6501600","泰山區"
"243004","539-UM","2018/02/22 15:09:25","新北市泰山區泰林路二段408號","121.42749","25.064295","6501600","泰山區"
"243002","KEA-2215","2018/02/22 15:09:07","新北市泰山區明志路二段85號","121.428678333333","25.0521483333333","6501600","泰山區"
"243008","680-BX","2018/02/22 15:09:15","新北市泰山區新生路7號","121.426715","25.0456883333333","6501600","泰山區"
"231002","002-UM","2018/02/22 15:09:23","新北市新店區中正路558號","121.53365","24.98719","6500600","新店區"
"231025","0293-UT","2018/02/22 15:09:19","新北市新店區建國路249號","121.53765","24.9825616666667","6500600","新店區"
"231028","046-UY","2018/02/22 15:09:13","新北市新店區僑仁路2號","121.499528333333","24.9514866666667","6500600","新店區"
"231030","047-UY","2018/02/22 15:09:09","新北市新店區安民街339號","121.516996666667","24.974845","6500600","新店區"
"231029","106-UY","2018/02/22 15:09:22","新北市新店區安康路三段716號","121.473948333333","24.9420816666667","6500600","新店區"
"231018","107-UY","2018/02/22 15:09:10","新北市新店區中央六街77號","121.526968333333","24.9764283333333","6500600","新店區"
"231011","108-UY","2018/02/22 15:09:18","新北市新店區寶元路一段65號","121.54225","24.9858133333333","6500600","新店區"
"231021","187-VK","2018/02/22 15:09:16","新北市新店區湖興路97號","121.565585","24.93223","6500600","新店區"
"231017","KEA-2219","2018/02/22 15:04:31","新北市新店區明山路5號","121.56338","24.955605","6500600","新店區"
"231026","256-BX","2018/02/22 15:09:22","新北市新店區建安街17號","121.539696666667","24.9754316666667","6500600","新店區"
"231023","AAD-862","2018/02/22 15:09:25","新北市新店區中興路一段138號","121.542231666667","24.9635733333333","6500600","新店區"
"231024","4716-K9","2018/02/22 15:09:21","新北市新店區中華路42巷20號","121.540713333333","24.96882","6500600","新店區"
"231036","512-UM","2018/02/22 15:09:20","新北市新店區安祥路102巷31號","121.48532","24.964395","6500600","新店區"
"231035","515-UM","2018/02/22 15:09:13","新北市新店區安和路三段173號","121.515906666667","24.9862533333333","6500600","新店區"
"231001","619-UM","2018/02/22 15:09:16","新北市新店區中正路234號","121.539826666667","24.9729366666667","6500600","新店區"
"231003","641-BX","2018/02/22 15:09:25","新北市新店區寶橋路192號","121.550513333333","24.9783116666667","6500600","新店區"
"231034","645-TV","2018/02/22 15:09:11","新北市新店區玫瑰路4-1號","121.493601666667","24.95138","6500600","新店區"
"231039","718-UY","2018/02/22 15:09:15","新北市新店區民權路13號","121.542396666667","24.9828316666667","6500600","新店區"
"231031","720-UM","2018/02/22 15:09:17","新北市新店區安泰路11巷1號","121.485521666667","24.9502083333333","6500600","新店區"
"231005","897-TW","2018/02/22 15:09:20","新北市新店區寶慶街71號","121.541818333333","24.9866533333333","6500600","新店區"
"231006","898-TW","2018/02/22 15:09:20","新北市新店區新坡一街18巷5弄8-1號","121.550738333333","24.96183","6500600","新店區"
"231004","899-TW","2018/02/22 15:09:18","新北市新店區建國路43號","121.540551666667","24.9751166666667","6500600","新店區"
"231037","AKT-0513","2018/02/22 15:09:09","新北市新店區安興路56號","121.516565","24.9749583333333","6500600","新店區"
"235030","003-UY","2018/02/22 15:09:24","新北市中和區水源路154巷2號","121.50807","25.0032816666667","6500300","中和區"
"235020","096-UM","2018/02/22 15:09:18","新北市中和區中山路三段146-1號","121.473483333333","25.0069566666667","6500300","中和區"
"235003","097-UM","2018/02/22 15:09:09","新北市中和區安樂路217巷58號","121.51307","24.997725","6500300","中和區"
"235029","098-UM","2018/02/22 15:09:24","新北市中和區永和路128巷47號","121.497708333333","25.0068916666667","6500300","中和區"
"235004","150-BY","2018/02/22 15:09:21","新北市中和區保健路10巷25弄12號","121.508761666667","24.996965","6500300","中和區"
"235036","301-VK","2018/02/22 15:09:13","新北市中和區中正路637巷60弄61號","121.485513333333","24.9929966666667","6500300","中和區"
"235007","352-BY","2018/02/22 15:09:21","新北市中和區興南路二段159巷1號","121.505176666667","24.9832483333333","6500300","中和區"
"235014","4979-A6","2018/02/22 15:09:14","新北市中和區安樂路58號","121.51222","24.9931533333333","6500300","中和區"
"235033","4980-A6","2018/02/22 15:09:27","新北市中和區景新街64巷7弄6號","121.50415","24.9986116666667","6500300","中和區"
"235006","551-UM","2018/02/22 15:09:24","新北市中和區景安路79巷23號","121.507053333333","24.9967133333333","6500300","中和區"
"235034","558-UM","2018/02/22 15:09:21","新北市中和區中正路294號","121.494495","24.9941416666667","6500300","中和區"
"235018","640-BX","2018/02/22 15:09:18","新北市中和區民享街41號","121.474015","25.00298","6500300","中和區"
"235016","805-TS","2018/02/22 15:09:20","新北市中和區華新街50巷5弄30號","121.507428333333","24.9833016666667","6500300","中和區"
"235012","896-TW","2018/02/22 15:09:23","新北市中和區興南路一段141號","121.508871666667","24.9874","6500300","中和區"
"235015","157-BY","2018/02/22 15:09:18","新北市中和區景安路198號","121.504226666667","24.99145","6500300","中和區"
"235001","AAC-213","2018/02/22 15:09:18","新北市中和區自強路52號","121.520141666667","24.9948083333333","6500300","中和區"
"235023","AAC-215","2018/02/22 15:09:18","新北市中和區圓通路335巷37弄4號","121.493845","24.9891316666667","6500300","中和區"
"220016","013-TV","2018/02/22 15:09:22","新北市板橋區光復街70號","121.482711666667","25.0185216666667","6500100","板橋區"
"220013","072-UY","2018/02/22 15:09:26","新北市板橋區民族路69巷5號","121.46551","25.009265","6500100","板橋區"
"220105","075-UY","2018/02/22 15:09:17","新北市板橋區文聖街11巷24號","121.476146666667","25.0330066666667","6500100","板橋區"
"220017","AAD-861","2018/02/22 15:09:25","新北市板橋區貴興路65號","121.457128333333","25.0031183333333","6500100","板橋區"
"247007","053-VK","2018/02/22 15:09:15","新北市八里區商港路6號","121.39713","25.14441","6501400","蘆洲區"
"228004","212-TW","2018/02/22 15:09:24","新北市貢寮區雙玉里田寮洋街16-2號","121.921825","25.0251333333333","6502600","貢寮區"
"253003","6232-TK","2018/02/22 15:09:14","新北市石門區小坑9號","121.594061666667","25.288665","6502200","石門區"
"253001","6251-TK","2018/02/22 15:09:18","新北市石門區崁子腳31-2號","121.537405","25.28497","6502200","石門區"
"253002","637-UY","2018/02/22 15:09:09","新北市石門區尖子鹿79號","121.572205","25.2959716666667","6502200","石門區"
"253004","8270-PC","2018/02/22 15:09:24","新北市石門區茂林社區3-1號","121.592056666667","25.2710533333333","6502200","石門區"
"208004","AAC-292","2018/02/22 15:09:10","新北市金山區法鼓路555號","121.614388333333","25.2396283333333","6502700","金山區"
"207002","749-BX","2018/02/22 15:09:09","新北市萬里區崁腳里內中福路73-1號","121.65499","25.16719","6502800","萬里區"
"207001","662-BX","2018/02/22 15:09:21","新北市萬里區磺潭里員潭路16-3號","121.646436666667","25.19645","6502800","萬里區"
"236066","105-UM","2018/02/22 15:09:12","新北市土城區裕生路84巷2號","121.44737","24.9853633333333","6501300","土城區"
"236040","107-UM","2018/02/22 15:09:25","新北市土城區裕民路244號","121.454133333333","24.983195","6501300","土城區"
"236076","166-UM","2018/02/22 15:09:22","新北市土城區大暖坑11-2號","121.418796666667","24.9536066666667","6501300","土城區"
"236028","253-BX","2018/02/22 15:09:18","新北市土城區中央路二段64號","121.44253","24.9792833333333","6501300","土城區"
"236024","269-VK","2018/02/22 15:09:14","新北市土城區中正路63號","121.444405","24.9755966666667","6501300","土城區"
"236012","270-VK","2018/02/22 15:09:26","新北市土城區學府路一段75巷1弄2號","121.457246666667","24.9876833333333","6501300","土城區"
"236033","271-VK","2018/02/22 15:09:24","新北市土城區仁愛路42號","121.461783333333","24.9793616666667","6501300","土城區"
"236018","401-BY","2018/02/22 15:09:22","新北市土城區延峰街29巷1號","121.469435","24.985135","6501300","土城區"
"236056","912-UM","2018/02/22 15:09:19","新北市土城區清水路3號","121.452893333333","24.9802033333333","6501300","土城區"
"236047","913-UM","2018/02/22 15:09:19","新北市土城區清水路172號","121.459973333333","24.9816416666667","6501300","土城區"
"236060","915-UM","2018/02/22 15:09:24","新北市土城區延和路78號","121.466156666667","24.9893566666667","6501300","土城區"
"236052","AAC-216","2018/02/22 15:09:18","新北市土城區學府路一段165號","121.453053333333","24.9857833333333","6501300","土城區"
"242001","233-RS","2018/02/22 14:40:13","新北市新莊區環河路636-7號","121.437456666667","25.0116666666667","6500500","新莊區"
"238002","755-BX","2018/02/22 15:09:20","新北市樹林區育德街76巷1號","121.388631666667","24.968095","6500700","樹林區"
"238010","601-UM","2018/02/22 15:09:22","新北市樹林區東佳路218號","121.410931666667","24.9819266666667","6500700","樹林區"
"238006","599-UM","2018/02/22 15:09:14","新北市樹林區八德街321-1號","121.419411666667","24.9743016666667","6500700","樹林區"
"238005","571-TV","2018/02/22 15:09:26","新北市板橋區溪城路90-2號","121.428725","24.9795666666667","6500700","樹林區"
"238011","5061-A6","2018/02/22 15:09:23","新北市樹林區鎮前街160號","121.424501666667","24.990055","6500700","樹林區"
"238008","KEA-2217","2018/02/22 15:09:11","新北市樹林區西圳街一段165巷20弄16號","121.395458333333","24.96035","6500700","樹林區"
"238009","KEA-2213","2018/02/22 15:09:17","新北市樹林區環河路2-2號","121.425255","24.9767466666667","6500700","樹林區"
"238001","283-BY","2018/02/22 15:09:19","新北市樹林區大安路531號","121.413618333333","24.9854016666667","6500700","樹林區"
"238007","268-VK","2018/02/22 15:09:21","新北市樹林區八德街247巷24-3號","121.419925","24.9732666666667","6500700","樹林區"
"238013","172-UY","2018/02/22 15:09:15","新北市樹林區東順街123號","121.406888333333","24.97512","6500700","樹林區"
"238003","169-UY","2018/02/22 15:09:14","新北市樹林區中山路三段67-5號","121.4007","24.9750416666667","6500700","樹林區"
"221008","567-BX","2018/02/22 15:09:12","台北市南港區研究院路三段249號","121.61179","25.03028","6501100","汐止區"
"220027","145-BY","2018/02/22 15:09:16","新北市板橋區大智街40號","121.455061666667","25.01526","6500100","板橋區"
"220028","200-UY","2018/02/22 15:09:25","新北市板橋區大觀路二段179巷25號","121.445973333333","24.9997633333333","6500100","板橋區"
"220030","610-BX","2018/02/22 15:09:22","新北市板橋區篤行路二段126-3號","121.43119","24.990655","6500100","板橋區"
"220050","245-BX","2018/02/22 15:09:20","新北市板橋區縣民大道三段31號","121.473891666667","25.0207016666667","6500100","板橋區"
"220045","267-BY","2018/02/22 15:09:15","新北市板橋區莊敬路168號","121.47162","25.0225866666667","6500100","板橋區"
"220019","283-VK","2018/02/22 15:09:20","新北市板橋區四川路一段387號","121.457735","24.998985","6500100","板橋區"
"220043","285-UM","2018/02/22 15:09:13","新北市板橋區陽明街34號","121.466073333333","25.0218166666667","6500100","板橋區"
"220001","285-VK","2018/02/22 15:09:13","新北市板橋區懷仁街85號","121.47745","25.0184016666667","6500100","板橋區"
"220031","286-VK","2018/02/22 15:09:26","新北市板橋區僑中二街88巷21號","121.445236666667","25.0095166666667","6500100","板橋區"
"220029","287-VK","2018/02/22 15:09:20","新北市板橋區僑中一街124巷20弄20號","121.446963333333","25.0139116666667","6500100","板橋區"
"220009","293-UM","2018/02/22 15:09:11","新北市板橋區觀光街4巷2弄1號","121.472338333333","25.0158333333333","6500100","板橋區"
"220032","296-UM","2018/02/22 15:09:10","新北市板橋區溪崑二街112巷33弄1號","121.425638333333","24.989065","6500100","板橋區"
"220023","303-R5","2018/02/22 15:09:22","新北市板橋區金華街10巷48弄55號","121.45896","25.0201866666667","6500100","板橋區"
"220041","307-R5","2018/02/22 15:09:18","新北市板橋區裕民街128巷3號","121.458801666667","25.0276683333333","6500100","板橋區"
"220047","317-R6","2018/02/22 15:09:19","新北市板橋區新海路72巷5弄5號","121.461955","25.0222383333333","6500100","板橋區"
"220012","486-VK","2018/02/22 15:09:18","新北市板橋區實踐路68號","121.463863333333","25.0057416666667","6500100","板橋區"
"220037","491-VK","2018/02/22 15:09:14","新北市板橋區大同街89號","121.480006666667","25.0283066666667","6500100","板橋區"
"220104","560-BX","2018/02/22 15:09:24","新北市板橋區新生街87巷22號","121.457088333333","25.0220333333333","6500100","板橋區"
"220052","561-BX","2018/02/22 15:09:19","新北市板橋區文化路一段435巷31弄11號","121.466933333333","25.0228633333333","6500100","板橋區"
"220011","609-BX","2018/02/22 15:09:12","新北市板橋區三民路一段31巷89弄3號","121.481818333333","25.0232583333333","6500100","板橋區"
"220040","637-BX","2018/02/22 15:09:10","新北市板橋區懷德街174巷26號","121.478311666667","25.0292483333333","6500100","板橋區"
"220025","687-BX","2018/02/22 15:09:27","新北市板橋區僑中一街102巷3弄20號","121.445928333333","25.01249","6500100","板橋區"
"220042","689-BX","2018/02/22 15:09:18","新北市板橋區長江路二段245號","121.469038333333","25.0327383333333","6500100","板橋區"
"220002","741-BX","2018/02/22 15:09:23","新北市板橋區忠孝路201巷50號","121.464916666667","25.0038683333333","6500100","板橋區"
"220051","KEA-2699","2018/02/22 15:09:15","新北市板橋區懷德街66巷8號","121.477145","25.0322033333333","6500100","板橋區"
"220003","827-TW","2018/02/22 15:09:24","新北市板橋區仁愛路88號","121.460981666667","24.9996216666667","6500100","板橋區"
"220014","829-TW","2018/02/22 15:09:23","新北市板橋區中山路一段206巷89號","121.47195","25.0132466666667","6500100","板橋區"
"220039","830-TW","2018/02/22 15:09:26","新北市板橋區幸福路32巷2弄38號","121.4609","25.0219733333333","6500100","板橋區"
"220038","833-TW","2018/02/22 15:09:21","新北市板橋區新海路385巷32號","121.457428333333","25.0254633333333","6500100","板橋區"
"220021","985-R7","2018/02/22 15:09:30","新北市板橋區南雅西路二段160號","121.45181","25.0135","6500100","板橋區"
"220046","AAC-210","2018/02/22 15:09:23","新北市板橋區光正街45巷2弄3號","121.461776666667","25.01725","6500100","板橋區"
"220018","AAC-253","2018/02/22 15:09:09","新北市板橋區實踐路47號","121.463678333333","25.0069166666667","6500100","板橋區"
