"lineid","car","time","location","longitude","latitude","cityid","cityname"
"234026","9371-KE","2018/02/22 17:39:22","新北市永和區豫溪街61號","121.51738","25.0099433333333","6500400","永和區"
"249005","172-UM","2018/02/22 17:39:28","新北市八里區荖阡坑路34號","121.402796666667","25.1298183333333","6502300","八里區"
"249001","173-UM","2018/02/22 17:39:27","新北市八里區龍米路二段202號","121.433561666667","25.1584133333333","6502300","八里區"
"249004","303-UY","2018/02/22 17:39:25","新北市八里區民享街15號","121.413841666667","25.1579483333333","6502300","八里區"
"249002","305-UY","2018/02/22 17:39:26","新北市八里區石壁腳9-5號","121.445063333333","25.1345533333333","6502300","八里區"
"249003","593-UM","2018/02/22 17:39:31","新北市八里區中山路二段219號","121.403548333333","25.1493883333333","6502300","八里區"
"248006","077-UY","2018/02/22 17:39:34","新北市五股區中興路二段83巷26-6號","121.459985","25.0750216666667","6501500","五股區"
"232011","375-UM","2018/02/22 17:39:27","新北市坪林區水柳腳34號","121.710153333333","24.9353266666667","6502000","坪林區"
"244013","069-UM","2018/02/22 17:39:20","新北市林口區中正路555號","121.381121666667","25.0768766666667","6501700","林口區"
"244007","080-UY","2018/02/22 17:39:38","新北市林口區林口路226號","121.386728333333","25.0838533333333","6501700","林口區"
"244019","402-UM","2018/02/22 17:39:23","新北市林口區公園路203號","121.372561666667","25.0729466666667","6501700","林口區"
"244023","483-VK","2018/02/22 17:39:21","新北市林口區興林路152巷18號","121.38805","25.0716166666667","6501700","林口區"
"244017","485-VK","2018/02/22 17:39:30","新北市林口區忠孝路407號","121.370383333333","25.0706383333333","6501700","林口區"
"244009","657-BX","2018/02/22 17:39:34","新北市林口區中北三街126號","121.383778333333","25.08405","6501700","林口區"
"244011","701-TV","2018/02/22 17:39:38","新北市林口區佳林路148號","121.384175","25.0771366666667","6501700","林口區"
"244025","837-TS","2018/02/22 17:39:30","新北市林口區忠孝路308巷21號","121.367238333333","25.0721116666667","6501700","林口區"
"244021","838-TS","2018/02/22 17:39:39","新北市林口區中山路2-2號","121.39666","25.078735","6501700","林口區"
"243013","646-TV","2018/02/22 17:39:37","新北市泰山區大科一路301巷16號","121.40421","25.0545066666667","6501600","泰山區"
"222003","436-BY","2018/02/22 17:39:32","新北市深坑區深南路50號","121.619745","25.0090283333333","6501800","深坑區"
"222002","659-BX","2018/02/22 17:39:37","新北市深坑區北深路二段2巷3號","121.621795","25.0047","6501800","深坑區"
"231046","278-BY","2018/02/22 17:39:27","新北市新店區直潭路92號","121.530918333333","24.9375783333333","6500600","新店區"
"241017","063-VK","2018/02/22 17:39:40","新北市三重區大同北路15號","121.495466666667","25.06238","6500200","三重區"
"241003","156-TC","2018/02/22 17:39:37","新北市三重區富福街23號","121.490538333333","25.0835216666667","6500200","三重區"
"241005","262-UM","2018/02/22 17:39:29","新北市三重區永安北路二段33號","121.482383333333","25.0821983333333","6500200","三重區"
"241016","265-UM","2018/02/22 17:39:38","新北市三重區正義北路37號","121.49745","25.0638066666667","6500200","三重區"
"241007","398-BY","2018/02/22 17:39:19","新北市三重區三和路四段145巷186號","121.488828333333","25.07966","6500200","三重區"
"241020","413-TH","2018/02/22 17:39:22","新北市三重區忠孝路一段107號","121.489153333333","25.0721433333333","6500200","三重區"
"241014","543-UM","2018/02/22 17:39:25","新北市三重區河邊北街80號","121.504318333333","25.0688216666667","6500200","三重區"
"241019","KEA-2593","2018/02/22 17:39:21","新北市三重區六張街202號","121.488206666667","25.0685066666667","6500200","三重區"
"241018","887-TS","2018/02/22 17:39:37","新北市三重區新北大道一段6號","121.489006666667","25.0614366666667","6500200","三重區"
"241012","941-UM","2018/02/22 17:39:27","新北市三重區仁昌街97號","121.499805","25.07504","6500200","三重區"
"241033","AAC-255","2018/02/22 17:39:34","新北市三重區興德路141巷25號","121.469485","25.05384","6500200","三重區"
"235046","733-UM","2018/02/22 17:15:50","新北市中和區員山路36巷13號","121.484233333333","24.9908566666667","6500300","中和區"
"235062","800-TS","2018/02/22 17:15:03","新北市中和區員山路36巷16-3號","121.484785","24.9915266666667","6500300","中和區"
"247022","893-R6","2018/02/22 17:39:34","新北市蘆洲區三民路283號","121.467205","25.08976","6501400","蘆洲區"
"247012","546-UM","2018/02/22 17:39:26","新北市蘆洲區民權路29號","121.476153333333","25.0864216666667","6501400","蘆洲區"
"247020","500-BY","2018/02/22 17:39:38","新北市蘆洲區民族路347號","121.472408333333","25.0917583333333","6501400","蘆洲區"
"247010","339-TH","2018/02/22 17:39:34","新北市蘆洲區集賢路412號","121.479778333333","25.0813916666667","6501400","蘆洲區"
"247002","337-TH","2018/02/22 17:39:31","新北市蘆洲區永平街32巷11弄19號","121.458265","25.091635","6501400","蘆洲區"
"247004","336-TH","2018/02/22 17:39:23","新北市蘆洲區長安街249巷42號","121.457581666667","25.0825383333333","6501400","蘆洲區"
"247016","057-VK","2018/02/22 17:39:40","新北市蘆洲區光華路46巷28號","121.468146666667","25.0839916666667","6501400","蘆洲區"
"247006","056-VK","2018/02/22 17:39:35","新北市蘆洲區長安街46巷7弄11號","121.46334","25.0804566666667","6501400","蘆洲區"
"247008","053-VK","2018/02/22 17:39:22","新北市蘆洲區成功路1號","121.47394","25.0775983333333","6501400","蘆洲區"
"247014","007-UY","2018/02/22 17:39:29","新北市蘆洲區成功路131巷8-1號","121.471606666667","25.08187","6501400","蘆洲區"
"247024","002-UY","2018/02/22 17:39:39","新北市蘆洲區長樂路93號","121.46213","25.0873633333333","6501400","蘆洲區"
"247018","001-UY","2018/02/22 17:39:41","新北市蘆洲區三民路110巷27號","121.472421666667","25.0875883333333","6501400","蘆洲區"
"228003","097-TW","2018/02/22 17:39:31","新北市貢寮區仁理村仁和路37號","121.923986666667","25.0539166666667","6502600","貢寮區"
"228001","212-TW","2018/02/22 17:39:33","新北市貢寮區仁理村仁愛路95-1號","121.927655","25.05548","6502600","貢寮區"
"228002","585-TW","2018/02/22 17:39:34","新北市貢寮區福隆里外隆林街14-1號","121.959121666667","25.00372","6502600","貢寮區"
"224010","AGQ-8101","2018/02/22 17:39:31","新北市瑞芳區岳王路54-6號","121.808815","25.1111316666667","6501200","瑞芳區"
"224006","676-BX","2018/02/22 17:39:42","新北市瑞芳區中山路342號","121.796123333333","25.1101716666667","6501200","瑞芳區"
"224009","285-BY","2018/02/22 17:39:39","新北市瑞芳區崙頂路3-1號","121.846188333333","25.10456","6501200","瑞芳區"
"224008","275-VK","2018/02/22 17:39:27","新北市瑞芳區明燈路一段18巷9號","121.822365","25.108545","6501200","瑞芳區"
"224005","271-BY","2018/02/22 17:39:36","新北市瑞芳區海濱路68號","121.831508333333","25.1243383333333","6501200","瑞芳區"
"251009","008-UM","2018/02/22 17:39:35","新北市淡水區真理街2號","121.438788333333","25.1731183333333","6501000","淡水區"
"251004","009-UM","2018/02/22 17:39:26","新北市淡水區中正東路二段88巷37-22號","121.459303333333","25.1438516666667","6501000","淡水區"
"251001","011-UM","2018/02/22 17:39:35","新北市淡水區民權路92巷35-1號","121.462173333333","25.1266633333333","6501000","淡水區"
"251013","179-VK","2018/02/22 17:39:35","新北市淡水區演戲埔腳3-1號","121.473923333333","25.1912016666667","6501000","淡水區"
"251014","180-VK","2018/02/22 17:39:38","新北市淡水區公埔子15-1號","121.4792","25.2266816666667","6501000","淡水區"
"251008","181-VK","2018/02/22 17:39:23","新北市淡水區八勢路30巷13號","121.462298333333","25.1538766666667","6501000","淡水區"
"251015","182-VK","2018/02/22 17:39:27","新北市淡水區糞箕湖9號","121.484896666667","25.1710483333333","6501000","淡水區"
"251010","413-VK","2018/02/22 17:39:24","新北市淡水區淡海路280巷21號","121.419751666667","25.189735","6501000","淡水區"
"251012","441-VK","2018/02/22 17:39:37","新北市淡水區北新路200巷8號","121.451746666667","25.1797183333333","6501000","淡水區"
"251016","442-VK","2018/02/22 17:39:28","新北市淡水區埤島39-15號","121.452738333333","25.1959116666667","6501000","淡水區"
"251005","443-VK","2018/02/22 17:39:29","新北市淡水區鄧公路33巷7號","121.451725","25.1710316666667","6501000","淡水區"
"251006","561-UM","2018/02/22 17:39:32","新北市淡水區大信街31-3號","121.442066666667","25.1771283333333","6501000","淡水區"
"251007","577-R6","2018/02/22 17:39:32","新北市淡水區民生路124巷24號","121.464013333333","25.1376566666667","6501000","淡水區"
"251011","650-BX","2018/02/22 17:39:22","新北市淡水區小坪頂13-3號","121.486593333333","25.1561866666667","6501000","淡水區"
"251002","672-BX","2018/02/22 17:39:29","新北市淡水區建設街1巷1號","121.43915","25.1728383333333","6501000","淡水區"
"251003","766-UM","2018/02/22 17:39:25","新北市淡水區重建街225-1號","121.441441666667","25.1751116666667","6501000","淡水區"
"207003","550-UM","2018/02/22 17:39:30","新北市萬里區龜吼里漁澳路10號","121.686265","25.19469","6502800","萬里區"
"207004","225-TW","2018/02/22 17:39:40","新北市萬里區中幅里中福路8-1號","121.685683333333","25.16458","6502800","萬里區"
"252002","178-VK","2018/02/22 17:39:24","新北市三芝區智成街76號","121.504926666667","25.2558616666667","6502100","三芝區"
"252001","292-VK","2018/02/22 17:39:28","新北市三芝區淡金路一段83號","121.502123333333","25.2588916666667","6502100","三芝區"
"237013","252-BX","2018/02/22 17:39:34","新北市三峽區中華路8-1號","121.374966666667","24.9329483333333","6500900","三峽區"
"237014","433-BY","2018/02/22 17:39:36","新北市三峽區中山路459巷137號","121.350491666667","24.9341616666667","6500900","三峽區"
"237006","5529-G3","2018/02/22 17:39:37","新北市三峽區介壽路一段554號","121.387395","24.9336516666667","6500900","三峽區"
"237010","706-TV","2018/02/22 17:39:41","新北市三峽區中山路155號","121.36476","24.9363816666667","6500900","三峽區"
"236042","107-UM","2018/02/22 17:39:22","新北市土城區城林路6巷80號","121.438391666667","24.9797783333333","6501300","土城區"
"236030","253-BX","2018/02/22 17:39:34","新北市土城區城林路6巷80號","121.438481666667","24.9797416666667","6501300","土城區"
"236026","269-VK","2018/02/22 17:39:39","新北市土城區城林路6巷80號","121.438471666667","24.9795233333333","6501300","土城區"
"236014","270-VK","2018/02/22 17:39:38","新北市土城區城林路6巷80號","121.438535","24.9796183333333","6501300","土城區"
"236037","271-VK","2018/02/22 17:39:32","新北市土城區城林路6巷80號","121.438486666667","24.979665","6501300","土城區"
"236021","401-BY","2018/02/22 17:39:32","新北市土城區城林路6巷80號","121.438613333333","24.9797733333333","6501300","土城區"
"242029","986-R7","2018/02/22 17:39:37","新北市新莊區復興路二段27號","121.45398","25.0440433333333","6500500","新莊區"
"242051","751-BX","2018/02/22 17:39:26","新北市新莊區西盛街216號","121.428073333333","25.01731","6500500","新莊區"
"242023","705-TV","2018/02/22 17:39:30","新北市新莊區公園路234號","121.457383333333","25.0407466666667","6500500","新莊區"
"242025","615-BX","2018/02/22 17:39:34","新北市新莊區思源路110號","121.460103333333","25.0466066666667","6500500","新莊區"
"242027","612-BX","2018/02/22 17:39:39","新北市新莊區福壽街107號","121.457956666667","25.0508016666667","6500500","新莊區"
"242039","566-BX","2018/02/22 17:39:24","新北市新莊區民安東路36號","121.42887","25.02089","6500500","新莊區"
"242044","497-BY","2018/02/22 17:39:29","新北市新莊區中正路871巷9弄1號","121.418683333333","25.026785","6500500","新莊區"
"242009","441-UM","2018/02/22 17:39:35","新北市新莊區昌明街14巷16號","121.45736","25.0533616666667","6500500","新莊區"
"242053","440-UM","2018/02/22 17:39:37","新北市新莊區新樹路699巷27號","121.432755","25.0015783333333","6500500","新莊區"
"242034","415-TV","2018/02/22 17:39:32","新北市新莊區新莊路520號","121.44576","25.0332216666667","6500500","新莊區"
"242004","413-TV","2018/02/22 17:39:32","新北市新莊區自立街178號","121.45601","25.0452433333333","6500500","新莊區"
"242042","400-BY","2018/02/22 17:39:36","新北市泰山區貴陽街66號","121.42346","25.0323316666667","6500500","新莊區"
"242061","362-BY","2018/02/22 17:39:38","新北市新莊區瓊林南路103巷8弄39號","121.435295","25.011135","6500500","新莊區"
"242058","353-BY","2018/02/22 17:39:25","新北市新莊區民安路2號","121.422676666667","25.0290583333333","6500500","新莊區"
"242007","132-UY","2018/02/22 17:39:27","新北市新莊區自信街53號","121.454975","25.04829","6500500","新莊區"
"242036","133-UY","2018/02/22 17:39:42","新北市新莊區建福路59巷40號","121.428473333333","25.0277683333333","6500500","新莊區"
"242021","135-UY","2018/02/22 17:39:34","新北市新莊區中華路一段118號","121.452468333333","25.0405933333333","6500500","新莊區"
"242046","172-VK","2018/02/22 17:39:28","新北市新莊區福營路103號","121.433991666667","25.0323216666667","6500500","新莊區"
"242015","175-VK","2018/02/22 17:39:25","新北市新莊區新泰路394號","121.44403","25.0435083333333","6500500","新莊區"
"242002","176-VK","2018/02/22 17:39:26","新北市新莊區新莊路365號","121.451765","25.0338566666667","6500500","新莊區"
"242013","346-TH","2018/02/22 17:39:23","新北市新莊區中誠街101號","121.449866666667","25.0477016666667","6500500","新莊區"
"242019","348-TH","2018/02/22 17:39:23","新北市新莊區中港路162號","121.455021666667","25.041465","6500500","新莊區"
"242056","349-TH","2018/02/22 17:39:34","新北市新莊區新莊路543巷9弄28號","121.448275","25.0319066666667","6500500","新莊區"
"242017","350-TH","2018/02/22 17:39:34","新北市新莊區復興路一段127巷12號","121.44907","25.043765","6500500","新莊區"
"242011","351-TH","2018/02/22 17:39:39","新北市新莊區中港路639號","121.45108","25.0545466666667","6500500","新莊區"
"238015","755-BX","2018/02/22 17:39:35","新北市樹林區啟智街28號","121.420796666667","24.9934483333333","6500700","樹林區"
"238023","601-UM","2018/02/22 17:39:42","新北市樹林區三福街114號","121.406441666667","25.0162983333333","6500700","樹林區"
"238019","599-UM","2018/02/22 17:39:33","新北市樹林區太平路127巷12號","121.419785","24.9805883333333","6500700","樹林區"
"238018","571-TV","2018/02/22 17:39:26","新北市樹林區鎮前街93號","121.424726666667","24.9897366666667","6500700","樹林區"
"238024","5061-A6","2018/02/22 17:39:42","新北市樹林區八德街395號","121.415483333333","24.9714016666667","6500700","樹林區"
"238021","KEA-2217","2018/02/22 17:39:31","新北市樹林區柑園街一段351號","121.390123333333","24.956305","6500700","樹林區"
"238022","KEA-2213","2018/02/22 17:39:37","新北市樹林區和平街2巷18號","121.421033333333","24.9809483333333","6500700","樹林區"
"238025","303-VK","2018/02/22 17:39:21","新北市樹林區保安街二段275-1號","121.412858333333","25.00572","6500700","樹林區"
"238017","283-BY","2018/02/22 17:39:39","新北市樹林區中正路442-1號","121.413383333333","25.0117266666667","6500700","樹林區"
"238014","282-BY","2018/02/22 17:39:32","新北市樹林區保安街一段300號","121.419371666667","24.997695","6500700","樹林區"
"238007","268-VK","2018/02/22 17:39:21","新北市樹林區俊英街116巷41弄4號","121.428991666667","25.0064633333333","6500700","樹林區"
"238026","172-UY","2018/02/22 17:39:29","新北市樹林區新興街19巷34弄9號","121.402196666667","24.9731333333333","6500700","樹林區"
"238016","169-UY","2018/02/22 17:39:34","新北市樹林區育英街165巷2號","121.418576666667","24.989455","6500700","樹林區"
"239007","AAC-297","2018/02/22 17:39:29","新北市鶯歌區陽明街15號","121.341001666667","24.9566166666667","6500800","鶯歌區"
"239006","891-R6","2018/02/22 17:39:23","新北市鶯歌區鶯桃路451-1號","121.332325","24.965595","6500800","鶯歌區"
"239008","527-UM","2018/02/22 17:39:38","新北市鶯歌區大湖路732巷15弄6號","121.332778333333","24.97784","6500800","鶯歌區"
"239005","526-UM","2018/02/22 17:39:28","新北市鶯歌區福隆二街36巷5-13號","121.32414","24.9716266666667","6500800","鶯歌區"
"239001","417-VK","2018/02/22 17:39:38","新北市鶯歌區中正三路234-4號","121.330803333333","24.9371733333333","6500800","鶯歌區"
"239003","360-BY","2018/02/22 17:39:39","新北市鶯歌區鶯桃路206巷36號","121.337861666667","24.95989","6500800","鶯歌區"
"239004","193-VK","2018/02/22 17:39:30","新北市鶯歌區三鶯路80號","121.358038333333","24.9429516666667","6500800","鶯歌區"
"221008","489-VK","2018/02/22 17:39:20","新北市汐止區康寧街901號","121.651463333333","25.0751083333333","6501100","汐止區"
"221036","130-UY","2018/02/22 17:39:20","新北市汐止區康寧街901號","121.651706666667","25.0750216666667","6501100","汐止區"
"221015","131-UY","2018/02/22 17:39:26","新北市汐止區康寧街901號","121.651691666667","25.0749783333333","6501100","汐止區"
"221010","269-BY","2018/02/22 17:39:27","新北市汐止區汐萬路一段418巷46號","121.651143333333","25.07907","6501100","汐止區"
"221023","279-VK","2018/02/22 17:39:39","新北市汐止區康寧街901號","121.651701666667","25.0749233333333","6501100","汐止區"
"221032","280-BY","2018/02/22 17:39:27","新北市汐止區汐萬路一段312號","121.650435","25.0755033333333","6501100","汐止區"
"221021","299-VK","2018/02/22 17:39:20","新北市汐止區汐萬路一段256巷1號","121.652026666667","25.0749233333333","6501100","汐止區"
"221025","623-UM","2018/02/22 17:39:37","新北市汐止區康寧街901號","121.651616666667","25.0749016666667","6501100","汐止區"
"221033","647-BX","2018/02/22 17:39:35","新北市汐止區大同路一段146巷18號","121.632233333333","25.0531833333333","6501100","汐止區"
"221018","753-BX","2018/02/22 17:39:21","新北市汐止區中正路311號","121.655893333333","25.0676916666667","6501100","汐止區"
"242048","281-VK","2018/02/22 17:39:31","新北市新莊區萬安街158號","121.419886666667","25.0207566666667","6500500","新莊區"
"242031","280-VK","2018/02/22 17:39:36","新北市新莊區新泰路361巷9號","121.443255","25.0430483333333","6500500","新莊區"
