"lineid","car","time","location","longitude","latitude","cityid","cityname"
"234026","9371-KE","2018/02/22 17:49:42","新北市永和區和平街95巷12號","121.511223333333","25.0094316666667","6500400","永和區"
"249005","172-UM","2018/02/22 17:49:48","新北市八里區荖阡里41-1號","121.402393333333","25.1336933333333","6502300","八里區"
"249001","173-UM","2018/02/22 17:49:47","新北市八里區龍米路二段125巷25號","121.445958333333","25.1464116666667","6502300","八里區"
"249004","303-UY","2018/02/22 17:49:45","新北市八里區中華路一段79巷9號","121.421005","25.156465","6502300","八里區"
"249002","305-UY","2018/02/22 17:49:47","新北市八里區龍形五街35-1號","121.449156666667","25.1327433333333","6502300","八里區"
"249003","593-UM","2018/02/22 17:49:51","新北市八里區中山路二段212號","121.405363333333","25.151905","6502300","八里區"
"248006","077-UY","2018/02/22 17:49:54","新北市五股區中興路二段37巷28號","121.460108333333","25.0750216666667","6501500","五股區"
"248008","095-VK","2018/02/22 17:49:38","新北市五股區中興路二段37巷28號","121.460128333333","25.0750266666667","6501500","五股區"
"248020","225-UY","2018/02/22 17:49:35","新北市五股區中興路二段83巷26-6號","121.459941666667","25.0752733333333","6501500","五股區"
"248014","261-SL","2018/02/22 17:49:37","新北市五股區中興路二段83巷26-6號","121.460108333333","25.0752783333333","6501500","五股區"
"232011","375-UM","2018/02/22 17:49:47","新北市坪林區北宜路八段153號","121.707015","24.9344666666667","6502000","坪林區"
"244013","069-UM","2018/02/22 17:49:40","新北市林口區佳林路130號","121.384923333333","25.07812","6501700","林口區"
"244007","080-UY","2018/02/22 17:49:38","新北市林口區林口路133號","121.388685","25.0811316666667","6501700","林口區"
"244019","402-UM","2018/02/22 17:49:43","新北市林口區文化一路一段89-5號","121.371845","25.0704633333333","6501700","林口區"
"244023","483-VK","2018/02/22 17:49:42","新北市林口區東湖路84號","121.386621666667","25.0739716666667","6501700","林口區"
"244017","485-VK","2018/02/22 17:49:50","新北市林口區文化二路一段230巷80-1號","121.372071666667","25.0730616666667","6501700","林口區"
"244009","657-BX","2018/02/22 17:49:54","新北市林口區中北三街55號","121.384828333333","25.08578","6501700","林口區"
"244011","701-TV","2018/02/22 17:49:38","新北市林口區佳林路253號","121.382903333333","25.0761316666667","6501700","林口區"
"244025","837-TS","2018/02/22 17:49:50","新北市林口區文化三路一段165號","121.361758333333","25.0690633333333","6501700","林口區"
"244021","838-TS","2018/02/22 17:49:39","新北市林口區仁愛路一段159巷41號","121.39755","25.071985","6501700","林口區"
"243015","380-SR","2018/02/22 17:43:33","新北市泰山區犁頭窠3-1號","121.422328333333","25.060555","6501600","泰山區"
"243013","646-TV","2018/02/22 17:49:37","新北市泰山區大科路45-17號","121.404453333333","25.0551733333333","6501600","泰山區"
"222003","436-BY","2018/02/22 17:49:52","新北市深坑區阿柔洋60-1號","121.608591666667","24.998525","6501800","深坑區"
"222002","659-BX","2018/02/22 17:49:37","新北市深坑區平埔街22巷17弄1號","121.614891666667","25.00087","6501800","深坑區"
"231046","278-BY","2018/02/22 17:49:47","新北市新店區下石厝路2-1號","121.53152","24.928115","6500600","新店區"
"241003","156-TC","2018/02/22 17:49:37","新北市三重區五華街141巷57號","121.493558333333","25.0864616666667","6500200","三重區"
"241005","262-UM","2018/02/22 17:49:49","新北市三重區仁愛街550號","121.485933333333","25.08171","6500200","三重區"
"241016","265-UM","2018/02/22 17:49:47","新北市三重區重新路二段128巷3號","121.496173333333","25.06137","6500200","三重區"
"241020","413-TH","2018/02/22 17:49:42","新北市三重區忠孝路二段34號","121.48575","25.0710333333333","6500200","三重區"
"241019","KEA-2593","2018/02/22 17:49:41","新北市三重區力行路一段38巷2號","121.485243333333","25.0666833333333","6500200","三重區"
"241033","AAC-255","2018/02/22 17:49:33","新北市三重區光復路一段47號","121.472253333333","25.0487333333333","6500200","三重區"
"247022","893-R6","2018/02/22 17:49:34","新北市蘆洲區中正路367號","121.464881666667","25.09042","6501400","蘆洲區"
"247012","546-UM","2018/02/22 17:49:45","新北市蘆洲區復興路21號","121.475661666667","25.0869716666667","6501400","蘆洲區"
"247020","500-BY","2018/02/22 17:49:38","新北市蘆洲區民義街69號","121.473096666667","25.0901616666667","6501400","蘆洲區"
"247010","339-TH","2018/02/22 17:49:54","新北市蘆洲區民族路49號","121.47848","25.0854366666667","6501400","蘆洲區"
"247002","337-TH","2018/02/22 17:49:51","新北市蘆洲區永平街32巷33弄24號","121.458458333333","25.0925183333333","6501400","蘆洲區"
"247004","336-TH","2018/02/22 17:49:43","新北市蘆洲區中原路5巷2號","121.461295","25.08347","6501400","蘆洲區"
"247016","057-VK","2018/02/22 17:48:57","新北市蘆洲區光華路110巷30號","121.466455","25.0838466666667","6501400","蘆洲區"
"247006","056-VK","2018/02/22 17:49:35","新北市蘆洲區長安街22巷16號","121.464725","25.079655","6501400","蘆洲區"
"247008","053-VK","2018/02/22 17:49:42","新北市蘆洲區和平路29巷15號","121.472106666667","25.0784616666667","6501400","蘆洲區"
"247014","007-UY","2018/02/22 17:49:49","新北市蘆洲區保和街67號","121.469461666667","25.0860683333333","6501400","蘆洲區"
"247024","002-UY","2018/02/22 17:49:39","新北市蘆洲區光榮路103號","121.464566666667","25.0895683333333","6501400","蘆洲區"
"247018","001-UY","2018/02/22 17:49:41","新北市蘆洲區民權路54-1號","121.47538","25.0869783333333","6501400","蘆洲區"
"228003","097-TW","2018/02/22 17:49:51","新北市貢寮區真理里美艷山街6-2號","121.928816666667","25.060795","6502600","貢寮區"
"228001","212-TW","2018/02/22 17:49:33","新北市貢寮區仁理村仁愛路95-1號","121.92764","25.0554866666667","6502600","貢寮區"
"228002","585-TW","2018/02/22 17:49:34","新北市貢寮區福隆里龜壽谷街12號","121.955621666667","25.0064016666667","6502600","貢寮區"
"224010","AGQ-8101","2018/02/22 17:49:51","新北市瑞芳區明燈路一段37-1號","121.822265","25.107215","6501200","瑞芳區"
"224006","676-BX","2018/02/22 17:49:49","新北市瑞芳區傑魚坑路134-1號","121.791261666667","25.11019","6501200","瑞芳區"
"224009","285-BY","2018/02/22 17:49:38","新北市瑞芳區金光路376號","121.850845","25.110815","6501200","瑞芳區"
"224008","275-VK","2018/02/22 17:49:47","新北市瑞芳區明燈路一段50號","121.820126666667","25.10704","6501200","瑞芳區"
"224007","273-VK","2018/02/22 17:49:47","新北市瑞芳區靜安路四段2巷1號","121.794155","25.08397","6501200","瑞芳區"
"224005","271-BY","2018/02/22 17:49:36","新北市瑞芳區瑞濱路87號","121.820678333333","25.12097","6501200","瑞芳區"
"253006","295-VK","2018/02/22 17:49:43","新北市石門區中央路6號","121.566526666667","25.2914133333333","6502200","石門區"
"208003","665-BX","2018/02/22 17:49:45","新北市金山區磺清路135號","121.639498333333","25.22777","6502700","金山區"
"251009","008-UM","2018/02/22 17:49:35","新北市淡水區長興街29號","121.443918333333","25.1711516666667","6501000","淡水區"
"251004","009-UM","2018/02/22 17:49:46","新北市淡水區民權一街60號","121.459316666667","25.1361266666667","6501000","淡水區"
"251001","011-UM","2018/02/22 17:49:35","新北市淡水區民權路92巷35-1號","121.462178333333","25.126685","6501000","淡水區"
"251013","179-VK","2018/02/22 17:49:35","新北市淡水區泉洲厝31號","121.479515","25.1910733333333","6501000","淡水區"
"251014","180-VK","2018/02/22 17:49:38","新北市淡水區公埔子16-6號","121.480991666667","25.2246016666667","6501000","淡水區"
"251008","181-VK","2018/02/22 17:49:43","新北市淡水區八勢路一段156號","121.468093333333","25.1564583333333","6501000","淡水區"
"251015","182-VK","2018/02/22 17:49:47","新北市淡水區興福寮6號","121.492095","25.1653166666667","6501000","淡水區"
"251010","413-VK","2018/02/22 17:49:44","新北市淡水區中正路二段52號","121.41925","25.1834966666667","6501000","淡水區"
"251012","441-VK","2018/02/22 17:49:51","新北市淡水區北新路二段17巷6號","121.477285","25.1858183333333","6501000","淡水區"
"251016","442-VK","2018/02/22 17:49:48","新北市淡水區埤島39-15號","121.452741666667","25.195895","6501000","淡水區"
"251005","443-VK","2018/02/22 17:49:49","新北市淡水區學府路102巷8號","121.450633333333","25.171865","6501000","淡水區"
"251006","561-UM","2018/02/22 17:49:52","新北市淡水區中山北路一段53號","121.441391666667","25.1760966666667","6501000","淡水區"
"251011","650-BX","2018/02/22 17:48:22","新北市淡水區吳(仔)厝70號","121.479571666667","25.1496066666667","6501000","淡水區"
"251002","672-BX","2018/02/22 17:49:50","新北市淡水區中山路70-61號","121.44328","25.1707033333333","6501000","淡水區"
"251003","766-UM","2018/02/22 17:49:45","新北市淡水區大忠街5巷2號","121.443196666667","25.1763733333333","6501000","淡水區"
"207003","550-UM","2018/02/22 17:49:50","新北市萬里區野柳里東澳路66號","121.692711666667","25.2009516666667","6502800","萬里區"
"207004","225-TW","2018/02/22 17:49:40","新北市萬里區萬里里瑪鋉頂街98號","121.68772","25.1804","6502800","萬里區"
"252002","178-VK","2018/02/22 17:49:44","新北市三芝區智成街54號","121.504355","25.2562166666667","6502100","三芝區"
"252001","292-VK","2018/02/22 17:49:48","新北市三芝區中興街一段12號","121.49745","25.25929","6502100","三芝區"
"237007","153-BY","2018/02/22 17:49:24","新北市三峽區中園街227號","121.366891666667","24.919685","6500900","三峽區"
"237009","210-TH","2018/02/22 17:49:34","新北市三峽區大勇路15號","121.367218333333","24.9368","6500900","三峽區"
"237013","252-BX","2018/02/22 17:49:34","新北市三峽區愛國路34巷1號","121.374601666667","24.9327966666667","6500900","三峽區"
"237012","275-BY","2018/02/22 17:49:50","新北市三峽區文化路33號","121.372783333333","24.9361066666667","6500900","三峽區"
"237008","302-VK","2018/02/22 17:49:37","新北市三峽區中正路一段532號","121.369163333333","24.92003","6500900","三峽區"
"237014","433-BY","2018/02/22 17:49:36","新北市三峽區文化路120巷21弄2號","121.370951666667","24.9369016666667","6500900","三峽區"
"237006","5529-G3","2018/02/22 17:49:37","新北市三峽區介壽路二段30號","121.390946666667","24.9352833333333","6500900","三峽區"
"237011","KEA-2596","2018/02/22 17:49:43","新北市三峽區大同路64號","121.376608333333","24.92838","6500900","三峽區"
"237010","706-TV","2018/02/22 17:49:41","新北市三峽區和平街26號","121.370186666667","24.9367433333333","6500900","三峽區"
"237005","AKY-6261","2018/02/22 17:49:35","新北市三峽區中山路130號","121.36539","24.936065","6500900","三峽區"
"236071","105-UM","2018/02/22 17:49:48","新北市土城區學府路二段185巷29號","121.446693333333","24.9782483333333","6501300","土城區"
"236042","107-UM","2018/02/22 17:49:42","新北市土城區城林路6巷80號","121.438431666667","24.97974","6501300","土城區"
"236030","253-BX","2018/02/22 17:49:34","新北市土城區城林路6巷80號","121.438446666667","24.9797633333333","6501300","土城區"
"236026","269-VK","2018/02/22 17:49:39","新北市土城區中華路二段2號","121.439438333333","24.9795733333333","6501300","土城區"
"236014","270-VK","2018/02/22 17:49:38","新北市土城區城林路6巷80號","121.438546666667","24.979585","6501300","土城區"
"236037","271-VK","2018/02/22 17:49:32","新北市土城區城林路6巷80號","121.438486666667","24.9796533333333","6501300","土城區"
"236021","401-BY","2018/02/22 17:49:32","新北市土城區城林路6巷80號","121.438635","24.9797466666667","6501300","土城區"
"236058","912-UM","2018/02/22 17:49:48","新北市土城區城林路6巷80號","121.43849","24.9797316666667","6501300","土城區"
"236062","915-UM","2018/02/22 17:49:44","新北市土城區城林路6巷80號","121.438643333333","24.9796633333333","6501300","土城區"
"242029","986-R7","2018/02/22 17:49:37","新北市新莊區復興路一段63號","121.44762","25.0424683333333","6500500","新莊區"
"242051","751-BX","2018/02/22 17:49:46","新北市新莊區西盛街311巷8號","121.428605","25.0152266666667","6500500","新莊區"
"242023","705-TV","2018/02/22 17:49:49","新北市新莊區福樂街52號","121.457705","25.045865","6500500","新莊區"
"242025","615-BX","2018/02/22 17:49:34","新北市三重區中山路279號","121.471318333333","25.061385","6500500","新莊區"
"242027","612-BX","2018/02/22 17:49:50","新北市新莊區福壽街165號","121.458033333333","25.0535233333333","6500500","新莊區"
"242039","566-BX","2018/02/22 17:49:53","新北市新莊區民安路170號","121.425058333333","25.024125","6500500","新莊區"
"242044","497-BY","2018/02/22 17:49:49","新北市新莊區富國路33號","121.418941666667","25.0263016666667","6500500","新莊區"
"242009","441-UM","2018/02/22 17:49:46","新北市新莊區昌明街42號","121.456308333333","25.0522683333333","6500500","新莊區"
"242053","440-UM","2018/02/22 17:49:47","新北市新莊區民安西路468-1號","121.431688333333","25.0079283333333","6500500","新莊區"
"242034","415-TV","2018/02/22 17:49:45","新北市新莊區新莊路682-7號","121.440858333333","25.0327383333333","6500500","新莊區"
"242004","413-TV","2018/02/22 17:49:53","新北市新莊區思源路177巷8號","121.45931","25.0454416666667","6500500","新莊區"
"242042","400-BY","2018/02/22 17:49:53","新北市新莊區壽山路31號","121.420071666667","25.0289433333333","6500500","新莊區"
"242061","362-BY","2018/02/22 17:49:38","新北市新莊區新樹路593號","121.432936666667","25.00649","6500500","新莊區"
"242058","353-BY","2018/02/22 17:49:45","新北市新莊區中正路879-16號","121.417503333333","25.0259383333333","6500500","新莊區"
"242007","132-UY","2018/02/22 17:49:46","新北市新莊區福樂街108巷38號","121.457926666667","25.0487416666667","6500500","新莊區"
"242036","133-UY","2018/02/22 17:49:42","新北市新莊區建福路76號","121.426916666667","25.0267166666667","6500500","新莊區"
"242021","135-UY","2018/02/22 17:49:42","新北市新莊區永寧街39號","121.452811666667","25.0397533333333","6500500","新莊區"
"242046","172-VK","2018/02/22 17:49:48","新北市新莊區建國一路38號","121.433931666667","25.03138","6500500","新莊區"
"242015","175-VK","2018/02/22 17:49:45","新北市新莊區新泰路502巷40號","121.443683333333","25.04633","6500500","新莊區"
"242002","176-VK","2018/02/22 17:49:46","新北市新莊區景德路186號","121.450116666667","25.0342216666667","6500500","新莊區"
"242013","346-TH","2018/02/22 17:49:43","新北市新莊區中誠街166巷1號","121.448065","25.0477266666667","6500500","新莊區"
"242019","348-TH","2018/02/22 17:49:43","新北市新莊區中港路275號","121.45343","25.0437033333333","6500500","新莊區"
"242056","349-TH","2018/02/22 17:49:54","新北市新莊區豐年街55-15號","121.446548333333","25.03046","6500500","新莊區"
"242017","350-TH","2018/02/22 17:49:34","新北市新莊區永安街46號","121.45149","25.0447666666667","6500500","新莊區"
"242011","351-TH","2018/02/22 17:49:48","新北市新莊區中港路713號","121.45054","25.0574766666667","6500500","新莊區"
"238015","755-BX","2018/02/22 17:49:35","新北市樹林區長壽街70巷1弄2號","121.421011666667","24.9947183333333","6500700","樹林區"
"238023","601-UM","2018/02/22 17:49:45","桃園市龜山區龍興街12巷3號","121.402248333333","25.0162","6500700","樹林區"
"238019","599-UM","2018/02/22 17:49:53","新北市樹林區太平路148號","121.418538333333","24.978195","6500700","樹林區"
"238018","571-TV","2018/02/22 17:49:50","新北市樹林區保安街一段18-1號","121.427568333333","24.993255","6500700","樹林區"
"238021","KEA-2217","2018/02/22 17:49:51","新北市樹林區柑園街一段209號","121.397795","24.9567816666667","6500700","樹林區"
"238022","KEA-2213","2018/02/22 17:49:37","新北市樹林區太順街62巷4號","121.417753333333","24.9795433333333","6500700","樹林區"
"238025","303-VK","2018/02/22 17:49:41","新北市樹林區三俊街71-1號","121.414808333333","25.0155816666667","6500700","樹林區"
"238017","283-BY","2018/02/22 17:49:39","新北市樹林區三德街30巷27號","121.414728333333","25.0123316666667","6500700","樹林區"
"238014","282-BY","2018/02/22 17:49:52","新北市樹林區保安街一段313巷28號","121.41699","24.99744","6500700","樹林區"
"238007","268-VK","2018/02/22 17:49:41","新北市樹林區俊英街155巷1號","121.424336666667","25.012115","6500700","樹林區"
"238026","172-UY","2018/02/22 17:49:49","新北市樹林區新興街67號","121.399795","24.9708416666667","6500700","樹林區"
"238016","169-UY","2018/02/22 17:49:34","新北市樹林區復興路312號","121.416756666667","24.9869533333333","6500700","樹林區"
"239007","AAC-297","2018/02/22 17:49:49","新北市鶯歌區永明街20號","121.338511666667","24.9552783333333","6500800","鶯歌區"
"239006","891-R6","2018/02/22 17:49:43","新北市鶯歌區永和街56巷4號","121.333656666667","24.9678183333333","6500800","鶯歌區"
"239008","527-UM","2018/02/22 17:49:47","新北市鶯歌區香賓街7巷1號","121.336583333333","24.9788583333333","6500800","鶯歌區"
"239005","526-UM","2018/02/22 17:49:48","新北市鶯歌區鳳吉四街51號","121.327566666667","24.9732983333333","6500800","鶯歌區"
"239001","417-VK","2018/02/22 17:49:38","新北市鶯歌區中正三路458-1號","121.321678333333","24.9344883333333","6500800","鶯歌區"
"239003","360-BY","2018/02/22 17:49:39","新北市鶯歌區鶯桃路285巷8號","121.334216666667","24.959025","6500800","鶯歌區"
"239004","193-VK","2018/02/22 17:49:50","新北市鶯歌區文化路393巷6弄2號","121.352728333333","24.9509516666667","6500800","鶯歌區"
"221008","489-VK","2018/02/22 17:49:40","新北市汐止區康寧街901號","121.651436666667","25.07508","6501100","汐止區"
"221036","130-UY","2018/02/22 17:49:40","新北市汐止區長興街一段20號","121.669638333333","25.078875","6501100","汐止區"
"221015","131-UY","2018/02/22 17:49:46","新北市汐止區長江街249-1號","121.66283","25.0793666666667","6501100","汐止區"
"221010","269-BY","2018/02/22 17:49:46","新北市汐止區汐萬路二段109號","121.648286666667","25.0837066666667","6501100","汐止區"
"221012","278-VK","2018/02/22 17:49:38","新北市汐止區長江街256巷1號","121.664736666667","25.080005","6501100","汐止區"
"221023","279-VK","2018/02/22 17:49:39","新北市汐止區民族一街20號","121.63494","25.0709533333333","6501100","汐止區"
"221032","280-BY","2018/02/22 17:49:47","新北市汐止區工建路332號","121.633556666667","25.0598183333333","6501100","汐止區"
"221027","281-BY","2018/02/22 17:49:38","新北市汐止區汐萬路一段310號","121.65029","25.0747766666667","6501100","汐止區"
"221029","298-VK","2018/02/22 17:49:36","新北市汐止區康寧街901號","121.651306666667","25.07505","6501100","汐止區"
"221021","299-VK","2018/02/22 17:49:40","新北市汐止區水源路一段16號","121.657048333333","25.066655","6501100","汐止區"
"221035","622-UM","2018/02/22 17:49:44","新北市汐止區汐萬路一段191號","121.652455","25.0716966666667","6501100","汐止區"
"221025","623-UM","2018/02/22 17:49:37","新北市汐止區大同路二段175號","121.65163","25.064385","6501100","汐止區"
"221033","647-BX","2018/02/22 17:49:35","新北市汐止區林森街76號","121.6236","25.0408033333333","6501100","汐止區"
"221002","707-TV","2018/02/22 17:49:41","新北市汐止區康寧街901號","121.65154","25.0750566666667","6501100","汐止區"
"221018","753-BX","2018/02/22 17:49:41","新北市汐止區忠孝東路384號","121.6655","25.0699083333333","6501100","汐止區"
"242048","281-VK","2018/02/22 17:49:51","新北市新莊區萬安街125號","121.420695","25.0223633333333","6500500","新莊區"
"242031","280-VK","2018/02/22 17:49:53","新北市新莊區新泰路357巷1弄1號","121.442958333333","25.0412183333333","6500500","新莊區"
