"lineid","car","time","location","longitude","latitude","cityid","cityname"
"234007","207-UY","2018/02/22 18:08:51","新北市永和區環河東路二段90號","121.524096666667","25.0106","6500400","永和區"
"234026","9371-KE","2018/02/22 18:09:22","新北市永和區水源街12號","121.512466666667","25.004975","6500400","永和區"
"249005","172-UM","2018/02/22 18:09:28","新北市八里區荖阡坑路15號","121.401721666667","25.1397666666667","6502300","八里區"
"249001","173-UM","2018/02/22 18:09:27","新北市八里區龍米路一段263-2號","121.449765","25.1363516666667","6502300","八里區"
"249004","303-UY","2018/02/22 18:09:25","新北市八里區龍米路二段159巷2-10號","121.438825","25.1532066666667","6502300","八里區"
"249002","305-UY","2018/02/22 18:09:26","新北市八里區龍米路一段356巷46號","121.452136666667","25.1303316666667","6502300","八里區"
"249003","593-UM","2018/02/22 18:09:31","新北市八里區中華路二段165巷19弄15號","121.40959","25.1513183333333","6502300","八里區"
"248016","026-BX","2018/02/22 18:09:29","新北市五股區成泰路三段131號","121.444561666667","25.0910066666667","6501500","五股區"
"248006","077-UY","2018/02/22 18:09:34","新北市五股區中興路二段86號","121.460788333333","25.0773583333333","6501500","五股區"
"248008","095-VK","2018/02/22 18:09:38","新北市五股區中興路二段182巷15弄16號","121.458136666667","25.0805533333333","6501500","五股區"
"248020","225-UY","2018/02/22 18:09:16","新北市五股區成泰路三段544-1號","121.454423333333","25.1024483333333","6501500","五股區"
"248012","247-BX","2018/02/22 18:09:36","新北市五股區新五路三段28號","121.444043333333","25.087435","6501500","五股區"
"248014","261-SL","2018/02/22 18:09:37","新北市五股區成泰路一段187號","121.434908333333","25.0764866666667","6501500","五股區"
"248004","677-BX","2018/02/22 18:09:25","新北市五股區中興路四段61號","121.437891666667","25.0829266666667","6501500","五股區"
"248010","682-TV","2018/02/22 18:09:24","新北市五股區成泰路一段219-19號","121.434443333333","25.0777016666667","6501500","五股區"
"232011","375-UM","2018/02/22 18:09:27","新北市坪林區水柳腳10號","121.711063333333","24.9357316666667","6502000","坪林區"
"244013","069-UM","2018/02/22 18:09:40","新北市林口區中山路56號","121.39479","25.07855","6501700","林口區"
"244007","080-UY","2018/02/22 18:09:18","新北市林口區林口路124巷10弄11號","121.389266666667","25.0814983333333","6501700","林口區"
"244019","402-UM","2018/02/22 18:09:23","新北市林口區麗園路94號","121.37205","25.0681016666667","6501700","林口區"
"244023","483-VK","2018/02/22 18:09:21","新北市林口區東湖路153巷151號","121.382183333333","25.073735","6501700","林口區"
"244017","485-VK","2018/02/22 18:09:33","新北市林口區忠孝路506號","121.37055","25.0699016666667","6501700","林口區"
"244009","658-BX","2018/02/22 18:09:36","新北市林口區文化一路一段350-2號","121.384251666667","25.08282","6501700","林口區"
"244011","701-TV","2018/02/22 18:09:18","新北市林口區中正路114號","121.393503333333","25.0772716666667","6501700","林口區"
"244025","837-TS","2018/02/22 18:09:30","新北市林口區文明街182號","121.361123333333","25.0726816666667","6501700","林口區"
"244021","838-TS","2018/02/22 18:09:38","新北市林口區自強四街3-1號","121.398961666667","25.0768133333333","6501700","林口區"
"243015","380-SR","2018/02/22 17:43:33","新北市泰山區犁頭窠3-1號","121.422328333333","25.060555","6501600","泰山區"
"243013","646-TV","2018/02/22 18:09:37","新北市泰山區南林路93號","121.415658333333","25.05111","6501600","泰山區"
"222003","436-BY","2018/02/22 18:09:32","新北市深坑區腳坑2-3號","121.611115","24.9960233333333","6501800","深坑區"
"222002","659-BX","2018/02/22 18:09:17","新北市深坑區文化街52號","121.61892","25.0016383333333","6501800","深坑區"
"231059","046-UY","2018/02/22 18:09:29","新北市新店區安華路28-1號","121.51958","24.9608183333333","6500600","新店區"
"231052","187-VK","2018/02/22 18:09:20","新北市新店區安華路28-1號","121.519561666667","24.961155","6500600","新店區"
"231046","278-BY","2018/02/22 18:09:27","新北市新店區直潭路113號","121.53284","24.9336666666667","6500600","新店區"
"231058","3712-VJ","2018/02/22 18:09:30","新北市新店區安華路1-1號","121.519135","24.9605783333333","6500600","新店區"
"231056","3713-VJ","2018/02/22 18:09:36","新北市新店區安康路一段196號","121.524466666667","24.9634283333333","6500600","新店區"
"231055","4716-K9","2018/02/22 18:09:25","新北市新店區安華路28-1號","121.519583333333","24.9613033333333","6500600","新店區"
"231062","720-UM","2018/02/22 18:09:35","新北市新店區安華路28-1號","121.519355","24.9611183333333","6500600","新店區"
"231043","899-TW","2018/02/22 18:09:26","新北市新店區安華路28-1號","121.5193","24.96075","6500600","新店區"
"241023","545-UM","2018/02/22 18:09:29","新北市三重區三民街146巷3弄9號","121.481473333333","25.0648566666667","6500200","三重區"
"241019","KEA-2593","2018/02/22 18:09:21","新北市八里區荖阡坑路22-7號","121.398563333333","25.1358816666667","6500200","三重區"
"241033","AAC-255","2018/02/22 18:09:33","新北市三重區重新路五段640號","121.468396666667","25.04446","6500200","三重區"
"235066","003-UY","2018/02/22 18:09:25","新北市中和區中正路226號","121.496191666667","24.9940966666667","6500300","中和區"
"235064","005-UY","2018/02/22 18:09:39","新北市中和區中正路175號","121.497411666667","24.9936733333333","6500300","中和區"
"235063","006-UY","2018/02/22 18:09:24","新北市中和區員山路36巷16-3號","121.485035","24.9913266666667","6500300","中和區"
"235065","098-UM","2018/02/22 18:09:31","新北市中和區橋和路56號","121.489388333333","25.0051516666667","6500300","中和區"
"235058","151-BY","2018/02/22 18:09:21","新北市中和區圓通路367巷33弄4號","121.493768333333","24.9854833333333","6500300","中和區"
"235067","255-BX","2018/02/22 18:09:33","新北市中和區和城路一段271巷1號","121.485441666667","24.9920633333333","6500300","中和區"
"235072","301-VK","2018/02/22 18:09:32","新北市中和區和城路一段271巷1號","121.485468333333","24.9921933333333","6500300","中和區"
"235043","352-BY","2018/02/22 18:09:31","新北市中和區錦和路350-1號","121.490218333333","24.9935933333333","6500300","中和區"
"235068","377-QA","2018/02/22 18:05:51","新北市中和區員山路36巷16-3號","121.484818333333","24.9909933333333","6500300","中和區"
"235061","378-QA","2018/02/22 18:09:35","新北市中和區連城路607號","121.478188333333","24.99318","6500300","中和區"
"235050","4979-A6","2018/02/22 18:09:34","新北市中和區錦和路350-1號","121.490535","24.99358","6500300","中和區"
"235042","551-UM","2018/02/22 18:09:23","新北市中和區景平路159巷29弄10號","121.513163333333","24.991225","6500300","中和區"
"235070","558-UM","2018/02/22 18:09:21","新北市中和區中正路408號","121.492258333333","24.9938866666667","6500300","中和區"
"235045","565-BX","2018/02/22 18:09:34","新北市中和區錦和路350-1號","121.490451666667","24.9935766666667","6500300","中和區"
"235054","640-BX","2018/02/22 18:09:34","新北市土城區延壽路77巷2號","121.46917","24.9927933333333","6500300","中和區"
"235060","647-TV","2018/02/22 18:09:35","新北市中和區員山路36巷16-3號","121.484686666667","24.9916766666667","6500300","中和區"
"235047","732-UM","2018/02/22 18:08:46","新北市中和區和城路一段271巷1號","121.485613333333","24.9914833333333","6500300","中和區"
"235046","733-UM","2018/02/22 18:09:18","新北市中和區員山路36巷13號","121.484195","24.99082","6500300","中和區"
"235062","800-TS","2018/02/22 18:09:38","新北市中和區橋和路77號","121.489353333333","25.0051683333333","6500300","中和區"
"235052","805-TS","2018/02/22 18:09:33","新北市中和區中正路637巷60弄61號","121.485501666667","24.9932933333333","6500300","中和區"
"235053","900-TW","2018/02/22 18:09:31","新北市中和區員山路36巷16-2號","121.485245","24.9915966666667","6500300","中和區"
"235038","911-UM","2018/02/22 18:09:31","新北市中和區景平路102號","121.519981666667","24.9916133333333","6500300","中和區"
"235051","157-BY","2018/02/22 18:09:21","新北市中和區南山路146巷5號","121.503515","24.9924183333333","6500300","中和區"
"235037","AAC-213","2018/02/22 18:09:39","新北市中和區景平路155號","121.513361666667","24.9924566666667","6500300","中和區"
"247008","053-VK","2018/02/22 18:09:22","新北市蘆洲區中山二路320號","121.468271666667","25.076255","6501400","蘆洲區"
"226004","312-R5","2018/02/22 18:09:32","新北市平溪區薯榔里薯榔寮25號","121.714916666667","25.0195366666667","6502400","平溪區"
"228003","097-TW","2018/02/22 18:09:31","新北市貢寮區真理里美艷山街6-2號","121.928805","25.060785","6502600","貢寮區"
"228001","212-TW","2018/02/22 18:09:33","新北市貢寮區真理里新港街26巷55弄2-1號","121.927373333333","25.0529","6502600","貢寮區"
"228002","585-TW","2018/02/22 18:09:34","新北市貢寮區福連里馬崗街1號","121.995066666667","25.0149916666667","6502600","貢寮區"
"224010","AGQ-8101","2018/02/22 17:57:51","新北市瑞芳區烏勢巷145號","121.847851666667","25.1092616666667","6501200","瑞芳區"
"224006","676-BX","2018/02/22 18:09:36","新北市瑞芳區中山路356號","121.795721666667","25.1102816666667","6501200","瑞芳區"
"224002","640-TC","2018/02/22 18:09:37","新北市瑞芳區三爪子坑路32巷124號","121.809401666667","25.1063633333333","6501200","瑞芳區"
"224009","285-BY","2018/02/22 18:09:38","新北市瑞芳區金光路111號","121.853785","25.1062483333333","6501200","瑞芳區"
"224008","275-VK","2018/02/22 18:09:27","新北市瑞芳區國中新村18號","121.817183333333","25.1073866666667","6501200","瑞芳區"
"224007","273-VK","2018/02/22 18:09:27","新北市瑞芳區四腳亭坑路8號","121.777785","25.10969","6501200","瑞芳區"
"224005","271-BY","2018/02/22 18:09:36","新北市瑞芳區深澳路67-1號","121.818248333333","25.1300533333333","6501200","瑞芳區"
"227004","642-TC","2018/02/22 18:09:24","新北市雙溪區共和里東榮街42號","121.866161666667","25.0337033333333","6502500","雙溪區"
"253005","032-BX","2018/02/22 18:09:36","新北市石門區福安街15號","121.568575","25.292655","6502200","石門區"
"253006","295-VK","2018/02/22 18:09:23","新北市石門區老梅路52巷21號","121.546388333333","25.2885933333333","6502200","石門區"
"222001","KEA-2212","2018/02/22 18:09:29","新北市深坑區北深路二段151號","121.61409","25.0022","6501800","深坑區"
"208003","665-BX","2018/02/22 18:09:27","新北市金山區民生路27號","121.64381","25.221675","6502700","金山區"
"208001","761-BX","2018/02/22 18:09:36","新北市金山區磺港里磺港路110號","121.64631","25.22679","6502700","金山區"
"251009","008-UM","2018/02/22 18:09:35","新北市淡水區大忠街34巷6號","121.44348","25.1755566666667","6501000","淡水區"
"251004","009-UM","2018/02/22 18:09:24","新北市淡水區民族路132巷1弄1號","121.462731666667","25.13471","6501000","淡水區"
"251001","011-UM","2018/02/22 18:09:35","新北市淡水區自立路15巷1號","121.463025","25.129835","6501000","淡水區"
"251013","179-VK","2018/02/22 18:09:35","新北市淡水區桂花樹4-3號","121.476301666667","25.1957233333333","6501000","淡水區"
"251014","180-VK","2018/02/22 18:09:24","新北市淡水區南平14-3號","121.486071666667","25.2207516666667","6501000","淡水區"
"251008","181-VK","2018/02/22 18:09:23","新北市淡水區淡金路2-1號","121.45829","25.1590316666667","6501000","淡水區"
"251015","182-VK","2018/02/22 18:09:27","新北市淡水區興福寮88巷1號","121.485385","25.164955","6501000","淡水區"
"251010","413-VK","2018/02/22 18:09:24","新北市淡水區淡海路160號","121.420898333333","25.1833016666667","6501000","淡水區"
"251012","441-VK","2018/02/22 18:09:37","新北市淡水區北新路三段159號","121.489241666667","25.1904966666667","6501000","淡水區"
"251016","442-VK","2018/02/22 18:09:37","新北市淡水區下圭柔山18-2號","121.453486666667","25.2025383333333","6501000","淡水區"
"251005","443-VK","2018/02/22 18:09:29","新北市淡水區水源街一段141號","121.447256666667","25.171915","6501000","淡水區"
"251006","561-UM","2018/02/22 18:09:32","新北市淡水區真理街3巷21-1號","121.437735","25.1762716666667","6501000","淡水區"
"251011","650-BX","2018/02/22 18:09:22","新北市淡水區三空泉9-2號","121.474151666667","25.163325","6501000","淡水區"
"251002","672-BX","2018/02/22 18:09:29","新北市淡水區中正東路一段64號","121.452701666667","25.1619866666667","6501000","淡水區"
"251003","766-UM","2018/02/22 18:09:25","新北市淡水區大忠街113巷16號","121.447181666667","25.1776766666667","6501000","淡水區"
"207003","550-UM","2018/02/22 18:09:30","新北市萬里區野柳里港西路12號","121.685125","25.2042733333333","6502800","萬里區"
"207004","225-TW","2018/02/22 18:09:21","新北市萬里區中幅里中福路110號","121.676691666667","25.16895","6502800","萬里區"
"252002","178-VK","2018/02/22 18:09:24","新北市三芝區中山路二段33號","121.502801666667","25.2552366666667","6502100","三芝區"
"252003","249-BX","2018/02/22 18:09:31","新北市三芝區埔頭里埔頭43-3號","121.50058","25.2615633333333","6502100","三芝區"
"252001","292-VK","2018/02/22 18:09:28","新北市三芝區中興街二段2號","121.498418333333","25.2566833333333","6502100","三芝區"
"237004","KEA-2597","2018/02/22 18:09:30","新北市三峽區大埔路150-2號","121.36473","24.8982866666667","6500900","三峽區"
"237007","153-BY","2018/02/22 18:09:24","新北市三峽區中正路二段370巷36號","121.364545","24.911265","6500900","三峽區"
"237009","210-TH","2018/02/22 18:09:34","新北市三峽區大仁路36號","121.365931666667","24.9375316666667","6500900","三峽區"
"237013","252-BX","2018/02/22 18:09:34","新北市三峽區長泰街54號","121.37778","24.93261","6500900","三峽區"
"237012","275-BY","2018/02/22 18:09:29","新北市三峽區民生街1巷1-25號","121.37759","24.9353883333333","6500900","三峽區"
"237008","302-VK","2018/02/22 18:09:37","新北市三峽區白雞50號","121.381615","24.91074","6500900","三峽區"
"237014","433-BY","2018/02/22 18:09:17","新北市三峽區復興路159號","121.370628333333","24.93837","6500900","三峽區"
"237006","5529-G3","2018/02/22 18:09:17","新北市三峽區介壽路二段138巷1弄106-1號","121.3978","24.9309816666667","6500900","三峽區"
"237011","KEA-2596","2018/02/22 18:09:23","新北市三峽區大同路1-5號","121.378058333333","24.929605","6500900","三峽區"
"237010","706-TV","2018/02/22 18:09:21","新北市三峽區民權街200號","121.367723333333","24.929205","6500900","三峽區"
"237005","AKY-6261","2018/02/22 18:09:35","新北市三峽區文化路152號","121.3703","24.9361833333333","6500900","三峽區"
"236071","105-UM","2018/02/22 18:09:29","新北市土城區青雲路643號","121.461121666667","24.9676316666667","6501300","土城區"
"236042","107-UM","2018/02/22 18:09:22","新北市土城區城林路6巷80號","121.438171666667","24.9796716666667","6501300","土城區"
"236078","166-UM","2018/02/22 18:09:37","新北市土城區永寧路32巷10弄25號","121.428836666667","24.9611233333333","6501300","土城區"
"236030","253-BX","2018/02/22 18:09:34","新北市土城區城林路6巷80號","121.438426666667","24.9797916666667","6501300","土城區"
"236026","269-VK","2018/02/22 18:09:39","新北市土城區承天路67號","121.439563333333","24.96344","6501300","土城區"
"236014","270-VK","2018/02/22 18:09:19","新北市土城區學府路二段26號","121.448935","24.98155","6501300","土城區"
"236037","271-VK","2018/02/22 18:09:32","新北市土城區青雲路369-2號","121.45878","24.9752933333333","6501300","土城區"
"236021","401-BY","2018/02/22 18:09:32","新北市土城區城林路6巷80號","121.438663333333","24.9797083333333","6501300","土城區"
"236058","912-UM","2018/02/22 18:09:28","新北市土城區中央路四段38號","121.420796666667","24.960785","6501300","土城區"
"236051","913-UM","2018/02/22 18:09:35","新北市土城區金城路二段36號","121.450781666667","24.9784716666667","6501300","土城區"
"236062","915-UM","2018/02/22 18:09:24","新北市土城區金城路二段217號","121.454918333333","24.98191","6501300","土城區"
"236053","AAC-216","2018/02/22 18:09:23","新北市土城區中華路二段92號","121.438246666667","24.9747383333333","6501300","土城區"
"242029","986-R7","2018/02/22 18:09:37","新北市新莊區中平路110巷9號","121.445583333333","25.046105","6500500","新莊區"
"242051","751-BX","2018/02/22 18:09:26","新北市新莊區民本街43巷22號","121.429105","25.0182733333333","6500500","新莊區"
"242023","705-TV","2018/02/22 18:09:30","新北市新莊區中和街186巷6弄10號","121.44801","25.049225","6500500","新莊區"
"242025","615-BX","2018/02/22 18:09:38","新北市新莊區五權一路92號","121.459423333333","25.0675033333333","6500500","新莊區"
"242027","612-BX","2018/02/22 18:09:19","新北市新莊區幸福路48號","121.457676666667","25.04946","6500500","新莊區"
"242039","566-BX","2018/02/22 18:09:24","新北市新莊區民安西路38巷36號","121.426273333333","25.020205","6500500","新莊區"
"242044","497-BY","2018/02/22 18:09:29","新北市新莊區雙鳳路101號","121.414511666667","25.0279316666667","6500500","新莊區"
"242009","441-UM","2018/02/22 18:09:35","新北市新莊區昌平街46號","121.454735","25.05341","6500500","新莊區"
"242053","440-UM","2018/02/22 18:09:26","新北市新莊區民安西路323號","121.42762","25.01119","6500500","新莊區"
"242034","415-TV","2018/02/22 18:09:28","新北市新莊區新豐街68巷2號","121.446483333333","25.0337566666667","6500500","新莊區"
"242004","413-TV","2018/02/22 18:09:32","新北市新莊區自由街36號","121.455821666667","25.0464816666667","6500500","新莊區"
"242042","400-BY","2018/02/22 18:09:36","新北市新莊區雙鳳路116巷13弄2號","121.413391666667","25.02893","6500500","新莊區"
"242061","362-BY","2018/02/22 18:09:38","新北市新莊區新樹路73號","121.437683333333","25.027775","6500500","新莊區"
"242058","353-BY","2018/02/22 18:09:25","新北市新莊區新北大道七段239號","121.41302","25.02967","6500500","新莊區"
"242007","132-UY","2018/02/22 18:09:26","新北市新莊區自信街33-1號","121.454093333333","25.0485383333333","6500500","新莊區"
"242036","133-UY","2018/02/22 18:09:33","新北市新莊區建福路48巷20號","121.425775","25.027615","6500500","新莊區"
"242021","135-UY","2018/02/22 18:09:38","新北市新莊區新興街45巷6號","121.450428333333","25.0392083333333","6500500","新莊區"
"242046","172-VK","2018/02/22 18:09:28","新北市新莊區福營路323號","121.425926666667","25.02883","6500500","新莊區"
"242015","175-VK","2018/02/22 18:09:25","新北市新莊區中和街59巷10弄14號","121.44691","25.0471283333333","6500500","新莊區"
"242002","176-VK","2018/02/22 18:08:46","新北市新莊區新莊路16-3號","121.4588","25.0374833333333","6500500","新莊區"
"242013","346-TH","2018/02/22 18:09:37","新北市新莊區中和街125巷10弄6-1號","121.446956666667","25.0487916666667","6500500","新莊區"
"242019","348-TH","2018/02/22 18:09:23","新北市新莊區明中街51巷13號","121.456543333333","25.0391916666667","6500500","新莊區"
"242056","349-TH","2018/02/22 18:09:34","新北市新莊區豐年街55-4號","121.446598333333","25.0311016666667","6500500","新莊區"
"242017","350-TH","2018/02/22 18:09:34","新北市新莊區永樂街62號","121.45108","25.0450266666667","6500500","新莊區"
"242011","351-TH","2018/02/22 18:09:39","新北市新莊區中信街90號","121.447891666667","25.0534033333333","6500500","新莊區"
"238015","755-BX","2018/02/22 18:09:35","新北市樹林區大安路349號","121.416415","24.9904783333333","6500700","樹林區"
"238023","601-UM","2018/02/22 18:09:22","新北市樹林區龍興街32巷9號","121.402563333333","25.0156883333333","6500700","樹林區"
"238019","599-UM","2018/02/22 18:09:33","新北市樹林區忠孝街100號","121.424558333333","24.980545","6500700","樹林區"
"238018","571-TV","2018/02/22 18:09:26","新北市樹林區保順街85號","121.428985","24.99457","6500700","樹林區"
"238021","KEA-2217","2018/02/22 18:09:31","新北市樹林區柑園街一段271號","121.394128333333","24.9563283333333","6500700","樹林區"
"238022","KEA-2213","2018/02/22 18:09:37","新北市樹林區太平路150巷33號","121.417205","24.9773083333333","6500700","樹林區"
"238025","303-VK","2018/02/22 18:09:21","新北市樹林區中正路677號","121.411945","25.01346","6500700","樹林區"
"238017","283-BY","2018/02/22 18:09:37","新北市樹林區中正路644號","121.40986","25.016235","6500700","樹林區"
"238014","282-BY","2018/02/22 18:09:32","新北市樹林區大安路11號","121.425011666667","25.0004783333333","6500700","樹林區"
"238007","268-VK","2018/02/22 18:09:21","新北市樹林區俊興街277號","121.418483333333","25.0181633333333","6500700","樹林區"
"238026","172-UY","2018/02/22 18:09:29","新北市樹林區育德街18號","121.390488333333","24.9699683333333","6500700","樹林區"
"238016","169-UY","2018/02/22 18:09:34","新北市樹林區文化街12號","121.420008333333","24.987275","6500700","樹林區"
"239007","AAC-297","2018/02/22 18:09:29","新北市鶯歌區尖山埔路171號","121.34587","24.9507133333333","6500800","鶯歌區"
"239006","891-R6","2018/02/22 18:09:23","新北市鶯歌區鶯桃路413巷34弄36號","121.330745","24.9641416666667","6500800","鶯歌區"
"239008","527-UM","2018/02/22 18:09:38","新北市鶯歌區朝陽街50巷2號","121.337733333333","24.978","6500800","鶯歌區"
"239005","526-UM","2018/02/22 18:09:28","新北市鶯歌區中山路10號","121.352903333333","24.9571116666667","6500800","鶯歌區"
"239001","417-VK","2018/02/22 18:09:18","新北市鶯歌區國中街109號","121.341406666667","24.9413116666667","6500800","鶯歌區"
"239003","360-BY","2018/02/22 18:09:38","新北市鶯歌區福安街22號","121.334301666667","24.9640916666667","6500800","鶯歌區"
"221008","489-VK","2018/02/22 18:09:20","新北市汐止區明峰街281號","121.626713333333","25.0682983333333","6501100","汐止區"
"221036","130-UY","2018/02/22 18:09:20","新北市汐止區大同路三段199號","121.671365","25.0772683333333","6501100","汐止區"
"221015","131-UY","2018/02/22 18:09:26","新北市汐止區鄉長路二段40巷1號","121.667663333333","25.08363","6501100","汐止區"
"221010","269-BY","2018/02/22 18:09:28","新北市汐止區汐萬路二段267號","121.64614","25.0887616666667","6501100","汐止區"
"221012","278-VK","2018/02/22 18:09:38","新北市汐止區長興街二段50巷30弄17號","121.675096666667","25.080585","6501100","汐止區"
"221023","279-VK","2018/02/22 18:09:39","新北市汐止區明峰街180號","121.628523333333","25.0700483333333","6501100","汐止區"
"221032","280-BY","2018/02/22 18:09:27","新北市汐止區橫科路63號","121.618725","25.0508516666667","6501100","汐止區"
"221027","281-BY","2018/02/22 18:09:38","新北市汐止區大同路二段492號","121.660558333333","25.0681366666667","6501100","汐止區"
"221029","298-VK","2018/02/22 18:09:36","新北市汐止區樟樹二路132號","121.63996","25.0655633333333","6501100","汐止區"
"221021","299-VK","2018/02/22 18:09:20","新北市汐止區連興街69號","121.654433333333","25.063075","6501100","汐止區"
"221031","353-TW","2018/02/22 18:09:23","新北市汐止區中興路181巷12弄7號","121.630048333333","25.06675","6501100","汐止區"
"221035","622-UM","2018/02/22 18:09:24","新北市汐止區大同路二段196號","121.652853333333","25.0643933333333","6501100","汐止區"
"221025","623-UM","2018/02/22 18:09:37","新北市汐止區勤進路3巷27號","121.661091666667","25.06168","6501100","汐止區"
"221033","647-BX","2018/02/22 18:09:35","新北市汐止區宜興街10巷19號","121.622003333333","25.0407983333333","6501100","汐止區"
"221002","707-TV","2018/02/22 18:09:21","新北市汐止區福德一路256號","121.633476666667","25.0646383333333","6501100","汐止區"
"221018","753-BX","2018/02/22 18:09:21","新北市汐止區忠孝東路384號","121.665533333333","25.070255","6501100","汐止區"
"242048","281-VK","2018/02/22 18:09:31","新北市新莊區萬安街59號","121.42149","25.0242616666667","6500500","新莊區"
"242031","280-VK","2018/02/22 18:09:13","新北市新莊區新泰路289巷48號","121.443343333333","25.0404783333333","6500500","新莊區"
