"lineid","car","time","location","longitude","latitude","cityid","cityname"
"234007","207-UY","2018/02/22 18:18:51","新北市永和區保生路22巷17號","121.507105","25.0080633333333","6500400","永和區"
"234017","745-BX","2018/02/22 18:18:50","新北市永和區福和路1號","121.526258333333","25.009735","6500400","永和區"
"234026","9371-KE","2018/02/22 18:19:02","新北市永和區豫溪街28巷19號","121.515041666667","25.008955","6500400","永和區"
"249005","172-UM","2018/02/22 18:18:48","新北市八里區荖阡坑路15號","121.401676666667","25.1398933333333","6502300","八里區"
"249001","173-UM","2018/02/22 18:19:06","新北市八里區龍米路一段306號","121.451515","25.1297033333333","6502300","八里區"
"249004","303-UY","2018/02/22 18:18:45","新北市八里區龍米路二段206巷7號","121.43283","25.1592466666667","6502300","八里區"
"249002","305-UY","2018/02/22 18:18:47","新北市八里區龍形二街35號","121.450413333333","25.1328266666667","6502300","八里區"
"248016","026-BX","2018/02/22 18:18:49","新北市五股區成泰路三段477巷18號","121.449911666667","25.0988883333333","6501500","五股區"
"248006","077-UY","2018/02/22 18:18:54","新北市五股區中興路一段158號","121.464265","25.0740566666667","6501500","五股區"
"248008","095-VK","2018/02/22 18:18:58","新北市五股區更洲路32巷8弄14號","121.459241666667","25.07965","6501500","五股區"
"248020","225-UY","2018/02/22 18:18:56","新北市五股區孝義路47巷11號","121.453326666667","25.110015","6501500","五股區"
"248012","247-BX","2018/02/22 18:18:56","新北市五股區御史路1巷101弄2號","121.440996666667","25.09121","6501500","五股區"
"248014","261-SL","2018/02/22 18:18:57","新北市五股區自強路45號","121.433401666667","25.0736983333333","6501500","五股區"
"248004","677-BX","2018/02/22 18:19:04","新北市五股區成泰路二段198號","121.43887","25.08492","6501500","五股區"
"248002","678-BX","2018/02/22 18:17:53","新北市五股區成泰路三段77巷6號","121.443351666667","25.09021","6501500","五股區"
"248010","682-TV","2018/02/22 18:19:04","新北市五股區成泰路一段139巷2弄2號","121.435081666667","25.0729683333333","6501500","五股區"
"232011","375-UM","2018/02/22 18:19:07","新北市坪林區下坑子口5-9號","121.71312","24.9419683333333","6502000","坪林區"
"244013","069-UM","2018/02/22 18:19:00","新北市林口區中山路144號","121.39154","25.0788216666667","6501700","林口區"
"244007","080-UY","2018/02/22 18:18:58","新北市林口區竹林路462號","121.388011666667","25.0847883333333","6501700","林口區"
"244019","402-UM","2018/02/22 18:19:03","新北市林口區文化一路一段84-1號","121.372596666667","25.0697766666667","6501700","林口區"
"244023","483-VK","2018/02/22 18:19:02","新北市林口區仁愛路一段691號","121.386048333333","25.0762833333333","6501700","林口區"
"244017","485-VK","2018/02/22 18:18:50","新北市林口區八德路20巷3號","121.367935","25.0675533333333","6501700","林口區"
"244009","658-BX","2018/02/22 18:18:56","新北市林口區竹林路433號","121.38664","25.0829316666667","6501700","林口區"
"244011","701-TV","2018/02/22 18:18:58","新北市林口區中正路18號","121.396113333333","25.0774666666667","6501700","林口區"
"244025","837-TS","2018/02/22 18:19:06","新北市林口區文化北路一段192-100號","121.357116666667","25.0705916666667","6501700","林口區"
"244021","838-TS","2018/02/22 18:18:38","新北市林口區自強一街56號","121.39959","25.077305","6501700","林口區"
"243013","646-TV","2018/02/22 18:18:57","新北市泰山區明志路三段196巷54號","121.421566666667","25.040085","6501600","泰山區"
"243016","680-BX","2018/02/22 18:18:51","新北市泰山區犁頭窠3-1號","121.422011666667","25.06059","6501600","泰山區"
"222003","436-BY","2018/02/22 18:18:52","新北市深坑區北深路一段249巷17-1號","121.626425","25.00269","6501800","深坑區"
"222002","659-BX","2018/02/22 18:18:57","新北市深坑區雲鄉路1號","121.620963333333","25.0001133333333","6501800","深坑區"
"231041","002-UM","2018/02/22 18:18:51","新北市新店區安華路28-1號","121.519715","24.960915","6500600","新店區"
"231059","046-UY","2018/02/22 18:18:49","新北市新店區安華路28-1號","121.519778333333","24.960795","6500600","新店區"
"231051","107-UY","2018/02/22 18:19:04","新北市新店區安華路28-1號","121.519483333333","24.96054","6500600","新店區"
"231047","108-UY","2018/02/22 18:18:50","新北市新店區安華路28-1號","121.51941","24.9612733333333","6500600","新店區"
"231052","187-VK","2018/02/22 18:19:00","新北市新店區安康路一段355-10號","121.520638333333","24.963845","6500600","新店區"
"231050","KEA-2219","2018/02/22 18:19:01","新北市新店區安華路28-1號","121.519791666667","24.961285","6500600","新店區"
"231057","256-BX","2018/02/22 18:19:03","新北市新店區安華路28-1號","121.519971666667","24.9609883333333","6500600","新店區"
"231046","278-BY","2018/02/22 18:18:47","新北市新店區直潭七街60號","121.532215","24.9398566666667","6500600","新店區"
"231054","AAD-862","2018/02/22 18:18:56","新北市新店區安華路28-1號","121.520103333333","24.9610433333333","6500600","新店區"
"231058","3712-VJ","2018/02/22 18:18:50","新北市新店區安康路一段33-1號","121.53219","24.960535","6500600","新店區"
"231056","3713-VJ","2018/02/22 18:18:56","新北市新店區百忍街90號","121.532706666667","24.9773233333333","6500600","新店區"
"231055","4716-K9","2018/02/22 18:19:05","新北市新店區安康路一段355-10號","121.52037","24.963835","6500600","新店區"
"231067","4772-VM","2018/02/22 18:18:55","新北市新店區安華路1-1號","121.51919","24.9605633333333","6500600","新店區"
"231065","512-UM","2018/02/22 18:18:51","新北市新店區安華路28-1號","121.519123333333","24.9611983333333","6500600","新店區"
"231042","641-BX","2018/02/22 18:19:00","新北市新店區安華路28-1號","121.519615","24.96057","6500600","新店區"
"231063","645-TV","2018/02/22 18:19:05","新北市新店區安華路28-1號","121.519378333333","24.96059","6500600","新店區"
"231062","720-UM","2018/02/22 18:18:55","新北市新店區安華路28-1號","121.519338333333","24.96112","6500600","新店區"
"231044","897-TW","2018/02/22 18:18:53","新北市新店區安華路28-1號","121.519501666667","24.9608233333333","6500600","新店區"
"231045","898-TW","2018/02/22 18:11:10","新北市新店區安華路28-1號","121.519381666667","24.9606766666667","6500600","新店區"
"231043","899-TW","2018/02/22 18:19:06","新北市新店區安華路28-1號","121.519311666667","24.960785","6500600","新店區"
"241023","545-UM","2018/02/22 18:19:05","新北市三重區三民街173號","121.483213333333","25.0649133333333","6500200","三重區"
"241033","AAC-255","2018/02/22 18:19:02","新北市三重區中興北街50-5號","121.469396666667","25.0504266666667","6500200","三重區"
"235066","003-UY","2018/02/22 18:19:05","新北市中和區中山路二段195號","121.499923333333","25.0026066666667","6500300","中和區"
"235064","005-UY","2018/02/22 18:18:59","新北市中和區圓通路167巷15號","121.497948333333","24.9945466666667","6500300","中和區"
"235063","006-UY","2018/02/22 18:19:04","新北市中和區中正路589巷9號","121.485845","24.9940716666667","6500300","中和區"
"235056","096-UM","2018/02/22 18:19:01","新北市中和區新生街1號","121.483161666667","25.0047783333333","6500300","中和區"
"235039","097-UM","2018/02/22 18:19:03","新北市中和區中正路273-3號","121.49556","24.99349","6500300","中和區"
"235065","098-UM","2018/02/22 18:18:51","新北市中和區莊敬路49巷27號","121.501568333333","25.00609","6500300","中和區"
"235040","150-BY","2018/02/22 18:17:47","新北市中和區中正路305號","121.492643333333","24.9938566666667","6500300","中和區"
"235058","151-BY","2018/02/22 18:19:01","新北市中和區圓通路367巷2號","121.491281666667","24.9894833333333","6500300","中和區"
"235055","183-VK","2018/02/22 18:18:49","新北市中和區員山路36巷16-3號","121.485048333333","24.9913933333333","6500300","中和區"
"235049","186-VK","2018/02/22 18:19:02","新北市中和區中正路637巷52弄1號","121.485473333333","24.9933183333333","6500300","中和區"
"235067","255-BX","2018/02/22 18:18:53","新北市中和區和城路一段271巷1號","121.48545","24.9920533333333","6500300","中和區"
"235072","301-VK","2018/02/22 18:18:52","新北市中和區連城路301號","121.489736666667","24.996245","6500300","中和區"
"235043","352-BY","2018/02/22 18:18:50","新北市中和區景平路375號","121.504183333333","24.9933866666667","6500300","中和區"
"235068","377-QA","2018/02/22 18:05:51","新北市中和區員山路36巷16-3號","121.484818333333","24.9909933333333","6500300","中和區"
"235061","378-QA","2018/02/22 18:18:55","新北市中和區國光街215巷49號","121.46729","25.0002333333333","6500300","中和區"
"235050","4979-A6","2018/02/22 18:18:54","新北市中和區捷運路16-1號","121.50878","24.98996","6500300","中和區"
"235042","551-UM","2018/02/22 18:19:02","新北市中和區大智街57號","121.521233333333","24.9920316666667","6500300","中和區"
"235070","558-UM","2018/02/22 18:19:01","新北市中和區圓通路176-1號","121.497103333333","24.9944733333333","6500300","中和區"
"235045","565-BX","2018/02/22 18:18:54","新北市中和區景安路200巷4弄1號","121.503466666667","24.9916316666667","6500300","中和區"
"235054","640-BX","2018/02/22 18:18:54","新北市中和區莒光路203號","121.472583333333","24.998925","6500300","中和區"
"235060","647-TV","2018/02/22 18:18:55","新北市中和區員山路88號","121.480858333333","24.9943383333333","6500300","中和區"
"235047","732-UM","2018/02/22 18:18:46","新北市中和區中興街159號","121.499973333333","24.9908983333333","6500300","中和區"
"235046","733-UM","2018/02/22 18:18:57","新北市中和區員山路36巷13號","121.484131666667","24.9908433333333","6500300","中和區"
"235062","800-TS","2018/02/22 18:18:18","新北市中和區景平路763-5號","121.495935","25.0049966666667","6500300","中和區"
"235057","801-TS","2018/02/22 18:18:50","新北市中和區員山路109號","121.480875","24.9947116666667","6500300","中和區"
"235052","805-TS","2018/02/22 18:18:53","新北市中和區中正路173號","121.497633333333","24.9937066666667","6500300","中和區"
"235048","896-TW","2018/02/22 18:18:59","新北市中和區中正路545巷1號","121.487458333333","24.9935466666667","6500300","中和區"
"235053","900-TW","2018/02/22 18:18:51","新北市中和區中正路637巷52弄1號","121.485401666667","24.99355","6500300","中和區"
"235038","911-UM","2018/02/22 18:18:51","新北市中和區大智街106巷6號","121.524048333333","24.9922833333333","6500300","中和區"
"235051","157-BY","2018/02/22 18:19:01","新北市中和區景新街410巷27號","121.511438333333","24.98868","6500300","中和區"
"235037","AAC-213","2018/02/22 18:18:59","新北市中和區景德街60號","121.517246666667","24.991495","6500300","中和區"
"235059","AAC-215","2018/02/22 18:18:47","新北市中和區員山路36巷16-3號","121.485083333333","24.9912766666667","6500300","中和區"
"247008","053-VK","2018/02/22 18:19:02","新北市五股區凌雲路二段18巷62-5號","121.440735","25.1063066666667","6501400","蘆洲區"
"226004","312-R5","2018/02/22 18:18:47","新北市平溪區薯榔里雙菁路92號","121.714318333333","25.02116","6502400","平溪區"
"235041","251-BX","2018/02/22 18:19:04","新北市中和區中正路501號","121.48894","24.9935383333333","6500300","中和區"
"228003","097-TW","2018/02/22 18:18:51","新北市貢寮區真理里美艷山街63號","121.921613333333","25.0716216666667","6502600","貢寮區"
"228001","212-TW","2018/02/22 18:18:53","新北市貢寮區真理里新港街26巷55弄2-1號","121.927363333333","25.0529183333333","6502600","貢寮區"
"228002","585-TW","2018/02/22 18:18:54","新北市貢寮區福連里馬崗街3-2號","122.0013","25.0140533333333","6502600","貢寮區"
"224010","AGQ-8101","2018/02/22 17:57:51","新北市瑞芳區烏勢巷145號","121.847851666667","25.1092616666667","6501200","瑞芳區"
"224006","676-BX","2018/02/22 18:19:02","新北市瑞芳區民權街3-2號","121.80803","25.10751","6501200","瑞芳區"
"224002","640-TC","2018/02/22 18:18:57","新北市瑞芳區三爪子坑路149巷22-14號","121.811688333333","25.10591","6501200","瑞芳區"
"224009","285-BY","2018/02/22 18:18:59","新北市瑞芳區金光路162號","121.85549","25.1066366666667","6501200","瑞芳區"
"224008","275-VK","2018/02/22 18:18:46","新北市瑞芳區逢甲路15號","121.809775","25.1086966666667","6501200","瑞芳區"
"224007","273-VK","2018/02/22 18:19:07","新北市瑞芳區大埔路57號","121.764433333333","25.1019416666667","6501200","瑞芳區"
"224005","271-BY","2018/02/22 18:19:03","新北市瑞芳區建基路二段53號","121.80685","25.133575","6501200","瑞芳區"
"227004","642-TC","2018/02/22 18:19:03","新北市雙溪區共和里中山路2號","121.863761666667","25.033815","6502500","雙溪區"
"227010","400-TW","2018/02/22 18:19:02","新北市雙溪區牡丹里牡丹73號","121.851676666667","25.0593716666667","6502500","雙溪區"
"253005","032-BX","2018/02/22 18:18:56","新北市石門區中央路1-1號","121.56555","25.2914983333333","6502200","石門區"
"253006","295-VK","2018/02/22 18:19:03","新北市石門區老梅路65號","121.54583","25.289255","6502200","石門區"
"222001","KEA-2212","2018/02/22 18:18:49","新北市深坑區北深路二段51號","121.618951666667","25.0040633333333","6501800","深坑區"
"208003","665-BX","2018/02/22 18:18:45","新北市金山區中山路16號","121.641655","25.2179816666667","6502700","金山區"
"208001","761-BX","2018/02/22 18:18:56","新北市金山區中山路90-1號","121.641703333333","25.218615","6502700","金山區"
"251004","009-UM","2018/02/22 18:19:06","新北市淡水區民族路118號","121.462848333333","25.13483","6501000","淡水區"
"251001","011-UM","2018/02/22 18:18:55","新北市淡水區自強路110-8號","121.461598333333","25.1313683333333","6501000","淡水區"
"251013","179-VK","2018/02/22 18:19:01","新北市淡水區行忠路897號","121.479681666667","25.200255","6501000","淡水區"
"251014","180-VK","2018/02/22 18:18:58","新北市淡水區崙頂13號","121.492213333333","25.219645","6501000","淡水區"
"251008","181-VK","2018/02/22 18:19:03","新北市淡水區淡金路12-3號","121.458158333333","25.1603266666667","6501000","淡水區"
"251015","182-VK","2018/02/22 18:18:47","新北市淡水區興福寮88巷1號","121.485455","25.1648983333333","6501000","淡水區"
"251010","413-VK","2018/02/22 18:19:04","新北市淡水區淡海路196號","121.420255","25.185395","6501000","淡水區"
"251012","441-VK","2018/02/22 18:18:56","新北市淡水區北新路二段77-5號","121.480448333333","25.1855533333333","6501000","淡水區"
"251016","442-VK","2018/02/22 18:18:48","新北市淡水區淡金路三段228巷22-5號","121.44969","25.2049183333333","6501000","淡水區"
"251005","443-VK","2018/02/22 18:18:49","新北市淡水區水源街一段122巷37號","121.447161666667","25.1704516666667","6501000","淡水區"
"251006","561-UM","2018/02/22 18:18:52","新北市淡水區新民街76巷36弄1號","121.439463333333","25.1779566666667","6501000","淡水區"
"251011","650-BX","2018/02/22 18:19:02","新北市淡水區坪頂路55號","121.458528333333","25.1626883333333","6501000","淡水區"
"251002","672-BX","2018/02/22 18:18:50","新北市淡水區中正東路一段36號","121.45263","25.1623433333333","6501000","淡水區"
"251003","766-UM","2018/02/22 18:18:45","新北市淡水區北新路180號","121.449421666667","25.1787766666667","6501000","淡水區"
"207003","550-UM","2018/02/22 18:18:50","新北市萬里區野柳里港東新村1號","121.686186666667","25.2030216666667","6502800","萬里區"
"207004","225-TW","2018/02/22 18:19:01","新北市萬里區中幅里中福路123號","121.676543333333","25.1658983333333","6502800","萬里區"
"252002","178-VK","2018/02/22 18:19:04","新北市三芝區中山路二段31號","121.502748333333","25.2552533333333","6502100","三芝區"
"252003","249-BX","2018/02/22 18:18:50","新北市三芝區錫板里南勢崗6號","121.47933","25.2620333333333","6502100","三芝區"
"252001","292-VK","2018/02/22 18:18:48","新北市三芝區中興街二段2號","121.498358333333","25.25674","6502100","三芝區"
"237004","KEA-2597","2018/02/22 18:18:50","新北市三峽區五寮1-14號","121.376478333333","24.8720716666667","6500900","三峽區"
"237007","153-BY","2018/02/22 18:19:04","新北市三峽區中正路二段514號","121.360813333333","24.9065233333333","6500900","三峽區"
"237009","210-TH","2018/02/22 18:18:54","新北市三峽區大仁路66巷3號","121.364811666667","24.93766","6500900","三峽區"
"237013","252-BX","2018/02/22 18:18:54","新北市三峽區介壽路一段207號","121.37868","24.9306266666667","6500900","三峽區"
"237012","275-BY","2018/02/22 18:18:49","新北市三峽區民生街1巷5-90號","121.37903","24.935455","6500900","三峽區"
"237008","302-VK","2018/02/22 18:18:57","新北市三峽區白雞68-29號","121.392375","24.909075","6500900","三峽區"
"237014","433-BY","2018/02/22 18:18:56","新北市三峽區復興路110巷1弄21號","121.37219","24.938315","6500900","三峽區"
"237006","5529-G3","2018/02/22 18:18:57","新北市三峽區溪東路133號","121.402435","24.93436","6500900","三峽區"
"237011","KEA-2596","2018/02/22 18:19:03","新北市三峽區溪東路23號","121.399833333333","24.93507","6500900","三峽區"
"237010","706-TV","2018/02/22 18:19:01","新北市三峽區民族街81號","121.369516666667","24.9293433333333","6500900","三峽區"
"237005","AKY-6261","2018/02/22 18:18:55","新北市三峽區文化路4號","121.373425","24.935565","6500900","三峽區"
"236071","105-UM","2018/02/22 18:18:48","新北市土城區青雲路475號","121.458753333333","24.973865","6501300","土城區"
"236042","107-UM","2018/02/22 18:19:02","新北市土城區裕生路21巷1弄2號","121.44868","24.9871383333333","6501300","土城區"
"236078","166-UM","2018/02/22 18:19:06","新北市土城區永寧路37號","121.430133333333","24.96199","6501300","土城區"
"236030","253-BX","2018/02/22 18:18:54","新北市土城區中央路二段180巷1-1號","121.441493333333","24.97627","6501300","土城區"
"236026","269-VK","2018/02/22 18:18:59","新北市土城區承天路67號","121.439543333333","24.9634733333333","6501300","土城區"
"236014","270-VK","2018/02/22 18:18:58","新北市土城區青雲路39巷7號","121.460308333333","24.9875416666667","6501300","土城區"
"236037","271-VK","2018/02/22 18:18:52","新北市土城區青雲路451巷8弄7號","121.45974","24.9743983333333","6501300","土城區"
"236021","401-BY","2018/02/22 18:18:52","新北市土城區明德路一段361-1號","121.45659","24.9776216666667","6501300","土城區"
"236058","912-UM","2018/02/22 18:18:48","新北市土城區中央路四段195號","121.414743333333","24.9564833333333","6501300","土城區"
"236051","913-UM","2018/02/22 18:19:01","新北市土城區明德路一段369號","121.455636666667","24.97788","6501300","土城區"
"236062","915-UM","2018/02/22 18:19:04","新北市土城區金城路三段202-3號","121.469491666667","24.9885133333333","6501300","土城區"
"236053","AAC-216","2018/02/22 18:19:03","新北市土城區中華路二段92號","121.438281666667","24.9746783333333","6501300","土城區"
"242029","986-R7","2018/02/22 18:18:57","新北市新莊區中平路192號","121.444813333333","25.0482383333333","6500500","新莊區"
"242051","751-BX","2018/02/22 18:18:46","新北市新莊區民本街11巷31號","121.428915","25.02032","6500500","新莊區"
"242023","705-TV","2018/02/22 18:18:49","新北市新莊區新泰路357巷3弄57號","121.442063333333","25.0391816666667","6500500","新莊區"
"242025","615-BX","2018/02/22 18:18:54","新北市新莊區五工三路94巷1號","121.458233333333","25.065575","6500500","新莊區"
"242027","612-BX","2018/02/22 18:18:59","新北市新莊區幸福路567號","121.454175","25.049245","6500500","新莊區"
"242039","566-BX","2018/02/22 18:19:04","新北市新莊區新樹路206巷3號","121.433501666667","25.0204433333333","6500500","新莊區"
"242044","497-BY","2018/02/22 18:18:49","新北市新莊區鳳山街56巷49號","121.413321666667","25.0271833333333","6500500","新莊區"
"242053","440-UM","2018/02/22 18:18:47","新北市新莊區民安西路412-3號","121.428786666667","25.0098","6500500","新莊區"
"242004","413-TV","2018/02/22 18:18:52","新北市新莊區中華路二段17號","121.453763333333","25.0457233333333","6500500","新莊區"
"242042","400-BY","2018/02/22 18:19:05","新北市新莊區天祥街96號","121.415071666667","25.0296166666667","6500500","新莊區"
"242061","362-BY","2018/02/22 18:18:58","新北市新莊區後港一路82號","121.427236666667","25.0266083333333","6500500","新莊區"
"242058","353-BY","2018/02/22 18:19:05","新北市新莊區中山路三段172號","121.416165","25.03184","6500500","新莊區"
"242007","132-UY","2018/02/22 18:18:47","新北市新莊區中華路二段42號","121.454013333333","25.0455916666667","6500500","新莊區"
"242036","133-UY","2018/02/22 18:19:01","新北市新莊區後港一路49巷3弄11號","121.425116666667","25.026765","6500500","新莊區"
"242021","135-UY","2018/02/22 18:19:02","新北市新莊區新興街20號","121.45072","25.0365533333333","6500500","新莊區"
"242046","172-VK","2018/02/22 18:18:48","新北市新莊區中正路829巷57號","121.421481666667","25.02733","6500500","新莊區"
"242015","175-VK","2018/02/22 18:18:48","新北市新莊區中平路198巷14號","121.445716666667","25.0482966666667","6500500","新莊區"
"242002","176-VK","2018/02/22 18:19:06","新北市新莊區碧江街18-7號","121.455395","25.03465","6500500","新莊區"
"242019","348-TH","2018/02/22 18:19:03","新北市新莊區中港路132巷12號","121.455855","25.040645","6500500","新莊區"
"242056","349-TH","2018/02/22 18:18:54","新北市新莊區豐年街豐2巷3號","121.446841666667","25.0307816666667","6500500","新莊區"
"242011","351-TH","2018/02/22 18:18:59","新北市新莊區中港路591巷30號","121.449713333333","25.0523816666667","6500500","新莊區"
"238015","755-BX","2018/02/22 18:18:55","新北市樹林區文化街112巷27號","121.41717","24.990495","6500700","樹林區"
"238023","601-UM","2018/02/22 18:19:02","新北市樹林區三福街67巷3號","121.407853333333","25.0159983333333","6500700","樹林區"
"238019","599-UM","2018/02/22 18:18:53","新北市樹林區國凱街108號","121.422203333333","24.979785","6500700","樹林區"
"238018","571-TV","2018/02/22 18:19:06","新北市樹林區保安街一段18-3號","121.427483333333","24.9934","6500700","樹林區"
"238024","5061-A6","2018/02/22 18:19:02","新北市樹林區中山路一段276號","121.420525","24.98706","6500700","樹林區"
"238021","KEA-2217","2018/02/22 18:18:51","新北市樹林區柑園街二段149巷1號","121.382316666667","24.9538883333333","6500700","樹林區"
"238022","KEA-2213","2018/02/22 18:18:57","新北市樹林區太順街95號","121.416198333333","24.97793","6500700","樹林區"
"238025","303-VK","2018/02/22 18:19:01","新北市樹林區保安街一段323-1號","121.417715","24.99823","6500700","樹林區"
"238017","283-BY","2018/02/22 18:18:59","新北市樹林區中正路620號","121.410201666667","25.0158333333333","6500700","樹林區"
"238014","282-BY","2018/02/22 18:18:52","新北市樹林區潭興街22號","121.425146666667","24.9988883333333","6500700","樹林區"
"238007","268-VK","2018/02/22 18:19:01","新北市樹林區三俊街63號","121.413663333333","25.0157916666667","6500700","樹林區"
"238026","172-UY","2018/02/22 18:18:49","新北市樹林區柑園街一段72巷8號","121.392858333333","24.9697316666667","6500700","樹林區"
"238016","169-UY","2018/02/22 18:18:54","新北市樹林區文化街23號","121.41944","24.9875616666667","6500700","樹林區"
"239007","AAC-297","2018/02/22 18:18:49","新北市鶯歌區育英街69號","121.34727","24.9520933333333","6500800","鶯歌區"
"239006","891-R6","2018/02/22 18:19:02","新北市鶯歌區鶯桃路381巷2弄17號","121.33288","24.9639016666667","6500800","鶯歌區"
"239008","527-UM","2018/02/22 18:18:58","新北市鶯歌區國際一路14號","121.336203333333","24.976535","6500800","鶯歌區"
"239005","526-UM","2018/02/22 18:18:28","新北市樹林區中山路三段214號","121.37963","24.9680466666667","6500800","鶯歌區"
"239001","417-VK","2018/02/22 18:18:58","新北市鶯歌區國中街126號","121.339503333333","24.9398033333333","6500800","鶯歌區"
"239003","360-BY","2018/02/22 18:18:58","新北市鶯歌區福安街13巷1號","121.335603333333","24.965305","6500800","鶯歌區"
"239004","193-VK","2018/02/22 18:18:50","新北市鶯歌區尖山路55號","121.350511666667","24.9499116666667","6500800","鶯歌區"
"221008","489-VK","2018/02/22 18:19:00","新北市汐止區康寧街488號","121.632688333333","25.06847","6501100","汐止區"
"221036","130-UY","2018/02/22 18:19:00","新北市汐止區長安路56號","121.668698333333","25.0783333333333","6501100","汐止區"
"221015","131-UY","2018/02/22 18:18:46","新北市汐止區鄉長路二段23巷19號","121.66806","25.0828616666667","6501100","汐止區"
"221010","269-BY","2018/02/22 18:19:06","新北市汐止區祥雲街16號","121.646301666667","25.0899566666667","6501100","汐止區"
"221012","278-VK","2018/02/22 18:18:58","新北市汐止區保一街4號","121.673731666667","25.0812416666667","6501100","汐止區"
"221023","279-VK","2018/02/22 18:19:08","新北市汐止區中興路276號","121.628791666667","25.0690266666667","6501100","汐止區"
"221032","280-BY","2018/02/22 18:18:47","新北市汐止區力行街41號","121.616706666667","25.05003","6501100","汐止區"
"221027","281-BY","2018/02/22 18:18:58","新北市汐止區和平街2巷1號","121.663463333333","25.0711383333333","6501100","汐止區"
"221029","298-VK","2018/02/22 18:18:57","新北市汐止區汐萬路一段312號","121.650205","25.0755433333333","6501100","汐止區"
"221021","299-VK","2018/02/22 18:19:00","新北市汐止區連興街120號","121.65373","25.0625316666667","6501100","汐止區"
"221031","353-TW","2018/02/22 18:19:03","新北市汐止區中興路158-1號","121.632221666667","25.0650383333333","6501100","汐止區"
"221035","622-UM","2018/02/22 18:19:04","新北市汐止區大同路二段179號","121.651923333333","25.0641666666667","6501100","汐止區"
"221025","623-UM","2018/02/22 18:18:57","新北市汐止區勤進路12巷29號","121.65923","25.0623716666667","6501100","汐止區"
"221033","647-BX","2018/02/22 18:18:35","新北市汐止區宜興街40巷2號","121.622098333333","25.0418866666667","6501100","汐止區"
"221002","707-TV","2018/02/22 18:19:01","新北市汐止區福德一路201巷23號","121.636105","25.064715","6501100","汐止區"
"221018","753-BX","2018/02/22 18:19:01","新北市汐止區茄苳路72巷5號","121.666716666667","25.070305","6501100","汐止區"
"242048","281-VK","2018/02/22 18:18:51","新北市新莊區後港二路10號","121.422856666667","25.0240533333333","6500500","新莊區"
"242031","280-VK","2018/02/22 18:18:53","新北市新莊區新泰路255巷2號","121.445858333333","25.0398633333333","6500500","新莊區"
"220054","741-BX","2018/02/22 18:19:04","新北市板橋區華東街1-9號","121.448066666667","24.9949466666667","6500100","板橋區"
