"lineid","car","time","location","longitude","latitude","cityid","cityname"
"234046","148-BY","2018/02/22 18:59:51","新北市永和區得和路373巷29號","121.52506","25.0004","6500400","永和區"
"234067","149-BY","2018/02/22 18:59:40","新北市永和區永和路一段22號","121.513008333333","25.0048683333333","6500400","永和區"
"234007","207-UY","2018/02/22 18:59:50","新北市永和區中山路一段81號","121.51218","25.0107833333333","6500400","永和區"
"234081","298-R6","2018/02/22 18:59:42","新北市永和區永亨路83號","121.521965","25.0057216666667","6500400","永和區"
"234038","336-UY","2018/02/22 18:59:38","新北市永和區成功路二段207號","121.526573333333","24.99596","6500400","永和區"
"234064","337-UY","2018/02/22 18:59:39","新北市永和區秀朗路一段140號","121.518053333333","25.0033583333333","6500400","永和區"
"234086","338-UY","2018/02/22 18:59:40","新北市永和區永寧街129巷2號","121.518078333333","25.00535","6500400","永和區"
"234070","552-UM","2018/02/22 18:59:43","新北市永和區中興街84巷8號","121.518518333333","25.0116733333333","6500400","永和區"
"234017","745-BX","2018/02/22 18:59:50","新北市永和區永和路二段297號","121.516093333333","25.0160133333333","6500400","永和區"
"234030","746-BX","2018/02/22 18:59:41","新北市永和區四維街58號","121.524625","24.9981966666667","6500400","永和區"
"234054","KEA-2590","2018/02/22 18:59:34","新北市永和區竹林路66巷2號","121.518265","25.01334","6500400","永和區"
"234013","KEA-2591","2018/02/22 18:59:40","新北市永和區信義路17巷5號","121.514126666667","25.0117816666667","6500400","永和區"
"234061","AAD-866","2018/02/22 18:59:49","新北市永和區福和路309巷1號","121.516366666667","25.0070783333333","6500400","永和區"
"234042","862-TW","2018/02/22 18:59:43","新北市永和區永貞路271號","121.51176","25.00484","6500400","永和區"
"234050","863-TW","2018/02/22 18:59:38","新北市永和區文化路194號","121.510753333333","25.016265","6500400","永和區"
"234026","9371-KE","2018/02/22 18:59:42","新北市永和區自由街58號","121.513753333333","25.0059616666667","6500400","永和區"
"234011","9373-KE","2018/02/22 18:59:46","新北市永和區忠孝街34巷12弄1號","121.514566666667","25.0167016666667","6500400","永和區"
"249005","172-UM","2018/02/22 18:59:28","新北市八里區長道坑11號","121.396326666667","25.1231683333333","6502300","八里區"
"249001","173-UM","2018/02/22 18:59:46","新北市八里區龍米路二段50號","121.448246666667","25.140685","6502300","八里區"
"248016","026-BX","2018/02/22 18:59:29","新北市五股區成泰路三段543巷18號","121.450886666667","25.1023266666667","6501500","五股區"
"248006","077-UY","2018/02/22 18:59:34","新北市五股區四維路125號","121.467495","25.0737783333333","6501500","五股區"
"248008","095-VK","2018/02/22 18:59:38","新北市五股區中興路一段118巷6弄22號","121.46638","25.0747183333333","6501500","五股區"
"248020","225-UY","2018/02/22 18:59:36","新北市五股區凌雲路三段57號","121.425288333333","25.1250166666667","6501500","五股區"
"248012","247-BX","2018/02/22 18:59:36","新北市五股區工商路38號","121.439391666667","25.08372","6501500","五股區"
"248004","677-BX","2018/02/22 18:59:45","新北市五股區民義路一段242-3號","121.426475","25.0922533333333","6501500","五股區"
"248002","678-BX","2018/02/22 18:50:53","新北市五股區成泰路三段452號","121.451728333333","25.099895","6501500","五股區"
"248010","682-TV","2018/02/22 18:59:44","新北市五股區水碓七路1號","121.428096666667","25.0713366666667","6501500","五股區"
"234023","9380-KE","2018/02/22 18:59:45","新北市永和區環河東路一段124號","121.520691666667","25.0154566666667","6500400","永和區"
"234077","969-R7","2018/02/22 18:59:44","新北市永和區智光街27號","121.51811","24.9990666666667","6500400","永和區"
"234074","AAC-211","2018/02/22 18:59:40","新北市永和區福和路1號","121.526171666667","25.0098316666667","6500400","永和區"
"234003","AAC-295","2018/02/22 18:59:33","新北市永和區和平街19號","121.5136","25.0098783333333","6500400","永和區"
"232011","375-UM","2018/02/22 18:59:32","新北市坪林區坪林街96號","121.711988333333","24.9364933333333","6502000","坪林區"
"244013","069-UM","2018/02/22 18:59:40","新北市林口區麗園一街6巷2-3號","121.37653","25.069875","6501700","林口區"
"244019","402-UM","2018/02/22 18:59:43","新北市林口區麗園二街51號","121.38105","25.06883","6501700","林口區"
"244023","483-VK","2018/02/22 18:59:41","新北市林口區文林六街32號","121.371583333333","25.08108","6501700","林口區"
"244017","485-VK","2018/02/22 18:59:50","新北市林口區忠孝路376巷49號","121.368113333333","25.0705166666667","6501700","林口區"
"244009","658-BX","2018/02/22 18:59:16","新北市林口區文化一路二段285-1號","121.384798333333","25.0846466666667","6501700","林口區"
"244011","701-TV","2018/02/22 18:59:38","新北市林口區中正路10號","121.39628","25.077435","6501700","林口區"
"244025","837-TS","2018/02/22 18:59:30","新北市林口區忠孝路1號","121.364118333333","25.076045","6501700","林口區"
"243011","297-R6","2018/02/22 18:59:43","新北市泰山區明志路二段298巷16-3號","121.42563","25.0467433333333","6501600","泰山區"
"243015","380-SR","2018/02/22 18:59:44","新北市泰山區泰林路二段283號","121.430408333333","25.062785","6501600","泰山區"
"243014","421-VK","2018/02/22 18:59:40","新北市泰山區泰林路二段595號","121.42169","25.0634933333333","6501600","泰山區"
"243012","539-UM","2018/02/22 18:59:46","新北市泰山區同義街13巷32號","121.432335","25.0570383333333","6501600","泰山區"
"243010","KEA-2215","2018/02/22 18:59:44","新北市泰山區辭修路30號","121.42897","25.0581766666667","6501600","泰山區"
"243009","KEA-2216","2018/02/22 18:59:50","新北市泰山區泰林路二段353號","121.428203333333","25.0637","6501600","泰山區"
"243013","646-TV","2018/02/22 18:59:51","新北市泰山區明志路三段351巷22號","121.422565","25.0348483333333","6501600","泰山區"
"243016","680-BX","2018/02/22 18:59:31","新北市泰山區明志路二段152號","121.42751","25.050865","6501600","泰山區"
"222003","436-BY","2018/02/22 18:59:32","新北市深坑區深南路51-1號","121.621361666667","25.0102616666667","6501800","深坑區"
"222002","659-BX","2018/02/22 18:59:37","新北市深坑區文山路一段33號","121.629778333333","25.0035483333333","6501800","深坑區"
"231041","002-UM","2018/02/22 18:59:31","新北市新店區安康路一段3-1號","121.535448333333","24.9609783333333","6500600","新店區"
"231059","046-UY","2018/02/22 18:59:48","新北市新店區安康路一段355號","121.519815","24.9631883333333","6500600","新店區"
"231061","047-UY","2018/02/22 18:59:33","新北市新店區安康路一段351-1號","121.519448333333","24.96389","6500600","新店區"
"231060","106-UY","2018/02/22 18:59:33","新北市新店區安豐路45號","121.50026","24.9552","6500600","新店區"
"231051","107-UY","2018/02/22 18:59:44","新北市新店區百忍街8號","121.535001666667","24.9756233333333","6500600","新店區"
"231047","108-UY","2018/02/22 18:59:49","新北市新店區德正街27巷29弄60號","121.545811666667","24.9728966666667","6500600","新店區"
"231052","187-VK","2018/02/22 18:59:40","新北市新店區櫻花街55巷36號","121.548525","24.9267516666667","6500600","新店區"
"231050","KEA-2219","2018/02/22 18:59:40","新北市新店區北宜路二段30巷5弄1號","121.548295","24.950735","6500600","新店區"
"231046","278-BY","2018/02/22 18:59:47","新北市新店區直潭五街28號","121.534211666667","24.9413116666667","6500600","新店區"
"231054","AAD-862","2018/02/22 18:59:36","新北市新店區新店路13號","121.540321666667","24.9528683333333","6500600","新店區"
"231058","3712-VJ","2018/02/22 18:59:50","新北市新店區中興路一段289-1號","121.545648333333","24.9687416666667","6500600","新店區"
"231056","3713-VJ","2018/02/22 18:59:36","新北市新店區大同街8巷25號","121.538896666667","24.980945","6500600","新店區"
"231055","4716-K9","2018/02/22 18:59:45","新北市新店區新生街22號","121.539771666667","24.966535","6500600","新店區"
"231067","4772-VM","2018/02/22 18:59:35","新北市新店區安康路一段247巷29號","121.524601666667","24.9619733333333","6500600","新店區"
"231065","512-UM","2018/02/22 18:59:32","新北市新店區安祥路147巷86號","121.475615","24.9553183333333","6500600","新店區"
"231064","515-UM","2018/02/22 18:59:36","新北市新店區安忠路13號","121.514733333333","24.962545","6500600","新店區"
"231040","619-UM","2018/02/22 18:59:46","新北市新店區中正路402號","121.534523333333","24.9774633333333","6500600","新店區"
"231042","641-BX","2018/02/22 18:59:40","新北市新店區中興路一段282號","121.545743333333","24.9685633333333","6500600","新店區"
"231063","645-TV","2018/02/22 18:59:45","新北市新店區車子路109號","121.505203333333","24.9521016666667","6500600","新店區"
"231049","719-UM","2018/02/22 18:59:47","新北市新店區中正路454-5號","121.534516666667","24.9790266666667","6500600","新店區"
"231062","720-UM","2018/02/22 18:59:35","新北市新店區安和路一段6-6號","121.517465","24.9656066666667","6500600","新店區"
"231044","897-TW","2018/02/22 18:59:32","新北市新店區寶中路137號","121.549803333333","24.9791666666667","6500600","新店區"
"231045","898-TW","2018/02/22 18:59:41","新北市新店區光明街7號","121.538235","24.9592616666667","6500600","新店區"
"231043","899-TW","2018/02/22 18:59:46","新北市新店區北新路二段1號","121.542616666667","24.9711583333333","6500600","新店區"
"231066","AKT-0513","2018/02/22 18:59:48","新北市新店區安祥路86號","121.491216666667","24.9564283333333","6500600","新店區"
"241008","059-VK","2018/02/22 18:59:31","新北市三重區永福街133號","121.478751666667","25.0768166666667","6500200","三重區"
"241013","270-UM","2018/02/22 18:59:44","新北市三重區仁賢街9號","121.495931666667","25.074565","6500200","三重區"
"241029","942-UM","2018/02/22 18:59:47","新北市三重區重安街15-1號","121.490365","25.0574733333333","6500200","三重區"
"235066","003-UY","2018/02/22 18:59:45","新北市中和區中山路二段131巷12號","121.502986666667","25.0021266666667","6500300","中和區"
"235064","005-UY","2018/02/22 18:59:39","新北市中和區中和路49號","121.500141666667","25.0013516666667","6500300","中和區"
"235063","006-UY","2018/02/22 18:59:44","新北市中和區中正路458號","121.490648333333","24.994345","6500300","中和區"
"235056","096-UM","2018/02/22 18:59:41","新北市中和區員山路466巷19號","121.480728333333","25.006655","6500300","中和區"
"235039","097-UM","2018/02/22 18:59:44","新北市中和區安樂路217巷56號","121.513005","24.9976383333333","6500300","中和區"
"235065","098-UM","2018/02/22 18:59:51","新北市中和區莊敬路33巷21號","121.50051","25.0071516666667","6500300","中和區"
"235040","150-BY","2018/02/22 18:59:47","新北市永和區中正路50號","121.513121666667","24.9945416666667","6500300","中和區"
"235058","151-BY","2018/02/22 18:59:41","新北市中和區員山路84號","121.480913333333","24.9942066666667","6500300","中和區"
"235055","183-VK","2018/02/22 18:59:28","新北市中和區民德路23號","121.468846666667","25.0027433333333","6500300","中和區"
"235049","186-VK","2018/02/22 18:59:42","新北市中和區景安路177巷35號","121.506968333333","24.9946416666667","6500300","中和區"
"235067","255-BX","2018/02/22 18:59:44","新北市中和區民樂路62號","121.48394","25.001205","6500300","中和區"
"235044","293-VK","2018/02/22 18:59:41","新北市中和區中興街161巷2弄1號","121.500391666667","24.9908933333333","6500300","中和區"
"235072","301-VK","2018/02/22 18:59:31","新北市中和區景平路711號","121.496398333333","25.0037283333333","6500300","中和區"
"235043","352-BY","2018/02/22 18:59:50","新北市中和區成功路77號","121.52612","24.9922216666667","6500300","中和區"
"235068","377-QA","2018/02/22 18:59:31","新北市中和區圓通路265巷27號","121.496041666667","24.9926016666667","6500300","中和區"
"235061","378-QA","2018/02/22 18:59:35","新北市中和區民治街130巷7號","121.474931666667","25.002605","6500300","中和區"
"235071","269-TV","2018/02/22 18:59:39","新北市中和區員山路36巷16-3號","121.484891666667","24.9913633333333","6500300","中和區"
"235050","4979-A6","2018/02/22 18:59:34","新北市中和區忠孝街58巷3號","121.511941666667","24.9833916666667","6500300","中和區"
"235069","4980-A6","2018/02/22 18:59:42","新北市中和區圓通路61號","121.500496666667","24.9972333333333","6500300","中和區"
"235042","551-UM","2018/02/22 18:59:44","新北市中和區秀朗路三段50巷2弄5號","121.525886666667","24.99581","6500300","中和區"
"235070","558-UM","2018/02/22 18:59:43","新北市中和區安和路217號","121.505978333333","24.999435","6500300","中和區"
"235045","565-BX","2018/02/22 18:59:49","新北市中和區景新街467巷13號","121.5138","24.9882383333333","6500300","中和區"
"235054","640-BX","2018/02/22 18:59:34","新北市中和區民享街29-1號","121.473991666667","25.0042366666667","6500300","中和區"
"235060","647-TV","2018/02/22 18:59:35","新北市中和區中山路三段214號","121.471398333333","25.0066","6500300","中和區"
"235047","732-UM","2018/02/22 18:59:46","新北市中和區興南路二段49號","121.507176666667","24.98538","6500300","中和區"
"235046","733-UM","2018/02/22 18:59:37","新北市中和區興南路一段135巷20號","121.509198333333","24.9868383333333","6500300","中和區"
"235062","800-TS","2018/02/22 18:59:38","新北市中和區中山路二段365巷2弄7號","121.487031666667","25.0041","6500300","中和區"
"235057","801-TS","2018/02/22 18:59:50","新北市中和區民安街63號","121.478696666667","24.9995266666667","6500300","中和區"
"235052","805-TS","2018/02/22 18:59:46","新北市中和區興南路二段399巷65-1號","121.501226666667","24.9751983333333","6500300","中和區"
"235048","896-TW","2018/02/22 18:59:39","新北市中和區華新街109巷16號","121.508685","24.9810966666667","6500300","中和區"
"235053","900-TW","2018/02/22 18:59:31","新北市中和區民德路360號","121.466153333333","24.9938033333333","6500300","中和區"
"235038","911-UM","2018/02/22 18:59:51","新北市中和區立人街24-5號","121.518753333333","24.9941933333333","6500300","中和區"
"235051","157-BY","2018/02/22 18:59:41","新北市中和區忠孝街4號","121.510053333333","24.9827","6500300","中和區"
"235037","AAC-213","2018/02/22 18:59:39","新北市中和區自立路17號","121.522275","24.9960633333333","6500300","中和區"
"235059","AAC-215","2018/02/22 18:59:47","新北市中和區圓通路367巷18-5號","121.491845","24.9884483333333","6500300","中和區"
"220068","013-TV","2018/02/22 18:59:45","新北市板橋區三民路一段31巷42號","121.481153333333","25.0230016666667","6500100","板橋區"
"220065","072-UY","2018/02/22 18:59:34","新北市板橋區漢生東路325號","121.47189","25.00786","6500100","板橋區"
"220086","073-UY","2018/02/22 18:59:39","新北市板橋區大智街18號","121.455786666667","25.0148883333333","6500100","板橋區"
"220106","075-UY","2018/02/22 18:59:42","新北市板橋區文化路二段124巷3號","121.470381666667","25.0260833333333","6500100","板橋區"
"220069","AAD-861","2018/02/22 18:59:48","新北市板橋區華興街81號","121.45688","25.0051583333333","6500100","板橋區"
"226004","312-R5","2018/02/22 18:59:47","新北市平溪區靜安路二段530巷21號","121.745333333333","25.027415","6502400","平溪區"
"235041","251-BX","2018/02/22 18:59:44","新北市中和區宜安路118巷18號","121.510855","24.9985066666667","6500300","中和區"
"228003","097-TW","2018/02/22 18:59:51","新北市貢寮區和美里龍洞街56-3號","121.912726666667","25.1145466666667","6502600","貢寮區"
"228001","212-TW","2018/02/22 18:59:33","新北市貢寮區仁理村研海街12-1號","121.92377","25.0516516666667","6502600","貢寮區"
"228002","585-TW","2018/02/22 18:59:34","新北市貢寮區福隆里興隆街2巷4號","121.945888333333","25.01745","6502600","貢寮區"
"224010","AGQ-8101","2018/02/22 18:59:51","新北市瑞芳區市下巷1號","121.844416666667","25.1088083333333","6501200","瑞芳區"
"224006","676-BX","2018/02/22 18:59:42","新北市瑞芳區民權街6巷27號","121.806865","25.106805","6501200","瑞芳區"
"224009","285-BY","2018/02/22 18:59:38","新北市瑞芳區祈堂路12號","121.858338333333","25.1124316666667","6501200","瑞芳區"
"224008","275-VK","2018/02/22 18:59:46","新北市瑞芳區逢甲路343-8號","121.799755","25.1124833333333","6501200","瑞芳區"
"224007","273-VK","2018/02/22 18:59:47","新北市瑞芳區大埔路慶安新村44-1號","121.762821666667","25.100135","6501200","瑞芳區"
"224005","271-BY","2018/02/22 18:59:43","新北市瑞芳區濱二路40號","121.83288","25.1166383333333","6501200","瑞芳區"
"227004","642-TC","2018/02/22 18:59:43","新北市雙溪區平林里康福家園10號","121.858766666667","25.0373283333333","6502500","雙溪區"
"227010","400-TW","2018/02/22 18:59:42","新北市雙溪區牡丹里中正路58巷23號","121.866436666667","25.0416233333333","6502500","雙溪區"
"253005","032-BX","2018/02/22 18:59:36","新北市石門區尖子鹿76號","121.572803333333","25.2970833333333","6502200","石門區"
"253006","295-VK","2018/02/22 18:59:47","新北市石門區八甲11號","121.521968333333","25.2813916666667","6502200","石門區"
"222001","KEA-2212","2018/02/22 18:59:49","新北市深坑區北深路一段80號","121.636426666667","25.0107466666667","6501800","深坑區"
"208003","665-BX","2018/02/22 18:59:48","新北市金山區中正路61號","121.634138333333","25.221915","6502700","金山區"
"208001","761-BX","2018/02/22 18:59:16","新北市金山區中山路91號","121.640143333333","25.218845","6502700","金山區"
"251009","008-UM","2018/02/22 18:59:35","新北市淡水區重建街81號","121.439856666667","25.1722266666667","6501000","淡水區"
"251001","011-UM","2018/02/22 18:59:35","新北市淡水區自強路56-1號","121.463298333333","25.1275166666667","6501000","淡水區"
"251013","179-VK","2018/02/22 18:55:54","新北市淡水區安子內12號","121.481573333333","25.219075","6501000","淡水區"
"251014","180-VK","2018/02/22 18:59:42","新北市淡水區小中寮30號","121.490043333333","25.2277983333333","6501000","淡水區"
"251015","182-VK","2018/02/22 18:59:47","新北市淡水區糞箕湖60號","121.485245","25.1723066666667","6501000","淡水區"
"251010","413-VK","2018/02/22 18:59:44","新北市淡水區沙崙路97號","121.422325","25.1823733333333","6501000","淡水區"
"251016","442-VK","2018/02/22 18:59:48","新北市淡水區淡金路三段230號","121.448885","25.2051583333333","6501000","淡水區"
"251007","577-R6","2018/02/22 18:59:32","新北市淡水區民生路113巷1弄45號","121.462731666667","25.1385683333333","6501000","淡水區"
"251002","672-BX","2018/02/22 18:59:29","新北市淡水區中正東路61號","121.44699","25.1678716666667","6501000","淡水區"
"251003","766-UM","2018/02/22 18:59:45","新北市淡水區中山北路一段149巷24號","121.442991666667","25.17795","6501000","淡水區"
"207003","550-UM","2018/02/22 18:59:30","新北市萬里區大鵬里頂社29號","121.656581666667","25.210775","6502800","萬里區"
"207004","225-TW","2018/02/22 18:59:40","新北市萬里區萬里里獅頭路23號","121.693235","25.1782366666667","6502800","萬里區"
"252002","178-VK","2018/02/22 18:59:44","新北市三芝區中正路一段72號","121.503893333333","25.257655","6502100","三芝區"
"252003","249-BX","2018/02/22 18:59:50","新北市三芝區後厝里北勢子22-16號","121.473111666667","25.2533283333333","6502100","三芝區"
"252001","292-VK","2018/02/22 18:59:48","新北市三芝區中興街二段260號","121.501746666667","25.2530683333333","6502100","三芝區"
"237004","KEA-2597","2018/02/22 18:59:50","新北市三峽區有木185號","121.448433333333","24.840525","6500900","三峽區"
"237007","153-BY","2018/02/22 18:59:44","新北市三峽區中正路二段331-1號","121.36588","24.9099366666667","6500900","三峽區"
"237009","210-TH","2018/02/22 18:59:34","新北市三峽區大同路272號","121.365335","24.92529","6500900","三峽區"
"237013","252-BX","2018/02/22 18:59:34","新北市三峽區光明路69巷24號","121.376645","24.9290616666667","6500900","三峽區"
"237012","275-BY","2018/02/22 18:59:49","新北市樹林區佳園路三段486號","121.382823333333","24.9439716666667","6500900","三峽區"
"237008","302-VK","2018/02/22 18:59:37","新北市三峽區中正路一段474-4號","121.370431666667","24.9210416666667","6500900","三峽區"
"237014","433-BY","2018/02/22 18:59:36","新北市三峽區隆恩街168-10號","121.363193333333","24.9431516666667","6500900","三峽區"
"237006","5529-G3","2018/02/22 18:59:36","新北市三峽區溪東路211巷18弄1-1號","121.406213333333","24.9344116666667","6500900","三峽區"
"237011","KEA-2596","2018/02/22 18:59:43","新北市三峽區介壽路三段146號","121.401075","24.9432333333333","6500900","三峽區"
"237016","649-BX","2018/02/22 18:58:47","新北市三峽區建安80-3號","121.452465","24.9226","6500900","三峽區"
"237010","706-TV","2018/02/22 18:59:41","新北市三峽區國光街350巷12號","121.37169","24.9400416666667","6500900","三峽區"
"237005","AKY-6261","2018/02/22 18:59:46","新北市三峽區文化路33號","121.372891666667","24.936085","6500900","三峽區"
"236071","105-UM","2018/02/22 18:59:48","新北市土城區立清街61號","121.46014","24.9867483333333","6501300","土城區"
"236042","107-UM","2018/02/22 18:59:42","新北市土城區學府路一段229巷7號","121.451588333333","24.9838683333333","6501300","土城區"
"236078","166-UM","2018/02/22 18:59:37","新北市土城區中央路四段67巷60-13號","121.416893333333","24.956","6501300","土城區"
"236030","253-BX","2018/02/22 18:59:34","新北市土城區中央路三段1號","121.439645","24.97074","6501300","土城區"
"236026","269-VK","2018/02/22 18:59:39","新北市土城區中正路56巷15號","121.44415","24.9746633333333","6501300","土城區"
"236014","270-VK","2018/02/22 18:59:51","新北市土城區立德路28號","121.463121666667","24.9876283333333","6501300","土城區"
"236037","271-VK","2018/02/22 18:59:32","新北市土城區明德路一段196巷13號","121.461356666667","24.9784416666667","6501300","土城區"
"236021","401-BY","2018/02/22 18:59:35","新北市土城區明峰街48號","121.467871666667","24.98627","6501300","土城區"
"236058","912-UM","2018/02/22 18:59:48","新北市土城區明德路一段385-1號","121.452445","24.9798183333333","6501300","土城區"
"236051","913-UM","2018/02/22 18:59:35","新北市土城區青雲路253號","121.459096666667","24.980935","6501300","土城區"
"236062","915-UM","2018/02/22 18:59:44","新北市土城區延和路41巷6弄15號","121.466546666667","24.9904","6501300","土城區"
"236053","AAC-216","2018/02/22 18:59:43","新北市土城區學成路167號","121.448108333333","24.9890816666667","6501300","土城區"
"242058","353-BY","2018/02/22 18:59:46","新北市新莊區新北大道七段850號","121.41386","25.0234983333333","6500500","新莊區"
"238023","601-UM","2018/02/22 18:59:42","新北市樹林區工興街33號","121.400975","25.01321","6500700","樹林區"
"238019","599-UM","2018/02/22 18:59:33","新北市樹林區東華街39號","121.415245","24.9815183333333","6500700","樹林區"
"238018","571-TV","2018/02/22 18:59:48","新北市樹林區中華路223號","121.418901666667","24.9809766666667","6500700","樹林區"
"238021","KEA-2217","2018/02/22 18:59:51","新北市樹林區西圳街二段123巷6弄2號","121.384408333333","24.9573083333333","6500700","樹林區"
"238022","KEA-2213","2018/02/22 18:59:37","新北市樹林區東順街34號","121.411488333333","24.9782866666667","6500700","樹林區"
"238025","303-VK","2018/02/22 18:59:41","新北市樹林區中山路三段22號","121.395578333333","24.9729966666667","6500700","樹林區"
"238017","283-BY","2018/02/22 18:59:39","新北市樹林區中山路三段289號","121.391643333333","24.9720933333333","6500700","樹林區"
"238014","282-BY","2018/02/22 18:59:32","新北市樹林區大安路111巷11號","121.423095","24.9976183333333","6500700","樹林區"
"238020","268-VK","2018/02/22 18:59:41","新北市樹林區俊英街79號","121.426098333333","25.0075633333333","6500700","樹林區"
"238026","172-UY","2018/02/22 18:59:29","新北市樹林區中和街9號","121.392106666667","24.9728783333333","6500700","樹林區"
"238016","169-UY","2018/02/22 18:59:34","新北市樹林區復興路373巷24號","121.417393333333","24.9863433333333","6500700","樹林區"
"239007","AAC-297","2018/02/22 18:59:49","新北市鶯歌區中正一路建德巷38號","121.364516666667","24.9577683333333","6500800","鶯歌區"
"239005","526-UM","2018/02/22 18:59:48","新北市鶯歌區鳳吉二街101號","121.328655","24.974875","6500800","鶯歌區"
"239001","417-VK","2018/02/22 18:59:38","新北市鶯歌區光明街232號","121.341356666667","24.955875","6500800","鶯歌區"
"239003","360-BY","2018/02/22 18:59:38","新北市鶯歌區鶯桃路658巷125號","121.332546666667","24.9712516666667","6500800","鶯歌區"
"239004","193-VK","2018/02/22 18:59:30","新北市鶯歌區中正三路194巷46號","121.331206666667","24.9408","6500800","鶯歌區"
"221008","489-VK","2018/02/22 18:59:40","新北市汐止區伯爵街2巷5號","121.6422","25.075495","6501100","汐止區"
"221036","130-UY","2018/02/22 18:59:40","新北市汐止區南昌街13號","121.663386666667","25.0694916666667","6501100","汐止區"
"221015","131-UY","2018/02/22 18:59:46","新北市汐止區鄉長路一段43號","121.665388333333","25.07496","6501100","汐止區"
"221010","269-BY","2018/02/22 18:59:46","新北市汐止區汐萬路一段256巷3號","121.653343333333","25.0746516666667","6501100","汐止區"
"221012","278-VK","2018/02/22 18:59:38","新北市汐止區康寧街901號","121.650796666667","25.0752683333333","6501100","汐止區"
"221023","279-VK","2018/02/22 18:59:39","新北市汐止區康寧街901號","121.650958333333","25.0752233333333","6501100","汐止區"
"221032","280-BY","2018/02/22 18:59:47","新北市汐止區橫科路322巷24弄6-1號","121.620358333333","25.0500833333333","6501100","汐止區"
"221027","281-BY","2018/02/22 18:59:38","新北市汐止區康寧街901號","121.65146","25.0749666666667","6501100","汐止區"
"221038","297-VK","2018/02/22 18:59:50","新北市汐止區汐萬路一段312號","121.650576666667","25.0753133333333","6501100","汐止區"
"221029","298-VK","2018/02/22 18:59:36","新北市汐止區樟樹一路254號","121.642406666667","25.06727","6501100","汐止區"
"221021","299-VK","2018/02/22 18:59:40","新北市汐止區康寧街901號","121.651376666667","25.0750416666667","6501100","汐止區"
"221031","353-TW","2018/02/22 18:59:43","新北市汐止區福德一路300巷15號","121.630821666667","25.0639066666667","6501100","汐止區"
"221035","622-UM","2018/02/22 18:59:44","新北市汐止區汐萬路一段244-1號","121.651376666667","25.0733216666667","6501100","汐止區"
"221025","623-UM","2018/02/22 18:59:37","新北市汐止區汐萬路一段116號","121.653871666667","25.0712266666667","6501100","汐止區"
"221033","647-BX","2018/02/22 18:59:35","新北市汐止區汐萬路一段256巷3號","121.653286666667","25.0745316666667","6501100","汐止區"
"221002","707-TV","2018/02/22 18:59:41","新北市汐止區大同路一段2號","121.621068333333","25.055065","6501100","汐止區"
"220079","145-BY","2018/02/22 18:59:43","新北市板橋區民權路202巷12弄1號","121.46058","25.0156816666667","6500100","板橋區"
"220080","200-UY","2018/02/22 18:59:33","新北市板橋區大觀路二段265巷1弄14號","121.443516666667","24.9985116666667","6500100","板橋區"
"220082","610-BX","2018/02/22 18:59:50","新北市板橋區篤行路三段2號","121.4291","24.9879816666667","6500100","板橋區"
"220101","245-BX","2018/02/22 18:59:50","新北市板橋區民生路二段232-13號","121.468655","25.0222666666667","6500100","板橋區"
"220096","257-TC","2018/02/22 18:59:36","新北市板橋區萬板路63號","121.471585","25.0218233333333","6500100","板橋區"
"220056","276-BY","2018/02/22 18:59:39","新北市板橋區信義路161號","121.458436666667","24.9925916666667","6500100","板橋區"
"220072","277-BY","2018/02/22 18:59:34","新北市板橋區篤行路一段33號","121.432108333333","24.994435","6500100","板橋區"
"220071","283-VK","2018/02/22 18:59:37","新北市板橋區重慶路247-2號","121.463666666667","25.000435","6500100","板橋區"
"220094","285-UM","2018/02/22 18:59:40","新北市板橋區民生路二段232號","121.468998333333","25.0221116666667","6500100","板橋區"
"220053","285-VK","2018/02/22 18:59:36","新北市板橋區成功路19號","121.475313333333","25.0172183333333","6500100","板橋區"
"220083","286-VK","2018/02/22 18:59:33","新北市板橋區大觀路一段38巷156弄65號","121.442393333333","25.0069933333333","6500100","板橋區"
"220081","287-VK","2018/02/22 18:59:32","新北市板橋區光華街19巷36號","121.4533","25.0119933333333","6500100","板橋區"
"220061","293-UM","2018/02/22 18:59:39","新北市板橋區富山街109巷12號","121.475906666667","25.02176","6500100","板橋區"
"220084","296-UM","2018/02/22 18:59:35","新北市板橋區龍興街59號","121.44317","25.0013283333333","6500100","板橋區"
"220075","303-R5","2018/02/22 18:59:45","新北市板橋區茶館街27號","121.456398333333","25.01047","6500100","板橋區"
"220062","305-R5","2018/02/22 18:59:45","新北市板橋區民享街142巷2號","121.477913333333","25.0165083333333","6500100","板橋區"
"220092","307-R5","2018/02/22 18:59:47","新北市板橋區漢生東路63巷1號","121.465873333333","25.01641","6500100","板橋區"
"220098","317-R6","2018/02/22 18:59:45","新北市板橋區民有街12號","121.46638","25.02478","6500100","板橋區"
"220064","486-VK","2018/02/22 18:59:47","新北市板橋區縣民大道二段110號","121.467091666667","25.0155433333333","6500100","板橋區"
"220088","491-VK","2018/02/22 18:59:38","新北市板橋區民生路二段148號","121.471413333333","25.0198916666667","6500100","板橋區"
"220035","560-BX","2018/02/22 18:59:49","新北市板橋區中正路341巷37號","121.454015","25.01968","6500100","板橋區"
"220103","561-BX","2018/02/22 18:59:32","新北市板橋區民生路二段121號","121.47078","25.0184333333333","6500100","板橋區"
"220063","609-BX","2018/02/22 18:59:46","新北市板橋區中山路二段126號","121.47623","25.0168466666667","6500100","板橋區"
"220091","637-BX","2018/02/22 18:59:33","新北市板橋區莊敬路208巷2弄6號","121.471645","25.021565","6500100","板橋區"
"220057","686-BX","2018/02/22 18:59:38","新北市板橋區館前東路80號","121.461636666667","25.0073416666667","6500100","板橋區"
"220077","687-BX","2018/02/22 18:59:31","新北市板橋區龍興街2號","121.442765","24.9993733333333","6500100","板橋區"
"220093","689-BX","2018/02/22 18:59:42","新北市板橋區民生路二段232-13號","121.468448333333","25.022425","6500100","板橋區"
"220054","741-BX","2018/02/22 18:59:49","新北市板橋區重慶路127巷12號","121.463323333333","25.0048933333333","6500100","板橋區"
"220102","KEA-2699","2018/02/22 18:59:50","新北市板橋區縣民大道三段133巷35號","121.477106666667","25.0246516666667","6500100","板橋區"
"220055","827-TW","2018/02/22 18:59:38","新北市板橋區中山路一段158巷15號","121.466338333333","25.0114133333333","6500100","板橋區"
"220067","829-TW","2018/02/22 18:59:44","新北市板橋區三民路186巷13-1號","121.478713333333","25.0149466666667","6500100","板橋區"
"220090","830-TW","2018/02/22 18:59:32","新北市板橋區民生路二段225號","121.4689","25.02115","6500100","板橋區"
"220089","833-TW","2018/02/22 18:59:44","新北市板橋區民生路二段232-10號","121.468623333333","25.022655","6500100","板橋區"
"220074","895-R6","2018/02/22 18:59:42","新北市板橋區林園街14號","121.453941666667","25.0096983333333","6500100","板橋區"
"220073","985-R7","2018/02/22 18:59:48","新北市板橋區民權路259號","121.457001666667","25.0160433333333","6500100","板橋區"
"220097","AAC-210","2018/02/22 18:59:46","新北市板橋區四維路137巷1弄2號","121.464718333333","25.0251083333333","6500100","板橋區"
"220070","AAC-253","2018/02/22 18:59:37","新北市板橋區四川路一段489號","121.45706","24.9972683333333","6500100","板橋區"
