"lineid","car","time","location","longitude","latitude","cityid","cityname"
"234046","148-BY","2018/02/22 20:09:11","新北市永和區得和路324號","121.523183333333","24.9996216666667","6500400","永和區"
"234067","149-BY","2018/02/22 20:09:19","新北市永和區保平路214巷12弄1號","121.508966666667","25.0067733333333","6500400","永和區"
"234007","207-UY","2018/02/22 20:09:10","新北市永和區保順路51巷7號","121.502708333333","25.010215","6500400","永和區"
"234081","298-R6","2018/02/22 20:09:24","新北市永和區永亨路105巷2號","121.523548333333","25.0049333333333","6500400","永和區"
"234038","336-UY","2018/02/22 20:09:21","新北市永和區成功路一段68號","121.526848333333","25.00362","6500400","永和區"
"234064","337-UY","2018/02/22 20:09:13","新北市永和區永利路94巷2號","121.520686666667","25.00356","6500400","永和區"
"234086","338-UY","2018/02/22 20:09:20","新北市永和區中正路575-1號","121.516726666667","25.0086283333333","6500400","永和區"
"234070","552-UM","2018/02/22 20:09:24","新北市永和區福和路183巷1號","121.519938333333","25.0074133333333","6500400","永和區"
"234017","745-BX","2018/02/22 20:09:10","新北市永和區文化路40號","121.514863333333","25.01516","6500400","永和區"
"234030","746-BX","2018/02/22 20:09:21","新北市永和區民權路49巷31號","121.521721666667","24.9975583333333","6500400","永和區"
"234054","KEA-2590","2018/02/22 20:09:14","新北市永和區博愛街29號","121.518361666667","25.0158416666667","6500400","永和區"
"234013","KEA-2591","2018/02/22 20:09:20","新北市永和區永貞路387號","121.507936666667","25.0086866666667","6500400","永和區"
"234061","AAD-866","2018/02/22 20:09:09","新北市永和區安樂路100巷28號","121.515495","24.9988033333333","6500400","永和區"
"234042","862-TW","2018/02/22 20:09:04","新北市永和區雙和街16巷20號","121.509918333333","25.00273","6500400","永和區"
"234050","863-TW","2018/02/22 20:09:18","新北市永和區新生路196號","121.505725","25.01346","6500400","永和區"
"234011","9373-KE","2018/02/22 20:09:07","新北市永和區仁愛路352巷122弄33號","121.500741666667","25.0091833333333","6500400","永和區"
"249005","172-UM","2018/02/22 20:09:07","新北市八里區下罟子50-1號","121.383808333333","25.13818","6502300","八里區"
"249001","173-UM","2018/02/22 20:09:06","新北市八里區中華路二段326號","121.403218333333","25.1479733333333","6502300","八里區"
"249004","303-UY","2018/02/22 20:09:06","新北市八里區仁一街2-1號","121.410686666667","25.1575183333333","6502300","八里區"
"249002","305-UY","2018/02/22 20:09:23","新北市五股區成泰路四段43號","121.45569","25.1101966666667","6502300","八里區"
"249003","593-UM","2018/02/22 20:09:11","新北市八里區中山路二段540巷9弄17號","121.396643333333","25.14674","6502300","八里區"
"248016","026-BX","2018/02/22 20:09:08","新北市五股區成泰路三段577巷80弄72號","121.449016666667","25.1048116666667","6501500","五股區"
"248008","095-VK","2018/02/22 20:09:18","新北市五股區中興路一段1巷12弄11號","121.469415","25.0710766666667","6501500","五股區"
"248020","225-UY","2018/02/22 20:09:16","新北市五股區凌雲路二段42號","121.439613333333","25.1027866666667","6501500","五股區"
"248012","247-BX","2018/02/22 20:09:16","新北市五股區六合街124號","121.42992","25.0907333333333","6501500","五股區"
"248014","261-SL","2018/02/22 20:09:14","新北市五股區成泰路二段147巷22號","121.438673333333","25.0867083333333","6501500","五股區"
"248004","677-BX","2018/02/22 20:09:24","新北市五股區成泰路一段114號","121.435516666667","25.0732616666667","6501500","五股區"
"248002","678-BX","2018/02/22 20:04:13","新北市五股區成泰路三段483號","121.450608333333","25.099005","6501500","五股區"
"248010","682-TV","2018/02/22 20:09:24","新北市五股區成泰路一段7巷17號","121.432428333333","25.0671066666667","6501500","五股區"
"234023","9380-KE","2018/02/22 20:09:14","新北市永和區中正路662巷42號","121.518188333333","25.00877","6500400","永和區"
"234077","969-R7","2018/02/22 20:09:12","新北市永和區民光街20巷2號","121.515643333333","24.9957283333333","6500400","永和區"
"234074","AAC-211","2018/02/22 20:09:20","新北市永和區豫溪街136巷1號","121.521278333333","25.010345","6500400","永和區"
"234003","AAC-295","2018/02/22 20:09:13","新北市永和區中正路607號","121.516253333333","25.00965","6500400","永和區"
"243011","297-R6","2018/02/22 20:09:24","新北市泰山區明志路三段346號","121.421913333333","25.035275","6501600","泰山區"
"243015","380-SR","2018/02/22 19:59:24","新北市泰山區明志路二段214巷9號","121.426775","25.0488616666667","6501600","泰山區"
"243014","421-VK","2018/02/22 20:09:20","新北市泰山區明志路一段2號","121.433541666667","25.0662883333333","6501600","泰山區"
"243012","539-UM","2018/02/22 20:09:06","新北市泰山區楓江路39-2號","121.435078333333","25.0624633333333","6501600","泰山區"
"243010","KEA-2215","2018/02/22 20:09:04","新北市泰山區明志路二段136巷15號","121.426276666667","25.0517616666667","6501600","泰山區"
"243009","KEA-2216","2018/02/22 20:09:10","新北市泰山區泰林路二段116巷3弄2號","121.43523","25.0596016666667","6501600","泰山區"
"243013","646-TV","2018/02/22 20:09:25","新北市泰山區民國街11號","121.425423333333","25.0435083333333","6501600","泰山區"
"243016","680-BX","2018/02/22 20:09:11","新北市泰山區新北大道六段347號","121.422748333333","25.0332866666667","6501600","泰山區"
"222003","436-BY","2018/02/22 20:09:14","新北市深坑區埔新街60號","121.62016","25.0024616666667","6501800","深坑區"
"222002","659-BX","2018/02/22 20:09:17","新北市深坑區北深路三段31號","121.60862","25.001275","6501800","深坑區"
"231041","002-UM","2018/02/22 20:09:14","新北市新店區中央路2號","121.53397","24.9791366666667","6500600","新店區"
"231059","046-UY","2018/02/22 20:09:09","新北市新店區安德街33-1號","121.511351666667","24.9624516666667","6500600","新店區"
"231061","047-UY","2018/02/22 20:09:13","新北市新店區安興路33-1號","121.515798333333","24.97047","6500600","新店區"
"231060","106-UY","2018/02/22 20:09:12","新北市新店區安康路三段352號","121.486158333333","24.9517766666667","6500600","新店區"
"231051","107-UY","2018/02/22 20:09:04","新北市新店區中央二街5巷3號","121.528941666667","24.9727566666667","6500600","新店區"
"231047","108-UY","2018/02/22 20:09:09","新北市新店區永華街36號","121.54469","24.97543","6500600","新店區"
"231052","187-VK","2018/02/22 20:09:20","新北市新店區新烏路三段寶島巷2弄3號","121.552003333333","24.89866","6500600","新店區"
"231050","KEA-2219","2018/02/22 20:09:21","新北市新店區北新路一段96巷23號","121.542758333333","24.9687183333333","6500600","新店區"
"231057","256-BX","2018/02/22 20:09:12","新北市新店區花園一路一段2號","121.553148333333","24.93244","6500600","新店區"
"231054","AAD-862","2018/02/22 20:09:20","新北市新店區檳榔路24號","121.541356666667","24.964015","6500600","新店區"
"231058","3712-VJ","2018/02/22 20:09:10","新北市新店區安和路三段4巷1-3號","121.518373333333","24.9804183333333","6500600","新店區"
"231056","3713-VJ","2018/02/22 20:09:16","新北市新店區華中街17巷2號","121.539823333333","24.969965","6500600","新店區"
"231055","4716-K9","2018/02/22 20:09:18","新北市新店區中華路42巷5號","121.540086666667","24.9686366666667","6500600","新店區"
"231067","4772-VM","2018/02/22 20:09:15","新北市新店區溪洲路6巷6-2號","121.533876666667","24.9612","6500600","新店區"
"231065","512-UM","2018/02/22 20:09:12","新北市新店區安祥路106巷246號","121.47341","24.95934","6500600","新店區"
"231064","515-UM","2018/02/22 20:09:12","新北市新店區安德街60巷35號","121.51116","24.963495","6500600","新店區"
"231040","619-UM","2018/02/22 20:09:06","新北市新店區中正路110號","121.542826666667","24.9704183333333","6500600","新店區"
"231042","641-BX","2018/02/22 20:09:20","新北市新店區中興路二段233號","121.547563333333","24.97518","6500600","新店區"
"231063","645-TV","2018/02/22 20:09:05","新北市新店區黎明路53巷1號","121.502281666667","24.9488033333333","6500600","新店區"
"231068","718-UY","2018/02/22 20:09:20","新北市新店區寶中路45-3號","121.545175","24.9789116666667","6500600","新店區"
"231049","719-UM","2018/02/22 20:09:12","新北市新店區北新路二段97巷10弄2號","121.542203333333","24.974555","6500600","新店區"
"231062","720-UM","2018/02/22 20:09:15","新北市新店區安康路二段356號","121.502235","24.9574866666667","6500600","新店區"
"231044","897-TW","2018/02/22 20:09:13","新北市新店區寶慶街58巷8號","121.54205","24.987105","6500600","新店區"
"231045","898-TW","2018/02/22 20:09:21","新北市新店區北宜路一段154號","121.540296666667","24.9537366666667","6500600","新店區"
"231043","899-TW","2018/02/22 20:09:26","新北市新店區民族路205號","121.537026666667","24.9761","6500600","新店區"
"231066","AKT-0513","2018/02/22 20:09:08","新北市新店區安民街327號","121.51735","24.9746983333333","6500600","新店區"
"241011","013-R5","2018/02/22 20:09:06","新北市三重區三和路三段35巷17號","121.496428333333","25.0712866666667","6500200","三重區"
"241028","022-UY","2018/02/22 20:09:26","新北市三重區仁化街137號","121.494675","25.057415","6500200","三重區"
"241009","060-VK","2018/02/22 20:09:10","新北市三重區力行路二段182-3號","121.483291666667","25.0777","6500200","三重區"
"241015","062-VK","2018/02/22 20:09:18","新北市三重區福德北路43號","121.502351666667","25.0649583333333","6500200","三重區"
"241017","063-VK","2018/02/22 20:09:20","新北市三重區大同北路221巷66號","121.49294","25.0666683333333","6500200","三重區"
"241026","066-VK","2018/02/22 20:09:15","新北市三重區福和街1號","121.503105","25.0618383333333","6500200","三重區"
"241002","090-VK","2018/02/22 20:09:19","新北市三重區仁忠街33號","121.495776666667","25.0819433333333","6500200","三重區"
"241003","156-TC","2018/02/22 20:09:20","新北市三重區仁愛街423-3號","121.490188333333","25.0815883333333","6500200","三重區"
"241005","262-UM","2018/02/22 20:09:09","新北市三重區碧華街294巷14號","121.489","25.0842866666667","6500200","三重區"
"241016","265-UM","2018/02/22 20:09:07","新北市三重區中正北路25巷24號","121.493743333333","25.06324","6500200","三重區"
"241022","267-UM","2018/02/22 20:09:24","新北市三重區新北大道一段11號","121.488358333333","25.06065","6500200","三重區"
"241032","269-UM","2018/02/22 20:09:22","新北市三重區捷運路61號","121.483493333333","25.0556266666667","6500200","三重區"
"241025","271-UM","2018/02/22 20:09:21","新北市三重區中正北路430號","121.474653333333","25.0710766666667","6500200","三重區"
"241007","398-BY","2018/02/22 20:09:19","新北市三重區仁美街48號","121.487198333333","25.07785","6500200","三重區"
"241020","413-TH","2018/02/22 20:09:22","新北市三重區三和路三段170巷63號","121.490401666667","25.0726666666667","6500200","三重區"
"241035","462-BY","2018/02/22 20:09:19","新北市三重區文化北路18號","121.499273333333","25.0639633333333","6500200","三重區"
"241004","475-VK","2018/02/22 20:09:18","新北市三重區自強路四段112號","121.491601666667","25.0801716666667","6500200","三重區"
"241024","478-VK","2018/02/22 20:09:13","新北市三重區中正北路282號","121.480543333333","25.0686166666667","6500200","三重區"
"241030","480-VK","2018/02/22 20:09:21","新北市三重區成功路145巷14號","121.48726","25.0528016666667","6500200","三重區"
"241014","543-UM","2018/02/22 20:09:05","新北市三重區長樂街38號","121.500111666667","25.0692266666667","6500200","三重區"
"241023","545-UM","2018/02/22 20:09:05","新北市三重區頂崁街218號","121.476995","25.0680383333333","6500200","三重區"
"241001","547-UM","2018/02/22 20:09:13","新北市三重區三和路四段89巷34號","121.49049","25.076155","6500200","三重區"
"241019","KEA-2593","2018/02/22 20:09:22","新北市三重區自強路二段33巷6號","121.489825","25.06964","6500200","三重區"
"241006","AAD-863","2018/02/22 20:09:12","新北市三重區力行路二段71-2號","121.482353333333","25.0753","6500200","三重區"
"241018","887-TS","2018/02/22 20:09:17","新北市三重區正義北路256巷133號","121.49311","25.06777","6500200","三重區"
"241012","941-UM","2018/02/22 20:09:07","新北市三重區仁興街56巷27號","121.498293333333","25.075745","6500200","三重區"
"241029","942-UM","2018/02/22 20:09:11","新北市三重區光明路32巷26號","121.491891666667","25.05874","6500200","三重區"
"241033","AAC-255","2018/02/22 20:09:22","新北市三重區光復路一段68巷27號","121.470135","25.04942","6500200","三重區"
"235066","003-UY","2018/02/22 20:09:05","新北市中和區水源路127巷2弄2號","121.50806","25.0040466666667","6500300","中和區"
"235039","097-UM","2018/02/22 20:09:23","新北市中和區景平路276-1號","121.514046666667","24.9924683333333","6500300","中和區"
"235065","098-UM","2018/02/22 20:09:11","新北市中和區福美路240號","121.498803333333","25.0052166666667","6500300","中和區"
"235040","150-BY","2018/02/22 20:09:07","新北市中和區保健路41號","121.509045","24.9976116666667","6500300","中和區"
"235058","151-BY","2018/02/22 20:09:22","新北市中和區員山路150巷2弄53號","121.481973333333","24.9973883333333","6500300","中和區"
"235068","377-QA","2018/02/22 20:09:11","新北市中和區中山路二段250巷24號","121.4973","25.003235","6500300","中和區"
"235050","4979-A6","2018/02/22 20:09:14","新北市中和區安樂路37號","121.511866666667","24.99305","6500300","中和區"
"235069","4980-A6","2018/02/22 20:09:21","新北市中和區景新街64巷11弄9號","121.504508333333","24.9982383333333","6500300","中和區"
"235070","558-UM","2018/02/22 20:09:20","新北市中和區中正路414號","121.491968333333","24.9941983333333","6500300","中和區"
"235046","733-UM","2018/02/22 20:09:17","新北市中和區忠孝街108-1號","121.512215","24.984675","6500300","中和區"
"235052","805-TS","2018/02/22 20:09:13","新北市中和區華新街30巷19號","121.506948333333","24.9841783333333","6500300","中和區"
"235051","157-BY","2018/02/22 20:09:21","新北市中和區景安路220巷6-1號","121.503181666667","24.9910816666667","6500300","中和區"
"235037","AAC-213","2018/02/22 20:09:18","新北市中和區自強路52號","121.520176666667","24.9948383333333","6500300","中和區"
"235059","AAC-215","2018/02/22 20:09:07","新北市中和區圓通路335巷13號","121.493311666667","24.9895216666667","6500300","中和區"
"220068","013-TV","2018/02/22 20:09:25","新北市板橋區中山路二段294號","121.479678333333","25.0188733333333","6500100","板橋區"
"220065","072-UY","2018/02/22 20:09:15","新北市板橋區中山路一段154巷21號","121.465318333333","25.0105383333333","6500100","板橋區"
"220106","075-UY","2018/02/22 20:09:26","新北市板橋區民治街52巷18號","121.478951666667","25.0329366666667","6500100","板橋區"
"220069","AAD-861","2018/02/22 20:09:08","新北市板橋區大明街25巷2弄23號","121.457488333333","25.0025183333333","6500100","板橋區"
"247022","893-R6","2018/02/22 20:09:09","新北市蘆洲區三民路209號","121.47022","25.0879283333333","6501400","蘆洲區"
"247012","546-UM","2018/02/22 20:09:09","新北市蘆洲區民族路191-1號","121.478638333333","25.0890116666667","6501400","蘆洲區"
"247020","500-BY","2018/02/22 20:09:18","新北市蘆洲區民義街68巷24號","121.474001666667","25.0891966666667","6501400","蘆洲區"
"247010","339-TH","2018/02/22 20:09:09","新北市蘆洲區集賢路406號","121.47999","25.0817433333333","6501400","蘆洲區"
"247002","337-TH","2018/02/22 20:09:10","新北市蘆洲區永康街2巷8號","121.459458333333","25.0861916666667","6501400","蘆洲區"
"247004","336-TH","2018/02/22 20:09:22","新北市蘆洲區長安街267巷7弄2號","121.457945","25.083525","6501400","蘆洲區"
"247016","057-VK","2018/02/22 20:09:12","新北市蘆洲區光華路174號","121.465141666667","25.0821016666667","6501400","蘆洲區"
"247006","056-VK","2018/02/22 20:09:14","新北市蘆洲區中山二路309號","121.468723333333","25.07735","6501400","蘆洲區"
"247008","053-VK","2018/02/22 20:09:09","新北市蘆洲區中山一路185號","121.474795","25.0810683333333","6501400","蘆洲區"
"247014","007-UY","2018/02/22 20:09:06","新北市蘆洲區中山二路225號","121.470248333333","25.0801316666667","6501400","蘆洲區"
"247024","002-UY","2018/02/22 20:09:07","新北市蘆洲區光明路88巷26號","121.463226666667","25.087","6501400","蘆洲區"
"247018","001-UY","2018/02/22 20:09:13","新北市蘆洲區民族路235號","121.477206666667","25.0900516666667","6501400","蘆洲區"
"222001","KEA-2212","2018/02/22 20:09:09","新北市深坑區北深路三段193號","121.601151666667","25.0037283333333","6501800","深坑區"
"208003","665-BX","2018/02/22 20:09:05","新北市金山區永興里跳石4號","121.633343333333","25.256805","6502700","金山區"
"208001","761-BX","2018/02/22 20:09:16","新北市金山區南勢湖67號","121.616653333333","25.2155","6502700","金山區"
"251009","008-UM","2018/02/22 20:09:15","新北市淡水區清水街2號","121.445611666667","25.17039","6501000","淡水區"
"251004","009-UM","2018/02/22 20:08:22","新北市淡水區民族路33巷16-23號","121.462573333333","25.13601","6501000","淡水區"
"251013","179-VK","2018/02/22 20:09:06","新北市淡水區奎柔山路752巷1號","121.472886666667","25.2052233333333","6501000","淡水區"
"251014","180-VK","2018/02/22 20:09:18","新北市淡水區石頭厝3號","121.458698333333","25.2355566666667","6501000","淡水區"
"251008","181-VK","2018/02/22 20:09:23","新北市淡水區淡海路72巷30弄1號","121.424438333333","25.1825616666667","6501000","淡水區"
"251015","182-VK","2018/02/22 20:09:13","新北市淡水區埤島3-20號","121.447048333333","25.1912233333333","6501000","淡水區"
"251010","413-VK","2018/02/22 20:09:24","新北市淡水區新市二路二段2號","121.425058333333","25.1964333333333","6501000","淡水區"
"251012","441-VK","2018/02/22 20:09:16","新北市淡水區下圭柔山56-20號","121.447628333333","25.20447","6501000","淡水區"
"251016","442-VK","2018/02/22 20:09:08","新北市淡水區番子田25-7號","121.456055","25.230835","6501000","淡水區"
"251005","443-VK","2018/02/22 20:09:09","新北市淡水區學府路110號","121.450041666667","25.1721833333333","6501000","淡水區"
"251006","561-UM","2018/02/22 20:09:12","新北市淡水區北新路141巷60弄11號","121.448166666667","25.1796833333333","6501000","淡水區"
"251002","672-BX","2018/02/22 20:09:09","新北市淡水區中正路312號","121.437155","25.1724333333333","6501000","淡水區"
"251003","766-UM","2018/02/22 20:09:25","新北市淡水區新市一路二段256號","121.443731666667","25.1829433333333","6501000","淡水區"
"207003","550-UM","2018/02/22 20:09:10","新北市萬里區大鵬里萬里加投186號","121.642828333333","25.215645","6502800","萬里區"
"207004","225-TW","2018/02/22 20:09:20","新北市萬里區北基里大勇路14號","121.681913333333","25.17666","6502800","萬里區"
"252002","178-VK","2018/02/22 20:09:24","新北市三芝區中正路一段70號","121.504048333333","25.25788","6502100","三芝區"
"252001","292-VK","2018/02/22 20:09:08","新北市三芝區公正街9號","121.499781666667","25.2574966666667","6502100","三芝區"
"237012","275-BY","2018/02/22 20:09:09","新北市三峽區中華路96號","121.37108","24.92813","6500900","三峽區"
"237008","302-VK","2018/02/22 20:09:16","新北市三峽區大同路151號","121.371073333333","24.92704","6500900","三峽區"
"237014","433-BY","2018/02/22 20:09:16","新北市三峽區正義街9號","121.369996666667","24.920035","6500900","三峽區"
"237006","5529-G3","2018/02/22 20:09:16","新北市三峽區中正路二段299巷27號","121.366865","24.9111366666667","6500900","三峽區"
"237005","AKY-6261","2018/02/22 20:09:15","新北市三峽區三樹路98巷111號","121.38227","24.93891","6500900","三峽區"
"236071","105-UM","2018/02/22 20:09:26","新北市土城區大安路24號","121.432781666667","24.966325","6501300","土城區"
"236042","107-UM","2018/02/22 20:09:22","新北市土城區學成路22巷2弄2號","121.453188333333","24.9871016666667","6501300","土城區"
"236078","166-UM","2018/02/22 20:09:17","新北市土城區福安街108號","121.417205","24.96392","6501300","土城區"
"236030","253-BX","2018/02/22 20:09:13","新北市土城區中央路一段120號","121.446431666667","24.98805","6501300","土城區"
"236026","269-VK","2018/02/22 20:09:19","新北市土城區裕生路102巷28號","121.44602","24.9849166666667","6501300","土城區"
"236014","270-VK","2018/02/22 20:09:18","新北市土城區德興街135號","121.455081666667","24.99172","6501300","土城區"
"236037","271-VK","2018/02/22 20:09:14","新北市土城區延吉街296巷10號","121.464453333333","24.9845833333333","6501300","土城區"
"236021","401-BY","2018/02/22 20:09:12","新北市土城區延吉街111巷15號","121.471806666667","24.98614","6501300","土城區"
"236058","912-UM","2018/02/22 20:09:08","新北市土城區中央路二段99號","121.44214","24.9776866666667","6501300","土城區"
"236051","913-UM","2018/02/22 20:09:15","新北市土城區金城路三段180號","121.467948333333","24.987835","6501300","土城區"
"236062","915-UM","2018/02/22 20:09:24","新北市土城區延和路18巷8號","121.46444","24.9880316666667","6501300","土城區"
"236053","AAC-216","2018/02/22 20:09:23","新北市土城區學府路一段166號","121.454001666667","24.9865266666667","6501300","土城區"
"242029","986-R7","2018/02/22 20:09:17","新北市新莊區中原路351號","121.444983333333","25.054325","6500500","新莊區"
"242051","751-BX","2018/02/22 20:09:06","新北市新莊區民安西路172巷6弄8號","121.425233333333","25.0163183333333","6500500","新莊區"
"242023","705-TV","2018/02/22 20:09:09","新北市新莊區頭前路82號","121.466271666667","25.0527","6500500","新莊區"
"242025","615-BX","2018/02/22 20:09:19","新北市新莊區五工三路78巷6號","121.45918","25.0652366666667","6500500","新莊區"
"242027","612-BX","2018/02/22 20:09:22","新北市新莊區幸福路829號","121.444938333333","25.0489633333333","6500500","新莊區"
"242039","566-BX","2018/02/22 20:09:24","新北市新莊區民安西路110號","121.426886666667","25.01888","6500500","新莊區"
"242044","497-BY","2018/02/22 20:09:09","桃園市龜山區萬壽路一段19號","121.410123333333","25.02075","6500500","新莊區"
"242009","441-UM","2018/02/22 20:09:15","新北市新莊區昌盛街35巷1弄1號","121.454021666667","25.0502","6500500","新莊區"
"242053","440-UM","2018/02/22 20:09:13","新北市新莊區西盛街395巷11號","121.42816","25.0125183333333","6500500","新莊區"
"242034","415-TV","2018/02/22 20:09:25","新北市新莊區中正路318巷18號","121.446468333333","25.0360116666667","6500500","新莊區"
"242004","413-TV","2018/02/22 20:09:11","新北市新莊區化成路430號","121.466061666667","25.0512033333333","6500500","新莊區"
"242042","400-BY","2018/02/22 20:09:14","新北市新莊區中山路三段157號","121.412435","25.0289916666667","6500500","新莊區"
"242061","362-BY","2018/02/22 20:09:11","新北市新莊區瓊林路瓊英巷1弄1號","121.443848333333","25.027275","6500500","新莊區"
"242058","353-BY","2018/02/22 20:09:25","新北市新莊區八德街165號","121.423398333333","25.0191733333333","6500500","新莊區"
"242007","132-UY","2018/02/22 20:09:06","新北市新莊區福壽街184巷24號","121.459288333333","25.053095","6500500","新莊區"
"242036","133-UY","2018/02/22 20:09:21","新北市新莊區建安街35巷20號","121.42992","25.025905","6500500","新莊區"
"242021","135-UY","2018/02/22 20:09:26","新北市新莊區建中街28號","121.449031666667","25.0374633333333","6500500","新莊區"
"242046","172-VK","2018/02/22 20:09:16","新北市新莊區裕民街55巷13號","121.419203333333","25.0236683333333","6500500","新莊區"
"242015","175-VK","2018/02/22 20:09:25","新北市新莊區中平路26巷42號","121.446703333333","25.0432883333333","6500500","新莊區"
"242002","176-VK","2018/02/22 20:09:06","新北市新莊區中正路102號","121.454531666667","25.03665","6500500","新莊區"
"242013","346-TH","2018/02/22 20:09:23","新北市新莊區幸福路710巷6弄2號","121.450133333333","25.0496316666667","6500500","新莊區"
"242019","348-TH","2018/02/22 20:09:23","新北市新莊區博愛路2巷8號","121.456693333333","25.0428483333333","6500500","新莊區"
"242056","349-TH","2018/02/22 20:09:14","新北市新莊區新莊路649巷15弄1號","121.445005","25.0314933333333","6500500","新莊區"
"242017","350-TH","2018/02/22 20:08:54","新北市新莊區中安街5巷1號","121.452655","25.0455166666667","6500500","新莊區"
"242011","351-TH","2018/02/22 20:09:19","新北市新莊區中信街67巷8號","121.448571666667","25.050745","6500500","新莊區"
"238021","KEA-2217","2018/02/22 20:09:11","新北市樹林區田尾街156號","121.403443333333","24.9519283333333","6500700","樹林區"
"238017","283-BY","2018/02/22 20:09:19","新北市樹林區保安街二段45巷21弄7號","121.414973333333","24.999725","6500700","樹林區"
"238014","282-BY","2018/02/22 20:09:12","新北市樹林區中山路二段133號","121.406538333333","24.9791233333333","6500700","樹林區"
"239006","891-R6","2018/02/22 20:09:23","新北市鶯歌區鶯桃路35-1號","121.343091666667","24.950585","6500800","鶯歌區"
"221008","489-VK","2018/02/22 20:09:20","新北市汐止區忠三街9巷8號","121.625073333333","25.0791633333333","6501100","汐止區"
"221036","130-UY","2018/02/22 20:09:20","新北市汐止區新台五路二段39號","121.663123333333","25.0663866666667","6501100","汐止區"
"221015","131-UY","2018/02/22 20:09:15","新北市汐止區建成路26號","121.664426666667","25.0726466666667","6501100","汐止區"
"221010","269-BY","2018/02/22 20:09:06","新北市汐止區八連路一段198巷2號","121.642786666667","25.082515","6501100","汐止區"
"221012","278-VK","2018/02/22 20:09:18","新北市汐止區汐平路二段26號","121.69416","25.06588","6501100","汐止區"
"221023","279-VK","2018/02/22 20:09:19","新北市汐止區明峰街298巷5弄1號","121.62504","25.068495","6501100","汐止區"
"221032","280-BY","2018/02/22 20:09:07","新北市汐止區弘道街9巷2弄2號","121.616971666667","25.0488566666667","6501100","汐止區"
"221027","281-BY","2018/02/22 20:09:17","新北市汐止區中正路133號","121.65997","25.0692566666667","6501100","汐止區"
"221038","297-VK","2018/02/22 20:09:10","新北市汐止區大同路三段89號","121.66791","25.0772683333333","6501100","汐止區"
"221029","298-VK","2018/02/22 20:09:16","新北市汐止區樟樹一路119巷12號","121.641228333333","25.0643483333333","6501100","汐止區"
"221021","299-VK","2018/02/22 20:09:20","新北市汐止區莊敬街128-4號","121.654648333333","25.06135","6501100","汐止區"
"221031","353-TW","2018/02/22 20:09:23","新北市汐止區中興路135號","121.631638333333","25.06551","6501100","汐止區"
"221035","622-UM","2018/02/22 20:09:23","新北市汐止區長江街57巷20弄7號","121.656501666667","25.072375","6501100","汐止區"
"221025","623-UM","2018/02/22 20:09:17","新北市汐止區秀峰路78號","121.659918333333","25.0642433333333","6501100","汐止區"
"221033","647-BX","2018/02/22 20:09:15","新北市汐止區東勢街201巷104號","121.633538333333","25.0429383333333","6501100","汐止區"
"221002","707-TV","2018/02/22 20:09:21","新北市汐止區大同路一段219巷25-1號","121.6331","25.0591933333333","6501100","汐止區"
"221018","753-BX","2018/02/22 20:09:21","新北市汐止區茄福街35巷33號","121.673375","25.066365","6501100","汐止區"
"220080","200-UY","2018/02/22 20:09:13","新北市板橋區大觀路二段205號","121.445016666667","24.9996533333333","6500100","板橋區"
"220082","610-BX","2018/02/22 20:08:50","新北市板橋區大觀路三段100號","121.432648333333","24.9945233333333","6500100","板橋區"
"220101","245-BX","2018/02/22 20:09:10","新北市板橋區縣民大道三段133巷35號","121.47701","25.0246133333333","6500100","板橋區"
"220096","257-TC","2018/02/22 20:09:16","新北市板橋區文化路一段370號","121.469841666667","25.0234916666667","6500100","板橋區"
"220072","277-BY","2018/02/22 20:09:13","新北市板橋區金門街94號","121.432808333333","24.992565","6500100","板橋區"
"220071","283-VK","2018/02/22 20:09:17","新北市板橋區廣權路103號","121.464598333333","24.992795","6500100","板橋區"
"220053","285-VK","2018/02/22 20:09:16","新北市板橋區懷仁街31號","121.476433333333","25.0196133333333","6500100","板橋區"
"220083","286-VK","2018/02/22 20:09:13","新北市板橋區僑中二街18號","121.446216666667","25.010615","6500100","板橋區"
"220081","287-VK","2018/02/22 20:09:12","新北市板橋區僑中一街124巷18弄19號","121.446891666667","25.013655","6500100","板橋區"
"220061","293-UM","2018/02/22 20:09:17","新北市板橋區觀光街79巷2號","121.469373333333","25.01691","6500100","板橋區"
"220084","296-UM","2018/02/22 20:09:15","新北市樹林區博愛街181號","121.424826666667","24.98902","6500100","板橋區"
"242048","281-VK","2018/02/22 20:09:11","新北市新莊區四維路152巷17號","121.42221","25.0227833333333","6500500","新莊區"
"220075","303-R5","2018/02/22 20:09:17","新北市板橋區金華街10巷48弄74號","121.459941666667","25.0203233333333","6500100","板橋區"
"220092","307-R5","2018/02/22 20:09:07","新北市板橋區幸福路60巷51號","121.460288333333","25.02136","6500100","板橋區"
"220098","317-R6","2018/02/22 20:09:21","新北市板橋區新海路72巷9號","121.462298333333","25.022035","6500100","板橋區"
"220064","486-VK","2018/02/22 20:09:07","新北市板橋區長安街331巷93弄6號","121.47214","25.01212","6500100","板橋區"
"242031","280-VK","2018/02/22 20:09:13","新北市新莊區忠孝街29巷30號","121.443646666667","25.03682","6500500","新莊區"
"220088","491-VK","2018/02/22 20:09:18","新北市板橋區民治街59號","121.479615","25.03319","6500100","板橋區"
"220035","560-BX","2018/02/22 20:09:15","新北市板橋區新生街15號","121.455676666667","25.0211716666667","6500100","板橋區"
"220103","561-BX","2018/02/22 20:09:12","新北市板橋區自由路24號","121.465761666667","25.0227366666667","6500100","板橋區"
"220093","689-BX","2018/02/22 20:09:25","新北市板橋區長江路二段192號","121.467303333333","25.0321466666667","6500100","板橋區"
"220102","KEA-2699","2018/02/22 20:09:21","新北市板橋區懷德街66巷13號","121.477181666667","25.0320683333333","6500100","板橋區"
"220055","827-TW","2018/02/22 20:09:18","新北市板橋區仁愛路78號","121.460566666667","24.9994683333333","6500100","板橋區"
"220067","829-TW","2018/02/22 20:09:14","新北市板橋區中山路一段291-2號","121.470723333333","25.014265","6500100","板橋區"
"220090","830-TW","2018/02/22 20:09:24","新北市板橋區幸福路32巷2弄46-1號","121.460741666667","25.0222616666667","6500100","板橋區"
"220089","833-TW","2018/02/22 20:09:04","新北市板橋區互助街68號","121.461033333333","25.0265916666667","6500100","板橋區"
"220074","895-R6","2018/02/22 20:09:22","新北市板橋區明德街12號","121.459943333333","25.0105066666667","6500100","板橋區"
"220073","985-R7","2018/02/22 20:09:21","新北市板橋區南雅西路二段2-1號","121.453168333333","25.008865","6500100","板橋區"
"220097","AAC-210","2018/02/22 20:09:06","新北市板橋區光正街16巷27號","121.463383333333","25.0179433333333","6500100","板橋區"
"220070","AAC-253","2018/02/22 20:09:17","新北市板橋區德興街31號","121.453516666667","24.99394","6500100","板橋區"
