"lineid","car","time","location","longitude","latitude","cityid","cityname"
"234067","149-BY","2018/02/22 20:19:40","新北市永和區保平路266號","121.508701666667","25.00507","6500400","永和區"
"234007","207-UY","2018/02/22 20:19:30","新北市永和區仁愛路306巷71號","121.501958333333","25.009125","6500400","永和區"
"234081","298-R6","2018/02/22 20:19:42","新北市永和區國中路144號","121.523138333333","25.007005","6500400","永和區"
"234038","336-UY","2018/02/22 20:19:37","新北市永和區成功路一段93巷20弄2號","121.528265","25.0026216666667","6500400","永和區"
"234064","337-UY","2018/02/22 20:19:30","新北市永和區得和路168號","121.519495","25.0000583333333","6500400","永和區"
"234086","338-UY","2018/02/22 20:19:42","新北市永和區永和路二段207號","121.515445","25.0135583333333","6500400","永和區"
"234070","552-UM","2018/02/22 20:19:43","新北市永和區福和路263巷13號","121.517975","25.00656","6500400","永和區"
"234017","745-BX","2018/02/22 20:19:30","新北市永和區仁愛路47號","121.513835","25.0133083333333","6500400","永和區"
"234030","746-BX","2018/02/22 20:19:47","新北市永和區民有街75巷10弄33號","121.519261666667","24.996045","6500400","永和區"
"234054","KEA-2590","2018/02/22 20:19:34","新北市永和區光復街2巷14號","121.51705","25.0164716666667","6500400","永和區"
"234061","AAD-866","2018/02/22 20:19:49","新北市永和區安樂路146-1號","121.514245","25.000455","6500400","永和區"
"234042","862-TW","2018/02/22 20:19:43","新北市永和區雙和街3號","121.509765","25.0016633333333","6500400","永和區"
"234050","863-TW","2018/02/22 20:19:38","新北市永和區文化路222號","121.509921666667","25.016875","6500400","永和區"
"249005","172-UM","2018/02/22 20:19:48","新北市八里區下罟子2-17號","121.388373333333","25.1411216666667","6502300","八里區"
"249001","173-UM","2018/02/22 20:19:46","新北市八里區中華路二段538-1號","121.399031666667","25.1450116666667","6502300","八里區"
"249004","303-UY","2018/02/22 20:19:46","新北市八里區中山路一段418-3號","121.411158333333","25.15792","6502300","八里區"
"249002","305-UY","2018/02/22 20:19:43","新北市八里區龍米路一段100巷3號","121.45363","25.1250383333333","6502300","八里區"
"249003","593-UM","2018/02/22 20:19:42","新北市八里區中山路二段447巷23號","121.397463333333","25.1452766666667","6502300","八里區"
"248016","026-BX","2018/02/22 20:19:48","新北市五股區凌雲路一段158巷39弄12號","121.446478333333","25.1040683333333","6501500","五股區"
"248012","247-BX","2018/02/22 20:19:36","新北市五股區民義路一段212號","121.43058","25.0893666666667","6501500","五股區"
"248014","261-SL","2018/02/22 20:18:14","新北市五股區中直路17-4號","121.42257","25.1114283333333","6501500","五股區"
"248004","677-BX","2018/02/22 20:19:44","新北市五股區中興路四段40-3號","121.438801666667","25.0828133333333","6501500","五股區"
"248002","678-BX","2018/02/22 20:04:13","新北市五股區成泰路三段483號","121.450608333333","25.099005","6501500","五股區"
"248010","682-TV","2018/02/22 20:19:44","新北市泰山區新五路一段133號","121.43982","25.06317","6501500","五股區"
"234023","9380-KE","2018/02/22 20:19:45","新北市永和區復興街33號","121.516373333333","25.01316","6500400","永和區"
"234077","969-R7","2018/02/22 20:19:32","新北市永和區中正路17號","121.514198333333","24.9957666666667","6500400","永和區"
"234074","AAC-211","2018/02/22 20:19:40","新北市永和區竹林路201巷22弄4號","121.522301666667","25.0092983333333","6500400","永和區"
"234003","AAC-295","2018/02/22 20:19:49","新北市永和區自強街19巷2號","121.514958333333","25.008045","6500400","永和區"
"243011","297-R6","2018/02/22 20:19:43","新北市新莊區壽山路160巷4號","121.41712","25.0314266666667","6501600","泰山區"
"243015","380-SR","2018/02/22 20:19:44","新北市泰山區泰林路二段115號","121.434325","25.059405","6501600","泰山區"
"243014","421-VK","2018/02/22 20:19:40","新北市泰山區泰林路二段370號","121.428445","25.06382","6501600","泰山區"
"243012","539-UM","2018/02/22 20:19:46","新北市泰山區文化街42號","121.435258333333","25.063525","6501600","泰山區"
"243010","KEA-2215","2018/02/22 20:19:44","新北市泰山區明志路二段254巷10號","121.426271666667","25.0478166666667","6501600","泰山區"
"243009","KEA-2216","2018/02/22 20:19:50","新北市泰山區福泰街20號","121.432898333333","25.06007","6501600","泰山區"
"243013","646-TV","2018/02/22 20:19:45","新北市泰山區中央路5巷15號","121.427221666667","25.0435983333333","6501600","泰山區"
"243016","680-BX","2018/02/22 20:19:31","新北市泰山區明志路三段16號","121.424675","25.0431816666667","6501600","泰山區"
"222003","436-BY","2018/02/22 20:19:34","新北市深坑區文化街78號","121.618028333333","25.0019116666667","6501800","深坑區"
"222002","659-BX","2018/02/22 20:19:37","新北市深坑區萬福路57號","121.600565","25.0075316666667","6501800","深坑區"
"231041","002-UM","2018/02/22 20:19:51","新北市新店區民權路44號","121.540183333333","24.982945","6500600","新店區"
"231059","046-UY","2018/02/22 20:19:48","新北市新店區安德街134號","121.508566666667","24.9602166666667","6500600","新店區"
"231061","047-UY","2018/02/22 20:19:33","新北市新店區安民街133巷26號","121.515325","24.969585","6500600","新店區"
"231060","106-UY","2018/02/22 20:19:33","新北市新店區錦秀路11巷94弄2號","121.480215","24.9425283333333","6500600","新店區"
"231051","107-UY","2018/02/22 20:19:44","新北市新店區中央六街55號","121.528021666667","24.9759166666667","6500600","新店區"
"231047","108-UY","2018/02/22 20:19:29","新北市新店區中興路三段220巷1號","121.543498333333","24.982725","6500600","新店區"
"231052","187-VK","2018/02/22 20:19:40","新北市新店區新烏路二段321號","121.549946666667","24.9108616666667","6500600","新店區"
"231050","KEA-2219","2018/02/22 20:19:40","新北市新店區博愛街9巷1號","121.540728333333","24.9728533333333","6500600","新店區"
"231057","256-BX","2018/02/22 20:19:34","新北市新店區花園七路一段14號","121.55406","24.93496","6500600","新店區"
"231054","AAD-862","2018/02/22 20:19:36","新北市新店區檳榔路150號","121.544098333333","24.9613716666667","6500600","新店區"
"231058","3712-VJ","2018/02/22 20:19:49","新北市新店區中正路347號","121.535465","24.97579","6500600","新店區"
"231056","3713-VJ","2018/02/22 20:19:36","新北市新店區華中街21巷1號","121.540168333333","24.9703583333333","6500600","新店區"
"231055","4716-K9","2018/02/22 20:19:45","新北市新店區北新路一段297巷21號","121.540606666667","24.9679083333333","6500600","新店區"
"231067","4772-VM","2018/02/22 20:19:35","新北市新店區溪洲路101-1號","121.532375","24.9620883333333","6500600","新店區"
"231065","512-UM","2018/02/22 20:19:32","新北市新店區安祥路104巷6弄24號","121.482308333333","24.9624316666667","6500600","新店區"
"231064","515-UM","2018/02/22 20:19:32","新北市新店區安和路二段187號","121.518196666667","24.9748983333333","6500600","新店區"
"231040","619-UM","2018/02/22 20:19:46","新北市新店區三民路21巷1號","121.539215","24.9715733333333","6500600","新店區"
"231042","641-BX","2018/02/22 20:19:40","新北市新店區寶橋路194號","121.550613333333","24.9784033333333","6500600","新店區"
"231063","645-TV","2018/02/22 20:19:44","新北市新店區薏仁坑路自強巷6號","121.496758333333","24.9584833333333","6500600","新店區"
"231068","718-UY","2018/02/22 20:19:40","新北市新店區寶安街30-1號","121.54216","24.9824083333333","6500600","新店區"
"231049","719-UM","2018/02/22 20:19:32","新北市新店區北新路一段89號","121.538506666667","24.9616866666667","6500600","新店區"
"231062","720-UM","2018/02/22 20:19:35","新北市新店區安泰路7巷16號","121.485676666667","24.951035","6500600","新店區"
"231044","897-TW","2018/02/22 20:19:33","新北市新店區北新路三段126號","121.541676666667","24.981755","6500600","新店區"
"231045","898-TW","2018/02/22 20:19:41","新北市新店區新坡一街72號","121.548926666667","24.9645483333333","6500600","新店區"
"231043","899-TW","2018/02/22 20:19:46","新北市新店區建國路133號","121.539355","24.9782216666667","6500600","新店區"
"231066","AKT-0513","2018/02/22 20:19:48","新北市新店區安興路105-1號","121.514633333333","24.9777616666667","6500600","新店區"
"241011","013-R5","2018/02/22 20:19:45","新北市三重區龍濱路285號","121.50112","25.0734033333333","6500200","三重區"
"241028","022-UY","2018/02/22 20:19:46","新北市三重區大同南路103-2號","121.496233333333","25.05853","6500200","三重區"
"241009","060-VK","2018/02/22 20:19:30","新北市三重區三和路四段382巷71號","121.480785","25.07842","6500200","三重區"
"241015","062-VK","2018/02/22 20:19:38","新北市三重區重新路一段112號","121.500666666667","25.063135","6500200","三重區"
"241017","063-VK","2018/02/22 20:19:40","新北市三重區自強路一段236號","121.493295","25.0669816666667","6500200","三重區"
"241026","066-VK","2018/02/22 20:19:35","新北市三重區中央南路63-1號","121.501376666667","25.0612183333333","6500200","三重區"
"241002","090-VK","2018/02/22 20:19:39","新北市三重區仁義街101巷40號","121.499131666667","25.0807533333333","6500200","三重區"
"241003","156-TC","2018/02/22 20:19:39","新北市三重區富華街72號","121.490581666667","25.0832433333333","6500200","三重區"
"241005","262-UM","2018/02/22 20:19:28","新北市三重區仁愛街502號","121.488046666667","25.0821183333333","6500200","三重區"
"241016","265-UM","2018/02/22 20:19:47","新北市三重區大同北路97-3號","121.494321666667","25.063675","6500200","三重區"
"241022","267-UM","2018/02/22 20:19:44","新北市三重區市前街6號","121.489105","25.062125","6500200","三重區"
"241032","269-UM","2018/02/22 20:19:42","新北市三重區捷運路37巷18號","121.484148333333","25.05677","6500200","三重區"
"241013","270-UM","2018/02/22 20:19:44","新北市三重區三和路三段139巷1號","121.492715","25.0736033333333","6500200","三重區"
"241025","271-UM","2018/02/22 20:19:41","新北市三重區三民街247號","121.479691666667","25.0676783333333","6500200","三重區"
"241007","398-BY","2018/02/22 20:19:39","新北市三重區三和路四段117巷26號","121.486358333333","25.0779083333333","6500200","三重區"
"241020","413-TH","2018/02/22 20:19:42","新北市三重區三和路三段158號","121.49298","25.073","6500200","三重區"
"241035","462-BY","2018/02/22 20:19:39","新北市三重區正義北路33巷48號","121.499001666667","25.0639833333333","6500200","三重區"
"241004","475-VK","2018/02/22 20:19:38","新北市三重區溪尾街165巷45號","121.490548333333","25.0803783333333","6500200","三重區"
"241024","478-VK","2018/02/22 20:19:50","新北市三重區忠孝路三段12號","121.481715","25.06736","6500200","三重區"
"241030","480-VK","2018/02/22 20:19:41","新北市三重區集美街87號","121.488771666667","25.0532533333333","6500200","三重區"
"241014","543-UM","2018/02/22 20:19:45","新北市三重區長樂街154號","121.502815","25.0697933333333","6500200","三重區"
"241023","545-UM","2018/02/22 20:19:45","新北市三重區大有街1-9號","121.477541666667","25.0660616666667","6500200","三重區"
"241001","547-UM","2018/02/22 20:19:48","新北市三重區溪尾街42-2號","121.490945","25.0771633333333","6500200","三重區"
"241019","KEA-2593","2018/02/22 20:19:42","新北市三重區大智街141號","121.490646666667","25.0709983333333","6500200","三重區"
"241018","887-TS","2018/02/22 20:19:38","新北市三重區自強路一段236號","121.493335","25.0669966666667","6500200","三重區"
"241012","941-UM","2018/02/22 20:19:47","新北市三重區河邊北街379-1號","121.501731666667","25.0764483333333","6500200","三重區"
"241029","942-UM","2018/02/22 20:19:51","新北市三重區光明路116號","121.492703333333","25.0560183333333","6500200","三重區"
"241033","AAC-255","2018/02/22 20:19:42","新北市三重區五谷王北街42巷2號","121.475821666667","25.04938","6500200","三重區"
"235066","003-UY","2018/02/22 20:19:45","新北市中和區南工路87號","121.507153333333","25.0030766666667","6500300","中和區"
"235039","097-UM","2018/02/22 20:19:43","新北市中和區大勇街25巷1號","121.517188333333","24.99321","6500300","中和區"
"235065","098-UM","2018/02/22 20:19:31","新北市中和區福祥路85巷2弄2號","121.498776666667","25.00584","6500300","中和區"
"235040","150-BY","2018/02/22 20:19:47","新北市中和區安平路38號","121.510026666667","24.995055","6500300","中和區"
"235068","377-QA","2018/02/22 20:19:31","新北市中和區福祥路85巷6弄3號","121.498376666667","25.00581","6500300","中和區"
"235050","4979-A6","2018/02/22 20:19:34","新北市中和區景平路464巷2弄1-4號","121.50583","24.9939683333333","6500300","中和區"
"235069","4980-A6","2018/02/22 20:19:42","新北市中和區圓通路200號","121.496206666667","24.9942166666667","6500300","中和區"
"235070","558-UM","2018/02/22 20:19:40","新北市中和區中山路二段439巷3號","121.48502","25.0045066666667","6500300","中和區"
"235026","800-TS","2018/02/22 20:19:38","新北市中和區員山路36巷13號","121.484291666667","24.99072","6500300","中和區"
"235059","AAC-215","2018/02/22 20:19:47","新北市中和區圓通路367巷13弄1號","121.492616666667","24.9882566666667","6500300","中和區"
"220065","072-UY","2018/02/22 20:19:34","新北市板橋區南雅南路一段112號","121.45493","25.0041666666667","6500100","板橋區"
"247022","893-R6","2018/02/22 20:19:29","新北市蘆洲區民族路451號","121.467428333333","25.088615","6501400","蘆洲區"
"247012","546-UM","2018/02/22 20:19:49","新北市蘆洲區中興街15巷1號","121.480483333333","25.08719","6501400","蘆洲區"
"247020","500-BY","2018/02/22 20:19:38","新北市蘆洲區仁愛街25號","121.472235","25.0926616666667","6501400","蘆洲區"
"247010","339-TH","2018/02/22 20:19:49","新北市蘆洲區信義路253號","121.479033333333","25.0845333333333","6501400","蘆洲區"
"247002","337-TH","2018/02/22 20:19:50","新北市蘆洲區長安街331巷15號","121.455948333333","25.086535","6501400","蘆洲區"
"247004","336-TH","2018/02/22 20:19:42","新北市蘆洲區永安南路二段328巷17弄1號","121.456675","25.083955","6501400","蘆洲區"
"247016","057-VK","2018/02/22 20:19:31","新北市蘆洲區中正路185巷45弄1號","121.465956666667","25.0837683333333","6501400","蘆洲區"
"247006","056-VK","2018/02/22 20:19:34","新北市蘆洲區九芎街139巷22弄8號","121.465951666667","25.0785633333333","6501400","蘆洲區"
"247008","053-VK","2018/02/22 20:19:29","新北市蘆洲區集賢路226-1號","121.48237","25.0864533333333","6501400","蘆洲區"
"247014","007-UY","2018/02/22 20:19:45","新北市蘆洲區中山二路137巷46號","121.472558333333","25.0805316666667","6501400","蘆洲區"
"247024","002-UY","2018/02/22 20:19:47","新北市蘆洲區光明路106巷15號","121.463851666667","25.0876","6501400","蘆洲區"
"247018","001-UY","2018/02/22 20:19:33","新北市蘆洲區民族路408巷10號","121.4748","25.091875","6501400","蘆洲區"
"222001","KEA-2212","2018/02/22 20:19:49","新北市深坑區北深路三段219號","121.600098333333","25.0037333333333","6501800","深坑區"
"208001","761-BX","2018/02/22 20:19:36","新北市金山區磺清路121號","121.639643333333","25.227855","6502700","金山區"
"251013","179-VK","2018/02/22 20:19:46","新北市淡水區奎柔山路576號","121.468138333333","25.2052166666667","6501000","淡水區"
"251014","180-VK","2018/02/22 20:19:38","新北市淡水區石頭厝3號","121.45869","25.2355583333333","6501000","淡水區"
"251008","181-VK","2018/02/22 20:19:43","新北市淡水區淡海路150巷16號","121.422406666667","25.1844066666667","6501000","淡水區"
"251015","182-VK","2018/02/22 20:19:47","新北市淡水區興仁路163號","121.451553333333","25.2197483333333","6501000","淡水區"
"251010","413-VK","2018/02/22 20:19:44","新北市淡水區新民街一段132號","121.427918333333","25.1888183333333","6501000","淡水區"
"251012","441-VK","2018/02/22 20:19:36","新北市淡水區淡金路三段352號","121.44923","25.2089","6501000","淡水區"
"251016","442-VK","2018/02/22 20:19:48","新北市淡水區番子田25-6號","121.456078333333","25.22995","6501000","淡水區"
"251006","561-UM","2018/02/22 20:19:32","新北市淡水區北投子46號","121.463006666667","25.182085","6501000","淡水區"
"251002","672-BX","2018/02/22 20:19:49","新北市淡水區中正路63號","121.441353333333","25.169555","6501000","淡水區"
"251003","766-UM","2018/02/22 20:19:45","新北市淡水區中山北路一段160號","121.444125","25.1783633333333","6501000","淡水區"
"207004","225-TW","2018/02/22 20:19:40","新北市萬里區北基里仁一街1號","121.682718333333","25.17572","6502800","萬里區"
"252002","178-VK","2018/02/22 20:19:44","新北市三芝區中正路一段25號","121.502946666667","25.258565","6502100","三芝區"
"252001","292-VK","2018/02/22 20:19:28","新北市三芝區中山路一段14號","121.500716666667","25.2579716666667","6502100","三芝區"
"237012","275-BY","2018/02/22 20:19:49","新北市三峽區中華路74-5號","121.371546666667","24.9291733333333","6500900","三峽區"
"237008","302-VK","2018/02/22 20:19:36","新北市三峽區中正路一段174巷9號","121.372015","24.928885","6500900","三峽區"
"237006","5529-G3","2018/02/22 20:19:36","新北市三峽區大利路2號","121.366383333333","24.9116183333333","6500900","三峽區"
"236071","105-UM","2018/02/22 20:19:28","新北市土城區中山路74號","121.432793333333","24.9707183333333","6501300","土城區"
"236078","166-UM","2018/02/22 20:19:17","新北市土城區中山路47號","121.420693333333","24.9629233333333","6501300","土城區"
"236030","253-BX","2018/02/22 20:19:34","新北市土城區學成路128巷13弄6號","121.449508333333","24.9901883333333","6501300","土城區"
"236026","269-VK","2018/02/22 20:19:48","新北市土城區裕生路86巷3號","121.446755","24.985135","6501300","土城區"
"236014","270-VK","2018/02/22 20:19:38","新北市土城區廣明街90巷25號","121.455546666667","24.99463","6501300","土城區"
"236037","271-VK","2018/02/22 20:19:32","新北市土城區明德路一段109號","121.46566","24.982175","6501300","土城區"
"236021","401-BY","2018/02/22 20:19:32","新北市土城區和城路二段255巷140號","121.47606","24.9879616666667","6501300","土城區"
"236058","912-UM","2018/02/22 20:19:28","新北市土城區中央路三段38號","121.438488333333","24.9688316666667","6501300","土城區"
"236053","AAC-216","2018/02/22 20:19:43","新北市土城區中華路一段301號","121.439738333333","24.9797033333333","6501300","土城區"
"242029","986-R7","2018/02/22 20:19:37","新北市新莊區中原路237號","121.44955","25.05448","6500500","新莊區"
"242051","751-BX","2018/02/22 20:19:46","新北市新莊區民安西路212巷12-1號","121.425011666667","25.0151533333333","6500500","新莊區"
"242023","705-TV","2018/02/22 20:19:49","新北市新莊區化成路700號","121.465795","25.0565016666667","6500500","新莊區"
"242025","615-BX","2018/02/22 20:19:40","新北市新莊區五工二路70巷2號","121.460381666667","25.0658883333333","6500500","新莊區"
"242027","612-BX","2018/02/22 20:19:42","新北市新莊區幸福路590號","121.453631666667","25.0494366666667","6500500","新莊區"
"242039","566-BX","2018/02/22 20:19:43","新北市新莊區龍安路457號","121.424513333333","25.0185533333333","6500500","新莊區"
"242044","497-BY","2018/02/22 20:19:49","新北市新莊區中正路新建巷28弄71號","121.41375","25.0209533333333","6500500","新莊區"
"242009","441-UM","2018/02/22 20:19:35","新北市新莊區昌平街14號","121.454851666667","25.052685","6500500","新莊區"
"242053","440-UM","2018/02/22 20:19:33","新北市新莊區民安西路261巷18號","121.426823333333","25.0130116666667","6500500","新莊區"
"242034","415-TV","2018/02/22 20:19:45","新北市新莊區仁愛街54巷12號","121.445088333333","25.037125","6500500","新莊區"
"242004","413-TV","2018/02/22 20:19:31","新北市新莊區頭興街18號","121.464931666667","25.0534033333333","6500500","新莊區"
"242042","400-BY","2018/02/22 20:19:35","新北市新莊區壽山路49-7號","121.414185","25.0311666666667","6500500","新莊區"
"242061","362-BY","2018/02/22 20:19:48","新北市新莊區新樹路172-13號","121.434535","25.0218266666667","6500500","新莊區"
"242058","353-BY","2018/02/22 20:19:45","新北市新莊區龍安路264號","121.421738333333","25.0193783333333","6500500","新莊區"
"242007","132-UY","2018/02/22 20:19:46","新北市新莊區福壽街124巷34弄2號","121.459266666667","25.0512883333333","6500500","新莊區"
"242036","133-UY","2018/02/22 20:19:45","新北市新莊區建安街97號","121.426815","25.02437","6500500","新莊區"
"242021","135-UY","2018/02/22 20:19:47","新北市新莊區復興路一段11號","121.44578","25.0415883333333","6500500","新莊區"
"242046","172-VK","2018/02/22 20:19:28","新北市新莊區裕民街134巷2號","121.41774","25.022165","6500500","新莊區"
"242015","175-VK","2018/02/22 20:19:45","新北市新莊區中和街29號","121.447946666667","25.0439833333333","6500500","新莊區"
"242002","176-VK","2018/02/22 20:19:46","新北市三重區重新路五段621號","121.467943333333","25.044175","6500500","新莊區"
"242013","346-TH","2018/02/22 20:19:43","新北市新莊區中和街186巷6弄2號","121.448011666667","25.049705","6500500","新莊區"
"242019","348-TH","2018/02/22 20:19:43","新北市新莊區復興路二段196巷1號","121.459405","25.0440616666667","6500500","新莊區"
"242056","349-TH","2018/02/22 20:19:34","新北市新莊區豐年街20巷9號","121.445915","25.0324183333333","6500500","新莊區"
"242017","350-TH","2018/02/22 20:19:34","新北市新莊區中港一街5號","121.451726666667","25.0455333333333","6500500","新莊區"
"242011","351-TH","2018/02/22 20:19:39","新北市新莊區中信街16號","121.451018333333","25.050845","6500500","新莊區"
"238021","KEA-2217","2018/02/22 20:19:31","新北市樹林區佳園路三段99巷71號","121.393741666667","24.952075","6500700","樹林區"
"238014","282-BY","2018/02/22 20:19:32","新北市樹林區中山路三段210-2號","121.381483333333","24.96554","6500700","樹林區"
"239006","891-R6","2018/02/22 20:19:42","新北市鶯歌區文化路249號","121.353726666667","24.95332","6500800","鶯歌區"
"221008","489-VK","2018/02/22 20:19:40","台北市內湖區康樂街12號","121.61776","25.0679566666667","6501100","汐止區"
"221036","130-UY","2018/02/22 20:19:40","新北市汐止區福安街59巷13號","121.664461666667","25.06396","6501100","汐止區"
"221015","131-UY","2018/02/22 20:19:34","新北市汐止區建成路142巷19弄13號","121.661908333333","25.0739066666667","6501100","汐止區"
"221010","269-BY","2018/02/22 20:19:28","新北市汐止區八連路二段323號","121.629391666667","25.0996333333333","6501100","汐止區"
"221012","278-VK","2018/02/22 20:19:38","新北市汐止區保新街一段285號","121.69281","25.068305","6501100","汐止區"
"221023","279-VK","2018/02/22 20:19:39","新北市汐止區明峰街190號","121.62814","25.06967","6501100","汐止區"
"221032","280-BY","2018/02/22 20:19:47","新北市汐止區弘道街47號","121.618201666667","25.0485833333333","6501100","汐止區"
"221027","281-BY","2018/02/22 20:19:37","新北市汐止區大同路二段491號","121.66089","25.068525","6501100","汐止區"
"221038","297-VK","2018/02/22 20:19:30","新北市汐止區忠孝東路476-1號","121.666258333333","25.0736016666667","6501100","汐止區"
"221029","298-VK","2018/02/22 20:19:36","新北市汐止區工建路31號","121.639461666667","25.06346","6501100","汐止區"
"221021","299-VK","2018/02/22 20:19:40","新北市汐止區水源路一段262號","121.654073333333","25.059585","6501100","汐止區"
"221031","353-TW","2018/02/22 20:19:43","新北市汐止區原興路72號","121.632458333333","25.0659433333333","6501100","汐止區"
"221035","622-UM","2018/02/22 20:19:49","新北市汐止區長江街101號","121.658541666667","25.072945","6501100","汐止區"
"221025","623-UM","2018/02/22 20:19:37","新北市汐止區水源路二段72巷6弄5號","121.655576666667","25.0556916666667","6501100","汐止區"
"221033","647-BX","2018/02/22 20:19:35","新北市汐止區東勢街201巷32號","121.635048333333","25.0435566666667","6501100","汐止區"
"221002","707-TV","2018/02/22 20:19:41","新北市汐止區福德三路75號","121.636235","25.0691333333333","6501100","汐止區"
"221018","753-BX","2018/02/22 20:19:41","新北市汐止區茄安路39號","121.673436666667","25.0681933333333","6501100","汐止區"
"220101","245-BX","2018/02/22 20:19:29","新北市板橋區雙十路二段47巷2弄13號","121.475638333333","25.0265266666667","6500100","板橋區"
"220096","257-TC","2018/02/22 20:19:36","新北市板橋區莒光路79巷2-1號","121.471876666667","25.0244083333333","6500100","板橋區"
"220083","286-VK","2018/02/22 20:19:41","新北市板橋區僑中二街92巷10號","121.445841666667","25.0090133333333","6500100","板橋區"
"220081","287-VK","2018/02/22 20:19:32","新北市板橋區僑中一街80巷5弄3號","121.447645","25.0124183333333","6500100","板橋區"
"220061","293-UM","2018/02/22 20:19:37","新北市板橋區中山路一段156號","121.465238333333","25.011755","6500100","板橋區"
"242048","281-VK","2018/02/22 20:19:51","新北市新莊區萬安街165巷34號","121.421193333333","25.02072","6500500","新莊區"
"220092","307-R5","2018/02/22 20:19:47","新北市板橋區民權路174號","121.459555","25.0132","6500100","板橋區"
"242031","280-VK","2018/02/22 20:19:33","新北市新莊區中正路450號","121.440146666667","25.0338283333333","6500500","新莊區"
"220035","560-BX","2018/02/22 20:19:35","新北市板橋區長江路一段17號","121.47483","25.037085","6500100","板橋區"
"220103","561-BX","2018/02/22 20:19:32","新北市板橋區陽明街271號","121.462273333333","25.0259083333333","6500100","板橋區"
"220102","KEA-2699","2018/02/22 20:19:50","新北市板橋區文聖街176號","121.479211666667","25.0270116666667","6500100","板橋區"
"220055","827-TW","2018/02/22 20:19:38","新北市板橋區忠孝路48巷11弄14號","121.461971666667","24.999825","6500100","板橋區"
"220089","833-TW","2018/02/22 20:19:24","新北市板橋區四維路152號","121.464975","25.0258083333333","6500100","板橋區"
"220074","895-R6","2018/02/22 20:19:42","新北市板橋區館前西路65號","121.457573333333","25.007025","6500100","板橋區"
"220097","AAC-210","2018/02/22 20:19:45","新北市板橋區公館街132號","121.461295","25.0183616666667","6500100","板橋區"
"220070","AAC-253","2018/02/22 20:19:37","新北市板橋區四川路二段245巷14號","121.45098","24.9930283333333","6500100","板橋區"
