"lineid","car","time","location","longitude","latitude","cityid","cityname"
"231050","KEA-2219","2018/02/22 21:29:40","新北市新店區中正路282-10號","121.538043333333","24.9743033333333","6500600","新店區"
"231064","515-UM","2018/02/22 21:29:32","新北市新店區安華路3號","121.51911","24.959415","6500600","新店區"
"231063","645-TV","2018/02/22 21:29:44","新北市新店區吉祥街5巷1號","121.49733","24.9477416666667","6500600","新店區"
"241026","066-VK","2018/02/22 21:29:35","新北市三重區環河南路256號","121.491038333333","25.05042","6500200","三重區"
"241003","156-TC","2018/02/22 21:29:39","新北市三重區仁義街317號","121.49544","25.084235","6500200","三重區"
"241005","262-UM","2018/02/22 21:29:28","新北市三重區碧華街1號","121.483528333333","25.0812033333333","6500200","三重區"
"241007","398-BY","2018/02/22 21:29:39","新北市三重區正義北路128號","121.49687","25.06558","6500200","三重區"
"241024","478-VK","2018/02/22 21:29:33","新北市三重區中正北路145巷14號","121.48411","25.067765","6500200","三重區"
"241030","480-VK","2018/02/22 21:28:41","新北市五股區中直路21號","121.420828333333","25.112115","6500200","三重區"
"247008","053-VK","2018/02/22 21:29:29","新北市五股區中興路二段78-5號","121.461781666667","25.0784533333333","6501400","蘆洲區"
"247014","007-UY","2018/02/22 21:29:25","新北市蘆洲區中正路353號","121.465433333333","25.0896966666667","6501400","蘆洲區"
"247024","002-UY","2018/02/22 21:29:27","新北市五股區成泰路四段22巷10-2號","121.454308333333","25.1047433333333","6501400","蘆洲區"
"251009","008-UM","2018/02/22 21:29:34","新北市淡水區民族路33巷16-8號","121.463378333333","25.1359466666667","6501000","淡水區"
"251004","009-UM","2018/02/22 21:29:42","新北市淡水區民族路21號","121.460561666667","25.1368533333333","6501000","淡水區"
"251001","011-UM","2018/02/22 21:29:35","新北市淡水區濱海路一段221號","121.437398333333","25.18982","6501000","淡水區"
"251013","179-VK","2018/02/22 21:29:40","新北市淡水區埤島40-1號","121.452813333333","25.197415","6501000","淡水區"
"251014","180-VK","2018/02/22 21:29:38","新北市淡水區六塊厝2-1號","121.450131666667","25.2404766666667","6501000","淡水區"
"251008","181-VK","2018/02/22 21:29:42","新北市淡水區水源街二段102號","121.452138333333","25.1745216666667","6501000","淡水區"
"251010","413-VK","2018/02/22 21:29:44","新北市淡水區沙崙路25巷21號","121.420565","25.182405","6501000","淡水區"
"251012","441-VK","2018/02/22 21:29:36","新北市淡水區石頭埔8號","121.452645","25.2345416666667","6501000","淡水區"
"251016","442-VK","2018/02/22 21:29:28","新北市淡水區前洲子5-2號","121.444713333333","25.2178616666667","6501000","淡水區"
"251005","443-VK","2018/02/22 21:29:49","新北市淡水區水源街一段42號","121.443793333333","25.172225","6501000","淡水區"
"251006","561-UM","2018/02/22 21:29:32","新北市淡水區公明街58號","121.443571666667","25.1686033333333","6501000","淡水區"
"251011","650-BX","2018/02/22 21:29:33","新北市淡水區新民街180-6號","121.436753333333","25.1787916666667","6501000","淡水區"
"251002","672-BX","2018/02/22 21:11:16","新北市淡水區英專路151號","121.448341666667","25.1749","6501000","淡水區"
"251003","766-UM","2018/02/22 21:29:25","新北市淡水區崁頂15-5號","121.439001666667","25.185895","6501000","淡水區"
"242046","172-VK","2018/02/22 21:29:28","新北市新莊區新莊路771巷21-1號","121.442435","25.03147","6500500","新莊區"
"220070","AAC-253","2018/02/22 21:29:36","新北市新莊區中平路377巷17弄62號","121.442175","25.0513683333333","6500100","板橋區"
