"lineid","car","time","location","longitude","latitude","cityid","cityname"
"241030","480-VK","2018/02/22 21:49:20","新北市八里區中華路三段62號","121.394288333333","25.14078","6500200","三重區"
"235010","733-UM","2018/02/22 21:39:01","新北市中和區員山路36巷13號","121.484186666667","24.9908283333333","6500300","中和區"
"247008","053-VK","2018/02/22 21:49:29","新北市林口區汕頭32號","121.366313333333","25.1348616666667","6501400","蘆洲區"
"251009","008-UM","2018/02/22 21:49:34","新北市淡水區民族路35巷17號","121.464848333333","25.1369066666667","6501000","淡水區"
"251004","009-UM","2018/02/22 21:49:22","新北市淡水區民權路14號","121.463173333333","25.1246533333333","6501000","淡水區"
"251001","011-UM","2018/02/22 21:49:35","新北市淡水區新市五路一段162號","121.42854","25.2000783333333","6501000","淡水區"
"251014","180-VK","2018/02/22 21:49:38","新北市淡水區淡金路三段170號","121.448668333333","25.2029066666667","6501000","淡水區"
"251008","181-VK","2018/02/22 21:49:22","新北市淡水區學府路104號","121.449868333333","25.1717583333333","6501000","淡水區"
"251010","413-VK","2018/02/22 21:49:24","新北市淡水區中正路二段211號","121.42619","25.1890733333333","6501000","淡水區"
"251012","441-VK","2018/02/22 21:49:36","新北市淡水區淡金路三段306號","121.449","25.20797","6501000","淡水區"
"251005","443-VK","2018/02/22 21:49:28","新北市淡水區鄧公路30巷30弄2號","121.45362","25.1697383333333","6501000","淡水區"
"251006","561-UM","2018/02/22 21:49:32","新北市淡水區中正路11巷11號","121.437711666667","25.1708083333333","6501000","淡水區"
"251011","650-BX","2018/02/22 21:49:33","新北市淡水區新民街322巷5弄6號","121.436438333333","25.182935","6501000","淡水區"
"251002","672-BX","2018/02/22 21:49:36","新北市淡水區大忠街153號","121.448075","25.1767016666667","6501000","淡水區"
"251003","766-UM","2018/02/22 21:49:25","新北市淡水區新春街51號","121.437828333333","25.1819833333333","6501000","淡水區"
"220070","AAC-253","2018/02/22 21:49:16","新北市板橋區華東街1-9號","121.448275","24.9948566666667","6500100","板橋區"
