"lineid","car","time","location","longitude","latitude","cityid","cityname"
"247003","336-TH","2018/02/22 22:17:40","新北市五股區中興路三段163號","121.44918","25.08088","6501400","蘆洲區"
"247008","053-VK","2018/02/22 22:19:49","新北市五股區中興路二段182巷3號","121.45648","25.0780416666667","6501400","蘆洲區"
"251004","009-UM","2018/02/22 22:19:42","新北市淡水區民族路33號","121.462378333333","25.1357866666667","6501000","淡水區"
"251008","181-VK","2018/02/22 22:19:42","新北市淡水區學府路104號","121.44994","25.1717733333333","6501000","淡水區"
"251010","413-VK","2018/02/22 22:19:44","新北市淡水區沙崙路200號","121.424631666667","25.1838366666667","6501000","淡水區"
"251007","577-R6","2018/02/22 22:19:46","新北市淡水區北新路137號","121.449503333333","25.178825","6501000","淡水區"
"251011","650-BX","2018/02/22 22:19:33","新北市淡水區水碓街5號","121.443166666667","25.1770483333333","6501000","淡水區"
