"lineid","car","time","location","longitude","latitude","cityid","cityname"
"247003","336-TH","2018/02/22 22:17:40","新北市五股區中興路三段163號","121.44918","25.08088","6501400","蘆洲區"
"251004","009-UM","2018/02/22 22:29:22","新北市淡水區民族路33號","121.462188333333","25.1358216666667","6501000","淡水區"
"251008","181-VK","2018/02/22 22:29:22","新北市淡水區學府路104號","121.449923333333","25.1718116666667","6501000","淡水區"
"251010","413-VK","2018/02/22 22:29:24","新北市淡水區沙崙路200號","121.424616666667","25.1838483333333","6501000","淡水區"
"251007","577-R6","2018/02/22 22:29:25","新北市淡水區北新路186-3號","121.449658333333","25.178725","6501000","淡水區"
"251011","650-BX","2018/02/22 22:29:33","新北市淡水區水碓街7號","121.443175","25.1770633333333","6501000","淡水區"
