"lineid","car","time","location","longitude","latitude","cityid","cityname"
"232003","290-BY","2018/02/23 06:39:29","新北市坪林區北宜路八段558號","121.717965","24.9093566666667","6502000","坪林區"
"232019","705-BZ","2018/02/23 06:39:13","新北市坪林區北宜路八段558號","121.717896666667","24.9093416666667","6502000","坪林區"
"232008","758-BX","2018/02/23 06:39:21","新北市坪林區北宜路八段558號","121.717843333333","24.9092666666667","6502000","坪林區"
"244004","248-BX","2018/02/23 06:39:33","新北市林口區粉寮路二段160巷28號","121.405183333333","25.09076","6501700","林口區"
"235001","611-BX","2018/02/23 06:39:29","新北市中和區員山路37-10號","121.482173333333","24.99055","6500300","中和區"
"220072","015-TV","2018/02/23 06:39:31","新北市板橋區南雅西路二段123巷10號","121.451761666667","25.0108983333333","6500100","板橋區"
"223006","022-BY","2018/02/23 06:39:22","新北市石碇區靜安路一段75號","121.651268333333","25.0072433333333","6501900","石碇區"
"223008","406-TH","2018/02/23 06:39:30","新北市石碇區碇坪路一段151號","121.676091666667","24.9780433333333","6501900","石碇區"
"223007","661-BX","2018/02/23 06:39:31","新北市石碇區石崁14-1號","121.655081666667","24.9952133333333","6501900","石碇區"
"227005","282-VK","2018/02/23 06:39:23","新北市雙溪區牡丹里聖南10-3號","121.860873333333","25.0493116666667","6502500","雙溪區"
"236010","165-UM","2018/02/23 06:39:32","新北市土城區永平街51號","121.427996666667","24.9591633333333","6501300","土城區"
