"lineid","car","time","location","longitude","latitude","cityid","cityname"
"244018","403-UM","2018/10/18 10:37:51","新北市林口區粉寮1號","121.397465","25.0798133333333","6501700","林口區"
"222006","289-BY","2018/10/18 10:37:57","新北市深坑區向天湖12號","121.61995","24.9915416666667","6501800","深坑區"
"231069","189-VK","2018/10/18 10:37:47","新北市新店區新潭路三段86號","121.503891666667","24.9098716666667","6500600","新店區"
"231008","192-VK","2018/10/18 10:34:36","新北市新店區成功路126號","121.533655","24.8945616666667","6500600","新店區"
"223003","205-TH","2018/10/18 10:15:46","新北市石碇區小粗坑(潭邊里)9-2號","121.679103333333","24.9858533333333","6501900","石碇區"
