"lineid","car","time","location","longitude","latitude","cityid","cityname"
"234001","149-BY","2018/10/18 11:03:41","新北市永和區福和路1號","121.526413333333","25.0098233333333","6500400","永和區"
"244019","403-UM","2018/10/18 11:07:51","新北市林口區粉寮路二段88巷100-12號","121.409633333333","25.0902366666667","6501700","林口區"
"231069","189-VK","2018/10/18 11:07:46","新北市新店區新潭路一段211號","121.529095","24.9291866666667","6500600","新店區"
"231008","192-VK","2018/10/18 11:07:55","新北市新店區頂石厝路72號","121.535233333333","24.91845","6500600","新店區"
"242003","349-TH","2018/10/18 11:03:10","新北市新莊區三和路12-21號","121.442068333333","25.0383533333333","6500500","新莊區"
