"lineid","car","time","location","longitude","latitude","cityid","cityname"
"234001","149-BY","2018/10/18 11:03:41","新北市永和區福和路1號","121.526413333333","25.0098233333333","6500400","永和區"
"244019","403-UM","2018/10/18 11:19:51","新北市林口區粉寮路二段88巷100-12號","121.409635","25.0902383333333","6501700","林口區"
"231069","189-VK","2018/10/18 11:20:00","新北市新店區新潭路一段78-13號","121.525496666667","24.93979","6500600","新店區"
"231008","192-VK","2018/10/18 11:19:55","新北市新店區頂石厝路72號","121.535373333333","24.9183583333333","6500600","新店區"
"235029","098-UM","2018/10/18 11:19:48","新北市中和區員山路36巷16-3號","121.485006666667","24.9912783333333","6500300","中和區"
"242003","349-TH","2018/10/18 11:03:10","新北市新莊區三和路12-21號","121.442068333333","25.0383533333333","6500500","新莊區"
