"lineid","car","time","location","longitude","latitude","cityid","cityname"
"234044","148-BY","2018/10/18 13:29:14","新北市永和區秀朗路二段178號","121.526423333333","25.0012366666667","6500400","永和區"
"234005","207-UY","2018/10/18 13:29:28","新北市永和區永貞路389巷5號","121.507888333333","25.0083466666667","6500400","永和區"
"234078","298-R6","2018/10/18 13:29:21","新北市永和區環河東路三段56號","121.526901666667","25.006155","6500400","永和區"
"234036","336-UY","2018/10/18 13:29:26","新北市永和區民樂街33巷1號","121.527601666667","25.00125","6500400","永和區"
"234062","337-UY","2018/10/18 13:29:33","新北市永和區得和路243巷21號","121.520563333333","25.00087","6500400","永和區"
"234084","338-UY","2018/10/18 13:29:31","新北市永和區林森路65號","121.524121666667","25.004125","6500400","永和區"
"234068","552-UM","2018/10/18 13:29:31","新北市永和區警光街2號","121.520156666667","25.0096616666667","6500400","永和區"
"234015","745-BX","2018/10/18 13:29:32","新北市永和區永和路二段425巷29號","121.51453","25.0176866666667","6500400","永和區"
"234028","746-BX","2018/10/18 13:29:18","新北市永和區民生路27號","121.523008333333","24.9984616666667","6500400","永和區"
"234052","KEA-2590","2018/10/18 13:29:23","新北市永和區復興街19巷9號","121.516096666667","25.0131816666667","6500400","永和區"
"234012","KEA-2591","2018/10/18 13:29:26","新北市永和區中山路一段184巷10弄16號","121.508953333333","25.0096383333333","6500400","永和區"
"234060","AAD-866","2018/10/18 13:29:29","新北市永和區中正路554號","121.51723","25.0056333333333","6500400","永和區"
"234040","862-TW","2018/10/18 13:29:23","新北市永和區中和路519巷16號","121.510828333333","25.0032583333333","6500400","永和區"
"234048","863-TW","2018/10/18 13:29:20","新北市永和區信義路120號","121.51239","25.0146116666667","6500400","永和區"
"234025","9371-KE","2018/10/18 13:29:30","新北市永和區中正路720號","121.51587","25.0100383333333","6500400","永和區"
"234010","9373-KE","2018/10/18 13:29:29","新北市永和區仁愛路141巷30弄12號","121.511905","25.0114616666667","6500400","永和區"
"248013","025-BX","2018/10/18 13:29:21","新北市五股區明德路9號","121.435028333333","25.07124","6501500","五股區"
"248015","026-BX","2018/10/18 13:29:30","新北市五股區凌雲路一段83巷22弄1號","121.449845","25.1007633333333","6501500","五股區"
"248005","077-UY","2018/10/18 13:29:35","新北市五股區四維路52號","121.46739","25.07211","6501500","五股區"
"248007","095-VK","2018/10/18 13:29:17","新北市五股區四維路185巷42弄1號","121.463336666667","25.0769533333333","6501500","五股區"
"248017","225-UY","2018/10/18 13:29:25","新北市五股區御史路300號","121.417203333333","25.1085633333333","6501500","五股區"
"248011","247-BX","2018/10/18 13:29:27","新北市五股區御成路148號","121.440903333333","25.0944533333333","6501500","五股區"
"248009","272-BY","2018/10/18 13:29:21","新北市五股區明德路12巷3號","121.433336666667","25.0718016666667","6501500","五股區"
"248003","677-BX","2018/10/18 13:29:30","新北市五股區六合街3號","121.431916666667","25.0885683333333","6501500","五股區"
"248001","678-BX","2018/10/18 13:29:30","新北市五股區西雲路163號","121.446113333333","25.0943283333333","6501500","五股區"
"234022","9380-KE","2018/10/18 13:29:23","新北市永和區環河東路二段48號","121.523126666667","25.0119933333333","6500400","永和區"
"234076","969-R7","2018/10/18 13:29:25","新北市永和區智光街53號","121.517198333333","24.9980216666667","6500400","永和區"
"234072","AAC-211","2018/10/18 13:29:27","新北市永和區永和路二段254號","121.516118333333","25.01494","6500400","永和區"
"234066","AAC-212","2018/10/18 13:29:17","新北市永和區永貞路416號","121.50887","25.0079833333333","6500400","永和區"
"234001","AAC-295","2018/10/18 13:29:15","新北市永和區永和路一段113號","121.513695","25.0080416666667","6500400","永和區"
"244003","248-BX","2018/10/18 13:29:20","新北市林口區寶斗厝坑50號","121.336783333333","25.1236966666667","6501700","林口區"
"243005","AAD-798","2018/10/18 13:26:09","新北市泰山區明志路三段206巷3號","121.423315","25.03793","6501600","泰山區"
"243008","KEA-2801","2018/10/18 13:29:20","新北市泰山區犁頭窠3-1號","121.42229","25.0605","6501600","泰山區"
"231002","002-UM","2018/10/18 13:29:33","新北市新店區環河路62號","121.537093333333","24.96269","6500600","新店區"
"231028","046-UY","2018/10/18 13:29:32","新北市新店區安華路28-1號","121.519601666667","24.96095","6500600","新店區"
"231001","047-UY","2018/10/18 13:29:21","新北市新店區環河路29巷1號","121.536931666667","24.9614083333333","6500600","新店區"
"231010","107-UY","2018/10/18 13:29:27","新北市新店區三民路191號","121.535528333333","24.9757416666667","6500600","新店區"
"231021","108-UY","2018/10/18 13:29:36","新北市新店區新烏路一段7號","121.547351666667","24.9516283333333","6500600","新店區"
"231011","187-VK","2018/10/18 13:29:32","新北市新店區北新路一段72號","121.541318333333","24.9670483333333","6500600","新店區"
"231023","KEA-2219","2018/10/18 13:29:28","新北市新店區新店路13號","121.540266666667","24.9529166666667","6500600","新店區"
"231026","256-BX","2018/10/18 13:29:24","新北市新店區光明街9號","121.538136666667","24.9593683333333","6500600","新店區"
"231003","268-BY","2018/10/18 13:29:17","新北市新店區安康路一段85號","121.529495","24.961375","6500600","新店區"
"231018","278-BY","2018/10/18 13:29:20","新北市新店區中央路137號","121.53025","24.9737216666667","6500600","新店區"
"231017","AAD-862","2018/10/18 13:29:19","新北市新店區北宜路二段52-1號","121.54924","24.9512366666667","6500600","新店區"
"231038","3712-VJ","2018/10/18 13:29:19","新北市新店區安華路28-1號","121.519128333333","24.96063","6500600","新店區"
"231027","3713-VJ","2018/10/18 13:29:14","新北市新店區新店後街101號","121.537715","24.9558216666667","6500600","新店區"
"231037","4716-K9","2018/10/18 13:29:28","新北市新店區安豐路24號","121.500653333333","24.9565283333333","6500600","新店區"
"231025","4715-K9","2018/10/18 13:29:28","新北市新店區中央六街56號","121.527876666667","24.9757366666667","6500600","新店區"
"231036","512-UM","2018/10/18 13:29:16","新北市新店區安康路三段244號","121.487721666667","24.9518083333333","6500600","新店區"
"231013","513-UM","2018/10/18 13:29:30","新北市新店區中央路179-3號","121.535701666667","24.96916","6500600","新店區"
"231034","616-UM","2018/10/18 13:29:23","新北市新店區安華路3號","121.519225","24.959635","6500600","新店區"
"231006","617-UM","2018/10/18 13:29:33","新北市新店區安康路一段222號","121.523795","24.963585","6500600","新店區"
"231005","618-UM","2018/10/18 13:29:29","新北市新店區北新路一段91號","121.538903333333","24.9618383333333","6500600","新店區"
"231030","619-UM","2018/10/18 13:29:21","新北市新店區安華路1-1號","121.519618333333","24.9604833333333","6500600","新店區"
"231035","719-UM","2018/10/18 13:29:20","新北市新店區安一路一段1-1號","121.519301666667","24.961455","6500600","新店區"
"231031","720-UM","2018/10/18 13:29:28","新北市新店區安豐路60-1號","121.497793333333","24.9536233333333","6500600","新店區"
"231029","897-TW","2018/10/18 13:29:30","新北市新店區安豐路24號","121.500666666667","24.9564883333333","6500600","新店區"
"231004","899-TW","2018/10/18 13:29:26","新北市新店區安康路一段355號","121.519866666667","24.9633383333333","6500600","新店區"
"231024","AKT-0513","2018/10/18 13:29:29","新北市新店區華興街17號","121.537725","24.96938","6500600","新店區"
"235030","003-UY","2018/10/18 13:29:18","新北市中和區中山路二段120號","121.502656666667","25.0037533333333","6500300","中和區"
"235028","005-UY","2018/10/18 13:29:16","新北市中和區連城路139巷22號","121.496306666667","24.9981133333333","6500300","中和區"
"235027","006-UY","2018/10/18 13:29:30","新北市中和區連城路347巷2弄3-3號","121.48799","24.9958383333333","6500300","中和區"
"235020","096-UM","2018/10/18 13:29:28","新北市中和區新生街1號","121.483185","25.0047683333333","6500300","中和區"
"235003","097-UM","2018/10/18 13:29:33","新北市中和區景平路172號","121.51692","24.9926933333333","6500300","中和區"
"235029","098-UM","2018/10/18 13:29:22","新北市中和區中山路二段64巷12號","121.503513333333","25.005215","6500300","中和區"
"235004","150-BY","2018/10/18 13:29:28","新北市中和區安平路59號","121.509451666667","24.9951783333333","6500300","中和區"
"235022","151-BY","2018/10/18 13:29:19","新北市中和區圓通路369巷72號","121.490148333333","24.9821966666667","6500300","中和區"
"235019","183-VK","2018/10/18 13:29:14","新北市中和區莒光路105號","121.472375","25.002785","6500300","中和區"
"235002","185-VK","2018/10/18 13:29:28","新北市中和區自立路24號","121.522436666667","24.9931183333333","6500300","中和區"
"235013","186-VK","2018/10/18 13:29:23","新北市中和區景安路123號","121.50572","24.99617","6500300","中和區"
"235031","255-BX","2018/10/18 13:29:29","新北市中和區新生街242巷11弄8號","121.48293","24.99747","6500300","中和區"
"235036","301-VK","2018/10/18 13:29:17","新北市中和區連城路192號","121.492243333333","24.996785","6500300","中和區"
"235007","352-BY","2018/10/18 13:29:27","新北市中和區景平路287號","121.507306666667","24.9929366666667","6500300","中和區"
"235006","KEA-2878","2018/10/18 13:29:16","新北市中和區大仁街20巷25弄21號","121.518713333333","24.9936816666667","6500300","中和區"
"235014","4979-A6","2018/10/18 13:29:31","新北市中和區景新街372號","121.512053333333","24.9901716666667","6500300","中和區"
"235033","4980-A6","2018/10/18 13:29:34","新北市中和區連城路127巷33號","121.497348333333","24.9974","6500300","中和區"
"235034","558-UM","2018/10/18 13:29:15","新北市中和區南華路71號","121.504783333333","24.9973766666667","6500300","中和區"
"235009","565-BX","2018/10/18 13:29:30","新北市中和區南山路236巷24弄38號","121.504803333333","24.9888733333333","6500300","中和區"
"235018","640-BX","2018/10/18 13:29:31","新北市中和區民享街90巷1號","121.474706666667","25.0002216666667","6500300","中和區"
"235024","647-TV","2018/10/18 13:29:28","新北市中和區員山路262號","121.481328333333","25.00173","6500300","中和區"
"235011","732-UM","2018/10/18 13:29:35","新北市中和區南山路272號","121.507885","24.9879316666667","6500300","中和區"
"235035","783-BX","2018/10/18 13:29:22","新北市中和區中板路18巷1弄2號","121.484091666667","25.0124283333333","6500300","中和區"
"235026","800-TS","2018/10/18 13:29:30","新北市中和區景平路740號","121.496621666667","25.0041583333333","6500300","中和區"
"235021","801-TS","2018/10/18 13:29:34","新北市中和區民享街97巷15號","121.475585","25.0000333333333","6500300","中和區"
"235016","805-TS","2018/10/18 13:29:17","新北市中和區興南路二段133號","121.505216666667","24.98415","6500300","中和區"
"235012","896-TW","2018/10/18 13:29:29","新北市中和區中正路637巷52弄1號","121.485375","24.9935166666667","6500300","中和區"
"235017","900-TW","2018/10/18 13:29:26","新北市中和區民享街457號","121.47034","24.9932033333333","6500300","中和區"
"235015","157-BY","2018/10/18 13:29:29","新北市中和區興南路二段142巷35弄1號","121.502418333333","24.9845283333333","6500300","中和區"
"235001","AAC-213","2018/10/18 13:29:34","新北市中和區景德街95-2號","121.515446666667","24.99112","6500300","中和區"
"235023","AAC-215","2018/10/18 13:29:27","新北市中和區員山路36巷16-3號","121.484928333333","24.991385","6500300","中和區"
"220016","013-TV","2018/10/18 13:29:25","新北市板橋區民生路二段161巷9號","121.470338333333","25.01958","6500100","板橋區"
"220104","015-TV","2018/10/18 13:29:19","新北市板橋區南雅西路二段145巷10號","121.451568333333","25.012025","6500100","板橋區"
"220013","072-UY","2018/10/18 13:29:14","新北市板橋區南雅西路一段7巷5號","121.454463333333","25.0038716666667","6500100","板橋區"
"247009","056-VK","2018/10/18 13:29:18","新北市五股區中興路三段2巷10號","121.449005","25.0809266666667","6501400","蘆洲區"
"247021","001-UY","2018/10/18 13:29:25","新北市五股區中興路三段163號","121.449103333333","25.0807533333333","6501400","蘆洲區"
"223003","205-TH","2018/10/18 13:16:30","新北市石碇區小粗坑(潭邊里)9-2號","121.678535","24.9858633333333","6501900","石碇區"
"235005","251-BX","2018/10/18 13:29:21","新北市中和區中和路324巷8號","121.509936666667","25.00081","6500300","中和區"
"228005","097-TW","2018/10/18 13:29:25","新北市貢寮區美豐里文秀坑8號","121.902571666667","25.05038","6502600","貢寮區"
"228004","212-TW","2018/10/18 13:29:21","新北市貢寮區龍崗里石壁坑街17號","121.910365","24.9894983333333","6502600","貢寮區"
"253003","6232-TK","2018/10/18 13:29:15","新北市石門區內石門50-4號","121.570915","25.2632566666667","6502200","石門區"
"253004","6251-TK","2018/10/18 13:29:22","新北市石門區竹子湖11號","121.618211666667","25.2573733333333","6502200","石門區"
"253002","637-UY","2018/10/18 13:29:20","新北市石門區老崩山39-1號","121.564061666667","25.2658466666667","6502200","石門區"
"253001","KEC-0718","2018/10/18 13:29:23","新北市石門區八甲1-11號","121.521108333333","25.283905","6502200","石門區"
"207002","749-BX","2018/10/18 13:29:26","新北市萬里區崁腳里崁腳路166號","121.645045","25.1558266666667","6502800","萬里區"
"207001","662-BX","2018/10/18 13:27:57","新北市萬里區龜吼里石角路43號","121.684353333333","25.19224","6502800","萬里區"
"252005","AAC-283","2018/10/18 13:29:27","新北市三芝區圓山里八連溪頭8號","121.527618333333","25.22116","6502100","三芝區"
"237012","275-BY","2018/10/18 13:29:16","新北市三峽區愛國路2-1號","121.37412","24.93407","6500900","三峽區"
"242049","172-VK","2018/10/18 13:29:24","新北市新莊區民安西路88巷3弄22號","121.426041666667","25.0194933333333","6500500","新莊區"
"242001","233-RS","2018/10/18 13:29:18","新北市新莊區自由街28號","121.455891666667","25.046855","6500500","新莊區"
"221010","269-BY","2018/10/18 13:29:22","新北市汐止區康寧街261號","121.625408333333","25.0670516666667","6501100","汐止區"
"221032","280-BY","2018/10/18 13:29:24","新北市汐止區龍安路34號","121.654856666667","25.0640966666667","6501100","汐止區"
"221033","647-BX","2018/10/18 13:29:20","新北市汐止區新台五路一段260-1號","121.657738333333","25.0643066666667","6501100","汐止區"
"220027","145-BY","2018/10/18 13:29:33","新北市板橋區板城路271號","121.450235","24.99782","6500100","板橋區"
"220030","610-BX","2018/10/18 13:29:31","新北市板橋區華東街1-10號","121.448256666667","24.9949566666667","6500100","板橋區"
"220020","277-BY","2018/10/18 13:29:30","新北市板橋區華東街1-10號","121.448266666667","24.9950616666667","6500100","板橋區"
"220019","283-VK","2018/10/18 13:29:22","新北市板橋區華東街1-9號","121.448031666667","24.9949966666667","6500100","板橋區"
"220031","286-VK","2018/10/18 13:29:27","新北市板橋區華東街1-10號","121.448288333333","24.9951366666667","6500100","板橋區"
"220029","287-VK","2018/10/18 13:29:28","新北市板橋區華東街1-10號","121.448208333333","24.99502","6500100","板橋區"
"220010","295-UM","2018/10/18 13:29:31","新北市板橋區民生路二段120號","121.470458333333","25.0198583333333","6500100","板橋區"
"220032","296-UM","2018/10/18 13:29:31","新北市板橋區華東街1-9號","121.448115","24.9950233333333","6500100","板橋區"
"220023","303-R5","2018/10/18 13:29:21","新北市板橋區華東街1-10號","121.448211666667","24.99503","6500100","板橋區"
"220012","486-VK","2018/10/18 13:29:34","新北市板橋區南雅南路二段120號","121.45226","24.9995983333333","6500100","板橋區"
"220005","686-BX","2018/10/18 13:29:19","新北市板橋區華東街1-9號","121.448143333333","24.9950333333333","6500100","板橋區"
"220025","687-BX","2018/10/18 13:29:30","新北市板橋區篤行路一段37號","121.431931666667","24.9939966666667","6500100","板橋區"
"220014","829-TW","2018/10/18 13:29:13","新北市板橋區民生路二段161巷3號","121.470226666667","25.0197883333333","6500100","板橋區"
"220022","895-R6","2018/10/18 13:29:21","新北市板橋區南雅南路二段144巷4號","121.45134","24.996155","6500100","板橋區"
"220021","985-R7","2018/10/18 13:29:27","新北市板橋區華東街1-10號","121.448275","24.9950333333333","6500100","板橋區"
"235032","KEA-2873","2018/10/18 13:29:31","新北市中和區錦和路203巷9號","121.491283333333","24.9905233333333","6500300","中和區"
"235025","KEA-2875","2018/10/18 13:29:31","新北市中和區民享街93巷14號","121.475401666667","25.0010083333333","6500300","中和區"
