"lineid","car","time","location","longitude","latitude","cityid","cityname"
"234044","148-BY","2018/10/18 14:09:34","新北市永和區得和路352號","121.523795","24.9993783333333","6500400","永和區"
"234005","207-UY","2018/10/18 14:09:28","新北市中和區中和路265號","121.505328333333","24.9997633333333","6500400","永和區"
"234078","298-R6","2018/10/18 14:09:21","新北市永和區國中路109巷4弄1號","121.523983333333","25.0058916666667","6500400","永和區"
"234036","336-UY","2018/10/18 14:09:33","新北市永和區成功路一段59號","121.527091666667","25.0036233333333","6500400","永和區"
"234062","337-UY","2018/10/18 14:09:33","新北市永和區永利路156號","121.522585","25.0029666666667","6500400","永和區"
"234084","338-UY","2018/10/18 14:09:37","新北市永和區福和路285號","121.51741","25.0074016666667","6500400","永和區"
"234068","552-UM","2018/10/18 14:09:21","新北市永和區福和路183巷1號","121.51998","25.0074033333333","6500400","永和區"
"234015","745-BX","2018/10/18 14:09:20","新北市永和區仁愛路54號","121.513713333333","25.0134366666667","6500400","永和區"
"234028","746-BX","2018/10/18 14:09:18","新北市永和區民生路22巷36號","121.520811666667","24.99695","6500400","永和區"
"234052","KEA-2590","2018/10/18 14:09:23","新北市永和區博愛街47巷1號","121.519306666667","25.01605","6500400","永和區"
"234012","KEA-2591","2018/10/18 14:09:25","新北市永和區永貞路407號","121.507595","25.00915","6500400","永和區"
"234060","AAD-866","2018/10/18 14:09:28","新北市中和區安平路222號","121.514065","25.0000783333333","6500400","永和區"
"234040","862-TW","2018/10/18 14:09:23","新北市永和區雙和街30號","121.508943333333","25.00272","6500400","永和區"
"234048","863-TW","2018/10/18 14:09:20","新北市永和區新生路253號","121.505756666667","25.0133483333333","6500400","永和區"
"234025","9371-KE","2018/10/18 14:09:30","新北市永和區安樂路453號","121.514326666667","25.005015","6500400","永和區"
"234010","9373-KE","2018/10/18 14:09:29","新北市永和區仁愛路352巷122弄11號","121.500686666667","25.0088583333333","6500400","永和區"
"248015","026-BX","2018/10/18 14:09:30","新北市五股區成泰路三段543巷41-1號","121.449658333333","25.103025","6501500","五股區"
"248007","095-VK","2018/10/18 14:09:17","新北市五股區中興路一段118巷8號","121.46601","25.07397","6501500","五股區"
"248017","225-UY","2018/10/18 14:09:24","新北市五股區民義路一段222號","121.429381666667","25.090595","6501500","五股區"
"248011","247-BX","2018/10/18 14:09:27","新北市五股區工商路36巷18號","121.43983","25.0842933333333","6501500","五股區"
"248009","272-BY","2018/10/18 14:09:21","新北市五股區自強路90巷72號","121.43092","25.0712483333333","6501500","五股區"
"248003","677-BX","2018/10/18 14:09:30","新北市五股區六合街3號","121.431763333333","25.0885683333333","6501500","五股區"
"248001","678-BX","2018/10/18 14:09:30","新北市五股區成泰路三段577巷52號","121.450701666667","25.1032583333333","6501500","五股區"
"234022","9380-KE","2018/10/18 14:09:23","新北市永和區博愛街32巷17-1號","121.518881666667","25.0152816666667","6500400","永和區"
"234076","969-R7","2018/10/18 14:09:25","新北市永和區民族街67巷25號","121.519433333333","24.9971883333333","6500400","永和區"
"234072","AAC-211","2018/10/18 14:09:27","新北市永和區竹林路201巷24弄1號","121.522331666667","25.009725","6500400","永和區"
"234066","AAC-212","2018/10/18 14:09:31","新北市永和區保平路236巷1弄16號","121.508393333333","25.0055","6500400","永和區"
"234001","AAC-295","2018/10/18 14:09:35","新北市永和區中正路708號","121.516033333333","25.0099666666667","6500400","永和區"
"244003","248-BX","2018/10/18 14:09:20","新北市林口區汕頭32號","121.366838333333","25.135185","6501700","林口區"
"243005","AAD-798","2018/10/18 14:09:33","新北市泰山區台麗街16巷12號","121.424308333333","25.0376633333333","6501600","泰山區"
"243001","297-R6","2018/10/18 14:09:21","新北市泰山區文化街3號","121.433858333333","25.06382","6501600","泰山區"
"243008","KEA-2801","2018/10/18 14:09:33","新北市泰山區明志路二段363號","121.42537","25.0441733333333","6501600","泰山區"
"243007","421-VK","2018/10/18 14:09:31","新北市泰山區明志路一段509號","121.430528333333","25.0543166666667","6501600","泰山區"
"243003","KEA-2215","2018/10/18 14:09:25","新北市泰山區明志路二段368號","121.42555","25.0449316666667","6501600","泰山區"
"243002","KEA-2216","2018/10/18 14:09:26","新北市泰山區明志路一段458巷11號","121.429996666667","25.055815","6501600","泰山區"
"243004","646-TV","2018/10/18 14:09:27","新北市泰山區辭修路36巷1弄1號","121.42808","25.0583133333333","6501600","泰山區"
"243006","680-BX","2018/10/18 14:09:23","新北市泰山區泰林路二段382號","121.428195","25.0640216666667","6501600","泰山區"
"231002","002-UM","2018/10/18 14:09:33","新北市新店區中正路506號","121.53374","24.9828733333333","6500600","新店區"
"231028","046-UY","2018/10/18 14:09:32","新北市新店區安和路三段83號","121.517963333333","24.9837966666667","6500600","新店區"
"231001","047-UY","2018/10/18 14:09:21","新北市新店區中華路52號","121.5396","24.9684716666667","6500600","新店區"
"231010","107-UY","2018/10/18 14:09:27","新北市新店區安華路28-1號","121.51968","24.9609233333333","6500600","新店區"
"231021","108-UY","2018/10/18 14:09:16","新北市新店區自強路74巷8號","121.545465","24.9250566666667","6500600","新店區"
"231011","187-VK","2018/10/18 14:09:32","新北市新店區五峰路87號","121.546163333333","24.9673933333333","6500600","新店區"
"231023","KEA-2219","2018/10/18 14:09:27","新北市新店區文中路45號","121.53957","24.9566333333333","6500600","新店區"
"231003","268-BY","2018/10/18 14:09:20","新北市新店區中興路一段51號","121.539561666667","24.960225","6500600","新店區"
"231018","278-BY","2018/10/18 14:09:20","新北市新店區中央五街44號","121.528211666667","24.9749966666667","6500600","新店區"
"231017","AAD-862","2018/10/18 14:09:19","新北市新店區中生路125-1號","121.565876666667","24.9508016666667","6500600","新店區"
"231038","3712-VJ","2018/10/18 14:09:19","新北市新店區安康路一段222號","121.523751666667","24.96355","6500600","新店區"
"231027","3713-VJ","2018/10/18 14:09:14","新北市新店區光明街224巷20弄9號","121.54058","24.9621783333333","6500600","新店區"
"231037","4716-K9","2018/10/18 14:09:28","新北市新店區安康路三段165巷2弄12號","121.489008333333","24.951395","6500600","新店區"
"231025","4715-K9","2018/10/18 14:09:28","新北市新店區二十張路129巷5弄7號","121.536778333333","24.9789683333333","6500600","新店區"
"231036","512-UM","2018/10/18 14:09:16","新北市新店區安祥路109巷5號","121.475713333333","24.9589583333333","6500600","新店區"
"231013","513-UM","2018/10/18 14:09:30","新北市新店區北新路三段105巷11號","121.540628333333","24.9820416666667","6500600","新店區"
"231034","616-UM","2018/10/18 14:09:23","新北市新店區車子路11號","121.503078333333","24.952055","6500600","新店區"
"231006","617-UM","2018/10/18 14:09:33","新北市新店區北宜路二段118號","121.55675","24.953835","6500600","新店區"
"231005","618-UM","2018/10/18 14:09:29","新北市新店區中興路三段297號","121.542151666667","24.9851933333333","6500600","新店區"
"231030","619-UM","2018/10/18 14:09:35","新北市新店區安興路7號","121.514991666667","24.968285","6500600","新店區"
"231035","719-UM","2018/10/18 14:09:20","新北市新店區安和路二段68-7號","121.518228333333","24.968095","6500600","新店區"
"231031","720-UM","2018/10/18 14:09:28","新北市新店區太平路16號","121.533765","24.9582833333333","6500600","新店區"
"231029","897-TW","2018/10/18 14:09:30","新北市新店區安康路二段136號","121.512526666667","24.962005","6500600","新店區"
"231004","899-TW","2018/10/18 14:09:26","新北市新店區永華街1號","121.543105","24.9769","6500600","新店區"
"235030","003-UY","2018/10/18 14:09:18","新北市中和區廣福路32號","121.504571666667","25.002445","6500300","中和區"
"235028","005-UY","2018/10/18 14:09:15","新北市中和區泰和街2號","121.500068333333","25.001365","6500300","中和區"
"235027","006-UY","2018/10/18 14:09:30","新北市中和區連勝街121巷9號","121.495418333333","24.9944616666667","6500300","中和區"
"235020","096-UM","2018/10/18 14:09:28","新北市中和區員山路528號","121.478845","25.00976","6500300","中和區"
"235003","097-UM","2018/10/18 14:09:13","新北市中和區秀峰街64號","121.5206","24.99045","6500300","中和區"
"235029","098-UM","2018/10/18 14:09:22","新北市中和區中山路二段64巷3號","121.503566666667","25.0049066666667","6500300","中和區"
"235004","150-BY","2018/10/18 14:09:28","新北市中和區保健路44巷31號","121.508761666667","24.99635","6500300","中和區"
"235022","151-BY","2018/10/18 14:09:28","新北市中和區員山路92巷14號","121.481496666667","24.9943383333333","6500300","中和區"
"235019","183-VK","2018/10/18 14:09:34","新北市中和區德光路104號","121.468263333333","25.0032916666667","6500300","中和區"
"235002","185-VK","2018/10/18 14:09:28","新北市中和區大仁街10巷27弄4號","121.519248333333","24.9927183333333","6500300","中和區"
"235013","186-VK","2018/10/18 14:09:23","新北市中和區明禮街43號","121.504108333333","24.9964416666667","6500300","中和區"
"235031","255-BX","2018/10/18 14:09:29","新北市中和區新生街233巷10號","121.48442","24.9985733333333","6500300","中和區"
"235008","293-VK","2018/10/18 14:09:33","新北市中和區復興路348號","121.50007","24.9904583333333","6500300","中和區"
"235036","301-VK","2018/10/18 14:09:17","新北市中和區中山路二段134-5號","121.502211666667","25.0031983333333","6500300","中和區"
"235007","352-BY","2018/10/18 14:09:27","新北市中和區景平路106號","121.519816666667","24.9915583333333","6500300","中和區"
"235006","KEA-2878","2018/10/18 14:09:16","新北市中和區秀朗路三段22巷18號","121.525533333333","24.9962483333333","6500300","中和區"
"247011","KEA-2869","2018/10/18 14:09:24","新北市蘆洲區信義路268號","121.478063333333","25.0869366666667","6501400","蘆洲區"
"235014","4979-A6","2018/10/18 14:09:31","新北市中和區復興路79號","121.503588333333","24.9899883333333","6500300","中和區"
"235033","4980-A6","2018/10/18 14:09:32","新北市中和區中和路165巷20號","121.50342","25.000375","6500300","中和區"
"235034","558-UM","2018/10/18 14:09:15","新北市中和區中和路38號","121.499936666667","25.0014566666667","6500300","中和區"
"235009","565-BX","2018/10/18 14:09:30","新北市中和區景新街426號","121.513005","24.9888066666667","6500300","中和區"
"235018","640-BX","2018/10/18 14:09:31","新北市中和區國光街107巷2弄32號","121.46928","24.998995","6500300","中和區"
"235024","647-TV","2018/10/18 14:09:27","新北市中和區民享街34號","121.474043333333","25.0031833333333","6500300","中和區"
"235011","732-UM","2018/10/18 14:09:35","新北市中和區興南路一段77號","121.510023333333","24.989155","6500300","中和區"
"235010","733-UM","2018/10/18 14:09:30","新北市中和區忠孝街1巷44號","121.508471666667","24.98418","6500300","中和區"
"235035","783-BX","2018/10/18 14:09:22","新北市中和區立德街98巷117號","121.488855","25.0079483333333","6500300","中和區"
"235026","800-TS","2018/10/18 14:09:30","新北市中和區中山路二段345號","121.492116666667","25.0026683333333","6500300","中和區"
"235021","801-TS","2018/10/18 14:09:34","新北市中和區員山路271-1號","121.481333333333","24.99949","6500300","中和區"
"235016","805-TS","2018/10/18 14:09:17","新北市中和區興南路二段110號","121.504556666667","24.9841083333333","6500300","中和區"
"235012","896-TW","2018/10/18 14:09:29","新北市中和區工專路147號","121.508383333333","24.97886","6500300","中和區"
"235017","900-TW","2018/10/18 14:09:26","新北市中和區華福街71巷32號","121.467733333333","24.9969716666667","6500300","中和區"
"235015","157-BY","2018/10/18 14:09:29","新北市中和區興南路一段57-1號","121.51052","24.98983","6500300","中和區"
"235001","AAC-213","2018/10/18 14:09:34","新北市中和區秀朗路三段58-3號","121.52572","24.9952233333333","6500300","中和區"
"235023","AAC-215","2018/10/18 14:09:27","新北市中和區圓通路296巷31弄2號","121.488625","24.9905133333333","6500300","中和區"
"220016","013-TV","2018/10/18 13:42:43","新北市板橋區民生路二段120號","121.470353333333","25.0196233333333","6500100","板橋區"
"220104","015-TV","2018/10/18 14:09:19","新北市板橋區中正路379巷8號","121.453883333333","25.0217533333333","6500100","板橋區"
"220013","072-UY","2018/10/18 14:09:33","新北市板橋區民族路219巷5號","121.469381666667","25.0078083333333","6500100","板橋區"
"220034","073-UY","2018/10/18 14:09:37","新北市板橋區中正路216巷93號","121.45867","25.0192616666667","6500100","板橋區"
"220105","075-UY","2018/10/18 14:09:26","新北市板橋區雙十路三段14號","121.471658333333","25.0303366666667","6500100","板橋區"
"220017","AAD-861","2018/10/18 14:09:27","新北市板橋區貴興路5號","121.457741666667","25.00449","6500100","板橋區"
"247001","893-R6","2018/10/18 14:09:32","新北市蘆洲區永平街65號","121.457366666667","25.091585","6501400","蘆洲區"
"247015","546-UM","2018/10/18 14:09:35","新北市蘆洲區中正路185巷19號","121.467393333333","25.0847866666667","6501400","蘆洲區"
"247013","339-TH","2018/10/18 14:09:29","新北市蘆洲區保和街28號","121.470411666667","25.0865533333333","6501400","蘆洲區"
"247005","337-TH","2018/10/18 14:09:23","新北市蘆洲區九芎街93號","121.466171666667","25.0793516666667","6501400","蘆洲區"
"247007","336-TH","2018/10/18 14:09:20","新北市蘆洲區中山一路234號","121.472723333333","25.0803916666667","6501400","蘆洲區"
"247019","057-VK","2018/10/18 14:09:32","新北市蘆洲區民族路426巷52號","121.472826666667","25.0936116666667","6501400","蘆洲區"
"247009","056-VK","2018/10/18 14:09:19","新北市蘆洲區三民路52號","121.475343333333","25.08366","6501400","蘆洲區"
"247017","007-UY","2018/10/18 14:09:23","新北市蘆洲區復興路105巷11號","121.476283333333","25.0885283333333","6501400","蘆洲區"
"247003","002-UY","2018/10/18 14:09:30","新北市蘆洲區中華街6巷40號","121.462625","25.0823966666667","6501400","蘆洲區"
"247021","001-UY","2018/10/18 14:09:26","新北市蘆洲區三民路165號","121.471388333333","25.0870283333333","6501400","蘆洲區"
"235005","251-BX","2018/10/18 14:09:21","新北市中和區宜安路118巷14號","121.51059","24.9984616666667","6500300","中和區"
"228005","097-TW","2018/10/18 14:09:25","新北市雙溪區三港里雙澳路91號","121.888968333333","25.05724","6502600","貢寮區"
"228004","212-TW","2018/10/18 14:09:21","新北市貢寮區雙玉里德心街9-1號","121.918456666667","25.01596","6502600","貢寮區"
"253003","6232-TK","2018/10/18 14:09:35","新北市石門區阿里磅80號","121.584166666667","25.2673516666667","6502200","石門區"
"253004","6251-TK","2018/10/18 14:09:28","新北市石門區小坑45號","121.597031666667","25.260075","6502200","石門區"
"253002","637-UY","2018/10/18 14:09:20","新北市石門區豬槽潭8號","121.553586666667","25.2618833333333","6502200","石門區"
"253001","KEC-0718","2018/10/18 14:09:15","新北市三芝區新庄里新庄子96號","121.515556666667","25.2756483333333","6502200","石門區"
"207002","749-BX","2018/10/18 14:09:26","新北市萬里區溪底里富士坪路19號","121.62559","25.1488833333333","6502800","萬里區"
"207001","662-BX","2018/10/18 14:09:20","新北市萬里區磺潭里清水18號","121.637886666667","25.1977333333333","6502800","萬里區"
"252005","AAC-283","2018/10/18 14:09:27","新北市三芝區橫山里橫山45-1號","121.537876666667","25.2581683333333","6502100","三芝區"
"237012","275-BY","2018/10/18 14:09:16","新北市鶯歌區中正一路497號","121.37633","24.9619383333333","6500900","三峽區"
"236068","105-UM","2018/10/18 14:09:28","新北市土城區明德路一段146號","121.463288333333","24.97879","6501300","土城區"
"236040","107-UM","2018/10/18 14:09:23","新北市土城區中華路二段2號","121.439075","24.9798016666667","6501300","土城區"
"236074","166-UM","2018/10/18 14:09:20","新北市土城區永寧路35號","121.43028","24.9623516666667","6501300","土城區"
"236029","253-BX","2018/10/18 14:09:33","新北市土城區城林路6巷80號","121.438431666667","24.9797983333333","6501300","土城區"
"236024","269-VK","2018/10/18 14:09:25","新北市土城區承天路47號","121.438826666667","24.9639383333333","6501300","土城區"
"236012","270-VK","2018/10/18 14:09:25","新北市土城區學府路一段202號","121.452705","24.9856983333333","6501300","土城區"
"236032","271-VK","2018/10/18 14:09:23","新北市土城區明德路一段369號","121.45533","24.9780283333333","6501300","土城區"
"236017","401-BY","2018/10/18 14:09:23","新北市土城區城林路6巷80號","121.438393333333","24.9797916666667","6501300","土城區"
"236057","912-UM","2018/10/18 14:09:25","新北市土城區中央路四段216號","121.415693333333","24.9573333333333","6501300","土城區"
"236045","913-UM","2018/10/18 14:09:36","新北市土城區中正路75號","121.445178333333","24.97574","6501300","土城區"
"236060","915-UM","2018/10/18 14:09:24","新北市土城區金城路二段396號","121.463915","24.9857916666667","6501300","土城區"
"236054","AAC-216","2018/10/18 14:09:30","新北市土城區中華路二段80號","121.43868","24.9757233333333","6501300","土城區"
"242001","233-RS","2018/10/18 14:09:18","新北市新莊區中華路三段80號","121.452233333333","25.0559966666667","6500500","新莊區"
"221010","269-BY","2018/10/18 14:09:22","新北市汐止區長青路210巷52號","121.614866666667","25.1171433333333","6501100","汐止區"
"221033","647-BX","2018/10/18 14:09:20","新北市汐止區明峰街208號","121.627406666667","25.0693066666667","6501100","汐止區"
"220027","145-BY","2018/10/18 14:09:33","新北市板橋區民權路202巷9弄22號","121.459466666667","25.01572","6500100","板橋區"
"220028","200-UY","2018/10/18 14:03:30","新北市板橋區大觀路二段3巷87號","121.450143333333","25.0033866666667","6500100","板橋區"
"220030","610-BX","2018/10/18 14:09:31","新北市板橋區溪北路49號","121.42774","24.9900966666667","6500100","板橋區"
"220050","245-BX","2018/10/18 14:09:37","新北市板橋區莊敬路231巷1-2號","121.472208333333","25.0215216666667","6500100","板橋區"
"220004","276-BY","2018/10/18 14:09:27","新北市板橋區信義路110巷2弄13號","121.457638333333","24.9926433333333","6500100","板橋區"
"220020","277-BY","2018/10/18 14:09:30","新北市板橋區篤行路三段79-6號","121.42741","24.9850683333333","6500100","板橋區"
"220043","283-UM","2018/10/18 14:09:31","新北市板橋區光武街133號","121.465798333333","25.02902","6500100","板橋區"
"220019","283-VK","2018/10/18 14:09:22","新北市板橋區重慶路265號","121.463386666667","24.99992","6500100","板橋區"
"220001","285-VK","2018/10/18 14:09:29","新北市板橋區懷仁街24巷23號","121.47565","25.0191733333333","6500100","板橋區"
"220031","286-VK","2018/10/18 14:09:27","新北市板橋區大觀路二段174巷175號","121.441951666667","25.0036483333333","6500100","板橋區"
"220029","287-VK","2018/10/18 14:09:28","新北市板橋區南雅西路二段156巷2號","121.451738333333","25.0133933333333","6500100","板橋區"
"220039","288-VK","2018/10/18 14:09:34","新北市板橋區裕民街54號","121.461463333333","25.0286933333333","6500100","板橋區"
"220009","293-UM","2018/10/18 14:09:34","新北市板橋區三民路二段21巷2號","121.479693333333","25.018145","6500100","板橋區"
"220010","295-UM","2018/10/18 14:09:31","新北市板橋區三民路二段居仁巷1弄24號","121.480036666667","25.0135716666667","6500100","板橋區"
"220032","296-UM","2018/10/18 14:09:11","新北市板橋區篤行路一段18號","121.432061666667","24.9949666666667","6500100","板橋區"
"220023","303-R5","2018/10/18 14:09:21","新北市板橋區府中路171號","121.454828333333","25.0092933333333","6500100","板橋區"
"220041","307-R5","2018/10/18 14:09:33","新北市板橋區文化路二段225巷60弄44號","121.469225","25.0294283333333","6500100","板橋區"
"220047","317-R6","2018/10/18 14:09:28","新北市板橋區自由路60-3號","121.465713333333","25.02366","6500100","板橋區"
"220028","461-BY","2018/10/18 14:09:24","新北市板橋區國光路185號","121.460965","25.01854","6500100","板橋區"
"220012","486-VK","2018/10/18 14:09:34","新北市板橋區長安街236-3號","121.475446666667","25.01261","6500100","板橋區"
"220038","487-VK","2018/10/18 14:09:20","新北市板橋區文化路二段357號","121.472915","25.03077","6500100","板橋區"
"220037","491-VK","2018/10/18 14:09:27","新北市板橋區莊敬路38號","121.47277","25.0269966666667","6500100","板橋區"
"220052","561-BX","2018/10/18 14:09:30","新北市板橋區文化路一段188巷9弄126號","121.469211666667","25.018955","6500100","板橋區"
"220011","609-BX","2018/10/18 14:09:28","新北市板橋區三民路二段115號","121.479295","25.0158033333333","6500100","板橋區"
"220040","637-BX","2018/10/18 14:09:30","新北市板橋區縣民大道三段247巷16號","121.481816666667","25.0263333333333","6500100","板橋區"
"220005","686-BX","2018/10/18 14:09:19","新北市板橋區重慶路293-1號","121.46328","24.9991616666667","6500100","板橋區"
"220025","687-BX","2018/10/18 14:09:31","新北市板橋區龍興街71巷1號","121.443795","25.001775","6500100","板橋區"
"220042","689-BX","2018/10/18 14:09:29","新北市板橋區民生路三段161號","121.46572","25.0268833333333","6500100","板橋區"
"220002","741-BX","2018/10/18 14:09:32","新北市板橋區重慶路69巷5-2號","121.462296666667","25.00694","6500100","板橋區"
"220051","KEA-2699","2018/10/18 14:09:31","新北市板橋區田單街51號","121.482648333333","25.027965","6500100","板橋區"
"220003","827-TW","2018/10/18 14:09:17","新北市板橋區中山路一段134號","121.46348","25.0108466666667","6500100","板橋區"
"220014","829-TW","2018/10/18 14:09:34","新北市板橋區民享街116巷2弄10號","121.477581666667","25.0156783333333","6500100","板橋區"
"220016","830-TW","2018/10/18 14:09:21","新北市板橋區翠華街6巷30號","121.481398333333","25.0242383333333","6500100","板橋區"
"220045","831-TW","2018/10/18 14:09:31","新北市板橋區大同街2號","121.476843333333","25.02679","6500100","板橋區"
"220022","895-R6","2018/10/18 14:09:21","新北市板橋區府中路98號","121.456053333333","25.0096466666667","6500100","板橋區"
"220021","985-R7","2018/10/18 14:09:27","新北市板橋區民權路248號","121.45832","25.0145683333333","6500100","板橋區"
"220046","AAC-210","2018/10/18 14:09:32","新北市板橋區幸福路70巷32號","121.460196666667","25.0209666666667","6500100","板橋區"
"220018","AAC-253","2018/10/18 14:09:37","新北市板橋區忠孝路19號","121.460383333333","25.0019183333333","6500100","板橋區"
"235032","KEA-2873","2018/10/18 14:09:31","新北市中和區圓通路158巷3-1號","121.497666666667","24.996205","6500300","中和區"
"235025","KEA-2875","2018/10/18 14:09:31","新北市中和區連城路430號","121.48004","24.9949966666667","6500300","中和區"
