"lineid","car","time","location","longitude","latitude","cityid","cityname"
"234044","148-BY","2018/10/18 14:19:34","新北市永和區成功路一段2號","121.526908333333","25.0055766666667","6500400","永和區"
"234005","207-UY","2018/10/18 14:19:28","新北市永和區中正路664號","121.516853333333","25.008915","6500400","永和區"
"234078","298-R6","2018/10/18 14:19:32","新北市永和區國中路132巷11號","121.523813333333","25.00753","6500400","永和區"
"234036","336-UY","2018/10/18 14:19:31","新北市永和區成功路一段103號","121.526958333333","25.0025233333333","6500400","永和區"
"234062","337-UY","2018/10/18 14:19:33","新北市永和區中正路340號","121.517963333333","25.0001283333333","6500400","永和區"
"234084","338-UY","2018/10/18 14:19:31","新北市永和區中正路641號","121.515331666667","25.0100316666667","6500400","永和區"
"234068","552-UM","2018/10/18 14:19:00","新北市永和區福和路263巷13號","121.517993333333","25.0065666666667","6500400","永和區"
"234028","746-BX","2018/10/18 14:19:21","新北市永和區民權路49巷5弄25號","121.521195","24.99786","6500400","永和區"
"234052","KEA-2590","2018/10/18 14:19:23","新北市永和區光復街2巷5號","121.516801666667","25.0166033333333","6500400","永和區"
"234012","KEA-2591","2018/10/18 14:19:36","新北市永和區保生路58號","121.505423333333","25.0088","6500400","永和區"
"234060","AAD-866","2018/10/18 14:19:28","新北市永和區安樂路192號","121.51524","25.0012866666667","6500400","永和區"
"234040","862-TW","2018/10/18 14:19:23","新北市中和區安平路164號","121.512756666667","24.9986933333333","6500400","永和區"
"234048","863-TW","2018/10/18 14:19:20","新北市永和區保安路2號","121.510826666667","25.0174716666667","6500400","永和區"
"234025","9371-KE","2018/10/18 14:19:30","新北市永和區安樂路198巷1弄3號","121.515401666667","25.001865","6500400","永和區"
"248015","026-BX","2018/10/18 14:19:30","新北市五股區成洲五路12號","121.452298333333","25.101585","6501500","五股區"
"248007","095-VK","2018/10/18 14:19:17","新北市五股區中興路二段83巷26-6號","121.459945","25.07534","6501500","五股區"
"248017","225-UY","2018/10/18 14:19:24","新北市五股區壟路7-3號","121.416063333333","25.08922","6501500","五股區"
"248011","247-BX","2018/10/18 14:19:27","新北市五股區中興路四段56號","121.437758333333","25.08315","6501500","五股區"
"248009","272-BY","2018/10/18 14:19:21","新北市五股區水碓一路23號","121.43067","25.0713483333333","6501500","五股區"
"248003","677-BX","2018/10/18 14:19:30","新北市五股區五福路101號","121.432218333333","25.0906","6501500","五股區"
"248001","678-BX","2018/10/18 14:19:30","新北市五股區成泰路四段9號","121.452983333333","25.1065166666667","6501500","五股區"
"234076","969-R7","2018/10/18 14:19:25","新北市永和區民族街81巷32號","121.519226666667","24.99658","6500400","永和區"
"234072","AAC-211","2018/10/18 14:19:27","新北市永和區豫溪街191巷7弄22號","121.52326","25.01105","6500400","永和區"
"234066","AAC-212","2018/10/18 14:19:29","新北市永和區保平路292巷42號","121.507573333333","25.0052783333333","6500400","永和區"
"234001","AAC-295","2018/10/18 14:19:14","新北市永和區中正路618-1號","121.516915","25.0077633333333","6500400","永和區"
"244003","248-BX","2018/10/18 14:19:20","新北市林口區嘉寶里42號","121.333745","25.1228233333333","6501700","林口區"
"243005","AAD-798","2018/10/18 14:19:33","新北市泰山區明志路三段145巷11弄1號","121.425688333333","25.0398466666667","6501600","泰山區"
"243001","297-R6","2018/10/18 14:19:37","新北市五股區成泰路一段7巷42號","121.43252","25.0671583333333","6501600","泰山區"
"243008","KEA-2801","2018/10/18 14:19:20","新北市泰山區工專路8號","121.423946666667","25.0395366666667","6501600","泰山區"
"243007","421-VK","2018/10/18 14:19:31","新北市泰山區明志路二段61號","121.429168333333","25.0526383333333","6501600","泰山區"
"243003","KEA-2215","2018/10/18 14:19:25","新北市泰山區貴子路13-2號","121.426233333333","25.0417216666667","6501600","泰山區"
"243002","KEA-2216","2018/10/18 14:19:26","新北市泰山區明志路二段7巷20號","121.430818333333","25.0533116666667","6501600","泰山區"
"243004","646-TV","2018/10/18 14:19:34","新北市泰山區仁義路226號","121.43305","25.0535516666667","6501600","泰山區"
"243006","680-BX","2018/10/18 14:19:23","新北市泰山區泰林路二段94號","121.43485","25.058785","6501600","泰山區"
"231002","002-UM","2018/10/18 14:19:33","新北市新店區中央路45號","121.532746666667","24.97758","6500600","新店區"
"231028","046-UY","2018/10/18 14:19:31","新北市新店區安和路二段219號","121.517496666667","24.9756883333333","6500600","新店區"
"231001","047-UY","2018/10/18 14:19:21","新北市新店區北新路一段96巷23號","121.542998333333","24.9688883333333","6500600","新店區"
"231021","108-UY","2018/10/18 14:19:36","新北市新店區屈尺路11號","121.549318333333","24.92223","6500600","新店區"
"231011","187-VK","2018/10/18 14:19:32","新北市新店區五峰路63巷8弄44號","121.547963333333","24.9685633333333","6500600","新店區"
"231023","KEA-2219","2018/10/18 14:19:27","新北市新店區光明街100號","121.538985","24.9605716666667","6500600","新店區"
"231003","268-BY","2018/10/18 14:19:17","新北市新店區中興路一段191號","121.543253333333","24.9650683333333","6500600","新店區"
"231018","278-BY","2018/10/18 14:19:20","新北市新店區中央四街39號","121.528233333333","24.974755","6500600","新店區"
"231017","AAD-862","2018/10/18 14:19:31","新北市新店區北宜路三段100號","121.579703333333","24.9504933333333","6500600","新店區"
"231038","3712-VJ","2018/10/18 14:19:19","新北市新店區溪洲路6巷1-3號","121.533896666667","24.9611016666667","6500600","新店區"
"231027","3713-VJ","2018/10/18 14:19:34","新北市新店區北新路二段228巷1號","121.542916666667","24.977655","6500600","新店區"
"231037","4716-K9","2018/10/18 14:19:28","新北市新店區安康路二段408號","121.496751666667","24.95529","6500600","新店區"
"231036","512-UM","2018/10/18 14:19:16","新北市新店區安祥路109巷1弄25號","121.476425","24.9600416666667","6500600","新店區"
"231013","513-UM","2018/10/18 14:19:30","新北市新店區大豐路52號","121.539913333333","24.9798916666667","6500600","新店區"
"231034","616-UM","2018/10/18 14:19:23","新北市新店區車子路11號","121.50306","24.9520633333333","6500600","新店區"
"231006","617-UM","2018/10/18 14:19:33","新北市新店區北宜路二段599號","121.568111666667","24.9556033333333","6500600","新店區"
"231005","618-UM","2018/10/18 14:19:29","新北市新店區中興路三段221-1號","121.54344","24.982585","6500600","新店區"
"231030","619-UM","2018/10/18 14:19:21","新北市新店區安民街3巷25號","121.513978333333","24.9641966666667","6500600","新店區"
"231035","719-UM","2018/10/18 14:19:20","新北市新店區安和路二段113巷3弄5號","121.518055","24.9699433333333","6500600","新店區"
"231031","720-UM","2018/10/18 14:19:28","新北市新店區碧潭路123號","121.534151666667","24.9590216666667","6500600","新店區"
"231029","897-TW","2018/10/18 14:19:30","新北市新店區安康路二段240號","121.509206666667","24.9591683333333","6500600","新店區"
"231004","899-TW","2018/10/18 14:19:26","新北市新店區中正路132號","121.542043333333","24.9714083333333","6500600","新店區"
"231024","AKT-0513","2018/10/18 14:19:29","新北市新店區薏仁坑路6號","121.500258333333","24.9580183333333","6500600","新店區"
"235030","003-UY","2018/10/18 14:19:18","新北市中和區中和路102號","121.502633333333","24.9997383333333","6500300","中和區"
"235028","005-UY","2018/10/18 14:19:36","新北市中和區南山路81巷19號","121.502538333333","24.99817","6500300","中和區"
"235027","006-UY","2018/10/18 14:19:30","新北市中和區連城路219巷9號","121.494851666667","24.9966616666667","6500300","中和區"
"235020","096-UM","2018/10/18 14:19:28","新北市中和區員山路541號","121.47958","25.0072166666667","6500300","中和區"
"235003","097-UM","2018/10/18 14:19:13","新北市中和區秀峰街103巷2弄1號","121.520503333333","24.99017","6500300","中和區"
"235029","098-UM","2018/10/18 14:19:33","新北市中和區中山路二段2巷13弄2號","121.503565","25.0066683333333","6500300","中和區"
"235004","150-BY","2018/10/18 14:19:28","新北市中和區保健路106巷12弄13號","121.510985","24.9956683333333","6500300","中和區"
"235022","151-BY","2018/10/18 14:19:18","新北市中和區員山路36巷16-2號","121.485281666667","24.9916983333333","6500300","中和區"
"235019","183-VK","2018/10/18 14:19:34","新北市中和區莒光路3巷5號","121.472095","25.006155","6500300","中和區"
"235002","185-VK","2018/10/18 14:19:28","新北市中和區大仁街10巷53號","121.52004","24.9925066666667","6500300","中和區"
"235013","186-VK","2018/10/18 14:19:23","新北市中和區景新街228-5號","121.508065","24.9942516666667","6500300","中和區"
"235031","255-BX","2018/10/18 14:19:29","新北市中和區連城路280號","121.484525","24.9963033333333","6500300","中和區"
"235008","293-VK","2018/10/18 14:19:33","新北市中和區中興街189號","121.500528333333","24.98999","6500300","中和區"
"235036","301-VK","2018/10/18 14:19:28","新北市中和區福美路315號","121.496801666667","25.0046666666667","6500300","中和區"
"235007","352-BY","2018/10/18 14:19:27","新北市中和區景平路310號","121.512541666667","24.9926583333333","6500300","中和區"
"235006","KEA-2878","2018/10/18 14:19:36","新北市中和區大勇街60巷6號","121.51853","24.994705","6500300","中和區"
"247011","KEA-2869","2018/10/18 14:19:29","新北市蘆洲區民權路3巷18號","121.475683333333","25.08533","6501400","蘆洲區"
"235014","4979-A6","2018/10/18 14:19:31","新北市中和區景安路208巷4號","121.503703333333","24.9911016666667","6500300","中和區"
"235033","4980-A6","2018/10/18 14:19:33","新北市中和區景平路736巷1弄10號","121.497388333333","25.0039566666667","6500300","中和區"
"235034","558-UM","2018/10/18 14:19:36","新北市中和區景平路694號","121.496958333333","25.0018383333333","6500300","中和區"
"235009","565-BX","2018/10/18 14:19:29","新北市中和區景新街423巷33弄1號","121.513858333333","24.9898116666667","6500300","中和區"
"235018","640-BX","2018/10/18 14:19:31","新北市中和區國光街103號","121.470135","25.0003616666667","6500300","中和區"
"235024","647-TV","2018/10/18 14:19:27","新北市中和區中山路三段100號","121.47718","25.0057766666667","6500300","中和區"
"235011","732-UM","2018/10/18 14:19:30","新北市中和區和平街54巷3弄2號","121.508756666667","24.9911833333333","6500300","中和區"
"235010","733-UM","2018/10/18 14:19:30","新北市中和區華新街170號","121.507315","24.982245","6500300","中和區"
"235035","783-BX","2018/10/18 14:19:22","新北市中和區建一路66號","121.487703333333","25.0036316666667","6500300","中和區"
"235026","800-TS","2018/10/18 14:19:30","新北市中和區橋和路121號","121.491868333333","25.0059083333333","6500300","中和區"
"235021","801-TS","2018/10/18 14:19:34","新北市中和區員山路457號","121.480528333333","25.0043616666667","6500300","中和區"
"235016","805-TS","2018/10/18 14:19:37","新北市中和區興南路二段242巷20號","121.502185","24.9832683333333","6500300","中和區"
"235012","896-TW","2018/10/18 14:19:29","新北市中和區華新街109巷5號","121.509101666667","24.98207","6500300","中和區"
"235017","900-TW","2018/10/18 14:19:26","新北市中和區華安街17巷41-3號","121.467866666667","24.9984516666667","6500300","中和區"
"235015","157-BY","2018/10/18 14:19:29","新北市中和區捷運路58-3號","121.50733","24.9908866666667","6500300","中和區"
"235001","AAC-213","2018/10/18 14:19:34","新北市中和區秀朗路三段10巷37弄4號","121.524088333333","24.9958833333333","6500300","中和區"
"235023","AAC-215","2018/10/18 14:19:27","新北市中和區圓通路286巷16-5號","121.491596666667","24.9915483333333","6500300","中和區"
"220104","015-TV","2018/10/18 14:19:19","新北市板橋區中正路433巷27號","121.453236666667","25.02362","6500100","板橋區"
"220013","072-UY","2018/10/18 14:19:13","新北市板橋區民族路170巷16號","121.467108333333","25.0072916666667","6500100","板橋區"
"220034","073-UY","2018/10/18 14:19:17","新北市板橋區中正路250巷13號","121.45617","25.0194983333333","6500100","板橋區"
"220105","075-UY","2018/10/18 14:19:26","新北市板橋區雙十路三段70巷2號","121.470305","25.0323883333333","6500100","板橋區"
"220017","AAD-861","2018/10/18 14:19:28","新北市板橋區華興街31巷18號","121.45836","25.0038616666667","6500100","板橋區"
"247001","893-R6","2018/10/18 14:19:32","新北市蘆洲區永樂街83號","121.455921666667","25.0887816666667","6501400","蘆洲區"
"247015","546-UM","2018/10/18 14:19:35","新北市蘆洲區中正路185巷31弄48號","121.467291666667","25.082955","6501400","蘆洲區"
"247013","339-TH","2018/10/18 14:19:29","新北市蘆洲區三民路3號","121.475893333333","25.0819433333333","6501400","蘆洲區"
"247005","337-TH","2018/10/18 14:19:23","新北市蘆洲區九芎街90巷8號","121.465723333333","25.0802416666667","6501400","蘆洲區"
"247007","336-TH","2018/10/18 14:19:20","新北市蘆洲區信義路34巷3號","121.47454","25.0793133333333","6501400","蘆洲區"
"247019","057-VK","2018/10/18 14:19:32","新北市蘆洲區民族路448號","121.472576666667","25.09201","6501400","蘆洲區"
"247009","056-VK","2018/10/18 14:19:18","新北市蘆洲區三民路26巷24號","121.477548333333","25.0829466666667","6501400","蘆洲區"
"247017","007-UY","2018/10/18 14:19:23","新北市蘆洲區民權路70號","121.474976666667","25.087345","6501400","蘆洲區"
"247003","002-UY","2018/10/18 14:19:25","新北市蘆洲區長安街174號","121.459148333333","25.08332","6501400","蘆洲區"
"247021","001-UY","2018/10/18 14:19:25","新北市蘆洲區民族路502號","121.469521666667","25.090415","6501400","蘆洲區"
"235005","251-BX","2018/10/18 14:19:21","新北市中和區宜安路67號","121.511226666667","24.9972166666667","6500300","中和區"
"228005","097-TW","2018/10/18 14:19:25","新北市貢寮區美豐里土地公嶺54號","121.894526666667","25.06502","6502600","貢寮區"
"228004","212-TW","2018/10/18 14:19:31","新北市貢寮區雙玉里田寮洋街39號","121.925081666667","25.0139766666667","6502600","貢寮區"
"253003","6232-TK","2018/10/18 14:19:35","新北市石門區尖子鹿31-1號","121.579361666667","25.2669916666667","6502200","石門區"
"253004","6251-TK","2018/10/18 14:19:08","新北市石門區坪林50號","121.588406666667","25.2690283333333","6502200","石門區"
"253002","637-UY","2018/10/18 14:19:20","新北市石門區大溪墘6-2號","121.551208333333","25.2781233333333","6502200","石門區"
"253001","KEC-0718","2018/10/18 14:19:15","新北市石門區八甲53-2號","121.521325","25.275585","6502200","石門區"
"207002","749-BX","2018/10/18 14:19:26","新北市萬里區溪底里瑞泉路13號","121.604421666667","25.1453416666667","6502800","萬里區"
"207001","662-BX","2018/10/18 14:19:20","新北市萬里區磺潭里清水18號","121.637875","25.1977416666667","6502800","萬里區"
"252005","AAC-283","2018/10/18 14:19:27","新北市三芝區橫山里橫山21號","121.539573333333","25.2627783333333","6502100","三芝區"
"237012","275-BY","2018/10/18 14:19:36","新北市三峽區中山路459巷137號","121.349958333333","24.9337366666667","6500900","三峽區"
"236068","105-UM","2018/10/18 14:19:28","新北市土城區明德路一段137-4號","121.465353333333","24.9807666666667","6501300","土城區"
"236040","107-UM","2018/10/18 14:19:26","新北市土城區裕生路21巷2弄31號","121.448171666667","24.9861","6501300","土城區"
"236074","166-UM","2018/10/18 14:19:20","新北市土城區永安街115巷38弄2號","121.428633333333","24.9627266666667","6501300","土城區"
"236029","253-BX","2018/10/18 14:19:33","新北市土城區順風路64-2號","121.440245","24.9774183333333","6501300","土城區"
"236024","269-VK","2018/10/18 14:19:25","新北市土城區承天路43巷4號","121.438971666667","24.96412","6501300","土城區"
"236012","270-VK","2018/10/18 14:19:25","新北市土城區青雲路39巷7號","121.460325","24.9875583333333","6501300","土城區"
"236032","271-VK","2018/10/18 14:19:24","新北市土城區青雲路483巷3號","121.459453333333","24.9739483333333","6501300","土城區"
"236017","401-BY","2018/10/18 14:19:23","新北市土城區金城路二段392號","121.46368","24.985705","6501300","土城區"
"236057","912-UM","2018/10/18 14:19:25","新北市土城區中央路四段462號","121.410296666667","24.9508566666667","6501300","土城區"
"236045","913-UM","2018/10/18 14:19:36","新北市土城區明德路一段288-2號","121.456548333333","24.9776916666667","6501300","土城區"
"236060","915-UM","2018/10/18 14:19:24","新北市土城區延壽路44巷15號","121.471463333333","24.9929316666667","6501300","土城區"
"236054","AAC-216","2018/10/18 14:19:30","新北市土城區中華路二段114號","121.437885","24.9740333333333","6501300","土城區"
"242001","233-RS","2018/10/18 14:19:18","新北市五股區成泰路一段98巷8號","121.43779","25.07185","6500500","新莊區"
"221010","269-BY","2018/10/18 14:19:22","新北市汐止區長青路192巷32號","121.610735","25.1136083333333","6501100","汐止區"
"221032","280-BY","2018/10/18 14:19:24","新北市汐止區大同路二段169巷22弄32號","121.651776666667","25.0654283333333","6501100","汐止區"
"221033","647-BX","2018/10/18 14:19:20","新北市汐止區樟樹二路251巷46號","121.640415","25.06703","6501100","汐止區"
"220027","145-BY","2018/10/18 14:19:33","新北市板橋區民權路260巷46號","121.45962","25.015195","6500100","板橋區"
"220028","200-UY","2018/10/18 14:19:10","新北市板橋區大觀路一段75巷4號","121.447288333333","25.004105","6500100","板橋區"
"220030","610-BX","2018/10/18 14:19:31","新北市板橋區溪城路115號","121.427468333333","24.982585","6500100","板橋區"
"220050","245-BX","2018/10/18 14:19:37","新北市板橋區莊敬路9號","121.474065","25.0280766666667","6500100","板橋區"
"220004","276-BY","2018/10/18 14:19:27","新北市板橋區信義路162號","121.459326666667","24.9914783333333","6500100","板橋區"
"220020","277-BY","2018/10/18 14:19:30","新北市板橋區金門街268號","121.429825","24.9864566666667","6500100","板橋區"
"220043","283-UM","2018/10/18 14:19:21","新北市板橋區吳鳳路82號","121.466941666667","25.0313083333333","6500100","板橋區"
"220019","283-VK","2018/10/18 14:19:22","新北市板橋區忠孝路48巷9弄2號","121.461238333333","25.0000333333333","6500100","板橋區"
"220001","285-VK","2018/10/18 14:19:35","新北市板橋區富山街12號","121.478576666667","25.0217816666667","6500100","板橋區"
"220031","286-VK","2018/10/18 14:19:27","新北市板橋區龍興街95巷27-2號","121.443","25.002945","6500100","板橋區"
"220029","287-VK","2018/10/18 14:19:28","新北市板橋區南雅西路一段61號","121.453483333333","25.0054833333333","6500100","板橋區"
"220039","288-VK","2018/10/18 14:19:34","新北市板橋區長江路一段106巷13弄3號","121.460233333333","25.0291816666667","6500100","板橋區"
"220009","293-UM","2018/10/18 14:19:28","新北市板橋區中山路二段326-5號","121.481195","25.0194266666667","6500100","板橋區"
"220010","295-UM","2018/10/18 14:19:31","新北市板橋區三民路二段153巷36弄2號","121.481181666667","25.0141216666667","6500100","板橋區"
"220032","296-UM","2018/10/18 14:19:31","新北市板橋區溪崑二街56巷3號","121.427975","24.9913216666667","6500100","板橋區"
"220023","303-R5","2018/10/18 14:19:21","新北市板橋區南雅南路一段4巷14號","121.454608333333","25.0052833333333","6500100","板橋區"
"220041","307-R5","2018/10/18 14:19:33","新北市板橋區松江街68號","121.46874","25.0277066666667","6500100","板橋區"
"220047","317-R6","2018/10/18 14:19:28","新北市板橋區四維路266巷2弄25-1號","121.464093333333","25.028195","6500100","板橋區"
"220028","461-BY","2018/10/18 14:19:24","新北市板橋區南雅西路二段1號","121.453046666667","25.008845","6500100","板橋區"
"220012","486-VK","2018/10/18 14:19:34","新北市板橋區漢生東路83巷2-1號","121.466993333333","25.015935","6500100","板橋區"
"220038","487-VK","2018/10/18 14:19:20","新北市板橋區文化路一段220號","121.466533333333","25.0205366666667","6500100","板橋區"
"220037","491-VK","2018/10/18 14:19:26","新北市板橋區雙十路二段239號","121.472756666667","25.02899","6500100","板橋區"
"220052","561-BX","2018/10/18 14:19:17","新北市板橋區文化路一段188巷7弄14號","121.467581666667","25.0196983333333","6500100","板橋區"
"220011","609-BX","2018/10/18 14:19:28","新北市板橋區三民路二段203-4號","121.479063333333","25.013525","6500100","板橋區"
"220040","637-BX","2018/10/18 14:19:30","新北市板橋區文聖街231號","121.480643333333","25.0255766666667","6500100","板橋區"
"220005","686-BX","2018/10/18 14:19:19","新北市板橋區國慶路182巷22號","121.46308","24.9958333333333","6500100","板橋區"
"220025","687-BX","2018/10/18 14:19:30","新北市板橋區大觀路二段文和巷55-1號","121.443023333333","24.9989066666667","6500100","板橋區"
"220042","689-BX","2018/10/18 14:19:26","新北市板橋區漢生西路79巷2號","121.462705","25.0193733333333","6500100","板橋區"
"220002","741-BX","2018/10/18 14:19:32","新北市板橋區重慶路141號","121.462345","25.0043566666667","6500100","板橋區"
"220051","KEA-2699","2018/10/18 14:19:31","新北市板橋區文聖街89巷2號","121.477541666667","25.0298733333333","6500100","板橋區"
"220003","827-TW","2018/10/18 14:19:31","新北市板橋區新民街13號","121.463981666667","25.0099133333333","6500100","板橋區"
"220014","829-TW","2018/10/18 14:19:14","新北市板橋區長安街138巷1弄39號","121.473941666667","25.0102083333333","6500100","板橋區"
"220016","830-TW","2018/10/18 14:19:21","新北市板橋區林森街1巷4號","121.482161666667","25.0241083333333","6500100","板橋區"
"220045","831-TW","2018/10/18 14:19:34","新北市板橋區大同街26巷33號","121.478641666667","25.026375","6500100","板橋區"
"220022","895-R6","2018/10/18 14:19:31","新北市板橋區府中路56號","121.457031666667","25.009625","6500100","板橋區"
"220021","985-R7","2018/10/18 14:19:27","新北市板橋區中正路377號","121.45443","25.02132","6500100","板橋區"
"220046","AAC-210","2018/10/18 14:19:32","新北市板橋區幸福路60巷32號","121.460271666667","25.0216","6500100","板橋區"
"220018","AAC-253","2018/10/18 14:19:18","新北市板橋區忠孝路181號","121.46426","25.0027116666667","6500100","板橋區"
"235032","KEA-2873","2018/10/18 14:19:31","新北市中和區南山路27號","121.50211","24.9989616666667","6500300","中和區"
"235025","KEA-2875","2018/10/18 14:19:31","新北市中和區民利街73號","121.478563333333","24.9982916666667","6500300","中和區"
