"lineid","car","time","location","longitude","latitude","cityid","cityname"
"234028","746-BX","2018/10/18 14:48:58","新北市中和區景平路472號","121.50547","24.9936333333333","6500400","永和區"
"234025","9371-KE","2018/10/18 14:49:03","新北市永和區雙和街5號","121.509691666667","25.0017283333333","6500400","永和區"
"248013","025-BX","2018/10/18 14:49:11","新北市五股區五福路22巷5號","121.434523333333","25.0890333333333","6501500","五股區"
"248015","026-BX","2018/10/18 14:49:10","新北市五股區成泰路三段577巷80弄25號","121.449581666667","25.104625","6501500","五股區"
"248007","095-VK","2018/10/18 14:48:57","新北市五股區國道路三段7-1號","121.469525","25.0751716666667","6501500","五股區"
"248017","225-UY","2018/10/18 14:32:06","新北市五股區外寮路13-1號","121.424805","25.0812566666667","6501500","五股區"
"248011","247-BX","2018/10/18 14:49:07","新北市五股區民義路一段212號","121.430546666667","25.0894933333333","6501500","五股區"
"248009","272-BY","2018/10/18 14:49:01","新北市五股區登林路92-2號","121.428636666667","25.0694616666667","6501500","五股區"
"248003","677-BX","2018/10/18 14:48:50","新北市五股區成泰路一段110-7號","121.43565","25.0723966666667","6501500","五股區"
"248001","678-BX","2018/10/18 14:49:10","新北市五股區新城八路313號","121.4458","25.092305","6501500","五股區"
"244003","248-BX","2018/10/18 14:41:21","新北市林口區林口路76號","121.389681666667","25.0806766666667","6501700","林口區"
"243005","AAD-798","2018/10/18 14:48:53","新北市泰山區明志路三段72號","121.42484","25.04183","6501600","泰山區"
"243001","297-R6","2018/10/18 14:48:57","新北市泰山區泰林路二段109-1號","121.434536666667","25.059235","6501600","泰山區"
"243008","KEA-2801","2018/10/18 14:49:00","新北市泰山區貴陽街13號","121.421573333333","25.0333216666667","6501600","泰山區"
"243007","421-VK","2018/10/18 14:49:05","新北市泰山區明志路一段248號","121.432326666667","25.06086","6501600","泰山區"
"243003","KEA-2215","2018/10/18 14:49:05","新北市新莊區丹鳳街36號","121.421643333333","25.0295616666667","6501600","泰山區"
"243002","KEA-2216","2018/10/18 14:49:06","新北市泰山區明志路二段273巷16弄25號","121.427773333333","25.0464633333333","6501600","泰山區"
"243004","646-TV","2018/10/18 14:48:54","新北市泰山區楓江路57號","121.435821666667","25.0626983333333","6501600","泰山區"
"243006","680-BX","2018/10/18 14:49:03","新北市泰山區泰林路二段304號","121.430743333333","25.062795","6501600","泰山區"
"231002","002-UM","2018/10/18 14:48:53","新北市新店區民權路102號","121.536013333333","24.982915","6500600","新店區"
"231028","046-UY","2018/10/18 14:49:11","新北市新店區安德街60巷35號","121.511173333333","24.9635266666667","6500600","新店區"
"231001","047-UY","2018/10/18 14:49:01","新北市新店區三民路38號","121.53634","24.9714316666667","6500600","新店區"
"231021","108-UY","2018/10/18 14:48:56","新北市新店區屈尺路6號","121.549458333333","24.9227866666667","6500600","新店區"
"231011","187-VK","2018/10/18 14:49:12","新北市新店區寶橋路160號","121.548995","24.97717","6500600","新店區"
"231023","KEA-2219","2018/10/18 14:49:07","新北市新店區檳榔路109號","121.544471666667","24.961715","6500600","新店區"
"231026","256-BX","2018/10/18 14:49:11","新北市新店區安康路一段222-2號","121.523","24.963695","6500600","新店區"
"231003","268-BY","2018/10/18 14:48:56","新北市新店區中興路二段197號","121.548208333333","24.973865","6500600","新店區"
"231018","278-BY","2018/10/18 14:49:00","新北市新店區中央路151號","121.529321666667","24.972295","6500600","新店區"
"231017","AAD-862","2018/10/18 14:48:59","新北市新店區北宜路三段54號","121.572891666667","24.9512616666667","6500600","新店區"
"231038","3712-VJ","2018/10/18 14:42:04","新北市新店區安華路28-1號","121.519551666667","24.9609516666667","6500600","新店區"
"231027","3713-VJ","2018/10/18 14:48:54","新北市新店區安民街65巷19-1號","121.515473333333","24.96701","6500600","新店區"
"231037","4716-K9","2018/10/18 14:49:09","新北市新店區安德街60巷35號","121.510558333333","24.9635116666667","6500600","新店區"
"231025","4715-K9","2018/10/18 14:49:08","新北市新店區建國路196號","121.53782","24.9805183333333","6500600","新店區"
"231036","512-UM","2018/10/18 14:48:56","新北市新店區安祥路106巷288號","121.472588333333","24.9581833333333","6500600","新店區"
"231013","513-UM","2018/10/18 14:49:10","新北市新店區北新路二段61號","121.542566666667","24.973265","6500600","新店區"
"231034","616-UM","2018/10/18 14:49:03","新北市新店區車子路1-1號","121.504788333333","24.9578883333333","6500600","新店區"
"231006","617-UM","2018/10/18 14:48:53","新北市新店區北宜路一段121-2號","121.54037","24.9537916666667","6500600","新店區"
"231005","618-UM","2018/10/18 14:49:08","新北市新店區復興路2號","121.53241","24.98829","6500600","新店區"
"231030","619-UM","2018/10/18 14:49:01","新北市新店區安民街321號","121.51739","24.9744783333333","6500600","新店區"
"231035","719-UM","2018/10/18 14:49:00","新北市新店區安業街67巷22號","121.519013333333","24.9762733333333","6500600","新店區"
"231039","719-UY","2018/10/18 14:48:57","新北市新店區安一路一段1-1號","121.519575","24.9610883333333","6500600","新店區"
"231029","897-TW","2018/10/18 14:49:10","新北市新店區錦秀路11巷90弄1號","121.480383333333","24.9430266666667","6500600","新店區"
"231004","899-TW","2018/10/18 14:49:06","新北市新店區建國路133號","121.53932","24.978165","6500600","新店區"
"231024","AKT-0513","2018/10/18 14:48:49","新北市新店區中華路83巷67號","121.538336666667","24.96728","6500600","新店區"
"235030","003-UY","2018/10/18 14:48:58","新北市中和區南工路30號","121.505675","25.0010383333333","6500300","中和區"
"235020","096-UM","2018/10/18 14:49:08","新北市中和區民富街4號","121.477003333333","25.0058883333333","6500300","中和區"
"235003","097-UM","2018/10/18 14:48:53","新北市永和區安樂路50巷1弄1號","121.514736666667","24.9972366666667","6500300","中和區"
"235029","098-UM","2018/10/18 14:49:03","新北市中和區福美路256巷6號","121.49821","25.0055533333333","6500300","中和區"
"235004","150-BY","2018/10/18 14:49:09","新北市中和區安平路59號","121.509645","24.99494","6500300","中和區"
"235022","151-BY","2018/10/18 14:49:12","新北市中和區員山路150號","121.481303333333","24.9971533333333","6500300","中和區"
"235019","183-VK","2018/10/18 14:49:10","新北市中和區民德路8號","121.468806666667","25.003025","6500300","中和區"
"235002","185-VK","2018/10/18 14:49:08","新北市中和區更生街1號","121.521318333333","24.9962533333333","6500300","中和區"
"235013","186-VK","2018/10/18 14:49:03","新北市中和區景平路425-1號","121.501535","24.9952683333333","6500300","中和區"
"235031","255-BX","2018/10/18 14:49:08","新北市中和區中正路751巷3弄12號","121.48437","24.9993916666667","6500300","中和區"
"235008","293-VK","2018/10/18 14:48:53","新北市中和區南山路291號","121.504365","24.991995","6500300","中和區"
"235036","301-VK","2018/10/18 14:48:57","新北市中和區中和路74號","121.500798333333","25.0001983333333","6500300","中和區"
"235007","352-BY","2018/10/18 14:49:07","新北市中和區安和路9號","121.511596666667","24.993595","6500300","中和區"
"235006","KEA-2878","2018/10/18 14:48:56","新北市中和區宜安路121號","121.510075","24.99798","6500300","中和區"
"247011","KEA-2869","2018/10/18 14:49:04","新北市蘆洲區中山一路53號","121.478675","25.0810466666667","6501400","蘆洲區"
"235014","4979-A6","2018/10/18 14:48:51","新北市中和區和平街164巷7號","121.50593","24.992515","6500300","中和區"
"235034","558-UM","2018/10/18 14:48:55","新北市中和區連勝街40號","121.498016666667","24.9976683333333","6500300","中和區"
"235018","640-BX","2018/10/18 14:49:11","新北市中和區莒光路217號","121.46771","24.993775","6500300","中和區"
"235024","647-TV","2018/10/18 14:49:07","新北市中和區員山路390號","121.480521666667","25.0045733333333","6500300","中和區"
"235011","732-UM","2018/10/18 14:48:55","新北市中和區和平街74號","121.507758333333","24.9911683333333","6500300","中和區"
"235010","733-UM","2018/10/18 14:48:50","新北市中和區仁愛街44號","121.511033333333","24.988165","6500300","中和區"
"235035","783-BX","2018/10/18 14:49:02","新北市中和區錦和路30號","121.4869","25.0014183333333","6500300","中和區"
"235026","800-TS","2018/10/18 14:49:10","新北市中和區中山路二段411號","121.485916666667","25.0042216666667","6500300","中和區"
"235021","801-TS","2018/10/18 14:48:54","新北市中和區民樂路81號","121.484865","25.0013683333333","6500300","中和區"
"235016","805-TS","2018/10/18 14:48:57","新北市中和區興南路二段117巷13號","121.505833333333","24.984005","6500300","中和區"
"235012","896-TW","2018/10/18 14:49:09","新北市中和區忠孝街129號","121.512751666667","24.9880383333333","6500300","中和區"
"235017","900-TW","2018/10/18 14:49:06","新北市中和區國光街184-2號","121.466651666667","25.001995","6500300","中和區"
"235015","157-BY","2018/10/18 14:49:09","新北市中和區景安路247巷11號","121.504541666667","24.990575","6500300","中和區"
"235001","AAC-213","2018/10/18 14:48:54","新北市中和區秀朗路三段132號","121.524583333333","24.9919166666667","6500300","中和區"
"235023","AAC-215","2018/10/18 14:49:07","新北市中和區圓通路305巷48號","121.495445","24.9889383333333","6500300","中和區"
"220104","015-TV","2018/10/18 14:48:59","新北市板橋區新生街29巷15弄5號","121.456311666667","25.02193","6500100","板橋區"
"220013","072-UY","2018/10/18 14:49:08","新北市板橋區國泰街39巷9弄15號","121.46896","25.00536","6500100","板橋區"
"220034","073-UY","2018/10/18 14:48:57","新北市板橋區南雅西路二段7巷25號","121.451951666667","25.009505","6500100","板橋區"
"220105","075-UY","2018/10/18 14:49:06","新北市板橋區文化路二段652號","121.478515","25.0355916666667","6500100","板橋區"
"220017","AAD-861","2018/10/18 14:49:08","新北市板橋區南雅南路二段22號","121.454408333333","25.0031416666667","6500100","板橋區"
"247001","893-R6","2018/10/18 14:48:59","新北市蘆洲區永康街2巷10號","121.459261666667","25.0862633333333","6501400","蘆洲區"
"247015","546-UM","2018/10/18 14:48:55","新北市蘆洲區和平路183號","121.466331666667","25.08131","6501400","蘆洲區"
"247013","339-TH","2018/10/18 14:49:09","新北市蘆洲區成功路151號","121.472173333333","25.08255","6501400","蘆洲區"
"247007","336-TH","2018/10/18 14:49:00","新北市蘆洲區中山一路97巷32弄5號","121.475671666667","25.0812366666667","6501400","蘆洲區"
"247019","057-VK","2018/10/18 14:48:52","新北市蘆洲區民義街68巷1號","121.473425","25.0897216666667","6501400","蘆洲區"
"247021","001-UY","2018/10/18 14:49:05","新北市蘆洲區中正路362-7號","121.463608333333","25.0926533333333","6501400","蘆洲區"
"228005","097-TW","2018/10/18 14:49:06","新北市貢寮區美豐里丹裡街69號","121.905998333333","25.0563433333333","6502600","貢寮區"
"228004","212-TW","2018/10/18 14:49:01","新北市貢寮區福隆里裕隆街5號","121.946148333333","25.0159766666667","6502600","貢寮區"
"253003","6232-TK","2018/10/18 14:48:55","新北市石門區尖子鹿90號","121.579806666667","25.2893083333333","6502200","石門區"
"253004","6251-TK","2018/10/18 14:49:08","新北市石門區內阿里磅13號","121.59274","25.2517283333333","6502200","石門區"
"253002","637-UY","2018/10/18 14:49:00","新北市石門區楓林59號","121.542388333333","25.2726833333333","6502200","石門區"
"253001","KEC-0718","2018/10/18 14:48:55","新北市石門區八甲14-1號","121.522846666667","25.28165","6502200","石門區"
"207002","749-BX","2018/10/18 14:49:06","新北市萬里區崁腳里崁腳路73號","121.647605","25.159615","6502800","萬里區"
"207001","662-BX","2018/10/18 14:44:40","新北市萬里區雙興里豐稟路22-1號","121.640081666667","25.1846466666667","6502800","萬里區"
"252005","AAC-283","2018/10/18 14:49:07","新北市三芝區埔坪里埔頭坑122-1號","121.518956666667","25.2449583333333","6502100","三芝區"
"237012","275-BY","2018/10/18 14:43:42","新北市三峽區中山路459巷137號","121.349945","24.9339383333333","6500900","三峽區"
"236068","105-UM","2018/10/18 14:49:08","新北市土城區明德路一段371號","121.453005","24.9797233333333","6501300","土城區"
"236040","107-UM","2018/10/18 14:49:03","新北市土城區裕民路136巷4弄1號","121.451001666667","24.9856666666667","6501300","土城區"
"236074","166-UM","2018/10/18 14:49:11","新北市土城區中央路四段125巷27號","121.41711","24.9566916666667","6501300","土城區"
"236029","253-BX","2018/10/18 14:48:52","新北市土城區忠義路26巷19號","121.439785","24.9698766666667","6501300","土城區"
"236024","269-VK","2018/10/18 14:49:05","新北市土城區中央路二段229號","121.4403","24.9725283333333","6501300","土城區"
"236012","270-VK","2018/10/18 14:49:05","新北市土城區清水路235巷26號","121.460645","24.98399","6501300","土城區"
"236032","271-VK","2018/10/18 14:49:03","新北市土城區仁愛路48-1號","121.461951666667","24.979185","6501300","土城區"
"236017","401-BY","2018/10/18 14:49:03","新北市土城區延吉街253巷5號","121.467741666667","24.9846066666667","6501300","土城區"
"236057","912-UM","2018/10/18 14:49:05","新北市土城區金城路一段42號","121.441875","24.9699766666667","6501300","土城區"
"236045","913-UM","2018/10/18 14:49:05","新北市土城區青雲路10-1號","121.460175","24.9889433333333","6501300","土城區"
"236060","915-UM","2018/10/18 14:49:04","新北市土城區金城路三段207巷8弄23號","121.470498333333","24.990865","6501300","土城區"
"236054","AAC-216","2018/10/18 14:49:10","新北市土城區裕民路169-1號","121.453093333333","24.985075","6501300","土城區"
"242001","233-RS","2018/10/18 14:48:58","新北市新莊區中平路377巷28號","121.442135","25.053055","6500500","新莊區"
"221010","269-BY","2018/10/18 14:49:02","新北市汐止區八連路一段317號","121.63984","25.0859416666667","6501100","汐止區"
"221032","280-BY","2018/10/18 14:49:04","新北市汐止區民權街二段81巷11弄9號","121.619976666667","25.0481516666667","6501100","汐止區"
"221033","647-BX","2018/10/18 14:49:00","新北市汐止區汐萬路一段418巷3號","121.649641666667","25.0785633333333","6501100","汐止區"
"220027","145-BY","2018/10/18 14:48:53","新北市板橋區建國街114號","121.46032","25.0174966666667","6500100","板橋區"
"220028","200-UY","2018/10/18 14:39:50","新北市板橋區大觀路二段153巷46弄80號","121.449425","25.000785","6500100","板橋區"
"220030","610-BX","2018/10/18 14:49:05","新北市板橋區存德街38號","121.430391666667","24.991495","6500100","板橋區"
"220050","245-BX","2018/10/18 14:48:57","新北市板橋區縣民大道三段93巷22號","121.474983333333","25.0225433333333","6500100","板橋區"
"220004","276-BY","2018/10/18 14:49:07","新北市板橋區德興街35號","121.453516666667","24.99375","6500100","板橋區"
"220020","277-BY","2018/10/18 14:49:09","新北市板橋區大觀路三段199號","121.432065","24.9934716666667","6500100","板橋區"
"220043","283-UM","2018/10/18 14:49:01","新北市板橋區長江路一段105巷1-1號","121.459353333333","25.0299066666667","6500100","板橋區"
"220019","283-VK","2018/10/18 14:49:02","新北市板橋區五權街30巷24弄33號","121.463626666667","24.9938716666667","6500100","板橋區"
"220001","285-VK","2018/10/18 14:49:05","新北市板橋區中山路二段60巷9號","121.47419","25.0152816666667","6500100","板橋區"
"220031","286-VK","2018/10/18 14:49:06","新北市板橋區大觀路二段20巷2號","121.444933333333","25.0041416666667","6500100","板橋區"
"220029","287-VK","2018/10/18 14:49:08","新北市板橋區大觀路一段29巷33號","121.450256666667","25.007575","6500100","板橋區"
"220039","288-VK","2018/10/18 14:48:54","新北市板橋區龍泉街90巷3號","121.456165","25.0248366666667","6500100","板橋區"
"220009","293-UM","2018/10/18 14:49:08","新北市板橋區中山路一段283巷3弄2號","121.470235","25.0152033333333","6500100","板橋區"
"220010","295-UM","2018/10/18 14:49:11","新北市板橋區三民路二段29巷31弄1號","121.48138","25.0176966666667","6500100","板橋區"
"220032","296-UM","2018/10/18 14:49:09","新北市板橋區溪崑二街103巷2號","121.42681","24.9889483333333","6500100","板橋區"
"220023","303-R5","2018/10/18 14:49:02","新北市板橋區中正路246號","121.455546666667","25.0191533333333","6500100","板橋區"
"220041","307-R5","2018/10/18 14:49:13","新北市板橋區四維路259巷71號","121.460598333333","25.0267","6500100","板橋區"
"220047","317-R6","2018/10/18 14:49:08","新北市板橋區新海路135巷1號","121.460703333333","25.023395","6500100","板橋區"
"220012","486-VK","2018/10/18 14:49:01","新北市板橋區館前東路110-1號","121.463346666667","25.0076","6500100","板橋區"
"220038","487-VK","2018/10/18 14:49:00","新北市板橋區英士路192-1號","121.45855","25.0236933333333","6500100","板橋區"
"220037","491-VK","2018/10/18 14:49:06","新北市板橋區文化路二段402號","121.473715","25.0315166666667","6500100","板橋區"
"220052","561-BX","2018/10/18 14:48:57","新北市板橋區陽明街29巷22號","121.464316666667","25.0223266666667","6500100","板橋區"
"220011","609-BX","2018/10/18 14:49:07","新北市板橋區三民路一段1巷39號","121.48031","25.024775","6500100","板橋區"
"220040","637-BX","2018/10/18 14:49:00","新北市板橋區懷德街127巷30-3號","121.479901666667","25.031335","6500100","板橋區"
"220005","686-BX","2018/10/18 14:48:59","新北市板橋區廣和街67號","121.462628333333","24.99284","6500100","板橋區"
"220025","687-BX","2018/10/18 14:49:11","新北市板橋區僑中二街124巷2號","121.445431666667","25.0052733333333","6500100","板橋區"
"220042","689-BX","2018/10/18 14:49:06","新北市板橋區長江路一段141號","121.460698333333","25.0302666666667","6500100","板橋區"
"220002","741-BX","2018/10/18 14:48:52","新北市板橋區國泰街75巷28弄90號","121.467256666667","25.00402","6500100","板橋區"
"220051","KEA-2699","2018/10/18 14:49:03","新北市板橋區松柏街40號","121.475375","25.030195","6500100","板橋區"
"220003","827-TW","2018/10/18 14:48:57","新北市板橋區國慶路149巷29弄2號","121.46085","24.99773","6500100","板橋區"
"220014","829-TW","2018/10/18 14:48:54","新北市板橋區長安街138巷1弄286號","121.474813333333","25.0110483333333","6500100","板橋區"
"220016","830-TW","2018/10/18 14:49:05","新北市板橋區光復街133巷37-1號","121.484033333333","25.0195483333333","6500100","板橋區"
"220045","831-TW","2018/10/18 14:48:50","新北市板橋區民生路二段234巷77號","121.470351666667","25.0226183333333","6500100","板橋區"
"220022","895-R6","2018/10/18 14:49:01","新北市板橋區府中路7號","121.459841666667","25.009605","6500100","板橋區"
"220021","985-R7","2018/10/18 14:49:07","新北市板橋區大仁街49號","121.454786666667","25.01651","6500100","板橋區"
"220046","AAC-210","2018/10/18 14:48:52","新北市板橋區文化路一段285巷2弄1號","121.464625","25.0191833333333","6500100","板橋區"
"220018","AAC-253","2018/10/18 14:49:06","新北市板橋區民族路268號","121.469608333333","25.0071216666667","6500100","板橋區"
"235032","KEA-2873","2018/10/18 14:49:01","新北市中和區中山路二段259號","121.497098333333","25.00226","6500300","中和區"
