"lineid","car","time","location","longitude","latitude","cityid","cityname"
"234028","746-BX","2018/10/18 14:58:58","新北市三重區光復路二段87巷57號","121.475301666667","25.05898","6500400","永和區"
"234025","9371-KE","2018/10/18 14:58:50","新北市永和區雙和街52巷2號","121.508996666667","25.0031816666667","6500400","永和區"
"248013","025-BX","2018/10/18 14:58:51","新北市五股區成泰路二段224號","121.439406666667","25.0859083333333","6501500","五股區"
"248015","026-BX","2018/10/18 14:59:10","新北市五股區凌雲路一段158巷50弄21號","121.447838333333","25.10438","6501500","五股區"
"248007","095-VK","2018/10/18 14:58:57","新北市五股區四維路155巷36弄12號","121.466885","25.07498","6501500","五股區"
"248017","225-UY","2018/10/18 14:58:54","新北市五股區外寮路189巷41號","121.42901","25.0760383333333","6501500","五股區"
"248011","247-BX","2018/10/18 14:59:07","新北市五股區五福路127號","121.43153","25.0909233333333","6501500","五股區"
"248009","272-BY","2018/10/18 14:59:01","新北市五股區成泰路一段7巷4號","121.433343333333","25.06675","6501500","五股區"
"248003","677-BX","2018/10/18 14:58:50","新北市五股區成泰路一段32巷58號","121.434933333333","25.0670516666667","6501500","五股區"
"248001","678-BX","2018/10/18 14:59:10","新北市五股區成泰路三段6號","121.440921666667","25.0874516666667","6501500","五股區"
"244003","248-BX","2018/10/18 14:41:21","新北市林口區林口路76號","121.389681666667","25.0806766666667","6501700","林口區"
"243005","AAD-798","2018/10/18 14:58:53","新北市泰山區明志路二段325號","121.42589","25.045085","6501600","泰山區"
"243001","297-R6","2018/10/18 14:58:57","新北市泰山區憲訓路3號","121.428868333333","25.0643833333333","6501600","泰山區"
"243008","KEA-2801","2018/10/18 14:59:02","新北市泰山區明志路二段390號","121.425343333333","25.0445083333333","6501600","泰山區"
"243007","421-VK","2018/10/18 14:59:05","新北市泰山區仁德路50號","121.434143333333","25.056855","6501600","泰山區"
"243003","KEA-2215","2018/10/18 14:59:05","新北市泰山區壽山路134巷22號","121.418333333333","25.031135","6501600","泰山區"
"243004","646-TV","2018/10/18 14:58:55","新北市泰山區楓江路127-3號","121.439275","25.06473","6501600","泰山區"
"243006","680-BX","2018/10/18 14:59:03","新北市泰山區橫窠雅10-5號","121.415181666667","25.067045","6501600","泰山區"
"231002","002-UM","2018/10/18 14:58:54","新北市新店區民權路61號","121.539278333333","24.982965","6500600","新店區"
"231028","046-UY","2018/10/18 14:59:11","新北市新店區安康路二段266號","121.508646666667","24.958915","6500600","新店區"
"231001","047-UY","2018/10/18 14:59:01","新北市新店區中正路274號","121.538931666667","24.97373","6500600","新店區"
"231021","108-UY","2018/10/18 14:58:56","新北市新店區永福路54號","121.558048333333","24.92869","6500600","新店區"
"231011","187-VK","2018/10/18 14:58:52","新北市新店區寶橋路132號","121.547363333333","24.976065","6500600","新店區"
"231023","KEA-2219","2018/10/18 14:59:07","新北市新店區檳榔路109號","121.544478333333","24.96169","6500600","新店區"
"231026","256-BX","2018/10/18 14:58:51","新北市新店區博愛街3號","121.540636666667","24.9727116666667","6500600","新店區"
"231003","268-BY","2018/10/18 14:58:56","新北市新店區中興路一段308號","121.546445","24.9700516666667","6500600","新店區"
"231018","278-BY","2018/10/18 14:59:00","新北市新店區中央五街3-2號","121.530313333333","24.9744133333333","6500600","新店區"
"231017","AAD-862","2018/10/18 14:58:59","新北市新店區北宜路二段599號","121.56889","24.9558983333333","6500600","新店區"
"231038","3712-VJ","2018/10/18 14:42:04","新北市新店區安華路28-1號","121.519551666667","24.9609516666667","6500600","新店區"
"231037","4716-K9","2018/10/18 14:59:08","新北市新店區薏仁坑路自強巷6號","121.496713333333","24.95848","6500600","新店區"
"231025","4715-K9","2018/10/18 14:59:08","新北市新店區大同街8巷2號","121.53973","24.98015","6500600","新店區"
"231036","512-UM","2018/10/18 14:59:13","新北市新店區安祥路104巷6弄8號","121.48167","24.9626633333333","6500600","新店區"
"231034","616-UM","2018/10/18 14:59:03","新北市新店區玫瑰路4-1號","121.493601666667","24.9514316666667","6500600","新店區"
"231006","617-UM","2018/10/18 14:58:53","新北市新店區新坡一街104號","121.548628333333","24.9638916666667","6500600","新店區"
"231005","618-UM","2018/10/18 14:59:08","新北市新店區復興路66號","121.537783333333","24.98682","6500600","新店區"
"231030","619-UM","2018/10/18 14:59:01","新北市新店區安民街341-1號","121.51683","24.9749166666667","6500600","新店區"
"231035","719-UM","2018/10/18 14:59:00","新北市新店區安業街27號","121.51709","24.9775933333333","6500600","新店區"
"231039","719-UY","2018/10/18 14:58:57","新北市新店區中興路三段88號","121.545783333333","24.9781683333333","6500600","新店區"
"231031","720-UM","2018/10/18 14:59:08","新北市新店區安泰路18號","121.485706666667","24.9486583333333","6500600","新店區"
"231029","897-TW","2018/10/18 14:59:10","新北市新店區安康路三段545號","121.477861666667","24.945425","6500600","新店區"
"231004","899-TW","2018/10/18 14:59:06","新北市新店區民族路48巷1號","121.54016","24.978685","6500600","新店區"
"231024","AKT-0513","2018/10/18 14:59:09","新北市新店區中華路85號","121.539268333333","24.96865","6500600","新店區"
"235030","003-UY","2018/10/18 14:59:06","新北市中和區光華街8號","121.504281666667","25.0043766666667","6500300","中和區"
"235020","096-UM","2018/10/18 14:59:08","新北市中和區漢民路416號","121.472226666667","25.0067633333333","6500300","中和區"
"235003","097-UM","2018/10/18 14:58:53","新北市中和區安樂路143巷20號","121.513165","24.9966833333333","6500300","中和區"
"235029","098-UM","2018/10/18 14:59:03","新北市中和區橋和路306號","121.497043333333","25.0069583333333","6500300","中和區"
"235004","150-BY","2018/10/18 14:59:08","新北市中和區保健路10巷21弄1號","121.507653333333","24.9969216666667","6500300","中和區"
"235013","186-VK","2018/10/18 14:59:03","新北市中和區景新街263號","121.508783333333","24.994025","6500300","中和區"
"235031","255-BX","2018/10/18 14:59:08","新北市板橋區民生路一段53號","121.475686666667","25.0129833333333","6500300","中和區"
"235008","293-VK","2018/10/18 14:58:53","新北市中和區中正路91號","121.500368333333","24.9935383333333","6500300","中和區"
"235036","301-VK","2018/10/18 14:58:57","新北市中和區建康路270號","121.492988333333","25.00027","6500300","中和區"
"235007","352-BY","2018/10/18 14:59:10","新北市中和區華新街232巷9-4號","121.505906666667","24.98185","6500300","中和區"
"247011","KEA-2869","2018/10/18 14:59:04","新北市五股區中興路二段182巷15弄13號","121.457213333333","25.0812933333333","6501400","蘆洲區"
"235014","4979-A6","2018/10/18 14:58:51","新北市中和區景平路241巷64弄1號","121.507658333333","24.9924333333333","6500300","中和區"
"235033","4980-A6","2018/10/18 14:57:12","新北市中和區景平路634-2號","121.500898333333","24.998335","6500300","中和區"
"235034","558-UM","2018/10/18 14:58:55","新北市中和區圓通路118號","121.49923","24.9962416666667","6500300","中和區"
"235018","640-BX","2018/10/18 14:58:51","新北市中和區莒光路23號","121.471851666667","25.00558","6500300","中和區"
"235010","733-UM","2018/10/18 14:58:50","新北市中和區興南路一段105巷20弄4號","121.510278333333","24.9857966666667","6500300","中和區"
"235035","783-BX","2018/10/18 14:59:02","新北市中和區中正路760號","121.485246666667","24.99929","6500300","中和區"
"235026","800-TS","2018/10/18 14:59:10","新北市中和區中山路二段321-1號","121.493676666667","25.0020433333333","6500300","中和區"
"235016","805-TS","2018/10/18 14:58:57","新北市中和區華新街192巷22弄2號","121.506668333333","24.9832966666667","6500300","中和區"
"235012","896-TW","2018/10/18 14:59:09","新北市中和區忠孝街5巷7號","121.50931","24.9830833333333","6500300","中和區"
"235017","900-TW","2018/10/18 14:59:06","新北市中和區民德路200號","121.468236666667","24.998615","6500300","中和區"
"235015","157-BY","2018/10/18 14:59:09","新北市中和區復興路52號","121.504181666667","24.9903083333333","6500300","中和區"
"235001","AAC-213","2018/10/18 14:58:54","新北市中和區自立路99巷22弄18號","121.523243333333","24.9941416666667","6500300","中和區"
"235023","AAC-215","2018/10/18 14:59:07","新北市中和區圓通路365號","121.49137","24.9897066666667","6500300","中和區"
"220013","072-UY","2018/10/18 14:58:59","新北市板橋區長安街57號","121.467163333333","25.00881","6500100","板橋區"
"220105","075-UY","2018/10/18 14:59:06","新北市板橋區民治街71巷15號","121.480236666667","25.0328616666667","6500100","板橋區"
"220017","AAD-861","2018/10/18 14:59:07","新北市板橋區貴興路60號","121.456753333333","25.0030166666667","6500100","板橋區"
"247013","339-TH","2018/10/18 14:59:09","新北市蘆洲區中山二路105號","121.472601666667","25.0817883333333","6501400","蘆洲區"
"228004","212-TW","2018/10/18 14:59:01","新北市貢寮區雙玉里田寮洋街25-1號","121.929908333333","25.0177616666667","6502600","貢寮區"
"253003","6232-TK","2018/10/18 14:58:55","新北市石門區尖子鹿103-1號","121.579796666667","25.2939216666667","6502200","石門區"
"253004","6251-TK","2018/10/18 14:59:03","新北市石門區茂林社區86號","121.592728333333","25.26966","6502200","石門區"
"253002","637-UY","2018/10/18 14:59:00","新北市石門區楓林43號","121.54106","25.2828916666667","6502200","石門區"
"253001","KEC-0718","2018/10/18 14:57:35","新北市石門區崁子腳65-3號","121.532906666667","25.2848316666667","6502200","石門區"
"207002","749-BX","2018/10/18 14:59:06","新北市萬里區崁腳里崁腳路73號","121.647613333333","25.15958","6502800","萬里區"
"207001","662-BX","2018/10/18 14:59:00","新北市萬里區雙興里麗水路2號","121.653526666667","25.1798483333333","6502800","萬里區"
"237012","275-BY","2018/10/18 14:43:42","新北市三峽區中山路459巷137號","121.349945","24.9339383333333","6500900","三峽區"
"236068","105-UM","2018/10/18 14:59:08","新北市土城區裕生路84巷1號","121.447316666667","24.9852533333333","6501300","土城區"
"236040","107-UM","2018/10/18 14:59:03","新北市土城區學府路一段189巷15號","121.45256","24.9845616666667","6501300","土城區"
"236074","166-UM","2018/10/18 14:59:00","新北市土城區中央路四段125巷2弄10號","121.416461666667","24.9569416666667","6501300","土城區"
"236029","253-BX","2018/10/18 14:59:12","新北市土城區中央路二段304號","121.4401","24.9734983333333","6501300","土城區"
"236024","269-VK","2018/10/18 14:59:05","新北市土城區中正路56巷11號","121.444035","24.9748366666667","6501300","土城區"
"236012","270-VK","2018/10/18 14:59:05","新北市土城區永豐路21號","121.46288","24.9881783333333","6501300","土城區"
"236032","271-VK","2018/10/18 14:59:03","新北市土城區清水路171號","121.459296666667","24.98151","6501300","土城區"
"236017","401-BY","2018/10/18 14:59:06","新北市土城區德峰街41巷10號","121.467846666667","24.98619","6501300","土城區"
"236057","912-UM","2018/10/18 14:59:05","新北市土城區金城路二段228號","121.456398333333","24.9829866666667","6501300","土城區"
"236045","913-UM","2018/10/18 14:58:36","新北市土城區青雲路319號","121.458936666667","24.9786033333333","6501300","土城區"
"236060","915-UM","2018/10/18 14:59:04","新北市土城區延和路41巷6弄16號","121.466633333333","24.99026","6501300","土城區"
"236054","AAC-216","2018/10/18 14:59:10","新北市土城區學成路162號","121.44808","24.9891433333333","6501300","土城區"
"242001","233-RS","2018/10/18 14:58:58","新北市新莊區中平路377巷28號","121.442135","25.052905","6500500","新莊區"
"238002","755-BX","2018/10/18 14:59:07","新北市樹林區育德街78-1號","121.387833333333","24.9680666666667","6500700","樹林區"
"238010","601-UM","2018/10/18 14:59:09","新北市樹林區育德街78號","121.388326666667","24.9684633333333","6500700","樹林區"
"238006","599-UM","2018/10/18 14:58:56","新北市樹林區育德街78-1號","121.388066666667","24.9682933333333","6500700","樹林區"
"238018","571-TV","2018/10/18 14:59:10","新北市樹林區育德街78-1號","121.38826","24.9680283333333","6500700","樹林區"
"238009","KEA-2213","2018/10/18 14:58:57","新北市樹林區育德街78-1號","121.387868333333","24.96813","6500700","樹林區"
"238008","KEA-2539","2018/10/18 14:58:54","新北市樹林區育德街78-1號","121.387895","24.968185","6500700","樹林區"
"238004","283-BY","2018/10/18 14:59:02","新北市樹林區育德街78號","121.387958333333","24.9683383333333","6500700","樹林區"
"238001","282-BY","2018/10/18 14:59:00","新北市樹林區育德街78-1號","121.387696666667","24.9681233333333","6500700","樹林區"
"238007","268-VK","2018/10/18 14:58:58","新北市樹林區育德街78-1號","121.387938333333","24.96806","6500700","樹林區"
"221010","269-BY","2018/10/18 14:59:02","新北市汐止區汐萬路一段256巷3號","121.65343","25.074705","6501100","汐止區"
"221032","280-BY","2018/10/18 14:59:04","新北市汐止區弘道街53巷30弄1號","121.618916666667","25.0501133333333","6501100","汐止區"
"221033","647-BX","2018/10/18 14:59:00","新北市汐止區汐萬路一段312號","121.650006666667","25.0751683333333","6501100","汐止區"
"220027","145-BY","2018/10/18 14:58:53","新北市板橋區大仁街49號","121.45475","25.0164416666667","6500100","板橋區"
"220028","200-UY","2018/10/18 14:39:50","新北市板橋區大觀路二段153巷46弄80號","121.449425","25.000785","6500100","板橋區"
"220030","610-BX","2018/10/18 14:59:11","新北市板橋區金門街182-3號","121.432663333333","24.9909783333333","6500100","板橋區"
"220050","245-BX","2018/10/18 14:58:57","新北市板橋區莒光路180巷21號","121.473273333333","25.02281","6500100","板橋區"
"220020","277-BY","2018/10/18 14:58:49","新北市板橋區金門街153號","121.432651666667","24.9904733333333","6500100","板橋區"
"220043","283-UM","2018/10/18 14:59:01","新北市板橋區雨農路19號","121.461806666667","25.0245233333333","6500100","板橋區"
"220019","283-VK","2018/10/18 14:59:13","新北市板橋區和平路174巷47號","121.465578333333","24.9936766666667","6500100","板橋區"
"220001","285-VK","2018/10/18 14:59:11","新北市板橋區永豐街53號","121.474041666667","25.01805","6500100","板橋區"
"220031","286-VK","2018/10/18 14:59:06","新北市板橋區僑中二街10巷6號","121.446781666667","25.0110833333333","6500100","板橋區"
"220029","287-VK","2018/10/18 14:59:08","新北市板橋區僑中一街80巷6弄1號","121.447723333333","25.0122483333333","6500100","板橋區"
"220039","288-VK","2018/10/18 14:58:54","新北市板橋區新海路109巷1弄2號","121.460728333333","25.0223966666667","6500100","板橋區"
"220009","293-UM","2018/10/18 14:59:08","新北市板橋區觀光街30號","121.471335","25.0162483333333","6500100","板橋區"
"220010","295-UM","2018/10/18 14:59:11","新北市板橋區中山路二段416巷66弄7號","121.482581666667","25.0185133333333","6500100","板橋區"
"220032","296-UM","2018/10/18 14:59:11","新北市樹林區水源街213號","121.424241666667","24.9870933333333","6500100","板橋區"
"220023","303-R5","2018/10/18 14:59:02","新北市板橋區金華街10巷48弄78-4號","121.460085","25.0204016666667","6500100","板橋區"
"220041","307-R5","2018/10/18 14:58:53","新北市板橋區裕民街128巷1號","121.458856666667","25.027655","6500100","板橋區"
"220047","317-R6","2018/10/18 14:59:08","新北市板橋區新海路72巷5弄3號","121.462023333333","25.022175","6500100","板橋區"
"220012","486-VK","2018/10/18 14:58:54","新北市板橋區館前東路154號","121.464616666667","25.0079566666667","6500100","板橋區"
"220038","487-VK","2018/10/18 14:59:08","新北市板橋區龍泉街108巷11號","121.456326666667","25.0243533333333","6500100","板橋區"
"220037","491-VK","2018/10/18 14:59:06","新北市板橋區仁化街182號","121.4785","25.0339566666667","6500100","板橋區"
"220052","561-BX","2018/10/18 14:58:57","新北市板橋區自由路52號","121.465711666667","25.023515","6500100","板橋區"
"220011","609-BX","2018/10/18 14:59:07","新北市板橋區三民路一段31巷2-4號","121.481911666667","25.0230766666667","6500100","板橋區"
"220040","637-BX","2018/10/18 14:58:50","新北市板橋區懷德街174巷18弄5號","121.478583333333","25.029865","6500100","板橋區"
"220005","686-BX","2018/10/18 14:58:59","新北市板橋區信義路28-6號","121.457075","24.9951166666667","6500100","板橋區"
"220025","687-BX","2018/10/18 14:59:11","新北市板橋區僑中一街134號","121.44547","25.0117833333333","6500100","板橋區"
"220042","689-BX","2018/10/18 14:59:06","新北市板橋區長江路二段227號","121.468351666667","25.0325","6500100","板橋區"
"220002","741-BX","2018/10/18 14:59:11","新北市板橋區忠孝路忠義巷7號","121.465511666667","25.003605","6500100","板橋區"
"220051","KEA-2699","2018/10/18 14:58:59","新北市板橋區仁化街42巷5弄3號","121.475516666667","25.031485","6500100","板橋區"
"220003","827-TW","2018/10/18 14:59:02","新北市板橋區仁愛路86巷20號","121.46116","24.9987483333333","6500100","板橋區"
"220014","829-TW","2018/10/18 14:58:54","新北市板橋區長安街331巷93弄1-4號","121.472073333333","25.0124983333333","6500100","板橋區"
"220016","830-TW","2018/10/18 14:58:44","新北市板橋區光復街23號","121.481348333333","25.0191833333333","6500100","板橋區"
"220045","831-TW","2018/10/18 14:59:10","新北市板橋區莒光路16巷5號","121.469615","25.02434","6500100","板橋區"
"220022","895-R6","2018/10/18 14:59:03","新北市板橋區南雅南路一段7巷22弄2號","121.455921666667","25.0047516666667","6500100","板橋區"
"220021","985-R7","2018/10/18 14:59:06","新北市板橋區南雅西路二段130號","121.451998333333","25.0126666666667","6500100","板橋區"
"220046","AAC-210","2018/10/18 14:58:52","新北市板橋區光正街18巷2號","121.462751666667","25.0172916666667","6500100","板橋區"
"220018","AAC-253","2018/10/18 14:58:57","新北市板橋區實踐路34-1號","121.463628333333","25.00699","6500100","板橋區"
"235032","KEA-2873","2018/10/18 14:59:01","新北市中和區勝利路35巷1弄28號","121.500031666667","25.0077766666667","6500300","中和區"
