"lineid","car","time","location","longitude","latitude","cityid","cityname"
"234028","746-BX","2018/10/18 15:08:58","新北市八里區荖阡坑路41-3號","121.400221666667","25.1320066666667","6500400","永和區"
"248007","095-VK","2018/10/18 15:08:57","新北市五股區中興路一段1巷11號","121.469433333333","25.0714766666667","6501500","五股區"
"248017","225-UY","2018/10/18 15:08:54","新北市五股區登林路101號","121.411278333333","25.0781016666667","6501500","五股區"
"248003","677-BX","2018/10/18 15:09:10","新北市五股區成泰路一段138號","121.43508","25.0755983333333","6501500","五股區"
"244003","248-BX","2018/10/18 14:41:21","新北市林口區林口路76號","121.389681666667","25.0806766666667","6501700","林口區"
"243005","AAD-798","2018/10/18 15:08:53","新北市泰山區橫窠雅10-5號","121.415083333333","25.0670616666667","6501600","泰山區"
"243008","KEA-2801","2018/10/18 15:09:01","新北市泰山區明志路二段218號","121.427331666667","25.0486516666667","6501600","泰山區"
"243003","KEA-2215","2018/10/18 15:09:05","新北市泰山區中山路二段841號","121.425591666667","25.0353216666667","6501600","泰山區"
"243004","646-TV","2018/10/18 15:08:54","新北市泰山區楓江路14號","121.433778333333","25.062445","6501600","泰山區"
"243006","680-BX","2018/10/18 15:09:03","新北市泰山區泰林路三段745巷145號","121.405468333333","25.0676883333333","6501600","泰山區"
"231002","002-UM","2018/10/18 15:08:53","新北市新店區中正路501-2號","121.533703333333","24.9837616666667","6500600","新店區"
"231028","046-UY","2018/10/18 15:09:11","新北市新店區僑信路107號","121.500475","24.9464783333333","6500600","新店區"
"231001","047-UY","2018/10/18 15:09:01","新北市新店區中正路272號","121.538968333333","24.9736983333333","6500600","新店區"
"231021","108-UY","2018/10/18 15:08:56","新北市新店區永福路54-2號","121.558146666667","24.9287133333333","6500600","新店區"
"231011","187-VK","2018/10/18 15:09:12","新北市新店區寶元路一段65號","121.542255","24.98583","6500600","新店區"
"231023","KEA-2219","2018/10/18 15:09:07","新北市新店區檳榔路109號","121.54441","24.9616483333333","6500600","新店區"
"231026","256-BX","2018/10/18 15:09:11","新北市新店區建興街7號","121.539955","24.9763833333333","6500600","新店區"
"231003","268-BY","2018/10/18 15:08:56","新北市新店區中興路二段252號","121.547313333333","24.9758483333333","6500600","新店區"
"231018","278-BY","2018/10/18 15:09:00","新北市新店區中央六街85號","121.52663","24.9766583333333","6500600","新店區"
"231017","AAD-862","2018/10/18 15:08:59","新北市新店區明山路45號","121.563883333333","24.955865","6500600","新店區"
"231038","3712-VJ","2018/10/18 14:42:04","新北市新店區安華路28-1號","121.519551666667","24.9609516666667","6500600","新店區"
"231037","4716-K9","2018/10/18 15:09:08","新北市新店區安民街65巷19-1號","121.515333333333","24.9670633333333","6500600","新店區"
"231025","4715-K9","2018/10/18 15:09:08","新北市新店區民權路137號","121.534701666667","24.9827066666667","6500600","新店區"
"231036","512-UM","2018/10/18 15:08:56","新北市新店區安祥路102巷124號","121.486678333333","24.964215","6500600","新店區"
"231034","616-UM","2018/10/18 15:09:03","新北市新店區玫瑰路4-1號","121.493616666667","24.9514633333333","6500600","新店區"
"231006","617-UM","2018/10/18 15:08:53","新北市新店區新坡一街18巷5弄23號","121.550731666667","24.9618666666667","6500600","新店區"
"231005","618-UM","2018/10/18 15:09:08","新北市新店區順安街67號","121.540876666667","24.9864833333333","6500600","新店區"
"231030","619-UM","2018/10/18 15:09:01","新北市新店區安民街341-1號","121.516796666667","24.9749533333333","6500600","新店區"
"231035","719-UM","2018/10/18 15:09:05","新北市新店區永安街56巷6-1號","121.518596666667","24.9862883333333","6500600","新店區"
"231039","719-UY","2018/10/18 15:08:57","新北市新店區北新路三段104號","121.542111666667","24.9812916666667","6500600","新店區"
"231031","720-UM","2018/10/18 15:09:08","新北市新店區安泰路60巷55弄107號","121.484586666667","24.946165","6500600","新店區"
"231029","897-TW","2018/10/18 15:09:10","新北市新店區安康路三段740號","121.473815","24.9419533333333","6500600","新店區"
"231004","899-TW","2018/10/18 15:09:06","新北市新店區建國路40號","121.540541666667","24.9748083333333","6500600","新店區"
"231024","AKT-0513","2018/10/18 15:09:09","新北市新店區北新路一段303號","121.541296666667","24.9676733333333","6500600","新店區"
"235030","003-UY","2018/10/18 15:08:58","新北市中和區水源路127巷2弄2號","121.508073333333","25.0040783333333","6500300","中和區"
"235003","097-UM","2018/10/18 15:08:53","新北市中和區安平路192號","121.513318333333","24.9990916666667","6500300","中和區"
"235029","098-UM","2018/10/18 15:09:02","新北市中和區永和路88號","121.497396666667","25.0052866666667","6500300","中和區"
"235004","150-BY","2018/10/18 15:09:08","新北市中和區保健路26巷21號","121.50866","24.9971083333333","6500300","中和區"
"235007","352-BY","2018/10/18 15:09:07","新北市中和區興南路二段159巷1號","121.505178333333","24.9832366666667","6500300","中和區"
"247011","KEA-2869","2018/10/18 15:09:04","新北市八里區荖阡坑路7-2號","121.398598333333","25.1416283333333","6501400","蘆洲區"
"235014","4979-A6","2018/10/18 15:08:51","新北市中和區安樂路66號","121.512178333333","24.9932416666667","6500300","中和區"
"235033","4980-A6","2018/10/18 15:08:52","新北市中和區景新街64巷7弄14號","121.504535","24.9985133333333","6500300","中和區"
"235034","558-UM","2018/10/18 15:08:55","新北市中和區中正路281號","121.494901666667","24.9938666666667","6500300","中和區"
"235018","640-BX","2018/10/18 15:09:11","新北市中和區民享街35巷8弄15號","121.474631666667","25.0034966666667","6500300","中和區"
"235035","783-BX","2018/10/18 15:09:02","新北市中和區中正路860號","121.484566666667","25.0054516666667","6500300","中和區"
"235012","896-TW","2018/10/18 15:09:08","新北市中和區興南路二段49-6號","121.50741","24.985315","6500300","中和區"
"235001","AAC-213","2018/10/18 15:08:54","新北市中和區秀朗路三段138號","121.524386666667","24.991545","6500300","中和區"
"235023","AAC-215","2018/10/18 15:09:07","新北市中和區圓通路335巷37弄2號","121.493896666667","24.9893366666667","6500300","中和區"
"220017","AAD-861","2018/10/18 15:09:07","新北市板橋區大明街25巷4弄14號","121.457525","25.0021916666667","6500100","板橋區"
"228004","212-TW","2018/10/18 15:09:01","新北市貢寮區雙玉里田寮洋街16-2號","121.921841666667","25.0250983333333","6502600","貢寮區"
"253003","6232-TK","2018/10/18 15:08:55","新北市石門區小坑12-1號","121.59544","25.2841416666667","6502200","石門區"
"253004","6251-TK","2018/10/18 15:08:55","新北市石門區小坑23號","121.594253333333","25.27842","6502200","石門區"
"253002","637-UY","2018/10/18 15:09:00","新北市石門區楓林37-8號","121.541295","25.2883416666667","6502200","石門區"
"253001","KEC-0718","2018/10/18 15:08:55","新北市石門區崁子腳37-5號","121.536553333333","25.2686583333333","6502200","石門區"
"207002","749-BX","2018/10/18 15:08:26","新北市萬里區崁腳里內中福路87號","121.655186666667","25.1663516666667","6502800","萬里區"
"207001","662-BX","2018/10/18 15:09:00","新北市萬里區雙興里麗水路7-2號","121.65145","25.1853766666667","6502800","萬里區"
"237012","275-BY","2018/10/18 14:43:42","新北市三峽區中山路459巷137號","121.349945","24.9339383333333","6500900","三峽區"
"236068","105-UM","2018/10/18 15:09:08","新北市土城區學成路156號","121.448175","24.9893966666667","6501300","土城區"
"236040","107-UM","2018/10/18 15:09:03","新北市土城區裕民路235號","121.454308333333","24.9832583333333","6501300","土城區"
"236074","166-UM","2018/10/18 15:09:00","新北市土城區中州路3巷43號","121.413331666667","24.9563766666667","6501300","土城區"
"236029","253-BX","2018/10/18 15:08:52","新北市土城區中央路二段48號","121.442331666667","24.9796783333333","6501300","土城區"
"236024","269-VK","2018/10/18 15:09:05","新北市土城區中正路15-1號","121.443301666667","24.9753133333333","6501300","土城區"
"236012","270-VK","2018/10/18 15:09:05","新北市土城區學府路一段37巷33號","121.457508333333","24.9875066666667","6501300","土城區"
"236032","271-VK","2018/10/18 15:09:03","新北市土城區明德路一段229號","121.46297","24.9784283333333","6501300","土城區"
"236017","401-BY","2018/10/18 15:09:03","新北市土城區延峰街29巷1號","121.469426666667","24.9851516666667","6501300","土城區"
"236057","912-UM","2018/10/18 15:09:05","新北市土城區千歲路3巷6弄16號","121.441673333333","24.970065","6501300","土城區"
"236045","913-UM","2018/10/18 15:08:56","新北市土城區清水路177號","121.459488333333","24.98156","6501300","土城區"
"236054","AAC-216","2018/10/18 15:09:12","新北市土城區學府路一段211號","121.451598333333","24.98454","6501300","土城區"
"242001","233-RS","2018/10/18 15:08:58","新北市新莊區中平路377巷28號","121.442031666667","25.0529083333333","6500500","新莊區"
"238002","755-BX","2018/10/18 15:09:07","新北市樹林區中山路二段209號","121.403676666667","24.9769833333333","6500700","樹林區"
"238010","601-UM","2018/10/18 15:09:09","新北市樹林區大安路500號","121.414151666667","24.9865683333333","6500700","樹林區"
"238006","599-UM","2018/10/18 15:08:56","新北市樹林區太平路273巷23號","121.421155","24.97622","6500700","樹林區"
"238005","571-TV","2018/10/18 15:09:10","新北市板橋區溪城路90-2號","121.428555","24.979425","6500700","樹林區"
"238009","KEA-2213","2018/10/18 15:08:57","新北市樹林區八德街226-6號","121.414975","24.9712566666667","6500700","樹林區"
"238008","KEA-2539","2018/10/18 15:08:54","新北市樹林區西圳街一段165巷20弄12號","121.395255","24.96084","6500700","樹林區"
"238012","303-VK","2018/10/18 15:08:56","新北市樹林區中山路二段222號","121.41117","24.9819933333333","6500700","樹林區"
"238004","283-BY","2018/10/18 15:09:02","新北市樹林區八德街224號","121.415468333333","24.9718116666667","6500700","樹林區"
"238001","282-BY","2018/10/18 15:09:00","新北市樹林區中山路三段27號","121.401696666667","24.9755733333333","6500700","樹林區"
"238007","268-VK","2018/10/18 15:08:58","新北市樹林區中山路三段5號","121.40176","24.9756283333333","6500700","樹林區"
"238013","172-UY","2018/10/18 15:09:10","新北市樹林區東順街113號","121.407578333333","24.9753483333333","6500700","樹林區"
"238003","169-UY","2018/10/18 15:09:08","新北市樹林區中山路二段195號","121.404253333333","24.97743","6500700","樹林區"
"221010","269-BY","2018/10/18 15:09:02","新北市汐止區汐萬路一段256巷3號","121.652193333333","25.07488","6501100","汐止區"
"221032","280-BY","2018/10/18 15:09:04","新北市汐止區橫科路221巷19-1號","121.621593333333","25.0495183333333","6501100","汐止區"
"220027","145-BY","2018/10/18 15:09:13","新北市板橋區南雅西路二段175巷9號","121.451668333333","25.012095","6500100","板橋區"
"220050","245-BX","2018/10/18 15:08:57","新北市板橋區雙十路二段47巷4弄24號","121.474893333333","25.0264683333333","6500100","板橋區"
"220031","286-VK","2018/10/18 15:08:07","新北市板橋區僑中二街88巷23號","121.445141666667","25.0095766666667","6500100","板橋區"
"220029","287-VK","2018/10/18 15:09:08","新北市板橋區僑中一街124巷18弄26-1號","121.447161666667","25.013595","6500100","板橋區"
"220009","293-UM","2018/10/18 15:09:08","新北市板橋區觀光街4巷2弄1號","121.472348333333","25.0159316666667","6500100","板橋區"
"220032","296-UM","2018/10/18 15:09:11","新北市樹林區環河路10號","121.427016666667","24.9782733333333","6500100","板橋區"
"220041","307-R5","2018/10/18 15:06:30","新北市板橋區新海路135巷5號","121.460483333333","25.0233733333333","6500100","板橋區"
"220012","486-VK","2018/10/18 15:09:11","新北市板橋區漢生東路193巷19-4號","121.470826666667","25.0119633333333","6500100","板橋區"
"220038","487-VK","2018/10/18 15:09:00","新北市板橋區新海路403巷18號","121.457796666667","25.026425","6500100","板橋區"
"220037","491-VK","2018/10/18 15:09:12","新北市板橋區文聖街151號","121.478558333333","25.028025","6500100","板橋區"
"220052","561-BX","2018/10/18 15:09:03","新北市板橋區英士路58巷24號","121.460721666667","25.0255316666667","6500100","板橋區"
"220011","609-BX","2018/10/18 15:09:07","新北市板橋區中山路二段385號","121.480163333333","25.0192866666667","6500100","板橋區"
"220025","687-BX","2018/10/18 15:09:11","新北市板橋區僑中一街124巷22號","121.446201666667","25.0142083333333","6500100","板橋區"
"220042","689-BX","2018/10/18 15:09:06","新北市板橋區文化路二段606號","121.47741","25.03522","6500100","板橋區"
"220051","KEA-2699","2018/10/18 15:08:52","新北市板橋區懷德街76巷6號","121.477723333333","25.03184","6500100","板橋區"
"220003","827-TW","2018/10/18 15:09:09","新北市板橋區國慶路167巷15號","121.461901666667","24.997235","6500100","板橋區"
"220014","829-TW","2018/10/18 15:09:10","新北市板橋區中山路一段206巷95號","121.472188333333","25.0133833333333","6500100","板橋區"
"220016","830-TW","2018/10/18 15:09:03","新北市板橋區光復街213號","121.484823333333","25.02116","6500100","板橋區"
"220046","AAC-210","2018/10/18 15:08:52","新北市板橋區光正街45巷2弄6號","121.461581666667","25.01736","6500100","板橋區"
"220018","AAC-253","2018/10/18 15:08:57","新北市板橋區成都街17號","121.460468333333","25.0048983333333","6500100","板橋區"
