"lineid","car","time","location","longitude","latitude","cityid","cityname"
"234028","746-BX","2018/10/18 15:28:58","新北市林口區太平里180號","121.368443333333","25.1344733333333","6500400","永和區"
"231002","002-UM","2018/10/18 15:28:53","新北市新店區中正路501-4號","121.533643333333","24.983815","6500600","新店區"
"231028","046-UY","2018/10/18 15:28:51","新北市新店區僑信路100號","121.499975","24.94745","6500600","新店區"
"231021","108-UY","2018/10/18 15:28:56","新北市新店區湖興路109號","121.560345","24.93558","6500600","新店區"
"231011","187-VK","2018/10/18 15:28:52","新北市新店區寶慶街5號","121.544251666667","24.9864866666667","6500600","新店區"
"231023","KEA-2219","2018/10/18 15:29:07","新北市新店區北新路一段339號","121.541896666667","24.9686983333333","6500600","新店區"
"231026","256-BX","2018/10/18 15:29:11","新北市新店區三民路117巷7弄1號","121.534053333333","24.9709066666667","6500600","新店區"
"231003","268-BY","2018/10/18 15:28:56","新北市新店區寶高路120巷1號","121.554586666667","24.9761166666667","6500600","新店區"
"231018","278-BY","2018/10/18 15:29:00","新北市新店區民生路158巷53號","121.527391666667","24.9811566666667","6500600","新店區"
"231017","AAD-862","2018/10/18 15:28:59","新北市新店區明山路45號","121.563853333333","24.9559466666667","6500600","新店區"
"231037","4716-K9","2018/10/18 15:29:08","新北市新店區安興路91巷47號","121.511956666667","24.9745383333333","6500600","新店區"
"231025","4715-K9","2018/10/18 15:29:08","新北市新店區安康路二段51號","121.514261666667","24.9634366666667","6500600","新店區"
"231036","512-UM","2018/10/18 15:28:56","新北市新店區安祥路69巷54弄28號","121.482763333333","24.9587283333333","6500600","新店區"
"231034","616-UM","2018/10/18 15:29:03","新北市新店區玫瑰路28號","121.495308333333","24.9502","6500600","新店區"
"231006","617-UM","2018/10/18 15:28:53","新北市新店區安和路一段2-3號","121.51724","24.9642716666667","6500600","新店區"
"231005","618-UM","2018/10/18 15:29:08","新北市新店區建國路293巷1號","121.536806666667","24.9859716666667","6500600","新店區"
"231030","619-UM","2018/10/18 15:29:01","新北市新店區永安街56巷49號","121.5196","24.98527","6500600","新店區"
"231035","719-UM","2018/10/18 15:29:00","新北市新店區安民街365巷10弄3號","121.515531666667","24.97561","6500600","新店區"
"231039","719-UY","2018/10/18 15:28:57","新北市新店區寶元路一段85巷10號","121.543035","24.98589","6500600","新店區"
"231031","720-UM","2018/10/18 15:29:08","新北市新店區裕合街5號","121.489703333333","24.9499516666667","6500600","新店區"
"231029","897-TW","2018/10/18 15:28:50","新北市新店區安康路三段517號","121.481891666667","24.94853","6500600","新店區"
"231004","899-TW","2018/10/18 15:29:07","新北市新店區民族路105號","121.538145","24.9772083333333","6500600","新店區"
"241011","013-R5","2018/10/18 15:29:02","新北市三重區環河南路99號","121.500695","25.0576083333333","6500200","三重區"
"241028","022-UY","2018/10/18 15:29:08","新北市三重區重新路四段121號","121.484905","25.0525166666667","6500200","三重區"
"241015","062-VK","2018/10/18 15:28:56","新北市三重區重新路四段121號","121.485166666667","25.052495","6500200","三重區"
"241017","063-VK","2018/10/18 15:28:59","新北市三重區重新路三段80號","121.493125","25.0611316666667","6500200","三重區"
"241007","398-BY","2018/10/18 15:29:01","新北市三重區重新路四段121號","121.485161666667","25.05262","6500200","三重區"
"241020","478-VK","2018/10/18 15:29:00","新北市三重區重新路四段121號","121.484775","25.0523216666667","6500200","三重區"
"241014","543-UM","2018/10/18 15:29:05","新北市三重區重新路四段121號","121.4851","25.0525416666667","6500200","三重區"
"241005","887-TS","2018/10/18 15:28:56","新北市三重區重新路四段121號","121.48505","25.052505","6500200","三重區"
"241033","AAC-255","2018/10/18 15:28:53","新北市三重區成功路171號","121.486308333333","25.0522466666667","6500200","三重區"
"235030","003-UY","2018/10/18 15:28:58","新北市中和區中山路二段3巷22弄24號","121.50594","25.004495","6500300","中和區"
"235014","4979-A6","2018/10/18 15:29:11","新北市中和區景新街160巷9號","121.50521","24.996885","6500300","中和區"
"235033","4980-A6","2018/10/18 15:28:52","新北市中和區連城路347巷43號","121.488573333333","24.99475","6500300","中和區"
"235012","896-TW","2018/10/18 15:29:08","新北市中和區景新街397號","121.51264","24.989885","6500300","中和區"
"235023","AAC-215","2018/10/18 15:29:07","新北市中和區員山路28-8號","121.482746666667","24.9876066666667","6500300","中和區"
"253003","6232-TK","2018/10/18 15:28:55","新北市石門區小坑9號","121.594421666667","25.2884","6502200","石門區"
"253001","KEC-0718","2018/10/18 15:28:55","新北市石門區崁子腳30-1號","121.535966666667","25.2879233333333","6502200","石門區"
"207001","662-BX","2018/10/18 15:27:20","","121.709828333333","25.1925516666667","6502800","萬里區"
"236068","105-UM","2018/10/18 15:29:08","新北市土城區中央路二段192巷3號","121.441291666667","24.97595","6501300","土城區"
"236040","107-UM","2018/10/18 15:29:03","新北市土城區學府路一段98巷25-1號","121.455165","24.9886166666667","6501300","土城區"
"236074","166-UM","2018/10/18 15:29:00","新北市土城區溪頭路20巷2弄2號","121.41293","24.95552","6501300","土城區"
"236029","253-BX","2018/10/18 15:28:52","新北市土城區中央路一段242巷8弄6號","121.443948333333","24.9854383333333","6501300","土城區"
"236024","269-VK","2018/10/18 15:29:05","新北市土城區中央路二段89號","121.442426666667","24.9781283333333","6501300","土城區"
"236012","270-VK","2018/10/18 15:29:05","新北市土城區廣明街1號","121.455951666667","24.99191","6501300","土城區"
"236032","271-VK","2018/10/18 15:29:03","新北市土城區延吉街353巷6號","121.46458","24.98365","6501300","土城區"
"236017","401-BY","2018/10/18 15:29:07","新北市土城區延吉街137巷12弄12號","121.470475","24.9854033333333","6501300","土城區"
"236057","912-UM","2018/10/18 15:29:05","新北市土城區中華路二段2號","121.43959","24.9795733333333","6501300","土城區"
"236045","913-UM","2018/10/18 15:29:05","新北市土城區青雲路208號","121.45908","24.98179","6501300","土城區"
"236060","915-UM","2018/10/18 15:29:04","新北市土城區延和路62巷8弄2號","121.466141666667","24.988415","6501300","土城區"
"236054","AAC-216","2018/10/18 15:29:12","新北市土城區延和路154號","121.467971666667","24.9903233333333","6501300","土城區"
"242001","233-RS","2018/10/18 15:28:58","新北市新莊區環河路636-7號","121.437363333333","25.0116683333333","6500500","新莊區"
"238002","755-BX","2018/10/18 15:29:07","新北市樹林區復興路196號","121.419985","24.9909533333333","6500700","樹林區"
"238010","601-UM","2018/10/18 15:29:09","新北市樹林區三福街28號","121.40837","25.0166766666667","6500700","樹林區"
"238006","599-UM","2018/10/18 15:28:55","新北市樹林區太平路89號","121.419031666667","24.9814083333333","6500700","樹林區"
"238005","571-TV","2018/10/18 15:29:10","新北市樹林區保安街一段20巷14號","121.427865","24.993865","6500700","樹林區"
"238011","5061-A6","2018/10/18 15:29:04","新北市樹林區八德街212巷20號","121.415368333333","24.9733333333333","6500700","樹林區"
"238009","KEA-2213","2018/10/18 15:28:57","新北市樹林區信義街24號","121.423165","24.9822033333333","6500700","樹林區"
"238008","KEA-2539","2018/10/18 15:28:54","新北市樹林區柑園街一段68號","121.402276666667","24.9603283333333","6500700","樹林區"
"238012","303-VK","2018/10/18 15:29:01","新北市樹林區中山路一段376-3號","121.418853333333","24.9855433333333","6500700","樹林區"
"238004","283-BY","2018/10/18 15:29:02","新北市樹林區保安街二段333巷2號","121.412331666667","25.0076566666667","6500700","樹林區"
"238001","282-BY","2018/10/18 15:29:00","新北市樹林區中正路49號","121.426848333333","24.9994833333333","6500700","樹林區"
"238007","268-VK","2018/10/18 15:28:58","新北市樹林區俊英街116巷41弄19號","121.42871","25.0068316666667","6500700","樹林區"
"238013","172-UY","2018/10/18 15:28:50","新北市樹林區新興街19巷34弄7號","121.402208333333","24.97326","6500700","樹林區"
"238003","169-UY","2018/10/18 15:29:10","新北市樹林區長壽街28巷3號","121.422918333333","24.9941516666667","6500700","樹林區"
"221032","280-BY","2018/10/18 15:29:04","新北市汐止區樟樹一路135巷35號","121.640703333333","25.0656133333333","6501100","汐止區"
"220050","245-BX","2018/10/18 15:28:57","新北市板橋區縣民大道二段101號","121.466578333333","25.0156883333333","6500100","板橋區"
"220031","286-VK","2018/10/18 15:29:06","新北市板橋區僑中二街104巷12號","121.445463333333","25.008025","6500100","板橋區"
"220029","287-VK","2018/10/18 15:29:08","新北市板橋區大觀路二段142號","121.442808333333","24.9990716666667","6500100","板橋區"
"220032","296-UM","2018/10/18 15:29:11","新北市樹林區環河路600號","121.404196666667","24.9693183333333","6500100","板橋區"
"220038","487-VK","2018/10/18 15:29:00","新北市板橋區四維路133號","121.465028333333","25.02522","6500100","板橋區"
"220052","561-BX","2018/10/18 15:28:57","新北市板橋區漢生東路43巷28號","121.466466666667","25.0176116666667","6500100","板橋區"
"220011","609-BX","2018/10/18 15:29:07","新北市板橋區中山路二段174號","121.477146666667","25.0172833333333","6500100","板橋區"
"220042","689-BX","2018/10/18 15:29:06","新北市板橋區長江路一段150號","121.460921666667","25.0302666666667","6500100","板橋區"
"220051","KEA-2699","2018/10/18 15:29:11","新北市板橋區民生路二段201號","121.46927","25.0207083333333","6500100","板橋區"
"220018","AAC-253","2018/10/18 15:28:57","新北市板橋區四川路二段253號","121.450411666667","24.9932483333333","6500100","板橋區"
