"lineid","car","time","location","longitude","latitude","cityid","cityname"
"249005","172-UM","2018/10/18 16:49:11","新北市八里區大堀湖1-5號","121.422853333333","25.1549966666667","6502300","八里區"
"249004","303-UY","2018/10/18 16:48:54","新北市八里區博物館路202巷38號","121.405386666667","25.159615","6502300","八里區"
"249002","305-UY","2018/10/18 16:48:54","新北市八里區牛寮埔31號","121.42985","25.145795","6502300","八里區"
"244023","069-UM","2018/10/18 16:48:59","新北市林口區粉寮路二段88巷100-12號","121.40967","25.0901983333333","6501700","林口區"
"244007","080-UY","2018/10/18 16:48:54","新北市林口區竹林路326巷50號","121.393068333333","25.0808716666667","6501700","林口區"
"244019","403-UM","2018/10/18 16:49:12","新北市林口區粉寮路二段88巷100-12號","121.40963","25.0901716666667","6501700","林口區"
"244017","485-VK","2018/10/18 16:49:00","新北市林口區粉寮路二段88巷100-12號","121.409756666667","25.090155","6501700","林口區"
"243014","680-BX","2018/10/18 16:31:29","新北市泰山區黎明路39-3號","121.422146666667","25.0592066666667","6501600","泰山區"
"231046","107-UY","2018/10/18 16:48:54","新北市新店區灣潭路15-5號","121.541793333333","24.93998","6500600","新店區"
"241011","013-R5","2018/10/18 16:49:02","新北市三重區仁愛街53巷106號","121.498645","25.07248","6500200","三重區"
"241028","022-UY","2018/10/18 16:49:08","新北市三重區光興街93號","121.497335","25.0599516666667","6500200","三重區"
"241008","059-VK","2018/10/18 16:49:09","新北市三重區永安北路一段17巷22-6號","121.477288333333","25.0751933333333","6500200","三重區"
"241022","060-VK","2018/10/18 16:49:09","新北市三重區中華路113號","121.483858333333","25.0634783333333","6500200","三重區"
"241031","061-VK","2018/10/18 16:49:12","新北市三重區重陽路一段134號","121.486755","25.0605466666667","6500200","三重區"
"241015","062-VK","2018/10/18 16:48:56","新北市三重區文化北路43巷4號","121.499153333333","25.0655066666667","6500200","三重區"
"241017","063-VK","2018/10/18 16:48:59","新北市三重區國隆路6號","121.493508333333","25.063675","6500200","三重區"
"241024","065-VK","2018/10/18 16:49:05","新北市三重區中正北路317巷37號","121.476226666667","25.0731183333333","6500200","三重區"
"241026","066-VK","2018/10/18 16:49:15","新北市三重區文化南路8-4號","121.50043","25.0621033333333","6500200","三重區"
"241002","090-VK","2018/10/18 16:49:07","新北市三重區仁義街213號","121.496771666667","25.0818683333333","6500200","三重區"
"241003","091-VK","2018/10/18 16:49:09","新北市三重區五華街87巷34號","121.493016666667","25.084135","6500200","三重區"
"251014","742-BX","2018/10/18 16:49:11","新北市淡水區淡金路四段478號","121.452408333333","25.2239333333333","6501000","淡水區"
"241012","265-UM","2018/10/18 16:49:04","新北市三重區仁興街11巷76號","121.501846666667","25.0747883333333","6500200","三重區"
"241016","266-UM","2018/10/18 16:49:05","新北市三重區大同北路133巷36號","121.493835","25.0646466666667","6500200","三重區"
"241009","267-UM","2018/10/18 16:49:10","新北市三重區三和路四段203巷268號","121.487628333333","25.0810283333333","6500200","三重區"
"241018","268-UM","2018/10/18 16:49:04","新北市三重區安樂街62號","121.495211666667","25.0693933333333","6500200","三重區"
"241013","270-UM","2018/10/18 16:49:07","新北市三重區仁壽街75號","121.497808333333","25.07363","6500200","三重區"
"241025","271-UM","2018/10/18 16:49:08","新北市三重區中正北路530巷19號","121.47205","25.0703816666667","6500200","三重區"
"241007","398-BY","2018/10/18 16:49:01","新北市三重區三和路四段181巷148號","121.485758333333","25.0799166666667","6500200","三重區"
"241004","475-VK","2018/10/18 16:48:58","新北市三重區仁愛街423-1號","121.490353333333","25.0814716666667","6500200","三重區"
"241020","478-VK","2018/10/18 16:49:00","新北市三重區忠孝路二段34號","121.485808333333","25.0710366666667","6500200","三重區"
"241030","480-VK","2018/10/18 16:48:58","新北市三重區新興路6號","121.492706666667","25.0528966666667","6500200","三重區"
"241014","543-UM","2018/10/18 16:49:05","新北市三重區長壽街120巷11號","121.502508333333","25.0691316666667","6500200","三重區"
"241023","545-UM","2018/10/18 16:49:08","新北市三重區中華路76巷37-1號","121.482046666667","25.0626183333333","6500200","三重區"
"241001","547-UM","2018/10/18 16:49:03","新北市三重區仁政街86巷18號","121.491731666667","25.0773133333333","6500200","三重區"
"241019","KEA-2593","2018/10/18 16:49:13","新北市三重區三張街149巷10弄9號","121.486088333333","25.0698066666667","6500200","三重區"
"241006","AAD-863","2018/10/18 16:49:11","新北市三重區力行路二段182-3號","121.48346","25.0775016666667","6500200","三重區"
"241005","887-TS","2018/10/18 16:48:56","新北市三重區碧華街148巷21號","121.485236666667","25.0825316666667","6500200","三重區"
"241029","942-UM","2018/10/18 16:48:54","新北市三重區集美街207巷12號","121.49216","25.0542183333333","6500200","三重區"
"241033","AAC-255","2018/10/18 16:49:13","新北市三重區新北大道二段139巷9號","121.466345","25.0608766666667","6500200","三重區"
"235046","733-UM","2018/10/18 16:48:50","新北市中和區員山路36巷13號","121.484146666667","24.9908383333333","6500300","中和區"
"247020","057-VK","2018/10/18 16:49:02","新北市蘆洲區民族路422巷14號","121.474163333333","25.0921466666667","6501400","蘆洲區"
"247010","056-VK","2018/10/18 16:49:06","新北市蘆洲區中正路520巷9號","121.462475","25.099645","6501400","蘆洲區"
"247022","001-UY","2018/10/18 16:49:12","新北市蘆洲區中正路516巷5號","121.461163333333","25.0979","6501400","蘆洲區"
"228003","097-TW","2018/10/18 16:49:12","新北市貢寮區貢寮里朝陽街1-2號","121.91236","25.02122","6502600","貢寮區"
"228002","585-TW","2018/10/18 16:48:57","新北市貢寮區貢寮里長泰路24-2號","121.904361666667","25.0237016666667","6502600","貢寮區"
"224006","676-BX","2018/10/18 16:49:11","新北市瑞芳區大寮路356-1號","121.784685","25.1031016666667","6501200","瑞芳區"
"224008","285-BY","2018/10/18 16:49:13","新北市瑞芳區中山路209號","121.801263333333","25.1066666666667","6501200","瑞芳區"
"224007","275-VK","2018/10/18 16:48:56","新北市瑞芳區中央路48巷174號","121.759105","25.1032916666667","6501200","瑞芳區"
"224009","272-VK","2018/10/18 16:49:13","新北市瑞芳區明燈路一段45巷2-3號","121.821268333333","25.106945","6501200","瑞芳區"
"224005","271-BY","2018/10/18 16:49:07","新北市瑞芳區洞頂路61號","121.861685","25.120395","6501200","瑞芳區"
"227004","642-TC","2018/10/18 16:49:09","新北市雙溪區外柑里外柑腳71號","121.807113333333","25.0175833333333","6502500","雙溪區"
"227010","400-TW","2018/10/18 16:48:52","新北市雙溪區牡丹里石1-1號","121.864206666667","25.0480566666667","6502500","雙溪區"
"251013","KEA-2871","2018/10/18 16:48:53","新北市淡水區泉洲厝32號","121.489276666667","25.1924983333333","6501000","淡水區"
"251016","179-VK","2018/10/18 16:48:53","新北市淡水區水頭42號","121.478153333333","25.185075","6501000","淡水區"
"251015","180-VK","2018/10/18 16:49:10","新北市淡水區忠愛街5-2號","121.460676666667","25.1715833333333","6501000","淡水區"
"251008","181-VK","2018/10/18 16:48:55","新北市淡水區樹梅坑44號","121.47459","25.1443333333333","6501000","淡水區"
"251012","441-VK","2018/10/18 16:49:16","新北市淡水區中正路二段31號","121.41965","25.18157","6501000","淡水區"
"251004","443-VK","2018/10/18 16:48:57","新北市淡水區中正路二段31號","121.419151666667","25.181765","6501000","淡水區"
"251007","577-R6","2018/10/18 16:49:02","新北市淡水區中正路二段31號","121.419588333333","25.181255","6501000","淡水區"
"251011","650-BX","2018/10/18 16:49:09","新北市淡水區中正路二段31號","121.419345","25.18165","6501000","淡水區"
"252002","178-VK","2018/10/18 16:49:01","新北市三芝區茂長里陳厝坑11號","121.514945","25.2553583333333","6502100","三芝區"
"252001","292-VK","2018/10/18 16:48:56","新北市三芝區淡金路二段89號","121.503983333333","25.26069","6502100","三芝區"
"242029","612-BX","2018/10/18 16:49:10","新北市新莊區新泰路255巷83號","121.442038333333","25.0390016666667","6500500","新莊區"
"242015","442-UM","2018/10/18 16:49:12","新北市新莊區新泰路255巷83號","121.442113333333","25.039035","6500500","新莊區"
"242019","175-VK","2018/10/18 16:49:02","新北市新莊區三和路12-21號","121.44183","25.038825","6500500","新莊區"
"242017","346-TH","2018/10/18 16:48:55","新北市新莊區三和路12-21號","121.442141666667","25.03817","6500500","新莊區"
"242031","348-TH","2018/10/18 16:49:02","新北市新莊區新泰路357巷3弄57號","121.44213","25.0396066666667","6500500","新莊區"
"238004","283-BY","2018/10/18 16:49:02","新北市樹林區中正路433-2號","121.41475","25.0083416666667","6500700","樹林區"
"238001","282-BY","2018/10/18 16:48:59","新北市樹林區大慶街99-1號","121.427735","24.9997433333333","6500700","樹林區"
"239007","AAC-297","2018/10/18 16:49:10","新北市鶯歌區二甲路13-16號","121.345053333333","24.9352116666667","6500800","鶯歌區"
"220031","286-VK","2018/10/18 16:33:57","新北市板橋區華東街1-10號","121.448345","24.9950616666667","6500100","板橋區"
