"lineid","car","time","location","longitude","latitude","cityid","cityname"
"234026","9371-KE","2018/10/18 17:37:59","新北市永和區豫溪街33號","121.516426666667","25.0098716666667","6500400","永和區"
"249005","172-UM","2018/10/18 17:38:11","新北市八里區荖阡坑路41-10號","121.402385","25.1331333333333","6502300","八里區"
"249001","173-UM","2018/10/18 17:38:08","新北市八里區龍米路二段190號","121.433858333333","25.1583133333333","6502300","八里區"
"249004","303-UY","2018/10/18 17:38:14","新北市八里區大崁二街30號","121.417936666667","25.1579383333333","6502300","八里區"
"249002","305-UY","2018/10/18 17:37:54","新北市八里區石壁腳6-2號","121.435695","25.1348766666667","6502300","八里區"
"249003","593-UM","2018/10/18 17:37:53","新北市八里區中山路二段225號","121.403438333333","25.1493266666667","6502300","八里區"
"232011","375-UM","2018/10/18 17:38:09","新北市坪林區北宜路八段76號","121.705398333333","24.93519","6502000","坪林區"
"244023","069-UM","2018/10/18 17:37:59","新北市林口區興林路152巷17號","121.387388333333","25.0716116666667","6501700","林口區"
"244007","080-UY","2018/10/18 17:37:55","新北市林口區文化一路二段313號","121.385886666667","25.0860766666667","6501700","林口區"
"244019","403-UM","2018/10/18 17:38:12","新北市林口區文化一路一段83巷14弄60-1號","121.372463333333","25.07142","6501700","林口區"
"244013","KEA-2802","2018/10/18 17:38:02","新北市林口區粉寮路一段51號","121.396676666667","25.0777333333333","6501700","林口區"
"244017","485-VK","2018/10/18 17:38:00","新北市林口區忠孝路377號","121.369328333333","25.071585","6501700","林口區"
"244009","656-BX","2018/10/18 17:38:06","新北市林口區中北三街71號","121.384473333333","25.0852016666667","6501700","林口區"
"244011","701-TV","2018/10/18 17:38:04","新北市林口區佳林路211號","121.384208333333","25.0771183333333","6501700","林口區"
"244025","837-TS","2018/10/18 17:37:56","新北市林口區文化三路一段394巷32號","121.366688333333","25.07237","6501700","林口區"
"244021","838-TS","2018/10/18 17:38:05","新北市林口區中山路2號","121.396851666667","25.0785216666667","6501700","林口區"
"222002","659-BX","2018/10/18 17:38:14","新北市深坑區深南路49號","121.621363333333","25.0094733333333","6501800","深坑區"
"231046","107-UY","2018/10/18 17:37:54","新北市新店區直潭路92號","121.530913333333","24.93757","6500600","新店區"
"241011","013-R5","2018/10/18 17:38:02","新北市三重區龍濱路283巷8號","121.501145","25.0737433333333","6500200","三重區"
"241017","063-VK","2018/10/18 17:38:14","新北市三重區大同北路32號","121.495166666667","25.06256","6500200","三重區"
"251014","742-BX","2018/10/18 17:38:11","新北市淡水區公埔子16-6號","121.48103","25.2245933333333","6501000","淡水區"
"241012","265-UM","2018/10/18 17:38:04","新北市三重區仁興街39巷42號","121.500928333333","25.076505","6500200","三重區"
"241016","266-UM","2018/10/18 17:38:05","新北市三重區正義北路15-4號","121.497703333333","25.0630633333333","6500200","三重區"
"241007","398-BY","2018/10/18 17:38:01","新北市三重區後竹圍街205巷50號","121.484376666667","25.0731966666667","6500200","三重區"
"241024","KEA-2210","2018/10/18 17:38:09","新北市三重區大勇街35號","121.482553333333","25.0716866666667","6500200","三重區"
"241030","480-VK","2018/10/18 17:37:58","新北市三重區環河南路257-1號","121.490885","25.0503283333333","6500200","三重區"
"241014","543-UM","2018/10/18 17:38:05","新北市三重區河邊北街80號","121.50432","25.0688466666667","6500200","三重區"
"241023","545-UM","2018/10/18 17:38:08","新北市三重區三民街173號","121.483278333333","25.06492","6500200","三重區"
"241019","KEA-2593","2018/10/18 17:37:53","新北市三重區六張街241號","121.487845","25.068425","6500200","三重區"
"241005","887-TS","2018/10/18 17:37:56","新北市三重區永安北路二段5巷20號","121.482381666667","25.081195","6500200","三重區"
"241033","AAC-255","2018/10/18 17:38:09","新北市三重區興德路141巷29號","121.469485","25.0540583333333","6500200","三重區"
"247012","KEA-2869","2018/10/18 17:38:07","新北市蘆洲區復興路92號","121.475716666667","25.0868133333333","6501400","蘆洲區"
"247002","893-R6","2018/10/18 17:37:55","新北市蘆洲區環堤大道212號","121.45751","25.0920116666667","6501400","蘆洲區"
"247016","546-UM","2018/10/18 17:38:11","新北市蘆洲區光華路57號","121.468495","25.0828933333333","6501400","蘆洲區"
"247024","500-BY","2018/10/18 17:38:12","新北市蘆洲區長樂路93號","121.462201666667","25.0873933333333","6501400","蘆洲區"
"247014","339-TH","2018/10/18 17:38:07","新北市蘆洲區中山二路69號","121.473518333333","25.08202","6501400","蘆洲區"
"247006","337-TH","2018/10/18 17:38:03","新北市蘆洲區長安街66號","121.462851666667","25.0801033333333","6501400","蘆洲區"
"247008","336-TH","2018/10/18 17:38:00","新北市蘆洲區民生街131巷6號","121.47258","25.078945","6501400","蘆洲區"
"247020","057-VK","2018/10/18 17:38:02","新北市蘆洲區民族路355號","121.47184","25.0916916666667","6501400","蘆洲區"
"247010","056-VK","2018/10/18 17:38:11","新北市蘆洲區中山一路70號","121.47895","25.0809966666667","6501400","蘆洲區"
"247018","007-UY","2018/10/18 17:37:58","新北市蘆洲區水湳街22號","121.472396666667","25.0883733333333","6501400","蘆洲區"
"247004","002-UY","2018/10/18 17:38:04","新北市蘆洲區永安南路二段306號","121.457241666667","25.0823583333333","6501400","蘆洲區"
"247022","001-UY","2018/10/18 17:38:12","新北市蘆洲區中正路198號","121.466778333333","25.0883083333333","6501400","蘆洲區"
"228003","097-TW","2018/10/18 17:38:12","新北市貢寮區仁理村仁和路148號","121.923166666667","25.0517533333333","6502600","貢寮區"
"228002","585-TW","2018/10/18 17:37:57","新北市貢寮區福隆里福隆街2巷12號","121.945768333333","25.01563","6502600","貢寮區"
"224010","AGQ-8101","2018/10/18 17:38:02","新北市瑞芳區岳王路43-1號","121.807226666667","25.1113116666667","6501200","瑞芳區"
"224006","676-BX","2018/10/18 17:38:11","新北市瑞芳區中山路255號","121.79743","25.1097266666667","6501200","瑞芳區"
"224008","285-BY","2018/10/18 17:38:13","新北市瑞芳區坪林路7號","121.831758333333","25.1021366666667","6501200","瑞芳區"
"224009","272-VK","2018/10/18 17:38:13","新北市瑞芳區金光路334號","121.849545","25.109555","6501200","瑞芳區"
"224005","271-BY","2018/10/18 17:38:07","新北市瑞芳區海濱路8-6號","121.831723333333","25.1261883333333","6501200","瑞芳區"
"227004","642-TC","2018/10/18 17:38:09","新北市雙溪區共和里東榮街52號","121.866368333333","25.0337183333333","6502500","雙溪區"
"251009","008-UM","2018/10/18 17:38:11","新北市淡水區中正路38-1號","121.443726666667","25.169295","6501000","淡水區"
"251005","010-UM","2018/10/18 17:38:00","新北市淡水區鄧公路33巷16號","121.451926666667","25.1709","6501000","淡水區"
"251001","011-UM","2018/10/18 17:38:10","新北市淡水區民權路92巷35-1號","121.462171666667","25.1267133333333","6501000","淡水區"
"251013","KEA-2871","2018/10/18 17:38:13","新北市淡水區演戲埔腳12-1號","121.469311666667","25.19437","6501000","淡水區"
"251016","179-VK","2018/10/18 17:38:13","新北市淡水區埤島39-15號","121.452738333333","25.1958783333333","6501000","淡水區"
"251015","180-VK","2018/10/18 17:38:10","新北市淡水區糞箕湖11號","121.486231666667","25.1704683333333","6501000","淡水區"
"251008","181-VK","2018/10/18 17:37:55","新北市淡水區八勢路6號","121.462355","25.15012","6501000","淡水區"
"251010","413-VK","2018/10/18 17:37:57","新北市淡水區淡海路280巷33弄1號","121.419716666667","25.19007","6501000","淡水區"
"251012","441-VK","2018/10/18 17:38:15","新北市淡水區北新路200巷10號","121.451861666667","25.179695","6501000","淡水區"
"251004","443-VK","2018/10/18 17:38:08","新北市淡水區民權路13-5號","121.459318333333","25.1413516666667","6501000","淡水區"
"251006","561-UM","2018/10/18 17:38:10","新北市淡水區中山北路一段119巷7號","121.44229","25.1770416666667","6501000","淡水區"
"251007","577-R6","2018/10/18 17:38:02","新北市淡水區民族路33巷2號","121.464293333333","25.1374266666667","6501000","淡水區"
"251011","650-BX","2018/10/18 17:38:09","新北市淡水區小坪頂74號","121.484705","25.1591","6501000","淡水區"
"251002","672-BX","2018/10/18 17:38:08","新北市淡水區中山路151-9號","121.440151666667","25.172435","6501000","淡水區"
"251003","766-UM","2018/10/18 17:38:10","新北市淡水區中山北路一段51號","121.441768333333","25.17558","6501000","淡水區"
"207003","550-UM","2018/10/18 17:37:58","新北市萬里區龜吼里漁澳路79-3號","121.686868333333","25.19599","6502800","萬里區"
"207004","225-TW","2018/10/18 17:38:13","新北市萬里區中幅里中福路42-2號","121.68034","25.1683266666667","6502800","萬里區"
"252002","178-VK","2018/10/18 17:38:01","新北市三芝區智成街95號","121.50521","25.2555883333333","6502100","三芝區"
"252001","292-VK","2018/10/18 17:37:56","新北市三芝區淡金路一段75號","121.502051666667","25.2587683333333","6502100","三芝區"
"237013","252-BX","2018/10/18 17:38:03","新北市三峽區介壽路一段21-1號","121.375366666667","24.9334133333333","6500900","三峽區"
"237012","275-BY","2018/10/18 17:38:06","新北市三峽區中山路459巷163-3號","121.348883333333","24.9332066666667","6500900","三峽區"
"237008","302-VK","2018/10/18 17:38:15","新北市三峽區中山路321-2號","121.360898333333","24.9380366666667","6500900","三峽區"
"237016","649-BX","2018/10/18 17:38:04","新北市三峽區中園街154號","121.366908333333","24.9199933333333","6500900","三峽區"
"237010","706-TV","2018/10/18 17:38:02","新北市三峽區中山路167號","121.364585","24.93645","6500900","三峽區"
"236070","105-UM","2018/10/18 17:38:00","新北市土城區城林路6巷80號","121.43847","24.9800716666667","6501300","土城區"
"236014","270-VK","2018/10/18 17:38:08","新北市土城區城林路6巷80號","121.4385","24.9796883333333","6501300","土城區"
"236038","271-VK","2018/10/18 17:38:03","新北市土城區城林路6巷80號","121.438475","24.9797166666667","6501300","土城區"
"236021","401-BY","2018/10/18 17:37:59","新北市土城區城林路6巷80號","121.438785","24.9796216666667","6501300","土城區"
"242036","AAC-296","2018/10/18 17:38:14","新北市新莊區建福路59巷44號","121.42876","25.0276866666667","6500500","新莊區"
"242058","986-R7","2018/10/18 17:38:13","新北市新莊區中正路600號","121.426593333333","25.0301833333333","6500500","新莊區"
"242056","751-BX","2018/10/18 17:38:02","新北市新莊區泰豐街15號","121.448413333333","25.0315616666667","6500500","新莊區"
"242027","705-TV","2018/10/18 17:37:57","新北市新莊區福壽街95號","121.458045","25.0503833333333","6500500","新莊區"
"242025","613-BX","2018/10/18 17:38:05","新北市新莊區復興路二段192號","121.459201666667","25.0442766666667","6500500","新莊區"
"242029","612-BX","2018/10/18 17:38:10","新北市新莊區復興路二段5號","121.45353","25.0438933333333","6500500","新莊區"
"242044","566-BX","2018/10/18 17:37:57","新北市新莊區富國路17號","121.418495","25.0264083333333","6500500","新莊區"
"242048","497-BY","2018/10/18 17:38:09","新北市新莊區萬安街145號","121.420416666667","25.02175","6500500","新莊區"
"242015","442-UM","2018/10/18 17:38:12","新北市新莊區新泰路351號","121.444578333333","25.042355","6500500","新莊區"
"242053","441-UM","2018/10/18 17:38:13","新北市新莊區新樹路412號","121.432075","25.0023083333333","6500500","新莊區"
"242039","415-TV","2018/10/18 17:37:56","新北市新莊區民安路322號","121.42898","25.0219333333333","6500500","新莊區"
"242046","400-BY","2018/10/18 17:38:09","新北市新莊區福營路25巷20號","121.437241666667","25.0319533333333","6500500","新莊區"
"242023","362-BY","2018/10/18 17:38:04","新北市新莊區中港路132巷26號","121.456426666667","25.0406616666667","6500500","新莊區"
"242061","353-BY","2018/10/18 17:38:08","新北市新莊區瓊林南路103巷8弄41號","121.435221666667","25.0111866666667","6500500","新莊區"
"242011","132-UY","2018/10/18 17:38:10","新北市新莊區中港路528號","121.451623333333","25.0522983333333","6500500","新莊區"
"242042","133-UY","2018/10/18 17:38:09","新北市新莊區中正路514巷3號","121.433301666667","25.0327766666667","6500500","新莊區"
"242034","135-UY","2018/10/18 17:38:05","新北市新莊區新莊路504號","121.446125","25.033245","6500500","新莊區"
"242051","172-VK","2018/10/18 17:38:03","新北市新莊區西盛街171號","121.428158333333","25.0174266666667","6500500","新莊區"
"242013","173-VK","2018/10/18 17:37:56","新北市新莊區中誠街72號","121.450603333333","25.0479","6500500","新莊區"
"242019","175-VK","2018/10/18 17:38:00","新北市新莊區中港路209號","121.454855","25.0420533333333","6500500","新莊區"
"242007","176-VK","2018/10/18 17:38:10","新北市新莊區福樂街69號","121.457075","25.0477683333333","6500500","新莊區"
"242017","346-TH","2018/10/18 17:37:55","新北市新莊區復興路一段149巷21弄23號","121.449001666667","25.0439316666667","6500500","新莊區"
"242009","347-TH","2018/10/18 17:38:08","新北市新莊區昌明街14巷3弄2號","121.457333333333","25.0530033333333","6500500","新莊區"
"242031","348-TH","2018/10/18 17:38:02","新北市新莊區新泰路361巷17號","121.442836666667","25.04297","6500500","新莊區"
"242004","349-TH","2018/10/18 17:38:03","新北市新莊區自立街216號","121.457196666667","25.045415","6500500","新莊區"
"242021","350-TH","2018/10/18 17:38:11","新北市新莊區中華路一段112號","121.45251","25.0404716666667","6500500","新莊區"
"238015","755-BX","2018/10/18 17:37:58","新北市樹林區啟智街34號","121.420713333333","24.9931866666667","6500700","樹林區"
"238023","601-UM","2018/10/18 17:38:09","新北市樹林區三福街114號","121.406535","25.0163333333333","6500700","樹林區"
"238019","599-UM","2018/10/18 17:37:55","新北市樹林區太平路125號","121.41923","24.980505","6500700","樹林區"
"238018","571-TV","2018/10/18 17:38:07","新北市樹林區鎮前街78號","121.425461666667","24.9920383333333","6500700","樹林區"
"238024","5061-A6","2018/10/18 17:37:58","新北市樹林區水源街86號","121.42581","24.9805083333333","6500700","樹林區"
"238022","KEA-2213","2018/10/18 17:37:57","新北市樹林區太平路95號","121.41926","24.98124","6500700","樹林區"
"238021","KEA-2539","2018/10/18 17:38:07","新北市樹林區柑園街一段250號","121.391398333333","24.956445","6500700","樹林區"
"238025","303-VK","2018/10/18 17:38:13","新北市樹林區中正路510號","121.412071666667","25.0135266666667","6500700","樹林區"
"238017","283-BY","2018/10/18 17:38:02","新北市樹林區三德街21號","121.413491666667","25.01304","6500700","樹林區"
"238014","282-BY","2018/10/18 17:37:59","新北市樹林區保安街一段336巷14號","121.41777","24.9996883333333","6500700","樹林區"
"238020","268-VK","2018/10/18 17:37:58","新北市樹林區俊英街116巷41弄48號","121.42846","25.0073633333333","6500700","樹林區"
"238026","172-UY","2018/10/18 17:38:00","新北市樹林區新興街3號","121.400221666667","24.9740183333333","6500700","樹林區"
"238016","169-UY","2018/10/18 17:38:12","新北市樹林區育英街106號","121.420463333333","24.9893566666667","6500700","樹林區"
"239007","AAC-297","2018/10/18 17:38:10","新北市鶯歌區鶯桃路182巷33號","121.339566666667","24.95763","6500800","鶯歌區"
"239006","891-R6","2018/10/18 17:37:58","新北市鶯歌區莒光街31號","121.332726666667","24.966495","6500800","鶯歌區"
"239008","527-UM","2018/10/18 17:38:06","桃園市龜山區宏德司法新村4號","121.331111666667","24.9793283333333","6500800","鶯歌區"
"239005","526-UM","2018/10/18 17:38:01","新北市鶯歌區福隆二街15號","121.325158333333","24.9719733333333","6500800","鶯歌區"
"239001","417-VK","2018/10/18 17:38:11","新北市鶯歌區中正三路271號","121.332781666667","24.9381133333333","6500800","鶯歌區"
"239003","360-BY","2018/10/18 17:38:09","新北市鶯歌區鶯桃路204號","121.337265","24.9590133333333","6500800","鶯歌區"
"239002","359-BY","2018/10/18 17:38:10","新北市鶯歌區育智路86號","121.344978333333","24.9546433333333","6500800","鶯歌區"
"239004","193-VK","2018/10/18 17:37:56","新北市鶯歌區三鶯路107號","121.359451666667","24.94425","6500800","鶯歌區"
"221008","489-VK","2018/10/18 17:38:00","新北市汐止區康寧街901號","121.651376666667","25.0749633333333","6501100","汐止區"
"221010","269-BY","2018/10/18 17:38:11","新北市汐止區汐萬路一段418巷33號","121.650531666667","25.078905","6501100","汐止區"
"221023","279-VK","2018/10/18 17:37:59","新北市汐止區汐萬路一段256巷1號","121.651716666667","25.074885","6501100","汐止區"
"221021","299-VK","2018/10/18 17:37:55","新北市汐止區汐萬路一段256巷1號","121.651966666667","25.0747633333333","6501100","汐止區"
"221018","753-BX","2018/10/18 17:38:14","新北市汐止區康寧街901號","121.650875","25.0752466666667","6501100","汐止區"
"242002","281-VK","2018/10/18 17:38:13","新北市新莊區新莊路262號","121.451895","25.03395","6500500","新莊區"
