"lineid","car","time","location","longitude","latitude","cityid","cityname"
"234046","148-BY","2018/10/18 19:19:54","新北市永和區得和路332號","121.523408333333","24.9994716666667","6500400","永和區"
"234007","207-UY","2018/10/18 19:19:38","新北市永和區中山路一段242號","121.507721666667","25.0078716666667","6500400","永和區"
"234081","298-R6","2018/10/18 19:19:51","新北市永和區福和路5-2號","121.524851666667","25.0086316666667","6500400","永和區"
"234038","336-UY","2018/10/18 19:19:52","新北市永和區民樂街70號","121.527398333333","24.9984416666667","6500400","永和區"
"234064","337-UY","2018/10/18 19:19:38","新北市永和區永元路17巷15號","121.521318333333","25.0007066666667","6500400","永和區"
"234086","338-UY","2018/10/18 19:19:43","新北市永和區永元路130號","121.522893333333","25.0030433333333","6500400","永和區"
"234070","552-UM","2018/10/18 19:19:37","新北市永和區中正路694號","121.516538333333","25.009625","6500400","永和區"
"234017","745-BX","2018/10/18 19:19:49","新北市永和區環河西路一段85巷4弄20號","121.51206","25.0168983333333","6500400","永和區"
"234030","746-BX","2018/10/18 19:19:45","新北市永和區厚德街89號","121.523935","24.998845","6500400","永和區"
"234054","KEA-2590","2018/10/18 19:19:38","新北市永和區中興街20號","121.516116666667","25.0118483333333","6500400","永和區"
"234013","KEA-2591","2018/10/18 19:19:42","新北市永和區信義路10-1號","121.514533333333","25.0119783333333","6500400","永和區"
"234061","AAD-866","2018/10/18 19:19:53","新北市永和區秀朗路一段175號","121.517","25.003665","6500400","永和區"
"234042","862-TW","2018/10/18 19:19:50","新北市永和區保平路151巷5號","121.510205","25.0055683333333","6500400","永和區"
"234050","863-TW","2018/10/18 19:19:50","新北市永和區仁愛路140號","121.51113","25.0133866666667","6500400","永和區"
"234026","9371-KE","2018/10/18 19:19:59","新北市永和區得和路42巷23號","121.515361666667","24.9996383333333","6500400","永和區"
"234011","9373-KE","2018/10/18 19:19:48","新北市永和區保福路二段23巷19號","121.510081666667","25.011115","6500400","永和區"
"249005","172-UM","2018/10/18 19:19:51","新北市八里區中華路三段98-1號","121.392621666667","25.13705","6502300","八里區"
"249001","173-UM","2018/10/18 19:19:55","新北市八里區中山路一段452號","121.410346666667","25.157035","6502300","八里區"
"249002","305-UY","2018/10/18 19:19:54","新北市八里區頂寮二街138號","121.449355","25.1294616666667","6502300","八里區"
"249003","593-UM","2018/10/18 19:19:56","新北市八里區中山路二段470號","121.398768333333","25.147195","6502300","八里區"
"248014","025-BX","2018/10/18 19:19:46","新北市五股區民義路一段109-5號","121.43381","25.0861666666667","6501500","五股區"
"248016","026-BX","2018/10/18 19:19:43","新北市五股區成洲五路12號","121.452301666667","25.10157","6501500","五股區"
"248008","095-VK","2018/10/18 19:19:49","新北市五股區中興路二段83巷26-6號","121.460095","25.0752266666667","6501500","五股區"
"248020","225-UY","2018/10/18 19:19:50","新北市五股區凌雲路三段57號","121.42528","25.1250116666667","6501500","五股區"
"248012","247-BX","2018/10/18 19:19:57","新北市五股區中興路四段48巷16號","121.438578333333","25.0834683333333","6501500","五股區"
"248010","272-BY","2018/10/18 19:19:50","新北市五股區水碓二路1號","121.430638333333","25.0712616666667","6501500","五股區"
"248004","677-BX","2018/10/18 19:19:45","新北市五股區五福路26號","121.434156666667","25.0889","6501500","五股區"
"248002","678-BX","2018/10/18 19:19:39","新北市五股區凌雲路一段158巷6號","121.447798333333","25.1030066666667","6501500","五股區"
"234023","9380-KE","2018/10/18 19:19:55","新北市永和區竹林路112-1號","121.519768333333","25.0118116666667","6500400","永和區"
"234077","969-R7","2018/10/18 19:19:58","新北市永和區民治街68號","121.517846666667","24.9980866666667","6500400","永和區"
"234074","AAC-211","2018/10/18 19:19:57","新北市永和區竹林路101號","121.51979","25.0119566666667","6500400","永和區"
"234067","AAC-212","2018/10/18 19:20:00","新北市永和區保平路50巷23號","121.510575","25.00796","6500400","永和區"
"234003","AAC-295","2018/10/18 19:19:50","新北市永和區中山路一段117巷2號","121.510865","25.0102833333333","6500400","永和區"
"244023","069-UM","2018/10/18 19:19:39","新北市林口區文化三路一段555巷40號","121.369878333333","25.0769483333333","6501700","林口區"
"244019","403-UM","2018/10/18 19:19:52","新北市林口區文化北路二段300號","121.374273333333","25.0875716666667","6501700","林口區"
"244011","701-TV","2018/10/18 19:19:44","新北市林口區中正路341號","121.388118333333","25.0777","6501700","林口區"
"244025","837-TS","2018/10/18 19:19:56","新北市林口區民族路180-1號","121.368213333333","25.07679","6501700","林口區"
"243013","AAD-798","2018/10/18 19:19:42","新北市泰山區明志路三段145巷11弄2號","121.425805","25.039735","6501600","泰山區"
"243009","297-R6","2018/10/18 19:19:42","新北市泰山區和平街13巷11號","121.434395","25.0651466666667","6501600","泰山區"
"243016","KEA-2801","2018/10/18 19:19:58","新北市泰山區工專路6號","121.42401","25.0395116666667","6501600","泰山區"
"243015","421-VK","2018/10/18 19:19:50","新北市泰山區明志路二段27號","121.42982","25.05325","6501600","泰山區"
"243011","KEA-2215","2018/10/18 19:19:24","新北市泰山區中央路11巷1號","121.426321666667","25.04292","6501600","泰山區"
"243010","KEA-2216","2018/10/18 19:19:52","新北市泰山區明志路一段492巷5號","121.430145","25.0547283333333","6501600","泰山區"
"243012","646-TV","2018/10/18 19:19:49","新北市泰山區仁愛路100巷31號","121.433618333333","25.0549633333333","6501600","泰山區"
"243014","680-BX","2018/10/18 19:19:48","新北市泰山區泰林路二段63號","121.435446666667","25.0577716666667","6501600","泰山區"
"222003","436-BY","2018/10/18 19:19:38","新北市深坑區深南路204號","121.626658333333","25.0160166666667","6501800","深坑區"
"222002","659-BX","2018/10/18 19:19:54","新北市深坑區北深路一段210號","121.633045","25.0110283333333","6501800","深坑區"
"231041","002-UM","2018/10/18 19:19:53","新北市新店區溪園路87號","121.528208333333","24.9856733333333","6500600","新店區"
"231059","046-UY","2018/10/18 19:19:40","新北市新店區安和路二段163號","121.518918333333","24.97428","6500600","新店區"
"231040","047-UY","2018/10/18 19:19:45","新北市新店區三民路47號","121.537076666667","24.970915","6500600","新店區"
"231046","107-UY","2018/10/18 19:19:54","新北市新店區華城路5-3號","121.52926","24.9579233333333","6500600","新店區"
"231052","108-UY","2018/10/18 19:19:54","新北市新店區櫻花街190號","121.547818333333","24.920475","6500600","新店區"
"231047","187-VK","2018/10/18 19:19:44","新北市新店區中興路二段57巷13號","121.545841666667","24.9707266666667","6500600","新店區"
"231054","KEA-2219","2018/10/18 19:19:48","新北市新店區國校路47號","121.537965","24.95493","6500600","新店區"
"231042","268-BY","2018/10/18 19:19:59","新北市新店區中興路一段115號","121.541481666667","24.9626966666667","6500600","新店區"
"231051","278-BY","2018/10/18 19:19:56","新北市新店區中央路133巷26號","121.531376666667","24.97329","6500600","新店區"
"231050","AAD-862","2018/10/18 19:19:47","新北市新店區竹林路30巷1號","121.552233333333","24.9512966666667","6500600","新店區"
"231058","3713-VJ","2018/10/18 19:19:55","新北市新店區北新路二段228巷13號","121.543435","24.9771383333333","6500600","新店區"
"231066","4716-K9","2018/10/18 19:19:43","新北市新店區安康路三段331號","121.485591666667","24.9515366666667","6500600","新店區"
"231056","4715-K9","2018/10/18 19:19:56","新北市新店區柴埕路116號","121.505215","24.9600716666667","6500600","新店區"
"231065","512-UM","2018/10/18 19:19:44","新北市新店區安祥路110巷23號","121.473653333333","24.9562283333333","6500600","新店區"
"231049","513-UM","2018/10/18 19:19:42","新北市新店區明德路64號","121.541548333333","24.9794533333333","6500600","新店區"
"231063","616-UM","2018/10/18 19:19:50","新北市新店區達觀路14巷1號","121.503625","24.941155","6500600","新店區"
"231045","617-UM","2018/10/18 19:19:42","新北市新店區北宜路一段260號","121.545655","24.9527583333333","6500600","新店區"
"231044","618-UM","2018/10/18 19:19:44","新北市新店區寶慶街71號","121.541875","24.98651","6500600","新店區"
"231061","619-UM","2018/10/18 19:19:57","新北市新店區安康路一段65號","121.530391666667","24.961025","6500600","新店區"
"231064","719-UM","2018/10/18 19:19:50","新北市新店區安忠路57巷1-9號","121.513621666667","24.959295","6500600","新店區"
"231062","720-UM","2018/10/18 19:19:43","新北市新店區安康路一段94-2號","121.527713333333","24.9620733333333","6500600","新店區"
"231060","897-TW","2018/10/18 19:19:46","新北市新店區安康路二段71號","121.513785","24.9630583333333","6500600","新店區"
"231043","899-TW","2018/10/18 19:19:54","新北市新店區北新路二段115號","121.542848333333","24.9748333333333","6500600","新店區"
"241022","060-VK","2018/10/18 19:19:41","新北市三重區重陽路二段50號","121.487178333333","25.06341","6500200","三重區"
"241031","061-VK","2018/10/18 19:19:51","新北市三重區重新路四段206-5號","121.485941666667","25.05449","6500200","三重區"
"241017","063-VK","2018/10/18 19:19:59","新北市三重區大同北路217號","121.491633333333","25.0660333333333","6500200","三重區"
"241026","066-VK","2018/10/18 19:19:55","新北市三重區中正南路216號","121.493821666667","25.055105","6500200","三重區"
"251014","742-BX","2018/10/18 19:19:51","新北市淡水區小中寮19-7號","121.48475","25.2296016666667","6501000","淡水區"
"241009","267-UM","2018/10/18 19:19:50","新北市三重區溪尾街230巷44號","121.486013333333","25.0811033333333","6500200","三重區"
"241013","270-UM","2018/10/18 19:19:46","新北市三重區三和路三段107巷3號","121.494535","25.0728883333333","6500200","三重區"
"241007","398-BY","2018/10/18 19:19:41","新北市三重區慈愛街55號","121.486366666667","25.079215","6500200","三重區"
"241035","462-BY","2018/10/18 19:19:41","新北市三重區信義西街138號","121.495461666667","25.064405","6500200","三重區"
"241020","478-VK","2018/10/18 19:19:48","新北市三重區大智街254號","121.489261666667","25.07333","6500200","三重區"
"241030","480-VK","2018/10/18 19:19:57","新北市三重區成功路41巷93號","121.491383333333","25.05311","6500200","三重區"
"241006","AAD-863","2018/10/18 19:19:51","新北市三重區車路頭街167號","121.483593333333","25.077445","6500200","三重區"
"241029","942-UM","2018/10/18 19:19:54","新北市三重區重安街53巷3號","121.49147","25.05653","6500200","三重區"
"235066","003-UY","2018/10/18 19:19:54","新北市中和區景新街2號","121.502593333333","24.99964","6500300","中和區"
"235064","005-UY","2018/10/18 19:19:59","新北市中和區中山路二段207號","121.499608333333","25.0023833333333","6500300","中和區"
"235063","006-UY","2018/10/18 19:19:53","新北市中和區連城路249巷28弄1號","121.494733333333","24.9949083333333","6500300","中和區"
"235056","096-UM","2018/10/18 19:19:48","新北市中和區中山路三段1號","121.479913333333","25.0059866666667","6500300","中和區"
"235039","097-UM","2018/10/18 19:19:39","新北市中和區秀峰街103巷2弄13號","121.519918333333","24.99039","6500300","中和區"
"235065","098-UM","2018/10/18 19:19:42","新北市中和區中山路二段64巷7弄5號","121.503518333333","25.0048166666667","6500300","中和區"
"235040","150-BY","2018/10/18 19:19:44","新北市中和區安平路61號","121.50964","24.9955366666667","6500300","中和區"
"235058","151-BY","2018/10/18 19:19:49","新北市中和區連城路469巷27號","121.483568333333","24.9948516666667","6500300","中和區"
"235055","183-VK","2018/10/18 19:19:46","新北市中和區莒光路84巷12號","121.47196","25.00214","6500300","中和區"
"235038","185-VK","2018/10/18 19:19:45","新北市中和區大仁街10巷50號","121.520298333333","24.99258","6500300","中和區"
"235049","186-VK","2018/10/18 19:19:45","新北市中和區景新街235號","121.508028333333","24.994595","6500300","中和區"
"235067","255-BX","2018/10/18 19:19:48","新北市中和區民樂路36號","121.483005","25.0012533333333","6500300","中和區"
"235044","293-VK","2018/10/18 19:19:43","新北市中和區復興路310號","121.501153333333","24.9903366666667","6500300","中和區"
"235072","301-VK","2018/10/18 19:19:54","新北市中和區連城路265巷10弄2號","121.49165","24.9954133333333","6500300","中和區"
"235043","352-BY","2018/10/18 19:19:56","新北市中和區景平路426號","121.507401666667","24.9932733333333","6500300","中和區"
"235042","KEA-2878","2018/10/18 19:19:46","新北市中和區立人街8號","121.519625","24.9942383333333","6500300","中和區"
"235050","4979-A6","2018/10/18 19:19:52","新北市中和區景安路208巷12號","121.503383333333","24.991295","6500300","中和區"
"235069","4980-A6","2018/10/18 19:19:56","新北市中和區莊敬路33巷14號","121.500368333333","25.00532","6500300","中和區"
"235070","558-UM","2018/10/18 19:19:40","新北市中和區中山路二段211號","121.49889","25.0025533333333","6500300","中和區"
"235045","565-BX","2018/10/18 19:19:42","新北市中和區景新街383巷28號","121.51347","24.9905766666667","6500300","中和區"
"235054","640-BX","2018/10/18 19:19:50","新北市中和區國光街109巷3號","121.469876666667","25.0002166666667","6500300","中和區"
"235060","647-TV","2018/10/18 19:19:54","新北市中和區員山路294巷9號","121.48197","25.0024133333333","6500300","中和區"
"235047","732-UM","2018/10/18 19:19:54","新北市中和區和平街54巷5弄1號","121.508931666667","24.9913666666667","6500300","中和區"
"235046","733-UM","2018/10/18 19:19:41","新北市中和區忠孝街2號","121.508768333333","24.9829116666667","6500300","中和區"
"235071","783-BX","2018/10/18 19:19:53","新北市中和區中正路637巷52弄9號","121.484936666667","24.9936816666667","6500300","中和區"
"235062","800-TS","2018/10/18 19:19:43","新北市三重區重新路5段221巷6弄11-1號","121.47918","25.0508233333333","6500300","中和區"
"235057","801-TS","2018/10/18 19:19:44","新北市中和區員山路423巷16號","121.480343333333","25.002705","6500300","中和區"
"235052","805-TS","2018/10/18 19:19:44","新北市中和區興南路二段128巷1弄3號","121.503885","24.9835983333333","6500300","中和區"
"235048","896-TW","2018/10/18 19:19:40","新北市中和區忠孝街79號","121.512121666667","24.9852816666667","6500300","中和區"
"235053","900-TW","2018/10/18 19:19:42","新北市中和區華順街58-1號","121.46595","24.9985533333333","6500300","中和區"
"235051","157-BY","2018/10/18 19:19:53","新北市中和區和平街54巷10弄14號","121.509518333333","24.9916866666667","6500300","中和區"
"235037","AAC-213","2018/10/18 19:19:53","新北市中和區自立路15巷25號","121.52324","24.9959533333333","6500300","中和區"
"235059","AAC-215","2018/10/18 19:19:58","新北市中和區錦和路195巷1弄1號","121.490923333333","24.990805","6500300","中和區"
"220065","072-UY","2018/10/18 19:19:44","新北市板橋區民族路129巷10號","121.467658333333","25.0084516666667","6500100","板橋區"
"220086","073-UY","2018/10/18 19:19:55","新北市板橋區中正路216巷2弄11號","121.456486666667","25.018055","6500100","板橋區"
"220106","075-UY","2018/10/18 19:19:39","新北市板橋區雙十路三段72號","121.470203333333","25.0325933333333","6500100","板橋區"
"220069","AAD-861","2018/10/18 19:19:56","新北市板橋區貴興路41號","121.457551666667","25.0036533333333","6500100","板橋區"
"226004","312-R5","2018/10/18 19:19:53","新北市平溪區南山里南山坪24號","121.771696666667","25.0367233333333","6502400","平溪區"
"235041","251-BX","2018/10/18 19:19:48","新北市中和區中和路322號","121.509836666667","25.0007816666667","6500300","中和區"
"228003","097-TW","2018/10/18 19:19:52","新北市貢寮區和美里和美街22-1號","121.912796666667","25.082635","6502600","貢寮區"
"228001","212-TW","2018/10/18 19:19:53","新北市貢寮區真理里新港街26巷6-3號","121.925651666667","25.05457","6502600","貢寮區"
"228002","585-TW","2018/10/18 19:19:57","新北市貢寮區龍門里復興街46-1號","121.928075","25.0289916666667","6502600","貢寮區"
"224010","AGQ-8101","2018/10/18 19:19:42","新北市瑞芳區山尖路172-1號","121.848585","25.111925","6501200","瑞芳區"
"224008","285-BY","2018/10/18 19:19:52","新北市瑞芳區一坑路261-2號","121.801291666667","25.108705","6501200","瑞芳區"
"224009","272-VK","2018/10/18 19:19:53","新北市瑞芳區連福新城35號","121.82006","25.1185566666667","6501200","瑞芳區"
"227004","642-TC","2018/10/18 19:19:49","新北市雙溪區平林里梅竹蹊66-1號","121.860131666667","25.0358333333333","6502500","雙溪區"
"227010","400-TW","2018/10/18 19:19:52","新北市雙溪區新基里新基北街40號","121.868496666667","25.0380166666667","6502500","雙溪區"
"253006","032-BX","2018/10/18 19:19:42","新北市石門區崁子腳27號","121.535756666667","25.2908733333333","6502200","石門區"
"253005","295-VK","2018/10/18 19:19:40","新北市石門區阿里荖6-2號","121.610015","25.2799116666667","6502200","石門區"
"222001","KEA-2212","2018/10/18 19:19:47","新北市深坑區北深路二段84號","121.617451666667","25.0035033333333","6501800","深坑區"
"208002","KEA-2872","2018/10/18 19:19:48","新北市金山區環金路378號","121.631498333333","25.2223616666667","6502700","金山區"
"208003","665-BX","2018/10/18 19:19:49","新北市金山區中山路116號","121.639301666667","25.219875","6502700","金山區"
"208001","761-BX","2018/10/18 19:19:51","新北市金山區中山路108號","121.639808333333","25.2193866666667","6502700","金山區"
"251009","008-UM","2018/10/18 19:19:51","新北市淡水區中山路141號","121.440926666667","25.1716916666667","6501000","淡水區"
"251005","010-UM","2018/10/18 19:20:00","新北市淡水區水源街一段25號","121.443103333333","25.172345","6501000","淡水區"
"251001","011-UM","2018/10/18 19:19:50","新北市淡水區自強路201巷39號","121.462118333333","25.12682","6501000","淡水區"
"251013","KEA-2871","2018/10/18 19:19:53","新北市淡水區安子內12-1號","121.481538333333","25.2190916666667","6501000","淡水區"
"251016","179-VK","2018/10/18 19:19:53","新北市淡水區下圭柔山119-51號","121.450655","25.2084933333333","6501000","淡水區"
"251015","180-VK","2018/10/18 19:19:50","新北市淡水區山子邊3號","121.483971666667","25.1842016666667","6501000","淡水區"
"251010","413-VK","2018/10/18 19:19:37","新北市淡水區沙崙路30號","121.42153","25.1814733333333","6501000","淡水區"
"251006","561-UM","2018/10/18 19:19:40","新北市淡水區大信街33號","121.442058333333","25.1773566666667","6501000","淡水區"
"251007","577-R6","2018/10/18 19:19:42","新北市淡水區民生路145巷42號","121.466896666667","25.1389283333333","6501000","淡水區"
"251003","766-UM","2018/10/18 19:19:50","新北市淡水區中山北路一段239號","121.44456","25.1797483333333","6501000","淡水區"
"207003","550-UM","2018/10/18 19:19:38","新北市萬里區大鵬里萬里加投79-3號","121.647311666667","25.2123566666667","6502800","萬里區"
"207004","225-TW","2018/10/18 19:19:47","新北市萬里區萬里里成功新村44號","121.687695","25.1746016666667","6502800","萬里區"
"252002","178-VK","2018/10/18 19:19:41","新北市三芝區淡金路二段18-1號","121.50271","25.2595166666667","6502100","三芝區"
"252001","292-VK","2018/10/18 19:19:56","新北市三芝區長勤街9巷12弄1號","121.50163","25.2551483333333","6502100","三芝區"
"237007","153-BY","2018/10/18 19:19:42","新北市三峽區二鬮路61-1號","121.35978","24.9074916666667","6500900","三峽區"
"237009","210-TH","2018/10/18 19:19:42","新北市三峽區民生街227號","121.371256666667","24.93473","6500900","三峽區"
"237013","252-BX","2018/10/18 19:19:43","新北市三峽區光明路75巷20號","121.377528333333","24.92819","6500900","三峽區"
"237012","275-BY","2018/10/18 19:19:45","新北市三峽區三樹路222巷132號","121.38537","24.942385","6500900","三峽區"
"237008","302-VK","2018/10/18 19:19:54","新北市三峽區光明路106巷46號","121.375448333333","24.926905","6500900","三峽區"
"237014","433-BY","2018/10/18 19:19:51","新北市三峽區中山路299巷15弄1號","121.36102","24.9367616666667","6500900","三峽區"
"237006","5529-G3","2018/10/18 19:19:43","新北市三峽區溪東路1號","121.399115","24.9353416666667","6500900","三峽區"
"237011","KEA-2596","2018/10/18 19:19:54","新北市三峽區介壽路三段107號","121.395493333333","24.939335","6500900","三峽區"
"237016","649-BX","2018/10/18 19:19:44","新北市三峽區安坑37-3號","121.45399","24.9317233333333","6500900","三峽區"
"237010","706-TV","2018/10/18 19:19:42","新北市三峽區民生街44號","121.37539","24.936325","6500900","三峽區"
"237005","AKY-6261","2018/10/18 19:19:45","新北市三峽區中山路459巷50號","121.356353333333","24.9371083333333","6500900","三峽區"
"236070","105-UM","2018/10/18 19:19:51","新北市土城區學成路70巷6號","121.452021666667","24.98838","6501300","土城區"
"236042","107-UM","2018/10/18 19:19:48","新北市土城區學府路一段239號","121.450406666667","24.9834116666667","6501300","土城區"
"236078","166-UM","2018/10/18 19:19:56","新北市土城區中州路3巷43號","121.413398333333","24.956305","6501300","土城區"
"236026","269-VK","2018/10/18 19:19:44","新北市土城區員林街76號","121.44437","24.9767283333333","6501300","土城區"
"236014","270-VK","2018/10/18 19:19:48","新北市土城區學府路一段23巷25弄32號","121.457325","24.986215","6501300","土城區"
"236038","271-VK","2018/10/18 19:19:43","新北市土城區仁愛路54巷13號","121.461953333333","24.9783133333333","6501300","土城區"
"236021","401-BY","2018/10/18 19:19:39","新北市土城區峰廷街8號","121.46865","24.9877466666667","6501300","土城區"
"236059","912-UM","2018/10/18 19:19:55","新北市土城區中央路二段252號","121.441796666667","24.9745683333333","6501300","土城區"
"236049","913-UM","2018/10/18 19:19:53","新北市土城區明德路一段365-1號","121.453643333333","24.9791233333333","6501300","土城區"
"242013","173-VK","2018/10/18 19:19:56","新北市新莊區三和路12-21號","121.441958333333","25.0387533333333","6500500","新莊區"
"238023","601-UM","2018/10/18 19:19:49","新北市樹林區三興路29號","121.39645","25.0148216666667","6500700","樹林區"
"238019","599-UM","2018/10/18 19:19:55","新北市樹林區鎮前街347巷2弄1號","121.416703333333","24.983615","6500700","樹林區"
"238018","571-TV","2018/10/18 19:19:48","新北市樹林區太元街1號","121.417606666667","24.9812766666667","6500700","樹林區"
"238024","5061-A6","2018/10/18 19:19:38","新北市樹林區福德街17號","121.400993333333","24.9761316666667","6500700","樹林區"
"238022","KEA-2213","2018/10/18 19:19:57","新北市樹林區中華路190-6號","121.410596666667","24.9806","6500700","樹林區"
"238021","KEA-2539","2018/10/18 19:19:47","新北市樹林區柑園街二段382巷14號","121.368106666667","24.9499016666667","6500700","樹林區"
"238025","303-VK","2018/10/18 19:19:53","新北市樹林區中山路三段71號","121.400511666667","24.9749083333333","6500700","樹林區"
"238017","283-BY","2018/10/18 19:19:42","新北市樹林區光興街223巷2號","121.408106666667","25.00499","6500700","樹林區"
"238014","282-BY","2018/10/18 19:19:59","新北市樹林區保安二街5號","121.425378333333","24.993845","6500700","樹林區"
"238020","268-VK","2018/10/18 19:19:38","新北市樹林區俊英街121巷29號","121.423361666667","25.01004","6500700","樹林區"
"238026","172-UY","2018/10/18 19:19:39","新北市樹林區佳園路二段6號","121.393938333333","24.9643933333333","6500700","樹林區"
"238016","169-UY","2018/10/18 19:19:48","新北市樹林區中山路二段34號","121.417203333333","24.98512","6500700","樹林區"
"239007","AAC-297","2018/10/18 19:19:50","新北市鶯歌區中山路150號","121.349651666667","24.9577","6500800","鶯歌區"
"239006","891-R6","2018/10/18 19:19:38","新北市鶯歌區鶯桃路141號","121.337773333333","24.9548833333333","6500800","鶯歌區"
"239008","527-UM","2018/10/18 19:19:46","新北市鶯歌區國際二路2巷4號","121.339043333333","24.97292","6500800","鶯歌區"
"239005","526-UM","2018/10/18 19:19:41","新北市鶯歌區中湖街60號","121.347763333333","24.97279","6500800","鶯歌區"
"239001","417-VK","2018/10/18 19:19:50","新北市鶯歌區建國路596巷46號","121.340488333333","24.9516333333333","6500800","鶯歌區"
"239003","360-BY","2018/10/18 19:19:49","新北市鶯歌區重慶街31號","121.3515","24.9526433333333","6500800","鶯歌區"
"239004","193-VK","2018/10/18 19:19:56","新北市鶯歌區二甲路103號","121.333555","24.9315033333333","6500800","鶯歌區"
"221008","489-VK","2018/10/18 19:19:40","新北市汐止區康寧街310號","121.626785","25.067285","6501100","汐止區"
"221036","130-UY","2018/10/18 19:19:56","新北市汐止區康寧街901號","121.651593333333","25.0749683333333","6501100","汐止區"
"221015","131-UY","2018/10/18 19:19:40","新北市汐止區汐萬路一段256巷1號","121.651755","25.0748583333333","6501100","汐止區"
"221010","269-BY","2018/10/18 19:19:50","新北市汐止區康寧街901號","121.651305","25.0749783333333","6501100","汐止區"
"221012","278-VK","2018/10/18 19:19:55","新北市汐止區汐萬路一段191號","121.652523333333","25.0716216666667","6501100","汐止區"
"221023","279-VK","2018/10/18 19:19:39","新北市汐止區康寧街901號","121.65171","25.0748983333333","6501100","汐止區"
"221027","281-BY","2018/10/18 19:19:58","新北市汐止區汐萬路一段312號","121.650393333333","25.0750983333333","6501100","汐止區"
"221029","298-VK","2018/10/18 19:19:44","新北市汐止區康寧街901號","121.651481666667","25.0749916666667","6501100","汐止區"
"221021","299-VK","2018/10/18 19:19:55","新北市汐止區康寧街901號","121.651471666667","25.0750216666667","6501100","汐止區"
"221031","353-TW","2018/10/18 19:19:38","新北市汐止區康寧街901號","121.65083","25.0752766666667","6501100","汐止區"
"221025","623-UM","2018/10/18 19:19:52","新北市汐止區汐萬路一段312號","121.650548333333","25.0753833333333","6501100","汐止區"
"221038","646-BX","2018/10/18 19:19:48","新北市汐止區康寧街901號","121.650708333333","25.07529","6501100","汐止區"
"221002","707-TV","2018/10/18 19:19:46","新北市汐止區中興路19號","121.637003333333","25.0594516666667","6501100","汐止區"
"220079","145-BY","2018/10/18 19:19:55","新北市板橋區民權路202巷17弄9號","121.460395","25.0166016666667","6500100","板橋區"
"220080","200-UY","2018/10/18 18:51:00","新北市板橋區大觀路二段265巷7-7號","121.443333333333","24.9946966666667","6500100","板橋區"
"220082","610-BX","2018/10/18 19:19:56","新北市板橋區篤行路三段99號","121.426176666667","24.9846783333333","6500100","板橋區"
"220101","245-BX","2018/10/18 19:19:51","新北市板橋區莒光路165巷2號","121.47412","25.0239383333333","6500100","板橋區"
"220056","276-BY","2018/10/18 19:19:49","新北市板橋區信義路233-1號","121.459946666667","24.99116","6500100","板橋區"
"220072","277-BY","2018/10/18 19:19:57","新北市板橋區金門街291號","121.430533333333","24.9869016666667","6500100","板橋區"
"220043","283-UM","2018/10/18 19:19:47","新北市板橋區吳鳳路21巷2號","121.466893333333","25.031275","6500100","板橋區"
"220071","283-VK","2018/10/18 19:19:47","新北市板橋區忠孝路48巷36號","121.460973333333","25.0004716666667","6500100","板橋區"
"220053","285-VK","2018/10/18 19:19:56","新北市板橋區永豐街253號","121.47785","25.0213133333333","6500100","板橋區"
"220083","286-VK","2018/10/18 19:19:53","新北市板橋區大觀路二段174巷186弄11號","121.442898333333","25.0034433333333","6500100","板橋區"
"220081","287-VK","2018/10/18 19:19:43","新北市板橋區南雅西路一段59號","121.453635","25.00514","6500100","板橋區"
"220090","288-VK","2018/10/18 19:19:51","新北市板橋區長江路一段106巷13弄11號","121.460458333333","25.0293016666667","6500100","板橋區"
"220061","293-UM","2018/10/18 19:19:41","新北市板橋區三民路二段21巷38號","121.480563333333","25.01814","6500100","板橋區"
"220062","295-UM","2018/10/18 19:19:57","新北市板橋區三民路二段153巷36弄2號","121.48111","25.01415","6500100","板橋區"
"220084","296-UM","2018/10/18 19:19:51","新北市板橋區溪北路73巷5號","121.428323333333","24.989885","6500100","板橋區"
"220102","299-UM","2018/10/18 19:19:57","新北市板橋區田單街6號","121.482138333333","25.02898","6500100","板橋區"
"220075","303-R5","2018/10/18 19:19:54","新北市板橋區中正路289巷21號","121.454768333333","25.01906","6500100","板橋區"
"220092","307-R5","2018/10/18 19:19:48","新北市板橋區光武街48巷29號","121.46776","25.026945","6500100","板橋區"
"220098","317-R6","2018/10/18 19:19:54","新北市板橋區民有街88號","121.464945","25.0273816666667","6500100","板橋區"
"220064","486-VK","2018/10/18 19:19:50","新北市板橋區民權路31號","121.462371666667","25.01091","6500100","板橋區"
"220089","487-VK","2018/10/18 19:19:55","新北市板橋區文化路一段357號","121.46684","25.0210766666667","6500100","板橋區"
"220088","491-VK","2018/10/18 19:19:42","新北市板橋區雙十路一段3號","121.478116666667","25.0240533333333","6500100","板橋區"
"220035","560-BX","2018/10/18 19:19:51","新北市板橋區中正路360巷7號","121.454828333333","25.02375","6500100","板橋區"
"220103","561-BX","2018/10/18 19:19:51","新北市板橋區文化路一段188巷7弄13號","121.467511666667","25.019895","6500100","板橋區"
"220063","609-BX","2018/10/18 19:19:52","新北市板橋區三民路二段7號","121.479306666667","25.0184366666667","6500100","板橋區"
"220091","637-BX","2018/10/18 19:19:53","新北市板橋區萬板路478號","121.479981666667","25.026185","6500100","板橋區"
"220057","686-BX","2018/10/18 19:19:47","新北市中和區華順街142號","121.464633333333","24.9956483333333","6500100","板橋區"
"220077","687-BX","2018/10/18 19:19:58","新北市板橋區大觀路一段28巷82號","121.449738333333","25.0108433333333","6500100","板橋區"
"220093","689-BX","2018/10/18 19:19:46","新北市板橋區文化路一段245號","121.464303333333","25.0178416666667","6500100","板橋區"
"220054","741-BX","2018/10/18 19:19:51","新北市板橋區重慶路153號","121.46251","25.003985","6500100","板橋區"
"220055","827-TW","2018/10/18 19:19:48","新北市板橋區館前東路156巷38號","121.46441","25.0067866666667","6500100","板橋區"
"220067","829-TW","2018/10/18 19:19:40","新北市板橋區長安街138巷7弄55號","121.474135","25.009275","6500100","板橋區"
"220068","830-TW","2018/10/18 19:19:48","新北市板橋區翠華街6巷28號","121.481361666667","25.0242583333333","6500100","板橋區"
"220096","831-TW","2018/10/18 19:19:45","新北市板橋區大同街26巷24號","121.478281666667","25.0266166666667","6500100","板橋區"
"220074","895-R6","2018/10/18 19:19:40","新北市板橋區文化路一段27-1號","121.459878333333","25.0128466666667","6500100","板橋區"
"220073","985-R7","2018/10/18 19:19:40","新北市板橋區新生街52號","121.456906666667","25.0209916666667","6500100","板橋區"
"220097","AAC-210","2018/10/18 19:19:54","新北市板橋區幸福路62號","121.461065","25.020085","6500100","板橋區"
"220070","AAC-253","2018/10/18 19:19:42","新北市板橋區忠孝路147號","121.463485","25.0024283333333","6500100","板橋區"
"235068","KEA-2873","2018/10/18 19:19:42","新北市中和區連勝街29-2號","121.498396666667","24.997955","6500300","中和區"
"235061","KEA-2875","2018/10/18 19:19:47","新北市中和區員山路204號","121.481325","25.00067","6500300","中和區"
