"lineid","car","time","location","longitude","latitude","cityid","cityname"
"231059","046-UY","2018/10/18 21:09:20","新北市新店區僑仁路2號","121.499595","24.9516766666667","6500600","新店區"
"231040","047-UY","2018/10/18 21:09:25","新北市新店區北新路一段351號","121.541876666667","24.9693466666667","6500600","新店區"
"231047","187-VK","2018/10/18 21:09:30","新北市新店區中興路三段160號","121.544526666667","24.9806933333333","6500600","新店區"
"231054","KEA-2219","2018/10/18 21:09:28","新北市新店區大新街7巷26號","121.544071666667","24.9679083333333","6500600","新店區"
"231042","268-BY","2018/10/18 21:09:19","新北市新店區寶興路60巷3號","121.549885","24.971845","6500600","新店區"
"231051","278-BY","2018/10/18 21:09:16","新北市新店區中正路700巷82號","121.535958333333","24.9932633333333","6500600","新店區"
"231050","AAD-862","2018/10/18 21:09:27","新北市新店區華興街13巷1號","121.537988333333","24.9694216666667","6500600","新店區"
"231065","512-UM","2018/10/18 21:09:24","新北市新店區安祥路65號","121.48387","24.96024","6500600","新店區"
"231063","616-UM","2018/10/18 21:09:17","新北市新店區玫瑰路61巷2號","121.49598","24.94518","6500600","新店區"
"231061","619-UM","2018/10/18 21:09:17","新北市新店區新和街80號","121.520305","24.9858466666667","6500600","新店區"
"231064","719-UM","2018/10/18 21:09:30","新北市新店區薏仁坑路自強巷6號","121.496656666667","24.95847","6500600","新店區"
"231062","720-UM","2018/10/18 21:09:23","新北市新店區雙城路41巷2號","121.4924","24.9487733333333","6500600","新店區"
"231060","897-TW","2018/10/18 21:09:26","新北市新店區薏仁坑路自強巷6號","121.496585","24.9583883333333","6500600","新店區"
"241011","013-R5","2018/10/18 21:09:13","新北市三重區龍濱路170號","121.50129","25.0726966666667","6500200","三重區"
"241028","022-UY","2018/10/18 21:09:29","新北市三重區正義南路54號","121.498271666667","25.0606816666667","6500200","三重區"
"241008","059-VK","2018/10/18 21:09:27","新北市三重區自強路一段71號","121.497488333333","25.06691","6500200","三重區"
"241022","060-VK","2018/10/18 21:09:21","新北市三重區中正北路64巷24號","121.486075","25.0637516666667","6500200","三重區"
"241031","061-VK","2018/10/18 21:09:11","新北市三重區重新路五段283號","121.479366666667","25.0492416666667","6500200","三重區"
"241015","062-VK","2018/10/18 21:09:30","新北市三重區長元街59號","121.502618333333","25.0664766666667","6500200","三重區"
"241017","063-VK","2018/10/18 21:09:19","新北市三重區大同北路132巷8號","121.492376666667","25.0646216666667","6500200","三重區"
"241024","065-VK","2018/10/18 21:09:25","新北市三重區國道路一段58巷15號","121.481321666667","25.0720233333333","6500200","三重區"
"241026","066-VK","2018/10/18 21:09:15","新北市三重區光興街1號","121.500341666667","25.060365","6500200","三重區"
"241002","090-VK","2018/10/18 21:09:27","新北市三重區五華街19號","121.494966666667","25.0804216666667","6500200","三重區"
"241003","091-VK","2018/10/18 21:09:13","新北市三重區仁義街228巷1號","121.494878333333","25.08485","6500200","三重區"
"251014","742-BX","2018/10/18 21:09:11","新北市淡水區六塊厝1-1號","121.44956","25.2427983333333","6501000","淡水區"
"241012","265-UM","2018/10/18 21:09:24","新北市三重區河邊北街351號","121.50212","25.0755833333333","6500200","三重區"
"241016","266-UM","2018/10/18 21:09:25","新北市三重區信義西街118號","121.495698333333","25.0642566666667","6500200","三重區"
"241009","267-UM","2018/10/18 21:09:30","新北市三重區忠孝路二段122號","121.48302","25.0688183333333","6500200","三重區"
"241018","268-UM","2018/10/18 21:09:27","新北市三重區正義北路332-1號","121.494371666667","25.070505","6500200","三重區"
"241032","269-UM","2018/10/18 21:09:15","新北市三重區新北大道二段65號","121.469166666667","25.0616066666667","6500200","三重區"
"241013","270-UM","2018/10/18 21:09:26","新北市三重區仁愛街123-5號","121.496011666667","25.0751233333333","6500200","三重區"
"241025","271-UM","2018/10/18 21:09:28","新北市三重區中正北路208巷8號","121.482293333333","25.0669216666667","6500200","三重區"
"241007","398-BY","2018/10/18 21:09:21","新北市三重區三和路四段145巷85號","121.486428333333","25.078675","6500200","三重區"
"241004","475-VK","2018/10/18 21:09:20","新北市三重區仁愛街420號","121.49041","25.081425","6500200","三重區"
"241020","478-VK","2018/10/18 21:09:27","新北市三重區忠孝路二段34號","121.48577","25.0710316666667","6500200","三重區"
"241030","480-VK","2018/10/18 21:09:18","新北市三重區五谷王北街20巷15弄1號","121.475041666667","25.0484483333333","6500200","三重區"
"241014","543-UM","2018/10/18 21:09:25","新北市三重區三和路二段37-9號","121.501365","25.06766","6500200","三重區"
"241023","545-UM","2018/10/18 21:09:28","新北市三重區忠孝路三段84巷63號","121.482286666667","25.06375","6500200","三重區"
"241001","547-UM","2018/10/18 21:09:17","新北市三重區福隆路42號","121.492325","25.07832","6500200","三重區"
"241019","KEA-2593","2018/10/18 21:09:21","新北市三重區三張街104號","121.48791","25.0699066666667","6500200","三重區"
"241006","AAD-863","2018/10/18 21:09:11","新北市三重區明志街135號","121.489256666667","25.0632533333333","6500200","三重區"
"241005","887-TS","2018/10/18 21:09:16","新北市三重區五華街213號","121.489515","25.0856916666667","6500200","三重區"
"241029","942-UM","2018/10/18 21:09:14","新北市三重區正義南路111號","121.49821","25.0585216666667","6500200","三重區"
"241033","AAC-255","2018/10/18 21:09:26","新北市三重區重光街99-1號","121.466381666667","25.064545","6500200","三重區"
"247012","KEA-2869","2018/10/18 21:09:21","新北市蘆洲區民族路31-6號","121.477291666667","25.0849066666667","6501400","蘆洲區"
"247002","893-R6","2018/10/18 21:09:15","新北市蘆洲區永樂街38巷40號","121.458718333333","25.0899633333333","6501400","蘆洲區"
"247024","500-BY","2018/10/18 21:09:09","新北市蘆洲區長興路50巷1號","121.463771666667","25.08374","6501400","蘆洲區"
"247014","339-TH","2018/10/18 21:09:16","新北市蘆洲區中央路155號","121.472651666667","25.0847116666667","6501400","蘆洲區"
"247006","337-TH","2018/10/18 21:09:15","新北市蘆洲區九芎街15巷6號","121.468008333333","25.0781916666667","6501400","蘆洲區"
"247008","336-TH","2018/10/18 21:09:30","新北市蘆洲區民生街47號","121.47505","25.0788683333333","6501400","蘆洲區"
"247020","057-VK","2018/10/18 21:09:17","新北市蘆洲區民族路371號","121.47122","25.0912616666667","6501400","蘆洲區"
"247010","056-VK","2018/10/18 21:09:25","新北市蘆洲區鷺江街73號","121.477068333333","25.0831083333333","6501400","蘆洲區"
"247018","007-UY","2018/10/18 21:09:28","新北市蘆洲區民族路408巷6號","121.474795","25.0918066666667","6501400","蘆洲區"
"247004","002-UY","2018/10/18 21:09:24","新北市蘆洲區永安南路二段282-1號","121.457791666667","25.0811783333333","6501400","蘆洲區"
"247022","001-UY","2018/10/18 21:09:27","新北市蘆洲區三民路251號","121.468286666667","25.089385","6501400","蘆洲區"
"251009","008-UM","2018/10/18 21:09:11","新北市淡水區民族路112巷47號","121.462086666667","25.1343716666667","6501000","淡水區"
"251005","010-UM","2018/10/18 21:09:19","新北市淡水區博愛街47號","121.44665","25.1691516666667","6501000","淡水區"
"251001","011-UM","2018/10/18 21:09:30","新北市淡水區新市一路三段101巷16弄3號","121.446695","25.18392","6501000","淡水區"
"251013","KEA-2871","2018/10/18 21:09:13","新北市淡水區行忠路328號","121.46044","25.1996216666667","6501000","淡水區"
"251016","179-VK","2018/10/18 21:09:13","新北市淡水區前洲子3-1號","121.44342","25.2161883333333","6501000","淡水區"
"251015","180-VK","2018/10/18 21:09:28","新北市淡水區淡金路四段542巷48號","121.454228333333","25.2268916666667","6501000","淡水區"
"251010","413-VK","2018/10/18 21:09:17","新北市淡水區中正路一段49號","121.424448333333","25.1775633333333","6501000","淡水區"
"251012","441-VK","2018/10/18 21:09:15","新北市淡水區六塊厝14-1號","121.453413333333","25.2407733333333","6501000","淡水區"
"251011","650-BX","2018/10/18 21:09:27","新北市淡水區新民街120巷45弄40號","121.437448333333","25.1797216666667","6501000","淡水區"
"251002","672-BX","2018/10/18 21:09:08","新北市淡水區水源街一段159號","121.447911666667","25.171715","6501000","淡水區"
"251003","766-UM","2018/10/18 21:09:30","新北市淡水區新春街94號","121.43906","25.18237","6501000","淡水區"
"242058","986-R7","2018/10/18 21:09:23","新北市五股區凌雲路三段15-3號","121.429346666667","25.1086883333333","6500500","新莊區"
"242034","135-UY","2018/10/18 21:08:42","新北市五股區中直路21號","121.420891666667","25.11212","6500500","新莊區"
"220070","AAC-253","2018/10/18 21:09:24","新北市林口區太平里180號","121.368221666667","25.1346316666667","6500100","板橋區"
