"lineid","car","time","location","longitude","latitude","cityid","cityname"
"251008","181-VK","2018/10/18 22:29:15","新北市淡水區學府路104號","121.44984","25.1718516666667","6501000","淡水區"
"251010","413-VK","2018/10/18 22:29:17","新北市淡水區沙崙路200號","121.4247","25.1838966666667","6501000","淡水區"
"251004","443-VK","2018/10/18 22:29:29","新北市淡水區民族路33號","121.462301666667","25.13582","6501000","淡水區"
"251007","577-R6","2018/10/18 22:29:22","新北市淡水區北新路180號","121.449445","25.1787216666667","6501000","淡水區"
"251011","650-BX","2018/10/18 22:29:27","新北市淡水區水碓街7號","121.443188333333","25.177105","6501000","淡水區"
