"lineid","car","time","location","longitude","latitude","cityid","cityname"
"248005","653-BX","2018/10/19 06:59:06","新北市五股區中興路二段103巷16號","121.45875","25.0761166666667","6501500","五股區"
"232003","290-BY","2018/10/19 06:59:04","新北市坪林區坪雙路一段82號","121.717438333333","24.9446316666667","6502000","坪林區"
"232015","291-BY","2018/10/19 06:58:59","新北市坪林區灣潭5-2號","121.676581666667","24.93203","6502000","坪林區"
"232019","705-BZ","2018/10/19 06:58:56","新北市坪林區坪雙路一段82號","121.718188333333","24.9445283333333","6502000","坪林區"
"232008","758-BX","2018/10/19 06:59:09","新北市坪林區鶯子瀨2-16號","121.70782","24.9155333333333","6502000","坪林區"
"244004","248-BX","2018/10/19 06:59:09","新北市林口區頂福里82號","121.370646666667","25.0827766666667","6501700","林口區"
"235001","611-BX","2018/10/19 06:58:58","新北市中和區圓通路367巷4號","121.491325","24.9892483333333","6500300","中和區"
"223006","022-BY","2018/10/19 06:58:55","新北市石碇區碇坪路一段130號","121.659436666667","24.991295","6501900","石碇區"
"223002","KEA-2673","2018/10/19 06:58:55","新北市石碇區半路店2號","121.64835","24.9688816666667","6501900","石碇區"
"223008","406-TH","2018/10/19 06:59:10","新北市石碇區十八重溪78-2號","121.672655","25.01102","6501900","石碇區"
"223004","437-BY","2018/10/19 06:59:10","新北市石碇區碇坪路一段58號","121.657036666667","24.991435","6501900","石碇區"
"223001","592-UM","2018/10/19 06:59:02","新北市石碇區石碇東街46號","121.659541666667","24.9910133333333","6501900","石碇區"
"223007","661-BX","2018/10/19 06:59:05","新北市石碇區十八重溪78-2號","121.672813333333","25.011075","6501900","石碇區"
"223005","677-TV","2018/10/19 06:59:12","新北市石碇區碇坪路一段62號","121.657143333333","24.9914083333333","6501900","石碇區"
"227005","282-VK","2018/10/19 06:59:10","新北市雙溪區新基里自強路5-1號","121.866378333333","25.0391116666667","6502500","雙溪區"
"237001","159-UY","2018/10/19 06:59:06","新北市三峽區中山路459巷163-1號","121.349311666667","24.9334433333333","6500900","三峽區"
"242001","233-RS","2018/10/19 06:59:10","新北市新莊區中港路292號","121.452906666667","25.044625","6500500","新莊區"
