"lineid","car","time","location","longitude","latitude","cityid","cityname"
"248005","653-BX","2018/05/31 07:09:45","新北市五股區成泰路一段105號","121.435686666667","25.07127","6501500","五股區"
"232001","290-BY","2018/05/31 07:09:49","新北市坪林區桶盤嶼10-3號","121.706201666667","24.957705","6502000","坪林區"
"232014","291-BY","2018/05/31 06:58:39","新北市坪林區仁里9-1號","121.691538333333","24.9331066666667","6502000","坪林區"
"232010","375-UM","2018/05/31 07:09:51","新北市坪林區水聳淒坑7-2號","121.72493","24.926695","6502000","坪林區"
"232018","705-BZ","2018/05/31 07:09:32","新北市坪林區九芎坑3-9號","121.73007","24.9622166666667","6502000","坪林區"
"232007","758-BX","2018/05/31 07:09:43","新北市坪林區魚堀55-5號","121.706548333333","24.928705","6502000","坪林區"
"244003","248-BX","2018/05/31 07:09:43","新北市林口區文化北路一段490號","121.366375","25.0783683333333","6501700","林口區"
"222006","289-BY","2018/05/31 06:52:54","新北市深坑區深坑街75號","121.614745","25.0012966666667","6501800","深坑區"
"235001","611-BX","2018/05/31 07:09:40","新北市中和區圓通路367巷6號","121.491535","24.989275","6500300","中和區"
"226005","5620-A6","2018/05/31 07:09:46","新北市平溪區菁桐里菁桐街2號","121.727606666667","25.0242016666667","6502400","平溪區"
"226005","7418-A5","2018/05/31 07:09:43","新北市平溪區靜安路二段426號","121.739721666667","25.02464","6502400","平溪區"
"226003","AGD-0702","2018/05/31 07:09:29","新北市平溪區靜安路二段530巷30號","121.743973333333","25.0269016666667","6502400","平溪區"
"223006","022-BY","2018/05/31 07:09:30","新北市石碇區新興坑31號","121.648553333333","25.013865","6501900","石碇區"
"223002","KEA-2673","2018/05/31 07:09:36","新北市石碇區碇格路二段15號","121.642233333333","24.9556266666667","6501900","石碇區"
"223003","205-TH","2018/05/31 07:09:46","新北市石碇區溪邊寮2-2號","121.65767","24.9768166666667","6501900","石碇區"
"223008","406-TH","2018/05/31 07:09:34","新北市石碇區番子坑22-5號","121.677096666667","24.999895","6501900","石碇區"
"223001","592-UM","2018/05/31 07:09:35","新北市石碇區溪邊寮1-3號","121.658033333333","24.9774483333333","6501900","石碇區"
"223004","660-BX","2018/05/31 07:09:42","新北市石碇區碇坪路一段10號","121.651661666667","25.0059566666667","6501900","石碇區"
"223007","661-BX","2018/05/31 07:09:50","新北市石碇區番子坑14-2號","121.680976666667","25.001745","6501900","石碇區"
"223005","677-TV","2018/05/31 07:09:48","新北市石碇區碇坪路一段18號","121.651726666667","25.0058633333333","6501900","石碇區"
"227007","282-VK","2018/05/31 07:09:36","新北市雙溪區新基里自強路5號","121.86632","25.0390716666667","6502500","雙溪區"
"252004","249-BX","2018/05/31 07:09:51","新北市三芝區錫板里小坑子20號","121.501088333333","25.2352983333333","6502100","三芝區"
"252007","AAC-283","2018/05/31 07:09:43","新北市三芝區錫板里小坑子2-1號","121.493553333333","25.2469433333333","6502100","三芝區"
"236009","165-UM","2018/05/31 07:09:39","新北市土城區中央路三段85-6號","121.437871666667","24.9680216666667","6501300","土城區"
"236003","339-SR","2018/05/31 07:09:41","新北市土城區永安街55號","121.432466666667","24.9638733333333","6501300","土城區"
"242022","362-BY","2018/05/31 07:09:31","新北市新莊區新泰路255巷83號","121.442265","25.0387616666667","6500500","新莊區"
