"lineid","car","time","location","longitude","latitude","cityid","cityname"
"248005","653-BX","2018/03/17 07:46:40","新北市五股區明德路12巷3號","121.433213333333","25.0718533333333","6501500","五股區"
"244005","248-BX","2018/03/17 08:09:15","新北市林口區下福里139-10號","121.299366666667","25.1170316666667","6501700","林口區"
"222004","289-BY","2018/03/17 08:09:27","新北市深坑區昇高坑路50-1號","121.629596666667","24.9951816666667","6501800","深坑區"
"231008","192-VK","2018/03/17 08:09:26","新北市新店區北新路一段88巷1-2號","121.542128333333","24.9676166666667","6500600","新店區"
"231007","719-UY","2018/03/17 08:09:25","新北市新店區新潭路一段16號","121.522928333333","24.9430966666667","6500600","新店區"
"226005","5620-A6","2018/03/17 08:09:11","新北市平溪區南山里南山坪20號","121.771808333333","25.0368333333333","6502400","平溪區"
"226002","7418-A5","2018/03/17 08:09:26","新北市平溪區望古里石灼坑2-1號","121.767418333333","25.03576","6502400","平溪區"
"226003","AGD-0702","2018/03/17 08:09:13","新北市平溪區十分里十分街58巷15號","121.774773333333","25.04285","6502400","平溪區"
"223006","022-BY","2018/03/17 08:09:14","新北市石碇區八分寮47-1號","121.642741666667","25.013915","6501900","石碇區"
"223001","205-TH","2018/03/17 08:09:21","新北市石碇區北宜路六段獅子頭坑巷6-1號","121.645165","24.9422933333333","6501900","石碇區"
"223008","406-TH","2018/03/17 08:09:16","新北市石碇區番子坑109號","121.674983333333","25.0112166666667","6501900","石碇區"
"223001","592-UM","2018/03/17 08:08:31","新北市石碇區北宜路六段十三股巷1-1號","121.64663","24.9444033333333","6501900","石碇區"
"223004","660-BX","2018/03/17 08:09:28","新北市石碇區外按18-2號","121.651585","25.00002","6501900","石碇區"
"223005","677-TV","2018/03/17 08:09:26","新北市石碇區外按18-2號","121.651548333333","24.9998883333333","6501900","石碇區"
"227006","282-VK","2018/03/17 08:09:24","新北市雙溪區牡丹里聖南29號","121.855276666667","25.049175","6502500","雙溪區"
"252004","249-BX","2018/03/17 08:09:24","新北市三芝區興華里車埕62-1號","121.499963333333","25.1967566666667","6502100","三芝區"
"252007","AAC-283","2018/03/17 08:09:22","新北市三芝區後厝里土地公坑999號","121.464685","25.2489566666667","6502100","三芝區"
"237001","159-UY","2018/03/17 08:09:12","新北市三峽區學成路269號","121.37569","24.9430566666667","6500900","三峽區"
"236011","165-UM","2018/03/17 08:09:14","新北市土城區青雲路587巷6號","121.46297","24.9710433333333","6501300","土城區"
"236002","339-SR","2018/03/17 08:09:24","新北市土城區龍泉路50號","121.412761666667","24.9446433333333","6501300","土城區"
"236006","498-BY","2018/03/17 08:09:21","新北市土城區永平街51號","121.427593333333","24.95911","6501300","土城區"
"220027","461-BY","2018/03/17 08:09:25","新北市八里區商港路120號","121.392998333333","25.14996","6500100","板橋區"
