"lineid","car","time","location","longitude","latitude","cityid","cityname"
"248005","653-BX","2018/03/17 10:19:12","新北市五股區中興路二段37巷24號","121.460621666667","25.0751083333333","6501500","五股區"
"231008","192-VK","2018/03/17 10:19:26","新北市新店區小坑一路21-1號","121.53075","24.91118","6500600","新店區"
"231007","719-UY","2018/03/17 10:19:25","新北市新店區新潭路三段215巷25號","121.508138333333","24.9040833333333","6500600","新店區"
"227006","282-VK","2018/03/17 10:19:24","新北市雙溪區長源里柑腳24號","121.804548333333","25.01433","6502500","雙溪區"
"252007","AAC-283","2018/03/17 10:19:21","新北市三芝區古庄里古庄99-7號","121.493766666667","25.27098","6502100","三芝區"
