"lineid","car","time","location","longitude","latitude","cityid","cityname"
"234044","148-BY","2018/03/17 13:09:32","新北市永和區永元路18巷17號","121.52339","25.0002283333333","6500400","永和區"
"234005","207-UY","2018/03/17 13:09:31","新北市永和區中山路一段144號","121.509905","25.00953","6500400","永和區"
"234078","298-R6","2018/03/17 13:09:35","新北市永和區永貞路39巷9弄1號","121.521841666667","25.0066316666667","6500400","永和區"
"234036","336-UY","2018/03/17 13:09:29","新北市永和區民樂街69巷1號","121.527353333333","24.9977816666667","6500400","永和區"
"234062","337-UY","2018/03/17 13:09:34","新北市永和區秀朗路二段52號","121.521953333333","25.0020416666667","6500400","永和區"
"234084","338-UY","2018/03/17 13:09:24","新北市永和區永貞路126號","121.51854","25.0045633333333","6500400","永和區"
"234068","552-UM","2018/03/17 13:09:23","新北市永和區豫溪街95巷7號","121.518331666667","25.0103816666667","6500400","永和區"
"234015","745-BX","2018/03/17 13:09:31","新北市永和區文化路90巷15弄1號","121.513846666667","25.015855","6500400","永和區"
"234028","746-BX","2018/03/17 13:09:31","新北市永和區民生路23號","121.522868333333","24.998825","6500400","永和區"
"234052","KEA-2590","2018/03/17 13:09:36","新北市永和區中興街133巷26號","121.517761666667","25.0125033333333","6500400","永和區"
"234012","KEA-2591","2018/03/17 13:09:25","新北市永和區保福路二段67號","121.510671666667","25.0124683333333","6500400","永和區"
"234060","AAD-866","2018/03/17 13:09:16","新北市永和區安樂路304巷7號","121.514573333333","25.0051683333333","6500400","永和區"
"234040","862-TW","2018/03/17 13:09:31","新北市永和區永貞路332巷26號","121.511588333333","25.0057283333333","6500400","永和區"
"234048","863-TW","2018/03/17 13:09:18","新北市永和區仁愛路104巷7弄23號","121.510958333333","25.0140616666667","6500400","永和區"
"234025","9371-KE","2018/03/17 13:09:28","新北市永和區秀朗路一段10巷19號","121.51346","25.0061483333333","6500400","永和區"
"234010","9373-KE","2018/03/17 13:09:22","新北市永和區仁愛路31巷2弄3號","121.513945","25.0129283333333","6500400","永和區"
"248017","225-UY","2018/03/17 13:09:36","新北市五股區成泰路三段101-1號","121.444241666667","25.0901416666667","6501500","五股區"
"234022","9380-KE","2018/03/17 13:09:21","新北市永和區中興街10巷17號","121.5158","25.011205","6500400","永和區"
"234076","969-R7","2018/03/17 13:09:37","新北市永和區智光街115號","121.515548333333","24.996135","6500400","永和區"
"234072","AAC-211","2018/03/17 13:09:28","新北市永和區竹林路222號","121.520756666667","25.0080583333333","6500400","永和區"
"234066","AAC-212","2018/03/17 13:09:22","新北市永和區永和路一段100號","121.513205","25.00697","6500400","永和區"
"234001","AAC-295","2018/03/17 13:09:24","新北市永和區中山路一段24號","121.51378","25.0105616666667","6500400","永和區"
"244005","248-BX","2018/03/17 13:09:33","新北市林口區中山路248號","121.386515","25.0793816666667","6501700","林口區"
"231002","002-UM","2018/03/17 13:09:26","新北市新店區安華路28-1號","121.51973","24.9606733333333","6500600","新店區"
"231025","0293-UT","2018/03/17 13:09:20","新北市新店區安華路1-1號","121.519465","24.9604733333333","6500600","新店區"
"231028","046-UY","2018/03/17 13:09:23","新北市新店區安華路28-1號","121.519435","24.9610483333333","6500600","新店區"
"231030","047-UY","2018/03/17 13:09:23","新北市新店區安華路28-1號","121.519018333333","24.9609383333333","6500600","新店區"
"231029","106-UY","2018/03/17 13:09:25","新北市新店區安華路28-1號","121.519618333333","24.960745","6500600","新店區"
"231018","107-UY","2018/03/17 13:09:34","新北市新店區安康路一段299-1號","121.522221666667","24.9636333333333","6500600","新店區"
"231012","108-UY","2018/03/17 13:09:16","新北市新店區安華路28-1號","121.519398333333","24.9611333333333","6500600","新店區"
"231020","187-VK","2018/03/17 13:09:31","新北市新店區安華路28-1號","121.51966","24.9614533333333","6500600","新店區"
"231017","KEA-2219","2018/03/17 13:09:19","新北市新店區安華路28-1號","121.519863333333","24.9612116666667","6500600","新店區"
"231026","256-BX","2018/03/17 13:09:25","新北市新店區安華路28-1號","121.519588333333","24.9611766666667","6500600","新店區"
"231023","AAD-862","2018/03/17 12:52:41","新北市新店區安華路30巷1號","121.519476666667","24.95961","6500600","新店區"
"231027","3712-VJ","2018/03/17 13:09:20","新北市新店區安華路28-1號","121.519161666667","24.9605933333333","6500600","新店區"
"231024","4716-K9","2018/03/17 13:09:34","新北市新店區安華路28-1號","121.519268333333","24.961165","6500600","新店區"
"231038","4715-K9","2018/03/17 13:09:23","新北市新店區安華路1-1號","121.519318333333","24.9603833333333","6500600","新店區"
"231036","512-UM","2018/03/17 13:09:36","新北市新店區安華路30巷3號","121.51911","24.9587416666667","6500600","新店區"
"231013","513-UM","2018/03/17 13:09:19","新北市新店區安華路28-1號","121.51959","24.96116","6500600","新店區"
"231035","515-UM","2018/03/17 13:09:27","新北市新店區安華路28-1號","121.519733333333","24.9610416666667","6500600","新店區"
"231006","617-UM","2018/03/17 13:09:30","新北市新店區安華路28-1號","121.519373333333","24.9609216666667","6500600","新店區"
"231001","619-UM","2018/03/17 13:09:18","新北市新店區安華路28-1號","121.519415","24.9607316666667","6500600","新店區"
"231003","641-BX","2018/03/17 13:09:29","新北市新店區安華路28-1號","121.519503333333","24.960525","6500600","新店區"
"231034","645-TV","2018/03/17 13:09:19","新北市新店區安華路28-1號","121.519276666667","24.960675","6500600","新店區"
"231033","720-UM","2018/03/17 13:09:28","新北市新店區安華路28-1號","121.518995","24.9611383333333","6500600","新店區"
"231005","897-TW","2018/03/17 13:09:19","新北市新店區安華路1-1號","121.519516666667","24.9604","6500600","新店區"
"231004","899-TW","2018/03/17 13:09:30","新北市新店區安華路28-1號","121.519155","24.96087","6500600","新店區"
"231037","AKT-0513","2018/03/17 13:09:23","新北市新店區安華路28-1號","121.519351666667","24.9606066666667","6500600","新店區"
"235030","003-UY","2018/03/17 13:09:25","新北市中和區景平路517號","121.499218333333","24.9987616666667","6500300","中和區"
"235028","005-UY","2018/03/17 13:09:23","新北市中和區中正路277-6號","121.495198333333","24.993875","6500300","中和區"
"235027","006-UY","2018/03/17 13:09:33","新北市中和區員山路36巷16-3號","121.485086666667","24.99125","6500300","中和區"
"235003","097-UM","2018/03/17 13:09:27","新北市中和區中正路521號","121.488223333333","24.9935233333333","6500300","中和區"
"235029","098-UM","2018/03/17 13:09:30","新北市中和區福祥路56號","121.499456666667","25.004635","6500300","中和區"
"235022","151-BY","2018/03/17 13:09:34","新北市中和區圓通路367巷33弄6-1號","121.492878333333","24.985735","6500300","中和區"
"235002","185-VK","2018/03/17 13:09:19","新北市中和區大智街18號","121.520428333333","24.9918966666667","6500300","中和區"
"235031","255-BX","2018/03/17 12:42:53","新北市中和區新生街35號","121.48327","25.0035183333333","6500300","中和區"
"235036","301-VK","2018/03/17 13:09:31","新北市中和區員山路36巷12號","121.483916666667","24.990915","6500300","中和區"
"235032","377-QA","2018/03/17 13:08:22","新北市中和區員山路36巷16-2號","121.48517","24.991675","6500300","中和區"
"235025","378-QA","2018/03/17 13:09:29","新北市中和區連城路607號","121.478446666667","24.9929816666667","6500300","中和區"
"235035","269-TV","2018/03/17 13:09:35","新北市中和區板南路520巷2號","121.483723333333","25.0088216666667","6500300","中和區"
"235014","4979-A6","2018/03/17 13:09:22","新北市中和區員山路36巷16-8號","121.485385","24.99237","6500300","中和區"
"235033","4980-A6","2018/03/17 13:09:21","新北市中和區中正路571巷1弄4號","121.48712","24.9933133333333","6500300","中和區"
"235006","551-UM","2018/03/17 13:09:35","新北市中和區中正路275號","121.495558333333","24.99386","6500300","中和區"
"235018","640-BX","2018/03/17 13:09:22","新北市土城區延壽路46號","121.47056","24.9917666666667","6500300","中和區"
"235024","647-TV","2018/03/17 13:09:29","新北市中和區員山路36巷16-3號","121.484768333333","24.9916783333333","6500300","中和區"
"235026","800-TS","2018/03/17 13:09:01","新北市中和區建一路1-1號","121.488103333333","25.00412","6500300","中和區"
"235021","801-TS","2018/03/17 13:09:35","新北市中和區員山路36巷16-3號","121.484925","24.991605","6500300","中和區"
"235005","802-TS","2018/03/17 13:09:19","新北市中和區員山路36巷16-2號","121.485233333333","24.991815","6500300","中和區"
"235016","805-TS","2018/03/17 12:57:44","新北市中和區員山路36巷16號","121.484438333333","24.9913483333333","6500300","中和區"
"235015","157-BY","2018/03/17 13:09:29","新北市中和區中正路275號","121.495466666667","24.99371","6500300","中和區"
"235001","AAC-213","2018/03/17 13:09:32","新北市中和區中正路268號","121.495096666667","24.9939483333333","6500300","中和區"
"220017","AAD-861","2018/03/17 13:09:17","新北市板橋區華東街1-10號","121.44835","24.9951216666667","6500100","板橋區"
"228004","212-TW","2018/03/17 13:09:27","新北市貢寮區吉林里內寮街75號","121.89126","24.9723766666667","6502600","貢寮區"
"228005","828-UM","2018/03/17 13:09:26","新北市貢寮區仁理村研海街42號","121.925871666667","25.042595","6502600","貢寮區"
"253003","6232-TK","2018/03/17 13:09:26","新北市石門區石崩山24號","121.564183333333","25.2801033333333","6502200","石門區"
"253001","6251-TK","2018/03/17 13:09:17","新北市石門區老梅路67號","121.545948333333","25.28929","6502200","石門區"
"253002","637-UY","2018/03/17 13:09:29","新北市石門區老崩山35號","121.557321666667","25.27678","6502200","石門區"
"253004","8270-PC","2018/03/17 13:09:23","新北市石門區小坑12號","121.591633333333","25.28957","6502200","石門區"
"207002","749-BX","2018/03/17 13:09:30","新北市萬里區崁腳里崁腳路96號","121.647373333333","25.158415","6502800","萬里區"
"252005","073-UM","2018/03/17 13:09:27","新北市三芝區智成街120號","121.5061","25.2553616666667","6502100","三芝區"
"207001","662-BX","2018/03/17 13:09:34","新北市萬里區萬里里瑪鋉路85-2號","121.688626666667","25.1769516666667","6502800","萬里區"
"236006","498-BY","2018/03/17 13:09:34","新北市土城區亞洲路21號","121.434053333333","24.9720533333333","6501300","土城區"
"221025","623-UM","2018/03/17 13:09:29","新北市汐止區大同路一段339-2號","121.638186666667","25.0597183333333","6501100","汐止區"
