"lineid","car","time","location","longitude","latitude","cityid","cityname"
"234005","207-UY","2018/03/17 14:29:30","新北市永和區中正路486號","121.517478333333","25.00393","6500400","永和區"
"234078","298-R6","2018/03/17 14:29:35","新北市永和區永貞路80號","121.520213333333","25.00505","6500400","永和區"
"234062","337-UY","2018/03/17 14:29:34","新北市永和區中正路443號","121.517011666667","25.0052733333333","6500400","永和區"
"234084","338-UY","2018/03/17 14:29:24","新北市永和區光復街21號","121.516515","25.017445","6500400","永和區"
"234068","552-UM","2018/03/17 14:29:23","新北市永和區永亨路6-1號","121.519456666667","25.005655","6500400","永和區"
"234028","746-BX","2018/03/17 14:29:30","新北市永和區中正路90號","121.513973333333","24.9954266666667","6500400","永和區"
"234052","KEA-2590","2018/03/17 14:29:16","新北市永和區光復街60巷25號","121.517988333333","25.01749","6500400","永和區"
"234060","AAD-866","2018/03/17 14:29:36","新北市永和區永貞路131號","121.516708333333","25.004195","6500400","永和區"
"234040","862-TW","2018/03/17 14:29:31","新北市永和區安樂路348號","121.514478333333","25.00646","6500400","永和區"
"234048","863-TW","2018/03/17 14:29:38","新北市永和區環河西路二段33號","121.50738","25.0157133333333","6500400","永和區"
"234025","9371-KE","2018/03/17 14:29:28","新北市中和區中安街98-1號","121.511723333333","25.001215","6500400","永和區"
"248017","225-UY","2018/03/17 14:19:16","新北市五股區壟路15-1號","121.41639","25.0836566666667","6501500","五股區"
"234072","AAC-211","2018/03/17 14:29:28","新北市永和區竹林路39巷3號","121.5181","25.0143716666667","6500400","永和區"
"234001","AAC-295","2018/03/17 14:29:36","新北市永和區大新街53號","121.515848333333","25.0084266666667","6500400","永和區"
"231002","002-UM","2018/03/17 14:29:26","新北市新店區中央路22-1號","121.533285","24.9784266666667","6500600","新店區"
"231025","0293-UT","2018/03/17 14:29:19","新北市新店區民族路161號","121.53772","24.9767333333333","6500600","新店區"
"231028","046-UY","2018/03/17 14:29:23","新北市新店區安康路二段147號","121.511361666667","24.9599033333333","6500600","新店區"
"231030","047-UY","2018/03/17 14:29:23","新北市新店區安民街141號","121.516488333333","24.9694033333333","6500600","新店區"
"231029","106-UY","2018/03/17 14:29:25","新北市新店區安康路二段408號","121.496713333333","24.955245","6500600","新店區"
"231018","107-UY","2018/03/17 14:29:34","新北市新店區中央一街49號","121.527096666667","24.9742533333333","6500600","新店區"
"231012","108-UY","2018/03/17 14:29:35","新北市新店區寶興路65巷2號","121.55084","24.9716583333333","6500600","新店區"
"231020","187-VK","2018/03/17 14:29:31","新北市新店區新烏路二段411號","121.551555","24.9093283333333","6500600","新店區"
"231017","KEA-2219","2018/03/17 14:29:19","新北市新店區北宜路三段214號","121.589516666667","24.9521083333333","6500600","新店區"
"231023","AAD-862","2018/03/17 14:29:21","新北市新店區光明街135號","121.539483333333","24.96197","6500600","新店區"
"231027","3712-VJ","2018/03/17 14:29:20","新北市新店區中興路三段1-20號","121.546046666667","24.97566","6500600","新店區"
"231024","4716-K9","2018/03/17 14:29:34","新北市新店區中華路83巷67號","121.538345","24.9674533333333","6500600","新店區"
"231038","4715-K9","2018/03/17 14:29:22","新北市新店區溪洲路101-1號","121.531581666667","24.9624383333333","6500600","新店區"
"231036","512-UM","2018/03/17 14:29:33","新北市新店區安祥路109巷149號","121.477611666667","24.9586083333333","6500600","新店區"
"231013","513-UM","2018/03/17 14:29:19","新北市新店區民權路90巷20號","121.536126666667","24.9838116666667","6500600","新店區"
"231035","515-UM","2018/03/17 14:29:27","新北市新店區安光路10-1號","121.513838333333","24.9641766666667","6500600","新店區"
"231006","617-UM","2018/03/17 14:29:30","新北市新店區北宜路二段401號","121.559673333333","24.9544066666667","6500600","新店區"
"231001","619-UM","2018/03/17 14:29:38","新北市新店區北新路一段96巷23號","121.543023333333","24.9688616666667","6500600","新店區"
"231003","641-BX","2018/03/17 14:29:29","新北市新店區中興路一段270號","121.545426666667","24.96792","6500600","新店區"
"231034","645-TV","2018/03/17 14:29:35","新北市新店區黎明路54巷2號","121.502346666667","24.94842","6500600","新店區"
"231005","897-TW","2018/03/17 14:29:19","新北市新店區順安街29號","121.540901666667","24.985855","6500600","新店區"
"231004","899-TW","2018/03/17 14:29:30","新北市新店區中正路263-4號","121.538321666667","24.9739183333333","6500600","新店區"
"231037","AKT-0513","2018/03/17 14:29:22","新北市新店區柴埕路52巷13號","121.511503333333","24.96522","6500600","新店區"
"235030","003-UY","2018/03/17 14:29:25","新北市中和區景新街71號","121.504915","24.998775","6500300","中和區"
"235028","005-UY","2018/03/17 14:29:23","新北市中和區南山路127巷8弄2號","121.50272","24.997235","6500300","中和區"
"235027","006-UY","2018/03/17 14:29:37","新北市中和區安邦街3號","121.495885","24.998335","6500300","中和區"
"235020","096-UM","2018/03/17 14:29:27","新北市中和區員山路516號","121.478928333333","25.0094783333333","6500300","中和區"
"235003","097-UM","2018/03/17 14:29:27","新北市中和區秀峰街119巷8弄1號","121.51938","24.9890383333333","6500300","中和區"
"235029","098-UM","2018/03/17 14:29:29","新北市中和區中山路二段178巷21號","121.500683333333","25.0034483333333","6500300","中和區"
"235004","150-BY","2018/03/17 14:25:53","新北市中和區安樂路69號","121.512383333333","24.9938733333333","6500300","中和區"
"235022","151-BY","2018/03/17 14:29:34","新北市中和區連城路362號","121.481915","24.995415","6500300","中和區"
"235019","183-VK","2018/03/17 14:29:34","新北市中和區德光路27巷13號","121.471088333333","25.0034866666667","6500300","中和區"
"235002","185-VK","2018/03/17 14:29:24","新北市中和區自立路35號","121.522125","24.9954133333333","6500300","中和區"
"235013","186-VK","2018/03/17 14:29:34","新北市中和區景新街256號","121.50942","24.993445","6500300","中和區"
"235008","293-VK","2018/03/17 14:29:27","新北市中和區景安路192號","121.504381666667","24.9916766666667","6500300","中和區"
"235036","301-VK","2018/03/17 14:29:31","新北市中和區中山路二段3巷22弄5號","121.506301666667","25.0051433333333","6500300","中和區"
"235007","352-BY","2018/03/17 14:29:20","新北市中和區景平路300號","121.512623333333","24.9927383333333","6500300","中和區"
"235032","377-QA","2018/03/17 14:29:22","新北市中和區永和路6號","121.500028333333","25.0027883333333","6500300","中和區"
"235025","378-QA","2018/03/17 14:29:29","新北市中和區民安街2巷1號","121.480651666667","25.0011383333333","6500300","中和區"
"235035","269-TV","2018/03/17 14:29:35","新北市中和區連城路499號","121.482628333333","24.9955133333333","6500300","中和區"
"235014","4979-A6","2018/03/17 14:29:22","新北市中和區中正路414號","121.491965","24.9941316666667","6500300","中和區"
"235033","4980-A6","2018/03/17 14:29:21","新北市中和區連城路87-1號","121.49674","25.000135","6500300","中和區"
"235006","551-UM","2018/03/17 14:29:34","新北市中和區中安街202-1號","121.51182","24.9989533333333","6500300","中和區"
"235034","558-UM","2018/03/17 14:29:19","新北市中和區南山路27號","121.50205","24.9989433333333","6500300","中和區"
"235009","565-BX","2018/03/17 14:29:35","新北市中和區景新街499號","121.51394","24.987055","6500300","中和區"
"235018","640-BX","2018/03/17 14:29:22","新北市中和區國光街112巷16弄2號","121.46986","25.001335","6500300","中和區"
"235024","647-TV","2018/03/17 14:29:29","新北市中和區員山路469巷1號","121.480403333333","25.0046316666667","6500300","中和區"
"235011","732-UM","2018/03/17 14:29:29","新北市中和區景平路241巷56號","121.507978333333","24.9922833333333","6500300","中和區"
"235010","733-UM","2018/03/17 14:29:30","新北市中和區忠孝街37巷52號","121.51111","24.98493","6500300","中和區"
"235026","800-TS","2018/03/17 14:29:31","新北市中和區中山路二段526巷28號","121.485925","25.0058333333333","6500300","中和區"
"235021","801-TS","2018/03/17 14:29:35","新北市中和區中山路三段37巷31號","121.479575","25.004895","6500300","中和區"
"235005","802-TS","2018/03/17 14:29:19","新北市中和區中和路228號","121.506586666667","24.9994166666667","6500300","中和區"
"235016","805-TS","2018/03/17 14:29:24","新北市中和區華新街143巷67弄35號","121.507558333333","24.97927","6500300","中和區"
"235012","896-TW","2018/03/17 14:29:39","新北市中和區忠孝街39-2號","121.511603333333","24.9838216666667","6500300","中和區"
"235017","911-UM","2018/03/17 14:29:29","新北市中和區民德路197號","121.468975","24.998555","6500300","中和區"
"235015","157-BY","2018/03/17 14:29:29","新北市中和區捷運路40號","121.508205","24.990385","6500300","中和區"
"235001","AAC-213","2018/03/17 14:29:31","新北市中和區秀朗路三段10巷14弄2號","121.525395","24.9964866666667","6500300","中和區"
"235023","AAC-215","2018/03/17 14:29:38","新北市中和區圓通路256號","121.493461666667","24.9909916666667","6500300","中和區"
"220016","013-TV","2018/03/17 14:29:31","新北市板橋區中山路二段553巷4弄3號","121.483228333333","25.022665","6500100","板橋區"
"220013","072-UY","2018/03/17 14:29:32","新北市板橋區實踐路93巷77號","121.467286666667","25.0053383333333","6500100","板橋區"
"220034","073-UY","2018/03/17 14:29:30","新北市板橋區國光路173巷10號","121.460423333333","25.0189933333333","6500100","板橋區"
"220017","AAD-861","2018/03/17 14:29:37","新北市板橋區稚暉街33號","121.457023333333","25.00412","6500100","板橋區"
"247023","893-R6","2018/03/17 14:29:29","新北市蘆洲區中正路263巷2號","121.467426666667","25.08742","6501400","蘆洲區"
"247013","546-UM","2018/03/17 14:29:34","新北市蘆洲區中山二路173號","121.471023333333","25.0810783333333","6501400","蘆洲區"
"247021","500-BY","2018/03/17 14:29:24","新北市蘆洲區中正路499-1號","121.461836666667","25.096615","6501400","蘆洲區"
"247011","339-TH","2018/03/17 14:29:18","新北市蘆洲區中興街125號","121.482126666667","25.0894016666667","6501400","蘆洲區"
"247003","337-TH","2018/03/17 14:29:21","新北市蘆洲區永康街1巷12號","121.45967","25.0854716666667","6501400","蘆洲區"
"247005","336-TH","2018/03/17 14:29:29","新北市蘆洲區長安街46巷7弄2號","121.463875","25.080205","6501400","蘆洲區"
"247017","057-VK","2018/03/17 14:29:29","新北市蘆洲區復興路232號","121.479375","25.0894216666667","6501400","蘆洲區"
"247007","056-VK","2018/03/17 14:29:28","新北市蘆洲區信義路30巷22號","121.474231666667","25.0785966666667","6501400","蘆洲區"
"247019","053-VK","2018/03/17 14:29:28","新北市蘆洲區水湳街150號","121.470098333333","25.0937583333333","6501400","蘆洲區"
"247015","007-UY","2018/03/17 14:29:31","新北市蘆洲區中正路185巷68弄25號","121.466221666667","25.0854383333333","6501400","蘆洲區"
"247001","002-UY","2018/03/17 14:29:28","新北市蘆洲區環堤大道166號","121.456196666667","25.0895833333333","6501400","蘆洲區"
"228004","212-TW","2018/03/17 14:29:27","新北市貢寮區雙玉里田寮洋街33-1號","121.93217","25.013615","6502600","貢寮區"
"228005","828-UM","2018/03/17 14:29:26","新北市貢寮區美豐里巫里岸9-1號","121.90195","25.07009","6502600","貢寮區"
"253003","6232-TK","2018/03/17 14:29:26","新北市石門區內石門62號","121.577888333333","25.2659183333333","6502200","石門區"
"253001","6251-TK","2018/03/17 14:29:24","新北市石門區崁子腳65號","121.53185","25.2862783333333","6502200","石門區"
"253002","637-UY","2018/03/17 14:22:29","新北市三芝區橫山里橫山39-3號","121.545783333333","25.2537616666667","6502200","石門區"
"253004","8270-PC","2018/03/17 14:29:34","新北市石門區內阿里磅25號","121.592253333333","25.244215","6502200","石門區"
"207002","749-BX","2018/03/17 14:26:30","新北市萬里區溪底里富士坪路26-1號","121.621125","25.1521916666667","6502800","萬里區"
"252005","073-UM","2018/03/17 14:29:26","新北市三芝區橫山里橫山45-1號","121.535516666667","25.257205","6502100","三芝區"
"207001","662-BX","2018/03/17 14:29:34","新北市萬里區磺潭里清水2-3號","121.643595","25.2012516666667","6502800","萬里區"
"236068","105-UM","2018/03/17 14:29:33","新北市土城區永豐路358-2號","121.474236666667","24.9749433333333","6501300","土城區"
"236041","107-UM","2018/03/17 14:29:24","新北市土城區學成路97巷17號","121.45","24.98787","6501300","土城區"
"236075","166-UM","2018/03/17 14:29:23","新北市土城區中央路四段47號","121.422431666667","24.9615116666667","6501300","土城區"
"236029","253-BX","2018/03/17 14:29:31","新北市土城區順風路8號","121.44019","24.97625","6501300","土城區"
"236024","269-VK","2018/03/17 14:29:17","新北市土城區承天路18號","121.439306666667","24.9633783333333","6501300","土城區"
"236013","270-VK","2018/03/17 14:29:32","新北市土城區立清街10號","121.46004","24.985585","6501300","土城區"
"236035","271-VK","2018/03/17 14:29:39","新北市土城區明德路一段295號","121.460043333333","24.977255","6501300","土城區"
"236017","401-BY","2018/03/17 14:29:33","新北市土城區永豐路135巷1號","121.466711666667","24.9834","6501300","土城區"
"236061","752-BX","2018/03/17 14:29:20","新北市土城區延壽路44巷12-1號","121.471033333333","24.992145","6501300","土城區"
"236057","912-UM","2018/03/17 14:29:38","新北市土城區中央路四段464號","121.409935","24.95058","6501300","土城區"
"236045","913-UM","2018/03/17 14:29:34","新北市土城區青雲路469號","121.458728333333","24.9741233333333","6501300","土城區"
"236054","AAC-216","2018/03/17 14:29:21","新北市土城區福祥街101巷1號","121.44096","24.98176","6501300","土城區"
"220027","145-BY","2018/03/17 14:29:37","新北市板橋區民權路202巷13弄28號","121.458841666667","25.016325","6500100","板橋區"
"220028","200-UY","2018/03/17 14:29:32","新北市板橋區大觀路二段1巷44號","121.45018","25.003655","6500100","板橋區"
"220105","KEA-2550","2018/03/17 14:29:37","新北市板橋區江寧路三段56號","121.471825","25.03206","6500100","板橋區"
"220030","610-BX","2018/03/17 14:29:24","新北市板橋區金門街122號","121.432958333333","24.9914733333333","6500100","板橋區"
"220050","245-BX","2018/03/17 14:29:35","新北市板橋區縣民大道三段133巷6號","121.47761","25.0234166666667","6500100","板橋區"
"220047","257-TC","2018/03/17 14:29:22","新北市板橋區民生路三段281巷2弄3號","121.463596666667","25.0300383333333","6500100","板橋區"
"220040","267-BY","2018/03/17 14:29:34","新北市板橋區文聖街149巷23弄1號","121.479435","25.0285316666667","6500100","板橋區"
"220004","276-BY","2018/03/17 14:29:26","新北市板橋區信義路1巷26弄32號","121.458428333333","24.9966","6500100","板橋區"
"220020","277-BY","2018/03/17 14:29:31","新北市板橋區金門街226號","121.430776666667","24.9876483333333","6500100","板橋區"
"220043","280-UM","2018/03/17 14:29:32","新北市板橋區雙十路三段17號","121.470768333333","25.0312233333333","6500100","板橋區"
"220012","282-UM","2018/03/17 14:29:29","新北市板橋區館前東路2-2號","121.45944","25.0070883333333","6500100","板橋區"
"220019","283-VK","2018/03/17 14:29:33","新北市板橋區四川路一段325巷3弄8號","121.459531666667","25.00043","6500100","板橋區"
"220001","285-VK","2018/03/17 14:29:22","新北市板橋區永豐街100號","121.475886666667","25.020545","6500100","板橋區"
"220031","286-VK","2018/03/17 14:29:38","新北市板橋區龍興街69號","121.443693333333","25.0016533333333","6500100","板橋區"
"220029","287-VK","2018/03/17 14:29:32","新北市板橋區大觀路一段73號","121.44715","25.004535","6500100","板橋區"
"220039","288-VK","2018/03/17 14:29:31","新北市板橋區裕民街83號","121.46059","25.0281666666667","6500100","板橋區"
"220009","293-UM","2018/03/17 14:29:39","新北市板橋區成功路6巷9號","121.475868333333","25.0170366666667","6500100","板橋區"
"220010","295-UM","2018/03/17 14:29:21","新北市板橋區三民路二段181巷4弄1號","121.479913333333","25.014365","6500100","板橋區"
"220032","296-UM","2018/03/17 14:29:19","新北市板橋區滿平二街32號","121.42525","24.987505","6500100","板橋區"
"220023","303-R5","2018/03/17 14:29:22","新北市板橋區南雅西路一段110號","121.452901666667","25.006345","6500100","板橋區"
"220041","307-R5","2018/03/17 14:29:27","新北市板橋區光武街2巷27號","121.468705","25.0255883333333","6500100","板橋區"
"220038","487-VK","2018/03/17 14:29:26","新北市板橋區文化路一段143號","121.462325","25.015425","6500100","板橋區"
"220037","491-VK","2018/03/17 14:29:22","新北市板橋區雙十路二段4號","121.477156666667","25.0254766666667","6500100","板橋區"
"220104","560-BX","2018/03/17 14:29:26","新北市板橋區金華街85巷42號","121.459338333333","25.0213483333333","6500100","板橋區"
"220052","561-BX","2018/03/17 14:29:32","新北市板橋區介壽街1號","121.467091666667","25.0204333333333","6500100","板橋區"
"220011","609-BX","2018/03/17 14:29:34","新北市板橋區三民路二段142號","121.479131666667","25.0155166666667","6500100","板橋區"
"220005","686-BX","2018/03/17 14:29:33","新北市板橋區五權街7-1號","121.463848333333","24.9945966666667","6500100","板橋區"
"220025","687-BX","2018/03/17 14:29:25","新北市板橋區僑中二街52號","121.446708333333","25.010345","6500100","板橋區"
"220042","689-BX","2018/03/17 14:29:37","新北市板橋區英士路76號","121.460188333333","25.024365","6500100","板橋區"
"220002","741-BX","2018/03/17 14:29:35","新北市板橋區光明街54號","121.460885","25.0026266666667","6500100","板橋區"
"220051","KEA-2699","2018/03/17 14:29:35","新北市板橋區雙十路二段130巷2弄29號","121.475015","25.0287233333333","6500100","板橋區"
"220003","827-TW","2018/03/17 14:29:38","新北市板橋區重慶路290巷4號","121.462991666667","24.99901","6500100","板橋區"
"220014","830-TW","2018/03/17 14:29:26","新北市中和區中山路三段170巷8弄1號","121.472476666667","25.0075266666667","6500100","板橋區"
"220045","831-TW","2018/03/17 14:29:22","新北市板橋區大同街35巷23號","121.476718333333","25.0276783333333","6500100","板橋區"
"220022","895-R6","2018/03/17 14:29:31","新北市板橋區大東街3號","121.456593333333","25.0094116666667","6500100","板橋區"
"220021","985-R7","2018/03/17 14:29:21","新北市板橋區瑞安街60號","121.455466666667","25.02153","6500100","板橋區"
"220046","AAC-210","2018/03/17 14:29:33","新北市板橋區漢生西路197-1號","121.463275","25.0244383333333","6500100","板橋區"
"220018","AAC-253","2018/03/17 14:29:27","新北市板橋區館前東路58號","121.46101","25.0073166666667","6500100","板橋區"
