"lineid","car","time","location","longitude","latitude","cityid","cityname"
"234005","207-UY","2018/03/17 14:39:30","新北市永和區安樂路208-1號","121.51505","25.002075","6500400","永和區"
"234028","746-BX","2018/03/17 14:39:30","新北市板橋區長江路二段311巷18-1號","121.469553333333","25.0358166666667","6500400","永和區"
"234025","9371-KE","2018/03/17 14:39:28","新北市永和區雙和街7巷6號","121.509483333333","25.0015816666667","6500400","永和區"
"248017","225-UY","2018/03/17 14:19:16","新北市五股區壟路15-1號","121.41639","25.0836566666667","6501500","五股區"
"234072","AAC-211","2018/03/17 14:39:37","新北市永和區環河東路二段36號","121.522718333333","25.01245","6500400","永和區"
"231002","002-UM","2018/03/17 14:39:26","新北市新店區中正路460號","121.534033333333","24.9794","6500600","新店區"
"231025","0293-UT","2018/03/17 14:39:19","新北市新店區民族路161號","121.537651666667","24.9767666666667","6500600","新店區"
"231028","046-UY","2018/03/17 14:39:23","新北市新店區安德街60巷35號","121.511173333333","24.9635083333333","6500600","新店區"
"231030","047-UY","2018/03/17 14:39:23","新北市新店區安民街254號","121.51769","24.9732216666667","6500600","新店區"
"231029","106-UY","2018/03/17 14:39:25","新北市新店區安康路三段263號","121.486585","24.951895","6500600","新店區"
"231018","107-UY","2018/03/17 14:39:34","新北市新店區中央路210-1號","121.530063333333","24.9736583333333","6500600","新店區"
"231012","108-UY","2018/03/17 14:39:35","新北市新店區寶宏路38號","121.54944","24.9755383333333","6500600","新店區"
"231020","187-VK","2018/03/17 14:39:34","新北市新店區永福路38-1號","121.553343333333","24.9293416666667","6500600","新店區"
"231017","KEA-2219","2018/03/17 14:39:39","新北市新店區北宜路三段221號","121.59239","24.953295","6500600","新店區"
"231023","AAD-862","2018/03/17 14:39:21","新北市新店區檳榔路22巷1號","121.541296666667","24.9641916666667","6500600","新店區"
"231027","3712-VJ","2018/03/17 14:39:20","新北市新店區中正路159號","121.541245","24.9718933333333","6500600","新店區"
"231024","4716-K9","2018/03/17 14:39:34","新北市新店區中華路83巷67號","121.53838","24.96745","6500600","新店區"
"231038","4715-K9","2018/03/17 14:39:22","新北市新店區安康路一段355號","121.519598333333","24.9630466666667","6500600","新店區"
"231036","512-UM","2018/03/17 14:39:33","新北市新店區安祥路106巷319號","121.47231","24.9584266666667","6500600","新店區"
"231013","513-UM","2018/03/17 14:39:25","新北市新店區北新路二段139巷12弄20號","121.542178333333","24.976225","6500600","新店區"
"231035","515-UM","2018/03/17 14:39:27","新北市新店區安光路10-1號","121.513796666667","24.96416","6500600","新店區"
"231006","617-UM","2018/03/17 14:39:30","新北市新店區北宜路二段103號","121.550181666667","24.9524183333333","6500600","新店區"
"231001","619-UM","2018/03/17 14:39:18","新北市新店區中正路41號","121.54493","24.9697066666667","6500600","新店區"
"231003","641-BX","2018/03/17 14:39:28","新北市新店區中興路一段292號","121.546003333333","24.9692166666667","6500600","新店區"
"231034","645-TV","2018/03/17 14:39:38","新北市新店區黎明路11號","121.502063333333","24.94988","6500600","新店區"
"231005","897-TW","2018/03/17 14:39:19","新北市新店區復興路2號","121.532375","24.988275","6500600","新店區"
"231004","899-TW","2018/03/17 14:39:30","新北市新店區中正路306號","121.537393333333","24.9745316666667","6500600","新店區"
"235030","003-UY","2018/03/17 14:39:25","新北市中和區中和路196巷9弄7號","121.505533333333","24.9992","6500300","中和區"
"235020","096-UM","2018/03/17 14:39:27","新北市中和區員山路581巷2弄7-2號","121.477828333333","25.009715","6500300","中和區"
"235003","097-UM","2018/03/17 14:39:27","新北市永和區中正路80號","121.513743333333","24.995225","6500300","中和區"
"235029","098-UM","2018/03/17 14:39:38","新北市中和區福祥路68號","121.499411666667","25.005225","6500300","中和區"
"235004","150-BY","2018/03/17 14:25:53","新北市中和區安樂路69號","121.512383333333","24.9938733333333","6500300","中和區"
"235022","151-BY","2018/03/17 14:39:33","新北市中和區員山路142巷9號","121.481893333333","24.996615","6500300","中和區"
"235019","183-VK","2018/03/17 14:39:34","新北市中和區民生街10巷1號","121.470845","25.0056816666667","6500300","中和區"
"235002","185-VK","2018/03/17 14:39:19","新北市中和區大智街55巷30弄20號","121.52113","24.9930316666667","6500300","中和區"
"235013","186-VK","2018/03/17 14:39:33","新北市中和區景安路139號","121.505721666667","24.995575","6500300","中和區"
"235008","293-VK","2018/03/17 14:39:35","新北市中和區興南路一段71號","121.510143333333","24.989365","6500300","中和區"
"235036","301-VK","2018/03/17 14:39:31","新北市中和區中和路74號","121.5008","25.0001766666667","6500300","中和區"
"235007","352-BY","2018/03/17 14:39:20","新北市中和區景平路528號","121.502775","24.994425","6500300","中和區"
"235032","377-QA","2018/03/17 14:39:22","新北市中和區景平路736巷1弄12號","121.497546666667","25.0039333333333","6500300","中和區"
"235025","378-QA","2018/03/17 14:39:34","新北市中和區民樂路16-1號","121.482278333333","25.00121","6500300","中和區"
"235035","269-TV","2018/03/17 14:39:35","新北市中和區連城路469-1號","121.483588333333","24.995855","6500300","中和區"
"235014","4979-A6","2018/03/17 14:39:22","新北市中和區中正路501號","121.488791666667","24.9935733333333","6500300","中和區"
"235006","551-UM","2018/03/17 14:39:34","新北市中和區景安路25號","121.507761666667","24.9987716666667","6500300","中和區"
"235034","558-UM","2018/03/17 14:39:40","新北市中和區景平路597號","121.497183333333","25.00077","6500300","中和區"
"235009","565-BX","2018/03/17 14:39:35","新北市中和區景平路183號","121.511813333333","24.9925016666667","6500300","中和區"
"235018","640-BX","2018/03/17 14:39:22","新北市中和區民德路12號","121.46873","25.0027116666667","6500300","中和區"
"235024","647-TV","2018/03/17 14:39:28","新北市中和區新生街118巷14號","121.48294","25.0018116666667","6500300","中和區"
"235011","732-UM","2018/03/17 14:39:23","新北市中和區景平路329巷2弄12號","121.505401666667","24.9929883333333","6500300","中和區"
"235010","733-UM","2018/03/17 14:39:30","新北市中和區景新街493號","121.513815","24.9871166666667","6500300","中和區"
"235026","800-TS","2018/03/17 14:39:21","新北市中和區中山路二段361號","121.487856666667","25.0047016666667","6500300","中和區"
"235021","801-TS","2018/03/17 14:39:35","新北市中和區員山路370號","121.480846666667","25.0038866666667","6500300","中和區"
"235005","802-TS","2018/03/17 14:39:19","新北市中和區安平路30號","121.509576666667","24.9948","6500300","中和區"
"235016","805-TS","2018/03/17 14:39:24","新北市中和區華新街190號","121.506935","24.9821533333333","6500300","中和區"
"235012","896-TW","2018/03/17 14:39:39","新北市中和區景新街487號","121.513743333333","24.987415","6500300","中和區"
"235017","911-UM","2018/03/17 14:39:29","新北市中和區民德路148號","121.468608333333","25.0003933333333","6500300","中和區"
"235015","157-BY","2018/03/17 14:39:29","新北市中和區板南路120號","121.50307","24.9925","6500300","中和區"
"235001","AAC-213","2018/03/17 14:39:31","新北市中和區秀朗路三段103號","121.526455","24.9947483333333","6500300","中和區"
"235023","AAC-215","2018/03/17 14:39:18","新北市中和區圓通路305巷3弄1號","121.493468333333","24.9905166666667","6500300","中和區"
"220016","013-TV","2018/03/17 14:39:35","新北市板橋區中山路二段412巷38號","121.483958333333","25.019525","6500100","板橋區"
"220013","072-UY","2018/03/17 14:39:33","新北市板橋區國泰街28號","121.468606666667","25.006775","6500100","板橋區"
"220034","073-UY","2018/03/17 14:39:21","新北市板橋區中正路170號","121.456446666667","25.0171433333333","6500100","板橋區"
"220017","AAD-861","2018/03/17 14:39:21","新北市板橋區貴興路106巷5號","121.45525","25.00265","6500100","板橋區"
"247023","893-R6","2018/03/17 14:39:29","新北市蘆洲區中山二路222巷20號","121.469413333333","25.0803066666667","6501400","蘆洲區"
"247013","546-UM","2018/03/17 14:39:34","新北市蘆洲區成功路96號","121.472616666667","25.0819816666667","6501400","蘆洲區"
"247009","341-TH","2018/03/17 14:39:29","新北市蘆洲區信義路218號","121.47905","25.0852183333333","6501400","蘆洲區"
"247011","339-TH","2018/03/17 14:39:38","新北市蘆洲區集賢路224巷28號","121.48153","25.087445","6501400","蘆洲區"
"247003","337-TH","2018/03/17 14:39:21","新北市蘆洲區長安街295號","121.458155","25.0848283333333","6501400","蘆洲區"
"247005","336-TH","2018/03/17 14:39:29","新北市蘆洲區中華街31號","121.463278333333","25.0814883333333","6501400","蘆洲區"
"247007","056-VK","2018/03/17 14:39:28","新北市蘆洲區信義路35號","121.474381666667","25.079545","6501400","蘆洲區"
"247019","053-VK","2018/03/17 14:39:28","新北市蘆洲區民義街61巷7號","121.472296666667","25.08994","6501400","蘆洲區"
"247015","007-UY","2018/03/17 14:39:31","新北市蘆洲區正和街30號","121.46972","25.0820216666667","6501400","蘆洲區"
"247001","002-UY","2018/03/17 14:39:28","新北市蘆洲區永樂街38巷15號","121.45813","25.0888983333333","6501400","蘆洲區"
"228004","212-TW","2018/03/17 14:39:27","新北市貢寮區福隆里龜壽谷街30-1號","121.947006666667","25.0131966666667","6502600","貢寮區"
"228005","828-UM","2018/03/17 14:39:26","新北市貢寮區美豐里雞母嶺街6-6號","121.90208","25.0641783333333","6502600","貢寮區"
"253003","6232-TK","2018/03/17 14:39:26","新北市石門區內石門67-5號","121.575225","25.2553016666667","6502200","石門區"
"253001","6251-TK","2018/03/17 14:39:27","新北市石門區崁子腳37號","121.537571666667","25.268605","6502200","石門區"
"253002","637-UY","2018/03/17 14:39:29","新北市石門區楓林62-1號","121.542446666667","25.273475","6502200","石門區"
"253004","8270-PC","2018/03/17 14:39:14","新北市石門區內阿里磅55號","121.579168333333","25.2493533333333","6502200","石門區"
"207002","749-BX","2018/03/17 14:39:30","新北市萬里區崁腳里崁腳路92號","121.647091666667","25.159085","6502800","萬里區"
"252005","073-UM","2018/03/17 14:39:26","新北市三芝區橫山里橫山21號","121.5403","25.2627216666667","6502100","三芝區"
"207001","662-BX","2018/03/17 14:39:34","新北市萬里區雙興里豐稟路22號","121.641021666667","25.186815","6502800","萬里區"
"236068","105-UM","2018/03/17 14:39:27","新北市土城區永豐路203號","121.473011666667","24.9775633333333","6501300","土城區"
"236041","107-UM","2018/03/17 14:39:24","新北市土城區裕民路55巷19弄2號","121.449233333333","24.9888416666667","6501300","土城區"
"236075","166-UM","2018/03/17 14:39:23","新北市土城區中央路四段166號","121.416923333333","24.95817","6501300","土城區"
"236029","253-BX","2018/03/17 14:39:31","新北市土城區中華路二段92號","121.438315","24.9747333333333","6501300","土城區"
"236024","269-VK","2018/03/17 14:39:37","新北市土城區千歲路13號","121.44087","24.9695266666667","6501300","土城區"
"236013","270-VK","2018/03/17 14:39:34","新北市土城區清水路230-10號","121.461666666667","24.982205","6501300","土城區"
"236035","271-VK","2018/03/17 14:39:19","新北市土城區明德路一段291巷3號","121.460283333333","24.97698","6501300","土城區"
"236017","401-BY","2018/03/17 14:39:33","新北市土城區延吉街255號","121.467395","24.9848383333333","6501300","土城區"
"236061","752-BX","2018/03/17 14:39:26","新北市中和區民享街468-1號","121.469481666667","24.992405","6501300","土城區"
"236057","912-UM","2018/03/17 14:39:38","新北市土城區中央路四段33號","121.423673333333","24.9621533333333","6501300","土城區"
"236045","913-UM","2018/03/17 14:39:37","新北市土城區明德路一段30號","121.465161666667","24.9847216666667","6501300","土城區"
"236054","AAC-216","2018/03/17 14:39:23","新北市土城區裕民路10號","121.447465","24.9887166666667","6501300","土城區"
"220027","145-BY","2018/03/17 14:39:33","新北市板橋區建國街109號","121.460271666667","25.0175783333333","6500100","板橋區"
"220028","200-UY","2018/03/17 14:39:32","新北市板橋區大觀路二段37巷256號","121.449998333333","25.0020083333333","6500100","板橋區"
"220105","KEA-2550","2018/03/17 14:39:37","新北市板橋區文化路二段620號","121.477743333333","25.035455","6500100","板橋區"
"220030","610-BX","2018/03/17 14:39:21","新北市板橋區大觀路三段160巷36號","121.430028333333","24.9940183333333","6500100","板橋區"
"220050","245-BX","2018/03/17 14:39:29","新北市板橋區莊敬路241號","121.472953333333","25.0215416666667","6500100","板橋區"
"220047","257-TC","2018/03/17 14:39:22","新北市板橋區四維路269巷62號","121.460751666667","25.0273","6500100","板橋區"
"220040","267-BY","2018/03/17 14:39:34","新北市板橋區懷德街191巷23號","121.480515","25.0299633333333","6500100","板橋區"
"220004","276-BY","2018/03/17 14:39:37","新北市板橋區德興街37巷14號","121.453945","24.9938483333333","6500100","板橋區"
"220020","277-BY","2018/03/17 14:39:30","新北市板橋區金門街253巷6弄2號","121.432301666667","24.988645","6500100","板橋區"
"220043","280-UM","2018/03/17 14:39:32","新北市板橋區宏國路36-3號","121.46844","25.0317716666667","6500100","板橋區"
"220012","282-UM","2018/03/17 14:39:29","新北市板橋區中山路一段69號","121.461305","25.0098516666667","6500100","板橋區"
"220019","283-VK","2018/03/17 14:39:27","新北市板橋區五權街34-1號","121.46425","24.9922933333333","6500100","板橋區"
"220001","285-VK","2018/03/17 14:39:38","新北市板橋區中山路二段148巷27號","121.477205","25.0162816666667","6500100","板橋區"
"220031","286-VK","2018/03/17 14:39:27","新北市板橋區僑中二街124巷2號","121.4454","25.0053383333333","6500100","板橋區"
"220029","287-VK","2018/03/17 14:39:32","新北市板橋區大觀路一段28巷4號","121.449991666667","25.008775","6500100","板橋區"
"220039","288-VK","2018/03/17 14:39:23","新北市板橋區長江路一段48巷12號","121.459486666667","25.02797","6500100","板橋區"
"220009","293-UM","2018/03/17 14:39:19","新北市板橋區漢生東路111-1號","121.467171666667","25.0150266666667","6500100","板橋區"
"220010","295-UM","2018/03/17 14:39:23","新北市板橋區三民路二段81巷17號","121.480161666667","25.01673","6500100","板橋區"
"220032","296-UM","2018/03/17 14:39:26","新北市板橋區滿平街30號","121.426576666667","24.9898883333333","6500100","板橋區"
"220023","303-R5","2018/03/17 14:39:22","新北市板橋區大勇街4巷17號","121.454638333333","25.0179066666667","6500100","板橋區"
"220041","307-R5","2018/03/17 14:39:27","新北市板橋區陽明街164巷10弄2-1號","121.464028333333","25.0242766666667","6500100","板橋區"
"220038","487-VK","2018/03/17 14:39:26","新北市板橋區雨農路8號","121.462305","25.0248433333333","6500100","板橋區"
"220037","491-VK","2018/03/17 14:39:22","新北市板橋區文化路二段402號","121.47373","25.0314933333333","6500100","板橋區"
"220104","560-BX","2018/03/17 14:39:22","新北市板橋區新生街29巷5號","121.45646","25.021525","6500100","板橋區"
"220052","561-BX","2018/03/17 14:39:32","新北市板橋區陽明街23巷8弄1號","121.465916666667","25.0203983333333","6500100","板橋區"
"220011","609-BX","2018/03/17 14:39:34","新北市板橋區三民路一段1巷28號","121.480208333333","25.0244433333333","6500100","板橋區"
"220005","686-BX","2018/03/17 14:39:34","新北市板橋區國慶路124號","121.460545","24.99592","6500100","板橋區"
"220025","687-BX","2018/03/17 14:39:25","新北市板橋區僑中二街126巷2號","121.445288333333","25.00513","6500100","板橋區"
"220042","689-BX","2018/03/17 14:39:37","新北市板橋區長江路一段61號","121.459013333333","25.0293933333333","6500100","板橋區"
"220002","741-BX","2018/03/17 14:39:36","新北市板橋區忠孝路196-2號","121.465308333333","25.0026","6500100","板橋區"
"220051","KEA-2699","2018/03/17 14:39:20","新北市板橋區雙十路二段46巷45號","121.475721666667","25.0291916666667","6500100","板橋區"
"220003","827-TW","2018/03/17 14:39:28","新北市板橋區國慶路149巷19號","121.461011666667","24.9974166666667","6500100","板橋區"
"220014","830-TW","2018/03/17 14:39:26","新北市板橋區長安街138巷1弄11號","121.473221666667","25.0098116666667","6500100","板橋區"
"220045","831-TW","2018/03/17 14:39:22","新北市板橋區民生路二段234巷24弄1號","121.470343333333","25.0224933333333","6500100","板橋區"
"220022","895-R6","2018/03/17 14:39:31","新北市板橋區文化路一段46巷16號","121.460233333333","25.0114883333333","6500100","板橋區"
"220021","985-R7","2018/03/17 14:39:36","新北市板橋區大仁街27-2號","121.455456666667","25.01679","6500100","板橋區"
"220046","AAC-210","2018/03/17 14:39:33","新北市板橋區幸福路32巷3號","121.46153","25.020615","6500100","板橋區"
"220018","AAC-253","2018/03/17 14:39:27","新北市板橋區民族路298號","121.470503333333","25.0067466666667","6500100","板橋區"
