"lineid","car","time","location","longitude","latitude","cityid","cityname"
"234025","9371-KE","2018/03/17 15:09:28","新北市永和區福和路38號","121.523906666667","25.0083116666667","6500400","永和區"
"248017","225-UY","2018/03/17 15:09:36","新北市五股區登林路79-7號","121.427303333333","25.070525","6501500","五股區"
"231002","002-UM","2018/03/17 15:09:29","新北市新店區中正路684號","121.534003333333","24.9900666666667","6500600","新店區"
"231025","0293-UT","2018/03/17 15:09:19","新北市新店區二十張路46巷37弄21號","121.535893333333","24.9816283333333","6500600","新店區"
"231028","046-UY","2018/03/17 15:09:23","新北市新店區僑信路100號","121.499976666667","24.9474033333333","6500600","新店區"
"231030","047-UY","2018/03/17 15:09:23","新北市新店區安民街341-1號","121.516796666667","24.9748116666667","6500600","新店區"
"231029","106-UY","2018/03/17 15:09:25","新北市新店區安康路三段738號","121.473865","24.942","6500600","新店區"
"231018","107-UY","2018/03/17 15:09:34","新北市新店區中央六街40號","121.528703333333","24.9753633333333","6500600","新店區"
"231012","108-UY","2018/03/17 15:09:35","新北市新店區寶元路一段65號","121.542185","24.98582","6500600","新店區"
"231020","187-VK","2018/03/17 15:09:31","新北市新店區湖興路49號","121.562643333333","24.933695","6500600","新店區"
"231017","KEA-2219","2018/03/17 15:01:59","新北市新店區明山路5號","121.563296666667","24.9554283333333","6500600","新店區"
"231026","256-BX","2018/03/17 15:09:29","新北市新店區建安街15巷1號","121.539773333333","24.9753716666667","6500600","新店區"
"231023","AAD-862","2018/03/17 15:09:23","新北市新店區檳榔路82號","121.542881666667","24.9631166666667","6500600","新店區"
"231024","4716-K9","2018/03/17 15:09:34","新北市新店區新明街24號","121.54082","24.9684833333333","6500600","新店區"
"231036","512-UM","2018/03/17 15:09:33","新北市新店區安祥路102巷9號","121.484426666667","24.9644066666667","6500600","新店區"
"231035","515-UM","2018/03/17 15:09:06","新北市新店區安和路三段153號","121.516591666667","24.98564","6500600","新店區"
"231006","617-UM","2018/03/17 15:09:30","新北市新店區新坡一街2號","121.548198333333","24.9604866666667","6500600","新店區"
"231001","619-UM","2018/03/17 15:09:21","新北市新店區中正路190號","121.540571666667","24.9724566666667","6500600","新店區"
"231003","641-BX","2018/03/17 15:09:29","新北市新店區寶橋路188號","121.549653333333","24.977715","6500600","新店區"
"231034","645-TV","2018/03/17 15:09:38","新北市新店區玫瑰路4-1號","121.493583333333","24.9513566666667","6500600","新店區"
"231039","718-UY","2018/03/17 15:09:31","新北市新店區寶元路一段65號","121.542213333333","24.98577","6500600","新店區"
"231033","720-UM","2018/03/17 15:09:28","新北市新店區安泰路11巷1號","121.485536666667","24.950175","6500600","新店區"
"231005","897-TW","2018/03/17 15:09:39","新北市新店區北新路三段196號","121.54144","24.9833333333333","6500600","新店區"
"231004","899-TW","2018/03/17 15:09:30","新北市新店區建國路13號","121.539878333333","24.9734833333333","6500600","新店區"
"231037","AKT-0513","2018/03/17 15:09:22","新北市新店區安民街365巷7弄3號","121.516195","24.9750866666667","6500600","新店區"
"235030","003-UY","2018/03/17 15:09:25","新北市中和區光華街59-1號","121.506373333333","25.003185","6500300","中和區"
"235003","097-UM","2018/03/17 15:09:27","新北市中和區宜安路52巷24號","121.51278","24.997575","6500300","中和區"
"235004","150-BY","2018/03/17 15:09:33","新北市中和區景安路79巷33號","121.507275","24.996435","6500300","中和區"
"235007","352-BY","2018/03/17 15:09:20","新北市中和區興南路二段159巷12號","121.505171666667","24.9832233333333","6500300","中和區"
"235014","4979-A6","2018/03/17 15:09:22","新北市中和區景平路211號","121.510838333333","24.9924816666667","6500300","中和區"
"235033","4980-A6","2018/03/17 15:09:21","新北市中和區景新街64巷11弄12號","121.504518333333","24.998155","6500300","中和區"
"235034","558-UM","2018/03/17 15:09:19","新北市中和區中正路282號","121.49473","24.994005","6500300","中和區"
"235026","800-TS","2018/03/17 15:09:20","新北市中和區建八路130號","121.48892","24.9984983333333","6500300","中和區"
"235012","896-TW","2018/03/17 15:09:39","新北市中和區興南路二段49號","121.507365","24.9853933333333","6500300","中和區"
"235015","157-BY","2018/03/17 15:09:29","新北市中和區景安路220巷16號","121.502795","24.9913483333333","6500300","中和區"
"235023","AAC-215","2018/03/17 15:09:38","新北市中和區圓通路335巷33弄3號","121.493243333333","24.9892733333333","6500300","中和區"
"220016","013-TV","2018/03/17 15:09:30","新北市板橋區文化路二段656號","121.48147","25.0379883333333","6500100","板橋區"
"228004","212-TW","2018/03/17 15:09:27","新北市貢寮區雙玉里田寮洋街16-2號","121.921813333333","25.025095","6502600","貢寮區"
"253003","6232-TK","2018/03/17 15:09:26","新北市石門區阿里磅1號","121.58662","25.2918283333333","6502200","石門區"
"253001","6251-TK","2018/03/17 15:09:17","新北市石門區小坑9號","121.59408","25.2890966666667","6502200","石門區"
"253002","637-UY","2018/03/17 15:09:29","新北市石門區阿里磅1號","121.591501666667","25.29088","6502200","石門區"
"253004","8270-PC","2018/03/17 15:09:34","新北市石門區坪林5號","121.591453333333","25.2777","6502200","石門區"
"207002","749-BX","2018/03/17 15:09:30","新北市萬里區崁腳里內中福路73-1號","121.654948333333","25.16714","6502800","萬里區"
"252005","073-UM","2018/03/17 15:08:46","新北市三芝區埔坪里埔頭坑150號","121.510533333333","25.249635","6502100","三芝區"
"207001","662-BX","2018/03/17 15:09:34","新北市萬里區磺潭里員潭路35-1號","121.644855","25.194405","6502800","萬里區"
"236068","105-UM","2018/03/17 15:09:27","新北市土城區學成路143號","121.448885","24.9895483333333","6501300","土城區"
"236041","107-UM","2018/03/17 15:09:24","新北市土城區裕民路267-1號","121.455296666667","24.9823916666667","6501300","土城區"
"236075","166-UM","2018/03/17 15:09:23","新北市土城區中州路11號","121.414055","24.9575966666667","6501300","土城區"
"236029","253-BX","2018/03/17 15:09:31","新北市土城區福祥街58號","121.441491666667","24.9814416666667","6501300","土城區"
"236024","269-VK","2018/03/17 15:09:17","新北市土城區中正路72號","121.444548333333","24.975555","6501300","土城區"
"236013","270-VK","2018/03/17 15:09:32","新北市土城區學府路一段99巷5號","121.45641","24.987535","6501300","土城區"
"236035","271-VK","2018/03/17 15:09:19","新北市土城區明德路一段191號","121.463873333333","24.978985","6501300","土城區"
"236017","401-BY","2018/03/17 15:09:33","新北市土城區峰廷街3號","121.469075","24.9873383333333","6501300","土城區"
"236061","752-BX","2018/03/17 15:09:20","新北市土城區金城路三段99-1號","121.467303333333","24.98776","6501300","土城區"
"236057","912-UM","2018/03/17 15:09:25","新北市土城區金城路二段218-1號","121.45595","24.98264","6501300","土城區"
"236045","913-UM","2018/03/17 15:09:34","新北市土城區清水路203號","121.460025","24.981705","6501300","土城區"
"236054","AAC-216","2018/03/17 15:09:21","新北市土城區學府路一段276號","121.44993","24.9830283333333","6501300","土城區"
"220028","200-UY","2018/03/17 15:09:32","新北市板橋區大觀路二段187巷7號","121.445271666667","24.9997","6500100","板橋區"
"220050","245-BX","2018/03/17 15:09:29","新北市板橋區雙十路二段47巷2弄25號","121.475125","25.0269383333333","6500100","板橋區"
"220020","277-BY","2018/03/17 15:09:30","新北市板橋區金門街111-3號","121.433101666667","24.9920683333333","6500100","板橋區"
"220031","286-VK","2018/03/17 15:09:27","新北市板橋區僑中二街102巷2號","121.446065","25.0082766666667","6500100","板橋區"
"220029","287-VK","2018/03/17 15:09:32","新北市板橋區僑中一街84號","121.44729","25.0115916666667","6500100","板橋區"
"220009","293-UM","2018/03/17 15:09:19","新北市板橋區四川路一段292號","121.458511666667","25.0007516666667","6500100","板橋區"
"220041","307-R5","2018/03/17 15:09:27","新北市板橋區文化路一段139號","121.4618","25.01568","6500100","板橋區"
"220038","487-VK","2018/03/17 15:09:26","新北市板橋區互助街90號","121.460305","25.0262633333333","6500100","板橋區"
"220037","491-VK","2018/03/17 15:09:21","新北市板橋區民治街53-1號","121.47932","25.033515","6500100","板橋區"
"220052","561-BX","2018/03/17 15:09:32","新北市板橋區陽明街279巷4-4號","121.461788333333","25.0260933333333","6500100","板橋區"
"220011","609-BX","2018/03/17 15:09:34","新北市板橋區三民路一段214號","121.479093333333","25.0191683333333","6500100","板橋區"
"220025","687-BX","2018/03/17 15:09:30","新北市板橋區大觀路一段29巷131弄125號","121.45162","25.00568","6500100","板橋區"
"220042","689-BX","2018/03/17 15:09:22","新北市板橋區長江路二段28號","121.464741666667","25.031415","6500100","板橋區"
"220051","KEA-2699","2018/03/17 15:09:40","新北市板橋區民治街124號","121.477951666667","25.0310383333333","6500100","板橋區"
"220003","827-TW","2018/03/17 15:09:28","新北市板橋區四川路一段373號","121.458343333333","24.9994933333333","6500100","板橋區"
"220014","830-TW","2018/03/17 15:09:26","新北市板橋區中山路一段206巷89號","121.471931666667","25.013225","6500100","板橋區"
"220045","831-TW","2018/03/17 15:09:21","新北市板橋區莒光路79巷12號","121.472093333333","25.0246316666667","6500100","板橋區"
"220046","AAC-210","2018/03/17 15:09:34","新北市板橋區建國街127號","121.460966666667","25.0177033333333","6500100","板橋區"
"220018","AAC-253","2018/03/17 15:09:27","新北市板橋區四川路二段245巷55弄3號","121.452486666667","24.9924933333333","6500100","板橋區"
