"lineid","car","time","location","longitude","latitude","cityid","cityname"
"231002","002-UM","2018/03/17 15:19:26","新北市新店區中正路700巷3號","121.533838333333","24.9913233333333","6500600","新店區"
"231025","0293-UT","2018/03/17 15:19:20","新北市新店區中央路200號","121.53052","24.97413","6500600","新店區"
"231028","046-UY","2018/03/17 15:19:23","新北市新店區僑信路102巷41號","121.498888333333","24.9466816666667","6500600","新店區"
"231030","047-UY","2018/03/17 15:19:23","新北市新店區安和路三段29-2號","121.517473333333","24.981235","6500600","新店區"
"231029","106-UY","2018/03/17 15:19:25","新北市新店區安康路三段742號","121.473761666667","24.9419233333333","6500600","新店區"
"231018","107-UY","2018/03/17 15:19:34","新北市新店區中央七街45號","121.528803333333","24.9757883333333","6500600","新店區"
"231012","108-UY","2018/03/17 15:19:35","新北市新店區復興路27號","121.539153333333","24.9866916666667","6500600","新店區"
"231020","187-VK","2018/03/17 15:19:31","新北市新店區梅崗三路1號","121.558896666667","24.93122","6500600","新店區"
"231026","256-BX","2018/03/17 15:19:29","新北市新店區中正路247巷5號","121.538848333333","24.9728516666667","6500600","新店區"
"231023","AAD-862","2018/03/17 15:19:21","新北市新店區行政街8-1號","121.54256","24.96675","6500600","新店區"
"231024","4716-K9","2018/03/17 15:19:34","新北市新店區安康路一段190號","121.524678333333","24.9633666666667","6500600","新店區"
"231036","512-UM","2018/03/17 15:19:33","新北市新店區安祥路69巷17號","121.481886666667","24.9613883333333","6500600","新店區"
"231035","515-UM","2018/03/17 15:19:27","新北市新店區安興路121號","121.515375","24.9791133333333","6500600","新店區"
"231006","617-UM","2018/03/17 15:19:30","新北市新店區北新路一段203號","121.540326666667","24.964955","6500600","新店區"
"231001","619-UM","2018/03/17 15:19:38","新北市新店區北新路一段229號","121.540671666667","24.9654883333333","6500600","新店區"
"231003","641-BX","2018/03/17 15:19:29","新北市新店區寶高路120巷1-1號","121.554588333333","24.9759783333333","6500600","新店區"
"231034","645-TV","2018/03/17 15:19:38","新北市新店區如意街3巷1號","121.495705","24.9494333333333","6500600","新店區"
"231039","718-UY","2018/03/17 15:19:31","新北市新店區寶元路一段65號","121.542195","24.9858383333333","6500600","新店區"
"231033","720-UM","2018/03/17 15:19:28","新北市新店區裕合街143號","121.489138333333","24.9490633333333","6500600","新店區"
"231005","897-TW","2018/03/17 15:19:39","新北市新店區建國路193號","121.538018333333","24.97981","6500600","新店區"
"231004","899-TW","2018/03/17 15:19:30","新北市新店區建國路33巷2號","121.540311666667","24.9743083333333","6500600","新店區"
"231037","AKT-0513","2018/03/17 15:19:23","新北市新店區安興路112號","121.514766666667","24.9775933333333","6500600","新店區"
"235030","003-UY","2018/03/17 15:19:25","新北市中和區保平路362巷13號","121.50576","25.0039433333333","6500300","中和區"
"235004","150-BY","2018/03/17 15:19:13","新北市中和區景安路79巷37弄13號","121.507391666667","24.9968433333333","6500300","中和區"
"235014","4979-A6","2018/03/17 15:19:26","新北市中和區景安路82巷6弄1號","121.505138333333","24.9962733333333","6500300","中和區"
"235033","4980-A6","2018/03/17 15:19:33","新北市中和區圓通路196號","121.496363333333","24.99441","6500300","中和區"
"235034","558-UM","2018/03/17 15:19:19","新北市中和區中正路752號","121.48549","24.998775","6500300","中和區"
"235012","896-TW","2018/03/17 15:19:19","新北市中和區興南路一段50號","121.510996666667","24.9905","6500300","中和區"
"235023","AAC-215","2018/03/17 15:19:38","新北市中和區圓通路403號","121.489385","24.9892316666667","6500300","中和區"
"224007","275-VK","2018/03/17 15:19:28","新北市瑞芳區傑魚坑路240-2號","121.790098333333","25.1096833333333","6501200","瑞芳區"
"253003","6232-TK","2018/03/17 15:19:26","新北市石門區小坑9號","121.594503333333","25.2890983333333","6502200","石門區"
"253001","6251-TK","2018/03/17 15:19:37","新北市石門區小坑9號","121.594336666667","25.2883683333333","6502200","石門區"
"253002","637-UY","2018/03/17 15:19:29","新北市石門區小坑9號","121.594495","25.28909","6502200","石門區"
"253004","8270-PC","2018/03/17 15:19:34","新北市石門區坪林52-1號","121.597203333333","25.273735","6502200","石門區"
"207002","749-BX","2018/03/17 15:19:29","新北市萬里區崁腳里內中福路2-1號","121.669393333333","25.1654233333333","6502800","萬里區"
"207001","662-BX","2018/03/17 15:19:34","新北市萬里區大鵬里萬里加投12號","121.650425","25.2069183333333","6502800","萬里區"
"236068","105-UM","2018/03/17 15:19:27","新北市土城區裕民路185巷36弄8號","121.454446666667","24.984565","6501300","土城區"
"236041","107-UM","2018/03/17 15:19:24","新北市土城區學府路一段143巷6號","121.453858333333","24.985875","6501300","土城區"
"236075","166-UM","2018/03/17 15:19:23","新北市土城區溪頭路20巷2弄2號","121.412915","24.9555016666667","6501300","土城區"
"236029","253-BX","2018/03/17 15:19:31","新北市土城區中華路一段203號","121.442943333333","24.9849516666667","6501300","土城區"
"236024","269-VK","2018/03/17 15:19:40","新北市土城區中央路二段61巷50弄2號","121.44419","24.9783166666667","6501300","土城區"
"236013","270-VK","2018/03/17 15:19:32","新北市土城區廣福街68巷20號","121.458265","24.9902183333333","6501300","土城區"
"236035","271-VK","2018/03/17 15:19:19","新北市土城區國際路139巷55號","121.468406666667","24.9775716666667","6501300","土城區"
"236017","401-BY","2018/03/17 15:19:33","新北市土城區峰廷街3號","121.469065","24.98733","6501300","土城區"
"236061","752-BX","2018/03/17 15:19:20","新北市土城區延平街64號","121.467893333333","24.9927783333333","6501300","土城區"
"236057","912-UM","2018/03/17 15:19:18","新北市土城區中央路三段38號","121.438406666667","24.9685883333333","6501300","土城區"
"236045","913-UM","2018/03/17 15:19:34","新北市土城區明德路一段69巷1號","121.465495","24.9839866666667","6501300","土城區"
"236054","AAC-216","2018/03/17 15:19:41","新北市土城區學府路一段52號","121.457423333333","24.988445","6501300","土城區"
"220050","245-BX","2018/03/17 15:19:29","新北市板橋區縣民大道三段32號","121.471531666667","25.0188366666667","6500100","板橋區"
"220031","286-VK","2018/03/17 15:19:27","新北市板橋區僑中二街108巷22號","121.444908333333","25.0075016666667","6500100","板橋區"
"220038","487-VK","2018/03/17 15:19:28","新北市板橋區四維路180號","121.46441","25.0266116666667","6500100","板橋區"
"220042","689-BX","2018/03/17 15:19:37","新北市板橋區長江路一段52號","121.45877","25.0291383333333","6500100","板橋區"
"220051","KEA-2699","2018/03/17 15:19:40","新北市板橋區漢生東路83巷2號","121.466783333333","25.0156983333333","6500100","板橋區"
"220018","AAC-253","2018/03/17 15:19:27","新北市板橋區四川路二段128號","121.450095","24.9937383333333","6500100","板橋區"
