"lineid","car","time","location","longitude","latitude","cityid","cityname"
"249005","172-UM","2018/03/17 16:59:37","新北市八里區渡船頭1-1號","121.434058333333","25.152015","6502300","八里區"
"249001","173-UM","2018/03/17 16:59:39","新北市八里區中山路三段106號","121.39178","25.142825","6502300","八里區"
"249004","303-UY","2018/03/17 16:59:31","新北市八里區挖子尾街20號","121.415505","25.1649566666667","6502300","八里區"
"249002","305-UY","2018/03/17 16:59:29","新北市八里區牛寮埔22號","121.432856666667","25.14249","6502300","八里區"
"249003","593-UM","2018/03/17 16:59:33","新北市八里區中山路二段301號","121.401043333333","25.1480933333333","6502300","八里區"
"244007","080-UY","2018/03/17 16:59:33","新北市林口區中湖43-5號","121.38177","25.0923816666667","6501700","林口區"
"244025","742-UY","2018/03/17 16:59:24","新北市林口區粉寮路二段160巷28號","121.405198333333","25.0907866666667","6501700","林口區"
"244023","483-VK","2018/03/17 16:59:31","新北市林口區粉寮69號","121.40507","25.0907983333333","6501700","林口區"
"244019","657-BX","2018/03/17 16:59:36","新北市林口區粉寮69號","121.405081666667","25.090795","6501700","林口區"
"231046","278-BY","2018/03/17 16:59:39","新北市新店區永業路81巷12號","121.531026666667","24.9456966666667","6500600","新店區"
"241011","013-R5","2018/03/17 16:59:24","新北市三重區仁愛街55巷128號","121.498976666667","25.0728283333333","6500200","三重區"
"241028","022-UY","2018/03/17 16:59:38","新北市三重區中正南路32-1號","121.49372","25.0601683333333","6500200","三重區"
"241008","059-VK","2018/03/17 16:59:24","新北市三重區永安北路一段3巷29號","121.477296666667","25.0747683333333","6500200","三重區"
"241009","060-VK","2018/03/17 16:59:23","新北市三重區仁美街107號","121.485746666667","25.0808383333333","6500200","三重區"
"241031","061-VK","2018/03/17 16:59:08","新北市三重區三寧街50號","121.490215","25.0604116666667","6500200","三重區"
"241015","062-VK","2018/03/17 16:59:32","新北市三重區三和路二段1-4號","121.501621666667","25.0664816666667","6500200","三重區"
"241017","063-VK","2018/03/17 16:59:36","新北市三重區國隆路12巷3號","121.492831666667","25.0637883333333","6500200","三重區"
"241026","066-VK","2018/03/17 16:59:26","新北市三重區文化南路42號","121.500341666667","25.0602533333333","6500200","三重區"
"241003","091-VK","2018/03/17 16:59:21","新北市三重區五華街141巷58號","121.493583333333","25.0868416666667","6500200","三重區"
"241002","156-TC","2018/03/17 16:59:34","新北市三重區仁義街126號","121.49756","25.0802783333333","6500200","三重區"
"241005","262-UM","2018/03/17 16:59:32","新北市三重區碧華街112巷3號","121.484563333333","25.0820616666667","6500200","三重區"
"241016","265-UM","2018/03/17 16:59:28","新北市三重區大同北路131號","121.493243333333","25.0640283333333","6500200","三重區"
"241022","267-UM","2018/03/17 16:59:22","新北市三重區中華路125號","121.483625","25.0639533333333","6500200","三重區"
"241018","268-UM","2018/03/17 16:59:42","新北市三重區六張街90巷8號","121.492996666667","25.0695583333333","6500200","三重區"
"241032","269-UM","2018/03/17 16:59:38","新北市三重區重陽路一段120巷16號","121.485935","25.0601283333333","6500200","三重區"
"241013","270-UM","2018/03/17 16:59:36","新北市三重區仁昌街34號","121.496846666667","25.0742483333333","6500200","三重區"
"241025","271-UM","2018/03/17 16:59:09","新北市三重區中正北路357號","121.472706666667","25.0718533333333","6500200","三重區"
"241007","398-BY","2018/03/17 16:59:30","新北市三重區三和路四段181巷241號","121.48785","25.0805383333333","6500200","三重區"
"241020","413-TH","2018/03/17 16:59:29","新北市三重區後竹圍街175巷5號","121.485746666667","25.0723","6500200","三重區"
"241004","475-VK","2018/03/17 16:59:29","新北市三重區五華街98巷12號","121.491608333333","25.0816283333333","6500200","三重區"
"241001","478-VK","2018/03/17 16:59:26","新北市三重區仁政街4號","121.493235","25.07634","6500200","三重區"
"241030","480-VK","2018/03/17 16:59:25","新北市三重區昌隆街64號","121.49116","25.051005","6500200","三重區"
"241014","543-UM","2018/03/17 16:59:37","新北市三重區三和路二段173巷149號","121.501171666667","25.070745","6500200","三重區"
"241023","545-UM","2018/03/17 16:59:34","新北市三重區忠孝路三段84巷1號","121.480243333333","25.064515","6500200","三重區"
"241019","KEA-2593","2018/03/17 16:59:22","新北市三重區自強路二段74巷21號","121.487926666667","25.0698933333333","6500200","三重區"
"241006","AAD-863","2018/03/17 16:59:24","新北市三重區三和路四段218巷24號","121.485376666667","25.07612","6500200","三重區"
"241024","887-TS","2018/03/17 16:59:22","新北市三重區中正北路145巷3弄1號","121.483361666667","25.06762","6500200","三重區"
"241012","941-UM","2018/03/17 16:59:33","新北市三重區公園街35號","121.498695","25.074355","6500200","三重區"
"241029","942-UM","2018/03/17 16:59:25","新北市三重區重安街70-17號","121.491848333333","25.0566116666667","6500200","三重區"
"241033","AAC-255","2018/03/17 16:59:36","新北市三重區中興北街271號","121.469136666667","25.06061","6500200","三重區"
"247024","893-R6","2018/03/17 16:59:37","新北市蘆洲區長興路202號","121.46054","25.0874633333333","6501400","蘆洲區"
"247014","546-UM","2018/03/17 16:59:37","新北市蘆洲區得勝街69巷20號","121.473908333333","25.0832583333333","6501400","蘆洲區"
"247010","341-TH","2018/03/17 16:59:34","新北市蘆洲區三民路26巷65號","121.478406666667","25.0832283333333","6501400","蘆洲區"
"247012","339-TH","2018/03/17 16:59:38","新北市蘆洲區復興路186號","121.478105","25.088635","6501400","蘆洲區"
"247004","337-TH","2018/03/17 16:59:22","新北市蘆洲區長安街110號","121.46095","25.0815666666667","6501400","蘆洲區"
"247006","336-TH","2018/03/17 16:59:42","新北市蘆洲區長安街111巷29號","121.460563333333","25.0801216666667","6501400","蘆洲區"
"247018","057-VK","2018/03/17 16:59:42","新北市蘆洲區民族路227巷12號","121.477146666667","25.089585","6501400","蘆洲區"
"247008","056-VK","2018/03/17 16:59:37","新北市蘆洲區信義路50號","121.47514","25.0796066666667","6501400","蘆洲區"
"247020","053-VK","2018/03/17 16:59:19","新北市蘆洲區民族路422巷82弄10號","121.474108333333","25.0937733333333","6501400","蘆洲區"
"247016","007-UY","2018/03/17 16:59:32","新北市蘆洲區正和街26號","121.469718333333","25.0822833333333","6501400","蘆洲區"
"228001","212-TW","2018/03/17 16:59:19","新北市貢寮區貢寮里朝陽街1-2號","121.912181666667","25.021205","6502600","貢寮區"
"228002","585-TW","2018/03/17 16:59:34","新北市貢寮區貢寮里朝陽街54號","121.910291666667","25.0217216666667","6502600","貢寮區"
"228003","828-UM","2018/03/17 16:59:29","新北市貢寮區福隆里興隆街3號","121.945221666667","25.016745","6502600","貢寮區"
"224006","676-BX","2018/03/17 16:59:39","新北市瑞芳區大寮路58號","121.781985","25.0983366666667","6501200","瑞芳區"
"224008","285-BY","2018/03/17 16:59:32","新北市瑞芳區明燈路一段100號","121.819465","25.1076283333333","6501200","瑞芳區"
"224007","275-VK","2018/03/17 16:59:28","新北市瑞芳區頂埔巷51-3號","121.767588333333","25.1041616666667","6501200","瑞芳區"
"224009","273-VK","2018/03/17 16:59:30","新北市瑞芳區明燈路一段1號","121.826498333333","25.1093466666667","6501200","瑞芳區"
"224005","271-BY","2018/03/17 16:59:38","新北市瑞芳區南雅路1號","121.891351666667","25.11933","6501200","瑞芳區"
"227010","642-TC","2018/03/17 16:59:25","新北市雙溪區牡丹里聖南14號","121.858593333333","25.0529366666667","6502500","雙溪區"
"227002","400-TW","2018/03/17 16:59:39","新北市雙溪區長源里柑腳31號","121.80418","25.0139116666667","6502500","雙溪區"
"251009","008-UM","2018/03/17 16:59:23","新北市淡水區中正路437號","121.43226","25.174735","6501000","淡水區"
"251004","009-UM","2018/03/17 16:59:29","新北市淡水區文化路65號","121.437836666667","25.1728516666667","6501000","淡水區"
"251013","179-VK","2018/03/17 16:59:33","新北市淡水區泉洲厝32號","121.489273333333","25.1926383333333","6501000","淡水區"
"251014","180-VK","2018/03/17 16:59:36","新北市淡水區淡金路四段472巷24號","121.452986666667","25.2239966666667","6501000","淡水區"
"251008","181-VK","2018/03/17 16:59:24","新北市淡水區樹梅坑9號","121.472631666667","25.1426916666667","6501000","淡水區"
"251015","182-VK","2018/03/17 16:59:33","新北市淡水區淡金路一段102號","121.45783","25.1746683333333","6501000","淡水區"
"251010","413-VK","2018/03/17 16:59:37","新北市淡水區沙崙路331號","121.42749","25.1874866666667","6501000","淡水區"
"251012","441-VK","2018/03/17 16:59:22","新北市淡水區中正路一段22巷100號","121.427028333333","25.1862916666667","6501000","淡水區"
"251016","442-VK","2018/03/17 16:59:27","新北市淡水區瓦坑5號","121.477676666667","25.1808316666667","6501000","淡水區"
"251005","443-VK","2018/03/17 16:59:30","新北市淡水區中正路257號","121.433233333333","25.17445","6501000","淡水區"
"251007","577-R6","2018/03/17 16:59:32","新北市淡水區中正東路二段85號","121.459398333333","25.15307","6501000","淡水區"
"251011","650-BX","2018/03/17 16:59:37","新北市淡水區坪頂路49號","121.457818333333","25.16267","6501000","淡水區"
"252002","178-VK","2018/03/17 16:59:28","新北市三芝區忠孝街175號","121.505376666667","25.2613833333333","6502100","三芝區"
"252001","292-VK","2018/03/17 16:59:28","新北市三芝區淡金路二段43號","121.503411666667","25.260505","6502100","三芝區"
"242053","751-BX","2018/03/17 16:59:32","新北市新莊區新泰路357巷3弄57號","121.442063333333","25.039155","6500500","新莊區"
"242029","705-TV","2018/03/17 16:59:36","新北市新莊區三和路12-12號","121.442245","25.0370416666667","6500500","新莊區"
"242046","497-BY","2018/03/17 16:59:41","新北市新莊區新泰路357巷3弄57號","121.441933333333","25.0394166666667","6500500","新莊區"
"242002","442-UM","2018/03/17 16:59:30","新北市新莊區三和路12-21號","121.441996666667","25.03873","6500500","新莊區"
"242050","441-UM","2018/03/17 16:59:38","新北市新莊區三和路12-21號","121.441988333333","25.0382666666667","6500500","新莊區"
"242036","415-TV","2018/03/17 16:59:24","新北市新莊區新泰路357巷3弄57號","121.442058333333","25.0393316666667","6500500","新莊區"
"242007","413-TV","2018/03/17 16:59:23","新北市新莊區三和路18-25號","121.441475","25.03959","6500500","新莊區"
"242044","400-BY","2018/03/17 16:59:30","新北市新莊區新泰路357巷3弄57號","121.442336666667","25.0395333333333","6500500","新莊區"
"242023","362-BY","2018/03/17 16:59:37","新北市新莊區新泰路255巷83號","121.442243333333","25.0387583333333","6500500","新莊區"
"242039","133-UY","2018/03/17 16:59:39","新北市新莊區新泰路255巷83號","121.442046666667","25.0388366666667","6500500","新莊區"
"242017","175-VK","2018/03/17 16:59:39","新北市新莊區三和路12-21號","121.442025","25.0386916666667","6500500","新莊區"
"242004","176-VK","2018/03/17 16:59:35","新北市新莊區三和路12-21號","121.442068333333","25.0385083333333","6500500","新莊區"
"242015","346-TH","2018/03/17 16:59:39","新北市新莊區三和路12-16號","121.442036666667","25.0374383333333","6500500","新莊區"
"242013","351-TH","2018/03/17 16:59:30","新北市新莊區新泰路357巷3弄57號","121.442031666667","25.03951","6500500","新莊區"
"238019","599-UM","2018/03/17 16:59:33","新北市樹林區育德街78-1號","121.387966666667","24.96825","6500700","樹林區"
"238018","571-TV","2018/03/17 16:59:38","新北市樹林區育德街78-1號","121.388083333333","24.9681233333333","6500700","樹林區"
"238025","303-VK","2018/03/17 16:59:39","新北市樹林區育德街78-1號","121.388205","24.96821","6500700","樹林區"
"238017","283-BY","2018/03/17 16:59:30","新北市樹林區育德街78號","121.387875","24.9683466666667","6500700","樹林區"
"238020","268-VK","2018/03/17 16:59:26","新北市樹林區東佳路7號","121.40603","24.9805166666667","6500700","樹林區"
"238026","172-UY","2018/03/17 16:59:35","新北市樹林區育德街78號","121.388101666667","24.96832","6500700","樹林區"
"238016","169-UY","2018/03/17 16:57:47","新北市樹林區育德街78-1號","121.387916666667","24.9680933333333","6500700","樹林區"
"239001","417-VK","2018/03/17 16:59:23","新北市鶯歌區二甲路12-2號","121.345841666667","24.935005","6500800","鶯歌區"
"242011","281-VK","2018/03/17 16:59:36","新北市新莊區三和路12-16號","121.441955","25.0374066666667","6500500","新莊區"
"242019","280-VK","2018/03/17 16:59:25","新北市新莊區三和路12-21號","121.442046666667","25.0382","6500500","新莊區"
