"lineid","car","time","location","longitude","latitude","cityid","cityname"
"234026","9371-KE","2018/03/17 17:59:37","新北市永和區永和路一段45-1號","121.512898333333","25.0062483333333","6500400","永和區"
"249005","172-UM","2018/03/17 17:59:37","新北市八里區荖阡坑路16號","121.398278333333","25.13857","6502300","八里區"
"249001","173-UM","2018/03/17 17:59:39","新北市八里區龍米路二段36號","121.448543333333","25.1400766666667","6502300","八里區"
"249004","303-UY","2018/03/17 17:59:31","新北市八里區龍米路二段159巷2-10號","121.438868333333","25.1530833333333","6502300","八里區"
"249002","305-UY","2018/03/17 17:59:29","新北市八里區龍米路一段259號","121.45072","25.1336366666667","6502300","八里區"
"249003","593-UM","2018/03/17 17:59:33","新北市八里區中華路二段203號","121.405341666667","25.1495483333333","6502300","八里區"
"248006","077-UY","2018/03/17 17:59:32","新北市五股區中興路二段37巷28號","121.460205","25.0750616666667","6501500","五股區"
"248008","095-VK","2018/03/17 17:59:34","新北市五股區更洲路10號","121.458415","25.0787233333333","6501500","五股區"
"248020","225-UY","2018/03/17 17:59:40","新北市五股區中興路二段103巷14號","121.458596666667","25.0762","6501500","五股區"
"248004","677-BX","2018/03/17 17:59:32","新北市五股區中興路二段83巷26-6號","121.460143333333","25.0752416666667","6501500","五股區"
"248010","682-TV","2018/03/17 17:59:25","新北市五股區中興路二段83巷26-3號","121.460126666667","25.0753383333333","6501500","五股區"
"232011","375-UM","2018/03/17 17:59:36","新北市坪林區北宜路八段383號","121.708596666667","24.9323316666667","6502000","坪林區"
"244013","069-UM","2018/03/17 17:59:40","新北市林口區中山路45號","121.394608333333","25.0784583333333","6501700","林口區"
"244007","080-UY","2018/03/17 17:59:33","新北市林口區竹林路168號","121.388711666667","25.0797266666667","6501700","林口區"
"244025","742-UY","2018/03/17 17:59:44","新北市林口區文化北路一段62號","121.356623333333","25.0686883333333","6501700","林口區"
"244023","483-VK","2018/03/17 17:59:31","新北市林口區東湖路41巷20號","121.386291666667","25.0731216666667","6501700","林口區"
"244017","485-VK","2018/03/17 17:59:40","新北市林口區忠孝路492號","121.370448333333","25.070325","6501700","林口區"
"244009","656-BX","2018/03/17 17:59:24","新北市林口區竹林路582巷19號","121.385911666667","25.083335","6501700","林口區"
"244019","657-BX","2018/03/17 17:59:36","新北市林口區忠孝路542巷8號","121.372735","25.067005","6501700","林口區"
"244011","701-TV","2018/03/17 17:59:30","新北市林口區中正路266號","121.389373333333","25.0776916666667","6501700","林口區"
"244021","838-TS","2018/03/17 17:59:32","新北市林口區新寮45號","121.40423","25.06472","6501700","林口區"
"222003","436-BY","2018/03/17 17:59:40","新北市深坑區炮子崙24號","121.604771666667","24.987365","6501800","深坑區"
"222002","659-BX","2018/03/17 17:59:38","新北市深坑區深坑街35號","121.616013333333","25.0018483333333","6501800","深坑區"
"221015","KEA-2785","2018/03/17 17:59:25","新北市汐止區長江街309號","121.666015","25.081415","6501100","汐止區"
"231046","278-BY","2018/03/17 17:59:39","新北市新店區康雅崙路20號","121.535135","24.9266633333333","6500600","新店區"
"231066","AKT-0513","2018/03/17 17:59:41","新北市新店區安華路28-1號","121.519461666667","24.9605483333333","6500600","新店區"
"241016","265-UM","2018/03/17 17:59:28","新北市五股區成泰路一段98巷77號","121.450618333333","25.0775233333333","6500200","三重區"
"241024","887-TS","2018/03/17 17:59:42","新北市三重區國道路一段58巷20號","121.481286666667","25.0720733333333","6500200","三重區"
"241033","AAC-255","2018/03/17 17:59:36","新北市三重區重新路五段561號","121.470391666667","25.0459916666667","6500200","三重區"
"235064","005-UY","2018/03/17 17:59:31","新北市中和區員山路36巷16-3號","121.485061666667","24.99141","6500300","中和區"
"235065","098-UM","2018/03/17 17:59:35","新北市中和區新生街245號","121.483843333333","24.9987766666667","6500300","中和區"
"235058","151-BY","2018/03/17 17:59:34","新北市中和區錦和路350-1號","121.490513333333","24.9934883333333","6500300","中和區"
"235038","185-VK","2018/03/17 17:59:36","新北市中和區中正路169號","121.498055","24.99371","6500300","中和區"
"235042","551-UM","2018/03/17 17:59:37","新北市中和區中正路589巷15號","121.485625","24.9935533333333","6500300","中和區"
"235054","640-BX","2018/03/17 17:59:32","新北市中和區員山路36巷16-2號","121.48522","24.9914666666667","6500300","中和區"
"235060","647-TV","2018/03/17 17:59:29","新北市中和區員山路36巷16-2號","121.485196666667","24.9913833333333","6500300","中和區"
"235062","800-TS","2018/03/17 17:59:23","新北市中和區連城路308號","121.48366","24.996445","6500300","中和區"
"235051","157-BY","2018/03/17 17:59:32","新北市中和區中正路171號","121.49782","24.9936716666667","6500300","中和區"
"235037","AAC-213","2018/03/17 17:59:30","新北市中和區錦和路350-1號","121.490301666667","24.9935766666667","6500300","中和區"
"247014","546-UM","2018/03/17 17:59:37","新北市蘆洲區忠孝路108號","121.471403333333","25.08639","6501400","蘆洲區"
"247010","341-TH","2018/03/17 17:59:34","新北市蘆洲區中山一路124-2號","121.477015","25.0815366666667","6501400","蘆洲區"
"247012","339-TH","2018/03/17 17:59:38","新北市蘆洲區民族路167巷6號","121.47849","25.08817","6501400","蘆洲區"
"247020","053-VK","2018/03/17 17:59:39","新北市蘆洲區民權路131巷10號","121.471336666667","25.0899233333333","6501400","蘆洲區"
"247016","007-UY","2018/03/17 17:59:32","新北市蘆洲區光華路110巷38號","121.465843333333","25.084055","6501400","蘆洲區"
"247002","002-UY","2018/03/17 17:59:36","新北市蘆洲區永平街32巷57弄35號","121.458366666667","25.0934333333333","6501400","蘆洲區"
"226004","312-R5","2018/03/17 17:59:27","新北市平溪區石底里石筍尖16號","121.732628333333","25.0260833333333","6502400","平溪區"
"228001","212-TW","2018/03/17 17:59:28","新北市貢寮區真理里新港街26巷53號","121.928011666667","25.0535516666667","6502600","貢寮區"
"228002","585-TW","2018/03/17 17:59:34","新北市貢寮區福隆里桂安街17號","121.9666","25.0227466666667","6502600","貢寮區"
"228003","828-UM","2018/03/17 17:59:29","新北市貢寮區真理里美艷山街6-2號","121.92878","25.0607583333333","6502600","貢寮區"
"224010","AGQ-8101","2018/03/17 17:58:39","新北市瑞芳區金光路372號","121.848578333333","25.1102766666667","6501200","瑞芳區"
"224006","676-BX","2018/03/17 17:59:39","新北市瑞芳區大寮路356-1號","121.785621666667","25.1030083333333","6501200","瑞芳區"
"224002","639-TC","2018/03/17 17:59:35","新北市瑞芳區明燈路二段56號","121.809915","25.10762","6501200","瑞芳區"
"224008","285-BY","2018/03/17 17:59:30","新北市瑞芳區明燈路一段45巷99號","121.822101666667","25.1042216666667","6501200","瑞芳區"
"224009","273-VK","2018/03/17 17:59:38","新北市瑞芳區山尖路187號","121.851388333333","25.1121333333333","6501200","瑞芳區"
"224005","271-BY","2018/03/17 17:59:38","新北市瑞芳區深澳路149號","121.820296666667","25.13337","6501200","瑞芳區"
"227002","400-TW","2018/03/17 17:39:59","新北市雙溪區三貂里定福路1-2號","121.85076","25.063435","6502500","雙溪區"
"253005","032-BX","2018/03/17 17:59:39","新北市石門區中山路62-11號","121.567533333333","25.289665","6502200","石門區"
"253006","295-VK","2018/03/17 17:59:32","新北市石門區大丘田45-2號","121.549826666667","25.27486","6502200","石門區"
"222001","KEA-2212","2018/03/17 17:59:32","新北市深坑區北深路二段193號","121.612073333333","25.0010383333333","6501800","深坑區"
"208003","665-BX","2018/03/17 17:59:42","新北市金山區磺港里磺港路133號","121.646186666667","25.227595","6502700","金山區"
"208001","761-BX","2018/03/17 17:59:23","新北市金山區磺港里磺港路169號","121.642326666667","25.224715","6502700","金山區"
"251009","008-UM","2018/03/17 17:59:23","新北市淡水區大智街27號","121.44233","25.174605","6501000","淡水區"
"251004","009-UM","2018/03/17 17:59:29","新北市淡水區民權路187巷66弄2號","121.46144","25.1341416666667","6501000","淡水區"
"251001","011-UM","2018/03/17 17:59:37","新北市淡水區民權路94巷1號","121.463091666667","25.1248233333333","6501000","淡水區"
"251002","012-UM","2018/03/17 17:59:32","新北市淡水區中正東路1號","121.447583333333","25.1670666666667","6501000","淡水區"
"251013","179-VK","2018/03/17 17:59:33","新北市淡水區泉洲厝31號","121.479578333333","25.1910616666667","6501000","淡水區"
"251014","180-VK","2018/03/17 17:59:36","新北市淡水區公埔子16-6號","121.480996666667","25.2245866666667","6501000","淡水區"
"251008","181-VK","2018/03/17 17:59:32","新北市淡水區八勢一街32巷1號","121.461905","25.1556683333333","6501000","淡水區"
"251015","182-VK","2018/03/17 17:59:43","新北市淡水區興福寮31-1號","121.489861666667","25.162555","6501000","淡水區"
"251010","413-VK","2018/03/17 17:59:37","新北市淡水區淡海路53號","121.423181666667","25.1803516666667","6501000","淡水區"
"251012","441-VK","2018/03/17 17:59:42","新北市淡水區泉洲厝13-1號","121.48848","25.1900916666667","6501000","淡水區"
"251016","442-VK","2018/03/17 17:59:27","新北市淡水區埤島30-12號","121.44786","25.198245","6501000","淡水區"
"251005","443-VK","2018/03/17 17:59:30","新北市淡水區英專路125-6號","121.44612","25.1726416666667","6501000","淡水區"
"251006","561-UM","2018/03/17 17:59:29","新北市淡水區真理街1號","121.438248333333","25.173075","6501000","淡水區"
"251011","650-BX","2018/03/17 17:59:37","新北市淡水區三空泉9號","121.475498333333","25.1628316666667","6501000","淡水區"
"251003","673-BX","2018/03/17 17:59:23","新北市淡水區大忠街57號","121.44524","25.176755","6501000","淡水區"
"207003","550-UM","2018/03/17 17:59:30","新北市萬里區野柳里港東路74-15號","121.689153333333","25.2051016666667","6502800","萬里區"
"207004","225-TW","2018/03/17 17:59:42","新北市萬里區中幅里中福路48號","121.683253333333","25.174095","6502800","萬里區"
"252002","178-VK","2018/03/17 17:59:28","新北市三芝區中山路二段29號","121.502731666667","25.25541","6502100","三芝區"
"252001","292-VK","2018/03/17 17:59:28","新北市三芝區中興街二段2號","121.498396666667","25.2566466666667","6502100","三芝區"
"237004","KEA-2597","2018/03/17 17:59:37","新北市三峽區中園街126-15號","121.367048333333","24.9212","6500900","三峽區"
"237007","153-BY","2018/03/17 17:59:30","新北市三峽區中正路二段156號","121.36608","24.915965","6500900","三峽區"
"237009","210-TH","2018/03/17 17:59:27","新北市三峽區中山路106巷18-1號","121.366051666667","24.9366333333333","6500900","三峽區"
"237013","252-BX","2018/03/17 17:59:26","新北市三峽區介壽路一段203號","121.3784","24.930625","6500900","三峽區"
"237012","275-BY","2018/03/17 17:59:29","新北市三峽區民生街15號","121.376313333333","24.9366183333333","6500900","三峽區"
"237008","302-VK","2018/03/17 17:59:41","新北市三峽區白雞33號","121.369348333333","24.912405","6500900","三峽區"
"237014","433-BY","2018/03/17 17:59:33","新北市三峽區和平街91-3號","121.37023","24.93757","6500900","三峽區"
"237006","5529-G3","2018/03/17 17:59:34","新北市三峽區介壽路二段138巷1弄112號","121.39813","24.9306833333333","6500900","三峽區"
"237011","KEA-2596","2018/03/17 17:59:24","新北市三峽區大同路22號","121.377801666667","24.9294383333333","6500900","三峽區"
"237010","706-TV","2018/03/17 17:59:38","新北市三峽區民權街200號","121.367693333333","24.92923","6500900","三峽區"
"237005","AKY-6261","2018/03/17 17:59:30","新北市三峽區復興路235號","121.368471666667","24.93891","6500900","三峽區"
"236073","105-UM","2018/03/17 17:59:44","新北市土城區青雲路474號","121.463061666667","24.9664766666667","6501300","土城區"
"236043","107-UM","2018/03/17 17:59:39","新北市土城區亞洲路58巷5弄6號","121.433446666667","24.9746516666667","6501300","土城區"
"236079","166-UM","2018/03/17 17:59:24","新北市土城區永寧路32巷9號","121.42896","24.9606633333333","6501300","土城區"
"236031","253-BX","2018/03/17 17:59:38","新北市土城區亞洲路58巷5弄6號","121.433683333333","24.974385","6501300","土城區"
"236026","269-VK","2018/03/17 17:59:33","新北市土城區中華路二段2號","121.439695","24.9794116666667","6501300","土城區"
"236015","270-VK","2018/03/17 17:59:26","新北市土城區中華路一段301號","121.439796666667","24.9794366666667","6501300","土城區"
"236038","271-VK","2018/03/17 17:59:23","新北市土城區中華路二段2號","121.439531666667","24.9795733333333","6501300","土城區"
"236023","401-BY","2018/03/17 17:59:41","新北市土城區亞洲路32巷23號","121.435025","24.9750466666667","6501300","土城區"
"236063","752-BX","2018/03/17 17:59:32","新北市土城區亞洲路58巷5弄6號","121.433718333333","24.9743983333333","6501300","土城區"
"236059","912-UM","2018/03/17 17:59:28","新北市土城區中央路三段140號","121.433195","24.9655633333333","6501300","土城區"
"236049","913-UM","2018/03/17 17:59:24","新北市土城區自強街35號","121.432883333333","24.9732516666667","6501300","土城區"
"236055","AAC-216","2018/03/17 17:59:29","新北市土城區自強街35號","121.432903333333","24.9732683333333","6501300","土城區"
"242034","AAC-296","2018/03/17 17:59:32","新北市新莊區福海街26號","121.445371666667","25.0340216666667","6500500","新莊區"
"242058","986-R7","2018/03/17 17:59:32","新北市新莊區雙鳳路134巷34號","121.41227","25.0284983333333","6500500","新莊區"
"242053","751-BX","2018/03/17 17:59:37","新北市新莊區光華街49號","121.428851666667","25.01152","6500500","新莊區"
"242029","705-TV","2018/03/17 17:59:36","新北市新莊區中平路76號","121.444806666667","25.0445683333333","6500500","新莊區"
"242027","615-BX","2018/03/17 17:59:26","新北市新莊區思源路338號","121.460051666667","25.051135","6500500","新莊區"
"242025","613-BX","2018/03/17 17:59:38","新北市新莊區五權一路1-6號","121.45698","25.0650733333333","6500500","新莊區"
"242042","566-BX","2018/03/17 17:59:39","新北市新莊區丹鳳街34號","121.421631666667","25.02952","6500500","新莊區"
"242046","497-BY","2018/03/17 17:59:41","新北市新莊區中正路651-8號","121.43007","25.030195","6500500","新莊區"
"242002","442-UM","2018/03/17 17:59:30","新北市新莊區中正路153-2號","121.455953333333","25.0366933333333","6500500","新莊區"
"242051","441-UM","2018/03/17 17:59:38","新北市新莊區西盛街153巷6號","121.428621666667","25.01806","6500500","新莊區"
"242056","440-UM","2018/03/17 17:59:43","新北市新莊區豐年街126號","121.446446666667","25.0297783333333","6500500","新莊區"
"242036","415-TV","2018/03/17 17:59:24","新北市新莊區建福路24號","121.426223333333","25.0287633333333","6500500","新莊區"
"242007","413-TV","2018/03/17 17:59:23","新北市新莊區自信街67號","121.455433333333","25.0482366666667","6500500","新莊區"
"242044","400-BY","2018/03/17 17:59:31","新北市新莊區雙鳳路157號","121.412838333333","25.0269183333333","6500500","新莊區"
"242023","362-BY","2018/03/17 17:59:37","新北市新莊區福壽街67號","121.458235","25.0493566666667","6500500","新莊區"
"242061","353-BY","2018/03/17 17:59:39","新北市新莊區新樹路267號","121.434325","25.0210033333333","6500500","新莊區"
"242009","132-UY","2018/03/17 17:59:31","新北市新莊區中華路二段258巷21號","121.453183333333","25.054055","6500500","新莊區"
"242039","133-UY","2018/03/17 17:59:39","新北市新莊區富國路180號","121.424466666667","25.0244466666667","6500500","新莊區"
"242031","135-UY","2018/03/17 17:59:34","新北市新莊區新泰路305巷9號","121.444931666667","25.04091","6500500","新莊區"
"242048","172-VK","2018/03/17 17:59:21","新北市新莊區萬安街47巷2號","121.421671666667","25.0245666666667","6500500","新莊區"
"242017","175-VK","2018/03/17 17:59:39","新北市新莊區永樂街144號","121.449236666667","25.0448916666667","6500500","新莊區"
"242004","176-VK","2018/03/17 17:59:35","新北市新莊區福樂街71巷13號","121.45683","25.04739","6500500","新莊區"
"242015","346-TH","2018/03/17 17:59:39","新北市新莊區新泰路502巷53號","121.444343333333","25.0464016666667","6500500","新莊區"
"242021","348-TH","2018/03/17 17:59:26","新北市新莊區中正路213號","121.451263333333","25.0358333333333","6500500","新莊區"
"242013","351-TH","2018/03/17 17:59:30","新北市新莊區中和街125巷1號","121.447211666667","25.0485716666667","6500500","新莊區"
"238015","755-BX","2018/03/17 17:59:40","新北市樹林區復興路207號","121.420453333333","24.99137","6500700","樹林區"
"238023","601-UM","2018/03/17 17:59:33","新北市樹林區福興街18-1號","121.404191666667","25.0157516666667","6500700","樹林區"
"238019","599-UM","2018/03/17 17:59:33","新北市樹林區水源街32巷49號","121.425411666667","24.9803266666667","6500700","樹林區"
"238018","571-TV","2018/03/17 17:59:38","新北市樹林區樹新路98號","121.429421666667","24.9975733333333","6500700","樹林區"
"238022","KEA-2213","2018/03/17 17:59:30","新北市樹林區太順街60號","121.41793","24.9792783333333","6500700","樹林區"
"238021","KEA-2539","2018/03/17 17:59:26","新北市樹林區柑園街一段132巷9號","121.399576666667","24.9579816666667","6500700","樹林區"
"238025","303-VK","2018/03/17 17:59:39","新北市樹林區三俊街164號","121.417038333333","25.0154666666667","6500700","樹林區"
"238017","283-BY","2018/03/17 17:59:30","新北市樹林區中正路460號","121.412925","25.0124966666667","6500700","樹林區"
"238014","282-BY","2018/03/17 17:59:36","新北市樹林區大安路179號","121.421318333333","24.9962683333333","6500700","樹林區"
"238020","268-VK","2018/03/17 17:59:32","新北市樹林區俊興街288號","121.41853","25.017185","6500700","樹林區"
"238026","172-UY","2018/03/17 17:59:35","新北市樹林區中洲街30巷6弄9號","121.397353333333","24.9712616666667","6500700","樹林區"
"238016","169-UY","2018/03/17 17:59:40","新北市樹林區復興路282號","121.417993333333","24.9881066666667","6500700","樹林區"
"239007","AAC-297","2018/03/17 17:59:31","新北市鶯歌區鶯桃路94巷59弄2-1號","121.341775","24.95533","6500800","鶯歌區"
"239006","891-R6","2018/03/17 17:59:42","新北市鶯歌區鶯桃路455巷8弄2號","121.3316","24.9643533333333","6500800","鶯歌區"
"239008","527-UM","2018/03/17 17:59:22","新北市鶯歌區國際一路112巷2號","121.335686666667","24.9766966666667","6500800","鶯歌區"
"239005","526-UM","2018/03/17 17:59:26","新北市鶯歌區鶯桃路668巷73號","121.32992","24.9718","6500800","鶯歌區"
"239001","417-VK","2018/03/17 17:59:23","新北市鶯歌區中正三路76號","121.338435","24.9411216666667","6500800","鶯歌區"
"239003","360-BY","2018/03/17 17:59:24","新北市鶯歌區鶯桃路334號","121.333951666667","24.96218","6500800","鶯歌區"
"239002","359-BY","2018/03/17 17:59:37","新北市鶯歌區育英街17巷1弄3號","121.347518333333","24.9552","6500800","鶯歌區"
"239004","193-VK","2018/03/17 17:59:29","新北市鶯歌區尖山路103-6號","121.348191666667","24.948785","6500800","鶯歌區"
"221036","130-UY","2018/03/17 17:59:24","新北市汐止區大同路三段62巷1號","121.667678333333","25.0770266666667","6501100","汐止區"
"221010","269-BY","2018/03/17 17:59:27","新北市汐止區汐萬路二段245巷54號","121.645166666667","25.0879116666667","6501100","汐止區"
"221012","278-VK","2018/03/17 17:59:35","新北市汐止區長興街二段30號","121.673255","25.0814116666667","6501100","汐止區"
"221023","279-VK","2018/03/17 17:59:27","新北市汐止區民族六街2巷2號","121.628985","25.0708016666667","6501100","汐止區"
"221032","280-BY","2018/03/17 17:59:42","新北市汐止區橫科路73巷8號","121.619581666667","25.05097","6501100","汐止區"
"221027","281-BY","2018/03/17 17:59:41","新北市汐止區大同路二段374號","121.65783","25.0672083333333","6501100","汐止區"
"221029","298-VK","2018/03/17 17:59:36","新北市汐止區樟樹二路328號","121.641573333333","25.0701783333333","6501100","汐止區"
"221021","299-VK","2018/03/17 17:59:30","新北市汐止區復興路24號","121.656023333333","25.0638216666667","6501100","汐止區"
"221008","129-UY","2018/03/17 17:59:28","新北市汐止區明峰街19號","121.634576666667","25.071405","6501100","汐止區"
"221035","622-UM","2018/03/17 17:59:35","新北市汐止區新江北路30巷22弄5號","121.651531666667","25.0699016666667","6501100","汐止區"
"221025","623-UM","2018/03/17 17:59:28","新北市汐止區仁愛路32號","121.660221666667","25.062835","6501100","汐止區"
"221038","646-BX","2018/03/17 17:59:33","新北市汐止區水源路一段238巷3號","121.654","25.0606033333333","6501100","汐止區"
"221033","647-BX","2018/03/17 17:59:22","新北市汐止區合順街56號","121.620741666667","25.0431766666667","6501100","汐止區"
"221002","707-TV","2018/03/17 17:59:34","新北市汐止區中興路31號","121.634783333333","25.0618216666667","6501100","汐止區"
"221018","753-BX","2018/03/17 17:59:39","新北市汐止區招商街6號","121.66655","25.068695","6501100","汐止區"
"242011","281-VK","2018/03/17 17:59:35","新北市新莊區中港路629-1號","121.450596666667","25.05386","6500500","新莊區"
"242019","280-VK","2018/03/17 17:59:25","新北市新莊區明中街43巷4號","121.457538333333","25.0389683333333","6500500","新莊區"
