"lineid","car","time","location","longitude","latitude","cityid","cityname"
"234046","148-BY","2018/03/17 19:09:31","新北市永和區永元路18巷38弄1號","121.524005","25.0002583333333","6500400","永和區"
"234007","207-UY","2018/03/17 19:09:39","新北市永和區中山路一段285號","121.506861666667","25.007005","6500400","永和區"
"234081","298-R6","2018/03/17 19:09:34","新北市永和區永貞路39巷9弄4號","121.522168333333","25.0067283333333","6500400","永和區"
"234038","336-UY","2018/03/17 19:09:24","新北市永和區民樂街71巷1號","121.527395","24.9975216666667","6500400","永和區"
"234064","337-UY","2018/03/17 19:09:37","新北市永和區秀朗路二段46號","121.521543333333","25.00225","6500400","永和區"
"234086","338-UY","2018/03/17 19:09:30","新北市永和區永貞路160號","121.51766","25.00441","6500400","永和區"
"234070","552-UM","2018/03/17 19:09:38","新北市永和區豫溪街137巷1弄19號","121.518706666667","25.0103866666667","6500400","永和區"
"234017","745-BX","2018/03/17 19:09:34","新北市永和區文化路90巷10號","121.513871666667","25.01577","6500400","永和區"
"234030","746-BX","2018/03/17 19:09:35","新北市永和區四維街121號","121.523091666667","24.9983866666667","6500400","永和區"
"234054","KEA-2590","2018/03/17 19:09:36","新北市永和區竹林路80號","121.51935","25.0127233333333","6500400","永和區"
"234013","KEA-2591","2018/03/17 19:09:29","新北市永和區保福路二段14-1號","121.510945","25.0113566666667","6500400","永和區"
"234061","AAD-866","2018/03/17 19:09:32","新北市永和區安樂路300號","121.51446","25.00491","6500400","永和區"
"234042","862-TW","2018/03/17 19:09:21","新北市永和區保平路135號","121.510296666667","25.006245","6500400","永和區"
"234050","863-TW","2018/03/17 19:09:43","新北市永和區仁愛路104巷7弄21號","121.511153333333","25.014115","6500400","永和區"
"234026","9371-KE","2018/03/17 19:09:37","新北市永和區安樂路270號","121.514536666667","25.0040583333333","6500400","永和區"
"234011","9373-KE","2018/03/17 19:09:25","新北市永和區仁愛路141巷30弄24號","121.512216666667","25.0115083333333","6500400","永和區"
"249005","172-UM","2018/03/17 19:09:37","新北市八里區中華路三段145巷5號","121.392061666667","25.1339416666667","6502300","八里區"
"249001","173-UM","2018/03/17 19:09:38","新北市八里區龍米路二段230-1號","121.431978333333","25.158495","6502300","八里區"
"248016","026-BX","2018/03/17 19:09:39","新北市五股區成泰路三段577巷45號","121.450826666667","25.1030016666667","6501500","五股區"
"248006","077-UY","2018/03/17 19:09:32","新北市五股區四維路112號","121.467751666667","25.0738916666667","6501500","五股區"
"248020","225-UY","2018/03/17 19:09:40","新北市五股區凌雲路三段57號","121.425276666667","25.12501","6501500","五股區"
"248012","247-BX","2018/03/17 19:09:25","新北市五股區中興路四段48巷16號","121.438613333333","25.0834333333333","6501500","五股區"
"248004","677-BX","2018/03/17 19:09:32","新北市五股區民義路一段277號","121.425843333333","25.0926733333333","6501500","五股區"
"248002","678-BX","2018/03/17 19:09:41","新北市五股區凌雲路一段158巷11號","121.447713333333","25.1034566666667","6501500","五股區"
"248010","682-TV","2018/03/17 19:09:26","新北市五股區水碓一路23號","121.43065","25.0712616666667","6501500","五股區"
"234023","9380-KE","2018/03/17 19:09:25","新北市永和區中興街10巷17號","121.515816666667","25.0111733333333","6500400","永和區"
"234077","969-R7","2018/03/17 19:09:40","新北市永和區民族街6號","121.518671666667","24.99965","6500400","永和區"
"234074","AAC-211","2018/03/17 19:09:41","新北市永和區竹林路214號","121.520733333333","25.008125","6500400","永和區"
"234067","AAC-212","2018/03/17 19:09:28","新北市永和區永和路一段65巷2號","121.512806666667","25.0071616666667","6500400","永和區"
"234003","AAC-295","2018/03/17 19:09:36","新北市永和區中山路一段106號","121.510921666667","25.0104766666667","6500400","永和區"
"244013","069-UM","2018/03/17 19:09:40","新北市林口區麗園二街23巷15-9號","121.379133333333","25.070325","6501700","林口區"
"244025","742-UY","2018/03/17 19:09:35","新北市林口區文化北路一段542巷13弄69號","121.369728333333","25.0796783333333","6501700","林口區"
"244023","483-VK","2018/03/17 19:09:31","新北市林口區仁愛路二段381號","121.369983333333","25.0801666666667","6501700","林口區"
"244017","485-VK","2018/03/17 19:09:40","新北市林口區湖南里70-9號","121.375946666667","25.0897033333333","6501700","林口區"
"244019","657-BX","2018/03/17 19:09:36","新北市林口區麗園二街10-3號","121.378056666667","25.06952","6501700","林口區"
"244011","701-TV","2018/03/17 19:09:30","新北市林口區竹林路55號","121.38738","25.078225","6501700","林口區"
"244021","838-TS","2018/03/17 19:09:32","新北市八里區中山路三段382號","121.368611666667","25.1361633333333","6501700","林口區"
"243012","AAD-798","2018/03/17 19:09:39","新北市泰山區辭修路36巷8弄5號","121.427893333333","25.0586266666667","6501600","泰山區"
"243011","297-R6","2018/03/17 19:09:37","新北市泰山區明志路二段358號","121.425426666667","25.04525","6501600","泰山區"
"243015","380-SR","2018/03/17 19:09:40","新北市泰山區明志路一段412號","121.430731666667","25.0568283333333","6501600","泰山區"
"243014","421-VK","2018/03/17 19:09:36","新北市泰山區泰林路二段485號","121.424971666667","25.0638666666667","6501600","泰山區"
"243010","KEA-2215","2018/03/17 19:09:30","新北市泰山區明志路一段354號","121.430746666667","25.0583","6501600","泰山區"
"243009","KEA-2216","2018/03/17 19:09:38","新北市泰山區明志路一段117巷26號","121.434343333333","25.0636066666667","6501600","泰山區"
"243013","646-TV","2018/03/17 19:09:32","新北市泰山區漢口街7號","121.42349","25.036635","6501600","泰山區"
"243016","680-BX","2018/03/17 19:09:27","新北市泰山區明志路二段327號","121.425743333333","25.044955","6501600","泰山區"
"222003","436-BY","2018/03/17 19:09:20","新北市深坑區深南路158號","121.625566666667","25.0143566666667","6501800","深坑區"
"222002","659-BX","2018/03/17 19:09:38","新北市深坑區烏月路8號","121.633105","25.007765","6501800","深坑區"
"231041","002-UM","2018/03/17 19:09:41","新北市新店區溪園路383號","121.523355","24.9795133333333","6500600","新店區"
"231059","046-UY","2018/03/17 19:09:26","新北市新店區安和路二段87號","121.518593333333","24.9691066666667","6500600","新店區"
"231061","047-UY","2018/03/17 19:09:37","新北市新店區安康路一段65號","121.53039","24.96107","6500600","新店區"
"231060","106-UY","2018/03/17 19:09:28","新北市新店區安康路二段196號","121.510763333333","24.9597633333333","6500600","新店區"
"231051","107-UY","2018/03/17 19:09:28","新北市新店區中正路382巷26號","121.535531666667","24.9778033333333","6500600","新店區"
"231048","108-UY","2018/03/17 19:09:39","新北市新店區德正街27巷34號","121.545718333333","24.9712766666667","6500600","新店區"
"231052","187-VK","2018/03/17 19:09:42","新北市新店區自強路123號","121.546105","24.9228866666667","6500600","新店區"
"231050","KEA-2219","2018/03/17 19:09:28","新北市新店區竹林路2巷30號","121.55002","24.9504883333333","6500600","新店區"
"221015","KEA-2785","2018/03/17 19:09:24","新北市汐止區汐萬路一段256巷1號","121.651878333333","25.0747566666667","6501100","汐止區"
"231046","278-BY","2018/03/17 19:09:39","新北市新店區華潭街14號","121.529613333333","24.952315","6500600","新店區"
"231054","AAD-862","2018/03/17 19:09:34","新北市新店區新店路76號","121.537331666667","24.9538616666667","6500600","新店區"
"231058","3712-VJ","2018/03/17 19:09:37","新北市新店區光明街138巷13弄1號","121.54032","24.9610966666667","6500600","新店區"
"231056","3713-VJ","2018/03/17 19:09:38","新北市新店區民權路107-2號","121.53645","24.982135","6500600","新店區"
"231067","4772-VM","2018/03/17 19:09:36","新北市新店區安光路11號","121.513543333333","24.9640366666667","6500600","新店區"
"231065","512-UM","2018/03/17 19:09:35","新北市新店區安祥路114號","121.474911666667","24.9566283333333","6500600","新店區"
"231049","513-UM","2018/03/17 19:09:26","新北市新店區二十張路25巷18弄16號","121.539183333333","24.9816716666667","6500600","新店區"
"231064","515-UM","2018/03/17 19:09:39","新北市新店區安忠路87號","121.511056666667","24.95697","6500600","新店區"
"231045","617-UM","2018/03/17 19:09:34","新北市新店區北宜路一段164號","121.540395","24.9533316666667","6500600","新店區"
"231040","619-UM","2018/03/17 19:09:42","新北市新店區三民路98-3號","121.533936666667","24.973415","6500600","新店區"
"231042","641-BX","2018/03/17 19:09:41","新北市新店區光明街168巷5弄2-2號","121.540543333333","24.96182","6500600","新店區"
"231063","645-TV","2018/03/17 19:09:40","新北市新店區車子路140號","121.505215","24.9477133333333","6500600","新店區"
"231062","720-UM","2018/03/17 19:09:27","新北市新店區安康路一段247-1號","121.524863333333","24.9632066666667","6500600","新店區"
"231044","897-TW","2018/03/17 19:09:26","新北市新店區中興路三段220巷1號","121.54362","24.98271","6500600","新店區"
"231043","899-TW","2018/03/17 19:09:22","新北市新店區寶橋路69-1號","121.545405","24.974945","6500600","新店區"
"231066","AKT-0513","2018/03/17 19:09:41","新北市新店區安康路三段355巷6號","121.484811666667","24.9504666666667","6500600","新店區"
"241026","066-VK","2018/03/17 19:09:42","新北市三重區泉州街72號","121.494848333333","25.0548116666667","6500200","三重區"
"241035","743-BX","2018/03/17 19:09:43","新北市三重區重新路四段226號","121.485783333333","25.0541116666667","6500200","三重區"
"241029","942-UM","2018/03/17 19:09:32","新北市三重區集美街241號","121.492313333333","25.055395","6500200","三重區"
"235066","003-UY","2018/03/17 19:09:32","新北市中和區廣福路57號","121.502691666667","25.0012483333333","6500300","中和區"
"235064","005-UY","2018/03/17 19:09:31","新北市中和區連城路47號","121.498143333333","25.0017333333333","6500300","中和區"
"235063","006-UY","2018/03/17 19:09:29","新北市中和區連城路307號","121.489485","24.9963066666667","6500300","中和區"
"235056","096-UM","2018/03/17 19:09:31","新北市中和區員山路570號","121.478921666667","25.01144","6500300","中和區"
"235039","097-UM","2018/03/17 19:09:38","新北市中和區立人街69巷5號","121.52001","24.9937066666667","6500300","中和區"
"235065","098-UM","2018/03/17 19:09:35","新北市中和區莊敬路33號","121.50087","25.0049066666667","6500300","中和區"
"235040","150-BY","2018/03/17 19:09:40","新北市中和區宜安路23巷38號","121.511878333333","24.99457","6500300","中和區"
"235058","151-BY","2018/03/17 19:09:34","新北市中和區連城路428巷20號","121.480013333333","24.995625","6500300","中和區"
"235055","183-VK","2018/03/17 19:09:32","新北市中和區德光路19號","121.470978333333","25.0043183333333","6500300","中和區"
"235038","185-VK","2018/03/17 19:09:36","新北市中和區大仁街10巷32號","121.518811666667","24.99249","6500300","中和區"
"235049","186-VK","2018/03/17 19:09:33","新北市中和區景安路139號","121.505556666667","24.995605","6500300","中和區"
"235067","255-BX","2018/03/17 19:08:46","新北市中和區新生街177巷8號","121.484348333333","25.000595","6500300","中和區"
"235044","293-VK","2018/03/17 19:09:41","新北市中和區中興街222-6號","121.500683333333","24.9897066666667","6500300","中和區"
"235072","301-VK","2018/03/17 19:09:39","新北市中和區連城路215號","121.494366666667","24.99782","6500300","中和區"
"235043","352-BY","2018/03/17 19:09:44","新北市中和區景平路40號","121.522978333333","24.9906166666667","6500300","中和區"
"235068","377-QA","2018/03/17 19:09:25","新北市中和區圓通路162巷37弄1號","121.49635","24.995465","6500300","中和區"
"235061","378-QA","2018/03/17 19:09:32","新北市中和區員山路394巷10號","121.481228333333","25.0044383333333","6500300","中和區"
"235071","269-TV","2018/03/17 19:09:26","新北市中和區連城路471號","121.483471666667","24.9958533333333","6500300","中和區"
"235050","4979-A6","2018/03/17 19:09:25","新北市中和區復興路249巷11弄3號","121.503461666667","24.9896516666667","6500300","中和區"
"235069","4980-A6","2018/03/17 19:09:38","新北市中和區中和路217巷16號","121.504721666667","25.0003533333333","6500300","中和區"
"235042","551-UM","2018/03/17 19:09:37","新北市中和區自立路16巷3號","121.521745","24.9936466666667","6500300","中和區"
"235070","558-UM","2018/03/17 19:09:40","新北市中和區枋寮街4號","121.502341666667","24.9998183333333","6500300","中和區"
"235045","565-BX","2018/03/17 19:09:34","新北市中和區景新街467巷35弄7號","121.51435","24.989015","6500300","中和區"
"235054","640-BX","2018/03/17 19:09:32","新北市中和區國光街103號","121.470168333333","25.000365","6500300","中和區"
"235060","647-TV","2018/03/17 19:09:29","新北市中和區民治街21巷2號","121.475348333333","25.0023466666667","6500300","中和區"
"235047","732-UM","2018/03/17 19:09:31","新北市中和區興南路一段106-1號","121.509396666667","24.98839","6500300","中和區"
"235046","733-UM","2018/03/17 19:09:33","新北市中和區忠孝街1巷47號","121.508418333333","24.984125","6500300","中和區"
"235057","801-TS","2018/03/17 19:09:41","新北市中和區民利街87號","121.478206666667","24.998065","6500300","中和區"
"235041","802-TS","2018/03/17 19:09:32","新北市永和區中和路331號","121.507368333333","24.9996633333333","6500300","中和區"
"235052","805-TS","2018/03/17 19:09:32","新北市中和區興南路二段142巷19弄40號","121.50246","24.983335","6500300","中和區"
"235048","896-TW","2018/03/17 19:09:27","新北市中和區忠孝街1號","121.50894","24.9829783333333","6500300","中和區"
"235053","911-UM","2018/03/17 19:09:29","新北市中和區華福街86號","121.467533333333","24.9963983333333","6500300","中和區"
"235051","157-BY","2018/03/17 19:09:20","新北市中和區興南路一段92號","121.509875","24.9891733333333","6500300","中和區"
"235037","AAC-213","2018/03/17 19:09:30","新北市中和區秀朗路三段60巷42號","121.524915","24.9949316666667","6500300","中和區"
"235059","AAC-215","2018/03/17 19:09:43","新北市中和區圓通路294巷17-5號","121.488758333333","24.9903066666667","6500300","中和區"
"220068","013-TV","2018/03/17 19:09:30","新北市板橋區三民路一段26號","121.47914","25.023075","6500100","板橋區"
"220065","072-UY","2018/03/17 19:09:25","新北市板橋區民族路151巷55號","121.469188333333","25.00835","6500100","板橋區"
"220086","073-UY","2018/03/17 19:09:35","新北市板橋區國光路67巷39號","121.460303333333","25.0192483333333","6500100","板橋區"
"220069","AAD-861","2018/03/17 19:09:33","新北市板橋區大華街71號","121.459431666667","25.0034966666667","6500100","板橋區"
"226004","312-R5","2018/03/17 19:09:27","新北市平溪區十分里十分街96-1號","121.777036666667","25.0424366666667","6502400","平溪區"
"228001","212-TW","2018/03/17 19:09:26","新北市貢寮區真理里新港街10號","121.925488333333","25.054355","6502600","貢寮區"
"228002","585-TW","2018/03/17 19:09:34","新北市貢寮區福隆里福隆街32號","121.94512","25.0172883333333","6502600","貢寮區"
"228003","828-UM","2018/03/17 19:09:28","新北市貢寮區和美里和美街32-2號","121.913468333333","25.0840833333333","6502600","貢寮區"
"224010","AGQ-8101","2018/03/17 19:09:38","新北市瑞芳區基山街3號","121.845218333333","25.109725","6501200","瑞芳區"
"224006","676-BX","2018/03/17 19:09:39","新北市瑞芳區中山路67號","121.804078333333","25.1061816666667","6501200","瑞芳區"
"224008","285-BY","2018/03/17 19:09:29","新北市瑞芳區明燈路三段265號","121.798921666667","25.1120133333333","6501200","瑞芳區"
"224007","275-VK","2018/03/17 19:09:34","新北市瑞芳區瑞竹路46號","121.763473333333","25.1033766666667","6501200","瑞芳區"
"224009","273-VK","2018/03/17 19:09:32","新北市瑞芳區洞頂路101巷12號","121.860698333333","25.1212616666667","6501200","瑞芳區"
"224005","271-BY","2018/03/17 19:09:38","新北市瑞芳區三爪子坑路89-17號","121.812271666667","25.10732","6501200","瑞芳區"
"227010","642-TC","2018/03/17 19:09:45","新北市雙溪區牡丹里中正路38號","121.864745","25.0384166666667","6502500","雙溪區"
"227002","400-TW","2018/03/17 19:09:37","新北市雙溪區平林里梅竹蹊56-4號","121.860698333333","25.03665","6502500","雙溪區"
"253005","032-BX","2018/03/17 19:09:38","新北市石門區阿里荖41號","121.605508333333","25.28048","6502200","石門區"
"253006","295-VK","2018/03/17 19:09:32","新北市石門區海灣新城37號","121.52677","25.2845833333333","6502200","石門區"
"222001","KEA-2212","2018/03/17 19:09:31","新北市深坑區北深路一段300號","121.624108333333","25.0057083333333","6501800","深坑區"
"208003","665-BX","2018/03/17 19:09:42","新北市金山區中正路52號","121.634286666667","25.2219766666667","6502700","金山區"
"208001","761-BX","2018/03/17 19:09:23","新北市金山區溫泉路4號","121.639615","25.2219533333333","6502700","金山區"
"251009","008-UM","2018/03/17 19:09:43","新北市淡水區清水街99-1號","121.440823333333","25.1706283333333","6501000","淡水區"
"251001","011-UM","2018/03/17 19:09:36","新北市淡水區民權路92巷35-1號","121.462053333333","25.12679","6501000","淡水區"
"251002","012-UM","2018/03/17 19:09:31","新北市淡水區中山路87巷3號","121.442466666667","25.170405","6501000","淡水區"
"251013","179-VK","2018/03/17 19:09:33","新北市淡水區安子內12號","121.480936666667","25.2194416666667","6501000","淡水區"
"251014","180-VK","2018/03/17 19:09:36","新北市淡水區北勢子10-2號","121.483468333333","25.2288583333333","6501000","淡水區"
"251015","182-VK","2018/03/17 19:09:23","新北市淡水區埔子頂12號","121.484081666667","25.1732916666667","6501000","淡水區"
"251010","413-VK","2018/03/17 19:09:37","新北市淡水區中正路一段156巷3號","121.4212","25.1803083333333","6501000","淡水區"
"251016","442-VK","2018/03/17 19:09:27","新北市淡水區埤島26-2號","121.446255","25.199675","6501000","淡水區"
"251005","443-VK","2018/03/17 19:09:30","新北市淡水區中山路108巷16號","121.442198333333","25.1711916666667","6501000","淡水區"
"251006","561-UM","2018/03/17 19:09:29","新北市淡水區中山北路三段138號","121.444731666667","25.1951283333333","6501000","淡水區"
"251007","577-R6","2018/03/17 19:09:32","新北市淡水區民生路145巷35號","121.466846666667","25.13896","6501000","淡水區"
"251003","673-BX","2018/03/17 19:09:43","新北市淡水區中山北路一段94號","121.442425","25.1763683333333","6501000","淡水區"
"207003","550-UM","2018/03/17 19:09:38","新北市萬里區大鵬里萬里加投15-2號","121.650203333333","25.2095833333333","6502800","萬里區"
"207004","225-TW","2018/03/17 19:09:38","新北市萬里區萬里里瑪鋉下街46-1號","121.691496666667","25.179315","6502800","萬里區"
"252002","178-VK","2018/03/17 19:09:28","新北市三芝區埔坪里埔頭坑78號","121.509236666667","25.2543783333333","6502100","三芝區"
"252001","292-VK","2018/03/17 19:09:28","新北市三芝區長勤街45巷2號","121.50038","25.2550883333333","6502100","三芝區"
"237004","KEA-2597","2018/03/17 19:09:37","新北市三峽區有木212號","121.440676666667","24.8514083333333","6500900","三峽區"
"237007","153-BY","2018/03/17 19:09:30","新北市三峽區中正路二段81號","121.366733333333","24.9179266666667","6500900","三峽區"
"237009","210-TH","2018/03/17 19:09:27","新北市三峽區文化路59號","121.37225","24.9360416666667","6500900","三峽區"
"237013","252-BX","2018/03/17 19:09:26","新北市三峽區光明路69巷25號","121.37679","24.92915","6500900","三峽區"
"237012","275-BY","2018/03/17 19:09:29","新北市三峽區三樹路222巷196-40號","121.390316666667","24.9429516666667","6500900","三峽區"
"237008","302-VK","2018/03/17 19:09:36","新北市三峽區大同路114號","121.374161666667","24.926905","6500900","三峽區"
"237014","433-BY","2018/03/17 19:09:35","新北市三峽區中山路301號","121.36137","24.9375933333333","6500900","三峽區"
"237006","5529-G3","2018/03/17 19:09:34","新北市三峽區橫溪路95號","121.398441666667","24.9354583333333","6500900","三峽區"
"237011","KEA-2596","2018/03/17 19:09:44","新北市三峽區中正路一段193號","121.372493333333","24.9278983333333","6500900","三峽區"
"237010","706-TV","2018/03/17 19:09:38","新北市三峽區復興路162號","121.371261666667","24.9383","6500900","三峽區"
"237005","AKY-6261","2018/03/17 19:09:41","新北市三峽區中山路459巷163-3號","121.348613333333","24.9328783333333","6500900","三峽區"
"236073","105-UM","2018/03/17 19:09:43","新北市土城區裕生路84巷4號","121.447113333333","24.985485","6501300","土城區"
"236079","166-UM","2018/03/17 19:09:14","新北市土城區龍泉路38-2號","121.412168333333","24.94564","6501300","土城區"
"236031","253-BX","2018/03/17 19:09:38","新北市土城區中央路一段318巷4弄12號","121.443168333333","24.98243","6501300","土城區"
"236026","269-VK","2018/03/17 19:09:33","新北市土城區中央路二段224號","121.441953333333","24.9753866666667","6501300","土城區"
"236015","270-VK","2018/03/17 19:09:26","新北市土城區學府路一段75巷1弄2號","121.457221666667","24.9877116666667","6501300","土城區"
"236038","271-VK","2018/03/17 19:09:25","新北市土城區清水路100號","121.457548333333","24.981545","6501300","土城區"
"236023","401-BY","2018/03/17 19:09:40","新北市土城區延峰街7號","121.468665","24.9865033333333","6501300","土城區"
"236059","912-UM","2018/03/17 19:09:33","新北市土城區金城路二段230號","121.456526666667","24.982895","6501300","土城區"
"236049","913-UM","2018/03/17 19:09:24","新北市土城區清水路36號","121.455385","24.9809133333333","6501300","土城區"
"238015","755-BX","2018/03/17 19:09:40","新北市樹林區備內街158巷33號","121.408345","24.989955","6500700","樹林區"
"238023","601-UM","2018/03/17 19:09:33","新北市樹林區大慶街66號","121.39645","25.0139666666667","6500700","樹林區"
"238019","599-UM","2018/03/17 19:09:33","新北市樹林區東榮街106號","121.415491666667","24.9823516666667","6500700","樹林區"
"238018","571-TV","2018/03/17 19:09:38","新北市樹林區中華路120號","121.417746666667","24.9807433333333","6500700","樹林區"
"238024","5061-A6","2018/03/17 19:09:34","新北市樹林區中山路二段249巷34號","121.403555","24.9754483333333","6500700","樹林區"
"238022","KEA-2213","2018/03/17 19:09:30","新北市樹林區中山路二段151巷8弄10號","121.406241666667","24.9778833333333","6500700","樹林區"
"238021","KEA-2539","2018/03/17 19:09:41","新北市樹林區柑園街二段328巷2弄3號","121.372895","24.952005","6500700","樹林區"
"238025","303-VK","2018/03/17 19:09:38","新北市樹林區中山路三段88號","121.393376666667","24.9723116666667","6500700","樹林區"
"238017","283-BY","2018/03/17 19:09:10","新北市樹林區光興街257號","121.407193333333","25.0054183333333","6500700","樹林區"
"238014","282-BY","2018/03/17 19:09:43","新北市樹林區中正路17號","121.427675","24.99911","6500700","樹林區"
"238020","268-VK","2018/03/17 19:09:25","新北市樹林區俊英街133巷11號","121.42365","25.0110833333333","6500700","樹林區"
"238026","172-UY","2018/03/17 19:09:35","新北市樹林區中山路三段120號","121.392438333333","24.9721333333333","6500700","樹林區"
"238016","169-UY","2018/03/17 19:09:27","新北市樹林區中山路一段247號","121.42056","24.9865933333333","6500700","樹林區"
"239007","AAC-297","2018/03/17 19:09:31","新北市鶯歌區中正一路225號","121.354096666667","24.9574666666667","6500800","鶯歌區"
"239006","891-R6","2018/03/17 19:09:42","新北市鶯歌區永昌街75號","121.340953333333","24.94984","6500800","鶯歌區"
"239008","527-UM","2018/03/17 19:09:42","新北市鶯歌區國際二路6巷16號","121.338925","24.973855","6500800","鶯歌區"
"239005","526-UM","2018/03/17 19:09:26","新北市鶯歌區中湖街16號","121.3467","24.97289","6500800","鶯歌區"
"239001","417-VK","2018/03/17 19:09:23","新北市鶯歌區鶯桃路95巷79號","121.337046666667","24.9527433333333","6500800","鶯歌區"
"239003","360-BY","2018/03/17 19:09:24","新北市鶯歌區德昌二街121號","121.333036666667","24.9565316666667","6500800","鶯歌區"
"239002","359-BY","2018/03/17 19:09:37","新北市鶯歌區西湖街170號","121.33835","24.9653233333333","6500800","鶯歌區"
"239004","193-VK","2018/03/17 19:09:29","新北市鶯歌區中正三路鄭厝巷16-9號","121.333385","24.9340366666667","6500800","鶯歌區"
"221036","130-UY","2018/03/17 19:09:24","新北市汐止區汐萬路一段256巷3號","121.652438333333","25.0745283333333","6501100","汐止區"
"221010","269-BY","2018/03/17 19:09:27","新北市汐止區汐萬路一段256巷1號","121.651778333333","25.074905","6501100","汐止區"
"221012","278-VK","2018/03/17 19:09:35","新北市汐止區康寧街901號","121.650763333333","25.0751733333333","6501100","汐止區"
"221023","279-VK","2018/03/17 18:52:52","新北市汐止區康寧街901號","121.651475","25.074985","6501100","汐止區"
"221032","280-BY","2018/03/17 19:09:22","新北市汐止區新台五路一段83號","121.646308333333","25.0607366666667","6501100","汐止區"
"221027","281-BY","2018/03/17 19:09:41","新北市汐止區康寧街901號","121.651401666667","25.0749183333333","6501100","汐止區"
"221029","298-VK","2018/03/17 19:09:26","新北市汐止區汐萬路一段256巷3號","121.653183333333","25.0744066666667","6501100","汐止區"
"221031","353-TW","2018/03/17 19:09:33","新北市汐止區福德一路1-1號","121.639788333333","25.07132","6501100","汐止區"
"221008","129-UY","2018/03/17 19:09:29","新北市汐止區康寧街482號","121.632416666667","25.0684033333333","6501100","汐止區"
"221025","623-UM","2018/03/17 19:09:28","新北市汐止區康寧街901號","121.651523333333","25.0749433333333","6501100","汐止區"
"221038","646-BX","2018/03/17 19:09:33","新北市汐止區汐萬路一段312號","121.650686666667","25.0753533333333","6501100","汐止區"
"221033","647-BX","2018/03/17 19:09:41","新北市汐止區南勢街1巷1號","121.627035","25.0374183333333","6501100","汐止區"
"221002","707-TV","2018/03/17 19:09:34","新北市汐止區環河街207號","121.626565","25.0539433333333","6501100","汐止區"
"220079","145-BY","2018/03/17 19:09:27","新北市板橋區民權路223號","121.457638333333","25.015325","6500100","板橋區"
"220080","200-UY","2018/03/17 19:09:37","新北市板橋區大觀路二段7巷40號","121.448411666667","25.0032533333333","6500100","板橋區"
"220106","KEA-2550","2018/03/17 19:09:27","新北市板橋區文化路二段317號","121.472201666667","25.029845","6500100","板橋區"
"220082","610-BX","2018/03/17 19:09:36","新北市板橋區溪崑二街145號","121.42624","24.9882133333333","6500100","板橋區"
"220101","245-BX","2018/03/17 19:09:32","新北市板橋區民生路二段161巷9號","121.4702","25.0194383333333","6500100","板橋區"
"220098","257-TC","2018/03/17 19:09:21","新北市板橋區自由路51巷9-3號","121.465043333333","25.0234366666667","6500100","板橋區"
"220091","267-BY","2018/03/17 19:09:34","新北市板橋區縣民大道247巷41號","121.482095","25.026955","6500100","板橋區"
"220056","276-BY","2018/03/17 19:09:43","新北市板橋區信義路74巷1弄3號","121.457351666667","24.9931383333333","6500100","板橋區"
"220072","277-BY","2018/03/17 19:09:42","新北市板橋區金門街369巷99號","121.428266666667","24.9815933333333","6500100","板橋區"
"220094","280-UM","2018/03/17 19:09:40","新北市板橋區光武街151號","121.465565","25.02945","6500100","板橋區"
"220064","282-UM","2018/03/17 19:09:31","新北市板橋區長安街234-3號","121.47521","25.0125516666667","6500100","板橋區"
"220071","283-VK","2018/03/17 19:09:28","新北市板橋區重慶路353巷7號","121.464853333333","24.9981416666667","6500100","板橋區"
"220053","285-VK","2018/03/17 19:09:39","新北市板橋區懷仁街35巷13號","121.4771","25.0198166666667","6500100","板橋區"
"220083","286-VK","2018/03/17 19:09:39","新北市板橋區大觀路二段174巷173弄5號","121.441508333333","25.0037183333333","6500100","板橋區"
"220081","287-VK","2018/03/17 19:09:32","新北市板橋區南雅西路二段156巷7號","121.452198333333","25.013385","6500100","板橋區"
"220090","288-VK","2018/03/17 19:09:34","新北市板橋區裕民街54號","121.461446666667","25.0286633333333","6500100","板橋區"
"220061","293-UM","2018/03/17 19:09:32","新北市板橋區中山路二段273號","121.477713333333","25.0179","6500100","板橋區"
"220062","295-UM","2018/03/17 19:09:29","新北市板橋區三民路二段245巷71號","121.481075","25.0126733333333","6500100","板橋區"
"220084","296-UM","2018/03/17 19:09:41","新北市板橋區溪崑二街22巷13號","121.428128333333","24.9916716666667","6500100","板橋區"
"220075","303-R5","2018/03/17 19:09:43","新北市板橋區南雅南路一段1巷38號","121.45722","25.00651","6500100","板橋區"
"220092","307-R5","2018/03/17 19:09:41","新北市板橋區文化路二段225巷60弄56號","121.469198333333","25.0296966666667","6500100","板橋區"
"220089","487-VK","2018/03/17 19:09:37","新北市板橋區文化路二段419號","121.474621666667","25.0326583333333","6500100","板橋區"
"220088","491-VK","2018/03/17 19:09:31","新北市板橋區文化路二段182巷1弄2號","121.471101666667","25.0274483333333","6500100","板橋區"
"220035","560-BX","2018/03/17 19:09:45","新北市板橋區瑞安街49號","121.455383333333","25.022335","6500100","板橋區"
"220103","561-BX","2018/03/17 19:09:43","新北市板橋區介壽街84巷29號","121.469391666667","25.017925","6500100","板橋區"
"220063","609-BX","2018/03/17 19:09:40","新北市板橋區三民路二段224號","121.47877","25.01156","6500100","板橋區"
"220057","686-BX","2018/03/17 19:09:29","新北市板橋區重慶路276號","121.463165","25.0003083333333","6500100","板橋區"
"220077","687-BX","2018/03/17 19:09:24","新北市板橋區大觀路一段35巷1號","121.449465","25.0084416666667","6500100","板橋區"
"220054","741-BX","2018/03/17 19:09:39","新北市板橋區重慶路89巷4號","121.462586666667","25.006455","6500100","板橋區"
"220102","KEA-2699","2018/03/17 19:09:35","新北市板橋區田單街44號","121.482691666667","25.027825","6500100","板橋區"
"220055","827-TW","2018/03/17 19:09:38","新北市板橋區新民街7巷29號","121.463775","25.0105433333333","6500100","板橋區"
"220067","830-TW","2018/03/17 19:09:28","新北市板橋區民享街116巷2弄13號","121.477396666667","25.01545","6500100","板橋區"
"220096","831-TW","2018/03/17 19:09:39","新北市板橋區雙十路二段33巷18號","121.47602","25.0253883333333","6500100","板橋區"
"220074","895-R6","2018/03/17 19:09:29","新北市板橋區中正路自強新村28號","121.45509","25.0139833333333","6500100","板橋區"
"220073","985-R7","2018/03/17 19:09:29","新北市板橋區新生街89巷30號","121.456981666667","25.0226833333333","6500100","板橋區"
"220097","AAC-210","2018/03/17 19:09:30","新北市板橋區新海路135巷33號","121.459983333333","25.0228116666667","6500100","板橋區"
"220070","AAC-253","2018/03/17 19:09:35","新北市板橋區忠孝路86號","121.461391666667","25.0020533333333","6500100","板橋區"
