"lineid","car","time","location","longitude","latitude","cityid","cityname"
"234046","148-BY","2018/03/17 19:29:31","新北市永和區秀朗路二段247號","121.526366666667","24.9995966666667","6500400","永和區"
"234007","207-UY","2018/03/17 19:29:39","新北市永和區永和路一段122號","121.513915","25.0077216666667","6500400","永和區"
"234081","298-R6","2018/03/17 19:29:40","新北市永和區福和路5號","121.52533","25.0086016666667","6500400","永和區"
"234038","336-UY","2018/03/17 19:29:42","新北市永和區成功路二段47巷11號","121.527475","25.0003333333333","6500400","永和區"
"234064","337-UY","2018/03/17 19:29:37","新北市永和區中正路368巷1弄61號","121.51978","25.00103","6500400","永和區"
"234086","338-UY","2018/03/17 19:29:30","新北市永和區林森路29巷18號","121.52625","25.004505","6500400","永和區"
"234070","552-UM","2018/03/17 19:29:38","新北市永和區竹林路182號","121.520326666667","25.0096383333333","6500400","永和區"
"234017","745-BX","2018/03/17 19:29:14","新北市永和區環河西路一段87-1號","121.512638333333","25.01797","6500400","永和區"
"234030","746-BX","2018/03/17 19:29:40","新北市永和區民生路63號","121.52266","24.9973766666667","6500400","永和區"
"234054","KEA-2590","2018/03/17 19:29:36","新北市永和區復興街19巷5號","121.516058333333","25.01308","6500400","永和區"
"234013","KEA-2591","2018/03/17 19:29:29","新北市永和區中山路一段132-1號","121.510378333333","25.0099766666667","6500400","永和區"
"234061","AAD-866","2018/03/17 19:29:32","新北市永和區中正路568號","121.517183333333","25.0062016666667","6500400","永和區"
"234042","862-TW","2018/03/17 19:29:41","新北市永和區中和路519巷4號","121.510988333333","25.0030066666667","6500400","永和區"
"234050","863-TW","2018/03/17 19:29:41","新北市永和區仁愛路128號","121.51147","25.0131166666667","6500400","永和區"
"234026","9371-KE","2018/03/17 19:29:37","新北市中和區安樂路171號","121.514856666667","24.9976566666667","6500400","永和區"
"234011","9373-KE","2018/03/17 19:29:46","新北市永和區保福路二段106號","121.509946666667","25.01375","6500400","永和區"
"249002","305-UY","2018/03/17 19:29:29","新北市八里區頂寮二街138號","121.44935","25.129425","6502300","八里區"
"249003","593-UM","2018/03/17 19:29:21","新北市八里區中山路二段468號","121.398865","25.1472583333333","6502300","八里區"
"248008","095-VK","2018/03/17 19:29:34","新北市五股區中興路一段95巷9號","121.466606666667","25.072405","6501500","五股區"
"248020","225-UY","2018/03/17 19:29:40","新北市五股區凌雲路三段45-2號","121.42781","25.12066","6501500","五股區"
"248012","247-BX","2018/03/17 19:29:29","新北市五股區成泰路二段97號","121.437986666667","25.0842833333333","6501500","五股區"
"248014","261-SL","2018/03/17 19:29:23","新北市五股區民義路一段157-22號","121.431338333333","25.08679","6501500","五股區"
"248004","677-BX","2018/03/17 19:29:32","新北市五股區五福路119號","121.431958333333","25.0911416666667","6501500","五股區"
"248002","678-BX","2018/03/17 19:29:41","新北市五股區凌雲路一段158巷14號","121.4478","25.1034183333333","6501500","五股區"
"248010","682-TV","2018/03/17 19:29:26","新北市五股區水碓一路23號","121.430645","25.0713183333333","6501500","五股區"
"234023","9380-KE","2018/03/17 19:29:25","新北市永和區竹林路91巷49-1號","121.521605","25.0132366666667","6500400","永和區"
"234077","969-R7","2018/03/17 19:29:40","新北市永和區民族街43巷16號","121.519278333333","24.998345","6500400","永和區"
"234074","AAC-211","2018/03/17 19:29:45","新北市永和區環河東路二段36號","121.522763333333","25.0123833333333","6500400","永和區"
"234067","AAC-212","2018/03/17 19:29:28","新北市永和區保平路113號","121.510918333333","25.00664","6500400","永和區"
"234003","AAC-295","2018/03/17 19:29:44","新北市永和區永和路一段208號","121.514345","25.009405","6500400","永和區"
"244023","483-VK","2018/03/17 19:29:31","新北市林口區民有街66號","121.372888333333","25.077195","6501700","林口區"
"244019","657-BX","2018/03/17 19:29:36","新北市林口區四維路114號","121.377313333333","25.0782383333333","6501700","林口區"
"243012","AAD-798","2018/03/17 19:29:39","新北市泰山區明志路一段501巷19號","121.431361666667","25.0545566666667","6501600","泰山區"
"243011","297-R6","2018/03/17 19:29:37","新北市泰山區貴子路19-1號","121.428061666667","25.0407533333333","6501600","泰山區"
"243015","380-SR","2018/03/17 19:29:32","新北市泰山區民族街1號","121.428918333333","25.0521216666667","6501600","泰山區"
"243014","421-VK","2018/03/17 19:29:36","新北市泰山區仁愛路6巷77號","121.43165","25.053295","6501600","泰山區"
"243010","KEA-2215","2018/03/17 19:29:30","新北市泰山區民族街10巷1號","121.429236666667","25.0517216666667","6501600","泰山區"
"243009","KEA-2216","2018/03/17 19:29:38","新北市泰山區半山雅3號","121.431395","25.0674316666667","6501600","泰山區"
"243013","646-TV","2018/03/17 19:29:32","新北市泰山區明志路三段145巷40號","121.426966666667","25.0391533333333","6501600","泰山區"
"243016","680-BX","2018/03/17 19:29:27","新北市泰山區明志路三段166號","121.424156666667","25.0393566666667","6501600","泰山區"
"222003","436-BY","2018/03/17 19:29:40","新北市深坑區深南路51-1號","121.621156666667","25.0099216666667","6501800","深坑區"
"222002","659-BX","2018/03/17 19:29:38","新北市深坑區北深路一段177號","121.632511666667","25.0108666666667","6501800","深坑區"
"231041","002-UM","2018/03/17 19:29:43","新北市新店區中正路568號","121.533831666667","24.9877466666667","6500600","新店區"
"231059","046-UY","2018/03/17 19:29:27","新北市新店區安和路三段61號","121.517993333333","24.9831916666667","6500600","新店區"
"231061","047-UY","2018/03/17 19:29:37","新北市新店區安民街71號","121.516571666667","24.9670216666667","6500600","新店區"
"231060","106-UY","2018/03/17 19:29:28","新北市新店區安康路二段51號","121.51437","24.9634533333333","6500600","新店區"
"231051","107-UY","2018/03/17 19:29:28","新北市新店區中央五街63號","121.527381666667","24.9757216666667","6500600","新店區"
"231048","108-UY","2018/03/17 19:29:37","新北市新店區五峰路63巷8弄72號","121.54799","24.9684983333333","6500600","新店區"
"231052","187-VK","2018/03/17 19:29:22","新北市新店區新烏路二段302號","121.548736666667","24.912745","6500600","新店區"
"231050","KEA-2219","2018/03/17 19:29:28","新北市新店區竹林路72巷15號","121.554128333333","24.9506133333333","6500600","新店區"
"221015","KEA-2785","2018/03/17 19:29:44","新北市汐止區康寧街901號","121.651446666667","25.0749583333333","6501100","汐止區"
"231057","256-BX","2018/03/17 19:29:28","新北市新店區花園一路二段17號","121.550813333333","24.9332633333333","6500600","新店區"
"231046","278-BY","2018/03/17 19:29:39","新北市新店區北新路二段2號","121.542625","24.9708466666667","6500600","新店區"
"231054","AAD-862","2018/03/17 19:29:41","新北市新店區文中路51-3號","121.540183333333","24.956575","6500600","新店區"
"231058","3712-VJ","2018/03/17 19:29:37","新北市新店區寶橋路85巷25號","121.545196666667","24.976045","6500600","新店區"
"231055","4716-K9","2018/03/17 19:29:26","新北市新店區中華路83巷67號","121.538298333333","24.967435","6500600","新店區"
"231067","4772-VM","2018/03/17 19:29:36","新北市新店區秀山路55-1號","121.530726666667","24.9602433333333","6500600","新店區"
"231065","512-UM","2018/03/17 19:29:40","新北市新店區安祥路109巷5號","121.475718333333","24.9589083333333","6500600","新店區"
"231049","513-UM","2018/03/17 19:29:26","新北市新店區北新路三段65巷34弄15號","121.540011666667","24.9814983333333","6500600","新店區"
"231064","515-UM","2018/03/17 19:29:39","新北市新店區安忠路2號","121.514446666667","24.96349","6500600","新店區"
"231045","617-UM","2018/03/17 19:29:34","新北市新店區北宜路二段211號","121.553186666667","24.9534166666667","6500600","新店區"
"231040","619-UM","2018/03/17 19:29:42","新北市新店區北新路一段8號","121.54072","24.9654933333333","6500600","新店區"
"231042","641-BX","2018/03/17 19:29:41","新北市新店區中興路一段202號","121.543828333333","24.965245","6500600","新店區"
"231063","645-TV","2018/03/17 19:29:29","新北市新店區達觀路16號","121.503126666667","24.9407216666667","6500600","新店區"
"231062","720-UM","2018/03/17 19:29:28","新北市新店區精忠路10-1號","121.53264","24.9590616666667","6500600","新店區"
"231044","897-TW","2018/03/17 19:29:26","新北市新店區中興路三段145號","121.544458333333","24.9799133333333","6500600","新店區"
"231043","899-TW","2018/03/17 19:29:43","新北市新店區北新路二段128號","121.543066666667","24.9749266666667","6500600","新店區"
"231066","AKT-0513","2018/03/17 19:29:41","新北市新店區安康路二段341巷50號","121.496621666667","24.9543016666667","6500600","新店區"
"241028","022-UY","2018/03/17 19:29:32","新北市三重區中寮街90號","121.493281666667","25.05802","6500200","三重區"
"241008","059-VK","2018/03/17 19:29:36","新北市三重區永福街111巷35弄14號","121.477456666667","25.0767966666667","6500200","三重區"
"241009","060-VK","2018/03/17 19:29:42","新北市三重區溪尾街242巷70號","121.486115","25.081425","6500200","三重區"
"241031","061-VK","2018/03/17 19:29:28","新北市三重區集美街69號","121.488486666667","25.0538616666667","6500200","三重區"
"241017","063-VK","2018/03/17 19:29:36","新北市三重區中正北路25巷25弄2號","121.493226666667","25.062645","6500200","三重區"
"241026","066-VK","2018/03/17 19:29:42","新北市三重區文化南路47巷17號","121.499626666667","25.0612116666667","6500200","三重區"
"241022","267-UM","2018/03/17 19:29:43","新北市三重區三民街157巷1號","121.483818333333","25.0645816666667","6500200","三重區"
"241013","270-UM","2018/03/17 19:29:35","新北市三重區仁愛街127號","121.495535","25.0748283333333","6500200","三重區"
"241025","271-UM","2018/03/17 19:29:33","新北市三重區頂崁街210巷23弄13號","121.476093333333","25.0685983333333","6500200","三重區"
"241007","398-BY","2018/03/17 19:29:30","新北市三重區溪尾街124-2號","121.489443333333","25.0794783333333","6500200","三重區"
"241020","413-TH","2018/03/17 19:29:30","新北市三重區三和路四段44巷6號","121.490093333333","25.07442","6500200","三重區"
"241030","480-VK","2018/03/17 19:29:25","新北市三重區環河南路254巷25號","121.490036666667","25.0511883333333","6500200","三重區"
"241014","543-UM","2018/03/17 19:29:37","新北市三重區長興街31號","121.500371666667","25.06868","6500200","三重區"
"241023","545-UM","2018/03/17 19:29:34","新北市三重區頂崁街99號","121.478016666667","25.0637966666667","6500200","三重區"
"241006","AAD-863","2018/03/17 19:29:44","新北市三重區車路頭街78號","121.484341666667","25.0740166666667","6500200","三重區"
"241035","743-BX","2018/03/17 19:29:43","新北市三重區信義西街1號","121.498041666667","25.0648716666667","6500200","三重區"
"241029","942-UM","2018/03/17 19:29:32","新北市三重區中正南路214號","121.493906666667","25.0550783333333","6500200","三重區"
"235066","003-UY","2018/03/17 19:29:32","新北市中和區中和路196巷21號","121.50505","24.9986116666667","6500300","中和區"
"235064","005-UY","2018/03/17 19:29:31","新北市中和區南山路81巷61-1號","121.504285","24.997845","6500300","中和區"
"235063","006-UY","2018/03/17 19:29:29","新北市中和區連城路219巷17號","121.494905","24.9962633333333","6500300","中和區"
"235056","096-UM","2018/03/17 19:29:40","新北市中和區民富街40號","121.476698333333","25.00676","6500300","中和區"
"235039","097-UM","2018/03/17 19:29:45","新北市中和區秀峰街103巷2弄4號","121.51997","24.9905316666667","6500300","中和區"
"235065","098-UM","2018/03/17 19:29:35","新北市中和區中山路二段2巷13弄31號","121.502915","25.0064366666667","6500300","中和區"
"235040","150-BY","2018/03/17 19:29:40","新北市中和區保健路50巷9號","121.51022","24.9964133333333","6500300","中和區"
"235058","151-BY","2018/03/17 19:29:34","新北市中和區員山路36巷16-2號","121.485226666667","24.9915983333333","6500300","中和區"
"235055","183-VK","2018/03/17 19:29:32","新北市中和區莒光路120巷12號","121.471598333333","25.0017433333333","6500300","中和區"
"235038","185-VK","2018/03/17 19:29:36","新北市中和區自立路99巷1號","121.522026666667","24.9949433333333","6500300","中和區"
"235049","186-VK","2018/03/17 19:29:33","新北市中和區安和路17號","121.511138333333","24.9938683333333","6500300","中和區"
"235067","255-BX","2018/03/17 19:29:45","新北市中和區連城路336號","121.483103333333","24.99583","6500300","中和區"
"235044","293-VK","2018/03/17 19:29:41","新北市中和區捷運路185號","121.505481666667","24.991455","6500300","中和區"
"235072","301-VK","2018/03/17 19:29:39","新北市中和區連城路263巷4弄12號","121.491733333333","24.9952583333333","6500300","中和區"
"235043","352-BY","2018/03/17 19:29:44","新北市中和區南山路183號","121.502743333333","24.99506","6500300","中和區"
"235068","377-QA","2018/03/17 19:29:25","新北市中和區圓通路158巷24號","121.49833","24.996915","6500300","中和區"
"235061","378-QA","2018/03/17 19:29:32","新北市中和區民利街31巷2弄9號","121.48008","24.9986583333333","6500300","中和區"
"235071","269-TV","2018/03/17 19:29:25","新北市中和區連城路469巷21弄22號","121.484086666667","24.995065","6500300","中和區"
"235050","4979-A6","2018/03/17 19:29:25","新北市中和區中正路450號","121.490881666667","24.9941933333333","6500300","中和區"
"235069","4980-A6","2018/03/17 19:29:38","新北市中和區景平路736巷3弄12號","121.497595","25.0037633333333","6500300","中和區"
"235042","551-UM","2018/03/17 19:29:37","新北市中和區中安街226號","121.512205","24.99877","6500300","中和區"
"235070","558-UM","2018/03/17 19:29:40","新北市中和區中和路86號","121.501141666667","25.0005066666667","6500300","中和區"
"235045","565-BX","2018/03/17 19:29:42","新北市中和區景新街402號","121.512635","24.9895016666667","6500300","中和區"
"235054","640-BX","2018/03/17 19:29:32","新北市中和區國光街112巷15號","121.469666666667","25.0019866666667","6500300","中和區"
"235060","647-TV","2018/03/17 19:29:29","新北市中和區員山路467號","121.480423333333","25.0045116666667","6500300","中和區"
"235047","732-UM","2018/03/17 19:29:31","新北市中和區景平路259巷20號","121.507625","24.992705","6500300","中和區"
"235046","733-UM","2018/03/17 19:29:28","新北市中和區忠孝街37巷44號","121.510641666667","24.98472","6500300","中和區"
"235057","801-TS","2018/03/17 19:29:41","新北市中和區台新街43號","121.47988","25.0048983333333","6500300","中和區"
"235041","802-TS","2018/03/17 19:29:32","新北市中和區中安街80號","121.512195","25.0018616666667","6500300","中和區"
"235052","805-TS","2018/03/17 19:29:32","新北市中和區華新街143巷67弄2號","121.506956666667","24.9787833333333","6500300","中和區"
"235048","896-TW","2018/03/17 19:29:42","新北市中和區忠孝街142號","121.512455","24.98715","6500300","中和區"
"235053","911-UM","2018/03/17 19:29:29","新北市中和區華順街16號","121.467176666667","24.9986433333333","6500300","中和區"
"235051","157-BY","2018/03/17 19:29:31","新北市中和區景新街130號","121.505156666667","24.9979916666667","6500300","中和區"
"235037","AAC-213","2018/03/17 19:29:30","新北市中和區秀朗路三段10巷14弄30號","121.524731666667","24.9965616666667","6500300","中和區"
"235059","AAC-215","2018/03/17 19:29:43","新北市中和區圓通路252巷5弄54號","121.492416666667","24.99204","6500300","中和區"
"220068","013-TV","2018/03/17 19:29:43","新北市板橋區翠華街6巷95號","121.482251666667","25.0254816666667","6500100","板橋區"
"220065","072-UY","2018/03/17 19:29:25","新北市板橋區國泰街75巷28弄52號","121.467738333333","25.0048266666667","6500100","板橋區"
"220086","073-UY","2018/03/17 19:29:41","新北市板橋區中正路236巷21號","121.456856666667","25.0191816666667","6500100","板橋區"
"220069","AAD-861","2018/03/17 19:29:33","新北市板橋區稚暉街18號","121.455966666667","25.004485","6500100","板橋區"
"226004","312-R5","2018/03/17 19:29:27","新北市平溪區十分里十分街96-2號","121.776646666667","25.04259","6502400","平溪區"
"228001","212-TW","2018/03/17 19:29:26","新北市貢寮區真理里延平街68號","121.925348333333","25.0574066666667","6502600","貢寮區"
"228002","585-TW","2018/03/17 19:29:35","新北市貢寮區龍門里龍門街76號","121.931181666667","25.0268816666667","6502600","貢寮區"
"228003","828-UM","2018/03/17 19:29:28","新北市貢寮區和美里和美街19-2號","121.912771666667","25.082585","6502600","貢寮區"
"224010","AGQ-8101","2018/03/17 19:29:38","新北市瑞芳區基山街121號","121.844228333333","25.1086066666667","6501200","瑞芳區"
"227010","642-TC","2018/03/17 19:29:45","新北市雙溪區新基里新基北街43號","121.86816","25.0396616666667","6502500","雙溪區"
"227002","400-TW","2018/03/17 19:29:37","新北市雙溪區雙溪里光復街16號","121.865138333333","25.0353983333333","6502500","雙溪區"
"253005","032-BX","2018/03/17 19:29:38","新北市石門區小坑9號","121.594348333333","25.288385","6502200","石門區"
"253006","295-VK","2018/03/17 19:29:32","新北市石門區楓林28-2號","121.542333333333","25.28898","6502200","石門區"
"222001","KEA-2212","2018/03/17 19:29:31","新北市深坑區北深路二段123巷17號","121.616678333333","25.0029533333333","6501800","深坑區"
"208003","665-BX","2018/03/17 19:29:22","新北市金山區中山路263巷14號","121.636373333333","25.2215633333333","6502700","金山區"
"208001","761-BX","2018/03/17 19:29:43","新北市金山區金包里街98號","121.638388333333","25.2217933333333","6502700","金山區"
"251009","008-UM","2018/03/17 19:29:43","新北市淡水區大忠街5巷8號","121.443353333333","25.1765","6501000","淡水區"
"251001","011-UM","2018/03/17 19:29:36","新北市淡水區民權路137號","121.459968333333","25.1365566666667","6501000","淡水區"
"251013","179-VK","2018/03/17 19:29:37","新北市淡水區頂田寮路266號","121.464813333333","25.2160116666667","6501000","淡水區"
"251014","180-VK","2018/03/17 19:29:36","新北市淡水區小中寮19-7號","121.484751666667","25.2296066666667","6501000","淡水區"
"251015","182-VK","2018/03/17 19:29:43","新北市淡水區南勢埔49號","121.484638333333","25.181105","6501000","淡水區"
"251010","413-VK","2018/03/17 19:29:37","新北市淡水區中正路二段142-10號","121.422748333333","25.1876666666667","6501000","淡水區"
"251016","442-VK","2018/03/17 19:29:27","新北市淡水區淡金路三段350巷18號","121.450786666667","25.2083716666667","6501000","淡水區"
"251005","443-VK","2018/03/17 19:29:30","新北市淡水區水源街一段71巷12號","121.444385","25.17289","6501000","淡水區"
"251006","561-UM","2018/03/17 19:29:29","新北市淡水區大義街39號","121.442016666667","25.1782866666667","6501000","淡水區"
"251007","577-R6","2018/03/17 19:29:32","新北市淡水區坪頂路42號","121.457576666667","25.1624183333333","6501000","淡水區"
"251011","650-BX","2018/03/17 19:29:38","新北市淡水區中正東路二段161巷2弄1號","121.460665","25.1455483333333","6501000","淡水區"
"251003","673-BX","2018/03/17 19:29:43","新北市淡水區中山北路二段14號","121.444451666667","25.1835083333333","6501000","淡水區"
"207003","550-UM","2018/03/17 19:29:30","新北市萬里區大鵬里萬里加投197-2號","121.644008333333","25.2150616666667","6502800","萬里區"
"207004","225-TW","2018/03/17 19:29:42","新北市萬里區萬里里瑪鋉路121號","121.689006666667","25.177975","6502800","萬里區"
"252002","178-VK","2018/03/17 19:29:28","新北市三芝區淡金路二段18-1號","121.50262","25.2595016666667","6502100","三芝區"
"252001","292-VK","2018/03/17 19:29:28","新北市三芝區長勤街52號","121.50019","25.25561","6502100","三芝區"
"237004","KEA-2597","2018/03/17 19:29:37","新北市三峽區有木205-1號","121.438991666667","24.85165","6500900","三峽區"
"237007","153-BY","2018/03/17 19:29:30","新北市三峽區二鬮路136巷2弄27號","121.359478333333","24.9088216666667","6500900","三峽區"
"237009","210-TH","2018/03/17 19:29:27","新北市三峽區民權街134號","121.36878","24.9318866666667","6500900","三峽區"
"237013","252-BX","2018/03/17 19:29:34","新北市三峽區介壽路一段316號","121.380655","24.9301833333333","6500900","三峽區"
"237012","275-BY","2018/03/17 19:29:29","新北市三峽區三樹路98巷50號","121.383136666667","24.9381733333333","6500900","三峽區"
"237008","302-VK","2018/03/17 19:29:41","新北市三峽區中正路一段106號","121.37409","24.92961","6500900","三峽區"
"237014","433-BY","2018/03/17 19:29:32","新北市三峽區嘉添109-11號","121.369365","24.9096316666667","6500900","三峽區"
"237006","5529-G3","2018/03/17 19:29:34","新北市三峽區中正路一段336巷15弄2號","121.369955","24.9249283333333","6500900","三峽區"
"237005","AKY-6261","2018/03/17 19:29:41","新北市三峽區復興路367巷3號","121.363676666667","24.9379583333333","6500900","三峽區"
"236073","105-UM","2018/03/17 19:29:23","新北市土城區學府路一段188號","121.453256666667","24.986095","6501300","土城區"
"236079","166-UM","2018/03/17 19:29:44","新北市土城區中州路10號","121.414798333333","24.9572366666667","6501300","土城區"
"236031","253-BX","2018/03/17 19:29:38","新北市土城區中央路一段324號","121.44322","24.9816116666667","6501300","土城區"
"236026","269-VK","2018/03/17 19:29:33","新北市土城區中央路二段61巷32號","121.443541666667","24.9787433333333","6501300","土城區"
"236023","401-BY","2018/03/17 19:29:41","新北市土城區峰廷街3號","121.469151666667","24.9873366666667","6501300","土城區"
"236059","912-UM","2018/03/17 19:29:28","新北市土城區中央路二段282號","121.440673333333","24.9738883333333","6501300","土城區"
"236049","913-UM","2018/03/17 19:29:26","新北市土城區清水路201號","121.459968333333","24.981685","6501300","土城區"
"242023","362-BY","2018/03/17 19:29:32","新北市新莊區新泰路500號","121.442548333333","25.045955","6500500","新莊區"
"242031","135-UY","2018/03/17 19:29:25","新北市新莊區新泰路225巷24號","121.445176666667","25.0390966666667","6500500","新莊區"
"242004","176-VK","2018/03/17 19:29:26","新北市新莊區復興路二段103號","121.456105","25.0443233333333","6500500","新莊區"
"242013","351-TH","2018/03/17 19:29:33","新北市新莊區新泰路500號","121.442488333333","25.0460483333333","6500500","新莊區"
"238015","755-BX","2018/03/17 19:29:39","新北市樹林區復興路196號","121.419975","24.9909516666667","6500700","樹林區"
"238023","601-UM","2018/03/17 19:29:35","新北市樹林區三福街25號","121.408715","25.0167433333333","6500700","樹林區"
"238019","599-UM","2018/03/17 19:29:33","新北市樹林區大同街16號","121.418378333333","24.9827033333333","6500700","樹林區"
"238018","571-TV","2018/03/17 19:29:38","新北市樹林區八德街262-1號","121.417448333333","24.9720366666667","6500700","樹林區"
"238024","5061-A6","2018/03/17 19:29:35","新北市樹林區山佳街39號","121.393341666667","24.972695","6500700","樹林區"
"238022","KEA-2213","2018/03/17 19:29:30","新北市樹林區太平路161號","121.418736666667","24.9794766666667","6500700","樹林區"
"238021","KEA-2539","2018/03/17 19:29:41","新北市樹林區大雅路377號","121.377931666667","24.9500916666667","6500700","樹林區"
"238025","303-VK","2018/03/17 19:29:38","新北市樹林區中山路一段53號","121.423873333333","24.9921816666667","6500700","樹林區"
"238017","283-BY","2018/03/17 19:29:30","新北市樹林區保安街二段197巷7號","121.413993333333","25.0032316666667","6500700","樹林區"
"238014","282-BY","2018/03/17 19:29:35","新北市樹林區保安二街40巷26號","121.42577","24.9950666666667","6500700","樹林區"
"238020","268-VK","2018/03/17 19:29:25","新北市樹林區俊保路60號","121.425071666667","25.0095416666667","6500700","樹林區"
"238026","172-UY","2018/03/17 19:29:35","新北市樹林區佳園路三段20-3號","121.387955","24.9541116666667","6500700","樹林區"
"238016","169-UY","2018/03/17 19:29:27","新北市樹林區中山路二段120號","121.413416666667","24.9829516666667","6500700","樹林區"
"239007","AAC-297","2018/03/17 19:29:31","新北市鶯歌區西湖街45巷13號","121.340056666667","24.95883","6500800","鶯歌區"
"239006","891-R6","2018/03/17 19:29:42","新北市鶯歌區文化路145巷4號","121.356593333333","24.95407","6500800","鶯歌區"
"239001","417-VK","2018/03/17 19:29:43","新北市鶯歌區尖山埔路237號","121.344416666667","24.9501783333333","6500800","鶯歌區"
"239003","360-BY","2018/03/17 19:29:24","新北市鶯歌區中正一路360號","121.358116666667","24.9569766666667","6500800","鶯歌區"
"239002","359-BY","2018/03/17 19:29:37","新北市鶯歌區大湖路185巷12號","121.343386666667","24.9708916666667","6500800","鶯歌區"
"239004","193-VK","2018/03/17 19:29:29","新北市鶯歌區二甲路83號","121.339186666667","24.93322","6500800","鶯歌區"
"221036","130-UY","2018/03/17 19:29:43","新北市汐止區汐萬路一段256巷1號","121.651781666667","25.074825","6501100","汐止區"
"221010","269-BY","2018/03/17 19:29:27","新北市汐止區連峰街5巷1號","121.646543333333","25.0768033333333","6501100","汐止區"
"221012","278-VK","2018/03/17 19:29:35","新北市汐止區大同路三段271號","121.674225","25.07573","6501100","汐止區"
"221023","279-VK","2018/03/17 19:29:24","新北市汐止區康寧街753巷1-1號","121.639131666667","25.0737966666667","6501100","汐止區"
"221032","280-BY","2018/03/17 19:29:42","新北市汐止區新台五路一段127號","121.651891666667","25.06166","6501100","汐止區"
"221027","281-BY","2018/03/17 19:29:45","新北市汐止區忠孝東路9號","121.658248333333","25.06596","6501100","汐止區"
"221029","298-VK","2018/03/17 19:29:26","新北市汐止區康寧街901號","121.651446666667","25.0749083333333","6501100","汐止區"
"221031","353-TW","2018/03/17 19:29:33","新北市汐止區康寧街901號","121.650881666667","25.0752416666667","6501100","汐止區"
"221008","129-UY","2018/03/17 19:29:29","新北市汐止區康寧街241號","121.624733333333","25.0668066666667","6501100","汐止區"
"221025","623-UM","2018/03/17 19:29:39","新北市汐止區秀峰路60號","121.659673333333","25.065025","6501100","汐止區"
"221038","646-BX","2018/03/17 19:29:34","新北市汐止區大同路二段326號","121.656278333333","25.0669866666667","6501100","汐止區"
"221033","647-BX","2018/03/17 19:29:41","新北市汐止區南勢街1巷1號","121.627035","25.037385","6501100","汐止區"
"221002","707-TV","2018/03/17 19:29:34","新北市汐止區大同路一段337巷15弄1號","121.637728333333","25.0599883333333","6501100","汐止區"
"220079","145-BY","2018/03/17 19:29:47","新北市板橋區建國街10號","121.457158333333","25.016895","6500100","板橋區"
"220080","200-UY","2018/03/17 19:29:30","新北市板橋區大觀路二段3巷87號","121.450123333333","25.0033416666667","6500100","板橋區"
"220106","KEA-2550","2018/03/17 19:29:27","新北市板橋區文化路二段417巷8號","121.474273333333","25.0329866666667","6500100","板橋區"
"220082","610-BX","2018/03/17 19:29:42","新北市板橋區大觀路三段198巷1號","121.430838333333","24.992485","6500100","板橋區"
"220101","245-BX","2018/03/17 19:29:32","新北市板橋區縣民大道三段33巷6弄15號","121.474478333333","25.0216","6500100","板橋區"
"220098","257-TC","2018/03/17 19:29:41","新北市板橋區民生路三段281巷2弄1號","121.463625","25.0299866666667","6500100","板橋區"
"220091","267-BY","2018/03/17 19:29:40","新北市板橋區文聖街149巷23弄16號","121.479296666667","25.0288683333333","6500100","板橋區"
"220056","276-BY","2018/03/17 19:29:23","新北市板橋區信義路1巷26弄25號","121.458375","24.9966583333333","6500100","板橋區"
"220072","277-BY","2018/03/17 19:29:42","新北市板橋區篤行路二段141巷17號","121.430473333333","24.9878483333333","6500100","板橋區"
"220094","280-UM","2018/03/17 19:29:28","新北市板橋區吳鳳路42號","121.468425","25.0303533333333","6500100","板橋區"
"220064","282-UM","2018/03/17 19:29:30","新北市板橋區四川路一段2號","121.459356666667","25.0069916666667","6500100","板橋區"
"220071","283-VK","2018/03/17 19:29:28","新北市板橋區忠孝路48巷4弄89號","121.460266666667","25.0006716666667","6500100","板橋區"
"220053","285-VK","2018/03/17 19:29:39","新北市板橋區富山街53巷1弄54號","121.478003333333","25.020505","6500100","板橋區"
"220083","286-VK","2018/03/17 19:29:28","新北市板橋區龍興街71巷45號","121.441875","25.0025766666667","6500100","板橋區"
"220081","287-VK","2018/03/17 19:29:42","新北市板橋區大觀路一段75巷26號","121.448183333333","25.0042833333333","6500100","板橋區"
"220090","288-VK","2018/03/17 19:29:34","新北市板橋區裕民街91號","121.460373333333","25.0280416666667","6500100","板橋區"
"220061","293-UM","2018/03/17 19:29:43","新北市板橋區中山路二段181號","121.476048333333","25.0170516666667","6500100","板橋區"
"220062","295-UM","2018/03/17 19:29:29","新北市板橋區三民路二段153巷4號","121.47967","25.0148683333333","6500100","板橋區"
"220084","296-UM","2018/03/17 19:29:38","新北市板橋區滿平街84巷120弄17-1號","121.426556666667","24.9858366666667","6500100","板橋區"
"220075","303-R5","2018/03/17 19:29:23","新北市板橋區中正路275巷93號","121.45149","25.0186316666667","6500100","板橋區"
"220092","307-R5","2018/03/17 19:29:41","新北市板橋區光武街2巷22號","121.468596666667","25.0252983333333","6500100","板橋區"
"220089","487-VK","2018/03/17 19:29:22","新北市板橋區文化路一段31號","121.460208333333","25.012895","6500100","板橋區"
"220088","491-VK","2018/03/17 19:29:31","新北市板橋區文化路二段182巷3弄77號","121.472936666667","25.029455","6500100","板橋區"
"220035","560-BX","2018/03/17 19:29:40","新北市板橋區中正路387號","121.454321666667","25.0216916666667","6500100","板橋區"
"220103","561-BX","2018/03/17 19:29:23","新北市板橋區文化路一段270巷1弄2號","121.467765","25.0208883333333","6500100","板橋區"
"220063","609-BX","2018/03/17 19:29:40","新北市板橋區萬安街53巷22號","121.483406666667","25.0237966666667","6500100","板橋區"
"220057","686-BX","2018/03/17 19:29:29","新北市板橋區五權街41號","121.464501666667","24.9939266666667","6500100","板橋區"
"220077","687-BX","2018/03/17 19:29:44","新北市板橋區僑中三街40號","121.445176666667","25.0049933333333","6500100","板橋區"
"220093","689-BX","2018/03/17 19:29:38","新北市板橋區雨農路50號","121.46113","25.0243633333333","6500100","板橋區"
"220054","741-BX","2018/03/17 19:29:39","新北市板橋區光明街4號","121.459956666667","25.0024533333333","6500100","板橋區"
"220102","KEA-2699","2018/03/17 19:29:35","新北市板橋區松柏街22巷43號","121.475128333333","25.0289383333333","6500100","板橋區"
"220055","827-TW","2018/03/17 19:29:38","新北市板橋區重慶路290巷22弄6號","121.462245","24.999195","6500100","板橋區"
"220067","830-TW","2018/03/17 19:29:28","新北市板橋區長安街138巷7弄2號","121.473293333333","25.0082716666667","6500100","板橋區"
"220096","831-TW","2018/03/17 19:29:27","新北市板橋區大同街14-2號","121.477326666667","25.0269733333333","6500100","板橋區"
"220074","895-R6","2018/03/17 19:29:29","新北市板橋區民權路170巷2號","121.459783333333","25.0129366666667","6500100","板橋區"
"220073","985-R7","2018/03/17 19:29:29","新北市板橋區國光路33號","121.457178333333","25.017625","6500100","板橋區"
"220097","AAC-210","2018/03/17 19:26:06","新北市板橋區新海路135巷11號","121.460478333333","25.0232166666667","6500100","板橋區"
"220070","AAC-253","2018/03/17 19:29:27","新北市板橋區四川路一段10巷1號","121.459396666667","25.00669","6500100","板橋區"
