"lineid","car","time","location","longitude","latitude","cityid","cityname"
"234046","148-BY","2018/03/17 19:39:30","新北市永和區永利路113號","121.523615","25.0025733333333","6500400","永和區"
"234007","207-UY","2018/03/17 19:39:39","新北市中和區中和路358號","121.510398333333","25.00165","6500400","永和區"
"234081","298-R6","2018/03/17 19:39:34","新北市永和區林森路20巷12號","121.52596","25.0056616666667","6500400","永和區"
"234038","336-UY","2018/03/17 19:39:42","新北市永和區民樂街20號","121.527615","25.0019433333333","6500400","永和區"
"234064","337-UY","2018/03/17 19:39:38","新北市永和區中正路428巷30弄21-1號","121.518853333333","25.0021533333333","6500400","永和區"
"234086","338-UY","2018/03/17 19:39:30","新北市永和區永亨路132號","121.524705","25.0039783333333","6500400","永和區"
"234070","552-UM","2018/03/17 19:39:37","新北市永和區永和路二段233號","121.515606666667","25.014105","6500400","永和區"
"234017","745-BX","2018/03/17 19:39:34","新北市永和區永和路二段425巷64號","121.513621666667","25.0172533333333","6500400","永和區"
"234030","746-BX","2018/03/17 19:39:35","新北市永和區民生路37巷16號","121.523591666667","24.9980083333333","6500400","永和區"
"234054","KEA-2590","2018/03/17 19:39:35","新北市永和區竹林路52號","121.517813333333","25.0140783333333","6500400","永和區"
"234013","KEA-2591","2018/03/17 19:39:29","新北市永和區永平路236號","121.508738333333","25.01099","6500400","永和區"
"234061","AAD-866","2018/03/17 19:39:32","新北市永和區中正路456號","121.517466666667","25.00294","6500400","永和區"
"234042","862-TW","2018/03/17 19:39:41","新北市永和區中和路603號","121.512463333333","25.00434","6500400","永和區"
"234050","863-TW","2018/03/17 19:39:41","新北市永和區文化路165號","121.510025","25.0164633333333","6500400","永和區"
"234026","9371-KE","2018/03/17 19:39:37","新北市永和區中和路501巷5號","121.51048","25.0026316666667","6500400","永和區"
"249002","305-UY","2018/03/17 19:39:29","新北市八里區頂寮二街35號","121.450198333333","25.1250866666667","6502300","八里區"
"249003","593-UM","2018/03/17 19:39:42","新北市八里區中華路二段532號","121.399128333333","25.1456883333333","6502300","八里區"
"248016","026-BX","2018/03/17 19:39:24","新北市五股區成泰路三段621號","121.452898333333","25.1038483333333","6501500","五股區"
"248008","095-VK","2018/03/17 19:39:34","新北市五股區四維路118巷13號","121.469203333333","25.0741816666667","6501500","五股區"
"248020","225-UY","2018/03/17 19:39:40","新北市五股區中直路13-1號","121.424526666667","25.1119466666667","6501500","五股區"
"248012","247-BX","2018/03/17 19:39:25","新北市五股區成泰路二段97號","121.437921666667","25.0842816666667","6501500","五股區"
"248014","261-SL","2018/03/17 19:39:43","新北市五股區五福路52巷3弄6號","121.433478333333","25.0900683333333","6501500","五股區"
"248004","677-BX","2018/03/17 19:39:32","新北市五股區工商路151號","121.435028333333","25.0865383333333","6501500","五股區"
"248002","678-BX","2018/03/17 19:39:41","新北市五股區成泰路三段577巷45號","121.450788333333","25.1031216666667","6501500","五股區"
"248010","682-TV","2018/03/17 19:39:26","新北市五股區自強路133號","121.432163333333","25.0697433333333","6501500","五股區"
"234077","969-R7","2018/03/17 19:39:40","新北市永和區民權路82號","121.51977","24.99716","6500400","永和區"
"234074","AAC-211","2018/03/17 19:39:41","新北市永和區福和路110號","121.52212","25.0078883333333","6500400","永和區"
"234067","AAC-212","2018/03/17 19:39:28","新北市永和區中山路一段193號","121.509336666667","25.0087833333333","6500400","永和區"
"234003","AAC-295","2018/03/17 19:39:36","新北市永和區自由街77巷1號","121.513276666667","25.0050716666667","6500400","永和區"
"244023","483-VK","2018/03/17 19:39:43","新北市林口區文化北路二段8號","121.36952","25.081355","6501700","林口區"
"243012","AAD-798","2018/03/17 19:39:39","新北市泰山區全興路258號","121.4358","25.05319","6501600","泰山區"
"243011","297-R6","2018/03/17 19:39:37","新北市泰山區中山路二段672號","121.42742","25.0376583333333","6501600","泰山區"
"243015","380-SR","2018/03/17 19:39:32","新北市泰山區民權街19號","121.428506666667","25.0508183333333","6501600","泰山區"
"243014","421-VK","2018/03/17 19:39:36","新北市泰山區泰林路二段33-7號","121.435185","25.056435","6501600","泰山區"
"243010","KEA-2215","2018/03/17 19:39:41","新北市泰山區明志路二段7巷4號","121.430438333333","25.05346","6501600","泰山區"
"243009","KEA-2216","2018/03/17 19:39:38","新北市泰山區美寧街58號","121.430505","25.0646283333333","6501600","泰山區"
"243013","646-TV","2018/03/17 19:39:32","新北市泰山區明志路三段20號","121.424768333333","25.0431083333333","6501600","泰山區"
"243016","680-BX","2018/03/17 19:39:27","新北市泰山區明志路三段356號","121.42138","25.03468","6501600","泰山區"
"222003","436-BY","2018/03/17 19:31:30","新北市深坑區深南路51-1號","121.621161666667","25.0099283333333","6501800","深坑區"
"222002","659-BX","2018/03/17 19:39:37","新北市深坑區北深路一段177號","121.632526666667","25.01087","6501800","深坑區"
"231041","002-UM","2018/03/17 19:39:33","新北市新店區中正路487號","121.533786666667","24.982055","6500600","新店區"
"231059","046-UY","2018/03/17 19:39:26","新北市新店區安和路三段47-1號","121.51802","24.9823216666667","6500600","新店區"
"231061","047-UY","2018/03/17 19:39:37","新北市新店區安民街172號","121.51677","24.970755","6500600","新店區"
"231060","106-UY","2018/03/17 19:39:28","新北市新店區安康路二段163號","121.510093333333","24.959195","6500600","新店區"
"231051","107-UY","2018/03/17 19:39:28","新北市新店區中央路208-1號","121.530178333333","24.9737233333333","6500600","新店區"
"231048","108-UY","2018/03/17 19:39:36","新北市新店區五峰路61巷2-2號","121.547516666667","24.969965","6500600","新店區"
"231052","187-VK","2018/03/17 19:39:42","新北市新店區新烏路二段489-1號","121.552173333333","24.9086983333333","6500600","新店區"
"231050","KEA-2219","2018/03/17 19:39:28","新北市新店區北宜路二段277號","121.555033333333","24.95362","6500600","新店區"
"221015","KEA-2785","2018/03/17 19:39:24","新北市汐止區康寧街901號","121.65145","25.0749633333333","6501100","汐止區"
"231057","256-BX","2018/03/17 19:39:28","新北市新店區橘園一路11號","121.548005","24.934005","6500600","新店區"
"231046","278-BY","2018/03/17 19:39:39","新北市新店區平等街48巷38號","121.5348","24.9734733333333","6500600","新店區"
"231054","AAD-862","2018/03/17 19:39:36","新北市新店區文中路45號","121.53955","24.956635","6500600","新店區"
"231058","3712-VJ","2018/03/17 19:39:37","新北市新店區中正路108號","121.543036666667","24.970605","6500600","新店區"
"231055","4716-K9","2018/03/17 19:39:25","新北市新店區中華路83巷67號","121.538345","24.967425","6500600","新店區"
"231067","4772-VM","2018/03/17 19:39:36","新北市新店區精忠路10-1號","121.532685","24.9590366666667","6500600","新店區"
"231065","512-UM","2018/03/17 19:39:35","新北市新店區安祥路109巷53號","121.477061666667","24.9597766666667","6500600","新店區"
"231049","513-UM","2018/03/17 19:39:26","新北市新店區建國路154號","121.538691666667","24.97923","6500600","新店區"
"231064","515-UM","2018/03/17 19:39:39","新北市新店區安和路一段52巷2號","121.51761","24.9661766666667","6500600","新店區"
"231045","617-UM","2018/03/17 19:39:34","新北市新店區北宜路二段112-1號","121.556483333333","24.95381","6500600","新店區"
"231040","619-UM","2018/03/17 19:39:42","新北市新店區北新路一段96巷23號","121.542945","24.9686733333333","6500600","新店區"
"231042","641-BX","2018/03/17 19:39:41","新北市新店區中興路一段216號","121.543856666667","24.9656866666667","6500600","新店區"
"231063","645-TV","2018/03/17 19:39:29","新北市新店區達觀路41號","121.502818333333","24.93819","6500600","新店區"
"231062","720-UM","2018/03/17 19:39:27","新北市新店區永業路6號","121.53395","24.9561933333333","6500600","新店區"
"231044","897-TW","2018/03/17 19:39:30","新北市新店區北新路三段210號","121.541168333333","24.9842","6500600","新店區"
"231043","899-TW","2018/03/17 19:39:43","新北市新店區中正路156號","121.54146","24.97174","6500600","新店區"
"241011","013-R5","2018/03/17 19:39:43","新北市三重區秀江街184號","121.497858333333","25.0716416666667","6500200","三重區"
"241028","022-UY","2018/03/17 19:39:32","新北市三重區中正南路200號","121.49387","25.0559766666667","6500200","三重區"
"241008","059-VK","2018/03/17 19:39:36","新北市三重區永福街133號","121.47887","25.0767916666667","6500200","三重區"
"241009","060-VK","2018/03/17 19:39:42","新北市三重區三和路四段406巷8號","121.480856666667","25.0796083333333","6500200","三重區"
"241031","061-VK","2018/03/17 19:39:28","新北市三重區重新路四段248號","121.486055","25.053395","6500200","三重區"
"241015","062-VK","2018/03/17 19:39:24","新北市三重區福德北路34號","121.502101666667","25.0652083333333","6500200","三重區"
"241017","063-VK","2018/03/17 19:39:36","新北市三重區大同北路184巷10號","121.491475","25.0656383333333","6500200","三重區"
"241026","066-VK","2018/03/17 19:39:42","新北市三重區文化南路65巷40號","121.498993333333","25.06068","6500200","三重區"
"241003","091-VK","2018/03/17 19:39:32","新北市三重區仁義街238號","121.49441","25.0853833333333","6500200","三重區"
"241022","267-UM","2018/03/17 19:39:23","新北市三重區中正北路154號","121.484805","25.0658566666667","6500200","三重區"
"241013","270-UM","2018/03/17 19:39:35","新北市三重區仁愛街119號","121.495616666667","25.0745616666667","6500200","三重區"
"241025","271-UM","2018/03/17 19:39:37","新北市三重區頂崁街206巷1弄2號","121.47705","25.0669166666667","6500200","三重區"
"241007","398-BY","2018/03/17 19:39:10","新北市三重區仁美街61號","121.486753333333","25.0783966666667","6500200","三重區"
"241020","413-TH","2018/03/17 19:39:30","新北市三重區自強路三段43巷19號","121.48765","25.0729283333333","6500200","三重區"
"241030","480-VK","2018/03/17 19:39:25","新北市三重區新興路12號","121.49256","25.053085","6500200","三重區"
"241014","543-UM","2018/03/17 19:39:37","新北市三重區河邊北街80號","121.504268333333","25.068745","6500200","三重區"
"241023","545-UM","2018/03/17 19:39:34","新北市三重區忠孝路三段99巷11號","121.479761666667","25.0642916666667","6500200","三重區"
"241019","KEA-2593","2018/03/17 19:39:34","新北市三重區六張街194巷1弄2號","121.488525","25.0680183333333","6500200","三重區"
"241006","AAD-863","2018/03/17 19:39:24","新北市三重區聯華街96號","121.48554","25.0752116666667","6500200","三重區"
"241035","743-BX","2018/03/17 19:39:33","新北市三重區正義北路61-2號","121.497476666667","25.0645366666667","6500200","三重區"
"241012","941-UM","2018/03/17 19:39:32","新北市三重區仁義街15號","121.50025","25.075825","6500200","三重區"
"241029","942-UM","2018/03/17 19:39:32","新北市三重區光明路122號","121.492866666667","25.0558633333333","6500200","三重區"
"235066","003-UY","2018/03/17 19:39:32","新北市中和區景新街73巷8號","121.505488333333","24.9987333333333","6500300","中和區"
"235064","005-UY","2018/03/17 19:39:31","新北市中和區南山路81巷68號","121.504128333333","24.9977933333333","6500300","中和區"
"235063","006-UY","2018/03/17 19:39:29","新北市中和區連城路176號","121.493171666667","24.9970433333333","6500300","中和區"
"235056","096-UM","2018/03/17 19:39:31","新北市中和區員山路581巷2-10號","121.477065","25.008715","6500300","中和區"
"235039","097-UM","2018/03/17 19:39:37","新北市中和區秀峰街103巷5弄2號","121.52031","24.989705","6500300","中和區"
"235065","098-UM","2018/03/17 19:39:35","新北市中和區永和路7號","121.499335","25.0038933333333","6500300","中和區"
"235040","150-BY","2018/03/17 19:39:40","新北市中和區保健路46巷26弄24號","121.507936666667","24.9955966666667","6500300","中和區"
"235058","151-BY","2018/03/17 19:39:34","新北市中和區連城路376號","121.481443333333","24.995215","6500300","中和區"
"235055","183-VK","2018/03/17 19:39:32","新北市中和區中山路三段179巷2號","121.473193333333","25.0058366666667","6500300","中和區"
"235038","185-VK","2018/03/17 19:39:36","新北市中和區大智街55巷30弄32號","121.521595","24.9932033333333","6500300","中和區"
"235049","186-VK","2018/03/17 19:39:33","新北市中和區安平路14號","121.509223333333","24.9941316666667","6500300","中和區"
"235067","255-BX","2018/03/17 19:39:40","新北市中和區新生街186巷1弄18號","121.483345","24.99897","6500300","中和區"
"235044","293-VK","2018/03/17 19:39:41","新北市中和區南山路312號","121.507915","24.9868266666667","6500300","中和區"
"235072","301-VK","2018/03/17 19:39:39","新北市中和區錦和路95號","121.490105","24.9956733333333","6500300","中和區"
"235043","352-BY","2018/03/17 19:39:37","新北市中和區景平路336號","121.511856666667","24.992895","6500300","中和區"
"235068","377-QA","2018/03/17 19:39:25","新北市中和區中和路53號","121.500525","25.001435","6500300","中和區"
"235061","378-QA","2018/03/17 19:39:31","新北市中和區員山路220號","121.481318333333","25.0010066666667","6500300","中和區"
"235071","269-TV","2018/03/17 19:39:25","新北市中和區中正路839巷29號","121.483638333333","25.0023566666667","6500300","中和區"
"235050","4979-A6","2018/03/17 19:39:25","新北市中和區錦和路350-1號","121.490091666667","24.99352","6500300","中和區"
"235042","551-UM","2018/03/17 19:39:37","新北市中和區中和路262巷35-4號","121.509698333333","24.9993333333333","6500300","中和區"
"235070","558-UM","2018/03/17 19:39:40","新北市中和區景平路652號","121.497645","25.00043","6500300","中和區"
"235045","565-BX","2018/03/17 19:39:34","新北市中和區景新街493號","121.513813333333","24.9871033333333","6500300","中和區"
"235054","640-BX","2018/03/17 19:39:32","新北市中和區國光街107巷4弄16號","121.470126666667","24.9993216666667","6500300","中和區"
"235060","647-TV","2018/03/17 19:39:29","新北市中和區新生街114巷37弄12號","121.482208333333","25.0018333333333","6500300","中和區"
"235047","732-UM","2018/03/17 19:39:31","新北市中和區景平路371號","121.504275","24.9931616666667","6500300","中和區"
"235046","733-UM","2018/03/17 19:39:28","新北市中和區忠孝街136號","121.512046666667","24.9867433333333","6500300","中和區"
"235057","801-TS","2018/03/17 19:39:41","新北市中和區員山路252號","121.481343333333","25.0015616666667","6500300","中和區"
"235041","802-TS","2018/03/17 19:39:32","新北市中和區永貞路227號","121.51346","25.0037316666667","6500300","中和區"
"235052","805-TS","2018/03/17 19:39:32","新北市中和區華新街206巷25號","121.505931666667","24.9828316666667","6500300","中和區"
"235048","896-TW","2018/03/17 19:39:27","新北市中和區忠孝街2-6號","121.509108333333","24.98297","6500300","中和區"
"235053","911-UM","2018/03/17 19:39:29","新北市中和區德光路151號","121.46786","25.0021816666667","6500300","中和區"
"235051","157-BY","2018/03/17 19:39:31","新北市中和區景安路208巷33號","121.50241","24.99245","6500300","中和區"
"235037","AAC-213","2018/03/17 19:39:30","新北市中和區秀朗路三段50巷2-1號","121.52572","24.9955783333333","6500300","中和區"
"235059","AAC-215","2018/03/17 19:39:43","新北市中和區錦和路203巷1號","121.491063333333","24.9904033333333","6500300","中和區"
"220068","013-TV","2018/03/17 19:39:30","新北市板橋區中山路二段507號","121.482661666667","25.0212483333333","6500100","板橋區"
"220065","072-UY","2018/03/17 19:39:25","新北市板橋區民族路222巷13號","121.468655","25.0068066666667","6500100","板橋區"
"220086","073-UY","2018/03/17 19:39:38","新北市板橋區中正路95號","121.45643","25.0145383333333","6500100","板橋區"
"220069","AAD-861","2018/03/17 19:39:33","新北市板橋區南雅南路二段1-1號","121.454758333333","25.00364","6500100","板橋區"
"247004","337-TH","2018/03/17 19:39:42","新北市蘆洲區長安街98巷22號","121.46309","25.0818666666667","6501400","蘆洲區"
"247008","056-VK","2018/03/17 19:39:41","新北市蘆洲區中山一路115號","121.47621","25.0815633333333","6501400","蘆洲區"
"226004","312-R5","2018/03/17 19:39:27","新北市平溪區靜安路三段369號","121.780656666667","25.0461433333333","6502400","平溪區"
"228001","212-TW","2018/03/17 19:39:26","新北市貢寮區真理里延平街61號","121.924573333333","25.055675","6502600","貢寮區"
"228003","828-UM","2018/03/17 19:39:28","新北市貢寮區真理里美艷山街15-3號","121.923701666667","25.0679833333333","6502600","貢寮區"
"224010","AGQ-8101","2018/03/17 19:39:39","新北市瑞芳區基山街207號","121.84264","25.107375","6501200","瑞芳區"
"224002","639-TC","2018/03/17 19:39:35","新北市瑞芳區三爪子坑路13巷211號","121.815976666667","25.1059983333333","6501200","瑞芳區"
"227010","642-TC","2018/03/17 19:39:38","新北市雙溪區新基里新基北街18號","121.86716","25.0386466666667","6502500","雙溪區"
"227002","400-TW","2018/03/17 19:39:37","新北市雙溪區雙溪里太平路8號","121.86414","25.03511","6502500","雙溪區"
"253006","295-VK","2018/03/17 19:39:32","新北市石門區小坑9號","121.594225","25.2887533333333","6502200","石門區"
"222001","KEA-2212","2018/03/17 19:39:31","新北市深坑區北深路二段196號","121.613171666667","25.00165","6501800","深坑區"
"208003","665-BX","2018/03/17 19:39:42","新北市金山區中山路151號","121.63871","25.2201766666667","6502700","金山區"
"208001","761-BX","2018/03/17 19:39:43","新北市金山區南勢110號","121.625515","25.2201166666667","6502700","金山區"
"251009","008-UM","2018/03/17 19:39:43","新北市淡水區中山北路一段198巷7號","121.445163333333","25.1792966666667","6501000","淡水區"
"251004","009-UM","2018/03/17 19:39:37","新北市淡水區民權路13-5號","121.459698333333","25.1415283333333","6501000","淡水區"
"251001","011-UM","2018/03/17 19:39:37","新北市淡水區民權路49號","121.459765","25.139675","6501000","淡水區"
"251013","179-VK","2018/03/17 19:39:33","新北市淡水區頂田寮11-3號","121.4629","25.2138733333333","6501000","淡水區"
"251014","180-VK","2018/03/17 19:39:36","新北市淡水區北勢子20號","121.476115","25.2314166666667","6501000","淡水區"
"251008","181-VK","2018/03/17 19:39:43","新北市淡水區中正路一段8巷1弄3號","121.428161666667","25.1770766666667","6501000","淡水區"
"251015","182-VK","2018/03/17 19:39:23","新北市淡水區北新路三段146號","121.489553333333","25.1905166666667","6501000","淡水區"
"251010","413-VK","2018/03/17 19:39:37","新北市淡水區崁頂92號","121.429405","25.20201","6501000","淡水區"
"251016","442-VK","2018/03/17 19:39:27","新北市淡水區淡金路三段350巷18號","121.450775","25.2083616666667","6501000","淡水區"
"251005","443-VK","2018/03/17 19:39:30","新北市淡水區原德路108巷2號","121.443363333333","25.1734766666667","6501000","淡水區"
"251006","561-UM","2018/03/17 19:39:29","新北市淡水區中山北路一段207巷58號","121.442173333333","25.1793066666667","6501000","淡水區"
"251007","577-R6","2018/03/17 19:39:32","新北市淡水區中正東路一段113號","121.454153333333","25.1600283333333","6501000","淡水區"
"251011","650-BX","2018/03/17 19:39:37","新北市淡水區八勢一街7-19號","121.460696666667","25.1578433333333","6501000","淡水區"
"207003","550-UM","2018/03/17 19:39:30","新北市萬里區大鵬里下社36號","121.649196666667","25.2165083333333","6502800","萬里區"
"207004","225-TW","2018/03/17 19:39:22","新北市萬里區萬里里瑪鋉路21號","121.687245","25.1752816666667","6502800","萬里區"
"252002","178-VK","2018/03/17 19:39:28","新北市三芝區三民街29-1號","121.50448","25.2585266666667","6502100","三芝區"
"252001","292-VK","2018/03/17 19:39:28","新北市三芝區公正街9號","121.499706666667","25.257495","6502100","三芝區"
"237004","KEA-2597","2018/03/17 19:39:37","新北市三峽區插角233號","121.4129","24.8685583333333","6500900","三峽區"
"237007","153-BY","2018/03/17 19:39:30","新北市三峽區二鬮路136巷24弄1號","121.355891666667","24.9099583333333","6500900","三峽區"
"237009","210-TH","2018/03/17 19:39:26","新北市三峽區中園街113號","121.367736666667","24.924545","6500900","三峽區"
"237013","252-BX","2018/03/17 19:39:26","新北市三峽區介壽路二段93號","121.392091666667","24.935415","6500900","三峽區"
"237012","275-BY","2018/03/17 19:39:29","新北市三峽區光明路39-1號","121.374365","24.9299783333333","6500900","三峽區"
"237008","302-VK","2018/03/17 19:39:41","新北市三峽區大同路132巷12號","121.373788333333","24.927325","6500900","三峽區"
"237014","433-BY","2018/03/17 19:39:32","新北市三峽區添福59-3號","121.374656666667","24.9033316666667","6500900","三峽區"
"237006","5529-G3","2018/03/17 19:39:34","新北市三峽區中正路一段336巷15弄2號","121.369946666667","24.9249383333333","6500900","三峽區"
"237005","AKY-6261","2018/03/17 19:39:41","新北市三峽區中山路169巷9號","121.364341666667","24.935975","6500900","三峽區"
"236073","105-UM","2018/03/17 19:39:23","新北市土城區學士路58號","121.451306666667","24.9807483333333","6501300","土城區"
"236043","107-UM","2018/03/17 19:39:39","新北市土城區學士路11號","121.453768333333","24.9829466666667","6501300","土城區"
"236079","166-UM","2018/03/17 19:39:44","新北市土城區中州路52巷2弄22號","121.412538333333","24.9579716666667","6501300","土城區"
"236031","253-BX","2018/03/17 19:39:38","新北市土城區福祥街22號","121.440916666667","24.9800633333333","6501300","土城區"
"236026","269-VK","2018/03/17 19:39:33","新北市土城區中央路二段61巷28號","121.443475","24.9787583333333","6501300","土城區"
"236038","271-VK","2018/03/17 19:39:43","新北市土城區清水路98巷3弄32號","121.458506666667","24.980835","6501300","土城區"
"236023","401-BY","2018/03/17 19:39:40","新北市土城區峰廷街3號","121.469151666667","24.98732","6501300","土城區"
"236063","752-BX","2018/03/17 19:39:32","新北市土城區延平街22號","121.468278333333","24.9912983333333","6501300","土城區"
"236049","913-UM","2018/03/17 19:39:44","新北市土城區明德路一段97號","121.465575","24.982955","6501300","土城區"
"236055","AAC-216","2018/03/17 19:39:42","新北市土城區學府路一段60號","121.457191666667","24.988475","6501300","土城區"
"242029","705-TV","2018/03/17 19:39:25","新北市新莊區三和路12-21號","121.442175","25.038465","6500500","新莊區"
"242036","415-TV","2018/03/17 19:39:38","新北市新莊區民安路181巷2弄9號","121.426545","25.022685","6500500","新莊區"
"242023","362-BY","2018/03/17 19:39:32","新北市新莊區化成路106號","121.465211666667","25.0444933333333","6500500","新莊區"
"242031","135-UY","2018/03/17 19:39:25","新北市新莊區新泰路215號","121.446438333333","25.0388133333333","6500500","新莊區"
"242004","176-VK","2018/03/17 19:39:46","新北市新莊區化成路29巷95號","121.461071666667","25.044035","6500500","新莊區"
"242013","351-TH","2018/03/17 19:39:42","新北市新莊區中誠街121巷4號","121.449438333333","25.0473183333333","6500500","新莊區"
"238015","755-BX","2018/03/17 19:39:40","新北市樹林區日新街89號","121.421646666667","24.99033","6500700","樹林區"
"238023","601-UM","2018/03/17 19:39:33","新北市樹林區三福街166號","121.404738333333","25.016015","6500700","樹林區"
"238019","599-UM","2018/03/17 19:39:33","新北市樹林區中山路二段249巷2號","121.401898333333","24.9757433333333","6500700","樹林區"
"238018","571-TV","2018/03/17 19:37:17","新北市樹林區中山路三段214號","121.379773333333","24.96758","6500700","樹林區"
"238024","5061-A6","2018/03/17 19:39:34","新北市樹林區育德街78-1號","121.387521666667","24.968135","6500700","樹林區"
"238022","KEA-2213","2018/03/17 19:39:30","新北市樹林區名園街51巷6弄44號","121.420953333333","24.9781383333333","6500700","樹林區"
"238021","KEA-2539","2018/03/17 19:39:41","新北市樹林區佳園路三段225號","121.3851","24.9461416666667","6500700","樹林區"
"238025","303-VK","2018/03/17 19:39:43","新北市樹林區鎮前街275-3號","121.419111666667","24.9856866666667","6500700","樹林區"
"238017","283-BY","2018/03/17 19:39:30","新北市樹林區保安街二段22號","121.415531666667","25.0015583333333","6500700","樹林區"
"238014","282-BY","2018/03/17 19:39:35","新北市樹林區保安二街40號","121.424661666667","24.9950266666667","6500700","樹林區"
"238020","268-VK","2018/03/17 19:39:45","新北市板橋區金門街215巷119號","121.43421","24.9870316666667","6500700","樹林區"
"238026","172-UY","2018/03/17 19:39:35","新北市樹林區柑園街一段357號","121.388895","24.95594","6500700","樹林區"
"239007","AAC-297","2018/03/17 19:39:31","新北市鶯歌區大湖路109巷9號","121.3414","24.9635566666667","6500800","鶯歌區"
"239006","891-R6","2018/03/17 19:39:42","新北市鶯歌區中正一路478號","121.36648","24.9568033333333","6500800","鶯歌區"
"239002","359-BY","2018/03/17 19:39:37","新北市鶯歌區中山路7號","121.352956666667","24.9570166666667","6500800","鶯歌區"
"221036","130-UY","2018/03/17 19:39:24","新北市汐止區汐萬路一段256巷1號","121.651801666667","25.0747983333333","6501100","汐止區"
"221010","269-BY","2018/03/17 19:39:27","新北市汐止區汐萬路一段411號","121.649211666667","25.0794566666667","6501100","汐止區"
"221012","278-VK","2018/03/17 19:39:35","新北市汐止區大同路三段392號","121.681625","25.0715866666667","6501100","汐止區"
"221023","279-VK","2018/03/17 19:39:44","新北市汐止區中興路286巷1號","121.628356666667","25.0695283333333","6501100","汐止區"
"221032","280-BY","2018/03/17 19:39:42","新北市汐止區橫科路119號","121.620053333333","25.0503416666667","6501100","汐止區"
"221027","281-BY","2018/03/17 19:39:25","新北市汐止區忠孝東路9號","121.658243333333","25.06594","6501100","汐止區"
"221029","298-VK","2018/03/17 19:39:26","新北市汐止區康寧街901號","121.651441666667","25.07492","6501100","汐止區"
"221021","299-VK","2018/03/17 19:39:30","新北市汐止區南興路100號","121.653261666667","25.0586283333333","6501100","汐止區"
"221031","353-TW","2018/03/17 19:39:33","新北市汐止區康寧街901號","121.650836666667","25.0752383333333","6501100","汐止區"
"221008","129-UY","2018/03/17 19:39:29","新北市汐止區康寧街141巷1弄1號","121.621376666667","25.0670683333333","6501100","汐止區"
"221025","623-UM","2018/03/17 19:39:28","新北市汐止區仁愛路119巷24號","121.662121666667","25.06463","6501100","汐止區"
"221038","646-BX","2018/03/17 19:39:44","新北市汐止區忠孝東路258號","121.663103333333","25.0676933333333","6501100","汐止區"
"221033","647-BX","2018/03/17 19:39:41","台北市南港區舊莊街二段9號","121.62493","25.0377283333333","6501100","汐止區"
"221002","707-TV","2018/03/17 19:39:34","新北市汐止區工建路504號","121.633233333333","25.05832","6501100","汐止區"
"220079","145-BY","2018/03/17 19:39:47","新北市板橋區建國街99號","121.459841666667","25.0173716666667","6500100","板橋區"
"220080","200-UY","2018/03/17 19:39:30","新北市板橋區大觀路二段37巷294號","121.450141666667","25.001755","6500100","板橋區"
"220106","KEA-2550","2018/03/17 19:39:27","新北市板橋區文化路二段366號","121.473203333333","25.03078","6500100","板橋區"
"220082","610-BX","2018/03/17 19:39:36","新北市板橋區溪崑一街25號","121.430658333333","24.9918716666667","6500100","板橋區"
"220101","245-BX","2018/03/17 19:39:37","新北市板橋區萬板路48號","121.471971666667","25.0227066666667","6500100","板橋區"
"220098","257-TC","2018/03/17 19:39:41","新北市板橋區四維路279巷63號","121.460668333333","25.02734","6500100","板橋區"
"220091","267-BY","2018/03/17 19:39:26","新北市板橋區懷德街139巷20弄1號","121.480146666667","25.0307516666667","6500100","板橋區"
"220056","276-BY","2018/03/17 19:39:43","新北市板橋區四川路二段47巷3弄2號","121.454196666667","24.99464","6500100","板橋區"
"220072","277-BY","2018/03/17 19:39:42","新北市板橋區金門街253巷17弄9號","121.433473333333","24.989","6500100","板橋區"
"220094","280-UM","2018/03/17 19:39:35","新北市板橋區宏國路96號","121.470065","25.0319683333333","6500100","板橋區"
"220064","282-UM","2018/03/17 19:39:30","新北市板橋區民權路45號","121.461845","25.0113666666667","6500100","板橋區"
"220071","283-VK","2018/03/17 19:39:28","新北市板橋區信義路98號","121.458125","24.992815","6500100","板橋區"
"220053","285-VK","2018/03/17 19:39:39","新北市板橋區民享街97號","121.477141666667","25.016045","6500100","板橋區"
"220083","286-VK","2018/03/17 19:39:28","新北市板橋區龍興街63巷47號","121.441678333333","25.0018833333333","6500100","板橋區"
"220081","287-VK","2018/03/17 19:39:32","新北市板橋區大觀路一段29巷179弄23號","121.449835","25.004465","6500100","板橋區"
"220090","288-VK","2018/03/17 19:39:34","新北市板橋區長江路一段48巷9號","121.45924","25.0284333333333","6500100","板橋區"
"220061","293-UM","2018/03/17 19:39:32","新北市板橋區中山路一段265巷16號","121.468666666667","25.01468","6500100","板橋區"
"220062","295-UM","2018/03/17 19:39:29","新北市板橋區三民路二段81巷23號","121.480391666667","25.01676","6500100","板橋區"
"220084","296-UM","2018/03/17 19:39:38","新北市板橋區滿平二街2巷1弄2號","121.42516","24.9861966666667","6500100","板橋區"
"220075","303-R5","2018/03/17 19:39:43","新北市板橋區大勇街10巷21號","121.453388333333","25.01744","6500100","板橋區"
"220092","307-R5","2018/03/17 19:39:41","新北市板橋區文化路一段379號","121.467158333333","25.0215583333333","6500100","板橋區"
"220089","487-VK","2018/03/17 19:39:42","新北市板橋區雨農路6號","121.462376666667","25.0249133333333","6500100","板橋區"
"220088","491-VK","2018/03/17 19:39:31","新北市板橋區民治街30號","121.478028333333","25.034205","6500100","板橋區"
"220035","560-BX","2018/03/17 19:39:40","新北市板橋區金華街85巷16號","121.458628333333","25.0212966666667","6500100","板橋區"
"220103","561-BX","2018/03/17 19:39:43","新北市板橋區陽明街27巷12號","121.46545","25.0212566666667","6500100","板橋區"
"220063","609-BX","2018/03/17 19:39:40","新北市板橋區中山路二段422-9號","121.483466666667","25.0213616666667","6500100","板橋區"
"220057","686-BX","2018/03/17 19:39:09","新北市板橋區和平路22-1號","121.46023","24.9945283333333","6500100","板橋區"
"220077","687-BX","2018/03/17 19:39:43","新北市板橋區僑中一街138號","121.44536","25.011835","6500100","板橋區"
"220093","689-BX","2018/03/17 19:39:40","新北市板橋區長江路一段101號","121.459421666667","25.0296433333333","6500100","板橋區"
"220054","741-BX","2018/03/17 19:39:39","新北市板橋區忠孝路196-2號","121.46553","25.0026833333333","6500100","板橋區"
"220102","KEA-2699","2018/03/17 19:39:35","新北市板橋區松柏街36巷22號","121.475578333333","25.02921","6500100","板橋區"
"220055","827-TW","2018/03/17 19:39:38","新北市板橋區國慶路149巷13弄12-4號","121.460303333333","24.9970816666667","6500100","板橋區"
"220067","830-TW","2018/03/17 19:39:28","新北市板橋區漢生東路279巷10弄11號","121.472153333333","25.008715","6500100","板橋區"
"220096","831-TW","2018/03/17 19:39:27","新北市板橋區民生路二段234巷24弄2號","121.470213333333","25.0225283333333","6500100","板橋區"
"220074","895-R6","2018/03/17 19:39:29","新北市板橋區館前西路150-5號","121.455675","25.00869","6500100","板橋區"
"220073","985-R7","2018/03/17 19:39:29","新北市板橋區國光路31巷32號","121.4578","25.0184366666667","6500100","板橋區"
"220097","AAC-210","2018/03/17 19:39:26","新北市板橋區幸福路32巷4弄16號","121.461553333333","25.0214466666667","6500100","板橋區"
"220070","AAC-253","2018/03/17 19:39:37","新北市板橋區民族路229號","121.469766666667","25.0071416666667","6500100","板橋區"
